Time,ClimberA1,ClimberA2,FRpos,FRCurrent,FRspeed,FRsetpoint,FRApos,FRACurrent,FREncpos,FREncSetpoint,FREncSpeed,FLpos,FLCurrent,FLspeed,FLsetpoint,FLApos,FLACurrent,FLEncpos,FLEncSetpoint,FLEncSpeed,BRpos,BRCurrent,BRspeed,BRsetpoint,BRApos,BRACurrent,BREncpos,BREncSetpoint,BREncSpeed,BLpos,BLCurrent,BLspeed,BLsetpoint,BLApos,BLACurrent,BLEncpos,BLEncSetpoint,BLEncSpeed,navx_Pitch,navx_Roll,navx_Yaw,navx_XAcc,navx_YAcc,navx_ZAcc,navx_Temp,navx_Bar,navx_Alt,navx_XDis,navx_YDis,GearPlacerState,ShootOutputV,ShootOutputCurrent,ShootEncPos,ShootEncVelocity,ShootSpeed,ShootSetpoint,CarouselSetpoint,CarouselCurrent,
0.18477199999999722,0.0,0.0,1345.0,2.5,217.5,767.8480911224276,0.0,0.125,0.772704999,4.8677655336276215,0.0,1298.0,8.75,-262.5,-916.9086045019124,0.0,0.0,0.48706049700000004,4.909441039765662,0.0,-1347.0,5.625,60.0,767.8480911224276,0.0,0.0,3.404540667,0.06459200840875697,0.0,-149.0,3.25,-247.5,-916.9086045019124,0.0,0.125,1.646728347,0.0542658070059343,0.0,0.41999998688697815,0.8299999833106995,-1.7699999809265137,0.30255126953125,-0.03515625,0.93524169921875,33.13999938964844,0.0,290.0,0.885772705078125,0.048431396484375,Closing,0.0,0.0,0.0,0.0,0.0,0.0,0.0,0.0,
0.24254999999998836,0.0,0.0,1399.0,1.75,300.0,0.0,0.0,0.125,0.7653807810000001,0.01,0.0,1226.0,5.875,-435.0,-0.0,0.0,0.25,0.47607417,0.01,0.0,-1318.0,3.875,180.0,0.0,0.0,0.0,3.4204098060000003,0.01,0.04272460499999964,-209.0,1.875,-360.0,-0.0,0.0,0.125,1.64794905,0.01,-0.0024414059999999793,0.4099999964237213,1.2599999904632568,-1.5,0.04461669921875,0.01092529296875,0.78118896484375,33.119998931884766,0.0,27.0,0.900665283203125,0.0488739013671875,Closing,0.0,0.0,0.0,0.0,0.0,0.0,0.0,0.0,
0.3746519999999728,0.0,0.0,1439.0,0.125,232.5,0.0,0.0,0.125,0.783691326,0.01,0.0,1182.0,0.0,-270.0,-0.0,0.0,0.0,0.46386714,0.01,0.0,-1275.0,0.125,262.5,0.0,0.0,0.125,3.4143062910000004,0.01,0.0,-260.0,0.125,-337.5,-0.0,0.0,0.125,1.646728347,0.01,0.0,0.4699999988079071,0.6200000047683716,-1.1200000047683716,-0.15081787109375,-0.048095703125,1.29058837890625,33.119998931884766,0.0,-163.0,0.8963470458984375,0.0487823486328125,Closing,0.0,0.0,0.0,0.0,0.0,0.0,0.0,0.0,
0.5061019999999844,0.0,0.0,1477.0,0.0,210.0,0.0,0.0,0.125,0.7922362470000001,0.01,0.0,1131.0,0.0,-277.5,-0.0,0.0,0.0,0.462646437,0.01,0.0,-1257.0,0.375,82.5,0.0,0.0,0.125,3.3764644980000003,0.01,0.0,-309.0,0.0,-277.5,-0.0,0.0,0.25,1.645507644,0.01,0.0,0.38999998569488525,0.03999999910593033,-0.6100000143051147,-0.0335693359375,0.02294921875,0.9453125,33.119998931884766,0.0,-34.0,0.8784637451171875,0.0477142333984375,Closing,0.0,0.0,0.0,0.0,0.0,0.0,0.0,0.0,
0.6428699999999954,0.0,0.0,1501.0,0.0,127.5,0.0,0.0,0.25,0.7922362470000001,0.01,0.0,1104.0,0.0,-127.5,-0.0,0.0,0.0,0.46752924900000004,0.01,0.0,-1238.0,0.375,120.0,0.0,0.0,0.0,3.3618160620000004,0.01,0.0,-335.0,0.125,-120.0,-0.0,0.0,0.125,1.645507644,0.01,0.0,0.3700000047683716,-0.5,-0.5400000214576721,-0.12335205078125,-0.011474609375,1.02056884765625,33.119998931884766,0.0,-114.0,0.8505096435546875,0.047393798828125,Closing,0.0,0.0,0.0,0.0,0.0,0.0,0.0,0.0,
0.7661239999999816,0.0,0.0,1504.0,0.0,0.0,0.0,0.0,0.25,0.79345695,0.01,0.0,1098.0,0.0,0.0,-0.0,0.0,0.0,0.47241206100000005,0.01,0.0,-1231.0,0.375,22.5,0.0,0.0,0.0,3.3618160620000004,0.01,0.0,-344.0,0.125,-15.0,-0.0,0.0,0.125,1.645507644,0.01,0.0,0.3400000035762787,-0.75,-0.5,-0.00604248046875,0.01416015625,1.02471923828125,33.130001068115234,0.0,7.0,0.8227691650390625,0.047332763671875,Closing,0.0,0.0,0.0,0.0,0.0,0.0,0.0,0.0,
0.9088889999999956,0.0,0.0,1504.0,0.0,0.0,0.0,0.0,0.125,0.7922362470000001,0.01,0.0,1098.0,0.0,0.0,-0.0,0.0,0.0,0.477294873,0.01,0.0,-1224.0,0.375,15.0,0.0,0.0,0.0,3.354491844,0.01,0.0,-344.0,0.125,0.0,-0.0,0.0,0.25,1.646728347,0.01,0.0,0.33000001311302185,-0.5400000214576721,-0.5400000214576721,0.0145263671875,0.01068115234375,1.0230712890625,33.130001068115234,0.0,24.0,0.8251800537109375,0.047332763671875,Closing,0.0,0.0,0.0,0.0,0.0,0.0,0.0,0.0,
1.044112999999983,0.0,0.0,1504.0,0.0,0.0,0.0,0.0,0.125,0.79345695,0.01,0.0,1098.0,0.0,0.0,-0.0,0.0,0.0,0.477294873,0.01,0.0,-1223.0,0.375,0.0,0.0,0.0,0.0,3.3630367650000004,0.01,0.0,-344.0,0.125,0.0,-0.0,0.0,0.125,1.646728347,0.01,0.0,0.3199999928474426,-0.5199999809265137,-0.5099999904632568,-0.0164794921875,0.013916015625,1.03509521484375,33.130001068115234,0.0,-7.0,0.825653076171875,0.047332763671875,Closing,0.0,0.0,0.0,0.0,0.0,0.0,0.0,0.0,
1.1776669999999867,0.0,0.0,1504.0,0.0,0.0,0.0,0.0,0.25,0.7922362470000001,0.01,0.0,1098.0,0.0,0.0,-0.0,0.0,0.0,0.477294873,0.01,0.0,-1223.0,0.375,0.0,0.0,0.0,0.0,3.3630367650000004,0.01,0.0,-344.0,0.125,0.0,-0.0,0.0,0.125,1.644286941,0.01,0.0,0.3199999928474426,-0.5400000214576721,-0.5199999809265137,0.00250244140625,0.010986328125,1.02825927734375,33.130001068115234,0.0,12.0,0.825653076171875,0.047332763671875,Closing,0.0,0.0,0.0,0.0,0.0,0.0,0.0,0.0,
1.294664999999979,0.0,0.0,1504.0,0.0,0.0,0.0,0.0,0.25,0.7922362470000001,0.01,0.0,1098.0,0.0,0.0,-0.0,0.0,0.0,0.477294873,0.01,0.0,-1223.0,0.375,0.0,0.0,0.0,0.0,3.3618160620000004,0.01,0.0,-344.0,0.125,0.0,-0.0,0.0,0.25,1.645507644,0.01,0.0,0.3100000023841858,-0.47999998927116394,-0.5299999713897705,-0.0072021484375,0.00958251953125,1.0250244140625,33.130001068115234,0.0,1.0,0.825653076171875,0.047332763671875,Closing,0.0,0.0,0.0,0.0,0.0,0.0,0.0,0.0,
1.4431419999999926,0.0,0.0,1504.0,0.0,0.0,0.0,0.0,0.25,0.79345695,0.01,0.0,1098.0,0.0,0.0,-0.0,0.0,0.0,0.47851557600000005,0.01,0.0,-1223.0,0.375,0.0,0.0,0.0,0.0,3.3618160620000004,0.01,0.0,-344.0,0.125,0.0,-0.0,0.0,0.125,1.6564939710000002,0.01,0.0,0.30000001192092896,-0.46000000834465027,-0.5400000214576721,0.0,0.00909423828125,1.020751953125,33.130001068115234,0.0,8.0,0.825653076171875,0.047332763671875,Closing,0.0,0.0,0.0,0.0,0.0,0.0,0.0,0.0,
1.5732089999999734,0.0,0.0,1504.0,0.0,0.0,0.0,0.0,0.25,0.799560465,0.01,0.0,1098.0,0.0,0.0,-0.0,0.0,0.0,0.477294873,0.01,0.0,-1223.0,0.375,0.0,0.0,0.0,0.0,3.3618160620000004,0.01,0.0,-344.0,0.125,0.0,-0.0,0.0,0.125,1.646728347,0.01,0.0,0.28999999165534973,-0.4399999976158142,-0.5400000214576721,-0.0050048828125,0.00750732421875,1.0220947265625,33.130001068115234,0.0,2.0,0.825653076171875,0.047332763671875,Closing,0.0,0.0,0.0,0.0,0.0,0.0,0.0,0.0,
1.707880999999994,0.0,0.0,1504.0,0.0,0.0,0.0,0.0,0.25,0.79345695,0.01,0.0,1098.0,0.0,0.0,-0.0,0.0,0.0,0.47851557600000005,0.01,0.0,-1223.0,0.375,0.0,0.0,0.0,0.0,3.3630367650000004,0.01,0.0,-344.0,0.125,0.0,-0.0,0.0,0.125,1.645507644,0.01,0.0,0.28999999165534973,-0.41999998688697815,-0.550000011920929,-0.0035400390625,0.00732421875,1.02374267578125,33.130001068115234,0.0,3.0,0.825653076171875,0.047332763671875,Closing,0.0,0.0,0.0,0.0,0.0,0.0,0.0,0.0,
1.841795999999973,0.0,0.0,1504.0,0.0,0.0,0.0,0.0,0.25,0.7910155440000001,0.01,0.0,1098.0,0.0,0.0,-0.0,0.0,0.0,0.477294873,0.01,0.0,-1223.0,0.375,0.0,0.0,0.0,0.0,3.3618160620000004,0.01,0.0,-344.0,0.125,0.0,-0.0,0.0,0.125,1.646728347,0.01,0.0,0.28999999165534973,-0.4099999964237213,-0.550000011920929,-4.8828125E-4,0.00140380859375,1.02691650390625,33.13999938964844,0.0,6.0,0.825653076171875,0.047332763671875,Closing,0.0,0.0,0.0,0.0,0.0,0.0,0.0,0.0,
1.9725380000000006,0.0,0.0,1504.0,0.0,0.0,0.0,0.0,0.25,0.794677653,0.01,0.0,1098.0,0.0,0.0,-0.0,0.0,0.0,0.477294873,0.01,0.0,-1223.0,0.375,0.0,0.0,0.0,0.0,3.3618160620000004,0.01,0.0,-344.0,0.125,0.0,-0.0,0.0,0.25,1.645507644,0.01,0.0,0.2800000011920929,-0.4000000059604645,-0.550000011920929,-0.0030517578125,0.0054931640625,1.02728271484375,33.13999938964844,0.0,4.0,0.825653076171875,0.047332763671875,Closing,0.0,0.0,0.0,0.0,0.0,0.0,0.0,0.0,
2.111767999999982,0.0,0.0,1504.0,0.0,0.0,0.0,0.0,0.25,0.7922362470000001,0.01,0.0,1098.0,0.0,0.0,-0.0,0.0,0.0,0.47851557600000005,0.01,0.0,-1223.0,0.375,0.0,0.0,0.0,0.0,3.3666988740000003,0.01,0.0,-344.0,0.125,0.0,-0.0,0.0,0.125,1.645507644,0.01,0.0,0.2800000011920929,-0.3799999952316284,-0.5600000023841858,-0.0037841796875,0.0040283203125,1.0234375,33.13999938964844,0.0,3.0,0.825653076171875,0.047332763671875,Closing,0.0,0.0,0.0,0.0,0.0,0.0,0.0,0.0,
2.241649999999994,0.0,0.0,1504.0,0.0,0.0,0.0,0.0,0.25,0.79345695,0.01,0.0,1098.0,0.0,0.0,-0.0,0.0,0.0,0.47851557600000005,0.01,0.0,-1223.0,0.375,0.0,0.0,0.0,0.0,3.3618160620000004,0.01,0.0,-344.0,0.125,0.0,-0.0,0.0,0.125,1.646728347,0.01,0.0,0.27000001072883606,-0.3700000047683716,-0.5600000023841858,-4.8828125E-4,7.9345703125E-4,1.02252197265625,33.13999938964844,0.0,6.0,0.825653076171875,0.047332763671875,Closing,0.0,0.0,0.0,0.0,0.0,0.0,0.0,0.0,
2.3633949999999895,0.0,0.0,1504.0,0.0,0.0,0.0,0.0,0.25,0.797119059,0.01,0.0,1098.0,0.0,0.0,-0.0,0.0,0.0,0.477294873,0.01,0.0,-1223.0,0.375,0.0,0.0,0.0,0.0,3.3618160620000004,0.01,0.0,-344.0,0.125,0.0,-0.0,0.0,0.25,1.646728347,0.01,0.0,0.27000001072883606,-0.36000001430511475,-0.5699999928474426,-0.0052490234375,0.002685546875,1.02655029296875,33.13999938964844,0.0,1.0,0.825653076171875,0.047332763671875,Closing,0.0,0.0,0.0,0.0,0.0,0.0,0.0,0.0,
2.508328999999998,0.0,0.0,1504.0,0.0,0.0,0.0,0.0,0.125,0.7922362470000001,0.01,0.0,1098.0,0.0,0.0,-0.0,0.0,0.0,0.47607417,0.01,0.0,-1223.0,0.375,0.0,0.0,0.0,0.0,3.3618160620000004,0.01,0.0,-344.0,0.125,0.0,-0.0,0.0,0.25,1.646728347,0.01,0.0,0.27000001072883606,-0.3400000035762787,-0.5699999928474426,-0.00604248046875,0.005859375,1.0262451171875,33.13999938964844,0.0,0.0,0.825653076171875,0.047332763671875,Closing,0.0,0.0,0.0,0.0,0.0,0.0,0.0,0.0,
2.6432789999999806,0.0,0.0,1504.0,0.0,0.0,0.0,0.0,0.25,0.79345695,0.01,0.0,1098.0,0.0,0.0,-0.0,0.0,0.0,0.47851557600000005,0.01,0.0,-1223.0,0.5,0.0,0.0,0.0,0.0,3.3630367650000004,0.01,0.0,-344.0,0.125,0.0,-0.0,0.0,0.125,1.640624832,0.01,0.0,0.25999999046325684,-0.33000001311302185,-0.5699999928474426,-0.0045166015625,0.0072021484375,1.02294921875,33.13999938964844,0.0,1.0,0.825653076171875,0.047332763671875,Closing,0.0,0.0,0.0,0.0,0.0,0.0,0.0,0.0,
2.7742119999999995,0.0,0.0,1504.0,0.0,0.0,0.0,0.0,0.25,0.7922362470000001,0.01,0.0,1098.0,0.0,0.0,-0.0,0.0,0.0,0.47851557600000005,0.01,0.0,-1223.0,0.375,0.0,0.0,0.0,0.0,3.3605953590000004,0.01,0.0,-344.0,0.125,0.0,-0.0,0.0,0.25,1.646728347,0.01,0.0,0.27000001072883606,-0.33000001311302185,-0.5799999833106995,-0.00433349609375,0.00628662109375,1.02239990234375,33.15999984741211,0.0,1.0,0.825653076171875,0.047332763671875,Closing,0.0,0.0,0.0,0.0,0.0,0.0,0.0,0.0,
2.9092549999999755,0.0,0.0,1504.0,0.0,0.0,0.0,0.0,0.125,0.79345695,0.01,0.0,1098.0,0.0,0.0,-0.0,0.0,0.0,0.47851557600000005,0.01,0.0,-1223.0,0.375,0.0,0.0,0.0,0.0,3.3618160620000004,0.01,0.0,-344.0,0.125,0.0,-0.0,0.0,0.125,1.645507644,0.01,0.0,0.25999999046325684,-0.3199999928474426,-0.5799999833106995,-0.00714111328125,0.00347900390625,1.02471923828125,33.15999984741211,0.0,-1.0,0.825653076171875,0.047332763671875,Closing,0.0,0.0,0.0,0.0,0.0,0.0,0.0,0.0,
3.0412759999999834,0.0,0.0,1504.0,0.0,0.0,0.0,0.0,0.25,0.79345695,0.01,0.0,1098.0,0.0,0.0,-0.0,0.0,0.0,0.477294873,0.01,0.0,-1223.0,0.375,0.0,0.0,0.0,0.0,3.3618160620000004,0.01,0.0,-344.0,0.125,0.0,-0.0,0.0,0.25,1.646728347,0.01,0.0,0.25999999046325684,-0.3199999928474426,-0.5899999737739563,-0.007568359375,0.00592041015625,1.018310546875,33.15999984741211,0.0,-1.0,0.825653076171875,0.047332763671875,Closing,0.0,0.0,0.0,0.0,0.0,0.0,0.0,0.0,
3.1728889999999956,0.0,0.0,1504.0,0.0,0.0,0.0,0.0,0.25,0.8032225740000001,0.01,0.0,1098.0,0.0,0.0,-0.0,0.0,0.0,0.47851557600000005,0.01,0.0,-1223.0,0.5,0.0,0.0,0.0,0.0,3.3618160620000004,0.01,0.0,-344.0,0.125,0.0,-0.0,0.0,0.125,1.645507644,0.01,0.0,0.25999999046325684,-0.3100000023841858,-0.5899999737739563,-0.005859375,0.00506591796875,1.02508544921875,33.15999984741211,0.0,0.0,0.825653076171875,0.047332763671875,Closing,0.0,0.0,0.0,0.0,0.0,0.0,0.0,0.0,
3.306709999999992,0.0,0.0,1504.0,0.0,0.0,0.0,0.0,0.25,0.79345695,0.01,0.0,1098.0,0.0,0.0,-0.0,0.0,0.0,0.477294873,0.01,0.0,-1223.0,0.375,0.0,0.0,0.0,0.0,3.3618160620000004,0.01,0.0,-344.0,0.125,0.0,-0.0,0.0,0.125,1.646728347,0.01,0.0,0.25999999046325684,-0.3100000023841858,-0.5899999737739563,-0.00457763671875,0.002685546875,1.02301025390625,33.150001525878906,0.0,0.0,0.825653076171875,0.047332763671875,Closing,0.0,0.0,0.0,0.0,0.0,0.0,0.0,0.0,
3.4413209999999963,0.0,0.0,1504.0,0.0,0.0,0.0,0.0,0.25,0.794677653,0.01,0.0,1098.0,0.0,0.0,-0.0,0.0,0.0,0.47851557600000005,0.01,0.0,-1223.0,0.5,0.0,0.0,0.0,0.0,3.3618160620000004,0.01,0.0,-344.0,0.125,0.0,-0.0,0.0,0.125,1.646728347,0.01,0.0,0.25999999046325684,-0.30000001192092896,-0.5899999737739563,-0.00347900390625,0.005615234375,1.02386474609375,33.150001525878906,0.0,1.0,0.825653076171875,0.047332763671875,Closing,0.0,0.0,0.0,0.0,0.0,0.0,0.0,0.0,
3.57125,0.0,0.0,1504.0,0.0,0.0,0.0,0.0,0.25,0.7922362470000001,0.01,0.0,1098.0,0.0,0.0,-0.0,0.0,0.0,0.477294873,0.01,0.0,-1223.0,0.375,0.0,0.0,0.0,0.0,3.3618160620000004,0.01,0.0,-344.0,0.125,0.0,-0.0,0.0,0.25,1.645507644,0.01,0.0,0.25,-0.30000001192092896,-0.5899999737739563,-0.005859375,0.0045166015625,1.02093505859375,33.150001525878906,0.0,0.0,0.825653076171875,0.047332763671875,Closing,0.0,0.0,0.0,0.0,0.0,0.0,0.0,0.0,
3.7089889999999723,0.0,0.0,1504.0,0.0,0.0,-257.95276433229446,0.0,0.125,0.79345695,4.924167588998207,0.0,1102.0,0.25,7.5,257.95276433229446,0.0,0.125,0.47851557600000005,4.9556349328616145,0.0,-1223.0,0.0,0.0,-257.95276433229446,0.0,0.125,3.3630367650000004,4.932303233693245,0.0,-344.0,0.125,0.0,257.95276433229446,0.0,0.25,1.645507644,4.949874389250083,0.0,0.25,-0.3100000023841858,-0.6200000047683716,-0.017333984375,-0.006103515625,1.00396728515625,33.150001525878906,0.0,-6.0,0.825653076171875,0.047332763671875,Closing,0.0,0.0,0.0,0.0,0.0,0.0,0.0,0.0,
3.839731999999989,0.0,0.0,1502.0,0.0,-7.5,-257.95276433229446,0.0,0.125,0.8056639800000001,4.923756567656895,0.0,1106.0,1.0,22.5,257.95276433229446,0.0,0.0,0.47851557600000005,4.955221284934255,0.0,-1223.0,0.125,0.0,-257.95276433229446,0.0,0.125,3.3618160620000004,4.931891533267898,0.0,-344.0,0.375,0.0,257.95276433229446,0.0,0.125,1.645507644,4.949461222156553,0.0,0.25,-0.3100000023841858,-0.6600000262260437,-0.0054931640625,0.0098876953125,1.0264892578125,33.119998931884766,0.0,0.0,0.825653076171875,0.047332763671875,Closing,0.0,0.0,0.0,0.0,0.0,0.0,0.0,0.0,
3.9735259999999837,0.0,0.0,1495.0,0.125,-45.0,-277.79527455568314,0.0,0.125,0.7922362470000001,4.923208539474021,0.0,1110.0,2.625,22.5,277.79527455568314,0.0,0.125,0.477294873,4.954669754638391,0.0,-1223.0,0.125,0.0,-277.79527455568314,0.0,0.125,3.3618160620000004,4.931342599640094,0.0,-339.0,0.5,30.0,277.79527455568314,0.0,0.125,1.6369627230000001,4.948910332972145,0.0,0.25,-0.3499999940395355,-0.7300000190734863,-0.0048828125,0.01318359375,1.01953125,33.119998931884766,0.0,1.0,0.8254547119140625,0.047332763671875,Closing,0.0,0.0,0.0,0.0,0.0,0.0,0.0,0.0,
4.106771999999998,0.0,0.0,1486.0,2.625,-45.0,-555.5905491113663,0.0,0.125,0.812988198,4.921838470241775,0.0,1119.0,9.0,60.0,555.5905491113663,0.0,0.0,0.468749952,4.953290930131498,0.0,-1226.0,2.125,-37.5,-555.5905491113663,0.0,0.125,3.3618160620000004,4.929970266797546,0.0,-333.0,1.875,67.5,555.5905491113663,0.0,0.25,1.6076658510000001,4.947533111242456,0.0,0.2199999988079071,-0.699999988079071,-0.7599999904632568,-0.2034912109375,-0.01171875,1.04364013671875,33.119998931884766,0.0,-190.0,0.8235931396484375,0.0470123291015625,Closing,0.0,0.0,0.0,0.0,0.0,0.0,0.0,0.0,
4.2444099999999745,0.0,0.0,1448.0,3.25,-300.0,-595.2756071090697,0.0,0.125,0.811767495,4.921975477083336,0.0,1152.0,10.25,270.0,595.2756071090697,0.0,0.125,0.477294873,4.953428812500002,0.0,-1276.0,1.875,-315.0,-595.2756071090697,0.0,0.125,3.352050438,4.930107500000003,0.0,-297.0,2.625,270.0,595.2756071090697,0.0,0.0,1.5844724940000001,4.947670833333335,0.0,0.25999999046325684,-1.6299999952316284,-0.7099999785423279,-0.12158203125,0.025390625,0.79034423828125,33.119998931884766,0.0,-99.0,0.8060302734375,0.0467529296875,Closing,0.0,0.0,0.0,0.0,0.0,0.0,0.0,0.0,
4.373599999999977,0.0,0.0,1371.0,2.0,-532.5,-634.9606275558472,0.0,0.125,0.811767495,4.92252350526621,0.0,1232.0,5.75,585.0,634.9606275558472,0.0,0.0,0.47851557600000005,4.953980342795866,0.0,-1331.0,1.875,-450.0,-634.9606275558472,0.0,0.0,3.3630367650000004,4.9306564336278065,0.0,-225.0,2.375,465.0,634.9606275558472,0.0,0.125,1.5832517910000001,4.9482217225177445,0.0,0.27000001072883606,-2.180000066757202,-0.6299999952316284,-0.07269287109375,0.03607177734375,1.1402587890625,33.150001525878906,0.0,-29.0,0.7758636474609375,0.046661376953125,Closing,0.0,0.0,0.0,0.0,0.0,0.0,0.0,0.0,
4.507789999999979,0.0,0.0,1269.0,0.75,-645.0,-634.9606275558472,0.0,0.125,0.8020018710000001,4.923619560815332,0.0,1338.0,3.5,690.0,634.9606275558472,0.0,0.0,0.47973627900000004,4.95508340256575,0.0,-1414.0,1.75,-480.0,-634.9606275558472,0.0,0.125,3.3666988740000003,4.931754300065441,0.0,-146.0,1.5,660.0,634.9606275558472,0.0,0.125,1.5844724940000001,4.949323500065673,0.0,0.3100000023841858,-2.2200000286102295,-0.6200000047683716,0.05645751953125,-0.0499267578125,0.96649169921875,33.150001525878906,0.0,94.0,0.7431182861328125,0.047821044921875,Closing,0.0,0.0,0.0,0.0,0.0,0.0,0.0,0.0,
4.642091999999975,0.0,0.0,1159.0,0.375,-705.0,-634.9606275558472,0.0,0.125,0.79345695,4.923756567656895,0.0,1454.0,2.375,727.5,634.9606275558472,0.0,0.0,0.477294873,4.955221284934255,0.0,-1495.0,1.25,-682.5,-634.9606275558472,0.0,0.125,3.3618160620000004,4.931891533267898,0.0,-38.0,0.875,682.5,634.9606275558472,0.0,0.125,1.5832517910000001,4.949461222156553,0.0,0.27000001072883606,-2.0999999046325684,-0.6000000238418579,0.102294921875,-0.03814697265625,1.1328125,33.150001525878906,0.0,144.0,0.7112884521484375,0.0467376708984375,Closing,0.0,0.0,0.0,0.0,0.0,0.0,0.0,0.0,
4.763963999999978,0.0,0.0,1046.0,0.125,-697.5,-634.9606275558472,0.0,0.125,0.798339762,4.924030581340019,0.0,1570.0,1.75,727.5,634.9606275558472,0.0,0.125,0.477294873,4.955497049671265,0.0,-1610.0,0.625,-690.0,-634.9606275558472,0.0,0.125,3.3605953590000004,4.932165999672812,0.0,74.0,0.75,675.0,634.9606275558472,0.0,0.125,1.5832517910000001,4.949736666338314,0.0,0.25,-1.8799999952316284,-0.5899999737739563,0.00665283203125,0.008056640625,1.1566162109375,33.150001525878906,0.0,44.0,0.68634033203125,0.0461578369140625,Closing,0.0,0.0,0.0,0.0,0.0,0.0,0.0,0.0,
4.843207999999984,0.0,0.0,935.0,0.125,-682.5,-634.9606275558472,0.0,0.125,0.79345695,4.924030581340019,0.0,1684.0,1.75,690.0,634.9606275558472,0.0,0.125,0.477294873,4.955497049671265,0.0,-1720.0,0.625,-675.0,-634.9606275558472,0.0,0.125,3.3618160620000004,4.932165999672812,0.0,186.0,0.875,675.0,634.9606275558472,0.0,0.125,1.5832517910000001,4.949736666338314,0.0,0.27000001072883606,-1.6699999570846558,-0.6100000143051147,-0.06005859375,0.06439208984375,0.9632568359375,33.119998931884766,0.0,-32.0,0.6723175048828125,0.0457305908203125,Closing,0.0,0.0,0.0,0.0,0.0,0.0,0.0,0.0,
4.972899999999994,0.0,0.0,829.0,0.125,-645.0,-634.9606275558472,0.0,0.125,0.798339762,4.923893574498457,0.0,1794.0,1.75,675.0,634.9606275558472,0.0,0.125,0.477294873,4.955359167302761,0.0,-1826.0,0.625,-652.5,-634.9606275558472,0.0,0.125,3.3618160620000004,4.932028766470356,0.0,287.0,0.75,652.5,634.9606275558472,0.0,0.125,1.5820310880000001,4.949598944247434,0.0,0.3100000023841858,-1.4900000095367432,-0.6000000238418579,0.06304931640625,0.10467529296875,1.094970703125,33.119998931884766,0.0,90.0,0.6466827392578125,0.0481414794921875,Closing,0.0,0.0,0.0,0.0,0.0,0.0,0.0,0.0,
5.096738999999972,0.0,0.0,728.0,0.375,-622.5,-634.9606275558472,0.0,0.125,0.799560465,4.923893574498457,0.0,1899.0,1.75,645.0,634.9606275558472,0.0,0.0,0.47851557600000005,4.955359167302761,0.0,-1929.0,0.875,-630.0,-634.9606275558472,0.0,0.125,3.3630367650000004,4.932028766470356,0.0,391.0,0.875,630.0,634.9606275558472,0.0,0.25,1.5820310880000001,4.949598944247434,0.0,0.3499999940395355,-1.350000023841858,-0.6100000143051147,0.03704833984375,-0.03070068359375,0.99615478515625,33.119998931884766,0.0,60.0,0.6293792724609375,0.0522308349609375,Closing,0.0,0.0,0.0,0.0,0.0,0.0,0.0,0.0,
5.239889999999985,0.0,0.0,628.0,0.375,-622.5,-634.9606275558472,0.0,0.125,0.794677653,4.923893574498457,0.0,2003.0,1.875,645.0,634.9606275558472,0.0,0.125,0.47851557600000005,4.955359167302761,0.0,-2030.0,0.875,-622.5,-634.9606275558472,0.0,0.125,3.3618160620000004,4.932028766470356,0.0,493.0,0.875,607.5,634.9606275558472,0.0,0.25,1.5820310880000001,4.949598944247434,0.0,0.33000001311302185,-1.2699999809265137,-0.5699999928474426,-0.077392578125,-0.03973388671875,1.1641845703125,33.119998931884766,0.0,-50.0,0.61224365234375,0.0546722412109375,Closing,0.0,0.0,0.0,0.0,0.0,0.0,0.0,0.0,
5.363974999999977,0.0,0.0,528.0,0.375,-622.5,-634.9606275558472,0.0,0.125,0.797119059,4.924578609522894,0.0,2107.0,2.0,630.0,634.9606275558472,0.0,0.0,0.477294873,4.956048579967129,0.0,-2232.0,0.875,-630.0,-634.9606275558472,0.0,0.125,3.3618160620000004,4.932714933300618,0.0,688.0,1.125,622.5,634.9606275558472,0.0,0.25,1.5820310880000001,4.950287555522723,0.0,0.3199999928474426,-1.1699999570846558,-0.5,-0.056884765625,0.0404052734375,0.885498046875,33.119998931884766,0.0,-38.0,0.596343994140625,0.05255126953125,Closing,0.0,0.0,0.0,0.0,0.0,0.0,0.0,0.0,
5.50727899999998,0.0,0.0,429.0,0.375,-622.5,-634.9606275558472,0.0,0.125,0.797119059,4.9255376582304535,0.0,2311.0,1.875,637.5,634.9606275558472,0.0,0.0,0.477294873,4.957013757368507,0.0,-2334.0,0.875,-630.0,-634.9606275558472,0.0,0.125,3.3618160620000004,4.933675566535793,0.0,785.0,1.25,600.0,634.9606275558472,0.0,0.25,1.573486167,4.951251610979772,0.0,0.4099999964237213,-1.2000000476837158,-0.3700000047683716,-0.01239013671875,-0.006591796875,1.0535888671875,33.119998931884766,0.0,9.0,0.5932159423828125,0.0507659912109375,Closing,0.0,0.0,0.0,0.0,0.0,0.0,0.0,0.0,
5.641406999999978,0.0,0.0,226.0,0.375,-630.0,-634.9606275558472,0.0,0.125,0.797119059,4.927181741962451,0.0,2413.0,1.75,637.5,634.9606275558472,0.0,0.0,0.47851557600000005,4.958668347434255,0.0,-2434.0,1.0,-622.5,-634.9606275558472,0.0,0.125,3.3605953590000004,4.935322366601231,0.0,885.0,1.125,607.5,634.9606275558472,0.0,0.125,1.5832517910000001,4.952904277712109,0.0,0.3700000047683716,-1.100000023841858,-0.30000001192092896,-0.039794921875,-0.13323974609375,0.85003662109375,33.119998931884766,0.0,-22.0,0.59417724609375,0.0500030517578125,Closing,0.0,0.0,0.0,0.0,0.0,0.0,0.0,0.0,
5.774443999999988,0.0,0.0,124.0,0.375,-630.0,-634.9606275558472,0.0,0.125,0.795898356,4.928140790670011,0.0,2515.0,1.875,630.0,634.9606275558472,0.0,0.125,0.47851557600000005,4.959633524835635,0.0,-2535.0,1.0,-630.0,-634.9606275558472,0.0,0.125,3.3605953590000004,4.936282999836409,0.0,984.0,1.5,600.0,634.9606275558472,0.0,0.25,1.590576009,4.953868333169159,0.0,0.3700000047683716,-1.0499999523162842,-0.14000000059604645,0.010009765625,-0.025390625,1.112548828125,33.119998931884766,0.0,30.0,0.596649169921875,0.046478271484375,Closing,0.0,0.0,0.0,0.0,0.0,0.0,0.0,0.0,
5.908920999999973,0.0,0.0,25.0,0.375,-622.5,-634.9606275558472,0.0,0.125,0.797119059,4.930332902380726,0.0,2617.0,1.75,637.5,634.9606275558472,0.0,0.0,0.47851557600000005,4.961839644991785,0.0,-2636.0,0.875,-630.0,-634.9606275558472,0.0,0.0,3.3618160620000004,4.938478733325157,0.0,1080.0,1.625,600.0,634.9606275558472,0.0,0.25,1.5820310880000001,4.956071888880683,0.0,0.3400000035762787,-1.0099999904632568,-0.009999999776482582,-0.06060791015625,0.0225830078125,1.04901123046875,33.130001068115234,0.0,-42.0,0.6010589599609375,0.04193115234375,Closing,0.0,0.0,0.0,0.0,0.0,0.0,0.0,0.0,
6.043106,0.0,0.0,-76.0,0.375,-622.5,-634.9606275558472,0.0,0.125,0.797119059,4.932250999999998,0.0,2719.0,1.75,637.5,634.9606275558472,0.0,0.0,0.477294873,4.963769999999998,0.0,-2739.0,0.875,-637.5,-634.9606275558472,0.0,0.0,3.3618160620000004,0.01,0.0,1179.0,1.5,630.0,634.9606275558472,0.0,0.125,1.595458821,0.01,0.0,0.3700000047683716,-0.949999988079071,0.05000000074505806,-0.03955078125,0.01580810546875,0.98150634765625,33.130001068115234,0.0,-23.0,0.603973388671875,0.04217529296875,Closing,0.0,0.0,0.0,0.0,0.0,0.0,0.0,0.0,
6.173368999999977,0.0,0.0,-175.0,0.0,-600.0,-436.53545022010803,0.0,0.125,0.794677653,0.01,0.0,2822.0,0.5,592.5,436.53545022010803,0.0,0.0,0.47851557600000005,0.01,0.0,-2841.0,0.125,-592.5,-436.53545022010803,0.0,0.0,3.333739893,0.01,0.0,1277.0,0.75,577.5,436.53545022010803,0.0,0.25,1.6052244450000002,0.01,0.0,0.3799999952316284,-0.7099999785423279,0.019999999552965164,0.070068359375,-0.03387451171875,0.998291015625,33.130001068115234,0.0,82.0,0.6046905517578125,0.04266357421875,Closing,0.0,0.0,0.0,0.0,0.0,0.0,0.0,0.0,
6.308872999999992,0.0,0.0,-259.0,0.0,-420.0,0.0,0.0,0.125,0.79345695,0.01,0.0,2908.0,0.0,412.5,0.0,0.0,0.0,0.477294873,0.01,0.0,-2928.0,0.0,-442.5,0.0,0.0,0.0,3.334960596,0.01,0.0,1369.0,0.0,532.5,0.0,0.0,0.25,1.6052244450000002,0.01,0.0,0.3799999952316284,-0.17000000178813934,0.029999999329447746,0.20843505859375,-0.10595703125,0.97406005859375,33.130001068115234,0.0,210.0,0.6139984130859375,0.0420074462890625,Closing,0.0,0.0,0.0,0.0,0.0,0.0,0.0,0.0,
6.440629999999976,0.0,0.0,-322.0,0.0,-292.5,0.0,0.0,0.125,0.797119059,0.01,0.0,2972.0,0.0,270.0,0.0,0.0,0.0,0.483398388,0.01,0.0,-3014.0,0.0,-240.0,0.0,0.0,0.0,3.333739893,0.01,0.0,1481.0,0.0,247.5,0.0,0.0,0.25,1.6101072570000001,0.01,0.0,0.28999999165534973,0.8999999761581421,0.05999999865889549,0.15814208984375,0.033935546875,0.98870849609375,33.119998931884766,0.0,142.0,0.642303466796875,0.0388031005859375,Closing,0.0,0.0,0.0,0.0,0.0,0.0,0.0,0.0,
6.564667999999976,0.0,0.0,-354.0,0.0,-82.5,0.0,0.0,0.125,0.797119059,0.01,0.0,3004.0,0.0,52.5,0.0,0.0,0.0,0.482177685,0.01,0.0,-3014.0,0.0,-30.0,0.0,0.0,0.0,3.333739893,0.01,0.0,1485.0,0.0,37.5,0.0,0.0,0.125,1.6064451480000002,0.01,0.0,0.2800000011920929,1.399999976158142,0.05999999865889549,0.10040283203125,-0.055419921875,0.88299560546875,33.119998931884766,0.0,78.0,0.669525146484375,0.037445068359375,Closing,0.0,0.0,0.0,0.0,0.0,0.0,0.0,0.0,
6.70913499999998,0.0,0.0,-356.0,0.0,0.0,0.0,0.0,0.125,0.8020018710000001,0.01,0.0,3007.0,0.0,0.0,0.0,0.0,0.0,0.482177685,0.01,0.0,-3016.0,0.0,0.0,0.0,0.0,0.0,3.343505517,0.01,0.0,1485.0,0.0,0.0,0.0,0.0,0.125,1.6101072570000001,0.01,0.0,0.30000001192092896,1.2999999523162842,0.009999999776482582,-0.03265380859375,-0.00244140625,1.0306396484375,33.119998931884766,0.0,-56.0,0.683746337890625,0.037353515625,Closing,0.0,0.0,0.0,0.0,0.0,0.0,0.0,0.0,
6.843130999999994,0.0,0.0,-350.0,0.0,37.5,0.0,0.0,0.125,0.8020018710000001,0.01,0.0,3007.0,0.0,0.0,0.0,0.0,0.25,0.482177685,0.01,0.0,-3016.0,0.0,0.0,0.0,0.0,0.0,3.345946923,0.01,0.0,1480.0,0.0,-30.0,0.0,0.0,0.25,1.6101072570000001,0.01,0.0,0.30000001192092896,0.7699999809265137,0.0,-0.05047607421875,0.004150390625,0.96600341796875,33.119998931884766,0.0,-63.0,0.6756439208984375,0.0373077392578125,Closing,0.0,0.0,0.0,0.0,0.0,0.0,0.0,0.0,
6.974247999999992,0.0,0.0,-350.0,0.0,0.0,0.0,0.0,0.125,0.8020018710000001,0.01,0.0,3007.0,0.0,0.0,0.0,0.0,0.25,0.482177685,0.01,0.0,-3016.0,0.0,0.0,0.0,0.0,0.0,3.342284814,0.01,0.0,1480.0,0.0,0.0,0.0,0.0,0.25,1.6101072570000001,0.01,0.0,0.28999999165534973,0.6899999976158142,0.0,0.0177001953125,0.001953125,1.034912109375,33.119998931884766,0.0,5.0,0.6710052490234375,0.0373077392578125,Closing,0.0,0.0,0.0,0.0,0.0,0.0,0.0,0.0,
7.108495999999985,0.0,0.0,-350.0,0.0,0.0,0.0,0.0,0.125,0.806884683,0.01,0.0,3007.0,0.0,0.0,0.0,0.0,0.0,0.482177685,0.01,0.0,-3016.0,0.0,0.0,0.0,0.0,0.0,3.342284814,0.01,0.0,1480.0,0.0,0.0,0.0,0.0,0.125,1.6101072570000001,0.01,0.0,0.30000001192092896,0.5799999833106995,-0.009999999776482582,-0.02410888671875,0.0013427734375,1.0294189453125,33.119998931884766,0.0,-34.0,0.6703033447265625,0.0373077392578125,Closing,0.0,0.0,0.0,0.0,0.0,0.0,0.0,0.0,
7.245477999999974,0.0,0.0,-349.0,0.0,22.5,198.42519611120224,0.0,2.375,0.157470687,3.699051243030839,0.0,3004.0,0.0,-45.0,-198.42519611120224,0.0,9.25,0.17822263800000002,3.7226896175030806,0.0,-3016.0,0.125,7.5,198.42519611120224,0.0,4.0,2.889404001,3.7051627666697327,0.0,1479.0,0.125,-7.5,-198.42519611120224,0.0,1.5,0.969238182,3.7183622777808547,0.0,0.33000001311302185,0.47999998927116394,0.019999999552965164,0.0394287109375,-0.1136474609375,0.968017578125,33.119998931884766,0.0,31.0,0.6661376953125,0.0370635986328125,Closing,0.0,0.0,0.0,0.0,0.0,0.0,0.0,0.0,
7.362010999999999,0.0,0.0,-341.0,0.0,22.5,0.0,0.0,0.25,4.471435089,3.699051243030839,0.0,2987.0,0.0,-52.5,0.0,0.0,0.875,4.277343312,3.7226896175030806,0.0,-3005.0,0.0,75.0,0.0,0.0,0.375,2.0605466640000003,3.7051627666697327,0.0,1478.0,0.0,0.0,0.0,0.0,0.625,0.32958981000000004,3.7183622777808547,0.0,0.3199999928474426,0.49000000953674316,0.20000000298023224,-0.00128173828125,0.05206298828125,1.02947998046875,33.09000015258789,0.0,-9.0,0.66326904296875,0.037353515625,Closing,0.0,0.0,0.0,0.0,0.0,0.0,0.0,0.0,
7.508579999999987,0.0,0.0,-337.0,0.0,15.0,0.0,0.0,0.125,4.427489781,3.699051243030839,0.0,2989.0,0.0,22.5,0.0,0.0,0.0,3.69873009,3.7226896175030806,0.0,-3003.0,0.0,0.0,0.0,0.0,0.125,1.835937312,3.7051627666697327,0.0,1482.0,0.0,30.0,0.0,0.0,0.25,0.13427733,3.7183622777808547,0.0,0.3100000023841858,0.3100000023841858,0.3499999940395355,-0.02764892578125,0.02044677734375,1.07049560546875,33.09000015258789,0.0,-33.0,0.65777587890625,0.0375823974609375,Closing,0.0,0.0,0.0,0.0,0.0,0.0,0.0,0.0,
7.644719999999972,0.0,0.0,-337.0,0.0,0.0,0.0,0.0,0.125,4.488524931000001,3.699051243030839,0.0,2992.0,0.0,0.0,0.0,0.0,2.375,3.817138281,3.7226896175030806,0.0,-3003.0,0.0,0.0,0.0,0.0,0.25,1.983642375,3.7051627666697327,0.0,1483.0,0.0,0.0,0.0,0.0,0.25,0.24658200600000002,3.7183622777808547,0.0,0.3400000035762787,0.25999999046325684,0.3700000047683716,-0.009521484375,-0.03082275390625,1.032958984375,33.09000015258789,0.0,-14.0,0.6576385498046875,0.0374755859375,Closing,0.0,0.0,0.0,0.0,0.0,0.0,0.0,0.0,
7.781049999999988,0.0,0.0,-337.0,0.0,0.0,0.0,0.0,0.125,4.501952664,3.699051243030839,0.0,2992.0,0.0,0.0,0.0,0.0,0.5,4.374999552,3.7226896175030806,0.0,-3003.0,0.0,0.0,0.0,0.0,0.125,2.158202904,3.7051627666697327,0.0,1483.0,0.0,0.0,0.0,0.0,0.25,0.419921832,3.7183622777808547,0.0,0.3199999928474426,0.17000000178813934,0.3700000047683716,-0.0103759765625,0.011474609375,1.02777099609375,33.09000015258789,0.0,-13.0,0.6576080322265625,0.03826904296875,Closing,0.0,0.0,0.0,0.0,0.0,0.0,0.0,0.0,
7.908456999999995,0.0,0.0,-337.0,0.0,0.0,0.0,0.0,0.125,4.509276882,3.699051243030839,0.0,2992.0,0.0,0.0,0.0,0.0,0.25,4.3945308,3.7226896175030806,0.0,-3003.0,0.0,0.0,0.0,0.0,0.125,2.194823994,3.7051627666697327,0.17211912300000076,1483.0,0.0,0.0,0.0,0.0,0.125,0.45532221900000003,3.7183622777808547,0.0,0.3100000023841858,0.14000000059604645,0.3700000047683716,-0.0084228515625,0.024169921875,1.041015625,33.08000183105469,0.0,-10.0,0.65753173828125,0.0383453369140625,Closing,0.0,0.0,0.0,0.0,0.0,0.0,0.0,0.0,
8.042010999999999,0.0,0.0,-337.0,0.0,0.0,0.0,0.0,0.125,4.5056147730000005,3.699051243030839,0.0,2992.0,0.0,0.0,0.0,0.0,0.0,4.307860887,3.7226896175030806,0.0,-3003.0,0.0,0.0,0.0,0.0,0.125,2.14843728,3.7051627666697327,0.0,1483.0,0.0,0.0,0.0,0.0,0.125,0.410156208,3.7183622777808547,0.0,0.3100000023841858,0.07999999821186066,0.36000001430511475,-0.00531005859375,0.00244140625,1.01995849609375,33.08000183105469,0.0,-6.0,0.65753173828125,0.0384063720703125,Closing,0.0,0.0,0.0,0.0,0.0,0.0,0.0,0.0,
8.174764999999985,0.0,0.0,-337.0,0.0,0.0,0.0,0.0,0.125,4.50439407,3.699051243030839,0.0,2992.0,0.0,0.0,0.0,0.0,0.0,4.226073786000001,3.7226896175030806,0.0,-3003.0,0.0,0.0,0.0,0.0,0.125,2.128906032,3.7051627666697327,0.0,1483.0,0.0,0.0,0.0,0.0,0.125,0.406494099,3.7183622777808547,0.0,0.30000001192092896,0.029999999329447746,0.3700000047683716,-0.0064697265625,-0.0048828125,1.01519775390625,33.08000183105469,0.0,-7.0,0.65753173828125,0.0384063720703125,Closing,0.0,0.0,0.0,0.0,0.0,0.0,0.0,0.0,
8.310529999999998,0.0,0.0,-337.0,0.0,0.0,0.0,0.0,0.125,4.50439407,3.699051243030839,0.0,2992.0,0.0,0.0,0.0,0.0,0.0,4.219970271,3.7226896175030806,0.0,-3003.0,0.0,0.0,0.0,0.0,0.0,2.128906032,3.7051627666697327,0.0,1483.0,0.0,0.0,0.0,0.0,0.125,0.405273396,3.7183622777808547,0.0,0.30000001192092896,-0.009999999776482582,0.36000001430511475,-0.00909423828125,0.00518798828125,1.0277099609375,33.08000183105469,0.0,-8.0,0.65753173828125,0.0384063720703125,Closing,0.0,0.0,0.0,0.0,0.0,0.0,0.0,0.0,
8.441942999999998,0.0,0.0,-337.0,0.0,0.0,0.0,0.0,0.125,4.50439407,3.699051243030839,0.0,2992.0,0.0,0.0,0.0,0.0,0.0,4.218749568,3.7226896175030806,0.0,-3003.0,0.0,0.0,0.0,0.0,0.0,2.128906032,3.7051627666697327,0.0,1483.0,0.0,0.0,0.0,0.0,0.125,0.405273396,3.7183622777808547,0.0,0.30000001192092896,-0.03999999910593033,0.36000001430511475,-0.0064697265625,0.0048828125,1.01910400390625,33.029998779296875,0.0,-5.0,0.65753173828125,0.0384063720703125,Closing,0.0,0.0,0.0,0.0,0.0,0.0,0.0,0.0,
8.574017999999981,0.0,0.0,-337.0,0.0,0.0,0.0,0.0,0.125,4.509276882,3.699051243030839,0.0,2992.0,0.0,0.0,0.0,0.0,0.0,4.219970271,3.7226896175030806,0.0,-3003.0,0.0,0.0,0.0,0.0,0.0,2.127685329,3.7051627666697327,0.0,1483.0,0.0,0.0,0.0,0.0,0.125,0.405273396,3.7183622777808547,0.0,0.30000001192092896,-0.07000000029802322,0.3700000047683716,-0.00994873046875,0.00506591796875,1.0257568359375,33.029998779296875,0.0,-8.0,0.65753173828125,0.0384063720703125,Closing,0.0,0.0,0.0,0.0,0.0,0.0,0.0,0.0,
8.710914999999979,0.0,0.0,-337.0,0.0,0.0,0.0,0.0,0.125,4.509276882,3.699051243030839,0.0,2992.0,0.0,0.0,0.0,0.0,0.0,4.218749568,3.7226896175030806,0.0,-3003.0,0.0,0.0,0.0,0.0,0.0,2.128906032,3.7051627666697327,0.0,1483.0,0.0,0.0,0.0,0.0,0.25,0.405273396,3.7183622777808547,0.0,0.30000001192092896,-0.10999999940395355,0.3700000047683716,-0.0057373046875,0.00738525390625,1.02001953125,33.029998779296875,0.0,-3.0,0.65753173828125,0.0384063720703125,Closing,0.0,0.0,0.0,0.0,0.0,0.0,0.0,0.0,
8.841456999999995,0.0,0.0,-337.0,0.0,0.0,0.0,0.0,0.125,4.509276882,3.699051243030839,0.0,2992.0,0.0,0.0,0.0,0.0,0.0,4.218749568,3.7226896175030806,0.0,-3003.0,0.0,0.0,0.0,0.0,0.0,2.128906032,3.7051627666697327,0.0,1483.0,0.0,0.0,0.0,0.0,0.25,0.405273396,3.7183622777808547,0.0,0.30000001192092896,-0.12999999523162842,0.3700000047683716,-0.00921630859375,0.00604248046875,1.02825927734375,33.029998779296875,0.0,-6.0,0.65753173828125,0.0384063720703125,Closing,0.0,0.0,0.0,0.0,0.0,0.0,0.0,0.0,
8.976913,0.0,0.0,-337.0,0.0,0.0,0.0,0.0,0.125,4.509276882,3.699051243030839,0.0,2992.0,0.0,0.0,0.0,0.0,0.125,4.219970271,3.7226896175030806,0.0,-3003.0,0.0,0.0,0.0,0.0,0.0,2.128906032,3.7051627666697327,0.0,1483.0,0.0,0.0,0.0,0.0,0.25,0.405273396,3.7183622777808547,0.0,0.30000001192092896,-0.1599999964237213,0.3700000047683716,-0.0068359375,0.00494384765625,1.01873779296875,33.029998779296875,0.0,-3.0,0.65753173828125,0.0384063720703125,Closing,0.0,0.0,0.0,0.0,0.0,0.0,0.0,0.0,
9.107910999999993,0.0,0.0,-337.0,0.0,0.0,0.0,0.0,0.125,4.510497585,3.699051243030839,0.0,2992.0,0.0,0.0,0.0,0.0,0.125,4.218749568,3.7226896175030806,0.0,-3003.0,0.0,0.0,0.0,0.0,0.0,2.128906032,3.7051627666697327,0.0,1483.0,0.0,0.0,0.0,0.0,0.25,0.405273396,3.7183622777808547,0.0,0.3100000023841858,-0.18000000715255737,0.3700000047683716,-0.00543212890625,0.00390625,1.020751953125,33.029998779296875,0.0,-2.0,0.65753173828125,0.0384063720703125,Closing,0.0,0.0,0.0,0.0,0.0,0.0,0.0,0.0,
9.241998999999982,0.0,0.0,-337.0,0.0,0.0,0.0,0.0,0.125,4.510497585,3.699051243030839,0.0,2992.0,0.0,0.0,0.0,0.0,0.0,4.219970271,3.7226896175030806,0.0,-3003.0,0.0,0.0,0.0,0.0,0.0,2.127685329,3.7051627666697327,0.0,1483.0,0.0,0.0,0.0,0.0,0.125,0.405273396,3.7183622777808547,0.0,0.3100000023841858,-0.20000000298023224,0.36000001430511475,-0.00579833984375,0.0067138671875,1.025390625,33.029998779296875,0.0,-2.0,0.65753173828125,0.0384063720703125,Closing,0.0,0.0,0.0,0.0,0.0,0.0,0.0,0.0,
9.373121999999974,0.0,0.0,-337.0,0.0,0.0,0.0,0.0,0.125,4.510497585,3.699051243030839,0.0,2992.0,0.0,0.0,0.0,0.0,0.125,4.219970271,3.7226896175030806,0.0,-3003.0,0.0,0.0,0.0,0.0,0.0,2.128906032,3.7051627666697327,0.0,1483.0,0.0,0.0,0.0,0.0,0.125,0.405273396,3.7183622777808547,0.0,0.3100000023841858,-0.2199999988079071,0.36000001430511475,-0.00384521484375,0.0042724609375,1.0218505859375,33.029998779296875,0.0,0.0,0.65753173828125,0.0384063720703125,Closing,0.0,0.0,0.0,0.0,0.0,0.0,0.0,0.0,
9.509901999999972,0.0,0.0,-336.0,0.125,0.0,218.26772511005402,0.0,0.125,4.509276882,3.704120501195989,0.0,2989.0,0.25,-22.5,-218.26772511005402,0.0,0.125,4.219970271,3.727791270197241,0.0,-2999.0,0.125,37.5,218.26772511005402,0.0,0.0,2.128906032,3.7102404001963123,0.0,1483.0,0.125,0.0,-218.26772511005402,0.0,0.125,0.405273396,3.7234580001970117,0.0,0.28999999165534973,-0.2199999988079071,0.3700000047683716,-0.0164794921875,-0.013916015625,1.03411865234375,33.119998931884766,0.0,-12.0,0.65753173828125,0.038238525390625,Closing,0.0,0.0,0.0,0.0,0.0,0.0,0.0,0.0,
9.662312999999994,0.0,0.0,-331.0,0.125,120.0,297.63780355453486,0.0,0.125,4.520263209,3.704257508037551,0.0,2984.0,2.375,-30.0,-297.63780355453486,0.0,0.0,4.219970271,3.727929152565746,0.0,-2987.0,1.125,15.0,297.63780355453486,0.0,0.0,2.1191404080000003,3.7103776333987697,0.0,1482.0,0.375,-7.5,-297.63780355453486,0.0,0.125,0.405273396,3.7235957222878917,0.0,0.20999999344348907,-0.23000000417232513,0.41999998688697815,-0.006591796875,-0.029296875,1.05230712890625,33.119998931884766,0.0,-2.0,0.6575775146484375,0.038330078125,Closing,0.0,0.0,0.0,0.0,0.0,0.0,0.0,0.0,
9.778455999999977,0.0,0.0,-307.0,0.375,90.0,317.4803137779236,0.0,0.125,4.519042506,3.7049425426536744,0.0,2978.0,3.25,-52.5,-317.4803137779236,0.0,0.125,4.218749568,3.7286185648191927,0.0,-2982.0,1.125,37.5,317.4803137779236,0.0,0.0,2.12402322,3.711063799820044,0.0,1474.0,1.0,-75.0,-317.4803137779236,0.0,0.125,0.40893550500000003,3.7242843331527364,0.0,0.07000000029802322,-0.27000001072883606,0.4399999976158142,-0.01153564453125,-0.0352783203125,1.00677490234375,33.119998931884766,0.0,-6.0,0.6575775146484375,0.037506103515625,Closing,0.0,0.0,0.0,0.0,0.0,0.0,0.0,0.0,
9.908158999999985,0.0,0.0,-295.0,1.5,97.5,317.4803137779236,0.0,0.125,4.510497585,3.7056275776781105,0.0,2963.0,4.5,-97.5,-317.4803137779236,0.0,0.0,4.219970271,3.7293079774835616,0.0,-2978.0,1.5,0.0,317.4803137779236,0.0,0.0,2.12402322,3.7117499666503058,0.0,1469.0,2.125,0.0,-317.4803137779236,0.0,0.125,0.410156208,3.7249729444280253,0.0,-0.03999999910593033,-0.25,0.46000000834465027,-0.00762939453125,-0.01043701171875,1.01971435546875,33.060001373291016,0.0,-3.0,0.6575775146484375,0.0348358154296875,Closing,0.0,0.0,0.0,0.0,0.0,0.0,0.0,0.0,
10.042386999999987,0.0,0.0,-274.0,1.5,180.0,317.4803137779236,0.0,0.125,4.510497585,3.7053535635866734,0.0,2944.0,4.625,-202.5,-317.4803137779236,0.0,0.125,4.218749568,3.7290322123356296,0.0,-2961.0,2.375,232.5,317.4803137779236,0.0,0.0,2.09960916,3.711475499836404,0.0,1453.0,1.0,-292.5,-317.4803137779236,0.0,0.125,0.416259723,3.7246974998358207,0.0,-0.5699999928474426,-0.23000000417232513,0.4000000059604645,0.02581787109375,-0.10052490234375,0.918701171875,33.060001373291016,0.0,28.0,0.6584320068359375,0.026641845703125,Closing,0.0,0.0,0.0,0.0,0.0,0.0,0.0,0.0,
10.109236999999993,0.0,0.0,-232.0,0.75,262.5,337.32282400131226,0.0,0.125,4.512938991,3.70466852897055,0.0,2904.0,3.75,-292.5,-337.32282400131226,0.0,0.125,4.221190974000001,3.7283428000821828,0.0,-2924.0,1.875,225.0,337.32282400131226,0.0,0.0,2.09960916,3.7107893334151294,0.0,1407.0,0.625,-262.5,-337.32282400131226,0.0,0.25,0.41503902000000004,3.724008888970976,0.0,-0.6899999976158142,-0.2199999988079071,0.4699999988079071,0.0213623046875,-0.0396728515625,1.0821533203125,33.060001373291016,0.0,25.0,0.659423828125,0.0184783935546875,Closing,0.0,0.0,0.0,0.0,0.0,0.0,0.0,0.0,
10.240011999999988,0.0,0.0,-174.0,0.375,375.0,337.32282400131226,0.0,0.125,4.506835476,3.7059015917695475,0.0,2844.0,2.125,-382.5,-337.32282400131226,0.0,0.0,4.234618707,3.7295837426314935,0.0,-2878.0,1.875,307.5,337.32282400131226,0.0,0.0,2.09960916,3.7120244334642076,0.0,1352.0,0.625,-330.0,-337.32282400131226,0.0,0.125,0.416259723,3.7252483890202295,0.0,-0.7400000095367432,-0.23999999463558197,0.550000011920929,-0.0242919921875,0.03192138671875,1.1435546875,33.060001373291016,0.0,-18.0,0.6609039306640625,5.79833984375E-4,Closing,0.0,0.0,0.0,0.0,0.0,0.0,0.0,0.0,
10.374756999999983,0.0,0.0,-109.0,0.125,397.5,337.32282400131226,0.0,0.125,4.511718288,3.706723633635546,0.0,2777.0,1.5,-397.5,-337.32282400131226,0.0,0.125,4.219970271,3.7304110376643673,0.0,-2831.0,2.25,225.0,337.32282400131226,0.0,0.0,2.09960916,3.7128478334969266,0.0,1292.0,0.375,-367.5,-337.32282400131226,0.0,0.25,0.416259723,3.7260747223863984,0.0,-0.550000011920929,-0.25999999046325684,0.7200000286102295,-0.02166748046875,-0.06231689453125,1.01605224609375,33.060001373291016,0.0,-17.0,0.660491943359375,-0.0151824951171875,Closing,0.0,0.0,0.0,0.0,0.0,0.0,0.0,0.0,
10.511021999999997,0.0,0.0,-49.0,0.375,367.5,337.32282400131226,0.0,0.125,4.512938991,3.7090527523919787,0.0,2714.0,1.25,-390.0,-337.32282400131226,0.0,0.0,4.215087459,3.7327550403944834,0.0,-2787.0,2.125,337.5,337.32282400131226,0.0,0.0,2.109374784,3.715180800392626,0.0,1187.0,0.625,-367.5,-337.32282400131226,0.0,0.125,0.416259723,3.728416000394025,0.0,-0.6100000143051147,-0.27000001072883606,0.6600000262260437,-0.0142822265625,0.014404296875,1.0020751953125,33.04999923706055,0.0,-9.0,0.659515380859375,-0.030120849609375,Closing,0.0,0.0,0.0,0.0,0.0,0.0,0.0,0.0,
10.640698999999993,0.0,0.0,12.0,0.125,397.5,337.32282400131226,0.0,0.125,4.509276882,3.70823071052598,0.0,2650.0,0.875,-412.5,-337.32282400131226,0.0,0.125,4.213866756,3.7319277453616095,0.0,-2728.0,1.625,375.0,337.32282400131226,0.0,0.0,2.09960916,3.714357400359907,0.0,1187.0,0.375,-397.5,-337.32282400131226,0.0,0.25,0.41503902000000004,3.727589667027856,0.0,-0.550000011920929,-0.30000001192092896,0.6700000166893005,0.011962890625,-0.012939453125,1.10308837890625,33.04999923706055,0.0,17.0,0.6577301025390625,-0.0423126220703125,Closing,0.0,0.0,0.0,0.0,0.0,0.0,0.0,0.0,
10.773881999999983,0.0,0.0,76.0,0.125,352.5,337.32282400131226,0.0,0.125,4.522704615,3.7083677173675427,0.0,2585.0,0.625,-397.5,-337.32282400131226,0.0,0.0,4.215087459,3.7320656277301145,0.0,-2605.0,1.5,382.5,337.32282400131226,0.0,0.0,2.09960916,3.714494633562365,0.0,1059.0,0.125,-367.5,-337.32282400131226,0.0,0.25,0.41503902000000004,3.727727389118736,0.0,-0.38999998569488525,-0.28999999165534973,0.6399999856948853,0.00762939453125,0.06048583984375,0.905517578125,33.04999923706055,0.0,13.0,0.6575927734375,-0.053436279296875,Closing,0.0,0.0,0.0,0.0,0.0,0.0,0.0,0.0,
10.91035799999998,0.0,0.0,187.0,0.125,352.5,337.32282400131226,0.0,0.125,4.520263209,3.7079566960262307,0.0,2460.0,0.5,-382.5,-337.32282400131226,0.0,0.0,4.215087459,3.731651979802756,0.0,-2542.0,1.125,382.5,337.32282400131226,0.0,0.0,2.098388457,3.714082933137018,0.0,996.0,0.125,-382.5,-337.32282400131226,0.0,0.125,0.41503902000000004,3.7273142220252073,0.0,-0.23999999463558197,-0.28999999165534973,0.5699999928474426,0.047607421875,0.017822265625,1.09515380859375,33.04999923706055,0.0,53.0,0.657562255859375,-0.053863525390625,Closing,0.0,0.0,0.0,0.0,0.0,0.0,0.0,0.0,
11.042524999999994,0.0,0.0,245.0,0.125,360.0,337.32282400131226,0.0,0.125,4.521483912,3.70699764731867,0.0,2402.0,0.375,-352.5,-337.32282400131226,0.0,0.125,4.213866756,3.7306868024013773,0.0,-2483.0,0.875,375.0,337.32282400131226,0.0,0.0,2.09960916,3.713122299901842,0.0,940.0,0.125,-360.0,-337.32282400131226,0.0,0.125,0.41503902000000004,3.7263501665681584,0.0,-0.10999999940395355,-0.28999999165534973,0.46000000834465027,-0.023681640625,-0.00408935546875,1.00762939453125,33.02000045776367,0.0,-18.0,0.65765380859375,-0.0516204833984375,Closing,0.0,0.0,0.0,0.0,0.0,0.0,0.0,0.0,
11.173625,0.0,0.0,299.0,0.125,337.5,337.32282400131226,0.0,0.125,4.520263209,3.7054905708365484,0.0,2348.0,0.5,-330.0,-337.32282400131226,0.0,0.125,4.215087459,3.7291700951150566,0.0,-2422.0,0.875,360.0,337.32282400131226,0.0,0.0,2.09960916,3.7116127334478484,0.0,882.0,0.125,-345.0,-337.32282400131226,0.0,0.25,0.41503902000000004,3.724835222337145,0.0,0.0,-0.2800000011920929,0.3700000047683716,0.00933837890625,0.04510498046875,1.0087890625,33.02000045776367,0.0,14.0,0.658050537109375,-0.05328369140625,Closing,0.0,0.0,0.0,0.0,0.0,0.0,0.0,0.0,
11.308583999999973,0.0,0.0,351.0,0.125,315.0,337.32282400131226,0.0,0.125,4.520263209,3.704257508037551,0.0,2295.0,0.625,-322.5,-337.32282400131226,0.0,0.125,4.215087459,3.727929152565746,0.0,-2368.0,1.375,345.0,337.32282400131226,0.0,0.0,2.09960916,3.7103776333987697,0.0,828.0,0.125,-330.0,-337.32282400131226,0.0,0.125,0.42114253500000004,3.7235957222878917,0.0,0.019999999552965164,-0.2800000011920929,0.30000001192092896,-0.02618408203125,0.01043701171875,0.91912841796875,33.02000045776367,0.0,-21.0,0.658294677734375,-0.0536651611328125,Closing,0.0,0.0,0.0,0.0,0.0,0.0,0.0,0.0,
11.441972999999997,0.0,0.0,407.0,0.125,337.5,337.32282400131226,0.0,0.125,4.520263209,3.7031614520801157,0.0,2243.0,0.75,-322.5,-337.32282400131226,0.0,0.125,4.215087459,3.7268260923849406,0.0,-2318.0,1.5,307.5,337.32282400131226,0.0,0.0,2.097167754,3.709279766552149,0.0,780.0,0.375,-315.0,-337.32282400131226,0.0,0.125,0.41503902000000004,3.7224939443295186,0.0,0.10000000149011612,-0.3100000023841858,0.2800000011920929,0.04736328125,-0.011474609375,1.0826416015625,33.0,0.0,53.0,0.65924072265625,-0.0516357421875,Closing,0.0,0.0,0.0,0.0,0.0,0.0,0.0,0.0,
11.575356,0.0,0.0,459.0,0.125,330.0,337.3228240013123,0.0,0.125,4.520263209,3.702750431147116,0.0,2192.0,0.75,-330.0,-337.3228240013123,0.0,0.125,4.215087459,3.7264124448685036,0.0,-2263.0,0.875,315.0,337.3228240013123,0.0,0.0,2.09960916,3.708868066535789,0.0,724.0,0.375,-300.0,-337.3228240013123,0.0,0.125,0.412597614,3.722080777646434,0.0,0.09000000357627869,-0.27000001072883606,0.25999999046325684,-0.001220703125,0.088623046875,1.00543212890625,33.0,0.0,17.0,0.65997314453125,-0.05084228515625,Closing,0.0,0.0,0.0,0.0,0.0,0.0,0.0,0.0,
11.707135999999998,0.0,0.0,510.0,0.125,330.0,337.3228240013123,0.0,0.125,4.520263209,3.702750431147116,0.0,2139.0,0.75,-322.5,-337.3228240013123,0.0,0.0,4.215087459,3.7264124448685036,0.0,-2209.0,1.125,345.0,337.3228240013123,0.0,0.0,2.097167754,3.708868066535789,0.0,674.0,0.125,-375.0,-337.3228240013123,0.0,0.25,0.41503902000000004,3.722080777646434,0.0,0.05999999865889549,-0.30000001192092896,0.2199999988079071,-0.04217529296875,0.06842041015625,1.023193359375,33.0,0.0,-36.0,0.659637451171875,-0.04803466796875,Closing,0.0,0.0,0.0,0.0,0.0,0.0,0.0,0.0,
11.844290999999997,0.0,0.0,566.0,0.125,315.0,337.32282400131226,0.0,0.125,4.542235863,3.7023394104182734,0.0,2085.0,0.75,-330.0,-337.32282400131226,0.0,0.125,4.213866756,3.7259987975575277,0.0,-2158.0,1.5,345.0,337.32282400131226,0.0,0.0,2.09960916,3.7084563667239236,0.0,623.0,0.375,-285.0,-337.32282400131226,0.0,0.25,0.41503902000000004,3.721667611168572,0.0,0.05000000074505806,-0.28999999165534973,0.27000001072883606,-0.021728515625,0.0146484375,0.937744140625,33.0,0.0,-16.0,0.658172607421875,-0.045623779296875,Closing,0.0,0.0,0.0,0.0,0.0,0.0,0.0,0.0,
11.974482999999978,0.0,0.0,620.0,0.125,330.0,337.32282400131226,0.0,0.125,4.519042506,3.702887438396991,0.0,1978.0,0.75,-337.5,-337.32282400131226,0.0,0.125,4.213866756,3.72655032764793,0.0,-2050.0,1.5,322.5,337.32282400131226,0.0,0.0,2.09960916,3.709005300147234,0.0,519.0,0.375,-322.5,-337.32282400131226,0.0,0.125,0.41503902000000004,3.722218500147758,0.0,0.07999999821186066,-0.30000001192092896,0.30000001192092896,-0.00146484375,0.03717041015625,0.94879150390625,33.0,0.0,3.0,0.6575927734375,-0.0442962646484375,Closing,0.0,0.0,0.0,0.0,0.0,0.0,0.0,0.0,
12.107551999999997,0.0,0.0,724.0,0.125,337.5,337.32282400131226,0.0,0.125,4.515380397,3.7032984593299902,0.0,1923.0,0.625,-337.5,-337.32282400131226,0.0,0.0,4.213866756,3.726963975164367,0.0,-1997.0,0.875,322.5,337.32282400131226,0.0,0.0,2.09960916,3.7094170001635933,0.0,468.0,0.375,-322.5,-337.32282400131226,0.0,0.25,0.41381831700000005,3.722631666830843,0.0,0.14000000059604645,-0.3100000023841858,0.3400000035762787,-0.024169921875,0.00946044921875,1.0224609375,33.0,0.0,-18.0,0.6571197509765625,-0.0433502197265625,Closing,0.0,0.0,0.0,0.0,0.0,0.0,0.0,0.0,
12.229049,0.0,0.0,775.0,0.125,322.5,337.3228240013122,0.0,0.125,4.521483912,3.703983493946114,0.0,1871.0,0.75,-322.5,-337.3228240013122,0.0,0.0,4.215087459,3.727653387417814,0.0,-1942.0,1.375,345.0,337.3228240013122,0.0,0.0,2.098388457,3.710103166584868,0.0,415.0,0.375,-345.0,-337.3228240013122,0.0,0.25,0.41381831700000005,3.7233202776956875,0.0,0.10999999940395355,-0.30000001192092896,0.27000001072883606,-6.7138671875E-4,0.01605224609375,1.0594482421875,33.0,0.0,5.0,0.65673828125,-0.0426788330078125,Closing,0.0,0.0,0.0,0.0,0.0,0.0,0.0,0.0,
12.377068,0.0,0.0,800.0,0.0,172.5,0.0,0.0,0.125,4.519042506,3.703983493946114,0.0,1845.0,0.0,-120.0,0.0,0.0,0.125,4.215087459,3.727653387417814,0.0,-1909.0,0.0,172.5,0.0,0.0,0.0,2.12402322,3.710103166584868,0.0,377.0,0.0,-217.5,0.0,0.0,0.25,0.41503902000000004,3.7233202776956875,0.0,0.46000000834465027,-0.3100000023841858,0.27000001072883606,-0.05426025390625,0.22430419921875,0.96685791015625,33.0,0.0,-47.0,0.656890869140625,-0.040283203125,Closing,0.0,0.0,0.0,0.0,0.0,0.0,0.0,0.0,
12.50943299999999,0.0,0.0,827.0,0.0,150.0,0.0,0.0,0.125,4.519042506,3.703983493946114,0.0,1821.0,0.0,-142.5,0.0,0.0,0.125,4.210204647,3.727653387417814,0.0,-1894.0,0.0,112.5,0.0,0.0,0.0,2.127685329,3.710103166584868,0.0,349.0,0.0,-112.5,0.0,0.0,0.125,0.41503902000000004,3.7233202776956875,0.0,0.9399999976158142,-0.30000001192092896,0.17000000178813934,-0.0074462890625,0.06463623046875,0.88677978515625,33.02000045776367,0.0,-2.0,0.656219482421875,-0.0284576416015625,Closing,0.0,0.0,0.0,0.0,0.0,0.0,0.0,0.0,
12.641695999999996,0.0,0.0,834.0,0.0,15.0,0.0,0.0,0.125,4.519042506,3.703983493946114,0.0,1813.0,0.0,-15.0,0.0,0.0,0.0,4.210204647,3.727653387417814,0.0,-1890.0,0.0,0.0,0.0,0.0,0.0,2.128906032,3.710103166584868,0.0,338.0,0.0,-30.0,0.0,0.0,0.25,0.41503902000000004,3.7233202776956875,0.0,1.2400000095367432,-0.3400000035762787,0.12999999523162842,0.0020751953125,0.02392578125,0.96551513671875,33.02000045776367,0.0,7.0,0.655853271484375,-0.0095977783203125,Closing,0.0,0.0,0.0,0.0,0.0,0.0,0.0,0.0,
12.775113999999972,0.0,0.0,834.0,0.0,0.0,0.0,0.0,0.125,4.521483912,3.703983493946114,0.0,1813.0,0.0,0.0,0.0,0.0,0.125,4.208983944,3.727653387417814,0.0,-1890.0,0.0,0.0,0.0,0.0,0.0,2.128906032,3.710103166584868,0.0,338.0,0.0,0.0,0.0,0.0,0.125,0.41503902000000004,3.7233202776956875,0.0,1.090000033378601,-0.3400000035762787,0.15000000596046448,-0.0010986328125,-0.01611328125,1.03851318359375,33.02000045776367,0.0,5.0,0.655853271484375,-0.0107421875,Closing,0.0,0.0,0.0,0.0,0.0,0.0,0.0,0.0,
12.907252999999997,0.0,0.0,834.0,0.0,0.0,0.0,0.0,0.125,4.520263209,3.703983493946114,0.0,1813.0,0.0,0.0,0.0,0.0,0.125,4.21142535,3.727653387417814,0.0,-1890.0,0.0,0.0,0.0,0.0,0.0,2.127685329,3.710103166584868,0.0,338.0,0.0,0.0,0.0,0.0,0.25,0.41503902000000004,3.7233202776956875,0.0,0.9599999785423279,-0.3400000035762787,0.15000000596046448,-0.0045166015625,0.00164794921875,0.9998779296875,33.02000045776367,0.0,1.0,0.655853271484375,-0.0140380859375,Closing,0.0,0.0,0.0,0.0,0.0,0.0,0.0,0.0,
13.04409699999998,0.0,0.0,834.0,0.0,0.0,0.0,0.0,0.125,4.520263209,3.703983493946114,0.0,1813.0,0.0,0.0,0.0,0.0,0.0,4.208983944,3.727653387417814,0.0,-1890.0,0.0,0.0,0.0,0.0,0.0,2.127685329,3.710103166584868,0.0,338.0,0.0,0.0,0.0,0.0,0.25,0.41381831700000005,3.7233202776956875,0.0,0.9300000071525574,-0.3400000035762787,0.15000000596046448,-0.0062255859375,0.01458740234375,1.01971435546875,33.02000045776367,0.0,0.0,0.655853271484375,-0.0146331787109375,Closing,0.0,0.0,0.0,0.0,0.0,0.0,0.0,0.0,
13.174459999999993,0.0,0.0,834.0,0.0,0.0,0.0,0.0,0.125,4.520263209,3.703983493946114,0.0,1813.0,0.0,0.0,0.0,0.0,0.125,4.210204647,3.727653387417814,0.0,-1890.0,0.0,0.0,0.0,0.0,0.0,2.128906032,3.710103166584868,0.0,338.0,0.0,0.0,0.0,0.0,0.25,0.41503902000000004,3.7233202776956875,0.0,0.8399999737739563,-0.3499999940395355,0.1599999964237213,-0.003662109375,7.32421875E-4,1.01605224609375,33.02000045776367,0.0,2.0,0.655853271484375,-0.0146331787109375,Closing,0.0,0.0,0.0,0.0,0.0,0.0,0.0,0.0,
13.299120999999985,0.0,0.0,834.0,0.0,0.0,0.0,0.0,0.125,4.519042506,3.703983493946114,0.0,1813.0,0.0,0.0,0.0,0.0,0.0,4.208983944,3.727653387417814,0.0,-1890.0,0.0,0.0,0.0,0.0,0.0,2.128906032,3.710103166584868,0.0,338.0,0.0,0.0,0.0,0.0,0.125,0.41503902000000004,3.7233202776956875,0.0,0.800000011920929,-0.3499999940395355,0.15000000596046448,-0.0062255859375,0.01080322265625,1.0240478515625,33.02000045776367,0.0,0.0,0.655853271484375,-0.0146331787109375,Closing,0.0,0.0,0.0,0.0,0.0,0.0,0.0,0.0,
13.441960999999981,0.0,0.0,834.0,0.0,0.0,0.0,0.0,0.125,4.517821803,3.703983493946114,0.0,1813.0,0.0,0.0,0.0,0.0,0.125,4.210204647,3.727653387417814,0.0,-1890.0,0.0,0.0,0.0,0.0,0.0,2.128906032,3.710103166584868,0.0,338.0,0.0,0.0,0.0,0.0,0.25,0.41503902000000004,3.7233202776956875,0.0,0.7400000095367432,-0.3400000035762787,0.15000000596046448,-0.00506591796875,7.32421875E-4,1.0206298828125,33.02000045776367,0.0,1.0,0.655853271484375,-0.0146331787109375,Closing,0.0,0.0,0.0,0.0,0.0,0.0,0.0,0.0,
13.574598999999987,0.0,0.0,834.0,0.0,0.0,0.0,0.0,0.0,4.520263209,3.703983493946114,0.0,1813.0,0.0,0.0,0.0,0.0,0.125,4.210204647,3.727653387417814,0.0,-1890.0,0.0,0.0,0.0,0.0,0.0,2.127685329,3.710103166584868,0.0,338.0,0.0,0.0,0.0,0.0,0.125,0.41381831700000005,3.7233202776956875,0.0,0.699999988079071,-0.3400000035762787,0.15000000596046448,-0.010498046875,0.006591796875,1.02288818359375,33.0099983215332,0.0,-4.0,0.655853271484375,-0.0146331787109375,Closing,0.0,0.0,0.0,0.0,0.0,0.0,0.0,0.0,
13.706590999999985,0.0,0.0,834.0,0.0,0.0,0.0,0.0,0.125,4.520263209,3.703983493946114,0.0,1813.0,0.0,0.0,0.0,0.0,0.125,4.208983944,3.727653387417814,0.0,-1890.0,0.0,0.0,0.0,0.0,0.0,2.128906032,3.710103166584868,0.0,338.0,0.0,0.0,0.0,0.0,0.125,0.41503902000000004,3.7233202776956875,0.0,0.6600000262260437,-0.3499999940395355,0.15000000596046448,-0.0050048828125,0.00225830078125,1.02105712890625,33.0099983215332,0.0,1.0,0.655853271484375,-0.0146331787109375,Closing,0.0,0.0,0.0,0.0,0.0,0.0,0.0,0.0,
13.843169999999983,0.0,0.0,834.0,0.0,0.0,0.0,0.0,0.125,4.520263209,3.703983493946114,0.0,1813.0,0.0,0.0,0.0,0.0,0.0,4.208983944,3.727653387417814,0.0,-1890.0,0.0,0.0,0.0,0.0,0.0,2.127685329,3.710103166584868,0.0,338.0,0.0,0.0,0.0,0.0,0.25,0.41381831700000005,3.7233202776956875,0.0,0.6299999952316284,-0.3499999940395355,0.1599999964237213,-0.00469970703125,0.00457763671875,1.02203369140625,33.0099983215332,0.0,1.0,0.655853271484375,-0.0146331787109375,Closing,0.0,0.0,0.0,0.0,0.0,0.0,0.0,0.0,
13.974587,0.0,0.0,834.0,0.0,0.0,0.0,0.0,0.125,4.520263209,3.703983493946114,0.0,1813.0,0.0,0.0,0.0,0.0,0.0,4.210204647,3.727653387417814,0.0,-1890.0,0.0,0.0,0.0,0.0,0.0,2.127685329,3.710103166584868,0.0,338.0,0.0,0.0,0.0,0.0,0.125,0.41503902000000004,3.7233202776956875,0.0,0.5899999737739563,-0.3499999940395355,0.1599999964237213,-0.0084228515625,0.006103515625,1.02154541015625,33.0099983215332,0.0,-2.0,0.655853271484375,-0.0146331787109375,Closing,0.0,0.0,0.0,0.0,0.0,0.0,0.0,0.0,
14.108922999999981,0.0,0.0,834.0,0.0,0.0,0.0,0.0,0.125,4.520263209,3.703983493946114,0.0,1813.0,0.0,0.0,0.0,0.0,0.0,4.210204647,3.727653387417814,0.0,-1890.0,0.0,0.0,0.0,0.0,0.0,2.128906032,3.710103166584868,0.0,338.0,0.0,0.0,0.0,0.0,0.125,0.41503902000000004,3.7233202776956875,0.0,0.5600000023841858,-0.3499999940395355,0.1599999964237213,-0.004638671875,0.00555419921875,1.017333984375,33.040000915527344,0.0,1.0,0.655853271484375,-0.0146331787109375,Closing,0.0,0.0,0.0,0.0,0.0,0.0,0.0,0.0,
14.241780999999989,0.0,0.0,834.0,0.0,0.0,0.0,0.0,0.125,4.520263209,3.703983493946114,0.0,1813.0,0.0,0.0,0.0,0.0,0.125,4.210204647,3.727653387417814,0.0,-1890.0,0.0,0.0,0.0,0.0,0.0,2.128906032,3.710103166584868,0.0,338.0,0.0,0.0,0.0,0.0,0.25,0.41503902000000004,3.7233202776956875,0.0,0.5400000214576721,-0.3499999940395355,0.1599999964237213,-0.00537109375,0.00311279296875,1.02349853515625,33.040000915527344,0.0,1.0,0.655853271484375,-0.0146331787109375,Closing,0.0,0.0,0.0,0.0,0.0,0.0,0.0,0.0,
14.373996999999974,0.0,0.0,834.0,0.0,0.0,0.0,0.0,0.125,4.520263209,3.703983493946114,0.0,1813.0,0.0,0.0,0.0,0.0,0.125,4.210204647,3.727653387417814,0.0,-1890.0,0.0,0.0,0.0,0.0,0.0,2.128906032,3.710103166584868,0.0,338.0,0.0,0.0,0.0,0.0,0.25,0.41381831700000005,3.7233202776956875,0.0,0.5,-0.3499999940395355,0.1599999964237213,-0.005615234375,0.0032958984375,1.02099609375,33.040000915527344,0.0,0.0,0.655853271484375,-0.0146331787109375,Closing,0.0,0.0,0.0,0.0,0.0,0.0,0.0,0.0,
14.508799,0.0,0.0,834.0,0.0,0.0,0.0,0.0,0.125,4.520263209,3.703983493946114,0.0,1813.0,0.0,0.0,0.0,0.0,0.0,4.210204647,3.727653387417814,0.0,-1890.0,0.0,0.0,0.0,0.0,0.0,2.128906032,3.710103166584868,0.0,338.0,0.0,0.0,0.0,0.0,0.25,0.41503902000000004,3.7233202776956875,0.0,0.47999998927116394,-0.36000001430511475,0.1599999964237213,-0.0078125,0.00616455078125,1.02801513671875,33.04999923706055,0.0,-1.0,0.655853271484375,-0.0146331787109375,Closing,0.0,0.0,0.0,0.0,0.0,0.0,0.0,0.0,
14.643456999999994,0.0,0.0,834.0,0.0,0.0,0.0,0.0,0.125,4.520263209,3.703983493946114,0.0,1813.0,0.0,0.0,0.0,0.0,0.125,4.210204647,3.727653387417814,0.0,-1890.0,0.0,0.0,0.0,0.0,0.0,2.127685329,3.710103166584868,0.0,338.0,0.0,0.0,0.0,0.0,0.25,0.41503902000000004,3.7233202776956875,0.0,0.44999998807907104,-0.36000001430511475,0.1599999964237213,-0.00494384765625,0.00628662109375,1.018310546875,33.04999923706055,0.0,1.0,0.655853271484375,-0.0146331787109375,Closing,0.0,0.0,0.0,0.0,0.0,0.0,0.0,0.0,
14.776338999999979,0.0,0.0,834.0,0.0,0.0,0.0,0.0,0.125,4.520263209,3.703983493946114,0.0,1813.0,0.0,0.0,0.0,0.0,0.0,4.210204647,3.727653387417814,0.0,-1890.0,0.0,0.0,0.0,0.0,0.0,2.128906032,3.710103166584868,0.0,338.0,0.0,0.0,0.0,0.0,0.25,0.41503902000000004,3.7233202776956875,0.0,0.4399999976158142,-0.36000001430511475,0.1599999964237213,-0.0062255859375,0.0069580078125,1.02044677734375,33.04999923706055,0.0,0.0,0.655853271484375,-0.0146331787109375,Closing,0.0,0.0,0.0,0.0,0.0,0.0,0.0,0.0,
14.91044399999999,0.0,0.0,834.0,0.0,0.0,0.0,0.0,0.125,4.521483912,3.703983493946114,0.0,1813.0,0.0,0.0,0.0,0.0,0.125,4.208983944,3.727653387417814,0.0,-1890.0,0.0,0.0,0.0,0.0,0.0,2.127685329,3.710103166584868,0.0,338.0,0.0,0.0,0.0,0.0,0.125,0.41503902000000004,3.7233202776956875,0.0,0.41999998688697815,-0.36000001430511475,0.1599999964237213,-0.00567626953125,0.00494384765625,1.0191650390625,33.04999923706055,0.0,0.0,0.655853271484375,-0.0146331787109375,Closing,0.0,0.0,0.0,0.0,0.0,0.0,0.0,0.0,
15.029351999999985,0.0,0.0,834.0,0.0,0.0,0.0,0.0,0.125,4.520263209,3.703983493946114,0.0,1813.0,0.0,0.0,0.0,0.0,0.125,4.208983944,3.727653387417814,0.0,-1890.0,0.0,0.0,0.0,0.0,0.0,2.127685329,3.710103166584868,0.0,338.0,0.0,0.0,0.0,0.0,0.25,0.41503902000000004,3.7233202776956875,0.0,0.4099999964237213,-0.36000001430511475,0.1599999964237213,-0.00531005859375,0.002685546875,1.02197265625,33.04999923706055,0.0,1.0,0.655853271484375,-0.0146331787109375,Closing,0.0,0.0,0.0,0.0,0.0,0.0,0.0,0.0,
15.177676999999996,0.0,0.0,834.0,0.0,0.0,0.0,0.0,0.125,4.521483912,3.703983493946114,0.0,1813.0,0.0,0.0,0.0,0.0,0.125,4.210204647,3.727653387417814,0.0,-1890.0,0.0,0.0,0.0,0.0,0.0,2.127685329,3.710103166584868,0.0,338.0,0.0,0.0,0.0,0.0,0.25,0.41503902000000004,3.7233202776956875,0.0,0.4000000059604645,-0.36000001430511475,0.1599999964237213,-0.0015869140625,0.00518798828125,1.02642822265625,33.04999923706055,0.0,4.0,0.655853271484375,-0.0146331787109375,Closing,0.0,0.0,0.0,0.0,0.0,0.0,0.0,0.0,
15.309908999999985,0.0,0.0,834.0,0.0,0.0,0.0,0.0,0.125,4.521483912,3.703983493946114,0.0,1813.0,0.0,0.0,0.0,0.0,0.0,4.208983944,3.727653387417814,0.0,-1890.0,0.0,0.0,0.0,0.0,0.0,2.127685329,3.710103166584868,0.0,338.0,0.0,0.0,0.0,0.0,0.125,0.41503902000000004,3.7233202776956875,0.0,0.38999998569488525,-0.36000001430511475,0.1599999964237213,-0.0062255859375,0.0064697265625,1.0179443359375,33.04999923706055,0.0,0.0,0.655853271484375,-0.0146331787109375,Closing,0.0,0.0,0.0,0.0,0.0,0.0,0.0,0.0,
