Time,ClimberA1,ClimberA2,FRpos,FRCurrent,FRspeed,FRsetpoint,FRApos,FRACurrent,FREncpos,FREncSetpoint,FREncSpeed,FLpos,FLCurrent,FLspeed,FLsetpoint,FLApos,FLACurrent,FLEncpos,FLEncSetpoint,FLEncSpeed,BRpos,BRCurrent,BRspeed,BRsetpoint,BRApos,BRACurrent,BREncpos,BREncSetpoint,BREncSpeed,BLpos,BLCurrent,BLspeed,BLsetpoint,BLApos,BLACurrent,BLEncpos,BLEncSetpoint,BLEncSpeed,navx_Pitch,navx_Roll,navx_Yaw,navx_XAcc,navx_YAcc,navx_ZAcc,navx_Temp,navx_Bar,navx_Alt,navx_XDis,navx_YDis,GearPlacerState,ShootOutputV,ShootOutputCurrent,ShootEncPos,ShootEncVelocity,ShootSpeed,ShootSetpoint,CarouselSetpoint,CarouselCurrent,
0.3076189999999915,0.0,0.0,0.0,0.0,0.0,0.0,0.0,0.0,2.994384459,0.01,0.0,0.0,0.0,0.0,0.0,0.0,0.0,3.037109064,0.01,0.0,-1.0,0.0,0.0,0.0,0.0,0.0,3.4265133210000003,0.01,0.0,0.0,0.0,0.0,0.0,0.0,0.125,1.646728347,0.01,0.0,0.05999999865889549,-0.5099999904632568,-30.649999618530273,-0.00830078125,0.0054931640625,1.03448486328125,26.309999465942383,0.0,-1.0,0.0543975830078125,-0.0041961669921875,Waiting,0.0,0.0,0.0,0.0,0.0,0.0,0.0,0.0,
0.45407499999999706,0.0,0.0,0.0,0.0,0.0,0.0,0.0,0.0,2.97851532,0.01,2.181943053,0.0,0.0,0.0,-0.0,0.0,1.5,3.0529782030000003,0.01,2.5308790640000005,-1.0,0.0,0.0,0.0,0.0,0.0,3.4289547270000003,0.01,0.07651332100000019,0.0,0.0,0.0,-0.0,0.0,0.125,1.64794905,0.01,0.02672834699999993,0.05999999865889549,-0.5099999904632568,-30.649999618530273,0.03564453125,0.05828857421875,0.96844482421875,26.309999465942383,0.0,9.0,0.0543975830078125,-0.0111083984375,Closing,0.0,0.0,0.0,0.0,0.0,0.0,0.0,0.0,
0.4893929999999964,0.0,0.0,0.0,0.0,0.0,0.0,0.0,6.25,2.7465817500000003,0.01,-0.10620116099999999,0.0,0.0,0.0,-0.0,0.0,8.0,3.402099261,0.01,0.07080077400000029,-1.0,0.0,0.0,0.0,0.0,0.125,3.4130855880000004,0.01,-0.004882811999999959,0.0,0.0,0.0,-0.0,0.0,0.125,1.646728347,0.01,0.0,0.05000000074505806,-0.49000000953674316,-30.639999389648438,0.0045166015625,0.2000732421875,1.04107666015625,26.309999465942383,0.0,-89.0,0.054656982421875,-0.0131683349609375,Closing,0.0,0.0,0.0,0.0,0.0,0.0,0.0,0.0,
0.5417039999999979,0.0,0.0,0.0,0.0,0.0,0.0,0.0,2.5,2.347411869,0.01,-0.3918456629999998,0.0,0.0,0.0,-0.0,0.0,1.0,3.6877437630000003,0.01,0.4138183169999996,-1.0,0.0,0.0,0.0,0.0,0.0,3.403319964,0.01,-0.009765623999999917,0.0,0.0,0.0,-0.0,0.0,0.125,1.64794905,0.01,0.0,0.09000000357627869,-0.46000000834465027,-30.6299991607666,0.07879638671875,-0.02874755859375,1.078125,26.309999465942383,0.0,90.0,0.054901123046875,-0.0139923095703125,Closing,0.0,0.0,0.0,0.0,0.0,0.0,0.0,0.0,
0.5711569999999919,0.0,0.0,0.0,0.0,0.0,0.0,0.0,1.5,2.142333765,0.01,-0.3918456629999998,-2.0,0.0,0.0,-0.0,0.0,1.0,3.9025874910000002,0.01,0.4138183169999996,-1.0,0.0,0.0,0.0,0.0,0.0,3.399657855,0.01,-0.008544921000000372,0.0,0.0,0.0,-0.0,0.0,0.125,1.646728347,0.01,0.0,0.05000000074505806,-0.44999998807907104,-30.6299991607666,0.0550537109375,-0.01544189453125,0.95989990234375,26.309999465942383,0.0,62.0,0.055419921875,-0.014678955078125,Closing,0.0,0.0,0.0,0.0,0.0,0.0,0.0,0.0,
0.6111079999999929,0.0,0.0,0.0,0.0,0.0,0.0,0.0,1.5,1.8457029360000001,0.01,-0.2502441150000001,-2.0,0.0,-22.5,-0.0,0.0,1.25,4.2431636280000005,0.01,0.25878903600000047,-1.0,0.0,0.0,0.0,0.0,0.0,3.398437152,0.01,-0.004882811999999959,0.0,0.0,0.0,-0.0,0.0,0.125,1.646728347,0.01,0.0,0.03999999910593033,-0.5,-30.6200008392334,-0.0172119140625,0.0281982421875,1.06024169921875,26.309999465942383,0.0,-20.0,0.0559539794921875,-0.01483154296875,Closing,0.0,0.0,0.0,0.0,0.0,0.0,0.0,0.0,
0.6820599999999977,0.0,0.0,0.0,0.0,7.5,0.0,0.0,1.5,1.297607289,0.01,-0.3576659790000001,-10.0,0.0,-45.0,-0.0,0.0,1.25,4.787597166,0.01,0.3759765239999995,-1.0,0.0,0.0,0.0,0.0,0.0,3.39355434,0.01,0.0,0.0,0.0,0.0,-0.0,0.0,0.125,1.644286941,0.01,0.0,0.029999999329447746,-0.5199999809265137,-30.579999923706055,0.0445556640625,0.1055908203125,1.08056640625,26.309999465942383,0.0,-6.0,0.0564422607421875,-0.01373291015625,Closing,0.0,0.0,0.0,0.0,0.0,0.0,0.0,0.0,
0.7265,0.0,0.0,5.0,0.0,30.0,0.0,0.0,1.0,1.0302733320000002,0.01,-0.3576659790000001,-10.0,0.0,-45.0,-0.0,0.0,1.25,0.150146469,0.01,0.3759765239999995,-1.0,0.0,0.0,0.0,0.0,0.0,3.39355434,0.01,-0.004882811999999959,0.0,0.0,0.0,-0.0,0.0,0.125,1.64794905,0.01,0.0,0.05000000074505806,-0.5400000214576721,-30.59000015258789,-0.02593994140625,0.08258056640625,1.03277587890625,26.309999465942383,0.0,-55.0,0.056304931640625,-0.01190185546875,Closing,0.0,0.0,0.0,0.0,0.0,0.0,0.0,0.0,
0.7531199999999953,0.0,0.0,5.0,0.0,37.5,0.0,0.0,0.75,0.872802645,0.01,-0.394287069,-10.0,0.0,-37.5,-0.0,0.0,0.75,0.37597652400000003,0.01,0.4235839410000004,-1.0,0.0,0.0,0.0,0.0,0.0,3.39355434,0.01,-0.004882811999999959,0.0,0.0,0.0,-0.0,0.0,0.125,1.646728347,0.01,0.0,0.05000000074505806,-0.550000011920929,-30.579999923706055,0.00103759765625,0.00592041015625,0.931640625,26.299999237060547,0.0,21.0,0.056060791015625,-0.0103912353515625,Closing,0.0,0.0,0.0,0.0,0.0,0.0,0.0,0.0,
0.8021399999999994,0.0,0.0,5.0,0.0,45.0,0.0,0.0,0.125,0.733642503,0.01,4.577026427,-10.0,0.0,-37.5,-0.0,0.0,0.0,0.559081974,0.01,-4.493407743000001,-1.0,0.0,0.0,0.0,0.0,0.125,3.394775043,0.01,0.0,0.0,0.0,0.0,-0.0,0.0,0.125,1.646728347,0.01,0.0,0.05000000074505806,-0.5299999713897705,-30.56999969482422,-0.00140380859375,0.0098876953125,1.04119873046875,26.299999237060547,0.0,2.0,0.055908203125,-0.008758544921875,Closing,0.0,0.0,0.0,0.0,0.0,0.0,0.0,0.0,
0.8309169999999867,0.0,0.0,12.0,0.0,45.0,0.0,0.0,0.0,0.733642503,0.01,-0.07812499200000023,-16.0,0.0,-30.0,-0.0,0.0,0.0,0.578613222,0.01,0.1416015479999997,-1.0,0.0,0.0,0.0,0.0,0.125,3.39355434,0.01,0.0,0.0,0.0,0.0,-0.0,0.0,0.125,1.64794905,0.01,0.0,0.07000000029802322,-0.5099999904632568,-30.610000610351562,-0.019287109375,0.01666259765625,1.06585693359375,26.299999237060547,0.0,-16.0,0.055908203125,-0.0052032470703125,Closing,0.0,0.0,0.0,0.0,0.0,0.0,0.0,0.0,
0.873382999999987,0.0,0.0,12.0,0.0,30.0,0.0,0.0,0.125,0.743408127,0.01,-0.07812499200000023,-16.0,0.0,-22.5,-0.0,0.0,0.0,0.57373041,0.01,0.1416015479999997,-1.0,0.0,0.0,0.0,0.0,0.125,3.398437152,0.01,0.0,0.0,0.0,0.0,-0.0,0.0,0.125,1.64794905,0.01,0.0,0.05000000074505806,-0.49000000953674316,-30.6200008392334,-0.00799560546875,-0.004638671875,1.0098876953125,26.299999237060547,0.0,3.0,0.055908203125,-0.0052032470703125,Closing,0.0,0.0,0.0,0.0,0.0,0.0,0.0,0.0,
0.9069029999999911,0.0,0.0,12.0,0.0,7.5,0.0,0.0,0.125,0.758056563,0.01,0.004882811999999959,-16.0,0.0,-7.5,-0.0,0.0,0.0,0.56152338,0.01,0.014648436000000764,-1.0,0.0,0.0,0.0,0.0,0.125,3.39355434,0.01,0.0,0.0,0.0,0.0,-0.0,0.0,0.125,1.64794905,0.01,0.0,0.05000000074505806,-0.5,-30.610000610351562,-0.030029296875,-0.0302734375,1.0457763671875,26.299999237060547,0.0,-2.0,0.055908203125,-0.0053558349609375,Closing,0.0,0.0,0.0,0.0,0.0,0.0,0.0,0.0,
0.943353999999992,0.0,0.0,12.0,0.0,0.0,0.0,0.0,0.125,0.7763671080000001,0.01,0.028076169000000206,-16.0,0.0,0.0,-0.0,0.0,0.0,0.546874944,0.01,-0.02441406000000068,-1.0,0.0,0.0,0.0,0.0,0.0,3.39355434,0.01,0.0,0.0,0.0,0.0,-0.0,0.0,0.125,1.646728347,0.01,0.0,0.05999999865889549,-0.49000000953674316,-30.610000610351562,-0.04278564453125,-0.04229736328125,1.05792236328125,26.299999237060547,0.0,-6.0,0.055908203125,-0.0057373046875,Closing,0.0,0.0,0.0,0.0,0.0,0.0,0.0,0.0,
0.9903419999999896,0.0,0.0,12.0,0.0,0.0,0.0,0.0,0.125,0.7922362470000001,0.01,0.02075195099999938,-16.0,0.0,0.0,-0.0,0.0,0.0,0.531005805,0.01,-0.014648435999999876,-1.0,0.0,0.0,0.0,0.0,0.0,3.394775043,0.01,0.0,0.0,0.0,0.0,-0.0,0.0,0.125,1.64794905,0.01,0.0,0.05000000074505806,-0.5099999904632568,-30.610000610351562,-0.0472412109375,-0.02685546875,1.06500244140625,26.299999237060547,0.0,-18.0,0.055908203125,-0.0068511962890625,Closing,0.0,0.0,0.0,0.0,0.0,0.0,0.0,0.0,
1.0147019999999902,0.0,0.0,12.0,0.0,0.0,0.0,0.0,0.125,0.797119059,0.01,0.02075195099999938,-16.0,0.0,0.0,-0.0,0.0,0.0,0.531005805,0.01,-0.014648435999999876,-1.0,0.0,0.0,0.0,0.0,0.0,3.394775043,0.01,0.0,0.0,0.0,0.0,-0.0,0.0,0.125,1.64794905,0.01,0.0,0.05999999865889549,-0.5199999809265137,-30.610000610351562,-0.02813720703125,-0.029541015625,1.04583740234375,26.299999237060547,0.0,0.0,0.055908203125,-0.00927734375,Closing,0.0,0.0,0.0,0.0,0.0,0.0,0.0,0.0,
1.0657859999999928,0.0,0.0,12.0,0.0,0.0,0.0,0.0,0.125,0.795898356,0.01,0.008544921000000372,-16.0,0.0,0.0,-0.0,0.0,0.0,0.531005805,0.01,-0.009765623999999917,-1.0,0.0,0.0,0.0,0.0,0.125,3.39355434,0.01,0.0,0.0,0.0,0.0,-0.0,0.0,0.125,1.64794905,0.01,0.0,0.05999999865889549,-0.5199999809265137,-30.610000610351562,-0.0225830078125,-0.041015625,1.052490234375,26.299999237060547,0.0,10.0,0.055908203125,-0.010040283203125,Closing,0.0,0.0,0.0,0.0,0.0,0.0,0.0,0.0,
1.0908039999999892,0.0,0.0,12.0,0.0,0.0,0.0,0.0,0.125,0.797119059,0.01,0.0,-16.0,0.0,0.0,-0.0,0.0,0.0,0.531005805,0.01,0.0,-1.0,0.0,0.0,0.0,0.0,0.0,3.39355434,0.01,0.0,0.0,0.0,0.0,-0.0,0.0,0.125,1.64794905,0.01,0.0,0.05000000074505806,-0.5099999904632568,-30.610000610351562,-0.02587890625,-0.03326416015625,1.008544921875,26.299999237060547,0.0,2.0,0.055908203125,-0.01171875,Closing,0.0,0.0,0.0,0.0,0.0,0.0,0.0,0.0,
1.1507880000000004,0.0,0.0,12.0,0.0,0.0,0.0,0.0,0.125,0.795898356,0.01,0.0,-16.0,0.0,0.0,-0.0,0.0,0.0,0.531005805,0.01,0.0,-1.0,0.0,0.0,0.0,0.0,0.0,3.39355434,0.01,0.0,0.0,0.0,0.0,-0.0,0.0,0.125,1.64794905,0.01,0.0,0.029999999329447746,-0.5099999904632568,-30.610000610351562,-0.0050048828125,-0.0169677734375,1.034912109375,26.299999237060547,0.0,12.0,0.05596923828125,-0.0156097412109375,Closing,0.0,0.0,0.0,0.0,0.0,0.0,0.0,0.0,
1.2065989999999873,0.0,0.0,12.0,0.0,0.0,0.0,0.0,0.125,0.797119059,0.01,0.0,-16.0,0.0,0.0,-0.0,0.0,0.0,0.531005805,0.01,0.0,-1.0,0.0,0.0,0.0,0.0,0.0,3.39355434,0.01,0.0,0.0,0.0,0.0,-0.0,0.0,0.125,1.64794905,0.01,0.0,0.05000000074505806,-0.5199999809265137,-30.610000610351562,0.01513671875,0.022705078125,1.01904296875,26.299999237060547,0.0,9.0,0.0560302734375,-0.0185394287109375,Closing,0.0,0.0,0.0,0.0,0.0,0.0,0.0,0.0,
1.2436869999999909,0.0,0.0,12.0,0.0,0.0,0.0,0.0,0.125,0.797119059,0.01,0.0,-16.0,0.0,0.0,-0.0,0.0,0.0,0.531005805,0.01,0.0,-1.0,0.0,0.0,0.0,0.0,0.125,3.394775043,0.01,0.0,0.0,0.0,0.0,-0.0,0.0,0.125,1.64794905,0.01,0.0,0.05000000074505806,-0.5099999904632568,-30.610000610351562,0.03814697265625,0.03717041015625,0.99615478515625,26.299999237060547,0.0,22.0,0.0560455322265625,-0.0217742919921875,Closing,0.0,0.0,0.0,0.0,0.0,0.0,0.0,0.0,
1.2768429999999935,0.0,0.0,12.0,0.0,0.0,0.0,0.0,0.125,0.795898356,0.01,0.0,-16.0,0.0,0.0,-0.0,0.0,0.0,0.531005805,0.01,0.0,-1.0,0.0,0.0,0.0,0.0,0.125,3.39355434,0.01,0.0,0.0,0.0,0.0,-0.0,0.0,0.125,1.64794905,0.01,0.0,0.05000000074505806,-0.5,-30.6200008392334,0.0233154296875,0.03839111328125,0.99383544921875,26.329999923706055,0.0,8.0,0.0561676025390625,-0.0229949951171875,Closing,0.0,0.0,0.0,0.0,0.0,0.0,0.0,0.0,
1.3082129999999887,0.0,0.0,12.0,0.0,0.0,0.0,0.0,0.125,0.797119059,0.01,0.0,-16.0,0.0,0.0,-0.0,0.0,0.0,0.531005805,0.01,0.0,-1.0,0.0,0.0,0.0,0.0,0.125,3.39355434,0.01,0.0,0.0,0.0,0.0,-0.0,0.0,0.125,1.646728347,0.01,0.0,0.05000000074505806,-0.5,-30.6200008392334,0.032958984375,0.051513671875,0.99420166015625,26.329999923706055,0.0,-1.0,0.0561676025390625,-0.0239105224609375,Closing,0.0,0.0,0.0,0.0,0.0,0.0,0.0,0.0,
1.3436639999999898,0.0,0.0,12.0,0.0,0.0,0.0,0.0,0.125,0.797119059,0.01,0.0,-16.0,0.0,0.0,-0.0,0.0,0.0,0.531005805,0.01,0.0,-1.0,0.0,0.0,0.0,0.0,0.125,3.394775043,0.01,0.0,0.0,0.0,0.0,-0.0,0.0,0.125,1.646728347,0.01,0.0,0.03999999910593033,-0.5,-30.6200008392334,0.01837158203125,0.06036376953125,0.9932861328125,26.329999923706055,0.0,-6.0,0.0561676025390625,-0.02447509765625,Closing,0.0,0.0,0.0,0.0,0.0,0.0,0.0,0.0,
1.4051959999999963,0.0,0.0,12.0,0.0,0.0,0.0,0.0,0.125,0.797119059,0.01,0.0,-16.0,0.0,0.0,-0.0,0.0,0.0,0.5297851020000001,0.01,0.0,-1.0,0.0,0.0,0.0,0.0,0.0,3.39355434,0.01,0.0,0.0,0.0,0.0,-0.0,0.0,0.125,1.646728347,0.01,0.0,0.05000000074505806,-0.5099999904632568,-30.6200008392334,0.00823974609375,0.033447265625,0.99896240234375,26.329999923706055,0.0,-1.0,0.0561676025390625,-0.0246734619140625,Closing,0.0,0.0,0.0,0.0,0.0,0.0,0.0,0.0,
1.4343149999999878,0.0,0.0,12.0,0.0,0.0,0.0,0.0,0.125,0.795898356,0.01,0.0,-16.0,0.0,0.0,-0.0,0.0,0.0,0.531005805,0.01,0.0,-1.0,0.0,0.0,0.0,0.0,0.125,3.39355434,0.01,0.0,0.0,0.0,0.0,-0.0,0.0,0.125,1.646728347,0.01,0.0,0.05999999865889549,-0.5099999904632568,-30.6200008392334,-0.0145263671875,0.00994873046875,1.0233154296875,26.329999923706055,0.0,-9.0,0.0561676025390625,-0.0244903564453125,Closing,0.0,0.0,0.0,0.0,0.0,0.0,0.0,0.0,
1.4905469999999914,0.0,0.0,12.0,0.0,0.0,0.0,0.0,0.125,0.797119059,0.01,0.0,-16.0,0.0,0.0,-0.0,0.0,0.0,0.531005805,0.01,0.0,-1.0,0.0,0.0,0.0,0.0,0.125,3.394775043,0.01,0.0,0.0,0.0,0.0,-0.0,0.0,0.125,1.646728347,0.01,0.0,0.07000000029802322,-0.5099999904632568,-30.6200008392334,-0.0172119140625,0.0064697265625,1.0323486328125,26.329999923706055,0.0,-9.0,0.0561676025390625,-0.024383544921875,Closing,0.0,0.0,0.0,0.0,0.0,0.0,0.0,0.0,
1.522303,0.0,0.0,12.0,0.0,0.0,0.0,0.0,0.125,0.797119059,0.01,0.0,-16.0,0.0,0.0,-0.0,0.0,0.0,0.531005805,0.01,0.0,-1.0,0.0,0.0,0.0,0.0,0.125,3.394775043,0.01,0.0,0.0,0.0,0.0,-0.0,0.0,0.125,1.64794905,0.01,0.0,0.05999999865889549,-0.5,-30.6200008392334,-0.014404296875,-0.00286865234375,1.03515625,26.329999923706055,0.0,-2.0,0.0561676025390625,-0.024383544921875,Closing,0.0,0.0,0.0,0.0,0.0,0.0,0.0,0.0,
1.5479749999999912,0.0,0.0,12.0,0.0,0.0,0.0,0.0,0.125,0.795898356,0.01,0.0,-16.0,0.0,0.0,-0.0,0.0,0.0,0.531005805,0.01,0.0,-1.0,0.0,0.0,0.0,0.0,0.125,3.39355434,0.01,0.0,0.0,0.0,0.0,-0.0,0.0,0.125,1.64794905,0.01,0.0,0.05999999865889549,-0.5,-30.6200008392334,-0.02874755859375,-0.00872802734375,1.041015625,26.329999923706055,0.0,-11.0,0.0561676025390625,-0.024383544921875,Closing,0.0,0.0,0.0,0.0,0.0,0.0,0.0,0.0,
1.593962999999989,0.0,0.0,12.0,0.0,0.0,0.0,0.0,0.125,0.797119059,0.01,0.0,-16.0,0.0,0.0,-0.0,0.0,0.0,0.531005805,0.01,0.0,-1.0,0.0,0.0,0.0,0.0,0.0,3.39355434,0.01,0.0,0.0,0.0,0.0,-0.0,0.0,0.125,1.64794905,0.01,0.0,0.05999999865889549,-0.5,-30.6200008392334,-0.04217529296875,-0.04736328125,1.05792236328125,26.329999923706055,0.0,-3.0,0.0561676025390625,-0.0246734619140625,Closing,0.0,0.0,0.0,0.0,0.0,0.0,0.0,0.0,
1.6123169999999956,0.0,0.0,12.0,0.0,0.0,0.0,0.0,0.125,0.797119059,0.01,0.0,-16.0,0.0,0.0,-0.0,0.0,0.0,0.531005805,0.01,0.0,-1.0,0.0,0.0,0.0,0.0,0.125,3.39355434,0.01,0.0,0.0,0.0,0.0,-0.0,0.0,0.125,1.64794905,0.01,0.0,0.05999999865889549,-0.5099999904632568,-30.6200008392334,-0.044677734375,-0.04254150390625,1.06396484375,26.329999923706055,0.0,-7.0,0.0561676025390625,-0.0249176025390625,Closing,0.0,0.0,0.0,0.0,0.0,0.0,0.0,0.0,
1.661627999999997,0.0,0.0,12.0,0.0,0.0,0.0,0.0,0.125,0.797119059,0.01,0.0,-16.0,0.0,0.0,-0.0,0.0,0.0,0.531005805,0.01,0.0,-1.0,0.0,0.0,0.0,0.0,0.125,3.394775043,0.01,0.0,0.0,0.0,0.0,-0.0,0.0,0.125,1.646728347,0.01,0.0,0.07000000029802322,-0.5099999904632568,-30.6299991607666,-0.0386962890625,-0.03485107421875,1.0645751953125,26.329999923706055,0.0,-6.0,0.0561676025390625,-0.0265655517578125,Closing,0.0,0.0,0.0,0.0,0.0,0.0,0.0,0.0,
1.6834909999999945,0.0,0.0,12.0,0.0,0.0,0.0,0.0,0.125,0.797119059,0.01,0.0,-16.0,0.0,0.0,-0.0,0.0,0.0,0.531005805,0.01,0.0,-1.0,0.0,0.0,0.0,0.0,0.0,3.39355434,0.01,0.0,0.0,0.0,0.0,-0.0,0.0,0.125,1.64794905,0.01,0.0,0.07000000029802322,-0.5,-30.6299991607666,-0.02008056640625,-0.04339599609375,1.03497314453125,26.329999923706055,0.0,13.0,0.0561676025390625,-0.0284423828125,Closing,0.0,0.0,0.0,0.0,0.0,0.0,0.0,0.0,
1.7259899999999906,0.0,0.0,12.0,0.0,0.0,0.0,0.0,0.125,0.795898356,0.01,0.0,-16.0,0.0,0.0,-0.0,0.0,0.0,0.5297851020000001,0.01,0.0,-1.0,0.0,0.0,0.0,0.0,0.0,3.394775043,0.01,0.0,0.0,0.0,0.0,-0.0,0.0,0.125,1.646728347,0.01,0.0,0.07000000029802322,-0.5,-30.6299991607666,-0.02911376953125,-0.0518798828125,1.02923583984375,26.329999923706055,0.0,9.0,0.0561676025390625,-0.0291900634765625,Closing,0.0,0.0,0.0,0.0,0.0,0.0,0.0,0.0,
1.7513450000000013,0.0,0.0,12.0,0.0,0.0,0.0,0.0,0.125,0.797119059,0.01,0.0,-16.0,0.0,0.0,-0.0,0.0,0.0,0.531005805,0.01,0.0,-1.0,0.0,0.0,0.0,0.0,0.125,3.394775043,0.01,0.0,0.0,0.0,0.0,-0.0,0.0,0.125,1.646728347,0.01,0.0,0.05999999865889549,-0.5099999904632568,-30.6299991607666,-0.0159912109375,-0.026611328125,1.02301025390625,26.329999923706055,0.0,8.0,0.0561676025390625,-0.0317840576171875,Closing,0.0,0.0,0.0,0.0,0.0,0.0,0.0,0.0,
1.797972999999998,0.0,0.0,12.0,0.0,0.0,0.0,0.0,0.125,0.797119059,0.01,0.0,-16.0,0.0,0.0,-0.0,0.0,0.0,0.531005805,0.01,0.0,-1.0,0.0,0.0,0.0,0.0,0.125,3.39355434,0.01,0.0,0.0,0.0,0.0,-0.0,0.0,0.125,1.64794905,0.01,0.0,0.05000000074505806,-0.5099999904632568,-30.6299991607666,-0.00372314453125,-0.01776123046875,1.04119873046875,26.290000915527344,0.0,14.0,0.0561676025390625,-0.03369140625,Closing,0.0,0.0,0.0,0.0,0.0,0.0,0.0,0.0,
1.8183689999999915,0.0,0.0,12.0,0.0,0.0,0.0,0.0,0.125,0.797119059,0.01,0.0,-16.0,0.0,0.0,-0.0,0.0,0.0,0.531005805,0.01,0.0,-1.0,0.0,0.0,0.0,0.0,0.125,3.394775043,0.01,0.0,0.0,0.0,0.0,-0.0,0.0,0.125,1.646728347,0.01,0.0,0.05999999865889549,-0.5199999809265137,-30.6299991607666,0.0146484375,0.02276611328125,1.024658203125,26.290000915527344,0.0,9.0,0.0561676025390625,-0.03363037109375,Closing,0.0,0.0,0.0,0.0,0.0,0.0,0.0,0.0,
1.8661809999999968,0.0,0.0,12.0,0.0,0.0,0.0,0.0,0.125,0.795898356,0.01,0.0,-16.0,0.0,0.0,-0.0,0.0,0.0,0.531005805,0.01,0.0,-1.0,0.0,0.0,0.0,0.0,0.125,3.39355434,0.01,0.0,0.0,0.0,0.0,-0.0,0.0,0.125,1.646728347,0.01,0.0,0.05999999865889549,-0.5199999809265137,-30.6299991607666,0.0164794921875,0.0238037109375,1.01446533203125,26.290000915527344,0.0,10.0,0.0561676025390625,-0.033538818359375,Closing,0.0,0.0,0.0,0.0,0.0,0.0,0.0,0.0,
1.8862639999999955,0.0,0.0,12.0,0.0,0.0,0.0,0.0,0.125,0.797119059,0.01,0.0,-16.0,0.0,0.0,-0.0,0.0,0.0,0.531005805,0.01,0.0,-1.0,0.0,0.0,0.0,0.0,0.125,3.394775043,0.01,0.0,0.0,0.0,0.0,-0.0,0.0,0.125,1.646728347,0.01,0.0,0.05999999865889549,-0.5199999809265137,-30.6299991607666,0.02911376953125,0.04345703125,1.00079345703125,26.290000915527344,0.0,11.0,0.0561676025390625,-0.0329437255859375,Closing,0.0,0.0,0.0,0.0,0.0,0.0,0.0,0.0,
1.9272489999999962,0.0,0.0,12.0,0.0,0.0,0.0,0.0,0.125,0.797119059,0.01,0.0,-16.0,0.0,0.0,-0.0,0.0,0.0,0.531005805,0.01,0.0,-1.0,0.0,0.0,0.0,0.0,0.125,3.39355434,0.01,0.0,0.0,0.0,0.0,-0.0,0.0,0.125,1.646728347,0.01,0.0,0.05999999865889549,-0.5099999904632568,-30.6299991607666,0.03216552734375,0.03265380859375,1.005859375,26.290000915527344,0.0,19.0,0.0561676025390625,-0.0326080322265625,Closing,0.0,0.0,0.0,0.0,0.0,0.0,0.0,0.0,
1.9507429999999877,0.0,0.0,12.0,0.0,0.0,0.0,0.0,0.125,0.795898356,0.01,0.0,-16.0,0.0,0.0,-0.0,0.0,0.0,0.531005805,0.01,0.0,-1.0,0.0,0.0,0.0,0.0,0.125,3.39355434,0.01,0.0,0.0,0.0,0.0,-0.0,0.0,0.125,1.64794905,0.01,0.0,0.05999999865889549,-0.5099999904632568,-30.639999389648438,0.0316162109375,0.0556640625,1.0113525390625,26.290000915527344,0.0,7.0,0.0561676025390625,-0.03173828125,Closing,0.0,0.0,0.0,0.0,0.0,0.0,0.0,0.0,
1.9754599999999918,0.0,0.0,12.0,0.0,0.0,0.0,0.0,0.125,0.797119059,0.01,0.0,-16.0,0.0,0.0,-0.0,0.0,0.0,0.531005805,0.01,0.0,-1.0,0.0,0.0,0.0,0.0,0.0,3.39355434,0.01,0.0,0.0,0.0,0.0,-0.0,0.0,0.125,1.64794905,0.01,0.0,0.05000000074505806,-0.5,-30.639999389648438,0.012451171875,0.05645751953125,0.99835205078125,26.290000915527344,0.0,-9.0,0.0561676025390625,-0.030517578125,Closing,0.0,0.0,0.0,0.0,0.0,0.0,0.0,0.0,
2.0072419999999984,0.0,0.0,12.0,0.0,0.0,0.0,0.0,0.125,0.795898356,0.01,0.0,-16.0,0.0,0.0,-0.0,0.0,0.0,0.531005805,0.01,0.0,-1.0,0.0,0.0,0.0,0.0,0.0,3.394775043,0.01,0.0,0.0,0.0,0.0,-0.0,0.0,0.125,1.646728347,0.01,0.0,0.05000000074505806,-0.5099999904632568,-30.639999389648438,0.0120849609375,0.05322265625,0.99853515625,26.290000915527344,0.0,-8.0,0.0561676025390625,-0.0289764404296875,Closing,0.0,0.0,0.0,0.0,0.0,0.0,0.0,0.0,
2.032866999999998,0.0,0.0,12.0,0.0,0.0,0.0,0.0,0.125,0.797119059,0.01,0.0,-16.0,0.0,0.0,-0.0,0.0,0.0,0.531005805,0.01,0.0,-1.0,0.0,0.0,0.0,0.0,0.125,3.394775043,0.01,0.0,0.0,0.0,0.0,-0.0,0.0,0.125,1.64794905,0.01,0.0,0.05999999865889549,-0.5099999904632568,-30.639999389648438,0.01202392578125,0.03363037109375,0.9942626953125,26.290000915527344,0.0,1.0,0.0561676025390625,-0.02716064453125,Closing,0.0,0.0,0.0,0.0,0.0,0.0,0.0,0.0,
2.0705649999999878,0.0,0.0,12.0,0.0,0.0,0.0,0.0,0.125,0.797119059,0.01,0.0,-16.0,0.0,0.0,-0.0,0.0,0.0,0.531005805,0.01,0.0,-1.0,0.0,0.0,0.0,0.0,0.0,3.394775043,0.01,0.0,0.0,0.0,0.0,-0.0,0.0,0.125,1.646728347,0.01,0.0,0.07000000029802322,-0.5099999904632568,-30.639999389648438,1.8310546875E-4,0.01104736328125,1.02093505859375,26.290000915527344,0.0,3.0,0.0561676025390625,-0.025177001953125,Closing,0.0,0.0,0.0,0.0,0.0,0.0,0.0,0.0,
2.094742999999988,0.0,0.0,12.0,0.0,0.0,0.0,0.0,0.125,0.797119059,0.01,0.0,-16.0,0.0,0.0,-0.0,0.0,0.0,0.531005805,0.01,0.0,-1.0,0.0,0.0,0.0,0.0,0.0,3.394775043,0.01,0.0,0.0,0.0,0.0,-0.0,0.0,0.125,1.646728347,0.01,0.0,0.07000000029802322,-0.5099999904632568,-30.649999618530273,-0.01031494140625,0.0224609375,1.02734375,26.290000915527344,0.0,-11.0,0.0561676025390625,-0.025177001953125,Closing,0.0,0.0,0.0,0.0,0.0,0.0,0.0,0.0,
2.1303209999999964,0.0,0.0,12.0,0.0,0.0,0.0,0.0,0.125,0.797119059,0.01,0.0,-16.0,0.0,0.0,-0.0,0.0,0.0,0.5297851020000001,0.01,0.0,-1.0,0.0,0.0,0.0,0.0,0.125,3.394775043,0.01,0.0,0.0,0.0,0.0,-0.0,0.0,0.125,1.646728347,0.01,0.0,0.07000000029802322,-0.5,-30.639999389648438,-0.01849365234375,0.00579833984375,1.03265380859375,26.290000915527344,0.0,-10.0,0.0561676025390625,-0.025177001953125,Closing,0.0,0.0,0.0,0.0,0.0,0.0,0.0,0.0,
2.153564999999988,0.0,0.0,12.0,0.0,0.0,0.0,0.0,0.125,0.797119059,0.01,0.0,-16.0,0.0,0.0,-0.0,0.0,0.0,0.5297851020000001,0.01,0.0,-1.0,0.0,0.0,0.0,0.0,0.0,3.394775043,0.01,0.0,0.0,0.0,0.0,-0.0,0.0,0.125,1.646728347,0.01,0.0,0.07000000029802322,-0.5,-30.639999389648438,-0.03289794921875,-0.02740478515625,1.040283203125,26.290000915527344,0.0,-5.0,0.0561676025390625,-0.025299072265625,Closing,0.0,0.0,0.0,0.0,0.0,0.0,0.0,0.0,
2.198506999999998,0.0,0.0,12.0,0.0,0.0,0.0,0.0,0.125,0.795898356,0.01,0.0,-16.0,0.0,0.0,-0.0,0.0,0.0,0.531005805,0.01,0.0,-1.0,0.0,0.0,0.0,0.0,0.0,3.39355434,0.01,0.0,0.0,0.0,0.0,-0.0,0.0,0.125,1.64794905,0.01,0.0,0.07000000029802322,-0.5,-30.639999389648438,-0.0469970703125,-0.05291748046875,1.05718994140625,26.290000915527344,0.0,-4.0,0.0561676025390625,-0.025665283203125,Closing,0.0,0.0,0.0,0.0,0.0,0.0,0.0,0.0,
2.2166749999999884,0.0,0.0,12.0,0.0,0.0,0.0,0.0,0.125,0.795898356,0.01,0.0,-16.0,0.0,0.0,-0.0,0.0,0.0,0.531005805,0.01,0.0,-1.0,0.0,0.0,0.0,0.0,0.0,3.394775043,0.01,0.0,0.0,0.0,0.0,-0.0,0.0,0.125,1.646728347,0.01,0.0,0.07000000029802322,-0.5099999904632568,-30.649999618530273,-0.0400390625,-0.03497314453125,1.0732421875,26.290000915527344,0.0,-13.0,0.0561676025390625,-0.026763916015625,Closing,0.0,0.0,0.0,0.0,0.0,0.0,0.0,0.0,
2.2682019999999903,0.0,0.0,12.0,0.0,0.0,0.0,0.0,0.125,0.795898356,0.01,0.0,-16.0,0.0,0.0,-0.0,0.0,0.0,0.532226508,0.01,0.0,-1.0,0.0,0.0,0.0,0.0,0.125,3.394775043,0.01,0.0,0.0,0.0,0.0,-0.0,0.0,0.125,1.64794905,0.01,0.0,0.07000000029802322,-0.5,-30.649999618530273,-0.03509521484375,-0.03485107421875,1.06988525390625,26.290000915527344,0.0,-3.0,0.0561676025390625,-0.027252197265625,Closing,0.0,0.0,0.0,0.0,0.0,0.0,0.0,0.0,
2.29057699999999,0.0,0.0,12.0,0.0,0.0,0.0,0.0,0.125,0.797119059,0.01,0.0,-16.0,0.0,0.0,-0.0,0.0,0.0,0.531005805,0.01,0.0,-1.0,0.0,0.0,0.0,0.0,0.125,3.394775043,0.01,0.0,0.0,0.0,0.0,-0.0,0.0,0.125,1.64794905,0.01,0.0,0.07000000029802322,-0.5,-30.649999618530273,-0.03668212890625,-0.04193115234375,1.04937744140625,26.350000381469727,0.0,-1.0,0.0561676025390625,-0.0284271240234375,Closing,0.0,0.0,0.0,0.0,0.0,0.0,0.0,0.0,
2.3117469999999885,0.0,0.0,12.0,0.0,0.0,0.0,0.0,0.125,0.795898356,0.01,0.0,-16.0,0.0,0.0,-0.0,0.0,0.0,0.531005805,0.01,0.0,-1.0,0.0,0.0,0.0,0.0,0.0,3.394775043,0.01,0.0,0.0,0.0,0.0,-0.0,0.0,0.125,1.646728347,0.01,0.0,0.07999999821186066,-0.5,-30.649999618530273,-0.02496337890625,-0.0457763671875,1.03387451171875,26.350000381469727,0.0,10.0,0.0561676025390625,-0.029876708984375,Closing,0.0,0.0,0.0,0.0,0.0,0.0,0.0,0.0,
2.3625689999999886,0.0,0.0,12.0,0.0,0.0,0.0,0.0,0.125,0.797119059,0.01,0.0,-16.0,0.0,0.0,-0.0,0.0,0.0,0.531005805,0.01,0.0,-1.0,0.0,0.0,0.0,0.0,0.0,3.394775043,0.01,0.0,0.0,0.0,0.0,-0.0,0.0,0.125,1.64794905,0.01,0.0,0.07000000029802322,-0.49000000953674316,-30.649999618530273,-0.03106689453125,-0.03656005859375,1.0277099609375,26.350000381469727,0.0,0.0,0.0561676025390625,-0.0316009521484375,Closing,0.0,0.0,0.0,0.0,0.0,0.0,0.0,0.0,
2.3839189999999943,0.0,0.0,12.0,0.0,0.0,0.0,0.0,0.125,0.797119059,0.01,0.0,-16.0,0.0,0.0,-0.0,0.0,0.0,0.531005805,0.01,0.0,-1.0,0.0,0.0,0.0,0.0,0.0,3.39355434,0.01,0.0,0.0,0.0,0.0,-0.0,0.0,0.125,1.646728347,0.01,0.0,0.07000000029802322,-0.49000000953674316,-30.65999984741211,-0.02044677734375,-0.029052734375,1.02593994140625,26.350000381469727,0.0,5.0,0.0561676025390625,-0.0325469970703125,Closing,0.0,0.0,0.0,0.0,0.0,0.0,0.0,0.0,
2.4130429999999907,0.0,0.0,12.0,0.0,0.0,0.0,0.0,0.125,0.795898356,0.01,0.0,-16.0,0.0,0.0,-0.0,0.0,0.0,0.531005805,0.01,0.0,-1.0,0.0,0.0,0.0,0.0,0.0,3.39355434,0.01,0.0,0.0,0.0,0.0,-0.0,0.0,0.125,1.646728347,0.01,0.0,0.05999999865889549,-0.5,-30.65999984741211,-0.0042724609375,-0.01019287109375,1.0386962890625,26.350000381469727,0.0,9.0,0.0561676025390625,-0.034515380859375,Closing,0.0,0.0,0.0,0.0,0.0,0.0,0.0,0.0,
2.4613410000000004,0.0,0.0,12.0,0.0,0.0,0.0,0.0,0.125,0.797119059,0.01,0.0,-16.0,0.0,0.0,-0.0,0.0,0.0,0.531005805,0.01,0.0,-1.0,0.0,0.0,0.0,0.0,0.125,3.394775043,0.01,0.0,0.0,0.0,0.0,-0.0,0.0,0.125,1.646728347,0.01,0.0,0.05999999865889549,-0.5,-30.65999984741211,0.01605224609375,0.02752685546875,1.00543212890625,26.350000381469727,0.0,7.0,0.0561676025390625,-0.0343475341796875,Closing,0.0,0.0,0.0,0.0,0.0,0.0,0.0,0.0,
2.4818949999999895,0.0,0.0,12.0,0.0,0.0,0.0,0.0,0.125,0.797119059,0.01,0.0,-16.0,0.0,0.0,-0.0,0.0,0.0,0.5297851020000001,0.01,0.0,-1.0,0.0,0.0,0.0,0.0,0.125,3.394775043,0.01,0.0,0.0,0.0,0.0,-0.0,0.0,0.125,1.646728347,0.01,0.0,0.05999999865889549,-0.5,-30.65999984741211,0.0087890625,0.0350341796875,1.00274658203125,26.350000381469727,0.0,-2.0,0.0561676025390625,-0.0341949462890625,Closing,0.0,0.0,0.0,0.0,0.0,0.0,0.0,0.0,
2.5275169999999925,0.0,0.0,12.0,0.0,0.0,0.0,0.0,0.125,0.797119059,0.01,0.0,-16.0,0.0,0.0,-0.0,0.0,0.0,0.5297851020000001,0.01,0.0,-1.0,0.0,0.0,0.0,0.0,0.125,3.39355434,0.01,0.0,0.0,0.0,0.0,-0.0,0.0,0.125,1.64794905,0.01,0.0,0.07000000029802322,-0.49000000953674316,-30.65999984741211,0.0267333984375,0.03912353515625,0.99737548828125,26.350000381469727,0.0,11.0,0.0561676025390625,-0.0333099365234375,Closing,0.0,0.0,0.0,0.0,0.0,0.0,0.0,0.0,
2.5510389999999896,0.0,0.0,12.0,0.0,0.0,0.0,0.0,0.125,0.797119059,0.01,0.0,-16.0,0.0,0.0,-0.0,0.0,0.0,0.531005805,0.01,0.0,-1.0,0.0,0.0,0.0,0.0,0.125,3.39355434,0.01,0.0,0.0,0.0,0.0,-0.0,0.0,0.125,1.64794905,0.01,0.0,0.05999999865889549,-0.49000000953674316,-30.65999984741211,0.02734375,0.053955078125,1.00238037109375,26.350000381469727,0.0,4.0,0.0561676025390625,-0.0323486328125,Closing,0.0,0.0,0.0,0.0,0.0,0.0,0.0,0.0,
2.5849119999999965,0.0,0.0,12.0,0.0,0.0,0.0,0.0,0.125,0.797119059,0.01,0.0,-16.0,0.0,0.0,-0.0,0.0,0.0,0.531005805,0.01,0.0,-1.0,0.0,0.0,0.0,0.0,0.125,3.394775043,0.01,0.0,0.0,0.0,0.0,-0.0,0.0,0.125,1.64794905,0.01,0.0,0.05999999865889549,-0.49000000953674316,-30.65999984741211,0.0128173828125,0.05780029296875,0.99896240234375,26.350000381469727,0.0,-10.0,0.0561676025390625,-0.03021240234375,Closing,0.0,0.0,0.0,0.0,0.0,0.0,0.0,0.0,
2.613276999999987,0.0,0.0,12.0,0.0,0.0,0.0,0.0,0.125,0.797119059,0.01,0.0,-16.0,0.0,0.0,-0.0,0.0,0.0,0.531005805,0.01,0.0,-1.0,0.0,0.0,0.0,0.0,0.125,3.394775043,0.01,0.0,0.0,0.0,0.0,-0.0,0.0,0.125,1.64794905,0.01,0.0,0.05999999865889549,-0.49000000953674316,-30.65999984741211,0.007568359375,0.039794921875,0.986328125,26.350000381469727,0.0,-5.0,0.0561676025390625,-0.028411865234375,Closing,0.0,0.0,0.0,0.0,0.0,0.0,0.0,0.0,
2.658081999999995,0.0,0.0,12.0,0.0,0.0,0.0,0.0,0.125,0.797119059,0.01,0.0,-16.0,0.0,0.0,-0.0,0.0,0.0,0.531005805,0.01,0.0,-1.0,0.0,0.0,0.0,0.0,0.125,3.394775043,0.01,0.0,0.0,0.0,0.0,-0.0,0.0,0.125,1.646728347,0.01,0.0,0.07000000029802322,-0.49000000953674316,-30.65999984741211,-7.32421875E-4,0.0128173828125,1.0205078125,26.350000381469727,0.0,1.0,0.0561676025390625,-0.0253448486328125,Closing,0.0,0.0,0.0,0.0,0.0,0.0,0.0,0.0,
2.679712999999989,0.0,0.0,12.0,0.0,0.0,0.0,0.0,0.125,0.797119059,0.01,0.0,-16.0,0.0,0.0,-0.0,0.0,0.0,0.531005805,0.01,0.0,-1.0,0.0,0.0,0.0,0.0,0.125,3.39355434,0.01,0.0,0.0,0.0,0.0,-0.0,0.0,0.125,1.64794905,0.01,0.0,0.07000000029802322,-0.49000000953674316,-30.65999984741211,-0.00537109375,0.015380859375,1.031005859375,26.350000381469727,0.0,-4.0,0.0561676025390625,-0.0253448486328125,Closing,0.0,0.0,0.0,0.0,0.0,0.0,0.0,0.0,
2.7249059999999883,0.0,0.0,12.0,0.0,0.0,0.0,0.0,0.125,0.797119059,0.01,0.0,-16.0,0.0,0.0,-0.0,0.0,0.0,0.531005805,0.01,0.0,-1.0,0.0,0.0,0.0,0.0,0.125,3.39355434,0.01,0.0,0.0,0.0,0.0,-0.0,0.0,0.125,1.64794905,0.01,0.0,0.07999999821186066,-0.49000000953674316,-30.65999984741211,-0.0126953125,0.01165771484375,1.03955078125,26.350000381469727,0.0,-8.0,0.0561676025390625,-0.0253448486328125,Closing,0.0,0.0,0.0,0.0,0.0,0.0,0.0,0.0,
2.745900999999998,0.0,0.0,12.0,0.0,0.0,0.0,0.0,0.125,0.797119059,0.01,0.0,-16.0,0.0,0.0,-0.0,0.0,0.0,0.531005805,0.01,0.0,-1.0,0.0,0.0,0.0,0.0,0.0,3.394775043,0.01,0.0,0.0,0.0,0.0,-0.0,0.0,0.125,1.64794905,0.01,0.0,0.07000000029802322,-0.47999998927116394,-30.65999984741211,-0.01806640625,-0.007568359375,1.0379638671875,26.350000381469727,0.0,-3.0,0.0561676025390625,-0.0253448486328125,Closing,0.0,0.0,0.0,0.0,0.0,0.0,0.0,0.0,
2.7877449999999953,0.0,0.0,12.0,0.0,0.0,0.0,0.0,0.125,0.797119059,0.01,0.0,-16.0,0.0,0.0,-0.0,0.0,0.0,0.531005805,0.01,0.0,-1.0,0.0,0.0,0.0,0.0,0.0,3.394775043,0.01,0.0,0.0,0.0,0.0,-0.0,0.0,0.125,1.64794905,0.01,0.0,0.07000000029802322,-0.47999998927116394,-30.65999984741211,-0.0313720703125,-0.031005859375,1.04486083984375,26.350000381469727,0.0,-2.0,0.0561676025390625,-0.02545166015625,Closing,0.0,0.0,0.0,0.0,0.0,0.0,0.0,0.0,
2.8118189999999887,0.0,0.0,12.0,0.0,0.0,0.0,0.0,0.125,0.797119059,0.01,0.0,-16.0,0.0,0.0,-0.0,0.0,0.0,0.531005805,0.01,0.0,-1.0,0.0,0.0,0.0,0.0,0.125,3.394775043,0.01,0.0,0.0,0.0,0.0,-0.0,0.0,0.125,1.64794905,0.01,0.0,0.07000000029802322,-0.47999998927116394,-30.65999984741211,-0.043212890625,-0.0438232421875,1.047119140625,26.350000381469727,0.0,-6.0,0.0561676025390625,-0.0258026123046875,Closing,0.0,0.0,0.0,0.0,0.0,0.0,0.0,0.0,
2.8623600000000007,0.0,0.0,12.0,0.0,0.0,0.0,0.0,0.125,0.797119059,0.01,0.0,-16.0,0.0,0.0,-0.0,0.0,0.0,0.531005805,0.01,0.0,-1.0,0.0,0.0,0.0,0.0,0.125,3.394775043,0.01,0.0,0.0,0.0,0.0,-0.0,0.0,0.125,1.64794905,0.01,0.0,0.05999999865889549,-0.49000000953674316,-30.65999984741211,-0.03875732421875,-0.04010009765625,1.06549072265625,26.350000381469727,0.0,-4.0,0.0561676025390625,-0.0268707275390625,Closing,0.0,0.0,0.0,0.0,0.0,0.0,0.0,0.0,
2.8840069999999978,0.0,0.0,12.0,0.0,0.0,0.0,0.0,0.125,0.797119059,0.01,0.0,-16.0,0.0,0.0,-0.0,0.0,0.0,0.531005805,0.01,0.0,-1.0,0.0,0.0,0.0,0.0,0.125,3.39355434,0.01,0.0,0.0,0.0,0.0,-0.0,0.0,0.125,1.64794905,0.01,0.0,0.07000000029802322,-0.49000000953674316,-30.65999984741211,-0.03680419921875,-0.03631591796875,1.07037353515625,26.350000381469727,0.0,-4.0,0.0561676025390625,-0.02850341796875,Closing,0.0,0.0,0.0,0.0,0.0,0.0,0.0,0.0,
2.927837999999989,0.0,0.0,12.0,0.0,0.0,0.0,0.0,0.125,0.797119059,0.01,0.0,-16.0,0.0,0.0,-0.0,0.0,0.0,0.531005805,0.01,0.0,-1.0,0.0,0.0,0.0,0.0,0.125,3.39355434,0.01,0.0,0.0,0.0,0.0,-0.0,0.0,0.125,1.646728347,0.01,0.0,0.07000000029802322,-0.5,-30.65999984741211,-0.040283203125,-0.04339599609375,1.0618896484375,26.350000381469727,0.0,-3.0,0.0561676025390625,-0.0291748046875,Closing,0.0,0.0,0.0,0.0,0.0,0.0,0.0,0.0,
2.9496269999999933,0.0,0.0,12.0,0.0,0.0,0.0,0.0,0.125,0.797119059,0.01,0.0,-16.0,0.0,0.0,-0.0,0.0,0.0,0.531005805,0.01,0.0,-1.0,0.0,0.0,0.0,0.0,0.125,3.394775043,0.01,0.0,0.0,0.0,0.0,-0.0,0.0,0.125,1.646728347,0.01,0.0,0.07000000029802322,-0.5,-30.65999984741211,-0.0322265625,-0.0401611328125,1.041259765625,26.350000381469727,0.0,1.0,0.0561676025390625,-0.030731201171875,Closing,0.0,0.0,0.0,0.0,0.0,0.0,0.0,0.0,
2.9881089999999966,0.0,0.0,12.0,0.0,0.0,0.0,0.0,0.125,0.795898356,0.01,0.0,-16.0,0.0,0.0,-0.0,0.0,0.0,0.531005805,0.01,0.0,-1.0,0.0,0.0,0.0,0.0,0.0,3.39355434,0.01,0.0,0.0,0.0,0.0,-0.0,0.0,0.125,1.64794905,0.01,0.0,0.07000000029802322,-0.5,-30.65999984741211,-0.02801513671875,-0.044189453125,1.03009033203125,26.350000381469727,0.0,6.0,0.0561676025390625,-0.0325469970703125,Closing,0.0,0.0,0.0,0.0,0.0,0.0,0.0,0.0,
3.0099879999999977,0.0,0.0,12.0,0.0,0.0,0.0,0.0,0.125,0.797119059,0.01,0.0,-16.0,0.0,0.0,-0.0,0.0,0.0,0.531005805,0.01,0.0,-1.0,0.0,0.0,0.0,0.0,0.0,3.394775043,0.01,0.0,0.0,0.0,0.0,-0.0,0.0,0.125,1.646728347,0.01,0.0,0.05999999865889549,-0.49000000953674316,-30.65999984741211,-0.03240966796875,-0.0465087890625,1.02349853515625,26.350000381469727,0.0,4.0,0.0561676025390625,-0.0335540771484375,Closing,0.0,0.0,0.0,0.0,0.0,0.0,0.0,0.0,
3.053834999999992,0.0,0.0,12.0,0.0,0.0,0.0,0.0,0.125,0.795898356,0.01,0.0,-16.0,0.0,0.0,-0.0,0.0,0.0,0.531005805,0.01,0.0,-1.0,0.0,0.0,0.0,0.0,0.0,3.394775043,0.01,0.0,0.0,0.0,0.0,-0.0,0.0,0.125,1.64794905,0.01,0.0,0.05999999865889549,-0.5,-30.65999984741211,-0.0126953125,-0.0252685546875,1.032958984375,26.350000381469727,0.0,10.0,0.0561676025390625,-0.036895751953125,Closing,0.0,0.0,0.0,0.0,0.0,0.0,0.0,0.0,
3.0731229999999923,0.0,0.0,12.0,0.0,0.0,0.0,0.0,0.125,0.795898356,0.01,0.0,-16.0,0.0,0.0,-0.0,0.0,0.0,0.531005805,0.01,0.0,-1.0,0.0,0.0,0.0,0.0,0.125,3.39355434,0.01,0.0,0.0,0.0,0.0,-0.0,0.0,0.125,1.64794905,0.01,0.0,0.05999999865889549,-0.5,-30.65999984741211,-0.01129150390625,-0.0191650390625,1.04144287109375,26.350000381469727,0.0,8.0,0.0561676025390625,-0.038055419921875,Closing,0.0,0.0,0.0,0.0,0.0,0.0,0.0,0.0,
3.101595000000001,0.0,0.0,12.0,0.0,0.0,0.0,0.0,0.125,0.795898356,0.01,0.0,-16.0,0.0,0.0,-0.0,0.0,0.0,0.531005805,0.01,0.0,-1.0,0.0,0.0,0.0,0.0,0.125,3.394775043,0.01,0.0,0.0,0.0,0.0,-0.0,0.0,0.125,1.646728347,0.01,0.0,0.05000000074505806,-0.5,-30.65999984741211,0.0032958984375,0.0113525390625,1.02130126953125,26.350000381469727,0.0,5.0,0.0561676025390625,-0.039215087890625,Closing,0.0,0.0,0.0,0.0,0.0,0.0,0.0,0.0,
3.132784999999989,0.0,0.0,12.0,0.0,0.0,0.0,0.0,0.125,0.797119059,0.01,0.0,-16.0,0.0,0.0,-0.0,0.0,0.0,0.531005805,0.01,0.0,-1.0,0.0,0.0,0.0,0.0,0.125,3.39355434,0.01,0.0,0.0,0.0,0.0,-0.0,0.0,0.125,1.64794905,0.01,0.0,0.05999999865889549,-0.5,-30.65999984741211,0.014892578125,0.03057861328125,1.00970458984375,26.350000381469727,0.0,5.0,0.0561676025390625,-0.0391387939453125,Closing,0.0,0.0,0.0,0.0,0.0,0.0,0.0,0.0,
3.1542229999999982,0.0,0.0,12.0,0.0,0.0,0.0,0.0,0.125,0.797119059,0.01,0.0,-16.0,0.0,0.0,-0.0,0.0,0.0,0.531005805,0.01,0.0,-1.0,0.0,0.0,0.0,0.0,0.125,3.39355434,0.01,0.0,0.0,0.0,0.0,-0.0,0.0,0.125,1.64794905,0.01,0.0,0.05999999865889549,-0.5,-30.65999984741211,0.02862548828125,0.0396728515625,1.00054931640625,26.350000381469727,0.0,12.0,0.0561676025390625,-0.038238525390625,Closing,0.0,0.0,0.0,0.0,0.0,0.0,0.0,0.0,
3.202962999999989,0.0,0.0,12.0,0.0,0.0,0.0,0.0,0.125,0.797119059,0.01,0.0,-16.0,0.0,0.0,-0.0,0.0,0.0,0.531005805,0.01,0.0,-1.0,0.0,0.0,0.0,0.0,0.125,3.39355434,0.01,0.0,0.0,0.0,0.0,-0.0,0.0,0.125,1.64794905,0.01,0.0,0.07000000029802322,-0.5,-30.670000076293945,0.0302734375,0.0377197265625,0.99737548828125,26.350000381469727,0.0,14.0,0.0561676025390625,-0.0373687744140625,Closing,0.0,0.0,0.0,0.0,0.0,0.0,0.0,0.0,
3.2235989999999872,0.0,0.0,12.0,0.0,0.0,0.0,0.0,0.125,0.797119059,0.01,0.0,-16.0,0.0,0.0,-0.0,0.0,0.0,0.531005805,0.01,0.0,-1.0,0.0,0.0,0.0,0.0,0.125,3.394775043,0.01,0.0,0.0,0.0,0.0,-0.0,0.0,0.125,1.646728347,0.01,0.0,0.05999999865889549,-0.49000000953674316,-30.670000076293945,0.01849365234375,0.04791259765625,0.997314453125,26.350000381469727,0.0,0.0,0.0561676025390625,-0.03619384765625,Closing,0.0,0.0,0.0,0.0,0.0,0.0,0.0,0.0,
3.2669320000000006,0.0,0.0,12.0,0.0,0.0,0.0,0.0,0.125,0.795898356,0.01,0.0,-16.0,0.0,0.0,-0.0,0.0,0.0,0.531005805,0.01,0.0,-1.0,0.0,0.0,0.0,0.0,0.125,3.394775043,0.01,0.0,0.0,0.0,0.0,-0.0,0.0,0.125,1.646728347,0.01,0.0,0.05999999865889549,-0.5,-30.670000076293945,0.0218505859375,0.07177734375,1.00115966796875,26.350000381469727,0.0,-9.0,0.0561676025390625,-0.0354766845703125,Closing,0.0,0.0,0.0,0.0,0.0,0.0,0.0,0.0,
3.285300999999992,0.0,0.0,12.0,0.0,0.0,0.0,0.0,0.125,0.795898356,0.01,0.0,-16.0,0.0,0.0,-0.0,0.0,0.0,0.531005805,0.01,0.0,-1.0,0.0,0.0,0.0,0.0,0.125,3.394775043,0.01,0.0,0.0,0.0,0.0,-0.0,0.0,0.125,1.646728347,0.01,0.0,0.05999999865889549,-0.49000000953674316,-30.670000076293945,0.02691650390625,0.072265625,0.9935302734375,26.350000381469727,0.0,-5.0,0.0561676025390625,-0.03466796875,Closing,0.0,0.0,0.0,0.0,0.0,0.0,0.0,0.0,
3.3286709999999875,0.0,0.0,12.0,0.0,0.0,0.0,0.0,0.125,0.795898356,0.01,0.0,-16.0,0.0,0.0,-0.0,0.0,0.0,0.5297851020000001,0.01,0.0,-1.0,0.0,0.0,0.0,0.0,0.0,3.39355434,0.01,0.0,0.0,0.0,0.0,-0.0,0.0,0.125,1.646728347,0.01,0.0,0.05000000074505806,-0.5,-30.670000076293945,0.01025390625,0.04425048828125,0.9884033203125,26.3700008392334,0.0,-5.0,0.0561676025390625,-0.0316925048828125,Closing,0.0,0.0,0.0,0.0,0.0,0.0,0.0,0.0,
3.3507709999999933,0.0,0.0,12.0,0.0,0.0,0.0,0.0,0.125,0.795898356,0.01,0.0,-16.0,0.0,0.0,-0.0,0.0,0.0,0.531005805,0.01,0.0,-1.0,0.0,0.0,0.0,0.0,0.0,3.39355434,0.01,0.0,0.0,0.0,0.0,-0.0,0.0,0.125,1.646728347,0.01,0.0,0.07000000029802322,-0.5,-30.670000076293945,0.0078125,0.01983642578125,1.00848388671875,26.3700008392334,0.0,4.0,0.0561676025390625,-0.0294342041015625,Closing,0.0,0.0,0.0,0.0,0.0,0.0,0.0,0.0,
3.3916719999999914,0.0,0.0,12.0,0.0,0.0,0.0,0.0,0.125,0.797119059,0.01,0.0,-16.0,0.0,0.0,-0.0,0.0,0.0,0.531005805,0.01,0.0,-1.0,0.0,0.0,0.0,0.0,0.125,3.39355434,0.01,0.0,0.0,0.0,0.0,-0.0,0.0,0.125,1.64794905,0.01,0.0,0.07000000029802322,-0.5,-30.670000076293945,-0.00457763671875,0.01708984375,1.03387451171875,26.3700008392334,0.0,-4.0,0.0561676025390625,-0.027069091796875,Closing,0.0,0.0,0.0,0.0,0.0,0.0,0.0,0.0,
3.4148419999999895,0.0,0.0,12.0,0.0,0.0,0.0,0.0,0.125,0.797119059,0.01,0.0,-16.0,0.0,0.0,-0.0,0.0,0.0,0.531005805,0.01,0.0,-1.0,0.0,0.0,0.0,0.0,0.125,3.39355434,0.01,0.0,0.0,0.0,0.0,-0.0,0.0,0.125,1.64794905,0.01,0.0,0.07000000029802322,-0.49000000953674316,-30.670000076293945,-0.01544189453125,0.00286865234375,1.03515625,26.3700008392334,0.0,-6.0,0.0561676025390625,-0.027069091796875,Closing,0.0,0.0,0.0,0.0,0.0,0.0,0.0,0.0,
3.4708279999999943,0.0,0.0,12.0,0.0,0.0,0.0,0.0,0.125,0.797119059,0.01,0.0,-16.0,0.0,0.0,-0.0,0.0,0.0,0.531005805,0.01,0.0,-1.0,0.0,0.0,0.0,0.0,0.125,3.39355434,0.01,0.0,0.0,0.0,0.0,-0.0,0.0,0.125,1.646728347,0.01,0.0,0.07000000029802322,-0.49000000953674316,-30.670000076293945,-0.0296630859375,-0.01904296875,1.03179931640625,26.3700008392334,0.0,-7.0,0.0561676025390625,-0.027130126953125,Closing,0.0,0.0,0.0,0.0,0.0,0.0,0.0,0.0,
3.489573999999993,0.0,0.0,12.0,0.0,0.0,0.0,0.0,0.125,0.795898356,0.01,0.0,-16.0,0.0,0.0,-0.0,0.0,0.0,0.531005805,0.01,0.0,-1.0,0.0,0.0,0.0,0.0,0.0,3.39355434,0.01,0.0,0.0,0.0,0.0,-0.0,0.0,0.125,1.64794905,0.01,0.0,0.07999999821186066,-0.49000000953674316,-30.670000076293945,-0.0418701171875,-0.04461669921875,1.05255126953125,26.3700008392334,0.0,-4.0,0.0561676025390625,-0.027618408203125,Closing,0.0,0.0,0.0,0.0,0.0,0.0,0.0,0.0,
3.529203999999998,0.0,0.0,12.0,0.0,0.0,0.0,0.0,0.125,0.797119059,0.01,0.0,-16.0,0.0,0.0,-0.0,0.0,0.0,0.5297851020000001,0.01,0.0,-1.0,0.0,0.0,0.0,0.0,0.0,3.394775043,0.01,0.0,0.0,0.0,0.0,-0.0,0.0,0.125,1.64794905,0.01,0.0,0.07000000029802322,-0.5,-30.68000030517578,-0.04986572265625,-0.0484619140625,1.05419921875,26.3700008392334,0.0,-9.0,0.0561676025390625,-0.0279388427734375,Closing,0.0,0.0,0.0,0.0,0.0,0.0,0.0,0.0,
3.551501999999993,0.0,0.0,12.0,0.0,0.0,0.0,0.0,0.125,0.795898356,0.01,0.0,-16.0,0.0,0.0,-0.0,0.0,0.0,0.531005805,0.01,0.0,-1.0,0.0,0.0,0.0,0.0,0.0,3.394775043,0.01,0.0,0.0,0.0,0.0,-0.0,0.0,0.125,1.646728347,0.01,0.0,0.07000000029802322,-0.5,-30.68000030517578,-0.04205322265625,-0.028564453125,1.06640625,26.3700008392334,0.0,-6.0,0.0561676025390625,-0.0298614501953125,Closing,0.0,0.0,0.0,0.0,0.0,0.0,0.0,0.0,
3.593280999999988,0.0,0.0,12.0,0.0,0.0,0.0,0.0,0.125,0.797119059,0.01,0.0,-16.0,0.0,0.0,-0.0,0.0,0.0,0.531005805,0.01,0.0,-1.0,0.0,0.0,0.0,0.0,0.125,3.394775043,0.01,0.0,0.0,0.0,0.0,-0.0,0.0,0.125,1.64794905,0.01,0.0,0.07000000029802322,-0.5,-30.68000030517578,-0.03851318359375,-0.03900146484375,1.0606689453125,26.3700008392334,0.0,-4.0,0.0561676025390625,-0.0305023193359375,Closing,0.0,0.0,0.0,0.0,0.0,0.0,0.0,0.0,
3.61562999999999,0.0,0.0,12.0,0.0,0.0,0.0,0.0,0.125,0.795898356,0.01,0.0,-16.0,0.0,0.0,-0.0,0.0,0.0,0.531005805,0.01,0.0,-1.0,0.0,0.0,0.0,0.0,0.0,3.39355434,0.01,0.0,0.0,0.0,0.0,-0.0,0.0,0.125,1.646728347,0.01,0.0,0.07000000029802322,-0.5,-30.68000030517578,-0.03546142578125,-0.0361328125,1.050048828125,26.3700008392334,0.0,-3.0,0.0561676025390625,-0.0319671630859375,Closing,0.0,0.0,0.0,0.0,0.0,0.0,0.0,0.0,
3.6633659999999946,0.0,0.0,12.0,0.0,0.0,0.0,0.0,0.125,0.797119059,0.01,0.0,-16.0,0.0,0.0,-0.0,0.0,0.0,0.531005805,0.01,0.0,-1.0,0.0,0.0,0.0,0.0,0.0,3.394775043,0.01,0.0,0.0,0.0,0.0,-0.0,0.0,0.125,1.64794905,0.01,0.0,0.07999999821186066,-0.5,-30.68000030517578,-0.0279541015625,-0.04547119140625,1.03118896484375,26.3700008392334,0.0,7.0,0.0561676025390625,-0.0337066650390625,Closing,0.0,0.0,0.0,0.0,0.0,0.0,0.0,0.0,
3.685580999999991,0.0,0.0,12.0,0.0,0.0,0.0,0.0,0.125,0.795898356,0.01,0.0,-16.0,0.0,0.0,-0.0,0.0,0.0,0.531005805,0.01,0.0,-1.0,0.0,0.0,0.0,0.0,0.0,3.394775043,0.01,0.0,0.0,0.0,0.0,-0.0,0.0,0.125,1.64794905,0.01,0.0,0.07000000029802322,-0.5,-30.68000030517578,-0.0274658203125,-0.03338623046875,1.02044677734375,26.3700008392334,0.0,1.0,0.0561676025390625,-0.03570556640625,Closing,0.0,0.0,0.0,0.0,0.0,0.0,0.0,0.0,
3.724123999999996,0.0,0.0,12.0,0.0,0.0,0.0,0.0,0.125,0.795898356,0.01,0.0,-16.0,0.0,0.0,-0.0,0.0,0.0,0.531005805,0.01,0.0,-1.0,0.0,0.0,0.0,0.0,0.125,3.394775043,0.01,0.0,0.0,0.0,0.0,-0.0,0.0,0.125,1.646728347,0.01,0.0,0.07000000029802322,-0.5099999904632568,-30.68000030517578,-0.0147705078125,-0.0242919921875,1.02679443359375,26.3700008392334,0.0,8.0,0.0561676025390625,-0.037933349609375,Closing,0.0,0.0,0.0,0.0,0.0,0.0,0.0,0.0,
3.7412989999999993,0.0,0.0,12.0,0.0,0.0,0.0,0.0,0.125,0.797119059,0.01,0.0,-16.0,0.0,0.0,-0.0,0.0,0.0,0.531005805,0.01,0.0,-1.0,0.0,0.0,0.0,0.0,0.125,3.394775043,0.01,0.0,0.0,0.0,0.0,-0.0,0.0,0.125,1.646728347,0.01,0.0,0.05999999865889549,-0.5099999904632568,-30.68000030517578,-0.01202392578125,-0.016357421875,1.04376220703125,26.3700008392334,0.0,6.0,0.0561676025390625,-0.040283203125,Closing,0.0,0.0,0.0,0.0,0.0,0.0,0.0,0.0,
3.7864349999999978,0.0,0.0,12.0,0.0,0.0,0.0,0.0,0.125,0.795898356,0.01,0.0,-16.0,0.0,0.0,-0.0,0.0,0.0,0.531005805,0.01,0.0,-1.0,0.0,0.0,0.0,0.0,0.0,3.39355434,0.01,0.0,0.0,0.0,0.0,-0.0,0.0,0.125,1.64794905,0.01,0.0,0.05999999865889549,-0.5099999904632568,-30.68000030517578,0.00152587890625,0.01123046875,1.018798828125,26.3700008392334,0.0,4.0,0.0561676025390625,-0.040283203125,Closing,0.0,0.0,0.0,0.0,0.0,0.0,0.0,0.0,
3.8093719999999887,0.0,0.0,12.0,0.0,0.0,0.0,0.0,0.125,0.797119059,0.01,0.0,-16.0,0.0,0.0,-0.0,0.0,0.0,0.531005805,0.01,0.0,-1.0,0.0,0.0,0.0,0.0,0.0,3.394775043,0.01,0.0,0.0,0.0,0.0,-0.0,0.0,0.125,1.64794905,0.01,0.0,0.05999999865889549,-0.5099999904632568,-30.68000030517578,0.01446533203125,0.02752685546875,1.011474609375,26.3700008392334,0.0,6.0,0.0561676025390625,-0.0401763916015625,Closing,0.0,0.0,0.0,0.0,0.0,0.0,0.0,0.0,
3.8429649999999964,0.0,0.0,12.0,0.0,0.0,0.0,0.0,0.125,0.795898356,0.01,0.0,-16.0,0.0,0.0,-0.0,0.0,0.0,0.531005805,0.01,0.0,-1.0,0.0,0.0,0.0,0.0,0.0,3.394775043,0.01,0.0,0.0,0.0,0.0,-0.0,0.0,0.125,1.646728347,0.01,0.0,0.07000000029802322,-0.5099999904632568,-30.68000030517578,0.0299072265625,0.043701171875,0.9986572265625,26.34000015258789,0.0,11.0,0.0561676025390625,-0.03961181640625,Closing,0.0,0.0,0.0,0.0,0.0,0.0,0.0,0.0,
3.8752350000000004,0.0,0.0,12.0,0.0,0.0,0.0,0.0,0.125,0.797119059,0.01,0.0,-16.0,0.0,0.0,-0.0,0.0,0.0,0.531005805,0.01,0.0,-1.0,0.0,0.0,0.0,0.0,0.0,3.39355434,0.01,0.0,0.0,0.0,0.0,-0.0,0.0,0.125,1.646728347,0.01,0.0,0.07000000029802322,-0.5099999904632568,-30.690000534057617,0.026611328125,0.0433349609375,0.9964599609375,26.34000015258789,0.0,9.0,0.0561676025390625,-0.03887939453125,Closing,0.0,0.0,0.0,0.0,0.0,0.0,0.0,0.0,
3.914307000000001,0.0,0.0,12.0,0.0,0.0,0.0,0.0,0.125,0.795898356,0.01,0.0,-16.0,0.0,0.0,-0.0,0.0,0.0,0.531005805,0.01,0.0,-1.0,0.0,0.0,0.0,0.0,0.0,3.39355434,0.01,0.0,0.0,0.0,0.0,-0.0,0.0,0.125,1.64794905,0.01,0.0,0.05999999865889549,-0.5099999904632568,-30.690000534057617,0.02392578125,0.070068359375,0.99444580078125,26.34000015258789,0.0,-6.0,0.0561676025390625,-0.0371856689453125,Closing,0.0,0.0,0.0,0.0,0.0,0.0,0.0,0.0,
3.9400829999999987,0.0,0.0,12.0,0.0,0.0,0.0,0.0,0.125,0.797119059,0.01,0.0,-16.0,0.0,0.0,-0.0,0.0,0.0,0.5297851020000001,0.01,0.0,-1.0,0.0,0.0,0.0,0.0,0.0,3.39355434,0.01,0.0,0.0,0.0,0.0,-0.0,0.0,0.125,1.646728347,0.01,0.0,0.05999999865889549,-0.5099999904632568,-30.690000534057617,0.026123046875,0.0654296875,0.994873046875,26.34000015258789,0.0,-2.0,0.0561676025390625,-0.0364227294921875,Closing,0.0,0.0,0.0,0.0,0.0,0.0,0.0,0.0,
3.9880269999999873,0.0,0.0,12.0,0.0,0.0,0.0,0.0,0.125,0.797119059,0.01,0.0,-16.0,0.0,0.0,-0.0,0.0,0.0,0.532226508,0.01,0.0,-1.0,0.0,0.0,0.0,0.0,0.0,3.394775043,0.01,0.0,0.0,0.0,0.0,-0.0,0.0,0.125,1.64794905,0.01,0.0,0.05999999865889549,-0.5099999904632568,-30.690000534057617,0.00701904296875,0.04302978515625,0.99957275390625,26.34000015258789,0.0,-7.0,0.0561676025390625,-0.03369140625,Closing,0.0,0.0,0.0,0.0,0.0,0.0,0.0,0.0,
4.009682000000001,0.0,0.0,12.0,0.0,0.0,0.0,0.0,0.125,0.797119059,0.01,0.0,-16.0,0.0,0.0,-0.0,0.0,0.0,0.531005805,0.01,0.0,-1.0,0.0,0.0,0.0,0.0,0.125,3.394775043,0.01,0.0,0.0,0.0,0.0,-0.0,0.0,0.125,1.646728347,0.01,0.0,0.07000000029802322,-0.5099999904632568,-30.690000534057617,-6.103515625E-4,0.02166748046875,1.006591796875,26.34000015258789,0.0,-3.0,0.0561676025390625,-0.031585693359375,Closing,0.0,0.0,0.0,0.0,0.0,0.0,0.0,0.0,
4.033593999999997,0.0,0.0,12.0,0.0,0.0,0.0,0.0,0.125,0.795898356,0.01,0.0,-16.0,0.0,0.0,-0.0,0.0,0.0,0.531005805,0.01,0.0,-1.0,0.0,0.0,0.0,0.0,0.125,3.39355434,0.01,0.0,0.0,0.0,0.0,-0.0,0.0,0.125,1.646728347,0.01,0.0,0.07000000029802322,-0.5099999904632568,-30.690000534057617,-0.0018310546875,0.01123046875,1.026611328125,26.34000015258789,0.0,-12.0,0.0561676025390625,-0.0304718017578125,Closing,0.0,0.0,0.0,0.0,0.0,0.0,0.0,0.0,
4.070906999999992,0.0,0.0,12.0,0.0,0.0,0.0,0.0,0.125,0.795898356,0.01,0.0,-16.0,0.0,0.0,-0.0,0.0,0.0,0.5285643990000001,0.01,0.0,-1.0,0.0,0.0,0.0,0.0,0.125,3.39355434,0.01,0.0,0.0,0.0,0.0,-0.0,0.0,0.125,1.64794905,0.01,0.0,0.07999999821186066,-0.5099999904632568,-30.690000534057617,-0.0120849609375,0.013427734375,1.03668212890625,26.34000015258789,0.0,-8.0,0.0561676025390625,-0.030426025390625,Closing,0.0,0.0,0.0,0.0,0.0,0.0,0.0,0.0,
4.1242049999999875,0.0,0.0,12.0,0.0,0.0,0.0,0.0,0.125,0.797119059,0.01,0.0,-16.0,0.0,0.0,-0.0,0.0,0.0,0.531005805,0.01,0.0,-1.0,0.0,0.0,0.0,0.0,0.125,3.394775043,0.01,0.0,0.0,0.0,0.0,-0.0,0.0,0.125,1.64794905,0.01,0.0,0.07000000029802322,-0.5,-30.690000534057617,-0.023193359375,-0.01043701171875,1.03680419921875,26.34000015258789,0.0,-5.0,0.0561676025390625,-0.030364990234375,Closing,0.0,0.0,0.0,0.0,0.0,0.0,0.0,0.0,
4.143591999999989,0.0,0.0,12.0,0.0,0.0,0.0,0.0,0.125,0.795898356,0.01,0.0,-16.0,0.0,0.0,-0.0,0.0,0.0,0.531005805,0.01,0.0,-1.0,0.0,0.0,0.0,0.0,0.125,3.39355434,0.01,0.0,0.0,0.0,0.0,-0.0,0.0,0.125,1.64794905,0.01,0.0,0.07000000029802322,-0.5,-30.690000534057617,-0.0321044921875,-0.0328369140625,1.0382080078125,26.34000015258789,0.0,-2.0,0.0561676025390625,-0.030487060546875,Closing,0.0,0.0,0.0,0.0,0.0,0.0,0.0,0.0,
4.170159,0.0,0.0,12.0,0.0,0.0,0.0,0.0,0.125,0.797119059,0.01,0.0,-16.0,0.0,0.0,-0.0,0.0,0.0,0.531005805,0.01,0.0,-1.0,0.0,0.0,0.0,0.0,0.125,3.39355434,0.01,0.0,0.0,0.0,0.0,-0.0,0.0,0.125,1.646728347,0.01,0.0,0.07999999821186066,-0.5,-30.690000534057617,-0.0372314453125,-0.03582763671875,1.04327392578125,26.34000015258789,0.0,-5.0,0.0561676025390625,-0.0306243896484375,Closing,0.0,0.0,0.0,0.0,0.0,0.0,0.0,0.0,
4.188050999999993,0.0,0.0,12.0,0.0,0.0,0.0,0.0,0.125,0.797119059,0.01,0.0,-16.0,0.0,0.0,-0.0,0.0,0.0,0.531005805,0.01,0.0,-1.0,0.0,0.0,0.0,0.0,0.125,3.39355434,0.01,0.0,0.0,0.0,0.0,-0.0,0.0,0.125,1.646728347,0.01,0.0,0.07999999821186066,-0.5099999904632568,-30.690000534057617,-0.04754638671875,-0.05291748046875,1.06988525390625,26.34000015258789,0.0,-4.0,0.0561676025390625,-0.0311279296875,Closing,0.0,0.0,0.0,0.0,0.0,0.0,0.0,0.0,
4.219793999999994,0.0,0.0,12.0,0.0,0.0,0.0,0.0,0.125,0.797119059,0.01,0.0,-16.0,0.0,0.0,-0.0,0.0,0.0,0.531005805,0.01,0.0,-1.0,0.0,0.0,0.0,0.0,0.0,3.394775043,0.01,0.0,0.0,0.0,0.0,-0.0,0.0,0.125,1.64794905,0.01,0.0,0.07000000029802322,-0.5099999904632568,-30.700000762939453,-0.0428466796875,-0.0333251953125,1.0750732421875,26.34000015258789,0.0,-10.0,0.0561676025390625,-0.031951904296875,Closing,0.0,0.0,0.0,0.0,0.0,0.0,0.0,0.0,
4.262718999999997,0.0,0.0,12.0,0.0,0.0,0.0,0.0,0.125,0.797119059,0.01,0.0,-16.0,0.0,0.0,-0.0,0.0,0.0,0.531005805,0.01,0.0,-1.0,0.0,0.0,0.0,0.0,0.125,3.394775043,0.01,0.0,0.0,0.0,0.0,-0.0,0.0,0.125,1.64794905,0.01,0.0,0.07000000029802322,-0.5099999904632568,-30.700000762939453,-0.037109375,-0.034912109375,1.063720703125,26.34000015258789,0.0,-5.0,0.0561676025390625,-0.0336761474609375,Closing,0.0,0.0,0.0,0.0,0.0,0.0,0.0,0.0,
4.27597099999999,0.0,0.0,12.0,0.0,0.0,0.0,0.0,0.125,0.795898356,0.01,0.0,-16.0,0.0,0.0,-0.0,0.0,0.0,0.531005805,0.01,0.0,-1.0,0.0,0.0,0.0,0.0,0.125,3.39355434,0.01,0.0,0.0,0.0,0.0,-0.0,0.0,0.125,1.646728347,0.01,0.0,0.07000000029802322,-0.5199999809265137,-30.700000762939453,-0.03936767578125,-0.03021240234375,1.05499267578125,26.34000015258789,0.0,-9.0,0.0561676025390625,-0.034393310546875,Closing,0.0,0.0,0.0,0.0,0.0,0.0,0.0,0.0,
4.3282909999999974,0.0,0.0,12.0,0.0,0.0,0.0,0.0,0.125,0.795898356,0.01,0.0,-16.0,0.0,0.0,-0.0,0.0,0.0,0.5297851020000001,0.01,0.0,-1.0,0.0,0.0,0.0,0.0,0.125,3.39355434,0.01,0.0,0.0,0.0,0.0,-0.0,0.0,0.125,1.64794905,0.01,0.0,0.07999999821186066,-0.5099999904632568,-30.700000762939453,-0.0223388671875,-0.04168701171875,1.04571533203125,26.34000015258789,0.0,10.0,0.0561676025390625,-0.036865234375,Closing,0.0,0.0,0.0,0.0,0.0,0.0,0.0,0.0,
4.3482329999999925,0.0,0.0,12.0,0.0,0.0,0.0,0.0,0.125,0.797119059,0.01,0.0,-16.0,0.0,0.0,-0.0,0.0,0.0,0.531005805,0.01,0.0,-1.0,0.0,0.0,0.0,0.0,0.125,3.394775043,0.01,0.0,0.0,0.0,0.0,-0.0,0.0,0.125,1.64794905,0.01,0.0,0.07999999821186066,-0.5,-30.700000762939453,-0.029052734375,-0.0474853515625,1.02691650390625,26.329999923706055,0.0,7.0,0.0561676025390625,-0.038818359375,Closing,0.0,0.0,0.0,0.0,0.0,0.0,0.0,0.0,
4.3914869999999935,0.0,0.0,12.0,0.0,0.0,0.0,0.0,0.125,0.795898356,0.01,0.0,-16.0,0.0,0.0,-0.0,0.0,0.0,0.531005805,0.01,0.0,-1.0,0.0,0.0,0.0,0.0,0.125,3.39355434,0.01,0.0,0.0,0.0,0.0,-0.0,0.0,0.125,1.646728347,0.01,0.0,0.07000000029802322,-0.5,-30.700000762939453,-0.01361083984375,-0.0181884765625,1.03179931640625,26.329999923706055,0.0,6.0,0.0561676025390625,-0.04217529296875,Closing,0.0,0.0,0.0,0.0,0.0,0.0,0.0,0.0,
4.412720000000001,0.0,0.0,12.0,0.0,0.0,0.0,0.0,0.125,0.795898356,0.01,0.0,-16.0,0.0,0.0,-0.0,0.0,0.0,0.531005805,0.01,0.0,-1.0,0.0,0.0,0.0,0.0,0.125,3.394775043,0.01,0.0,0.0,0.0,0.0,-0.0,0.0,0.125,1.646728347,0.01,0.0,0.07000000029802322,-0.5099999904632568,-30.700000762939453,-0.0089111328125,-0.022216796875,1.03759765625,26.329999923706055,0.0,12.0,0.0561676025390625,-0.0433502197265625,Closing,0.0,0.0,0.0,0.0,0.0,0.0,0.0,0.0,
4.456176999999996,0.0,0.0,12.0,0.0,0.0,0.0,0.0,0.125,0.798339762,0.01,0.0,-16.0,0.0,0.0,-0.0,0.0,0.0,0.531005805,0.01,0.0,-1.0,0.0,0.0,0.0,0.0,0.125,3.39355434,0.01,0.0,0.0,0.0,0.0,-0.0,0.0,0.125,1.64794905,0.01,0.0,0.05999999865889549,-0.5199999809265137,-30.700000762939453,0.006591796875,0.0189208984375,1.01690673828125,26.329999923706055,0.0,4.0,0.0561676025390625,-0.046966552734375,Closing,0.0,0.0,0.0,0.0,0.0,0.0,0.0,0.0,
4.479997999999992,0.0,0.0,12.0,0.0,0.0,0.0,0.0,0.125,0.795898356,0.01,0.0,-16.0,0.0,0.0,-0.0,0.0,0.0,0.531005805,0.01,0.0,-1.0,0.0,0.0,0.0,0.0,0.125,3.39355434,0.01,0.0,0.0,0.0,0.0,-0.0,0.0,0.125,1.646728347,0.01,0.0,0.07000000029802322,-0.5099999904632568,-30.700000762939453,0.013916015625,0.0263671875,1.00506591796875,26.329999923706055,0.0,6.0,0.0561676025390625,-0.0492095947265625,Closing,0.0,0.0,0.0,0.0,0.0,0.0,0.0,0.0,
4.507065999999992,0.0,0.0,12.0,0.0,0.0,0.0,0.0,0.125,0.797119059,0.01,0.0,-16.0,0.0,0.0,-0.0,0.0,0.0,0.531005805,0.01,0.0,-1.0,0.0,0.0,0.0,0.0,0.125,3.39355434,0.01,0.0,0.0,0.0,0.0,-0.0,0.0,0.125,1.64794905,0.01,0.0,0.05999999865889549,-0.5199999809265137,-30.700000762939453,0.02056884765625,0.04278564453125,0.991943359375,26.329999923706055,0.0,4.0,0.0561676025390625,-0.05126953125,Closing,0.0,0.0,0.0,0.0,0.0,0.0,0.0,0.0,
4.5404869999999935,0.0,0.0,12.0,0.0,0.0,0.0,0.0,0.125,0.797119059,0.01,0.0,-16.0,0.0,0.0,-0.0,0.0,0.0,0.531005805,0.01,0.0,-1.0,0.0,0.0,0.0,0.0,0.125,3.39355434,0.01,0.0,0.0,0.0,0.0,-0.0,0.0,0.125,1.646728347,0.01,0.0,0.07000000029802322,-0.5099999904632568,-30.700000762939453,0.02825927734375,0.04058837890625,1.0009765625,26.329999923706055,0.0,11.0,0.0561676025390625,-0.053070068359375,Closing,0.0,0.0,0.0,0.0,0.0,0.0,0.0,0.0,
4.574335999999995,0.0,0.0,12.0,0.0,0.0,0.0,0.0,0.125,0.797119059,0.01,0.0,-16.0,0.0,0.0,-0.0,0.0,0.0,0.531005805,0.01,0.0,-1.0,0.0,0.0,0.0,0.0,0.125,3.394775043,0.01,0.0,0.0,0.0,0.0,-0.0,0.0,0.125,1.646728347,0.01,0.0,0.07000000029802322,-0.5099999904632568,-30.709999084472656,0.02740478515625,0.05999755859375,1.00250244140625,26.329999923706055,0.0,1.0,0.0561676025390625,-0.0551910400390625,Closing,0.0,0.0,0.0,0.0,0.0,0.0,0.0,0.0,
4.610849999999991,0.0,0.0,12.0,0.0,0.0,0.0,0.0,0.125,0.797119059,0.01,0.0,-16.0,0.0,0.0,-0.0,0.0,0.0,0.531005805,0.01,0.0,-1.0,0.0,0.0,0.0,0.0,0.125,3.39355434,0.01,0.0,0.0,0.0,0.0,-0.0,0.0,0.125,1.64794905,0.01,0.0,0.05999999865889549,-0.5099999904632568,-30.709999084472656,0.02655029296875,0.0673828125,0.992919921875,26.329999923706055,0.0,-3.0,0.0561676025390625,-0.05572509765625,Closing,0.0,0.0,0.0,0.0,0.0,0.0,0.0,0.0,
4.657606999999989,0.0,0.0,12.0,0.0,0.0,0.0,0.0,0.125,0.795898356,0.01,0.0,-16.0,0.0,0.0,-0.0,0.0,0.0,0.532226508,0.01,0.0,-1.0,0.0,0.0,0.0,0.0,0.125,3.394775043,0.01,0.0,0.0,0.0,0.0,-0.0,0.0,0.125,1.646728347,0.01,0.0,0.05999999865889549,-0.5199999809265137,-30.709999084472656,0.005859375,0.04730224609375,0.9881591796875,26.329999923706055,0.0,-10.0,0.0561676025390625,-0.0567626953125,Closing,0.0,0.0,0.0,0.0,0.0,0.0,0.0,0.0,
4.67068299999999,0.0,0.0,12.0,0.0,0.0,0.0,0.0,0.125,0.797119059,0.01,0.0,-16.0,0.0,0.0,-0.0,0.0,0.0,0.531005805,0.01,0.0,-1.0,0.0,0.0,0.0,0.0,0.125,3.39355434,0.01,0.0,0.0,0.0,0.0,-0.0,0.0,0.125,1.646728347,0.01,0.0,0.05999999865889549,-0.5099999904632568,-30.709999084472656,0.00677490234375,0.0321044921875,0.99383544921875,26.329999923706055,0.0,-2.0,0.0561676025390625,-0.056976318359375,Closing,0.0,0.0,0.0,0.0,0.0,0.0,0.0,0.0,
4.689497999999992,0.0,0.0,12.0,0.0,0.0,0.0,0.0,0.125,0.797119059,0.01,0.0,-16.0,0.0,0.0,-0.0,0.0,0.0,0.531005805,0.01,0.0,-1.0,0.0,0.0,0.0,0.0,0.125,3.394775043,0.01,0.0,0.0,0.0,0.0,-0.0,0.0,0.125,1.64794905,0.01,0.0,0.07000000029802322,-0.5099999904632568,-30.709999084472656,-0.0028076171875,0.017333984375,1.02606201171875,26.329999923706055,0.0,-2.0,0.0561676025390625,-0.057373046875,Closing,0.0,0.0,0.0,0.0,0.0,0.0,0.0,0.0,
4.732574999999997,0.0,0.0,12.0,0.0,0.0,0.0,0.0,0.125,0.797119059,0.01,0.0,-16.0,0.0,0.0,-0.0,0.0,0.0,0.531005805,0.01,0.0,-1.0,0.0,0.0,0.0,0.0,0.125,3.39355434,0.01,0.0,0.0,0.0,0.0,-0.0,0.0,0.125,1.64794905,0.01,0.0,0.07000000029802322,-0.5199999809265137,-30.709999084472656,-0.00299072265625,0.0147705078125,1.03533935546875,26.329999923706055,0.0,-1.0,0.0561676025390625,-0.057464599609375,Closing,0.0,0.0,0.0,0.0,0.0,0.0,0.0,0.0,
4.753345999999991,0.0,0.0,12.0,0.0,0.0,0.0,0.0,0.125,0.797119059,0.01,0.0,-16.0,0.0,0.0,-0.0,0.0,0.0,0.531005805,0.01,0.0,-1.0,0.0,0.0,0.0,0.0,0.125,3.39355434,0.01,0.0,0.0,0.0,0.0,-0.0,0.0,0.125,1.646728347,0.01,0.0,0.07999999821186066,-0.5099999904632568,-30.709999084472656,-0.021240234375,-0.0059814453125,1.0338134765625,26.329999923706055,0.0,-6.0,0.0561676025390625,-0.057464599609375,Closing,0.0,0.0,0.0,0.0,0.0,0.0,0.0,0.0,
4.795098999999987,0.0,0.0,12.0,0.0,0.0,0.0,0.0,0.125,0.797119059,0.01,0.0,-16.0,0.0,0.0,-0.0,0.0,0.0,0.531005805,0.01,0.0,-1.0,0.0,0.0,0.0,0.0,0.125,3.394775043,0.01,0.0,0.0,0.0,0.0,-0.0,0.0,0.125,1.646728347,0.01,0.0,0.07999999821186066,-0.5099999904632568,-30.709999084472656,-0.026611328125,-0.016845703125,1.04833984375,26.329999923706055,0.0,-5.0,0.0561676025390625,-0.0574951171875,Closing,0.0,0.0,0.0,0.0,0.0,0.0,0.0,0.0,
4.816231,0.0,0.0,12.0,0.0,0.0,0.0,0.0,0.125,0.797119059,0.01,0.0,-16.0,0.0,0.0,-0.0,0.0,0.0,0.531005805,0.01,0.0,-1.0,0.0,0.0,0.0,0.0,0.125,3.39355434,0.01,0.0,0.0,0.0,0.0,-0.0,0.0,0.125,1.64794905,0.01,0.0,0.07999999821186066,-0.5099999904632568,-30.709999084472656,-0.0347900390625,-0.02587890625,1.036376953125,26.329999923706055,0.0,-7.0,0.0561676025390625,-0.0576629638671875,Closing,0.0,0.0,0.0,0.0,0.0,0.0,0.0,0.0,
4.862437999999995,0.0,0.0,12.0,0.0,0.0,0.0,0.0,0.125,0.795898356,0.01,0.0,-16.0,0.0,0.0,-0.0,0.0,0.0,0.531005805,0.01,0.0,-1.0,0.0,0.0,0.0,0.0,0.125,3.394775043,0.01,0.0,0.0,0.0,0.0,-0.0,0.0,0.125,1.64794905,0.01,0.0,0.07000000029802322,-0.5099999904632568,-30.709999084472656,-0.0350341796875,-0.041015625,1.04962158203125,26.350000381469727,0.0,0.0,0.0561676025390625,-0.058074951171875,Closing,0.0,0.0,0.0,0.0,0.0,0.0,0.0,0.0,
4.880649999999994,0.0,0.0,12.0,0.0,0.0,0.0,0.0,0.125,0.797119059,0.01,0.0,-16.0,0.0,0.0,-0.0,0.0,0.0,0.531005805,0.01,0.0,-1.0,0.0,0.0,0.0,0.0,0.125,3.394775043,0.01,0.0,0.0,0.0,0.0,-0.0,0.0,0.125,1.64794905,0.01,0.0,0.07000000029802322,-0.5199999809265137,-30.709999084472656,-0.037841796875,-0.03143310546875,1.0810546875,26.350000381469727,0.0,-7.0,0.0561676025390625,-0.0587615966796875,Closing,0.0,0.0,0.0,0.0,0.0,0.0,0.0,0.0,
4.922970000000001,0.0,0.0,12.0,0.0,0.0,0.0,0.0,0.125,0.797119059,0.01,0.0,-16.0,0.0,0.0,-0.0,0.0,0.0,0.531005805,0.01,0.0,-1.0,0.0,0.0,0.0,0.0,0.125,3.39355434,0.01,0.0,0.0,0.0,0.0,-0.0,0.0,0.125,1.64794905,0.01,0.0,0.07000000029802322,-0.5199999809265137,-30.709999084472656,-0.040771484375,-0.039794921875,1.080078125,26.350000381469727,0.0,-5.0,0.0561676025390625,-0.0597076416015625,Closing,0.0,0.0,0.0,0.0,0.0,0.0,0.0,0.0,
4.935727999999989,0.0,0.0,12.0,0.0,0.0,0.0,0.0,0.125,0.797119059,0.01,0.0,-16.0,0.0,0.0,-0.0,0.0,0.0,0.5297851020000001,0.01,0.0,-1.0,0.0,0.0,0.0,0.0,0.125,3.39355434,0.01,0.0,0.0,0.0,0.0,-0.0,0.0,0.125,1.646728347,0.01,0.0,0.07000000029802322,-0.5199999809265137,-30.709999084472656,-0.043701171875,-0.03887939453125,1.08056640625,26.350000381469727,0.0,-8.0,0.0561676025390625,-0.0602874755859375,Closing,0.0,0.0,0.0,0.0,0.0,0.0,0.0,0.0,
4.95632699999999,0.0,0.0,12.0,0.0,0.0,0.0,0.0,0.125,0.797119059,0.01,0.0,-16.0,0.0,0.0,-0.0,0.0,0.0,0.531005805,0.01,0.0,-1.0,0.0,0.0,0.0,0.0,0.125,3.394775043,0.01,0.0,0.0,0.0,0.0,-0.0,0.0,0.125,1.646728347,0.01,0.0,0.07000000029802322,-0.5299999713897705,-30.709999084472656,-0.03936767578125,-0.04058837890625,1.06353759765625,26.350000381469727,0.0,-3.0,0.0561676025390625,-0.0616455078125,Closing,0.0,0.0,0.0,0.0,0.0,0.0,0.0,0.0,
4.98355799999999,0.0,0.0,12.0,0.0,0.0,0.0,0.0,0.125,0.797119059,0.01,0.0,-16.0,0.0,0.0,-0.0,0.0,0.0,0.531005805,0.01,0.0,-1.0,0.0,0.0,0.0,0.0,0.125,3.39355434,0.01,0.0,0.0,0.0,0.0,-0.0,0.0,0.125,1.646728347,0.01,0.0,0.07000000029802322,-0.5299999713897705,-30.709999084472656,-0.0328369140625,-0.03765869140625,1.06048583984375,26.350000381469727,0.0,0.0,0.0561676025390625,-0.06243896484375,Closing,0.0,0.0,0.0,0.0,0.0,0.0,0.0,0.0,
