Time,ClimberA1,ClimberA2,FRpos,FRCurrent,FRspeed,FRsetpoint,FRApos,FRACurrent,FREncpos,FREncSetpoint,FREncSpeed,FLpos,FLCurrent,FLspeed,FLsetpoint,FLApos,FLACurrent,FLEncpos,FLEncSetpoint,FLEncSpeed,BRpos,BRCurrent,BRspeed,BRsetpoint,BRApos,BRACurrent,BREncpos,BREncSetpoint,BREncSpeed,BLpos,BLCurrent,BLspeed,BLsetpoint,BLApos,BLACurrent,BLEncpos,BLEncSetpoint,BLEncSpeed,navx_Pitch,navx_Roll,navx_Yaw,navx_XAcc,navx_YAcc,navx_ZAcc,navx_Temp,navx_Bar,navx_Alt,navx_XDis,navx_YDis,GearPlacerState,ShootOutputV,ShootOutputCurrent,ShootEncPos,ShootEncVelocity,ShootSpeed,ShootSetpoint,CarouselSetpoint,CarouselCurrent,
0.27695100000000095,0.0,0.0,9394.0,0.0,0.0,0.0,0.0,0.125,0.811767495,0.01,0.0,-8167.0,0.0,0.0,-0.0,0.0,0.125,0.49194330900000005,0.01,0.0,-1264.0,0.0,0.0,0.0,0.0,0.125,3.38134731,0.01,0.0,-9466.0,0.0,0.0,-0.0,0.0,0.25,1.646728347,0.01,0.0,0.14000000059604645,-0.14000000059604645,-10.640000343322754,-0.0032958984375,0.001708984375,1.02178955078125,33.849998474121094,0.0,0.0,0.381195068359375,0.2840728759765625,Closing,0.0,0.0,0.0,0.0,0.0,0.0,0.0,0.0,
0.47747299999999815,0.0,0.0,9394.0,0.0,0.0,0.0,0.0,0.125,0.811767495,0.01,0.0,-8167.0,0.0,0.0,0.0,0.0,0.125,0.49316401200000004,0.01,0.0,-1264.0,0.0,0.0,0.0,0.0,0.125,3.38134731,0.01,0.0,-9466.0,0.0,0.0,0.0,0.0,0.25,1.646728347,0.01,0.0,0.14000000059604645,-0.14000000059604645,-10.630000114440918,-0.00372314453125,7.9345703125E-4,1.0223388671875,33.86000061035156,0.0,0.0,0.381195068359375,0.2840728759765625,Closing,0.0,0.0,0.0,0.0,0.0,0.0,0.0,0.0,
0.6664309999999823,0.0,0.0,9394.0,0.0,0.0,0.0,0.0,0.125,0.811767495,0.01,0.0,-8167.0,0.0,0.0,0.0,0.0,0.0,0.490722606,0.01,0.0,-1264.0,0.0,0.0,0.0,0.0,0.125,3.38134731,0.01,0.0,-9466.0,0.0,0.0,0.0,0.0,0.25,1.646728347,0.01,0.0,0.14000000059604645,-0.14000000059604645,-10.630000114440918,-0.00299072265625,0.00445556640625,1.0230712890625,33.86000061035156,0.0,0.0,0.381195068359375,0.2840728759765625,Closing,0.0,0.0,0.0,0.0,0.0,0.0,0.0,0.0,
0.8037669999999926,0.0,0.0,9394.0,0.0,0.0,0.0,0.0,0.125,0.811767495,0.01,0.0,-8167.0,0.0,0.0,0.0,0.0,0.125,0.49316401200000004,0.01,0.0,-1264.0,0.0,0.0,0.0,0.0,0.125,3.382568013,0.01,0.0,-9466.0,0.0,0.0,0.0,0.0,0.25,1.646728347,0.01,0.0,0.14000000059604645,-0.12999999523162842,-10.630000114440918,-0.00335693359375,6.103515625E-4,1.02178955078125,33.86000061035156,0.0,0.0,0.381195068359375,0.2840728759765625,Closing,0.0,0.0,0.0,0.0,0.0,0.0,0.0,0.0,
1.0122039999999106,0.0,0.0,9394.0,0.0,0.0,0.0,0.0,0.125,0.811767495,0.01,0.0,-8167.0,0.0,0.0,0.0,0.0,0.125,0.49194330900000005,0.01,0.0,-1264.0,0.0,0.0,0.0,0.0,0.125,3.38134731,0.01,0.0,-9466.0,0.0,0.0,0.0,0.0,0.25,1.645507644,0.01,0.0,0.14000000059604645,-0.14000000059604645,-10.619999885559082,-0.0010986328125,8.544921875E-4,1.01806640625,33.86000061035156,0.0,1.0,0.381195068359375,0.2840728759765625,Closing,0.0,0.0,0.0,0.0,0.0,0.0,0.0,0.0,
1.2111959999999962,0.0,0.0,9394.0,0.0,0.0,0.0,0.0,0.125,0.811767495,0.01,0.0,-8167.0,0.0,0.0,0.0,0.0,0.125,0.49194330900000005,0.01,0.0,-1264.0,0.0,0.0,0.0,0.0,0.125,3.38134731,0.01,0.0,-9466.0,0.0,0.0,0.0,0.0,0.25,1.646728347,0.01,0.0,0.14000000059604645,-0.14000000059604645,-10.619999885559082,-0.00274658203125,0.00103759765625,1.02642822265625,33.86000061035156,0.0,0.0,0.381195068359375,0.2840728759765625,Closing,0.0,0.0,0.0,0.0,0.0,0.0,0.0,0.0,
1.409948999999906,0.0,0.0,9394.0,0.0,0.0,0.0,0.0,0.125,0.811767495,0.01,0.0,-8167.0,0.0,0.0,0.0,0.0,0.0,0.49316401200000004,0.01,0.0,-1264.0,0.0,0.0,0.0,0.0,0.125,3.38134731,0.01,0.0,-9466.0,0.0,0.0,0.0,0.0,0.25,1.646728347,0.01,0.0,0.14000000059604645,-0.12999999523162842,-10.630000114440918,-0.00445556640625,4.2724609375E-4,1.023681640625,33.86000061035156,0.0,-1.0,0.381195068359375,0.2840728759765625,Closing,0.0,0.0,0.0,0.0,0.0,0.0,0.0,0.0,
1.6108629999998958,0.0,0.0,9336.0,5.5,-315.0,-1091.3385879993439,0.0,0.25,0.701904225,4.78661258695986,0.0,-8109.0,11.75,367.5,1091.3385879993439,0.0,0.25,0.39062496,4.817200900922062,0.0,-1320.0,5.875,-435.0,-1091.3385879993439,0.0,0.125,3.227538732,4.794520965096158,0.0,-9416.0,4.875,352.5,1091.3385879993439,0.0,0.25,1.4465330550000002,4.811601276201674,0.0,0.07999999821186066,-1.7699999809265137,-10.6899995803833,-0.10260009765625,0.13580322265625,0.5684814453125,33.849998474121094,0.0,-108.0,0.365020751953125,0.2778778076171875,Closing,0.0,0.0,0.0,0.0,0.0,0.0,0.0,0.0,
1.8103369999999412,0.0,0.0,9080.0,3.75,-937.5,-1121.1023533344269,0.0,0.125,0.649413996,4.786064559593611,0.0,-7863.0,8.75,892.5,1121.1023533344269,0.0,0.0,0.30395504700000003,4.816649371448042,0.0,-1505.0,7.25,-660.0,-1121.1023533344269,0.0,0.0,3.1530758490000004,4.793972032286328,0.0,-9195.0,4.375,847.5,1121.1023533344269,0.0,0.25,1.235351436,4.811050387838154,0.0,0.8799999952316284,-3.180000066757202,-9.619999885559082,-0.23046875,0.11383056640625,1.74053955078125,33.849998474121094,0.0,-146.0,0.30023193359375,0.2775726318359375,Closing,0.0,0.0,0.0,0.0,0.0,0.0,0.0,0.0,
2.0011729999999517,0.0,0.0,8906.0,0.125,-1072.5,-882.9921555519103,0.0,0.25,0.6347655600000001,4.802368396605018,0.0,-7706.0,2.75,1005.0,882.9921555519103,0.0,0.0,0.289306611,4.833057396311763,0.0,-1651.0,1.5,-1027.5,-882.9921555519103,0.0,0.0,3.187255533,4.8103028062820465,0.0,-8896.0,2.0,952.5,882.9921555519103,0.0,0.25,1.564941246,4.82743933963776,0.0,0.9200000166893005,-3.180000066757202,-6.949999809265137,-0.00140380859375,-0.1220703125,1.53900146484375,33.849998474121094,0.0,101.0,0.204864501953125,0.2976531982421875,Closing,0.0,0.0,0.0,0.0,0.0,0.0,0.0,0.0,
2.2117949999999253,0.0,0.0,8611.0,0.0,-735.0,0.0,0.0,0.25,0.639648372,4.802368396605018,0.0,-7399.0,0.0,900.0,0.0,0.0,0.0,0.39062496,4.833057396311763,0.0,-1905.0,0.0,-487.5,0.0,0.0,0.0,3.236083653,4.8103028062820465,0.0,-8743.0,0.0,915.0,0.0,0.0,0.25,1.561279137,4.82743933963776,0.0,0.15000000596046448,-1.4800000190734863,-9.539999961853027,0.17132568359375,-0.05902099609375,1.25836181640625,33.79999923706055,0.0,211.0,0.1487274169921875,0.3084259033203125,Closing,0.0,0.0,0.0,0.0,0.0,0.0,0.0,0.0,
2.4090359999999635,0.0,0.0,8445.0,0.0,-487.5,0.0,0.0,0.25,0.617675718,4.802368396605018,0.0,-7194.0,0.0,480.0,0.0,0.0,0.125,0.410156208,4.833057396311763,0.0,-2058.0,0.0,-465.0,0.0,0.0,0.125,3.2080074840000004,4.8103028062820465,0.0,-8543.0,0.0,487.5,0.0,0.0,0.25,1.468505709,4.82743933963776,0.0,0.0,-0.5199999809265137,-9.819999694824219,0.10784912109375,0.05029296875,1.099853515625,33.79999923706055,0.0,106.0,0.141571044921875,0.3096160888671875,Closing,0.0,0.0,0.0,0.0,0.0,0.0,0.0,0.0,
2.6117919999998995,0.0,0.0,8401.0,0.0,-150.0,0.0,0.0,0.25,0.6591796200000001,4.802368396605018,0.0,-7133.0,0.0,112.5,0.0,0.0,0.25,0.411376911,4.833057396311763,0.0,-2122.0,0.0,-127.5,0.0,0.0,0.0,3.2080074840000004,4.8103028062820465,0.0,-8480.0,0.0,127.5,0.0,0.0,0.25,1.429443213,4.82743933963776,0.0,-0.14000000059604645,0.6100000143051147,-9.699999809265137,0.10504150390625,-0.02862548828125,0.98077392578125,33.79999923706055,0.0,97.0,0.16278076171875,0.3110809326171875,Closing,0.0,0.0,0.0,0.0,0.0,0.0,0.0,0.0,
2.8139149999999207,0.0,0.0,8383.0,0.0,0.0,0.0,0.0,0.125,0.6591796200000001,4.802368396605018,0.0,-7133.0,0.0,0.0,0.0,0.0,0.25,0.410156208,4.833057396311763,0.0,-2122.0,0.0,0.0,0.0,0.0,0.0,3.2067867810000004,4.8103028062820465,0.0,-8480.0,0.0,0.0,0.0,0.0,0.125,1.468505709,4.82743933963776,0.0,-0.12999999523162842,0.6399999856948853,-9.710000038146973,-0.01434326171875,0.0147705078125,0.96966552734375,33.79999923706055,0.0,-27.0,0.1788482666015625,0.311187744140625,Closing,0.0,0.0,0.0,0.0,0.0,0.0,0.0,0.0,
3.015177999999956,0.0,0.0,8407.0,0.125,135.0,327.4015688896179,0.0,1.625,4.407958533,3.5661544794495805,0.0,-7117.0,1.5,37.5,327.4015688896179,0.0,1.5,1.6076658510000001,1.1070585919740183,0.0,-2103.0,0.375,120.0,327.4015688896179,0.0,1.375,2.071532991,3.5720464328098283,0.0,-8482.0,0.75,-7.5,-327.4015688896179,0.0,1.75,0.35400387,3.584771721696852,0.0,-0.1899999976158142,0.47999998927116394,-9.8100004196167,0.06494140625,-0.1402587890625,1.12896728515625,33.79999923706055,0.0,77.0,0.1727294921875,0.31060791015625,Closing,0.0,0.0,0.0,0.0,0.0,0.0,0.0,0.0,
3.209527999999933,0.0,0.0,8460.0,0.5,202.5,337.32282400131226,0.0,0.125,4.114989813,3.564784404500957,0.0,-7081.0,3.0,165.0,337.32282400131226,0.0,0.25,2.299804452,1.1056797617142184,0.0,-2056.0,0.875,150.0,337.32282400131226,0.0,0.125,1.666259595,3.5706740942414585,0.0,-8498.0,1.375,-75.0,-337.32282400131226,0.0,0.25,4.893798327,3.583394494220944,0.0,-0.25999999046325684,0.20000000298023224,-8.949999809265137,0.0177001953125,0.11553955078125,1.0028076171875,33.7599983215332,0.0,-4.0,0.1680450439453125,0.296875,Closing,0.0,0.0,0.0,0.0,0.0,0.0,0.0,0.0,
3.4074569999999365,0.0,0.0,8468.0,0.875,15.0,119.05511766672133,0.0,0.375,4.256591361,3.5765670124743103,0.0,-7074.0,3.125,15.0,119.05511766672133,0.0,0.875,1.9152830070000002,1.1175376651298985,0.0,-2050.0,1.5,0.0,119.05511766672133,0.0,0.25,1.8652341840000002,3.5824761692841833,0.0,-8500.0,2.25,-7.5,-119.05511766672133,0.0,0.25,0.124511706,3.5952386137379526,0.0,-0.07999999821186066,0.12999999523162842,-8.880000114440918,-0.0577392578125,-0.0946044921875,1.06121826171875,33.7599983215332,0.0,-45.0,0.16766357421875,0.2962188720703125,Closing,0.0,0.0,0.0,0.0,0.0,0.0,0.0,0.0,
3.6083299999999583,0.0,0.0,8469.0,0.0,0.0,0.0,0.0,0.25,4.40673783,3.5765670124743103,0.0,-7064.0,0.0,0.0,0.0,0.0,0.25,1.511230314,1.1175376651298985,0.0,-2052.0,0.0,0.0,0.0,0.0,0.125,2.0593259610000003,3.5824761692841833,0.0,-8508.0,0.0,0.0,0.0,0.0,0.25,0.314941374,3.5952386137379526,0.0,-0.029999999329447746,0.11999999731779099,-8.789999961853027,-0.02227783203125,0.01336669921875,1.0291748046875,33.779998779296875,0.0,-26.0,0.1669769287109375,0.29046630859375,Closing,0.0,0.0,0.0,0.0,0.0,0.0,0.0,0.0,
3.813762999999919,0.0,0.0,8489.0,0.5,52.5,337.32282400131226,0.0,0.125,4.432372593,3.5786221118312422,0.0,-7041.0,1.5,60.0,337.32282400131226,0.0,0.25,1.4526365700000001,1.1196058973700984,0.0,-2036.0,0.75,52.5,337.32282400131226,0.0,0.125,2.022704871,3.5845346640491473,0.0,-8513.0,0.625,-15.0,-337.32282400131226,0.0,0.25,0.30517575,3.5973044418176,0.0,-0.11999999731779099,0.029999999329447746,-8.819999694824219,-0.02008056640625,-0.09674072265625,1.03814697265625,33.779998779296875,0.0,-6.0,0.16656494140625,0.2888641357421875,Closing,0.0,0.0,0.0,0.0,0.0,0.0,0.0,0.0,
3.9987449999999956,0.0,0.0,8506.0,1.375,112.5,347.2440791130066,0.0,0.25,4.411620642,3.5783481046811194,0.0,-7023.0,3.0,120.0,347.2440791130066,0.0,0.25,1.6027830390000002,1.1193301392078383,0.0,-2020.0,0.875,120.0,347.2440791130066,0.0,0.125,2.0092771380000003,3.5842602041880274,0.0,-8545.0,0.75,-150.0,-347.2440791130066,0.0,0.125,0.29663082900000004,3.597029004202947,0.0,-0.4699999988079071,0.019999999552965164,-8.960000038146973,0.00128173828125,-0.12445068359375,1.0458984375,33.779998779296875,0.0,18.0,0.166473388671875,0.2816314697265625,Closing,0.0,0.0,0.0,0.0,0.0,0.0,0.0,0.0,
4.200407999999937,0.0,0.0,8584.0,0.875,270.0,347.24407911300653,0.0,0.25,4.412841345,3.5762929922581845,0.0,-6947.0,2.75,262.5,347.24407911300653,0.0,0.125,1.6845701400000002,1.1172618938181385,0.0,-1941.0,1.125,255.0,347.24407911300653,0.0,0.0,2.003173623,3.5822016963354733,0.0,-8616.0,0.625,-292.5,-347.24407911300653,0.0,0.125,0.27709958100000004,3.594963162989085,0.0,-0.7699999809265137,-0.07999999821186066,-9.0,-0.0452880859375,-0.10443115234375,1.00445556640625,33.7599983215332,0.0,-29.0,0.16558837890625,0.2648468017578125,Closing,0.0,0.0,0.0,0.0,0.0,0.0,0.0,0.0,
4.407556999999914,0.0,0.0,8640.0,0.5,360.0,347.24407911300653,0.0,0.25,4.41894486,3.5758819749999984,0.0,-6833.0,1.625,367.5,347.24407911300653,0.0,0.0,1.6845701400000002,1.1168482499999985,0.0,-1830.0,0.5,352.5,347.24407911300653,0.0,0.0,2.003173623,3.5817899999999985,0.0,-8724.0,0.625,-315.0,-347.24407911300653,0.0,0.25,0.272216769,3.5945499999999986,0.0,-0.7900000214576721,-0.14000000059604645,-8.880000114440918,-0.021484375,-0.021484375,0.9534912109375,33.7599983215332,0.0,-17.0,0.164093017578125,0.2332000732421875,Closing,0.0,0.0,0.0,0.0,0.0,0.0,0.0,0.0,
4.608620999999927,0.0,0.0,8758.0,0.5,360.0,347.24407911300653,0.0,0.125,4.4006343150000005,3.577526057098745,0.0,-6773.0,1.25,382.5,347.24407911300653,0.0,0.0,1.6613767830000001,1.1185028384220586,0.0,-1771.0,0.75,352.5,347.24407911300653,0.0,0.0,2.0080564350000003,3.5834367984294877,0.0,-8785.0,0.375,-367.5,-347.24407911300653,0.0,0.125,0.27099606600000004,3.5962026650905594,0.0,-0.6700000166893005,-0.11999999731779099,-8.8100004196167,-0.01324462890625,0.0355224609375,0.98065185546875,33.75,0.0,-18.0,0.16326904296875,0.2210845947265625,Closing,0.0,0.0,0.0,0.0,0.0,0.0,0.0,0.0,
4.803845999999903,0.0,0.0,8878.0,0.75,375.0,410.1454014172999,0.0,0.375,4.00390584,3.137976211438281,0.0,-6648.0,1.625,397.5,410.1454014172999,0.0,0.25,1.170654177,0.6761440984889048,0.0,-1648.0,0.75,390.0,410.1454014172999,0.0,0.375,1.621093584,3.1431607343157686,0.0,-8900.0,0.625,-360.0,-410.1454014172999,0.0,0.5,4.732665531,3.1543581330939965,0.0,-0.46000000834465027,-0.41999998688697815,-8.979999542236328,-0.18475341796875,0.09820556640625,0.88336181640625,33.75,0.0,-192.0,0.159942626953125,0.2210540771484375,Closing,0.0,0.0,0.0,0.0,0.0,0.0,0.0,0.0,
5.010320999999997,0.0,0.0,9002.0,0.75,390.0,426.6141575574875,0.0,1.25,2.4743649810000004,2.343093245216129,0.0,-6521.0,2.0,390.0,426.6141575574875,0.0,0.5,4.825438959,4.839951521311763,0.0,-1524.0,0.75,382.5,426.6141575574875,0.0,1.375,0.083007804,2.346964472948713,0.0,-8984.0,2.75,-195.0,-426.6141575574875,0.0,0.875,3.2116695930000003,2.3553254507488703,0.0,1.2200000286102295,-0.7099999785423279,-9.210000038146973,0.12957763671875,0.1419677734375,0.89837646484375,33.75,0.0,119.0,0.1283416748046875,0.2441558837890625,Closing,0.0,0.0,0.0,0.0,0.0,0.0,0.0,0.0,
5.208797999999952,0.0,0.0,9052.0,2.625,292.5,496.06298089027405,0.0,1.0,3.040771173,2.339394050694447,0.0,-6465.0,5.5,292.5,496.06298089027405,0.0,0.75,0.212402322,4.836228687500002,0.0,-1471.0,2.125,285.0,496.06298089027405,0.0,0.75,0.592040955,2.343259166666669,0.0,-9020.0,3.125,-390.0,-496.06298089027405,0.0,0.75,4.0258784940000005,2.351606944444447,0.0,1.2799999713897705,-0.9700000286102295,-9.300000190734863,-0.280029296875,-0.1568603515625,1.1297607421875,33.7599983215332,0.0,-227.0,0.109283447265625,0.29803466796875,Closing,0.0,0.0,0.0,0.0,0.0,0.0,0.0,0.0,
5.407546999999904,0.0,0.0,9172.0,2.625,397.5,496.062980890274,0.0,0.25,3.3618160620000004,2.338983033436261,0.0,-6326.0,3.375,517.5,496.062980890274,0.0,0.0,0.46386714,4.835815043681863,0.0,-1349.0,2.25,420.0,496.062980890274,0.0,0.125,0.9606932610000001,2.3428474703311943,0.0,-9184.0,2.25,-510.0,-496.062980890274,0.0,0.125,4.218749568,2.3511937814553603,0.0,0.3700000047683716,-1.5099999904632568,-9.989999771118164,-0.0513916015625,-0.0013427734375,1.35528564453125,33.7599983215332,0.0,-13.0,0.080230712890625,0.313934326171875,Closing,0.0,0.0,0.0,0.0,0.0,0.0,0.0,0.0,
5.609636999999988,0.0,0.0,9253.0,0.375,540.0,357.16537177562714,0.0,0.25,3.089599293,2.3292555378858437,0.0,-6154.0,0.375,510.0,357.16537177562714,0.0,0.25,0.44677729800000004,4.826025385655883,0.0,-1194.0,0.5,480.0,357.16537177562714,0.0,0.125,0.716552661,2.3331039031410246,0.0,-9333.0,1.25,-382.5,-357.16537177562714,0.0,0.25,3.7829585970000004,2.341415503152214,0.0,0.699999988079071,-1.1100000143051147,-10.25,0.07318115234375,0.0511474609375,1.105712890625,33.7599983215332,0.0,86.0,0.04022216796875,0.32965087890625,Closing,0.0,0.0,0.0,0.0,0.0,0.0,0.0,0.0,
5.80067499999993,0.0,0.0,9416.0,0.375,457.5,357.16537177562714,0.0,0.25,2.991943053,2.3256933534722246,0.0,-6090.0,1.125,367.5,357.16537177562714,0.0,0.25,0.377197227,4.822440437500003,0.0,-1122.0,0.5,427.5,357.16537177562714,0.0,0.0,0.6066893910000001,2.3295358333333356,0.0,-9398.0,0.75,-465.0,-357.16537177562714,0.0,0.25,3.8317867170000004,2.3378347222222247,0.0,0.75,-0.5400000214576721,-9.329999923706055,0.056884765625,-0.0098876953125,0.95330810546875,33.7599983215332,0.0,68.0,0.020538330078125,0.356353759765625,Closing,0.0,0.0,0.0,0.0,0.0,0.0,0.0,0.0,
6.013512999999919,0.0,0.0,9535.0,0.5,345.0,357.16537177562714,0.0,0.375,3.123778977,2.3382979959619496,0.0,-5978.0,1.375,352.5,357.16537177562714,0.0,0.0,0.34912105800000004,4.835125628551963,0.0,-1029.0,1.875,172.5,357.16537177562714,0.0,0.125,0.728759691,2.34216130104701,0.0,-9527.0,1.25,-360.0,-357.16537177562714,0.0,0.25,4.079589426,2.3505051677174067,0.0,0.5099999904632568,-0.5199999809265137,-9.199999809265137,-0.063232421875,0.0123291015625,1.1181640625,33.7599983215332,0.0,-52.0,0.014373779296875,0.3526763916015625,Closing,0.0,0.0,0.0,0.0,0.0,0.0,0.0,0.0,
6.198507999999914,0.0,0.0,9594.0,0.5,367.5,357.16537177562714,0.0,0.125,3.178710612,2.3400790881687588,0.0,-5915.0,0.625,412.5,357.16537177562714,0.0,0.25,0.313720671,4.836918102629903,0.0,-1003.0,2.5,202.5,357.16537177562714,0.0,0.0,0.7763671080000001,2.343945335950854,0.0,-9588.0,0.75,-397.5,-357.16537177562714,0.0,0.25,4.069823802,2.352295558182401,0.0,0.4300000071525574,-0.6899999976158142,-9.579999923706055,-0.0078125,-0.01422119140625,1.05804443359375,33.72999954223633,0.0,17.0,0.0112457275390625,0.3432464599609375,Closing,0.0,0.0,0.0,0.0,0.0,0.0,0.0,0.0,
6.409971999999951,0.0,0.0,9716.0,0.375,405.0,357.16537177562714,0.0,0.25,3.175048503,2.3330917294495843,0.0,-5782.0,0.375,405.0,357.16537177562714,0.0,0.0,0.313720671,4.829886091974022,0.0,-922.0,3.125,360.0,357.16537177562714,0.0,0.125,0.7775878110000001,2.336946432809832,0.0,-9720.0,0.625,-397.5,-357.16537177562714,0.0,0.25,3.911132412,2.345271721696856,0.0,0.4300000071525574,-0.7200000286102295,-9.8100004196167,0.04974365234375,-0.0020751953125,0.90673828125,33.72999954223633,0.0,61.0,0.011627197265625,0.332427978515625,Closing,0.0,0.0,0.0,0.0,0.0,0.0,0.0,0.0,
6.6090929999999934,0.0,0.0,9847.0,0.125,390.0,357.16537177562714,0.0,0.25,3.178710612,2.3317216545009614,0.0,-5656.0,0.375,375.0,357.16537177562714,0.0,0.0,0.332031216,4.828507261714223,0.0,-802.0,2.5,367.5,357.16537177562714,0.0,0.125,0.782470623,2.335574094241463,0.0,-9840.0,0.625,-330.0,-357.16537177562714,0.0,0.125,3.8977046790000003,2.3438944942209483,0.0,0.4399999976158142,-0.5400000214576721,-9.5600004196167,0.0047607421875,0.07794189453125,1.15185546875,33.720001220703125,0.0,4.0,0.0128021240234375,0.3228759765625,Closing,0.0,0.0,0.0,0.0,0.0,0.0,0.0,0.0,
6.799103000000003,0.0,0.0,9907.0,0.125,382.5,357.16537177562714,0.0,0.125,3.1616207700000003,2.335146828806517,0.0,-5597.0,0.5,345.0,357.16537177562714,0.0,0.0,0.347900355,4.831954324214223,0.0,-742.0,2.625,397.5,357.16537177562714,0.0,0.125,0.7775878110000001,2.339004927574796,0.0,-9904.0,0.75,-315.0,-357.16537177562714,0.0,0.125,3.9453120960000003,2.347337549776504,0.0,0.4099999964237213,-0.49000000953674316,-9.270000457763672,-0.0382080078125,-0.0699462890625,0.98944091796875,33.720001220703125,0.0,-16.0,0.0141448974609375,0.3190765380859375,Closing,0.0,0.0,0.0,0.0,0.0,0.0,0.0,0.0,
7.007961999999941,0.0,0.0,10023.0,0.375,345.0,357.16537177562714,0.0,0.125,3.1616207700000003,2.339120030478321,0.0,-5484.0,0.5,352.5,357.16537177562714,0.0,0.0,0.346679652,4.835952916188242,0.0,-617.0,2.5,382.5,357.16537177562714,0.0,0.125,0.7775878110000001,2.342984693717959,0.0,-10019.0,0.625,-345.0,-357.16537177562714,0.0,0.25,3.964843344,2.351331493695579,0.0,0.3499999940395355,-0.4699999988079071,-9.210000038146973,0.01141357421875,0.0086669921875,0.9503173828125,33.720001220703125,0.0,18.0,0.0152130126953125,0.31768798828125,Closing,0.0,0.0,0.0,0.0,0.0,0.0,0.0,0.0,
7.198612999999896,0.0,0.0,10136.0,0.375,345.0,357.16537177562714,0.0,0.125,3.143310225,2.3399420780606954,0.0,-5369.0,0.5,352.5,357.16537177562714,0.0,0.25,0.347900355,4.836780216974023,0.0,-497.0,2.375,375.0,357.16537177562714,0.0,0.125,0.7763671080000001,2.3438080994764987,0.0,-10134.0,0.625,-375.0,-357.16537177562714,0.0,0.125,3.969726156,2.352157832807967,0.0,0.3499999940395355,-0.46000000834465027,-9.270000457763672,0.01336669921875,0.0155029296875,1.03448486328125,33.77000045776367,0.0,19.0,0.0151519775390625,0.3173828125,Closing,0.0,0.0,0.0,0.0,0.0,0.0,0.0,0.0,
7.408766999999992,0.0,0.0,10192.0,0.375,345.0,357.16537177562714,0.0,0.125,3.1567379580000003,2.339120030478321,0.0,-5312.0,0.5,352.5,357.16537177562714,0.0,0.25,0.346679652,4.835952916188242,0.0,-439.0,2.0,360.0,357.16537177562714,0.0,0.125,0.7763671080000001,2.342984693717959,0.0,-10191.0,0.625,-367.5,-357.16537177562714,0.0,0.125,3.9880367010000004,2.351331493695579,0.0,0.3499999940395355,-0.36000001430511475,-9.359999656677246,0.02581787109375,-0.004638671875,1.0185546875,33.77000045776367,0.0,33.0,0.0153656005859375,0.316619873046875,Closing,0.0,0.0,0.0,0.0,0.0,0.0,0.0,0.0,
7.608469999999972,0.0,0.0,10303.0,0.375,330.0,357.1653717756272,0.0,0.125,3.1616207700000003,2.3376129584876377,0.0,-5198.0,0.375,360.0,357.1653717756272,0.0,0.25,0.34912105800000004,4.834436213422062,0.0,-327.0,2.75,337.5,357.1653717756272,0.0,0.125,0.7763671080000001,2.341475131762825,0.0,-10304.0,0.75,-300.0,-357.1653717756272,0.0,0.25,3.983153889,2.349816553979452,0.0,0.3100000023841858,-0.41999998688697815,-9.520000457763672,0.02215576171875,0.00421142578125,1.0712890625,33.75,0.0,29.0,0.0172576904296875,0.3162078857421875,Closing,0.0,0.0,0.0,0.0,0.0,0.0,0.0,0.0,
7.810468999999925,0.0,0.0,10412.0,0.375,330.0,357.16537177562714,0.0,0.125,3.1616207700000003,2.3356948561727657,0.0,-5082.0,0.375,360.0,357.16537177562714,0.0,0.125,0.347900355,4.832505853688243,0.0,-213.0,2.625,367.5,357.16537177562714,0.0,0.125,0.7763671080000001,2.339553860384626,0.0,-10415.0,0.625,-352.5,-357.16537177562714,0.0,0.25,4.016112870000001,2.347888438140024,0.0,0.4000000059604645,-0.4000000059604645,-9.600000381469727,-0.0068359375,-0.0035400390625,1.0013427734375,33.75,0.0,2.0,0.01617431640625,0.3177032470703125,Closing,0.0,0.0,0.0,0.0,0.0,0.0,0.0,0.0,
8.009228000000002,0.0,0.0,10467.0,0.375,330.0,357.1653717756272,0.0,0.125,3.1604000670000003,2.3345988014402677,0.0,-5024.0,0.375,360.0,357.1653717756272,0.0,0.0,0.358886682,4.831402794740202,0.0,-96.0,2.5,375.0,357.1653717756272,0.0,0.125,0.780029217,2.338455994764966,0.0,-10534.0,0.625,-352.5,-357.1653717756272,0.0,0.125,3.978271077,2.3467866614129833,0.0,0.4399999976158142,-0.41999998688697815,-9.789999961853027,-0.02325439453125,-0.025146484375,1.00628662109375,33.75,0.0,-10.0,0.01690673828125,0.318267822265625,Closing,0.0,0.0,0.0,0.0,0.0,0.0,0.0,0.0,
8.201149999999906,0.0,0.0,10579.0,0.375,352.5,346.5346980383109,0.0,0.375,3.289794585,2.5134000340105427,0.0,-4909.0,0.375,345.0,346.5346980383109,0.0,0.25,0.545654241,0.04757663664835997,0.0,-39.0,2.375,367.5,346.5346980383109,0.0,0.25,0.8789061600000001,2.5175526403716444,0.0,-10590.0,0.625,-345.0,-346.5346980383109,0.0,0.25,4.084472238,2.526521332475632,0.0,0.33000001311302185,-0.4000000059604645,-9.710000038146973,0.02911376953125,-0.05401611328125,0.97564697265625,33.790000915527344,0.0,45.0,0.0181884765625,0.3181610107421875,Closing,0.0,0.0,0.0,0.0,0.0,0.0,0.0,0.0,
8.408909999999917,0.0,0.0,10696.0,0.375,375.0,342.1036786185227,0.0,0.25,3.3630367650000004,2.564063549741388,0.0,-4800.0,0.5,345.0,342.1036786185227,0.0,0.0,0.690917898,0.09856391192678757,0.0,78.0,1.75,367.5,342.1036786185227,0.0,0.125,0.989990133,2.568299861694458,0.0,-10702.0,0.375,-345.0,-342.1036786185227,0.0,0.125,4.2724605,2.577449338976828,0.0,0.10000000149011612,-0.36000001430511475,-9.270000457763672,0.06475830078125,0.05401611328125,1.1029052734375,33.790000915527344,0.0,62.0,0.0197601318359375,0.309600830078125,Closing,0.0,0.0,0.0,0.0,0.0,0.0,0.0,0.0,
8.609603999999933,0.0,0.0,10751.0,0.375,322.5,306.27621801592016,0.0,0.25,3.4716793320000003,2.6803327382192195,0.0,-4748.0,0.25,322.5,306.27621801592016,0.0,0.25,0.6726073530000001,0.2155761056879334,0.0,187.0,2.0,322.5,306.27621801592016,0.0,0.125,1.126708869,2.6847611485908223,0.0,-10807.0,0.375,-307.5,-306.27621801592016,0.0,0.125,4.306640184,2.694325515082442,0.0,0.029999999329447746,-0.20000000298023224,-9.170000076293945,0.0396728515625,-0.05908203125,1.0167236328125,33.790000915527344,0.0,52.0,0.0277557373046875,0.2978363037109375,Closing,0.0,0.0,0.0,0.0,0.0,0.0,0.0,0.0,
8.810925999999977,0.0,0.0,10816.0,0.0,67.5,0.0,0.0,0.125,3.541259403,2.6803327382192195,0.0,-4677.0,0.0,120.0,0.0,0.0,0.0,0.692138601,0.2155761056879334,0.0,205.0,0.0,30.0,0.0,0.0,0.125,1.120605354,2.6847611485908223,0.0,-10828.0,0.0,-105.0,0.0,0.0,0.125,4.32128862,2.694325515082442,0.0,0.11999999731779099,0.27000001072883606,-9.319999694824219,0.01727294921875,0.0439453125,0.9549560546875,33.810001373291016,0.0,5.0,0.033111572265625,0.2985076904296875,Closing,0.0,0.0,0.0,0.0,0.0,0.0,0.0,0.0,
9.010783999999985,0.0,0.0,10839.0,0.0,0.0,0.0,0.0,0.25,3.5266109670000003,2.6803327382192195,0.0,-4653.0,0.0,0.0,0.0,0.0,0.25,0.7006835220000001,0.2155761056879334,0.0,217.0,0.0,7.5,0.0,0.0,0.125,1.1120604330000001,2.6847611485908223,0.0,-10853.0,0.0,-7.5,0.0,0.0,0.125,4.320067917,2.694325515082442,0.0,0.3700000047683716,0.6899999976158142,-9.34000015258789,-0.00274658203125,0.03570556640625,1.094970703125,33.810001373291016,0.0,-20.0,0.0510711669921875,0.307037353515625,Closing,0.0,0.0,0.0,0.0,0.0,0.0,0.0,0.0,
9.210212999999989,0.0,0.0,10839.0,0.0,0.0,0.0,0.0,0.25,3.5217281550000004,2.6803327382192195,0.0,-4653.0,0.0,0.0,0.0,0.0,0.125,0.7006835220000001,0.2155761056879334,0.0,217.0,0.0,0.0,0.0,0.0,0.125,1.116943245,2.6847611485908223,0.0,-10853.0,0.0,0.0,0.0,0.0,0.125,4.32128862,2.694325515082442,0.0,0.3199999928474426,0.4099999964237213,-9.319999694824219,-0.02838134765625,-0.00286865234375,1.02923583984375,33.79999923706055,0.0,-33.0,0.0703277587890625,0.30706787109375,Closing,0.0,0.0,0.0,0.0,0.0,0.0,0.0,0.0,
9.410740999999922,0.0,0.0,10839.0,0.0,0.0,0.0,0.0,0.25,3.5205074520000004,2.6803327382192195,0.0,-4653.0,0.0,0.0,0.0,0.0,0.125,0.701904225,0.2155761056879334,0.0,217.0,0.0,0.0,0.0,0.0,0.125,1.116943245,2.6847611485908223,0.0,-10853.0,0.0,0.0,0.0,0.0,0.125,4.32128862,2.694325515082442,0.0,0.3100000023841858,0.30000001192092896,-9.319999694824219,-3.662109375E-4,0.0084228515625,1.0289306640625,33.79999923706055,0.0,-6.0,0.073944091796875,0.30706787109375,Closing,0.0,0.0,0.0,0.0,0.0,0.0,0.0,0.0,
9.547644999999902,0.0,0.0,10839.0,0.0,0.0,0.0,0.0,0.25,3.5205074520000004,2.6803327382192195,0.0,-4653.0,0.0,0.0,0.0,0.0,0.125,0.701904225,0.2155761056879334,0.0,217.0,0.0,0.0,0.0,0.0,0.125,1.116943245,2.6847611485908223,0.0,-10853.0,0.0,0.0,0.0,0.0,0.125,4.32128862,2.694325515082442,0.0,0.3100000023841858,0.20999999344348907,-9.319999694824219,-0.0037841796875,0.0025634765625,1.02398681640625,33.79999923706055,0.0,-6.0,0.073944091796875,0.30706787109375,Closing,0.0,0.0,0.0,0.0,0.0,0.0,0.0,0.0,
9.693562999999966,0.0,0.0,10839.0,0.0,0.0,0.0,0.0,0.25,3.5217281550000004,2.6803327382192195,0.0,-4653.0,0.0,0.0,0.0,0.0,0.125,0.701904225,0.2155761056879334,0.0,217.0,0.0,0.0,0.0,0.0,0.125,1.116943245,2.6847611485908223,0.0,-10853.0,0.0,0.0,0.0,0.0,0.125,4.320067917,2.694325515082442,0.0,0.3100000023841858,0.15000000596046448,-9.319999694824219,-0.008544921875,0.00140380859375,1.01708984375,33.79999923706055,0.0,-10.0,0.073944091796875,0.30706787109375,Closing,0.0,0.0,0.0,0.0,0.0,0.0,0.0,0.0,
9.829715999999898,0.0,0.0,10839.0,0.0,0.0,0.0,0.0,0.25,3.5217281550000004,2.6803327382192195,0.0,-4653.0,0.0,0.0,0.0,0.0,0.125,0.701904225,0.2155761056879334,0.0,217.0,0.0,0.0,0.0,0.0,0.125,1.116943245,2.6847611485908223,0.0,-10853.0,0.0,0.0,0.0,0.0,0.125,4.320067917,2.694325515082442,0.0,0.3100000023841858,0.09000000357627869,-9.319999694824219,-0.00689697265625,0.00518798828125,1.02423095703125,33.79999923706055,0.0,-8.0,0.073944091796875,0.30706787109375,Closing,0.0,0.0,0.0,0.0,0.0,0.0,0.0,0.0,
10.077566999999922,0.0,0.0,10839.0,0.0,0.0,0.0,0.0,0.25,3.5229488580000003,2.6803327382192195,0.0,-4653.0,0.0,0.0,0.0,0.0,0.125,0.701904225,0.2155761056879334,0.0,217.0,0.0,0.0,0.0,0.0,0.125,1.116943245,2.6847611485908223,0.0,-10853.0,0.0,0.0,0.0,0.0,0.125,4.32128862,2.694325515082442,0.0,0.3199999928474426,0.009999999776482582,-9.319999694824219,-0.00677490234375,0.00384521484375,1.02215576171875,33.79999923706055,0.0,-6.0,0.073944091796875,0.30706787109375,Closing,0.0,0.0,0.0,0.0,0.0,0.0,0.0,0.0,
10.277339999999967,0.0,0.0,10839.0,0.0,0.0,0.0,0.0,0.25,3.5205074520000004,2.6803327382192195,0.0,-4653.0,0.0,0.0,0.0,0.0,0.125,0.6970214130000001,0.2155761056879334,0.0,217.0,0.0,0.0,0.0,0.0,0.125,1.116943245,2.6847611485908223,0.0,-10853.0,0.0,0.0,0.0,0.0,0.125,4.32128862,2.694325515082442,0.0,0.3100000023841858,-0.05000000074505806,-9.329999923706055,-0.00927734375,0.0059814453125,1.02130126953125,33.79999923706055,0.0,-8.0,0.073944091796875,0.30706787109375,Closing,0.0,0.0,0.0,0.0,0.0,0.0,0.0,0.0,
10.477668999999995,0.0,0.0,10839.0,0.0,0.0,0.0,0.0,0.25,3.5217281550000004,2.6803327382192195,0.0,-4653.0,0.0,0.0,0.0,0.0,0.125,0.6970214130000001,0.2155761056879334,0.0,217.0,0.0,0.0,0.0,0.0,0.125,1.116943245,2.6847611485908223,0.0,-10853.0,0.0,0.0,0.0,0.0,0.125,4.32128862,2.694325515082442,0.0,0.3100000023841858,-0.10000000149011612,-9.329999923706055,-0.0087890625,0.007080078125,1.019287109375,33.79999923706055,0.0,-7.0,0.073944091796875,0.30706787109375,Closing,0.0,0.0,0.0,0.0,0.0,0.0,0.0,0.0,
10.678301999999908,0.0,0.0,10854.0,1.375,67.5,446.45669907331467,0.0,0.625,3.8415523410000003,3.015942366852486,0.0,-4671.0,2.5,-75.0,-446.45669907331467,0.0,1.125,0.028076169,4.41043958977222,0.0,240.0,1.25,157.5,446.45669907331467,0.0,1.125,0.11840819100000001,1.9194747329772914,0.0,-10843.0,1.25,75.0,446.45669907331467,0.0,0.625,4.786376463,3.031687206278561,0.0,0.3499999940395355,-0.10999999940395355,-8.470000267028809,0.05816650390625,0.0455322265625,1.06378173828125,33.79999923706055,0.0,53.0,0.0745086669921875,0.3069915771484375,Closing,0.0,0.0,0.0,0.0,0.0,0.0,0.0,0.0,
10.87756799999997,0.0,0.0,10858.0,0.0,0.0,0.0,0.0,0.25,3.9062496,3.015942366852486,0.0,-4681.0,0.0,7.5,0.0,0.0,1.25,0.5566405680000001,4.41043958977222,0.0,266.0,0.0,7.5,0.0,0.0,0.25,0.10009764600000001,1.9194747329772914,0.0,-10824.0,0.0,0.0,0.0,0.0,0.25,4.903563951000001,3.031687206278561,0.0,0.2800000011920929,-0.23999999463558197,-6.300000190734863,0.02606201171875,0.00927734375,0.9173583984375,33.79999923706055,0.0,29.0,0.07147216796875,0.309051513671875,Closing,0.0,0.0,0.0,0.0,0.0,0.0,0.0,0.0,
11.068646999999997,0.0,0.0,10858.0,0.0,0.0,0.0,0.0,0.25,3.874511322,3.015942366852486,0.0,-4690.0,0.0,0.0,0.0,0.0,0.25,0.5798339250000001,4.41043958977222,0.0,266.0,0.0,0.0,0.0,0.0,0.375,0.39428706900000005,1.9194747329772914,0.0,-10824.0,0.0,0.0,0.0,0.0,0.25,4.567870626,3.031687206278561,0.0,0.2800000011920929,-0.2800000011920929,-6.929999828338623,0.02386474609375,0.01055908203125,1.01788330078125,33.79999923706055,0.0,27.0,0.0691070556640625,0.30865478515625,Closing,0.0,0.0,0.0,0.0,0.0,0.0,0.0,0.0,
11.279523999999975,0.0,0.0,10858.0,0.0,0.0,0.0,0.0,0.25,3.8378902320000003,3.015942366852486,0.0,-4690.0,0.0,7.5,0.0,0.0,0.875,4.571532735,4.41043958977222,0.0,266.0,0.0,0.0,0.0,0.0,0.125,0.39428706900000005,1.9194747329772914,0.0,-10824.0,0.0,0.0,0.0,0.0,0.125,4.643554212000001,3.031687206278561,0.0,0.3100000023841858,-0.27000001072883606,-6.980000019073486,0.00128173828125,0.04095458984375,1.05804443359375,33.7599983215332,0.0,2.0,0.0691070556640625,0.3082427978515625,Closing,0.0,0.0,0.0,0.0,0.0,0.0,0.0,0.0,
11.481111999999964,0.0,0.0,10858.0,0.0,0.0,0.0,0.0,0.125,3.8366695290000004,3.015942366852486,0.0,-4687.0,0.0,0.0,0.0,0.0,0.25,4.5507807840000005,4.41043958977222,0.0,266.0,0.0,0.0,0.0,0.0,0.125,0.340576137,1.9194747329772914,0.0,-10824.0,0.0,0.0,0.0,0.0,0.125,4.644774915,3.031687206278561,0.0,0.30000001192092896,-0.2800000011920929,-6.960000038146973,-0.0303955078125,0.0711669921875,1.02447509765625,33.7599983215332,0.0,-33.0,0.068359375,0.3069610595703125,Closing,0.0,0.0,0.0,0.0,0.0,0.0,0.0,0.0,
11.675316999999923,0.0,0.0,10858.0,0.0,0.0,0.0,0.0,0.125,3.8378902320000003,3.015942366852486,0.0,-4687.0,0.0,0.0,0.0,0.0,0.5,0.117187488,4.41043958977222,0.0,266.0,0.0,0.0,0.0,0.0,0.0,0.33081051300000003,1.9194747329772914,0.0,-10824.0,0.0,0.0,0.0,0.0,0.125,4.644774915,3.031687206278561,0.0,0.33000001311302185,-0.30000001192092896,-6.869999885559082,-0.03216552734375,0.03216552734375,1.030029296875,33.7599983215332,0.0,-29.0,0.0675811767578125,0.305908203125,Closing,0.0,0.0,0.0,0.0,0.0,0.0,0.0,0.0,
11.86504999999993,0.0,0.0,10858.0,0.0,0.0,0.0,0.0,0.125,3.8378902320000003,3.015942366852486,0.0,-4687.0,0.0,0.0,0.0,0.0,0.25,0.072021477,4.41043958977222,0.0,266.0,0.0,0.0,0.0,0.0,0.0,0.33081051300000003,1.9194747329772914,0.0,-10824.0,0.0,0.0,0.0,0.0,0.125,4.644774915,3.031687206278561,0.0,0.36000001430511475,-0.3499999940395355,-6.960000038146973,-0.0518798828125,-0.01971435546875,1.060302734375,33.79999923706055,0.0,-41.0,0.066802978515625,0.3068389892578125,Closing,0.0,0.0,0.0,0.0,0.0,0.0,0.0,0.0,
12.075432999999961,0.0,0.0,10858.0,0.0,0.0,0.0,0.0,0.125,3.8378902320000003,3.015942366852486,0.0,-4687.0,0.0,0.0,0.0,0.0,0.25,4.881591297,4.41043958977222,0.0,266.0,0.0,0.0,0.0,0.0,0.0,0.332031216,1.9194747329772914,0.0,-10824.0,0.0,0.0,0.0,0.0,0.125,4.643554212000001,3.031687206278561,0.0,0.3400000035762787,-0.3400000035762787,-6.96999979019165,0.03741455078125,0.00457763671875,1.0079345703125,33.79999923706055,0.0,43.0,0.066558837890625,0.30670166015625,Closing,0.0,0.0,0.0,0.0,0.0,0.0,0.0,0.0,
12.275796999999905,0.0,0.0,10858.0,0.0,0.0,0.0,0.0,0.125,3.8378902320000003,3.015942366852486,0.0,-4687.0,0.0,0.0,0.0,0.0,0.0,4.892577624,4.41043958977222,0.0,266.0,0.0,0.0,0.0,0.0,0.0,0.33081051300000003,1.9194747329772914,0.0,-10824.0,0.0,0.0,0.0,0.0,0.125,4.650878430000001,3.031687206278561,0.0,0.3400000035762787,-0.36000001430511475,-7.010000228881836,-0.0552978515625,-0.01068115234375,1.0870361328125,33.810001373291016,0.0,-45.0,0.0663604736328125,0.308197021484375,Closing,0.0,0.0,0.0,0.0,0.0,0.0,0.0,0.0,
12.474083999999916,0.0,0.0,10858.0,0.0,0.0,0.0,0.0,0.125,3.8378902320000003,3.015942366852486,0.0,-4687.0,0.0,0.0,0.0,0.0,0.125,4.901122545000001,4.41043958977222,0.0,266.0,0.0,0.0,0.0,0.0,0.0,0.33081051300000003,1.9194747329772914,0.0,-10824.0,0.0,0.0,0.0,0.0,0.125,4.649657727,3.031687206278561,0.0,0.33000001311302185,-0.3400000035762787,-7.010000228881836,-0.024169921875,0.02490234375,1.099609375,33.810001373291016,0.0,-19.0,0.06646728515625,0.3080596923828125,Closing,0.0,0.0,0.0,0.0,0.0,0.0,0.0,0.0,
12.672420999999973,0.0,0.0,10858.0,0.0,0.0,0.0,0.0,0.125,3.8378902320000003,3.015942366852486,0.0,-4687.0,0.0,0.0,0.0,0.0,0.125,4.901122545000001,4.41043958977222,0.0,266.0,0.0,0.0,0.0,0.0,0.0,0.332031216,1.9194747329772914,0.0,-10824.0,0.0,0.0,0.0,0.0,0.125,4.650878430000001,3.031687206278561,0.0,0.3100000023841858,-0.3499999940395355,-7.010000228881836,-0.01385498046875,0.00872802734375,1.04052734375,33.810001373291016,0.0,-7.0,0.0665435791015625,0.3080596923828125,Closing,0.0,0.0,0.0,0.0,0.0,0.0,0.0,0.0,
12.865855999999912,0.0,0.0,10858.0,0.0,0.0,0.0,0.0,0.125,3.8378902320000003,3.015942366852486,0.0,-4687.0,0.0,0.0,0.0,0.0,0.125,4.901122545000001,4.41043958977222,0.0,266.0,0.0,0.0,0.0,0.0,0.0,0.332031216,1.9194747329772914,0.0,-10824.0,0.0,0.0,0.0,0.0,0.125,4.650878430000001,3.031687206278561,0.0,0.3199999928474426,-0.3700000047683716,-7.019999980926514,-0.0091552734375,0.00323486328125,1.00750732421875,33.81999969482422,0.0,-2.0,0.0665435791015625,0.3080596923828125,Closing,0.0,0.0,0.0,0.0,0.0,0.0,0.0,0.0,
13.063535999999964,0.0,0.0,10858.0,0.0,0.0,0.0,0.0,0.125,3.8378902320000003,3.015942366852486,0.0,-4687.0,0.0,0.0,0.0,0.0,0.125,4.901122545000001,4.41043958977222,0.0,266.0,0.0,0.0,0.0,0.0,0.0,0.33081051300000003,1.9194747329772914,0.0,-10824.0,0.0,0.0,0.0,0.0,0.125,4.650878430000001,3.031687206278561,0.0,0.3199999928474426,-0.3700000047683716,-7.019999980926514,-0.00677490234375,0.0052490234375,1.0107421875,33.81999969482422,0.0,0.0,0.0665435791015625,0.3080596923828125,Closing,0.0,0.0,0.0,0.0,0.0,0.0,0.0,0.0,
13.200313999999896,0.0,0.0,10858.0,0.0,0.0,0.0,0.0,0.125,3.8378902320000003,3.015942366852486,0.0,-4687.0,0.0,0.0,0.0,0.0,0.125,4.901122545000001,4.41043958977222,0.0,266.0,0.0,0.0,0.0,0.0,0.0,0.332031216,1.9194747329772914,0.0,-10824.0,0.0,0.0,0.0,0.0,0.125,4.649657727,3.031687206278561,0.0,0.3199999928474426,-0.3700000047683716,-7.019999980926514,-0.00543212890625,0.0059814453125,1.0179443359375,33.81999969482422,0.0,1.0,0.0665435791015625,0.3080596923828125,Closing,0.0,0.0,0.0,0.0,0.0,0.0,0.0,0.0,
13.411475999999908,0.0,0.0,10858.0,0.0,0.0,0.0,0.0,0.125,3.8378902320000003,3.015942366852486,0.0,-4687.0,0.0,0.0,0.0,0.0,0.125,4.901122545000001,4.41043958977222,0.0,266.0,0.0,0.0,0.0,0.0,0.0,0.332031216,1.9194747329772914,0.0,-10824.0,0.0,0.0,0.0,0.0,0.125,4.650878430000001,3.031687206278561,0.0,0.3199999928474426,-0.38999998569488525,-7.019999980926514,-0.0057373046875,0.00439453125,1.0208740234375,33.81999969482422,0.0,1.0,0.0665435791015625,0.3080596923828125,Closing,0.0,0.0,0.0,0.0,0.0,0.0,0.0,0.0,
13.607028999999981,0.0,0.0,10858.0,0.0,0.0,0.0,0.0,0.125,3.8378902320000003,3.015942366852486,0.0,-4687.0,0.0,0.0,0.0,0.0,0.125,4.899901842,4.41043958977222,0.0,266.0,0.0,0.0,0.0,0.0,0.0,0.332031216,1.9194747329772914,0.0,-10824.0,0.0,0.0,0.0,0.0,0.125,4.650878430000001,3.031687206278561,0.0,0.3100000023841858,-0.38999998569488525,-7.019999980926514,-0.006103515625,0.002685546875,1.0234375,33.81999969482422,0.0,1.0,0.0665435791015625,0.3080596923828125,Closing,0.0,0.0,0.0,0.0,0.0,0.0,0.0,0.0,
13.808858999999938,0.0,0.0,10858.0,0.0,0.0,0.0,0.0,0.125,3.8378902320000003,3.015942366852486,0.0,-4687.0,0.0,0.0,0.0,0.0,0.125,4.902343248,4.41043958977222,0.0,266.0,0.0,0.0,0.0,0.0,0.0,0.332031216,1.9194747329772914,0.0,-10824.0,0.0,0.0,0.0,0.0,0.125,4.650878430000001,3.031687206278561,0.0,0.30000001192092896,-0.38999998569488525,-7.019999980926514,-0.0064697265625,0.00848388671875,1.01739501953125,33.81999969482422,0.0,0.0,0.0665435791015625,0.3080596923828125,Closing,0.0,0.0,0.0,0.0,0.0,0.0,0.0,0.0,
14.008930999999983,0.0,0.0,10858.0,0.0,0.0,0.0,0.0,0.125,3.8378902320000003,3.015942366852486,0.0,-4687.0,0.0,0.0,0.0,0.0,0.125,4.902343248,4.41043958977222,0.0,266.0,0.0,0.0,0.0,0.0,0.0,0.33081051300000003,1.9194747329772914,0.0,-10824.0,0.0,0.0,0.0,0.0,0.125,4.650878430000001,3.031687206278561,0.0,0.30000001192092896,-0.4000000059604645,-7.019999980926514,-0.0078125,0.00592041015625,1.02490234375,33.81999969482422,0.0,0.0,0.0665435791015625,0.3080596923828125,Closing,0.0,0.0,0.0,0.0,0.0,0.0,0.0,0.0,
14.21022399999993,0.0,0.0,10858.0,0.0,0.0,0.0,0.0,0.125,3.8378902320000003,3.015942366852486,0.0,-4687.0,0.0,0.0,0.0,0.0,0.125,4.899901842,4.41043958977222,0.0,266.0,0.0,0.0,0.0,0.0,0.0,0.33081051300000003,1.9194747329772914,0.0,-10824.0,0.0,0.0,0.0,0.0,0.125,4.649657727,3.031687206278561,0.0,0.30000001192092896,-0.38999998569488525,-7.019999980926514,-0.0057373046875,0.00262451171875,1.0191650390625,33.81999969482422,0.0,1.0,0.0665435791015625,0.3080596923828125,Closing,0.0,0.0,0.0,0.0,0.0,0.0,0.0,0.0,
14.40793299999996,0.0,0.0,10858.0,0.0,0.0,0.0,0.0,0.125,3.8378902320000003,3.015942366852486,0.0,-4687.0,0.0,0.0,0.0,0.0,0.125,4.899901842,4.41043958977222,0.0,266.0,0.0,0.0,0.0,0.0,0.0,0.33081051300000003,1.9194747329772914,0.0,-10824.0,0.0,0.0,0.0,0.0,0.125,4.649657727,3.031687206278561,0.0,0.30000001192092896,-0.4000000059604645,-7.019999980926514,-0.01031494140625,0.0037841796875,1.0255126953125,33.79999923706055,0.0,-2.0,0.0665435791015625,0.3080596923828125,Closing,0.0,0.0,0.0,0.0,0.0,0.0,0.0,0.0,
14.609059999999939,0.0,0.0,10858.0,0.0,0.0,0.0,0.0,0.125,3.8391109350000003,3.015942366852486,0.0,-4687.0,0.0,0.0,0.0,0.0,0.0,4.901122545000001,4.41043958977222,0.0,266.0,0.0,0.0,0.0,0.0,0.0,0.33081051300000003,1.9194747329772914,0.0,-10824.0,0.0,0.0,0.0,0.0,0.125,4.649657727,3.031687206278561,0.0,0.30000001192092896,-0.4099999964237213,-7.019999980926514,-0.00738525390625,0.0029296875,1.02630615234375,33.79999923706055,0.0,0.0,0.0665435791015625,0.3080596923828125,Closing,0.0,0.0,0.0,0.0,0.0,0.0,0.0,0.0,
14.802726999999955,0.0,0.0,10858.0,0.0,0.0,0.0,0.0,0.125,3.8378902320000003,3.015942366852486,0.0,-4687.0,0.0,0.0,0.0,0.0,0.125,4.901122545000001,4.41043958977222,0.0,266.0,0.0,0.0,0.0,0.0,0.0,0.33081051300000003,1.9194747329772914,0.0,-10824.0,0.0,0.0,0.0,0.0,0.125,4.650878430000001,3.031687206278561,0.0,0.30000001192092896,-0.4099999964237213,-7.019999980926514,-0.01324462890625,0.00726318359375,1.019775390625,33.790000915527344,0.0,-6.0,0.0665435791015625,0.3080596923828125,Closing,0.0,0.0,0.0,0.0,0.0,0.0,0.0,0.0,
15.008703999999911,0.0,0.0,10858.0,0.0,0.0,0.0,0.0,0.125,3.8378902320000003,3.015942366852486,0.0,-4687.0,0.0,0.0,0.0,0.0,0.125,4.901122545000001,4.41043958977222,0.0,266.0,0.0,0.0,0.0,0.0,0.0,0.33081051300000003,1.9194747329772914,0.0,-10824.0,0.0,0.0,0.0,0.0,0.125,4.649657727,3.031687206278561,0.0,0.30000001192092896,-0.41999998688697815,-7.019999980926514,-0.0096435546875,0.00811767578125,1.01458740234375,33.790000915527344,0.0,-2.0,0.0665435791015625,0.3080596923828125,Closing,0.0,0.0,0.0,0.0,0.0,0.0,0.0,0.0,
15.200559000000009,0.0,0.0,10858.0,0.0,0.0,0.0,0.0,0.125,3.8378902320000003,3.015942366852486,0.0,-4687.0,0.0,0.0,0.0,0.0,0.125,4.899901842,4.41043958977222,0.0,266.0,0.0,0.0,0.0,0.0,0.0,0.332031216,1.9194747329772914,0.0,-10824.0,0.0,0.0,0.0,0.0,0.125,4.650878430000001,3.031687206278561,0.0,0.30000001192092896,-0.4099999964237213,-7.03000020980835,-0.00555419921875,0.006103515625,1.02459716796875,33.790000915527344,0.0,1.0,0.0665435791015625,0.3080596923828125,Closing,0.0,0.0,0.0,0.0,0.0,0.0,0.0,0.0,
15.41037699999998,0.0,0.0,10858.0,0.0,0.0,0.0,0.0,0.125,3.8378902320000003,3.015942366852486,0.0,-4687.0,0.0,0.0,0.0,0.0,0.125,4.901122545000001,4.41043958977222,0.0,266.0,0.0,0.0,0.0,0.0,0.0,0.33081051300000003,1.9194747329772914,0.0,-10824.0,0.0,0.0,0.0,0.0,0.125,4.650878430000001,3.031687206278561,0.0,0.30000001192092896,-0.4099999964237213,-7.03000020980835,-0.006591796875,0.009521484375,1.02783203125,33.810001373291016,0.0,0.0,0.0665435791015625,0.3080596923828125,Closing,0.0,0.0,0.0,0.0,0.0,0.0,0.0,0.0,
15.600661999999895,0.0,0.0,10858.0,0.0,0.0,0.0,0.0,0.125,3.8378902320000003,3.015942366852486,0.0,-4687.0,0.0,0.0,0.0,0.0,0.125,4.899901842,4.41043958977222,0.0,266.0,0.0,0.0,0.0,0.0,0.0,0.332031216,1.9194747329772914,0.0,-10824.0,0.0,0.0,0.0,0.0,0.125,4.650878430000001,3.031687206278561,0.0,0.3100000023841858,-0.4099999964237213,-7.03000020980835,-0.009765625,0.0059814453125,1.023193359375,33.810001373291016,0.0,-2.0,0.0665435791015625,0.3080596923828125,Closing,0.0,0.0,0.0,0.0,0.0,0.0,0.0,0.0,
15.742489999999991,0.0,0.0,10858.0,0.0,0.0,0.0,0.0,0.125,3.8366695290000004,3.015942366852486,0.0,-4687.0,0.0,0.0,0.0,0.0,0.125,4.902343248,4.41043958977222,0.0,266.0,0.0,0.0,0.0,0.0,0.0,0.33081051300000003,1.9194747329772914,0.0,-10824.0,0.0,0.0,0.0,0.0,0.125,4.649657727,3.031687206278561,0.0,0.3100000023841858,-0.4099999964237213,-7.03000020980835,-0.00836181640625,0.00360107421875,1.02276611328125,33.810001373291016,0.0,0.0,0.0665435791015625,0.3080596923828125,Closing,0.0,0.0,0.0,0.0,0.0,0.0,0.0,0.0,
15.94271100000001,0.0,0.0,10858.0,0.0,0.0,0.0,0.0,0.125,3.8378902320000003,3.015942366852486,0.0,-4687.0,0.0,0.0,0.0,0.0,0.125,4.901122545000001,4.41043958977222,0.0,266.0,0.0,0.0,0.0,0.0,0.0,0.332031216,1.9194747329772914,0.0,-10824.0,0.0,0.0,0.0,0.0,0.125,4.650878430000001,3.031687206278561,0.0,0.3100000023841858,-0.4099999964237213,-7.03000020980835,-0.006591796875,0.00469970703125,1.02838134765625,33.79999923706055,0.0,1.0,0.0665435791015625,0.3080596923828125,Closing,0.0,0.0,0.0,0.0,0.0,0.0,0.0,0.0,
16.142576999999932,0.0,0.0,10858.0,0.0,0.0,0.0,0.0,0.125,3.8378902320000003,3.015942366852486,0.0,-4687.0,0.0,0.0,0.0,0.0,0.125,4.899901842,4.41043958977222,0.0,266.0,0.0,0.0,0.0,0.0,0.0,0.332031216,1.9194747329772914,0.0,-10824.0,0.0,0.0,0.0,0.0,0.125,4.649657727,3.031687206278561,0.0,0.3100000023841858,-0.4099999964237213,-7.03000020980835,-0.00726318359375,0.006591796875,1.02587890625,33.79999923706055,0.0,0.0,0.0665435791015625,0.3080596923828125,Closing,0.0,0.0,0.0,0.0,0.0,0.0,0.0,0.0,
16.341354999999982,0.0,0.0,10858.0,0.0,0.0,0.0,0.0,0.125,3.8378902320000003,3.015942366852486,0.0,-4687.0,0.0,0.0,0.0,0.0,0.125,4.901122545000001,4.41043958977222,0.0,266.0,0.0,0.0,0.0,0.0,0.0,0.33081051300000003,1.9194747329772914,0.0,-10824.0,0.0,0.0,0.0,0.0,0.125,4.649657727,3.031687206278561,0.0,0.3100000023841858,-0.41999998688697815,-7.03000020980835,-0.00653076171875,0.00323486328125,1.023681640625,33.810001373291016,0.0,1.0,0.0665435791015625,0.3080596923828125,Closing,0.0,0.0,0.0,0.0,0.0,0.0,0.0,0.0,
16.540286999999896,0.0,0.0,10858.0,0.0,0.0,0.0,0.0,0.125,3.8378902320000003,3.015942366852486,0.0,-4687.0,0.0,0.0,0.0,0.0,0.125,4.899901842,4.41043958977222,0.0,266.0,0.0,0.0,0.0,0.0,0.0,0.33081051300000003,1.9194747329772914,0.0,-10824.0,0.0,0.0,0.0,0.0,0.125,4.649657727,3.031687206278561,0.0,0.3100000023841858,-0.41999998688697815,-7.03000020980835,-0.00860595703125,0.00445556640625,1.0228271484375,33.810001373291016,0.0,0.0,0.0665435791015625,0.3080596923828125,Closing,0.0,0.0,0.0,0.0,0.0,0.0,0.0,0.0,
16.743057999999962,0.0,0.0,10858.0,0.0,0.0,0.0,0.0,0.125,3.8391109350000003,3.015942366852486,0.0,-4687.0,0.0,0.0,0.0,0.0,0.125,4.902343248,4.41043958977222,0.0,266.0,0.0,0.0,0.0,0.0,0.0,0.332031216,1.9194747329772914,0.0,-10824.0,0.0,0.0,0.0,0.0,0.125,4.649657727,3.031687206278561,0.0,0.3100000023841858,-0.41999998688697815,-7.03000020980835,-0.01055908203125,0.00543212890625,1.02288818359375,33.810001373291016,0.0,-2.0,0.0665435791015625,0.3080596923828125,Closing,0.0,0.0,0.0,0.0,0.0,0.0,0.0,0.0,
16.867784999999916,0.0,0.0,10858.0,0.0,0.0,0.0,0.0,0.125,3.8378902320000003,3.015942366852486,0.0,-4687.0,0.0,0.0,0.0,0.0,0.125,4.901122545000001,4.41043958977222,0.0,266.0,0.0,0.0,0.0,0.0,0.0,0.33081051300000003,1.9194747329772914,0.0,-10824.0,0.0,0.0,0.0,0.0,0.125,4.649657727,3.031687206278561,0.0,0.3100000023841858,-0.41999998688697815,-7.03000020980835,-0.00579833984375,0.0079345703125,1.02630615234375,33.790000915527344,0.0,1.0,0.0665435791015625,0.3080596923828125,Closing,0.0,0.0,0.0,0.0,0.0,0.0,0.0,0.0,
17.07468400000001,0.0,0.0,10858.0,0.0,0.0,0.0,0.0,0.125,3.8391109350000003,3.015942366852486,0.0,-4687.0,0.0,0.0,0.0,0.0,0.125,4.902343248,4.41043958977222,0.0,266.0,0.0,0.0,0.0,0.0,0.0,0.332031216,1.9194747329772914,0.0,-10824.0,0.0,0.0,0.0,0.0,0.125,4.650878430000001,3.031687206278561,0.0,0.3100000023841858,-0.4099999964237213,-7.019999980926514,-0.00958251953125,0.00531005859375,1.02490234375,33.790000915527344,0.0,-2.0,0.0665435791015625,0.3080596923828125,Closing,0.0,0.0,0.0,0.0,0.0,0.0,0.0,0.0,
17.275372999999906,0.0,0.0,10858.0,0.0,0.0,0.0,0.0,0.125,3.8366695290000004,3.015942366852486,0.0,-4687.0,0.0,0.0,0.0,0.0,0.125,4.902343248,4.41043958977222,0.0,266.0,0.0,0.0,0.0,0.0,0.0,0.33081051300000003,1.9194747329772914,0.0,-10824.0,0.0,0.0,0.0,0.0,0.125,4.650878430000001,3.031687206278561,0.0,0.3100000023841858,-0.41999998688697815,-7.019999980926514,-0.0069580078125,0.0037841796875,1.0216064453125,33.790000915527344,0.0,0.0,0.0665435791015625,0.3080596923828125,Closing,0.0,0.0,0.0,0.0,0.0,0.0,0.0,0.0,
17.47550299999991,0.0,0.0,10858.0,0.0,0.0,0.0,0.0,0.125,3.8366695290000004,3.015942366852486,0.0,-4687.0,0.0,0.0,0.0,0.0,0.125,4.902343248,4.41043958977222,0.0,266.0,0.0,0.0,0.0,0.0,0.0,0.33081051300000003,1.9194747329772914,0.0,-10824.0,0.0,0.0,0.0,0.0,0.125,4.650878430000001,3.031687206278561,0.0,0.3100000023841858,-0.41999998688697815,-7.019999980926514,-0.00677490234375,0.00787353515625,1.02935791015625,33.810001373291016,0.0,0.0,0.0665435791015625,0.3080596923828125,Closing,0.0,0.0,0.0,0.0,0.0,0.0,0.0,0.0,
17.67040499999991,0.0,0.0,10858.0,0.0,0.0,0.0,0.0,0.125,3.8366695290000004,3.015942366852486,0.0,-4687.0,0.0,0.0,0.0,0.0,0.125,4.901122545000001,4.41043958977222,0.0,266.0,0.0,0.0,0.0,0.0,0.0,0.33081051300000003,1.9194747329772914,0.0,-10824.0,0.0,0.0,0.0,0.0,0.125,4.650878430000001,3.031687206278561,0.0,0.3100000023841858,-0.4099999964237213,-7.019999980926514,-0.007080078125,0.00616455078125,1.0257568359375,33.810001373291016,0.0,0.0,0.0665435791015625,0.3080596923828125,Closing,0.0,0.0,0.0,0.0,0.0,0.0,0.0,0.0,
17.86851199999999,0.0,0.0,10858.0,0.0,0.0,0.0,0.0,0.125,3.8378902320000003,3.015942366852486,0.0,-4687.0,0.0,0.0,0.0,0.0,0.125,4.899901842,4.41043958977222,0.0,266.0,0.0,0.0,0.0,0.0,0.0,0.33081051300000003,1.9194747329772914,0.0,-10824.0,0.0,0.0,0.0,0.0,0.125,4.650878430000001,3.031687206278561,0.0,0.3100000023841858,-0.4099999964237213,-7.019999980926514,-0.00634765625,0.0052490234375,1.021240234375,33.810001373291016,0.0,1.0,0.0665435791015625,0.3080596923828125,Closing,0.0,0.0,0.0,0.0,0.0,0.0,0.0,0.0,
18.076168999999993,0.0,0.0,10858.0,0.0,0.0,0.0,0.0,0.125,3.8378902320000003,3.015942366852486,0.0,-4687.0,0.0,0.0,0.0,0.0,0.125,4.899901842,4.41043958977222,0.0,266.0,0.0,0.0,0.0,0.0,0.0,0.33081051300000003,1.9194747329772914,0.0,-10824.0,0.0,0.0,0.0,0.0,0.125,4.650878430000001,3.031687206278561,0.0,0.3199999928474426,-0.4099999964237213,-7.019999980926514,-0.00799560546875,0.0047607421875,1.0244140625,33.810001373291016,0.0,0.0,0.0665435791015625,0.3080596923828125,Closing,0.0,0.0,0.0,0.0,0.0,0.0,0.0,0.0,
18.27773999999999,0.0,0.0,10858.0,0.0,0.0,0.0,0.0,0.125,3.8378902320000003,3.015942366852486,0.0,-4687.0,0.0,0.0,0.0,0.0,0.125,4.899901842,4.41043958977222,0.0,266.0,0.0,0.0,0.0,0.0,0.0,0.332031216,1.9194747329772914,0.0,-10824.0,0.0,0.0,0.0,0.0,0.125,4.650878430000001,3.031687206278561,0.0,0.3199999928474426,-0.4099999964237213,-7.019999980926514,-0.00628662109375,0.00262451171875,1.0262451171875,33.810001373291016,0.0,1.0,0.0665435791015625,0.3080596923828125,Closing,0.0,0.0,0.0,0.0,0.0,0.0,0.0,0.0,
18.478323999999905,0.0,0.0,10858.0,0.0,0.0,0.0,0.0,0.125,3.8378902320000003,3.015942366852486,0.0,-4687.0,0.0,0.0,0.0,0.0,0.125,4.902343248,4.41043958977222,0.0,266.0,0.0,0.0,0.0,0.0,0.0,0.33081051300000003,1.9194747329772914,0.0,-10824.0,0.0,0.0,0.0,0.0,0.125,4.649657727,3.031687206278561,0.0,0.3199999928474426,-0.4099999964237213,-7.019999980926514,-0.00787353515625,0.00579833984375,1.0224609375,33.810001373291016,0.0,0.0,0.0665435791015625,0.3080596923828125,Closing,0.0,0.0,0.0,0.0,0.0,0.0,0.0,0.0,
18.676496999999973,0.0,0.0,10858.0,0.0,0.0,0.0,0.0,0.125,3.8391109350000003,3.015942366852486,0.0,-4687.0,0.0,0.0,0.0,0.0,0.125,4.901122545000001,4.41043958977222,0.0,266.0,0.0,0.0,0.0,0.0,0.0,0.33081051300000003,1.9194747329772914,0.0,-10824.0,0.0,0.0,0.0,0.0,0.125,4.650878430000001,3.031687206278561,0.0,0.33000001311302185,-0.4099999964237213,-7.019999980926514,-0.00848388671875,0.005615234375,1.02459716796875,33.810001373291016,0.0,-1.0,0.0665435791015625,0.3080596923828125,Closing,0.0,0.0,0.0,0.0,0.0,0.0,0.0,0.0,
18.879021999999996,0.0,0.0,10858.0,0.0,0.0,0.0,0.0,0.125,3.8378902320000003,3.015942366852486,0.0,-4687.0,0.0,0.0,0.0,0.0,0.125,4.901122545000001,4.41043958977222,0.0,266.0,0.0,0.0,0.0,0.0,0.0,0.332031216,1.9194747329772914,0.0,-10824.0,0.0,0.0,0.0,0.0,0.125,4.652099133,3.031687206278561,0.0,0.3199999928474426,-0.4099999964237213,-7.019999980926514,-0.00872802734375,0.004150390625,1.02496337890625,33.79999923706055,0.0,-1.0,0.0665435791015625,0.3080596923828125,Closing,0.0,0.0,0.0,0.0,0.0,0.0,0.0,0.0,
19.078144999999903,0.0,0.0,10858.0,0.0,0.0,0.0,0.0,0.125,3.8378902320000003,3.015942366852486,0.0,-4687.0,0.0,0.0,0.0,0.0,0.125,4.901122545000001,4.41043958977222,0.0,266.0,0.0,0.0,0.0,0.0,0.0,0.33081051300000003,1.9194747329772914,0.0,-10824.0,0.0,0.0,0.0,0.0,0.125,4.650878430000001,3.031687206278561,0.0,0.3199999928474426,-0.4099999964237213,-7.019999980926514,-0.00830078125,0.00341796875,1.02374267578125,33.79999923706055,0.0,0.0,0.0665435791015625,0.3080596923828125,Closing,0.0,0.0,0.0,0.0,0.0,0.0,0.0,0.0,
19.277365999999923,0.0,0.0,10858.0,0.0,0.0,0.0,0.0,0.125,3.8366695290000004,3.015942366852486,0.0,-4687.0,0.0,0.0,0.0,0.0,0.125,4.901122545000001,4.41043958977222,0.0,266.0,0.0,0.0,0.0,0.0,0.0,0.33081051300000003,1.9194747329772914,0.0,-10824.0,0.0,0.0,0.0,0.0,0.125,4.650878430000001,3.031687206278561,0.0,0.33000001311302185,-0.4099999964237213,-7.019999980926514,-0.00433349609375,0.00286865234375,1.0208740234375,33.79999923706055,0.0,3.0,0.0665435791015625,0.3080596923828125,Closing,0.0,0.0,0.0,0.0,0.0,0.0,0.0,0.0,
19.475316999999922,0.0,0.0,10858.0,0.0,0.0,0.0,0.0,0.125,3.8378902320000003,3.015942366852486,0.0,-4687.0,0.0,0.0,0.0,0.0,0.125,4.899901842,4.41043958977222,0.0,266.0,0.0,0.0,0.0,0.0,0.0,0.33081051300000003,1.9194747329772914,0.0,-10824.0,0.0,0.0,0.0,0.0,0.125,4.649657727,3.031687206278561,0.0,0.3199999928474426,-0.4000000059604645,-7.010000228881836,-0.00799560546875,0.0064697265625,1.0216064453125,33.810001373291016,0.0,0.0,0.0665435791015625,0.3080596923828125,Closing,0.0,0.0,0.0,0.0,0.0,0.0,0.0,0.0,
19.66705900000001,0.0,0.0,10858.0,0.0,0.0,0.0,0.0,0.125,3.8378902320000003,3.015942366852486,0.0,-4687.0,0.0,0.0,0.0,0.0,0.125,4.901122545000001,4.41043958977222,0.0,266.0,0.0,0.0,0.0,0.0,0.0,0.332031216,1.9194747329772914,0.0,-10824.0,0.0,0.0,0.0,0.0,0.125,4.649657727,3.031687206278561,0.0,0.3199999928474426,-0.4099999964237213,-7.010000228881836,-0.008056640625,0.00653076171875,1.021484375,33.810001373291016,0.0,0.0,0.0665435791015625,0.3080596923828125,Closing,0.0,0.0,0.0,0.0,0.0,0.0,0.0,0.0,
19.877141999999992,0.0,0.0,10858.0,0.0,0.0,0.0,0.0,0.125,3.8391109350000003,3.015942366852486,0.0,-4687.0,0.0,0.0,0.0,0.0,0.125,4.902343248,4.41043958977222,0.0,266.0,0.0,0.0,0.0,0.0,0.0,0.332031216,1.9194747329772914,0.0,-10824.0,0.0,0.0,0.0,0.0,0.125,4.650878430000001,3.031687206278561,0.0,0.3199999928474426,-0.4000000059604645,-7.0,-0.0067138671875,0.0069580078125,1.02227783203125,33.84000015258789,0.0,0.0,0.0665435791015625,0.3080596923828125,Closing,0.0,0.0,0.0,0.0,0.0,0.0,0.0,0.0,
20.07523599999992,0.0,0.0,10858.0,0.0,0.0,0.0,0.0,0.125,3.8391109350000003,3.015942366852486,0.0,-4687.0,0.0,0.0,0.0,0.0,0.125,4.902343248,4.41043958977222,0.0,266.0,0.0,0.0,0.0,0.0,0.0,0.332031216,1.9194747329772914,0.0,-10824.0,0.0,0.0,0.0,0.0,0.125,4.649657727,3.031687206278561,0.0,0.3199999928474426,-0.4000000059604645,-7.0,-0.00787353515625,0.00518798828125,1.02197265625,33.84000015258789,0.0,0.0,0.0665435791015625,0.3080596923828125,Closing,0.0,0.0,0.0,0.0,0.0,0.0,0.0,0.0,
20.275696999999926,0.0,0.0,10858.0,0.0,0.0,0.0,0.0,0.125,3.8378902320000003,3.015942366852486,0.0,-4687.0,0.0,0.0,0.0,0.0,0.125,4.901122545000001,4.41043958977222,0.0,266.0,0.0,0.0,0.0,0.0,0.0,0.33081051300000003,1.9194747329772914,0.0,-10824.0,0.0,0.0,0.0,0.0,0.125,4.650878430000001,3.031687206278561,0.0,0.3199999928474426,-0.4000000059604645,-7.0,-0.00762939453125,0.0050048828125,1.02301025390625,33.84000015258789,0.0,0.0,0.0665435791015625,0.3080596923828125,Closing,0.0,0.0,0.0,0.0,0.0,0.0,0.0,0.0,
20.466253999999957,0.0,0.0,10858.0,0.0,0.0,0.0,0.0,0.125,3.8378902320000003,3.015942366852486,0.0,-4687.0,0.0,0.0,0.0,0.0,0.125,4.902343248,4.41043958977222,0.0,266.0,0.0,0.0,0.0,0.0,0.0,0.332031216,1.9194747329772914,0.0,-10824.0,0.0,0.0,0.0,0.0,0.125,4.650878430000001,3.031687206278561,0.0,0.3199999928474426,-0.4099999964237213,-7.010000228881836,-0.0087890625,0.0035400390625,1.02459716796875,33.84000015258789,0.0,-1.0,0.0665435791015625,0.3080596923828125,Closing,0.0,0.0,0.0,0.0,0.0,0.0,0.0,0.0,
20.676112999999894,0.0,0.0,10858.0,0.0,0.0,0.0,0.0,1.75,4.649657727,0.01,0.0,-4687.0,0.0,0.0,-0.0,0.0,0.75,0.39062496,0.01,0.0,267.0,0.0,7.5,0.0,0.0,1.75,4.201659726,0.01,0.0,-10824.0,0.0,0.0,-0.0,0.0,1.5,0.552978459,0.01,0.0,0.3400000035762787,-0.44999998807907104,-6.849999904632568,0.02099609375,-0.03607177734375,1.06097412109375,33.84000015258789,0.0,34.0,0.0653228759765625,0.3080291748046875,Closing,0.0,0.0,0.0,0.0,0.0,0.0,0.0,0.0,
20.876764999999896,0.0,0.0,10850.0,0.0,-22.5,0.0,0.0,1.5,1.19628894,0.01,0.0,-4687.0,0.0,0.0,-0.0,0.0,0.25,0.7397460180000001,0.01,0.0,279.0,0.125,52.5,0.0,0.0,1.0,2.833251663,0.01,0.0,-10833.0,0.125,-52.5,-0.0,0.0,1.5,2.128906032,0.01,0.0,0.36000001430511475,-0.3799999952316284,-6.619999885559082,-0.01611328125,0.043212890625,1.0284423828125,33.84000015258789,0.0,-13.0,0.0645751953125,0.3046417236328125,Closing,0.0,0.0,0.0,0.0,0.0,0.0,0.0,0.0,
21.075859999999984,0.0,0.0,10847.0,0.0,0.0,0.0,0.0,0.625,0.9362792010000001,0.01,0.0,-4687.0,0.0,0.0,-0.0,0.0,0.25,0.6079100940000001,0.01,0.0,286.0,0.125,0.0,0.0,0.0,0.625,3.284911773,0.01,0.0,-10841.0,0.125,15.0,-0.0,0.0,0.5,1.751708805,0.01,0.0,0.3100000023841858,-0.4399999976158142,-6.670000076293945,-0.06341552734375,-0.01123046875,1.03582763671875,33.84000015258789,0.0,-52.0,0.063873291015625,0.3025054931640625,Closing,0.0,0.0,0.0,0.0,0.0,0.0,0.0,0.0,
21.275826999999932,0.0,0.0,10847.0,0.0,0.0,0.0,0.0,0.25,0.758056563,0.01,0.0,-4687.0,0.0,0.0,-0.0,0.0,0.25,0.45288081300000005,0.01,0.0,286.0,0.125,0.0,0.0,0.0,0.0,3.563232057,0.01,0.0,-10840.0,0.125,0.0,-0.0,0.0,0.25,1.544189295,0.01,0.0,0.2800000011920929,-0.41999998688697815,-6.619999885559082,-0.01123046875,0.00390625,1.03448486328125,33.84000015258789,0.0,-3.0,0.0636444091796875,0.300079345703125,Closing,0.0,0.0,0.0,0.0,0.0,0.0,0.0,0.0,
21.4767919999999,0.0,0.0,10847.0,0.0,0.0,0.0,0.0,0.25,0.806884683,0.01,0.0,-4687.0,0.0,0.0,-0.0,0.0,0.25,0.4882812,0.01,0.0,286.0,0.125,0.0,0.0,0.0,0.125,3.3081051300000004,0.01,0.0,-10841.0,0.125,-7.5,-0.0,0.0,0.125,1.645507644,0.01,0.0,0.2800000011920929,-0.41999998688697815,-6.579999923706055,-0.00482177734375,0.02215576171875,1.025634765625,33.81999969482422,0.0,0.0,0.0636444091796875,0.300079345703125,Closing,0.0,0.0,0.0,0.0,0.0,0.0,0.0,0.0,
21.674978999999933,0.0,0.0,10847.0,0.0,0.0,0.0,0.0,0.125,0.825195228,0.01,0.0,-4687.0,0.0,0.0,-0.0,0.0,0.25,0.49316401200000004,0.01,0.0,286.0,0.125,0.0,0.0,0.0,0.0,3.2604977130000004,0.01,0.0,-10841.0,0.125,0.0,-0.0,0.0,0.25,1.669921704,0.01,0.0,0.30000001192092896,-0.41999998688697815,-6.570000171661377,-7.32421875E-4,6.103515625E-4,1.01824951171875,33.81999969482422,0.0,7.0,0.0636444091796875,0.300079345703125,Closing,0.0,0.0,0.0,0.0,0.0,0.0,0.0,0.0,
21.875681999999912,0.0,0.0,10847.0,0.0,0.0,0.0,0.0,0.125,0.826415931,0.01,0.0,-4687.0,0.0,0.0,-0.0,0.0,0.125,0.4882812,0.01,0.0,286.0,0.125,0.0,0.0,0.0,0.125,3.337402002,0.01,0.0,-10841.0,0.125,0.0,-0.0,0.0,0.125,1.665038892,0.01,0.0,0.30000001192092896,-0.41999998688697815,-6.570000171661377,-0.00860595703125,0.0068359375,1.02001953125,33.81999969482422,0.0,-1.0,0.0636444091796875,0.300079345703125,Closing,0.0,0.0,0.0,0.0,0.0,0.0,0.0,0.0,
22.076353000000005,0.0,0.0,10847.0,0.0,0.0,0.0,0.0,0.125,0.825195228,0.01,0.0,-4687.0,0.0,0.0,-0.0,0.0,0.125,0.49316401200000004,0.01,0.0,286.0,0.125,0.0,0.0,0.0,0.0,3.3776852010000002,0.01,0.0,-10841.0,0.125,0.0,-0.0,0.0,0.25,1.6589353770000002,0.01,0.0,0.30000001192092896,-0.4099999964237213,-6.579999923706055,-0.0079345703125,0.004150390625,1.026611328125,33.83000183105469,0.0,0.0,0.0636444091796875,0.300079345703125,Closing,0.0,0.0,0.0,0.0,0.0,0.0,0.0,0.0,
22.277283999999984,0.0,0.0,10847.0,0.0,0.0,0.0,0.0,0.125,0.825195228,0.01,0.0,-4687.0,0.0,0.0,-0.0,0.0,0.25,0.49316401200000004,0.01,0.0,286.0,0.125,0.0,0.0,0.0,0.125,3.3764644980000003,0.01,0.0,-10841.0,0.125,0.0,-0.0,0.0,0.25,1.6601560800000001,0.01,0.0,0.30000001192092896,-0.41999998688697815,-6.579999923706055,-0.00732421875,0.00762939453125,1.01629638671875,33.83000183105469,0.0,0.0,0.0636444091796875,0.300079345703125,Closing,0.0,0.0,0.0,0.0,0.0,0.0,0.0,0.0,
22.46802899999998,0.0,0.0,10847.0,0.0,0.0,0.0,0.0,0.125,0.825195228,0.01,0.0,-4687.0,0.0,0.0,-0.0,0.0,0.25,0.4882812,0.01,0.0,286.0,0.125,0.0,0.0,0.0,0.125,3.3764644980000003,0.01,0.0,-10841.0,0.125,0.0,-0.0,0.0,0.25,1.6601560800000001,0.01,0.0,0.30000001192092896,-0.41999998688697815,-6.590000152587891,-0.005859375,0.00677490234375,1.02410888671875,33.849998474121094,0.0,1.0,0.0636444091796875,0.300079345703125,Closing,0.0,0.0,0.0,0.0,0.0,0.0,0.0,0.0,
