Time,ClimberA1,ClimberA2,FRpos,FRCurrent,FRspeed,FRsetpoint,FRApos,FRACurrent,FREncpos,FREncSetpoint,FREncSpeed,FLpos,FLCurrent,FLspeed,FLsetpoint,FLApos,FLACurrent,FLEncpos,FLEncSetpoint,FLEncSpeed,BRpos,BRCurrent,BRspeed,BRsetpoint,BRApos,BRACurrent,BREncpos,BREncSetpoint,BREncSpeed,BLpos,BLCurrent,BLspeed,BLsetpoint,BLApos,BLACurrent,BLEncpos,BLEncSetpoint,BLEncSpeed,navx_Pitch,navx_Roll,navx_Yaw,navx_XAcc,navx_YAcc,navx_ZAcc,navx_Temp,navx_Bar,navx_Alt,navx_XDis,navx_YDis,GearPlacerState,ShootOutputV,ShootOutputCurrent,ShootEncPos,ShootEncVelocity,ShootSpeed,ShootSetpoint,CarouselSetpoint,CarouselCurrent,
0.24746000000000004,0.0,0.0,1351.0,0.0,0.0,0.0,0.0,0.0,0.7885741380000001,0.01,0.0,1154.0,0.0,0.0,0.0,0.0,0.0,0.483398388,0.01,0.0,-347.0,0.0,0.0,0.0,0.0,0.0,3.4191891030000003,0.01,0.0,-1188.0,0.0,0.0,0.0,0.0,0.125,1.625976396,0.01,0.0,0.20999999344348907,-0.029999999329447746,-0.6499999761581421,-0.0028076171875,0.0035400390625,1.02374267578125,30.5,0.0,-2.0,0.60772705078125,0.6766204833984375,Waiting,0.0,0.0,0.0,0.0,0.0,0.0,0.0,0.0,
0.310143,0.0,0.0,1351.0,0.0,0.0,0.0,0.0,0.0,0.787353435,0.01,0.0,1154.0,0.0,0.0,-0.0,0.0,0.0,0.483398388,0.01,0.0,-347.0,0.0,0.0,0.0,0.0,0.0,3.4179684000000004,0.01,0.06918910300000025,-1188.0,0.0,0.0,-0.0,0.0,0.125,1.625976396,0.01,4.963976396,0.20999999344348907,-0.029999999329447746,-0.6499999761581421,-4.8828125E-4,0.00341796875,1.02850341796875,30.5,0.0,0.0,0.60772705078125,0.6766204833984375,Closing,0.0,0.0,0.0,0.0,0.0,0.0,0.0,0.0,
0.3525050000000001,0.0,0.0,1351.0,0.0,0.0,0.0,0.0,0.125,0.7885741380000001,0.01,4.909604434999999,1154.0,0.0,0.0,-0.0,0.0,0.0,0.482177685,0.01,-0.024052314999999602,-347.0,0.0,0.0,0.0,0.0,0.125,3.410644182,0.01,0.06918910300000025,-1188.0,0.0,0.0,-0.0,0.0,0.0,1.625976396,0.01,0.0,0.20999999344348907,-0.029999999329447746,-0.6499999761581421,-0.0037841796875,0.00579833984375,1.0185546875,30.5,0.0,-3.0,0.60772705078125,0.6766204833984375,Closing,0.0,0.0,0.0,0.0,0.0,0.0,0.0,0.0,
0.4552269999999999,0.0,0.0,1351.0,0.0,0.0,0.0,0.0,0.125,0.7885741380000001,0.01,0.0,1154.0,0.0,0.0,-0.0,0.0,0.0,0.483398388,0.01,0.0,-347.0,0.0,0.0,0.0,0.0,0.125,3.395995746,0.01,-0.01464843600000032,-1188.0,0.0,0.0,-0.0,0.0,0.0,1.625976396,0.01,0.0,0.20000000298023224,-0.029999999329447746,-0.6499999761581421,1.220703125E-4,0.00738525390625,1.02313232421875,30.5,0.0,3.0,0.60772705078125,0.6766204833984375,Closing,0.0,0.0,0.0,0.0,0.0,0.0,0.0,0.0,
0.5139960000000001,0.0,0.0,1351.0,0.0,0.0,0.0,0.0,0.125,0.7885741380000001,0.01,0.0,1154.0,0.0,0.0,-0.0,0.0,0.0,0.483398388,0.01,0.0,-347.0,0.0,0.0,0.0,0.0,0.0,3.391112934,0.01,0.0,-1188.0,0.0,0.0,-0.0,0.0,0.0,1.625976396,0.01,0.0,0.20999999344348907,-0.029999999329447746,-0.6499999761581421,-7.9345703125E-4,0.00531005859375,1.02398681640625,30.5,0.0,0.0,0.60772705078125,0.6766204833984375,Closing,0.0,0.0,0.0,0.0,0.0,0.0,0.0,0.0,
0.5917629999999999,0.0,0.0,1351.0,0.0,0.0,0.0,0.0,0.125,0.787353435,0.01,0.0,1154.0,0.0,0.0,-0.0,0.0,0.0,0.484619091,0.01,0.0,-347.0,0.0,0.0,0.0,0.0,0.0,3.391112934,0.01,-0.004882811999999959,-1188.0,0.0,0.0,-0.0,0.0,0.0,1.625976396,0.01,0.0,0.20999999344348907,-0.029999999329447746,-0.6499999761581421,-0.0025634765625,0.00555419921875,1.02886962890625,30.5,0.0,-1.0,0.60772705078125,0.6766204833984375,Closing,0.0,0.0,0.0,0.0,0.0,0.0,0.0,0.0,
0.653384,0.0,0.0,1351.0,0.0,0.0,0.0,0.0,0.125,0.7885741380000001,0.01,0.0,1154.0,0.0,0.0,-0.0,0.0,0.0,0.482177685,0.01,0.0,-347.0,0.0,0.0,0.0,0.0,0.125,3.391112934,0.01,0.0,-1188.0,0.0,0.0,-0.0,0.0,0.0,1.625976396,0.01,0.0,0.20999999344348907,-0.029999999329447746,-0.6499999761581421,-9.765625E-4,0.00384521484375,1.025390625,30.5,0.0,0.0,0.60772705078125,0.6766204833984375,Closing,0.0,0.0,0.0,0.0,0.0,0.0,0.0,0.0,
0.7121899999999995,0.0,0.0,1351.0,0.0,0.0,0.0,0.0,0.125,0.787353435,0.01,0.0,1154.0,0.0,0.0,-0.0,0.0,0.0,0.482177685,0.01,0.0,-347.0,0.0,0.0,0.0,0.0,0.125,3.389892231,0.01,0.0,-1188.0,0.0,0.0,-0.0,0.0,0.0,1.625976396,0.01,0.0,0.20999999344348907,-0.029999999329447746,-0.6499999761581421,-0.0018310546875,0.0029296875,1.028564453125,30.489999771118164,0.0,-1.0,0.60772705078125,0.6766204833984375,Closing,0.0,0.0,0.0,0.0,0.0,0.0,0.0,0.0,
0.790866,0.0,0.0,1351.0,0.0,0.0,0.0,0.0,0.125,0.787353435,0.01,0.0,1154.0,0.0,0.0,-0.0,0.0,0.0,0.482177685,0.01,0.0,-347.0,0.0,0.0,0.0,0.0,0.125,3.389892231,0.01,0.0,-1188.0,0.0,0.0,-0.0,0.0,0.0,1.627197099,0.01,0.0,0.20999999344348907,-0.029999999329447746,-0.6499999761581421,0.0035400390625,0.00128173828125,1.0263671875,30.489999771118164,0.0,4.0,0.60772705078125,0.6766204833984375,Closing,0.0,0.0,0.0,0.0,0.0,0.0,0.0,0.0,
0.8555259999999998,0.0,0.0,1351.0,0.0,0.0,0.0,0.0,0.125,0.787353435,0.01,0.0,1154.0,0.0,0.0,-0.0,0.0,0.0,0.482177685,0.01,0.0,-347.0,0.0,0.0,0.0,0.0,0.125,3.391112934,0.01,0.0,-1188.0,0.0,0.0,-0.0,0.0,0.0,1.627197099,0.01,0.0,0.20999999344348907,-0.029999999329447746,-0.6499999761581421,6.103515625E-5,0.00238037109375,1.02587890625,30.489999771118164,0.0,0.0,0.60772705078125,0.6766204833984375,Closing,0.0,0.0,0.0,0.0,0.0,0.0,0.0,0.0,
0.9092250000000004,0.0,0.0,1351.0,0.0,0.0,0.0,0.0,0.125,0.787353435,0.01,0.0,1154.0,0.0,0.0,-0.0,0.0,0.0,0.483398388,0.01,0.0,-347.0,0.0,0.0,0.0,0.0,0.125,3.391112934,0.01,0.0,-1188.0,0.0,0.0,-0.0,0.0,0.0,1.625976396,0.01,0.0,0.20999999344348907,-0.029999999329447746,-0.6499999761581421,4.2724609375E-4,0.00360107421875,1.0238037109375,30.489999771118164,0.0,1.0,0.60772705078125,0.6766204833984375,Closing,0.0,0.0,0.0,0.0,0.0,0.0,0.0,0.0,
0.9921880000000001,0.0,0.0,1351.0,0.0,0.0,0.0,0.0,0.125,0.7885741380000001,0.01,0.0,1154.0,0.0,0.0,-0.0,0.0,0.0,0.482177685,0.01,0.0,-347.0,0.0,0.0,0.0,0.0,0.125,3.391112934,0.01,0.0,-1188.0,0.0,0.0,-0.0,0.0,0.0,1.625976396,0.01,0.0,0.20999999344348907,-0.029999999329447746,-0.6499999761581421,-9.765625E-4,0.00482177734375,1.02191162109375,30.489999771118164,0.0,0.0,0.60772705078125,0.6766204833984375,Closing,0.0,0.0,0.0,0.0,0.0,0.0,0.0,0.0,
1.0601120000000002,0.0,0.0,1351.0,0.0,0.0,0.0,0.0,0.125,0.787353435,0.01,0.0,1154.0,0.0,0.0,-0.0,0.0,0.0,0.482177685,0.01,0.0,-347.0,0.0,0.0,0.0,0.0,0.125,3.391112934,0.01,0.0,-1188.0,0.0,0.0,-0.0,0.0,0.0,1.625976396,0.01,0.0,0.20000000298023224,-0.029999999329447746,-0.6499999761581421,-0.00103759765625,0.00469970703125,1.02630615234375,30.489999771118164,0.0,0.0,0.60772705078125,0.6766204833984375,Closing,0.0,0.0,0.0,0.0,0.0,0.0,0.0,0.0,
1.1238230000000002,0.0,0.0,1351.0,0.0,0.0,0.0,0.0,0.125,0.787353435,0.01,0.0,1154.0,0.0,0.0,-0.0,0.0,0.0,0.482177685,0.01,0.0,-347.0,0.0,0.0,0.0,0.0,0.125,3.389892231,0.01,0.0,-1188.0,0.0,0.0,-0.0,0.0,0.0,1.625976396,0.01,0.0,0.20000000298023224,-0.029999999329447746,-0.6499999761581421,-7.32421875E-4,0.00250244140625,1.01910400390625,30.489999771118164,0.0,0.0,0.60772705078125,0.6766204833984375,Closing,0.0,0.0,0.0,0.0,0.0,0.0,0.0,0.0,
1.190514,0.0,0.0,1351.0,0.0,0.0,0.0,0.0,0.125,0.7885741380000001,0.01,0.0,1154.0,0.0,0.0,-0.0,0.0,0.0,0.483398388,0.01,0.0,-347.0,0.0,0.0,0.0,0.0,0.125,3.389892231,0.01,0.0,-1188.0,0.0,0.0,-0.0,0.0,0.0,1.625976396,0.01,0.0,0.20000000298023224,-0.029999999329447746,-0.6499999761581421,0.0010986328125,0.00506591796875,1.0234375,30.530000686645508,0.0,1.0,0.60772705078125,0.6766204833984375,Closing,0.0,0.0,0.0,0.0,0.0,0.0,0.0,0.0,
1.2570429999999997,0.0,0.0,1351.0,0.0,0.0,0.0,0.0,0.125,0.7885741380000001,0.01,0.0,1154.0,0.0,0.0,-0.0,0.0,0.0,0.483398388,0.01,0.0,-347.0,0.0,0.0,0.0,0.0,0.125,3.391112934,0.01,0.0,-1188.0,0.0,0.0,-0.0,0.0,0.0,1.625976396,0.01,0.0,0.1899999976158142,-0.029999999329447746,-0.6499999761581421,0.0013427734375,0.005126953125,1.02459716796875,30.530000686645508,0.0,2.0,0.60772705078125,0.6766204833984375,Closing,0.0,0.0,0.0,0.0,0.0,0.0,0.0,0.0,
1.3249179999999996,0.0,0.0,1351.0,0.0,0.0,0.0,0.0,0.125,0.787353435,0.01,0.0,1154.0,0.0,0.0,-0.0,0.0,0.0,0.483398388,0.01,0.0,-347.0,0.0,0.0,0.0,0.0,0.125,3.391112934,0.01,0.0,-1188.0,0.0,0.0,-0.0,0.0,0.0,1.627197099,0.01,0.0,0.1899999976158142,-0.029999999329447746,-0.6499999761581421,6.103515625E-5,0.00384521484375,1.0233154296875,30.530000686645508,0.0,0.0,0.60772705078125,0.6766204833984375,Closing,0.0,0.0,0.0,0.0,0.0,0.0,0.0,0.0,
1.3918360000000003,0.0,0.0,1346.0,1.0,-7.5,-873.0709004402162,0.0,0.125,0.794677653,4.923345547132208,0.0,1162.0,1.875,7.5,873.0709004402162,0.0,0.0,0.483398388,4.95480763782874,0.0,-348.0,1.25,0.0,-873.0709004402162,0.0,0.125,3.391112934,4.931479833660526,0.0,-1185.0,1.5,30.0,873.0709004402162,0.0,0.125,1.624755693,4.949048055883913,0.0,0.20999999344348907,-0.05000000074505806,-0.6600000262260437,-0.12921142578125,-0.05291748046875,0.96710205078125,30.530000686645508,0.0,-127.0,0.607635498046875,0.67657470703125,Closing,0.0,0.0,0.0,0.0,0.0,0.0,0.0,0.0,
1.46979,0.0,0.0,1346.0,3.75,-165.0,-932.5984311103821,0.0,0.0,0.787353435,4.923208539474021,0.0,1162.0,9.5,195.0,932.5984311103821,0.0,0.0,0.483398388,4.954669754638391,0.0,-348.0,5.375,-52.5,-932.5984311103821,0.0,0.125,3.391112934,4.931342599640094,0.0,-1185.0,2.875,165.0,932.5984311103821,0.0,0.125,1.594238118,4.948910332972145,0.0,0.12999999523162842,-0.8999999761581421,-0.7200000286102295,-0.11810302734375,0.085205078125,1.39483642578125,30.530000686645508,0.0,-97.0,0.601470947265625,0.676055908203125,Closing,0.0,0.0,0.0,0.0,0.0,0.0,0.0,0.0,
1.5920829999999997,0.0,0.0,1305.0,0.0,-202.5,0.0,0.0,0.125,0.772704999,4.923208539474021,0.0,1205.0,0.0,232.5,0.0,0.0,0.0,0.46752924900000004,4.954669754638391,0.0,-376.0,0.0,-247.5,0.0,0.0,0.125,3.3764644980000003,4.931342599640094,0.0,-1143.0,0.125,315.0,0.0,0.0,0.125,1.5869139,4.948910332972145,0.0,0.1899999976158142,-1.149999976158142,-0.7699999809265137,0.16070556640625,-0.038330078125,1.26025390625,30.530000686645508,0.0,186.0,0.580169677734375,0.6768798828125,Closing,0.0,0.0,0.0,0.0,0.0,0.0,0.0,0.0,
1.6450850000000001,0.0,0.0,1272.0,0.0,-180.0,0.0,0.0,0.125,0.772704999,4.923208539474021,-0.01342773300000033,1242.0,0.0,180.0,0.0,0.0,0.0,0.458984328,4.954669754638391,-0.014648435999999876,-400.0,0.0,-112.5,0.0,0.0,0.125,3.355712547,4.931342599640094,-0.020751950999999824,-1107.0,0.0,180.0,0.0,0.0,0.125,1.5844724940000001,4.948910332972145,-0.010986327000000351,0.18000000715255737,-0.7900000214576721,-0.9599999785423279,0.07586669921875,-0.09613037109375,1.1905517578125,30.530000686645508,0.0,94.0,0.5736541748046875,0.677581787109375,Closing,0.0,0.0,0.0,0.0,0.0,0.0,0.0,0.0,
1.721687,0.0,0.0,1272.0,0.0,-255.0,0.0,0.0,0.125,0.773925702,4.923208539474021,0.0,1242.0,0.0,247.5,0.0,0.0,0.0,0.457763625,4.954669754638391,-0.009765623999999917,-400.0,0.0,-97.5,0.0,0.0,0.125,3.355712547,4.931342599640094,0.0,-1107.0,0.0,202.5,0.0,0.0,0.125,1.5820310880000001,4.948910332972145,-0.0012207029999995456,0.12999999523162842,-0.23000000417232513,-0.7099999785423279,0.19970703125,0.08062744140625,0.8193359375,30.5,0.0,202.0,0.5701446533203125,0.6786346435546875,Closing,0.0,0.0,0.0,0.0,0.0,0.0,0.0,0.0,
1.7897269999999998,0.0,0.0,1240.0,0.0,-172.5,0.0,0.0,0.125,0.772704999,4.923208539474021,0.0,1269.0,0.0,135.0,0.0,0.0,0.0,0.458984328,4.954669754638391,0.0,-421.0,0.0,-135.0,0.0,0.0,0.125,3.35693325,4.931342599640094,0.0,-1077.0,0.0,120.0,0.0,0.0,0.125,1.5832517910000001,4.948910332972145,-0.003662109000000413,0.1599999964237213,0.03999999910593033,-0.7900000214576721,0.0987548828125,0.0343017578125,0.9906005859375,30.5,0.0,97.0,0.5709381103515625,0.680145263671875,Closing,0.0,0.0,0.0,0.0,0.0,0.0,0.0,0.0,
1.8581210000000001,0.0,0.0,1235.0,0.0,-90.0,0.0,0.0,0.125,0.772704999,4.923208539474021,0.0,1277.0,0.0,52.5,0.0,0.0,0.0,0.46386714,4.954669754638391,0.0,-430.0,0.0,-67.5,0.0,0.0,0.125,3.358153953,4.931342599640094,0.0,-1069.0,0.0,60.0,0.0,0.0,0.125,1.5844724940000001,4.948910332972145,0.0012207030000004337,0.12999999523162842,0.20000000298023224,-0.7699999809265137,0.0394287109375,-7.9345703125E-4,1.06781005859375,30.5,0.0,35.0,0.5741729736328125,0.681396484375,Closing,0.0,0.0,0.0,0.0,0.0,0.0,0.0,0.0,
1.989286,0.0,0.0,1235.0,0.0,0.0,0.0,0.0,0.125,0.773925702,4.923208539474021,0.0,1277.0,0.0,0.0,0.0,0.0,0.0,0.47363276400000004,4.954669754638391,0.0,-430.0,0.0,0.0,0.0,0.0,0.125,3.355712547,4.931342599640094,0.0,-1069.0,0.0,0.0,0.0,0.0,0.125,1.5820310880000001,4.948910332972145,0.0,0.17000000178813934,0.23999999463558197,-0.8299999833106995,-0.0220947265625,-0.01800537109375,1.03314208984375,30.5,0.0,-26.0,0.5757904052734375,0.6819915771484375,Closing,0.0,0.0,0.0,0.0,0.0,0.0,0.0,0.0,
2.047264,0.0,0.0,1235.0,0.0,0.0,0.0,0.0,0.125,0.772704999,4.923208539474021,0.0,1277.0,0.0,0.0,0.0,0.0,0.0,0.47241206100000005,4.954669754638391,0.004882811999999959,-430.0,0.0,0.0,0.0,0.0,0.125,3.35693325,4.931342599640094,0.0,-1069.0,0.0,0.0,0.0,0.0,0.125,1.5832517910000001,4.948910332972145,-0.0012207030000004337,0.15000000596046448,0.15000000596046448,-0.8100000023841858,-0.0206298828125,0.00921630859375,1.0406494140625,30.5,0.0,-23.0,0.574859619140625,0.6819305419921875,Closing,0.0,0.0,0.0,0.0,0.0,0.0,0.0,0.0,
2.120218,0.0,0.0,1235.0,0.0,0.0,0.0,0.0,0.125,0.772704999,4.923208539474021,0.0,1277.0,0.0,0.0,0.0,0.0,0.0,0.47241206100000005,4.954669754638391,0.0,-430.0,0.0,0.0,0.0,0.0,0.125,3.358153953,4.931342599640094,0.0,-1069.0,0.0,0.0,0.0,0.0,0.125,1.5832517910000001,4.948910332972145,0.0,0.17000000178813934,0.09000000357627869,-0.800000011920929,-0.0196533203125,0.0067138671875,1.05865478515625,30.5,0.0,-21.0,0.5735321044921875,0.6819305419921875,Closing,0.0,0.0,0.0,0.0,0.0,0.0,0.0,0.0,
2.256273,0.0,0.0,1235.0,0.0,0.0,-277.79527455568314,0.0,0.125,0.786132732,4.921153435217338,0.0,1285.0,0.375,45.0,277.79527455568314,0.0,0.0,0.47241206100000005,4.952601517467129,0.0,-432.0,0.125,-30.0,-277.79527455568314,0.0,0.125,3.355712547,4.929284099967284,0.0,-1069.0,0.5,0.0,277.79527455568314,0.0,0.125,1.5832517910000001,4.946844499967168,0.0,0.17000000178813934,0.05999999865889549,-0.8100000023841858,0.00250244140625,0.01165771484375,1.0076904296875,30.510000228881836,0.0,1.0,0.5731353759765625,0.6819305419921875,Closing,0.0,0.0,0.0,0.0,0.0,0.0,0.0,0.0,
2.3194120000000003,0.0,0.0,1235.0,0.0,-60.0,-297.63780355453486,0.0,0.125,0.772704999,4.921153435217338,0.0,1285.0,0.5,142.5,297.63780355453486,0.0,0.0,0.47363276400000004,4.952601517467129,0.0,-432.0,0.125,-97.5,-297.63780355453486,0.0,0.125,3.355712547,4.929284099967284,0.0,-1069.0,0.75,0.0,297.63780355453486,0.0,0.125,1.5832517910000001,4.946844499967168,0.0,0.1899999976158142,0.0,-0.8299999833106995,-0.06396484375,-0.0159912109375,0.9989013671875,30.510000228881836,0.0,-63.0,0.572906494140625,0.6820526123046875,Closing,0.0,0.0,0.0,0.0,0.0,0.0,0.0,0.0,
2.389116,0.0,0.0,1216.0,0.0,-112.5,-297.6378035545348,0.0,0.125,0.773925702,4.920879421534213,0.0,1300.0,1.125,37.5,297.6378035545348,0.0,0.0,0.47241206100000005,4.952325752730118,0.0,-445.0,0.125,-37.5,-297.6378035545348,0.0,0.125,3.350829735,4.9290096335623685,0.0,-1066.0,0.5,45.0,297.6378035545348,0.0,0.125,1.5820310880000001,4.946569055785407,0.0,0.1599999964237213,-0.029999999329447746,-0.8100000023841858,0.01092529296875,0.00555419921875,0.97637939453125,30.510000228881836,0.0,11.0,0.572265625,0.6820526123046875,Closing,0.0,0.0,0.0,0.0,0.0,0.0,0.0,0.0,
2.448231,0.0,0.0,1216.0,0.125,-52.5,-317.4803137779236,0.0,0.125,0.773925702,4.921153435217338,0.0,1310.0,2.125,45.0,317.4803137779236,0.0,0.0,0.457763625,4.952601517467129,0.0,-445.0,0.625,0.0,-317.4803137779236,0.0,0.125,3.35693325,4.929284099967284,0.0,-1044.0,0.5,112.5,317.4803137779236,0.0,0.125,1.5820310880000001,4.946844499967168,0.0,0.20999999344348907,-0.10999999940395355,-0.8999999761581421,-0.07586669921875,-5.4931640625E-4,1.01202392578125,30.510000228881836,0.0,-44.0,0.57086181640625,0.6820526123046875,Closing,0.0,0.0,0.0,0.0,0.0,0.0,0.0,0.0,
2.5156400000000003,0.0,0.0,1210.0,0.625,-52.5,-317.4803137779236,0.0,0.125,0.770263593,4.919920372826653,0.0,1310.0,2.75,75.0,317.4803137779236,0.0,0.0,0.45410151600000004,4.95136057532874,0.0,-445.0,1.5,-15.0,-317.4803137779236,0.0,0.125,3.3666988740000003,4.928049000327193,0.0,-1044.0,0.75,142.5,317.4803137779236,0.0,0.125,1.5844724940000001,4.945605000328358,0.0,0.18000000715255737,-0.3100000023841858,-0.8600000143051147,-0.0750732421875,-0.016845703125,1.001708984375,30.510000228881836,0.0,-69.0,0.5690155029296875,0.6819610595703125,Closing,0.0,0.0,0.0,0.0,0.0,0.0,0.0,0.0,
2.5896449999999995,0.0,0.0,1186.0,0.625,-135.0,-317.4803137779236,0.0,0.125,0.772704999,4.920742414692651,0.0,1332.0,2.875,112.5,317.4803137779236,0.0,0.0,0.45410151600000004,4.952187870361613,0.0,-464.0,2.125,-90.0,-317.4803137779236,0.0,0.125,3.3666988740000003,4.928872400359912,0.0,-1029.0,1.25,90.0,317.4803137779236,0.0,0.125,1.5832517910000001,4.946431333694527,0.0,0.23000000417232513,-0.6000000238418579,-0.7799999713897705,-0.1041259765625,-0.00665283203125,1.17205810546875,30.510000228881836,0.0,-91.0,0.56268310546875,0.6819610595703125,Closing,0.0,0.0,0.0,0.0,0.0,0.0,0.0,0.0,
2.654584,0.0,0.0,1186.0,0.375,-187.5,-317.4803137779236,0.0,0.125,0.772704999,4.92156445655865,0.0,1332.0,2.625,180.0,317.4803137779236,0.0,0.0,0.45532221900000003,4.953015165394487,0.0,-464.0,1.75,-157.5,-317.4803137779236,0.0,0.125,3.3666988740000003,4.92969580039263,0.0,-1029.0,1.25,82.5,317.4803137779236,0.0,0.125,1.5820310880000001,4.947257667060695,0.0,0.25,-0.6800000071525574,-0.8600000143051147,0.00323486328125,-0.00799560546875,1.03253173828125,30.510000228881836,0.0,15.0,0.5570220947265625,0.68218994140625,Closing,0.0,0.0,0.0,0.0,0.0,0.0,0.0,0.0,
2.722419,0.0,0.0,1148.0,0.125,-217.5,-317.4803137779236,0.0,0.125,0.772704999,4.920194386509777,0.0,1371.0,2.125,247.5,317.4803137779236,0.0,0.0,0.449218704,4.9516363400657495,0.0,-491.0,1.875,-172.5,-317.4803137779236,0.0,0.125,3.3679195770000003,4.928323466732107,0.0,-1006.0,1.125,135.0,317.4803137779236,0.0,0.125,1.5869139,4.945880444510117,0.0,0.25,-0.75,-0.8199999928474426,0.004638671875,0.010009765625,1.04400634765625,30.510000228881836,0.0,18.0,0.549560546875,0.6816558837890625,Closing,0.0,0.0,0.0,0.0,0.0,0.0,0.0,0.0,
2.7898870000000007,0.0,0.0,1148.0,0.375,-262.5,-317.4803137779236,0.0,0.125,0.772704999,4.9210164283757765,0.0,1371.0,2.0,262.5,317.4803137779236,0.0,0.0,0.449218704,4.952463635098624,0.0,-491.0,1.75,-232.5,-317.4803137779236,0.0,0.125,3.3666988740000003,4.929146866764827,0.0,-1006.0,1.125,255.0,317.4803137779236,0.0,0.125,1.5771482760000002,4.946706777876288,0.0,0.23999999463558197,-0.75,-0.800000011920929,-0.0128173828125,-0.01800537109375,0.966064453125,30.510000228881836,0.0,0.0,0.5447540283203125,0.68157958984375,Closing,0.0,0.0,0.0,0.0,0.0,0.0,0.0,0.0,
2.8540920000000005,0.0,0.0,1103.0,0.375,-277.5,-317.4803137779236,0.0,0.125,0.772704999,4.921153435217338,0.0,1418.0,1.875,300.0,317.4803137779236,0.0,0.0,0.44799800100000003,4.952601517467129,0.0,-533.0,1.75,-262.5,-317.4803137779236,0.0,0.125,3.3666988740000003,4.929284099967284,0.0,-952.0,0.5,360.0,317.4803137779236,0.0,0.125,1.5783689790000002,4.946844499967168,0.0,0.25,-0.8600000143051147,-0.8500000238418579,-0.0321044921875,-0.03912353515625,0.9901123046875,30.510000228881836,0.0,-16.0,0.5362396240234375,0.6814727783203125,Closing,0.0,0.0,0.0,0.0,0.0,0.0,0.0,0.0,
2.9223979999999994,0.0,0.0,1103.0,0.125,-307.5,-317.4803137779236,0.0,0.125,0.773925702,4.920605407034464,0.0,1418.0,1.5,330.0,317.4803137779236,0.0,0.0,0.44799800100000003,4.952049987171265,0.0,-533.0,1.75,-270.0,-317.4803137779236,0.0,0.125,3.3654781710000004,4.9287351663394805,0.0,-952.0,0.875,240.0,317.4803137779236,0.0,0.125,1.5771482760000002,4.946293610782758,0.0,0.23000000417232513,-0.7900000214576721,-0.8100000023841858,-0.007568359375,-0.0479736328125,0.971435546875,30.510000228881836,0.0,6.0,0.5362701416015625,0.68115234375,Closing,0.0,0.0,0.0,0.0,0.0,0.0,0.0,0.0,
2.9885020000000004,0.0,0.0,1051.0,0.125,-322.5,-317.4803137779236,0.0,0.125,0.7629393750000001,4.921153435217338,0.0,1472.0,1.25,330.0,317.4803137779236,0.0,0.0,0.45166011,4.952601517467129,0.0,-580.0,1.25,-300.0,-317.4803137779236,0.0,0.125,3.3666988740000003,4.929284099967284,0.0,-913.0,0.75,307.5,317.4803137779236,0.0,0.125,1.5759275730000002,4.946844499967168,0.0,0.2199999988079071,-0.7900000214576721,-0.800000011920929,0.01318359375,0.01666259765625,0.98809814453125,30.510000228881836,0.0,26.0,0.5364837646484375,0.680633544921875,Closing,0.0,0.0,0.0,0.0,0.0,0.0,0.0,0.0,
3.052771000000001,0.0,0.0,1051.0,0.125,-315.0,-317.4803137779236,0.0,0.125,0.773925702,4.9212904420589,0.0,1528.0,1.25,337.5,317.4803137779236,0.0,0.0,0.458984328,4.952739399835633,0.0,-633.0,1.0,-322.5,-317.4803137779236,0.0,0.125,3.3654781710000004,4.929421333169741,0.0,-857.0,0.5,382.5,317.4803137779236,0.0,0.125,1.57470687,4.946982222058047,0.0,0.20000000298023224,-0.800000011920929,-0.8299999833106995,-0.01861572265625,0.0206298828125,1.04595947265625,30.510000228881836,0.0,-4.0,0.537139892578125,0.6802978515625,Closing,0.0,0.0,0.0,0.0,0.0,0.0,0.0,0.0,
3.1210249999999995,0.0,0.0,1000.0,0.125,-315.0,-317.4803137779235,0.0,0.125,0.772704999,4.920879421534213,0.0,1528.0,1.125,345.0,317.4803137779235,0.0,0.0,0.468749952,4.952325752730118,0.0,-633.0,1.0,-330.0,-317.4803137779235,0.0,0.125,3.3666988740000003,4.9290096335623685,0.0,-857.0,0.75,255.0,317.4803137779235,0.0,0.125,1.5771482760000002,4.946569055785407,0.0,0.1899999976158142,-0.75,-0.7599999904632568,0.05511474609375,-0.04071044921875,1.0399169921875,30.510000228881836,0.0,69.0,0.5372772216796875,0.679534912109375,Closing,0.0,0.0,0.0,0.0,0.0,0.0,0.0,0.0,
3.189183999999999,0.0,0.0,946.0,0.125,-337.5,-317.4803137779236,0.0,0.125,0.772704999,4.921838470241775,0.0,1582.0,1.125,330.0,317.4803137779236,0.0,0.0,0.468749952,4.953290930131498,0.0,-686.0,1.25,-330.0,-317.4803137779236,0.0,0.125,3.3666988740000003,4.929970266797546,0.0,-806.0,0.75,292.5,317.4803137779236,0.0,0.125,1.57470687,4.947533111242456,0.0,0.17000000178813934,-0.7099999785423279,-0.7300000190734863,0.02398681640625,0.0357666015625,0.85406494140625,30.510000228881836,0.0,34.0,0.5380706787109375,0.6787567138671875,Closing,0.0,0.0,0.0,0.0,0.0,0.0,0.0,0.0,
3.255752,0.0,0.0,946.0,0.0,-322.5,-317.4803137779236,0.0,0.125,0.772704999,4.92224949076646,0.0,1582.0,1.125,330.0,317.4803137779236,0.0,0.0,0.47363276400000004,4.953704577237012,0.0,-686.0,1.0,-322.5,-317.4803137779236,0.0,0.125,3.3679195770000003,4.9303819664049175,0.0,-806.0,0.75,360.0,317.4803137779236,0.0,0.125,1.5759275730000002,4.947946277515096,0.0,0.15000000596046448,-0.7099999785423279,-0.7200000286102295,-0.011962890625,0.0142822265625,0.96551513671875,30.520000457763672,0.0,0.0,0.5384368896484375,0.6785430908203125,Closing,0.0,0.0,0.0,0.0,0.0,0.0,0.0,0.0,
3.3211720000000007,0.0,0.0,892.0,0.0,-322.5,-317.4803137779236,0.0,0.125,0.772704999,4.922386497608024,0.0,1634.0,1.125,322.5,317.4803137779236,0.0,0.0,0.46752924900000004,4.953842459605518,0.0,-739.0,1.0,-330.0,-317.4803137779236,0.0,0.125,3.3654781710000004,4.930519199607375,0.0,-763.0,0.75,255.0,317.4803137779236,0.0,0.125,1.5759275730000002,4.948083999605977,0.0,0.15000000596046448,-0.6800000071525574,-0.6000000238418579,0.00390625,0.0194091796875,1.134765625,30.520000457763672,0.0,17.0,0.5391845703125,0.67840576171875,Closing,0.0,0.0,0.0,0.0,0.0,0.0,0.0,0.0,
3.387298000000001,0.0,0.0,892.0,0.125,-330.0,-317.4803137779236,0.0,0.125,0.772704999,4.924030581340019,0.0,1634.0,1.25,307.5,317.4803137779236,0.0,0.0,0.468749952,4.955497049671265,0.0,-739.0,1.25,-322.5,-317.4803137779236,0.0,0.125,3.3666988740000003,4.932165999672812,0.0,-763.0,0.75,330.0,317.4803137779236,0.0,0.125,1.5771482760000002,4.949736666338314,0.0,0.18000000715255737,-0.6899999976158142,-0.550000011920929,-0.03369140625,0.0186767578125,1.0992431640625,30.520000457763672,0.0,-20.0,0.5404510498046875,0.678314208984375,Closing,0.0,0.0,0.0,0.0,0.0,0.0,0.0,0.0,
3.446456,0.0,0.0,843.0,0.125,-307.5,-317.4803137779236,0.0,0.125,0.773925702,4.9244416026813305,0.0,1685.0,1.25,322.5,317.4803137779236,0.0,0.0,0.46752924900000004,4.955910697598624,0.0,-790.0,1.25,-315.0,-317.4803137779236,0.0,0.125,3.3666988740000003,4.932577700098159,0.0,-704.0,0.75,352.5,317.4803137779236,0.0,0.125,1.5795896820000002,4.950149833431842,0.0,0.17000000178813934,-0.6600000262260437,-0.6000000238418579,-0.01971435546875,-6.7138671875E-4,1.056396484375,30.520000457763672,0.0,-7.0,0.5413970947265625,0.6777496337890625,Closing,0.0,0.0,0.0,0.0,0.0,0.0,0.0,0.0,
3.590098,0.0,0.0,790.0,0.0,-322.5,-317.4803137779236,0.0,0.125,0.772704999,4.924030581340019,0.0,1736.0,1.25,315.0,317.4803137779236,0.0,0.0,0.468749952,4.955497049671265,0.0,-843.0,1.0,-315.0,-317.4803137779236,0.0,0.125,3.3654781710000004,4.932165999672812,0.0,-664.0,0.75,322.5,317.4803137779236,0.0,0.125,1.5808103850000002,4.949736666338314,0.0,0.18000000715255737,-0.5899999737739563,-0.5,-0.02252197265625,0.00762939453125,1.07183837890625,30.520000457763672,0.0,-11.0,0.5412139892578125,0.6776275634765625,Closing,0.0,0.0,0.0,0.0,0.0,0.0,0.0,0.0,
3.6539320000000006,0.0,0.0,790.0,0.125,-300.0,-317.4803137779236,0.0,0.125,0.773925702,4.925400651388891,0.0,1789.0,1.125,322.5,317.4803137779236,0.0,0.0,0.46752924900000004,4.956875875000002,0.0,-893.0,1.25,-307.5,-317.4803137779236,0.0,0.125,3.3666988740000003,4.933538333333336,0.0,-615.0,0.875,375.0,317.4803137779236,0.0,0.125,1.5795896820000002,4.951113888888891,0.0,0.12999999523162842,-0.5799999833106995,-0.5099999904632568,-0.00299072265625,-0.009033203125,0.93231201171875,30.520000457763672,0.0,6.0,0.541534423828125,0.67779541015625,Closing,0.0,0.0,0.0,0.0,0.0,0.0,0.0,0.0,
3.713198,0.0,0.0,740.0,0.125,-307.5,-317.4803137779236,0.0,0.125,0.772704999,4.9255376582304535,0.0,1789.0,1.125,322.5,317.4803137779236,0.0,0.0,0.468749952,4.957013757368507,0.0,-893.0,1.0,-322.5,-317.4803137779236,0.0,0.125,3.3666988740000003,4.933675566535793,0.0,-615.0,0.875,225.0,317.4803137779236,0.0,0.125,1.5808103850000002,4.951251610979772,0.0,0.12999999523162842,-0.550000011920929,-0.36000001430511475,-0.039306640625,0.0323486328125,1.13897705078125,30.520000457763672,0.0,-28.0,0.542572021484375,0.678314208984375,Closing,0.0,0.0,0.0,0.0,0.0,0.0,0.0,0.0,
3.7913829999999997,0.0,0.0,690.0,0.125,-315.0,-377.00788199901575,0.0,0.125,0.773925702,4.927318748804013,0.0,1842.0,1.375,315.0,377.00788199901575,0.0,0.0,0.468749952,4.958806229802761,0.0,-943.0,1.25,-307.5,-377.00788199901575,0.0,0.125,3.3666988740000003,4.935459599803689,0.0,-560.0,1.125,330.0,377.00788199901575,0.0,0.125,1.5808103850000002,4.9530419998029895,0.0,0.18000000715255737,-0.550000011920929,-0.4099999964237213,-0.07965087890625,-0.01239013671875,1.08270263671875,30.5,0.0,-69.0,0.5437164306640625,0.678924560546875,Closing,0.0,0.0,0.0,0.0,0.0,0.0,0.0,0.0,
3.8555699999999997,0.0,0.0,690.0,0.375,-307.5,-377.00788199901575,0.0,0.125,0.773925702,4.9263597000964525,0.0,1842.0,1.625,337.5,377.00788199901575,0.0,0.0,0.468749952,4.957841052401382,0.0,-943.0,1.875,-307.5,-377.00788199901575,0.0,0.125,3.3666988740000003,4.934498966568513,0.0,-560.0,1.125,382.5,377.00788199901575,0.0,0.125,1.5820310880000001,4.952077944345941,0.0,0.10999999940395355,-0.5899999737739563,-0.4000000059604645,-0.04144287109375,-0.02337646484375,0.93463134765625,30.5,0.0,-31.0,0.544403076171875,0.6789398193359375,Closing,0.0,0.0,0.0,0.0,0.0,0.0,0.0,0.0,
3.9338960000000007,0.0,0.0,635.0,0.375,-352.5,-377.00788199901575,0.0,0.125,0.772704999,4.926770721029452,0.0,1895.0,1.75,337.5,377.00788199901575,0.0,0.0,0.468749952,4.958254699917819,0.0,-998.0,1.75,-345.0,-377.00788199901575,0.0,0.125,3.3666988740000003,4.934910666584873,0.0,-520.0,1.125,225.0,377.00788199901575,0.0,0.125,1.5795896820000002,4.952491111029025,0.0,0.1599999964237213,-0.6600000262260437,-0.2199999988079071,-1.8310546875E-4,0.0,1.0435791015625,30.5,0.0,11.0,0.5448150634765625,0.67822265625,Closing,0.0,0.0,0.0,0.0,0.0,0.0,0.0,0.0,
3.988182999999999,0.0,0.0,635.0,0.125,-360.0,-396.85039222240454,0.0,0.125,0.7775878110000001,4.929236846627447,0.0,1895.0,1.625,345.0,396.85039222240454,0.0,0.0,0.468749952,4.96073658501644,0.0,-998.0,1.5,-360.0,-396.85039222240454,0.0,0.125,3.359374656,4.9373808666830294,0.0,-520.0,1.125,345.0,396.85039222240454,0.0,0.125,1.5795896820000002,4.954970111127532,0.0,0.15000000596046448,-0.6700000166893005,-0.23999999463558197,-0.0462646484375,-0.04608154296875,0.93585205078125,30.5,0.0,-34.0,0.5447998046875,0.6779632568359375,Closing,0.0,0.0,0.0,0.0,0.0,0.0,0.0,0.0,
4.046355999999999,0.0,0.0,575.0,0.375,-360.0,-496.06298089027405,0.0,0.125,0.782470623,4.928962832740165,0.0,1954.0,2.25,367.5,496.06298089027405,0.0,0.0,0.47363276400000004,4.960460820073968,0.0,-1056.0,2.125,-367.5,-496.06298089027405,0.0,0.125,3.3666988740000003,4.9371064000736204,0.0,-446.0,1.25,442.5,496.06298089027405,0.0,0.125,1.585693197,4.954694666740549,0.0,0.15000000596046448,-0.7599999904632568,-0.1899999976158142,-0.0772705078125,0.0103759765625,1.09814453125,30.5,0.0,-62.0,0.54412841796875,0.6776275634765625,Closing,0.0,0.0,0.0,0.0,0.0,0.0,0.0,0.0,
4.121461999999999,0.0,0.0,575.0,0.75,-412.5,-555.5905491113663,0.0,0.125,0.783691326,4.930058888493445,0.0,1954.0,3.375,382.5,555.5905491113663,0.0,0.0,0.47363276400000004,4.961563880049313,0.0,-1056.0,2.375,-397.5,-555.5905491113663,0.0,0.125,3.3666988740000003,4.938204266715748,0.0,-446.0,1.875,262.5,555.5905491113663,0.0,0.125,1.5808103850000002,4.9557964444937,0.0,0.1599999964237213,-0.8899999856948853,-0.009999999776482582,-0.04339599609375,0.19293212890625,1.13555908203125,30.5,0.0,-25.0,0.5420989990234375,0.6773681640625,Closing,0.0,0.0,0.0,0.0,0.0,0.0,0.0,0.0,
4.186984000000001,0.0,0.0,504.0,0.75,-450.0,-555.5905491113663,0.0,0.125,0.783691326,4.932113993030843,0.0,2020.0,3.5,420.0,555.5905491113663,0.0,0.0,0.47363276400000004,4.963632117503084,0.0,-1127.0,2.5,-450.0,-555.5905491113663,0.0,0.125,3.3666988740000003,4.940262766669736,0.0,-381.0,2.0,562.5,555.5905491113663,0.0,0.125,1.57470687,4.957862277780858,0.0,0.2199999988079071,-1.0800000429153442,0.009999999776482582,-0.0467529296875,0.01971435546875,1.1136474609375,30.5,0.0,-25.0,0.53948974609375,0.6782073974609375,Closing,0.0,0.0,0.0,0.0,0.0,0.0,0.0,0.0,
4.247399,0.0,0.0,504.0,0.625,-487.5,-555.5905491113663,0.0,0.125,0.783691326,0.01,0.0,2101.0,3.25,480.0,555.5905491113663,0.0,0.0,0.471191358,0.01,0.0,-1209.0,2.25,-495.0,-555.5905491113663,0.0,0.0,3.3630367650000004,0.01,0.0,-308.0,1.5,457.5,555.5905491113663,0.0,0.125,1.5808103850000002,0.01,0.0,0.27000001072883606,-1.190000057220459,0.10000000149011612,0.0306396484375,0.0096435546875,1.1617431640625,30.540000915527344,0.0,54.0,0.5355224609375,0.6785736083984375,Closing,0.0,0.0,0.0,0.0,0.0,0.0,0.0,0.0,
4.321687,0.0,0.0,421.0,0.625,-532.5,-555.5905491113663,0.0,0.125,0.787353435,0.01,0.0,2101.0,2.625,532.5,555.5905491113663,0.0,0.0,0.47363276400000004,0.01,0.0,-1209.0,2.125,-547.5,-555.5905491113663,0.0,0.0,3.3666988740000003,0.01,0.0,-308.0,2.0,480.0,555.5905491113663,0.0,0.125,1.597900227,0.01,0.0,0.3100000023841858,-1.2200000286102295,0.20000000298023224,-0.0303955078125,-0.0135498046875,1.12139892578125,30.540000915527344,0.0,-6.0,0.5321502685546875,0.679473876953125,Closing,0.0,0.0,0.0,0.0,0.0,0.0,0.0,0.0,
4.386825000000001,0.0,0.0,330.0,0.375,-562.5,-555.5905491113663,0.0,0.125,0.783691326,0.01,0.0,2192.0,2.125,562.5,555.5905491113663,0.0,0.0,0.46752924900000004,0.01,0.0,-1301.0,1.5,-562.5,-555.5905491113663,0.0,0.0,3.3666988740000003,0.01,0.0,-223.0,1.625,510.0,555.5905491113663,0.0,0.125,1.595458821,0.01,0.0,0.28999999165534973,-1.2200000286102295,0.17000000178813934,-0.0660400390625,-0.00933837890625,1.20721435546875,30.540000915527344,0.0,-40.0,0.532318115234375,0.68017578125,Closing,0.0,0.0,0.0,0.0,0.0,0.0,0.0,0.0,
4.458477000000001,0.0,0.0,330.0,0.375,-562.5,-555.5905491113663,0.0,0.125,0.780029217,0.01,0.0,2192.0,1.875,577.5,555.5905491113663,0.0,0.0,0.47363276400000004,0.01,0.0,-1301.0,1.75,-585.0,-555.5905491113663,0.0,0.0,3.3666988740000003,0.01,0.0,-223.0,1.875,532.5,555.5905491113663,0.0,0.125,1.59912093,0.01,0.0,0.30000001192092896,-1.1699999570846558,0.14000000059604645,0.0205078125,0.01318359375,1.02020263671875,30.540000915527344,0.0,41.0,0.5322113037109375,0.6806793212890625,Closing,0.0,0.0,0.0,0.0,0.0,0.0,0.0,0.0,
4.521021999999999,0.0,0.0,239.0,0.375,-562.5,-555.5905491113663,0.0,0.125,0.78124992,0.01,0.0,2288.0,1.625,592.5,555.5905491113663,0.0,0.0,0.477294873,0.01,0.0,-1397.0,1.25,-600.0,-555.5905491113663,0.0,0.0,3.3666988740000003,0.01,0.0,-136.0,1.5,540.0,555.5905491113663,0.0,0.125,1.596679524,0.01,0.0,0.3100000023841858,-1.149999976158142,0.07999999821186066,-0.042724609375,0.0181884765625,0.9129638671875,30.540000915527344,0.0,-24.0,0.5326690673828125,0.6806793212890625,Closing,0.0,0.0,0.0,0.0,0.0,0.0,0.0,0.0,
4.587983,0.0,0.0,239.0,0.125,-570.0,-555.5905491113663,0.0,0.125,0.754394454,0.01,0.0,2288.0,1.5,600.0,555.5905491113663,0.0,0.0,0.477294873,0.01,0.0,-1397.0,0.875,-600.0,-555.5905491113663,0.0,0.0,3.3666988740000003,0.01,0.0,-136.0,1.25,592.5,555.5905491113663,0.0,0.125,1.6027830390000002,0.01,0.0,0.2800000011920929,-1.059999942779541,0.05999999865889549,0.0858154296875,0.01812744140625,0.88299560546875,30.540000915527344,0.0,102.0,0.53375244140625,0.680419921875,Closing,0.0,0.0,0.0,0.0,0.0,0.0,0.0,0.0,
4.653338,0.0,0.0,147.0,0.125,-570.0,-555.5905491113663,0.0,0.125,0.78124992,0.01,0.0,2386.0,1.375,600.0,555.5905491113663,0.0,0.0,0.477294873,0.01,0.0,-1493.0,1.0,-592.5,-555.5905491113663,0.0,0.0,3.3666988740000003,0.01,0.0,-41.0,1.25,592.5,555.5905491113663,0.0,0.125,1.600341633,0.01,0.0,0.3100000023841858,-1.0199999809265137,-0.029999999329447746,0.02264404296875,-0.1524658203125,0.974609375,30.540000915527344,0.0,40.0,0.5359649658203125,0.6801910400390625,Closing,0.0,0.0,0.0,0.0,0.0,0.0,0.0,0.0,
4.712486000000001,0.0,0.0,147.0,0.125,-570.0,-555.5905491113663,0.0,0.125,0.75683586,4.931839979092523,0.0,2386.0,1.25,592.5,555.5905491113663,0.0,0.0,0.477294873,4.963356352509249,0.0,-1493.0,1.0,-585.0,-555.5905491113663,0.0,0.125,3.3654781710000004,4.939988300009205,0.0,-41.0,1.125,570.0,555.5905491113663,0.0,0.125,1.597900227,4.957586833342571,0.0,0.2800000011920929,-0.9599999785423279,-0.07999999821186066,0.0379638671875,-0.01226806640625,1.02587890625,30.540000915527344,0.0,55.0,0.5384521484375,0.6792144775390625,Closing,0.0,0.0,0.0,0.0,0.0,0.0,0.0,0.0,
4.785927,0.0,0.0,55.0,0.125,-570.0,-555.5905491113663,0.0,0.125,0.7788085140000001,4.9308809302573655,0.0,2480.0,1.25,585.0,555.5905491113663,0.0,0.0,0.477294873,4.962391174979457,0.0,-1587.0,0.875,-585.0,-555.5905491113663,0.0,0.125,3.3666988740000003,4.93902766664622,0.0,49.0,1.125,585.0,555.5905491113663,0.0,0.125,1.597900227,4.956622777757259,0.0,0.2800000011920929,-0.9200000166893005,-0.12999999523162842,-0.03887939453125,0.01318359375,1.11920166015625,30.5,0.0,-20.0,0.542236328125,0.6792449951171875,Closing,0.0,0.0,0.0,0.0,0.0,0.0,0.0,0.0,
4.843635,0.0,0.0,55.0,0.125,-562.5,-555.5905491113663,0.0,0.125,0.772704999,4.930469909426444,0.0,2480.0,1.25,585.0,555.5905491113663,0.0,0.0,0.47851557600000005,4.96197752756575,0.0,-1587.0,1.0,-577.5,-555.5905491113663,0.0,0.125,3.3666988740000003,4.938615966732107,0.0,49.0,1.25,577.5,555.5905491113663,0.0,0.125,1.6088865540000001,4.956209611176784,0.0,0.2800000011920929,-0.8700000047683716,-0.18000000715255737,0.0316162109375,0.03790283203125,1.17919921875,30.5,0.0,49.0,0.5454254150390625,0.6793975830078125,Closing,0.0,0.0,0.0,0.0,0.0,0.0,0.0,0.0,
4.920544,0.0,0.0,-35.0,0.125,-555.0,-555.5905491113663,0.0,0.125,0.772704999,4.929784874402007,0.0,2573.0,1.375,570.0,555.5905491113663,0.0,0.0,0.477294873,4.961288114901381,0.0,-1680.0,1.0,-570.0,-555.5905491113663,0.0,0.125,3.3666988740000003,4.937929799901846,0.0,140.0,1.125,570.0,555.5905491113663,0.0,0.125,1.6027830390000002,4.955520999901496,0.0,0.27000001072883606,-0.800000011920929,-0.1899999976158142,-0.060302734375,-0.04205322265625,1.1484375,30.5,0.0,-44.0,0.5499267578125,0.680023193359375,Closing,0.0,0.0,0.0,0.0,0.0,0.0,0.0,0.0,
4.985581,0.0,0.0,-124.0,0.125,-555.0,-555.5905491113663,0.0,0.125,0.773925702,4.929647867560445,0.0,2663.0,1.375,562.5,555.5905491113663,0.0,0.0,0.47851557600000005,4.9611502325328765,0.0,-1769.0,1.0,-555.0,-555.5905491113663,0.0,0.125,3.3691402800000003,4.937792566699388,0.0,230.0,1.25,547.5,555.5905491113663,0.0,0.125,1.6015623360000002,4.955383277810616,0.0,0.25999999046325684,-0.7900000214576721,-0.20999999344348907,0.013427734375,-0.07061767578125,1.141845703125,30.5,0.0,29.0,0.5537567138671875,0.67987060546875,Closing,0.0,0.0,0.0,0.0,0.0,0.0,0.0,0.0,
5.045975,0.0,0.0,-124.0,0.375,-555.0,-555.5905491113663,0.0,0.125,0.772704999,4.929373853673165,0.0,2663.0,1.375,562.5,555.5905491113663,0.0,0.0,0.47851557600000005,4.960874467590405,0.0,-1769.0,1.25,-532.5,-555.5905491113663,0.0,0.125,3.3666988740000003,4.93751810008998,0.0,230.0,1.5,547.5,555.5905491113663,0.0,0.125,1.6052244450000002,4.955107833423633,0.0,0.23000000417232513,-0.8199999928474426,-0.3100000023841858,-0.0322265625,0.01348876953125,0.9765625,30.5,0.0,-18.0,0.5593414306640625,0.6790313720703125,Closing,0.0,0.0,0.0,0.0,0.0,0.0,0.0,0.0,
5.120093000000001,0.0,0.0,-211.0,0.375,-540.0,-575.433059334755,0.0,0.125,0.773925702,4.928003783828449,0.0,2754.0,1.375,555.0,575.433059334755,0.0,0.0,0.482177685,4.959495642467129,0.0,-1855.0,1.5,-532.5,-575.433059334755,0.0,0.125,3.3666988740000003,4.93614576663395,0.0,323.0,1.125,555.0,575.433059334755,0.0,0.125,1.59912093,4.953730611078278,0.0,0.23000000417232513,-0.800000011920929,-0.36000001430511475,0.02496337890625,-0.00213623046875,0.938232421875,30.5,0.0,38.0,0.564056396484375,0.6785888671875,Closing,0.0,0.0,0.0,0.0,0.0,0.0,0.0,0.0,
5.186463,0.0,0.0,-211.0,0.625,-540.0,-575.433059334755,0.0,0.125,0.773925702,4.927318748804013,0.0,2754.0,1.5,562.5,575.433059334755,0.0,0.0,0.47851557600000005,4.958806229802761,0.0,-1855.0,1.5,-540.0,-575.433059334755,0.0,0.125,3.3666988740000003,4.935459599803689,0.0,323.0,1.5,570.0,575.433059334755,0.0,0.125,1.6015623360000002,4.9530419998029895,0.0,0.25999999046325684,-0.7799999713897705,-0.4000000059604645,-0.04656982421875,0.015625,0.95953369140625,30.5,0.0,-33.0,0.56890869140625,0.6782379150390625,Closing,0.0,0.0,0.0,0.0,0.0,0.0,0.0,0.0,
5.256741,0.0,0.0,-299.0,0.625,-547.5,-575.433059334755,0.0,0.125,0.772704999,4.92663371418789,0.0,2844.0,1.375,562.5,575.433059334755,0.0,0.0,0.47851557600000005,4.958116817549314,0.0,-1944.0,1.75,-562.5,-575.433059334755,0.0,0.125,3.3666988740000003,4.934773433382415,0.0,413.0,1.25,555.0,575.433059334755,0.0,0.125,1.6040037420000002,4.952353388938145,0.0,0.25999999046325684,-0.7300000190734863,-0.4399999976158142,-0.0455322265625,-0.049072265625,0.98492431640625,30.5,0.0,-32.0,0.57464599609375,0.67828369140625,Closing,0.0,0.0,0.0,0.0,0.0,0.0,0.0,0.0,
5.309826999999999,0.0,0.0,-299.0,0.625,-547.5,-575.433059334755,0.0,0.125,0.786132732,4.92622269325489,0.0,2844.0,1.375,577.5,575.433059334755,0.0,0.0,0.469970655,4.957703170032876,0.0,-1944.0,1.25,-562.5,-575.433059334755,0.0,0.125,3.3666988740000003,4.934361733366055,0.0,413.0,1.5,577.5,575.433059334755,0.0,0.125,1.6040037420000002,4.95194022225506,0.0,0.23999999463558197,-0.7799999713897705,-0.46000000834465027,0.08331298828125,0.080078125,1.0413818359375,30.530000686645508,0.0,96.0,0.5758209228515625,0.67852783203125,Closing,0.0,0.0,0.0,0.0,0.0,0.0,0.0,0.0,
5.387057999999999,0.0,0.0,-389.0,0.625,-555.0,-575.433059334755,0.0,0.125,0.773925702,4.925948679163453,0.0,2937.0,1.375,577.5,575.433059334755,0.0,0.0,0.468749952,4.957427404884944,0.0,-2033.0,1.5,-562.5,-575.433059334755,0.0,0.125,3.3654781710000004,4.934087266552153,0.0,506.0,1.5,562.5,575.433059334755,0.0,0.125,1.600341633,4.951664777662856,0.0,0.25999999046325684,-0.7599999904632568,-0.5199999809265137,0.02099609375,-0.03179931640625,1.18603515625,30.530000686645508,0.0,37.0,0.576416015625,0.678924560546875,Closing,0.0,0.0,0.0,0.0,0.0,0.0,0.0,0.0,
5.459111999999999,0.0,0.0,-389.0,0.375,-570.0,-575.433059334755,0.0,0.125,0.770263593,4.925126637705767,0.0,3031.0,1.375,570.0,575.433059334755,0.0,0.0,0.477294873,4.956600110262992,0.0,-2126.0,1.5,-570.0,-575.433059334755,0.0,0.125,3.3666988740000003,4.933263866928421,0.0,595.0,1.25,547.5,575.433059334755,0.0,0.125,1.596679524,4.950838444707131,0.0,0.23000000417232513,-0.6600000262260437,-0.5,-0.01641845703125,-0.04449462890625,0.9052734375,30.530000686645508,0.0,-5.0,0.5772857666015625,0.6787872314453125,Closing,0.0,0.0,0.0,0.0,0.0,0.0,0.0,0.0,
5.521615,0.0,0.0,-481.0,0.375,-577.5,-575.433059334755,0.0,0.125,0.773925702,4.925400651388891,0.0,3031.0,1.25,577.5,575.433059334755,0.0,0.0,0.47851557600000005,4.956875875000002,0.0,-2126.0,1.25,-585.0,-575.433059334755,0.0,0.125,3.3654781710000004,4.933538333333336,0.0,595.0,1.5,562.5,575.433059334755,0.0,0.125,1.59912093,4.951113888888891,0.0,0.2199999988079071,-0.6600000262260437,-0.46000000834465027,0.02581787109375,0.055908203125,0.98046875,30.530000686645508,0.0,36.0,0.5778656005859375,0.6786041259765625,Closing,0.0,0.0,0.0,0.0,0.0,0.0,0.0,0.0,
5.579844,0.0,0.0,-574.0,0.375,-577.5,-575.433059334755,0.0,0.125,0.7775878110000001,4.925948679163453,0.0,3125.0,1.125,585.0,575.433059334755,0.0,0.0,0.47851557600000005,4.957427404884944,0.0,-2220.0,1.25,-585.0,-575.433059334755,0.0,0.125,3.3666988740000003,4.934087266552153,0.0,684.0,1.25,570.0,575.433059334755,0.0,0.125,1.596679524,4.951664777662856,0.0,0.27000001072883606,-0.6800000071525574,-0.46000000834465027,0.03424072265625,0.001220703125,1.22235107421875,30.530000686645508,0.0,48.0,0.5790252685546875,0.67877197265625,Closing,0.0,0.0,0.0,0.0,0.0,0.0,0.0,0.0,
5.647789,0.0,0.0,-574.0,0.375,-577.5,-575.433059334755,0.0,0.125,0.782470623,4.925948679163453,0.0,3125.0,1.125,592.5,575.433059334755,0.0,0.0,0.477294873,4.957427404884944,0.0,-2220.0,1.25,-577.5,-575.433059334755,0.0,0.125,3.3666988740000003,4.934087266552153,0.0,684.0,1.125,577.5,575.433059334755,0.0,0.125,1.595458821,4.951664777662856,0.0,0.23000000417232513,-0.6399999856948853,-0.4000000059604645,-0.0135498046875,0.02532958984375,1.03826904296875,30.530000686645508,0.0,-1.0,0.580413818359375,0.6788482666015625,Closing,0.0,0.0,0.0,0.0,0.0,0.0,0.0,0.0,
5.722968999999999,0.0,0.0,-668.0,0.375,-585.0,-575.433059334755,0.0,0.125,0.783691326,4.926770721029452,0.0,3218.0,1.125,577.5,575.433059334755,0.0,0.0,0.47851557600000005,4.958254699917819,0.0,-2313.0,1.0,-577.5,-575.433059334755,0.0,0.125,3.3703609830000003,4.934910666584873,0.0,771.0,1.625,547.5,575.433059334755,0.0,0.125,1.6027830390000002,4.952491111029025,0.0,0.23000000417232513,-0.5699999928474426,-0.2800000011920929,-0.05316162109375,0.0203857421875,0.90460205078125,30.530000686645508,0.0,-44.0,0.580322265625,0.679168701171875,Closing,0.0,0.0,0.0,0.0,0.0,0.0,0.0,0.0,
5.786062,0.0,0.0,-668.0,0.375,-585.0,-575.433059334755,0.0,0.125,0.782470623,4.928825825694448,0.0,3218.0,1.25,570.0,575.433059334755,0.0,0.0,0.47851557600000005,4.9603229375000035,0.0,-2313.0,1.25,-585.0,-575.433059334755,0.0,0.125,3.3666988740000003,4.93696916666667,0.0,771.0,1.5,547.5,575.433059334755,0.0,0.125,1.596679524,4.954556944444447,0.0,0.23000000417232513,-0.550000011920929,-0.20999999344348907,0.05133056640625,0.07073974609375,0.7625732421875,30.520000457763672,0.0,58.0,0.5802764892578125,0.6798553466796875,Closing,0.0,0.0,0.0,0.0,0.0,0.0,0.0,0.0,
5.8426540000000005,0.0,0.0,-761.0,0.375,-577.5,-575.4330593347548,0.0,0.125,0.782470623,4.9295108605147275,0.0,3309.0,1.25,570.0,575.4330593347548,0.0,0.0,0.477294873,4.961012349958911,0.0,-2407.0,1.0,-577.5,-575.4330593347548,0.0,0.125,3.3666988740000003,4.9376553332924376,0.0,862.0,1.625,555.0,575.4330593347548,0.0,0.125,1.596679524,4.955245555514514,0.0,0.27000001072883606,-0.5199999809265137,-0.1599999964237213,0.00408935546875,0.00732421875,0.999267578125,30.520000457763672,0.0,13.0,0.5806732177734375,0.6808013916015625,Closing,0.0,0.0,0.0,0.0,0.0,0.0,0.0,0.0,
5.913481,0.0,0.0,-761.0,0.375,-577.5,-575.433059334755,0.0,0.125,0.7641600780000001,4.930195895335007,0.0,3309.0,1.25,570.0,575.433059334755,0.0,0.0,0.483398388,4.961701762417819,0.0,-2407.0,1.25,-577.5,-575.433059334755,0.0,0.125,3.3666988740000003,4.938341499918206,0.0,862.0,1.875,547.5,575.433059334755,0.0,0.125,1.595458821,4.955934166584581,0.0,0.28999999165534973,-0.5199999809265137,-0.07999999821186066,-0.00115966796875,0.066650390625,1.01531982421875,30.520000457763672,0.0,7.0,0.5815277099609375,0.681793212890625,Closing,0.0,0.0,0.0,0.0,0.0,0.0,0.0,0.0,
5.985992,0.0,0.0,-854.0,0.375,-577.5,-575.433059334755,0.0,0.125,0.783691326,4.931428958185044,0.0,3401.0,1.25,577.5,575.433059334755,0.0,0.0,0.477294873,4.962942705018494,0.0,-2500.0,1.0,-577.5,-575.433059334755,0.0,0.125,3.3752437950000003,4.939576600018407,0.0,952.0,1.5,555.0,575.433059334755,0.0,0.125,1.595458821,4.957173666685139,0.0,0.33000001311302185,-0.4699999988079071,0.0,-0.02288818359375,-0.00640869140625,0.8494873046875,30.520000457763672,0.0,-15.0,0.582489013671875,0.6820831298828125,Closing,0.0,0.0,0.0,0.0,0.0,0.0,0.0,0.0,
6.05315,0.0,0.0,-854.0,0.375,-570.0,-575.433059334755,0.0,0.125,0.784912029,4.932250999999998,0.0,3492.0,1.25,570.0,575.433059334755,0.0,0.0,0.47363276400000004,4.963769999999998,0.0,-2590.0,1.25,-570.0,-575.433059334755,0.0,0.125,3.3666988740000003,0.01,0.0,1041.0,1.875,547.5,575.433059334755,0.0,0.125,1.595458821,0.01,0.0,0.4000000059604645,-0.44999998807907104,0.03999999910593033,-0.0467529296875,-0.05010986328125,1.06219482421875,30.520000457763672,0.0,-38.0,0.58282470703125,0.6829986572265625,Closing,0.0,0.0,0.0,0.0,0.0,0.0,0.0,0.0,
6.120756999999999,0.0,0.0,-946.0,0.375,-570.0,-575.433059334755,0.0,0.125,0.7788085140000001,0.01,0.0,3492.0,1.375,562.5,575.433059334755,0.0,0.0,0.477294873,0.01,0.0,-2590.0,1.5,-562.5,-575.433059334755,0.0,0.0,3.3666988740000003,0.01,0.0,1041.0,1.875,540.0,575.433059334755,0.0,0.125,1.600341633,0.01,0.0,0.4099999964237213,-0.4099999964237213,0.07000000029802322,-0.00262451171875,-0.04241943359375,0.955810546875,30.520000457763672,0.0,4.0,0.58349609375,0.68389892578125,Closing,0.0,0.0,0.0,0.0,0.0,0.0,0.0,0.0,
6.1883799999999995,0.0,0.0,-1036.0,0.375,-562.5,-575.433059334755,0.0,0.125,0.782470623,0.01,0.0,3584.0,1.375,570.0,575.433059334755,0.0,0.0,0.47851557600000005,0.01,0.0,-2681.0,1.5,-562.5,-575.433059334755,0.0,0.0,3.3666988740000003,0.01,0.0,1131.0,1.875,547.5,575.433059334755,0.0,0.125,1.600341633,0.01,0.0,0.36000001430511475,-0.4000000059604645,0.07000000029802322,-1.8310546875E-4,-0.0062255859375,1.0035400390625,30.520000457763672,0.0,6.0,0.5843353271484375,0.684783935546875,Closing,0.0,0.0,0.0,0.0,0.0,0.0,0.0,0.0,
6.255812,0.0,0.0,-1036.0,0.375,-555.0,-575.433059334755,0.0,0.125,0.784912029,0.01,0.0,3584.0,1.25,577.5,575.433059334755,0.0,0.0,0.477294873,0.01,0.0,-2681.0,1.25,-562.5,-575.433059334755,0.0,0.0,3.3666988740000003,0.01,0.0,1131.0,2.0,570.0,575.433059334755,0.0,0.125,1.6015623360000002,0.01,0.0,0.33000001311302185,-0.44999998807907104,0.10000000149011612,0.05218505859375,0.034912109375,1.252197265625,30.520000457763672,0.0,62.0,0.5842437744140625,0.6847991943359375,Closing,0.0,0.0,0.0,0.0,0.0,0.0,0.0,0.0,
6.321833000000001,0.0,0.0,-1127.0,0.375,-562.5,-575.433059334755,0.0,0.125,0.783691326,0.01,0.0,3677.0,1.125,577.5,575.433059334755,0.0,0.0,0.47851557600000005,0.01,0.0,-2773.0,1.75,-570.0,-575.433059334755,0.0,0.0,3.3666988740000003,0.01,0.0,1224.0,1.5,577.5,575.433059334755,0.0,0.125,1.6015623360000002,0.01,0.0,0.33000001311302185,-0.46000000834465027,0.14000000059604645,-0.015380859375,-0.00848388671875,1.07025146484375,30.540000915527344,0.0,-6.0,0.584228515625,0.6847076416015625,Closing,0.0,0.0,0.0,0.0,0.0,0.0,0.0,0.0,
6.385691999999999,0.0,0.0,-1127.0,0.375,-570.0,-575.433059334755,0.0,0.125,0.784912029,0.01,0.0,3677.0,1.125,585.0,575.433059334755,0.0,0.0,0.47851557600000005,0.01,0.0,-2773.0,1.25,-577.5,-575.433059334755,0.0,0.0,3.3666988740000003,0.01,0.0,1224.0,1.625,577.5,575.433059334755,0.0,0.125,1.596679524,0.01,0.0,0.33000001311302185,-0.4699999988079071,0.17000000178813934,-0.01654052734375,0.01312255859375,1.05078125,30.540000915527344,0.0,-7.0,0.584381103515625,0.68463134765625,Closing,0.0,0.0,0.0,0.0,0.0,0.0,0.0,0.0,
6.454048000000001,0.0,0.0,-1218.0,0.375,-562.5,-575.433059334755,0.0,0.125,0.782470623,0.01,0.0,3771.0,1.0,585.0,575.433059334755,0.0,0.0,0.477294873,0.01,0.0,-2865.0,1.25,-577.5,-575.433059334755,0.0,0.0,3.3703609830000003,0.01,0.0,1318.0,1.875,577.5,575.433059334755,0.0,0.125,1.59912093,0.01,0.0,0.3700000047683716,-0.38999998569488525,0.11999999731779099,0.021728515625,0.0386962890625,0.9248046875,30.540000915527344,0.0,28.0,0.5849761962890625,0.6850738525390625,Closing,0.0,0.0,0.0,0.0,0.0,0.0,0.0,0.0,
6.5218359999999995,0.0,0.0,-1218.0,0.375,-562.5,-575.433059334755,0.0,0.125,0.773925702,0.01,0.0,3771.0,1.0,577.5,575.433059334755,0.0,0.0,0.483398388,0.01,0.0,-2865.0,1.5,-570.0,-575.433059334755,0.0,0.0,3.3666988740000003,0.01,0.0,1318.0,1.5,562.5,575.433059334755,0.0,0.125,1.600341633,0.01,0.0,0.3799999952316284,-0.41999998688697815,0.07000000029802322,0.06280517578125,0.0174560546875,1.14117431640625,30.540000915527344,0.0,71.0,0.58563232421875,0.6851043701171875,Closing,0.0,0.0,0.0,0.0,0.0,0.0,0.0,0.0,
6.585741,0.0,0.0,-1309.0,0.625,-562.5,-575.433059334755,0.0,0.125,0.783691326,0.01,0.0,3864.0,1.0,577.5,575.433059334755,0.0,0.0,0.483398388,0.01,0.0,-2957.0,1.5,-570.0,-575.433059334755,0.0,0.0,3.3666988740000003,0.01,0.0,1408.0,1.625,585.0,575.433059334755,0.0,0.125,1.59912093,0.01,0.0,0.3499999940395355,-0.4399999976158142,0.03999999910593033,0.0074462890625,0.06524658203125,1.260009765625,30.540000915527344,0.0,17.0,0.58636474609375,0.6843414306640625,Closing,0.0,0.0,0.0,0.0,0.0,0.0,0.0,0.0,
6.723826999999999,0.0,0.0,-1397.0,0.625,-547.5,-575.433059334755,0.0,0.125,0.780029217,0.01,0.0,3959.0,0.875,585.0,575.433059334755,0.0,0.0,0.47851557600000005,0.01,0.0,-3049.0,1.5,-570.0,-575.433059334755,0.0,0.0,3.3666988740000003,0.01,0.0,1501.0,1.25,577.5,575.433059334755,0.0,0.125,1.600341633,0.01,0.0,0.3100000023841858,-0.36000001430511475,-0.019999999552965164,0.0103759765625,-0.0174560546875,1.0875244140625,30.540000915527344,0.0,17.0,0.58892822265625,0.682861328125,Closing,0.0,0.0,0.0,0.0,0.0,0.0,0.0,0.0,
6.786486999999999,0.0,0.0,-1485.0,0.625,-555.0,-575.4330593347548,0.0,0.125,0.783691326,4.931976986061683,0.0,4051.0,0.875,577.5,575.4330593347548,0.0,0.0,0.47851557600000005,4.963494235006166,0.0,-3142.0,1.25,-570.0,-575.4330593347548,0.0,0.125,3.3666988740000003,4.9401255333394705,0.0,1593.0,1.625,577.5,575.4330593347548,0.0,0.125,1.6088865540000001,4.957724555561715,0.0,0.3499999940395355,-0.3799999952316284,-0.07999999821186066,-0.01971435546875,-0.03399658203125,1.151123046875,30.540000915527344,0.0,-11.0,0.5891876220703125,0.682769775390625,Closing,0.0,0.0,0.0,0.0,0.0,0.0,0.0,0.0,
6.856528,0.0,0.0,-1485.0,0.625,-555.0,-575.433059334755,0.0,0.125,0.784912029,4.931154944246724,0.0,4051.0,0.875,577.5,575.433059334755,0.0,0.0,0.47851557600000005,4.962666940024658,0.0,-3142.0,1.25,-585.0,-575.433059334755,0.0,0.125,3.3666988740000003,4.9393021333578755,0.0,1593.0,2.0,555.0,575.433059334755,0.0,0.125,1.6040037420000002,4.956898222246851,0.0,0.28999999165534973,-0.3100000023841858,-0.12999999523162842,0.0091552734375,0.00384521484375,0.77789306640625,30.540000915527344,0.0,13.0,0.5893707275390625,0.682373046875,Closing,0.0,0.0,0.0,0.0,0.0,0.0,0.0,0.0,
6.923652,0.0,0.0,-1575.0,0.625,-562.5,-575.433059334755,0.0,0.125,0.782470623,4.930469909426444,0.0,4145.0,0.875,577.5,575.433059334755,0.0,0.0,0.477294873,4.96197752756575,0.0,-3236.0,1.25,-592.5,-575.433059334755,0.0,0.125,3.3654781710000004,4.938615966732107,0.0,1680.0,1.625,525.0,575.433059334755,0.0,0.125,1.6027830390000002,4.956209611176784,0.0,0.28999999165534973,-0.30000001192092896,-0.12999999523162842,0.02850341796875,-0.045166015625,0.93853759765625,30.540000915527344,0.0,33.0,0.5896453857421875,0.6821441650390625,Closing,0.0,0.0,0.0,0.0,0.0,0.0,0.0,0.0,
6.985727999999999,0.0,0.0,-1575.0,0.625,-562.5,-575.433059334755,0.0,0.125,0.7788085140000001,4.930469909426444,0.0,4145.0,0.875,577.5,575.433059334755,0.0,0.0,0.477294873,4.96197752756575,0.0,-3236.0,1.0,-577.5,-575.433059334755,0.0,0.125,3.3605953590000004,4.938615966732107,0.0,1680.0,1.875,585.0,575.433059334755,0.0,0.125,1.6015623360000002,4.956209611176784,0.0,0.28999999165534973,-0.3100000023841858,-0.1899999976158142,-0.03875732421875,0.03863525390625,1.0245361328125,30.540000915527344,0.0,-33.0,0.5898284912109375,0.6815185546875,Closing,0.0,0.0,0.0,0.0,0.0,0.0,0.0,0.0,
7.054136000000001,0.0,0.0,-1664.0,0.125,-555.0,-138.89763727784157,0.0,0.125,0.783691326,4.9295108605147275,0.0,4237.0,0.25,540.0,138.89763727784157,0.0,0.0,0.477294873,4.961012349958911,0.0,-3328.0,0.375,-555.0,-138.89763727784157,0.0,0.125,3.3605953590000004,4.9376553332924376,0.0,1778.0,0.5,577.5,138.89763727784157,0.0,0.125,1.6064451480000002,4.955245555514514,0.0,0.30000001192092896,-0.25999999046325684,-0.27000001072883606,-0.03863525390625,-0.06414794921875,0.88494873046875,30.540000915527344,0.0,-34.0,0.5907745361328125,0.6810760498046875,Closing,0.0,0.0,0.0,0.0,0.0,0.0,0.0,0.0,
7.122321,0.0,0.0,-1664.0,0.0,-367.5,0.0,0.0,0.125,0.783691326,4.9295108605147275,0.0,4237.0,0.0,330.0,0.0,0.0,0.0,0.482177685,4.961012349958911,0.0,-3328.0,0.0,-412.5,0.0,0.0,0.0,3.347167626,4.9376553332924376,-0.004882811999999959,1778.0,0.0,472.5,0.0,0.0,0.125,1.6076658510000001,4.955245555514514,0.0,0.3199999928474426,0.07999999821186066,-0.25,0.26025390625,0.0908203125,1.21783447265625,30.540000915527344,0.0,257.0,0.5946502685546875,0.679656982421875,Closing,0.0,0.0,0.0,0.0,0.0,0.0,0.0,0.0,
7.188088,0.0,0.0,-1714.0,0.0,-300.0,0.0,0.0,0.125,0.783691326,4.9295108605147275,0.0,4290.0,0.0,360.0,0.0,0.0,0.0,0.482177685,4.961012349958911,0.004882811999999959,-3374.0,0.0,-262.5,0.0,0.0,0.0,3.347167626,4.9376553332924376,4.9257515640000005,1844.0,0.0,420.0,0.0,0.0,0.125,1.612548663,4.955245555514514,0.0012207029999995456,0.30000001192092896,0.3799999952316284,-0.49000000953674316,0.05023193359375,-0.013427734375,1.2545166015625,30.540000915527344,0.0,-17.0,0.6010284423828125,0.679351806640625,Closing,0.0,0.0,0.0,0.0,0.0,0.0,0.0,0.0,
7.246688,0.0,0.0,-1714.0,0.0,-315.0,0.0,0.0,0.125,0.782470623,4.9295108605147275,0.0,4332.0,0.0,337.5,0.0,0.0,0.0,0.483398388,4.961012349958911,0.0,-3424.0,0.0,-300.0,0.0,0.0,0.0,3.347167626,4.9376553332924376,0.0,1891.0,0.0,300.0,0.0,0.0,0.125,1.617431475,4.955245555514514,0.006103515000000392,0.17000000178813934,0.8199999928474426,-0.41999998688697815,0.1341552734375,0.001953125,0.75616455078125,30.540000915527344,0.0,123.0,0.611907958984375,0.6787261962890625,Closing,0.0,0.0,0.0,0.0,0.0,0.0,0.0,0.0,
7.322065,0.0,0.0,-1755.0,0.0,-202.5,0.0,0.0,0.125,0.782470623,4.9295108605147275,0.0,4332.0,0.0,210.0,0.0,0.0,0.0,0.482177685,4.961012349958911,0.0,-3424.0,0.0,-247.5,0.0,0.0,0.0,3.347167626,4.9376553332924376,0.0,1891.0,0.0,217.5,0.0,0.0,0.0,1.62353499,4.955245555514514,0.003662108999999525,0.1899999976158142,0.9900000095367432,-0.4699999988079071,0.116943359375,0.0093994140625,0.8529052734375,30.5,0.0,102.0,0.62286376953125,0.678680419921875,Closing,0.0,0.0,0.0,0.0,0.0,0.0,0.0,0.0,
7.379875,0.0,0.0,-1771.0,0.0,-142.5,0.0,0.0,0.125,0.782470623,4.9295108605147275,0.0,4353.0,0.0,157.5,0.0,0.0,0.0,0.483398388,4.961012349958911,0.0,-3440.0,0.0,-112.5,0.0,0.0,0.0,3.342284814,4.9376553332924376,0.0,1912.0,0.0,142.5,0.0,0.0,0.0,1.62353499,4.955245555514514,0.006103515000000392,0.17000000178813934,1.159999966621399,-0.6000000238418579,0.11895751953125,-0.0233154296875,0.98834228515625,30.5,0.0,99.0,0.6356048583984375,0.678680419921875,Closing,0.0,0.0,0.0,0.0,0.0,0.0,0.0,0.0,
7.453358000000001,0.0,0.0,-1771.0,0.0,-37.5,0.0,0.0,0.125,0.782470623,4.9295108605147275,0.0,4353.0,0.0,60.0,0.0,0.0,0.0,0.482177685,4.961012349958911,0.0,-3440.0,0.0,-45.0,0.0,0.0,0.0,3.342284814,4.9376553332924376,-0.004882811999999959,1912.0,0.0,67.5,0.0,0.0,0.0,1.622314287,4.955245555514514,0.0,0.14000000059604645,1.340000033378601,-0.5600000023841858,0.049560546875,-1.8310546875E-4,0.94219970703125,30.5,0.0,27.0,0.6536865234375,0.678314208984375,Closing,0.0,0.0,0.0,0.0,0.0,0.0,0.0,0.0,
7.524022999999999,0.0,0.0,-1773.0,0.0,0.0,277.7952745556832,0.0,0.125,0.76904289,3.691515859522889,0.0,4352.0,0.125,0.0,-277.7952745556832,0.0,0.0,0.482177685,3.715106079967125,0.0,-3442.0,0.125,-7.5,277.7952745556832,0.0,2.25,3.254394198,3.697614933300613,0.0,1914.0,0.125,7.5,277.7952745556832,0.0,6.0,1.690673655,1.2317875555227185,0.0,0.17000000178813934,1.3300000429153442,-0.5299999713897705,0.02081298828125,0.00579833984375,0.91131591796875,30.5,0.0,0.0,0.6683807373046875,0.6781158447265625,Closing,0.0,0.0,0.0,0.0,0.0,0.0,0.0,0.0,
7.586450000000001,0.0,0.0,-1773.0,2.25,37.5,972.2834515571593,0.0,6.25,0.33691402800000003,3.6919268808642007,0.0,4352.0,4.0,-52.5,-972.2834515571593,0.0,9.25,0.15502928100000002,3.7155197278944834,0.0,-3442.0,2.625,37.5,972.2834515571593,0.0,1.5,2.729491908,3.6980266337259597,0.0,1914.0,2.75,30.0,972.2834515571593,0.0,1.875,2.2692868770000003,1.232200722616247,0.0,0.14000000059604645,1.5499999523162842,-0.49000000953674316,0.11553955078125,-0.0186767578125,1.0386962890625,30.5,0.0,87.0,0.6868133544921875,0.677825927734375,Closing,0.0,0.0,0.0,0.0,0.0,0.0,0.0,0.0,
7.6438999999999995,0.0,0.0,-1747.0,4.25,180.0,1051.6535675525663,0.0,0.875,4.853515128000001,3.6924749082304498,-0.5639647859999997,4332.0,11.625,-127.5,-1051.6535675525663,0.0,1.75,4.731444828,3.7160712573685033,-0.4479980010000002,-3419.0,6.25,150.0,1051.6535675525663,0.0,0.875,2.364501711,3.6985755665357893,0.0,1923.0,6.25,67.5,1051.6535675525663,0.0,1.5,2.5781247360000004,1.2327516109797674,0.0,-0.05000000074505806,1.5399999618530273,-0.5699999928474426,-0.068359375,-0.12939453125,1.007568359375,30.5,0.0,-94.0,0.6996917724609375,0.676361083984375,Closing,0.0,0.0,0.0,0.0,0.0,0.0,0.0,0.0,
7.724094999999999,0.0,0.0,-1747.0,3.375,255.0,416.69290244579315,0.0,0.125,4.376220255000001,3.6906938176568906,0.0,4332.0,9.375,-165.0,-416.69290244579315,0.0,1.5,4.294433154,3.714278784934251,0.0,-3419.0,3.0,292.5,416.69290244579315,0.0,0.0,2.0068357320000003,3.696791533267894,0.0,1923.0,5.75,30.0,416.69290244579315,0.0,0.25,2.94189423,1.2309612221565496,0.0,-0.6499999761581421,1.100000023841858,-0.800000011920929,-0.13385009765625,-0.1964111328125,0.96307373046875,30.5,0.0,-149.0,0.717498779296875,0.6696624755859375,Closing,0.0,0.0,0.0,0.0,0.0,0.0,0.0,0.0,
7.789008,0.0,0.0,-1702.0,0.25,270.0,0.0,0.0,0.25,4.287108936,3.6906938176568906,-0.3710937120000004,4298.0,2.0,-195.0,0.0,0.0,0.25,4.117431219,3.714278784934251,-0.3918456629999998,-3366.0,0.125,330.0,0.0,0.0,0.125,1.962890424,3.696791533267894,-0.30151364100000055,1939.0,1.0,150.0,0.0,0.0,0.25,3.0078121920000003,1.2309612221565496,0.313720671,-0.8199999928474426,0.6800000071525574,-0.6499999761581421,-0.021484375,0.18243408203125,1.010498046875,30.5,0.0,-35.0,0.728302001953125,0.6590576171875,Closing,0.0,0.0,0.0,0.0,0.0,0.0,0.0,0.0,
7.845808999999999,0.0,0.0,-1702.0,0.0,217.5,0.0,0.0,0.25,4.327392135,3.6906938176568906,-0.08422850699999973,4298.0,0.0,-90.0,0.0,0.0,0.0,4.102782783,3.714278784934251,-0.16479490500000082,-3344.0,0.0,217.5,0.0,0.0,0.0,1.982421672,3.696791533267894,-0.04150390199999965,1956.0,0.0,90.0,0.0,0.0,0.125,3.0053707860000003,1.2309612221565496,0.06469725900000034,-0.5099999904632568,0.699999988079071,-0.4099999964237213,-0.02728271484375,0.13525390625,0.87652587890625,30.510000228881836,0.0,-39.0,0.7363433837890625,0.651885986328125,Closing,0.0,0.0,0.0,0.0,0.0,0.0,0.0,0.0,
7.922868,0.0,0.0,-1681.0,0.0,135.0,0.0,0.0,0.25,4.433593296000001,3.6906938176568906,0.06591796200000033,4280.0,0.0,-150.0,0.0,0.0,0.0,4.134521061,3.714278784934251,-0.003662108999999525,-3344.0,0.0,67.5,0.0,0.0,0.0,2.031249792,3.696791533267894,0.024414059999999793,1956.0,0.0,127.5,0.0,0.0,0.125,2.9479977450000003,1.2309612221565496,-0.006103514999999948,-0.14000000059604645,0.6700000166893005,-0.23999999463558197,-0.08587646484375,0.130615234375,1.083740234375,30.510000228881836,0.0,-101.0,0.738128662109375,0.647247314453125,Closing,0.0,0.0,0.0,0.0,0.0,0.0,0.0,0.0,
