Time,ClimberA1,ClimberA2,FRpos,FRCurrent,FRspeed,FRsetpoint,FRApos,FRACurrent,FREncpos,FREncSetpoint,FREncSpeed,FLpos,FLCurrent,FLspeed,FLsetpoint,FLApos,FLACurrent,FLEncpos,FLEncSetpoint,FLEncSpeed,BRpos,BRCurrent,BRspeed,BRsetpoint,BRApos,BRACurrent,BREncpos,BREncSetpoint,BREncSpeed,BLpos,BLCurrent,BLspeed,BLsetpoint,BLApos,BLACurrent,BLEncpos,BLEncSetpoint,BLEncSpeed,navx_Pitch,navx_Roll,navx_Yaw,navx_XAcc,navx_YAcc,navx_ZAcc,navx_Temp,navx_Bar,navx_Alt,navx_XDis,navx_YDis,GearPlacerState,ShootOutputV,ShootOutputCurrent,ShootEncPos,ShootEncVelocity,ShootSpeed,ShootSetpoint,CarouselSetpoint,CarouselCurrent,
0.19782900000014342,0.0,0.0,0.0,0.0,0.0,0.0,0.0,0.25,0.7885741380000001,0.01,0.0,0.0,0.0,0.0,-0.0,0.0,0.25,0.48706049700000004,0.01,0.0,244.0,0.0,0.0,0.0,0.0,0.0,3.333739893,0.01,0.0,771.0,0.0,0.0,-0.0,0.0,0.25,1.676025219,0.01,0.0,-0.019999999552965164,-0.49000000953674316,0.0,-0.0054931640625,-0.01861572265625,0.98828125,35.349998474121094,0.0,3.0,0.6150970458984375,-0.401336669921875,Waiting,0.0,0.125,-460361.0,0.0,0.0,0.0,0.0,0.0,
0.2796620000000112,0.0,0.0,0.0,0.0,0.0,0.0,0.0,0.25,0.7885741380000001,0.01,0.0,0.0,0.0,0.0,-0.0,0.0,0.25,0.48583979400000005,0.01,0.0,244.0,0.0,0.0,0.0,0.0,0.0,3.333739893,0.01,0.0,771.0,0.0,0.0,-0.0,0.0,0.25,1.676025219,0.01,0.0,-0.029999999329447746,-0.47999998927116394,0.0,-0.003662109375,0.00421142578125,1.0096435546875,35.33000183105469,0.0,4.0,0.6150970458984375,-0.401336669921875,Waiting,0.0,0.125,-460361.0,0.0,0.0,0.0,0.0,0.0,
0.3440709999999963,0.0,0.0,0.0,0.0,0.0,0.0,0.0,0.25,0.7897948410000001,0.01,0.0,0.0,0.0,0.0,-0.0,0.0,0.25,0.48706049700000004,0.01,0.0,244.0,0.0,0.0,0.0,0.0,0.0,3.333739893,0.01,0.0,771.0,0.0,0.0,-0.0,0.0,0.25,1.676025219,0.01,0.0,-0.019999999552965164,-0.49000000953674316,0.0,-0.02215576171875,-0.00201416015625,0.9970703125,35.33000183105469,0.0,-13.0,0.6150970458984375,-0.401336669921875,Waiting,0.0,0.125,-460361.0,0.0,0.0,0.0,0.0,0.0,
0.40091200000001115,0.0,0.0,0.0,0.0,0.0,0.0,0.0,0.25,0.7885741380000001,0.01,0.0,0.0,0.0,0.0,-0.0,0.0,0.25,0.48706049700000004,0.01,0.0,244.0,0.0,0.0,0.0,0.0,0.0,3.333739893,0.01,0.0,771.0,0.0,0.0,-0.0,0.0,0.25,1.676025219,0.01,0.0,-0.019999999552965164,-0.49000000953674316,0.0,-0.00738525390625,-0.0045166015625,1.00927734375,35.33000183105469,0.0,1.0,0.6150970458984375,-0.401336669921875,Waiting,0.0,0.125,-460361.0,0.0,0.0,0.0,0.0,0.0,
0.4612690000000875,0.0,0.0,0.0,0.0,0.0,0.0,0.0,0.25,0.7885741380000001,0.01,0.0,0.0,0.0,0.0,-0.0,0.0,0.25,0.48706049700000004,0.01,0.0,244.0,0.0,0.0,0.0,0.0,0.0,3.33251919,0.01,0.0,771.0,0.0,0.0,-0.0,0.0,0.25,1.677245922,0.01,0.0,-0.019999999552965164,-0.49000000953674316,0.0,-0.0062255859375,-9.765625E-4,1.01141357421875,35.33000183105469,0.0,2.0,0.6150970458984375,-0.401336669921875,Waiting,0.0,0.125,-460361.0,0.0,0.0,0.0,0.0,0.0,
0.52575400000019,0.0,0.0,0.0,0.0,0.0,0.0,0.0,0.25,0.7885741380000001,0.01,0.0,0.0,0.0,0.0,-0.0,0.0,0.25,0.48706049700000004,0.01,0.0,244.0,0.0,0.0,0.0,0.0,0.0,3.333739893,0.01,0.0,771.0,0.0,0.0,-0.0,0.0,0.25,1.676025219,0.01,0.0,-0.019999999552965164,-0.49000000953674316,0.0,-0.01409912109375,-0.00189208984375,1.01220703125,35.33000183105469,0.0,-5.0,0.6150970458984375,-0.401336669921875,Waiting,0.0,0.125,-460361.0,0.0,0.0,0.0,0.0,0.0,
0.589375,0.0,0.0,0.0,0.0,0.0,0.0,0.0,0.25,0.7885741380000001,0.01,0.0,0.0,0.0,0.0,-0.0,0.0,0.25,0.48583979400000005,0.01,0.0,244.0,0.0,0.0,0.0,0.0,0.0,3.333739893,0.01,0.0,771.0,0.0,0.0,-0.0,0.0,0.25,1.676025219,0.01,0.0,-0.009999999776482582,-0.49000000953674316,0.0,-0.0047607421875,0.0145263671875,1.00494384765625,35.33000183105469,0.0,3.0,0.6150970458984375,-0.401336669921875,Waiting,0.0,0.125,-460361.0,0.0,0.0,0.0,0.0,0.0,
0.651219000000041,0.0,0.0,0.0,0.0,0.0,0.0,0.0,0.25,0.7885741380000001,0.01,0.0,0.0,0.0,0.0,-0.0,0.0,0.25,0.48706049700000004,0.01,0.0,244.0,0.0,0.0,0.0,0.0,0.0,3.333739893,0.01,0.0,771.0,0.0,0.0,-0.0,0.0,0.25,1.677245922,0.01,0.0,-0.019999999552965164,-0.5,0.0,-0.0220947265625,0.0330810546875,1.0162353515625,35.33000183105469,0.0,-13.0,0.6150360107421875,-0.401519775390625,Waiting,0.0,0.125,-460361.0,0.0,0.0,0.0,0.0,0.0,
0.7119880000001285,0.0,0.0,0.0,0.0,0.0,0.0,0.0,0.25,0.7885741380000001,0.01,0.0,0.0,0.0,0.0,-0.0,0.0,0.25,0.48706049700000004,0.01,0.0,244.0,0.0,0.0,0.0,0.0,0.0,3.333739893,0.01,0.0,771.0,0.0,0.0,-0.0,0.0,0.25,1.676025219,0.01,0.0,-0.009999999776482582,-0.5,0.0,-0.0032958984375,0.0074462890625,1.01947021484375,35.33000183105469,0.0,5.0,0.614990234375,-0.401580810546875,Waiting,0.0,0.125,-460361.0,0.0,0.0,0.0,0.0,0.0,
0.7715860000001267,0.0,0.0,0.0,0.0,0.0,0.0,0.0,0.25,0.7885741380000001,0.01,0.0,0.0,0.0,0.0,-0.0,0.0,0.25,0.48583979400000005,0.01,0.0,244.0,0.0,0.0,0.0,0.0,0.0,3.333739893,0.01,0.0,771.0,0.0,0.0,-0.0,0.0,0.25,1.676025219,0.01,0.0,-0.009999999776482582,-0.5,0.0,-0.01177978515625,-0.00311279296875,1.0267333984375,35.33000183105469,0.0,-2.0,0.614990234375,-0.401580810546875,Waiting,0.0,0.125,-460361.0,0.0,0.0,0.0,0.0,0.0,
0.8322950000001583,0.0,0.0,0.0,0.0,0.0,0.0,0.0,0.25,0.7885741380000001,0.01,0.0,0.0,0.0,0.0,-0.0,0.0,0.25,0.48706049700000004,0.01,0.0,244.0,0.0,0.0,0.0,0.0,0.0,3.334960596,0.01,0.0,771.0,0.0,0.0,-0.0,0.0,0.25,1.676025219,0.01,0.0,-0.009999999776482582,-0.5,0.0,0.0037841796875,0.00225830078125,1.03668212890625,35.33000183105469,0.0,12.0,0.614990234375,-0.401580810546875,Waiting,0.0,0.125,-460361.0,0.0,0.0,0.0,0.0,0.0,
0.8947480000001379,0.0,0.0,0.0,0.0,0.0,0.0,0.0,0.25,0.7897948410000001,0.01,0.0,0.0,0.0,0.0,-0.0,0.0,0.25,0.48706049700000004,0.01,0.0,244.0,0.0,0.0,0.0,0.0,0.0,3.334960596,0.01,0.0,771.0,0.0,0.0,-0.0,0.0,0.25,1.677245922,0.01,0.0,0.0,-0.46000000834465027,0.0,-0.03204345703125,-0.0128173828125,0.97027587890625,35.33000183105469,0.0,-24.0,0.614959716796875,-0.401580810546875,Waiting,0.0,0.125,-460361.0,0.0,0.0,0.0,0.0,0.0,
0.9544650000000838,0.0,0.0,0.0,0.0,0.0,0.0,0.0,0.25,0.7885741380000001,0.01,0.0,0.0,0.0,0.0,-0.0,0.0,0.25,0.48706049700000004,0.01,0.0,244.0,0.0,0.0,0.0,0.0,0.0,3.333739893,0.01,0.0,771.0,0.125,0.0,-0.0,0.0,0.25,1.676025219,0.01,0.0,-0.019999999552965164,-0.47999998927116394,-0.009999999776482582,-0.01507568359375,0.0166015625,1.0111083984375,35.33000183105469,0.0,-6.0,0.61468505859375,-0.401580810546875,Waiting,0.0,0.125,-460361.0,0.0,0.0,0.0,0.0,0.0,
1.014441000000108,0.0,0.0,0.0,0.0,0.0,0.0,0.0,0.25,0.7885741380000001,0.01,0.0,0.0,0.0,0.0,-0.0,0.0,0.25,0.48706049700000004,0.01,0.0,244.0,0.0,0.0,0.0,0.0,0.0,3.333739893,0.01,0.0,771.0,0.0,0.0,-0.0,0.0,0.25,1.676025219,0.01,0.0,0.0,-0.46000000834465027,-0.009999999776482582,-0.00555419921875,0.01104736328125,1.00262451171875,35.33000183105469,0.0,2.0,0.61468505859375,-0.4014892578125,Waiting,0.0,0.125,-460361.0,0.0,0.0,0.0,0.0,0.0,
1.0778050000001675,0.0,0.0,0.0,0.0,0.0,0.0,0.0,0.25,0.7885741380000001,0.01,0.0,0.0,0.0,0.0,-0.0,0.0,0.25,0.48583979400000005,0.01,0.0,244.0,0.0,0.0,0.0,0.0,0.0,3.333739893,0.01,0.0,771.0,0.0,0.0,-0.0,0.0,0.25,1.676025219,0.01,0.0,-0.029999999329447746,-0.46000000834465027,0.0,-0.0115966796875,0.0047607421875,1.00164794921875,35.33000183105469,0.0,-3.0,0.61468505859375,-0.4014892578125,Waiting,0.0,0.125,-460361.0,0.0,0.0,0.0,0.0,0.0,
1.144352000000188,0.0,0.0,0.0,0.0,0.0,0.0,0.0,0.25,0.7885741380000001,0.01,0.0,0.0,0.0,0.0,-0.0,0.0,0.25,0.48706049700000004,0.01,0.0,244.0,0.0,0.0,0.0,0.0,0.0,3.333739893,0.01,0.0,771.0,0.125,0.0,-0.0,0.0,0.25,1.677245922,0.01,0.0,-0.029999999329447746,-0.4699999988079071,-0.009999999776482582,-0.00531005859375,-1.220703125E-4,0.98394775390625,35.33000183105469,0.0,2.0,0.61468505859375,-0.4014892578125,Waiting,0.0,0.125,-460361.0,0.0,0.0,0.0,0.0,0.0,
1.2064340000001248,0.0,0.0,0.0,0.0,0.0,0.0,0.0,0.25,0.7885741380000001,0.01,0.0,0.0,0.0,0.0,-0.0,0.0,0.25,0.48706049700000004,0.01,0.0,244.0,0.0,0.0,0.0,0.0,0.0,3.331298487,0.01,0.0,771.0,0.0,0.0,-0.0,0.0,0.25,1.676025219,0.01,0.0,-0.019999999552965164,-0.46000000834465027,-0.009999999776482582,0.003662109375,-0.0029296875,1.00640869140625,35.33000183105469,0.0,11.0,0.61468505859375,-0.4015350341796875,Waiting,0.0,0.125,-460361.0,0.0,0.0,0.0,0.0,0.0,
1.2668649999999906,0.0,0.0,0.0,0.0,0.0,0.0,0.0,0.25,0.7885741380000001,0.01,0.0,0.0,0.0,0.0,-0.0,0.0,0.25,0.48583979400000005,0.01,0.0,244.0,0.0,0.0,0.0,0.0,0.0,3.333739893,0.01,0.0,771.0,0.0,0.0,-0.0,0.0,0.25,1.676025219,0.01,0.0,-0.019999999552965164,-0.4699999988079071,-0.009999999776482582,-0.01318359375,-0.01300048828125,0.98809814453125,35.34000015258789,0.0,-4.0,0.61468505859375,-0.4015350341796875,Waiting,0.0,0.125,-460361.0,0.0,0.0,0.0,0.0,0.0,
1.3287470000002068,0.0,0.0,0.0,0.0,0.0,0.0,0.0,0.25,0.7885741380000001,0.01,0.0,0.0,0.0,0.0,-0.0,0.0,0.25,0.48583979400000005,0.01,0.0,244.0,0.0,0.0,0.0,0.0,0.0,3.333739893,0.01,0.0,771.0,0.0,0.0,-0.0,0.0,0.25,1.676025219,0.01,0.0,-0.019999999552965164,-0.46000000834465027,-0.009999999776482582,-0.01324462890625,0.0260009765625,0.95654296875,35.34000015258789,0.0,-5.0,0.61468505859375,-0.4014129638671875,Waiting,0.0,0.125,-460361.0,0.0,0.0,0.0,0.0,0.0,
1.3914729999999982,0.0,0.0,0.0,0.0,0.0,0.0,0.0,0.25,0.7885741380000001,0.01,0.0,0.0,0.0,0.0,-0.0,0.0,0.25,0.48583979400000005,0.01,0.0,244.0,0.0,0.0,0.0,0.0,0.0,3.334960596,0.01,0.0,771.0,0.0,0.0,-0.0,0.0,0.25,1.676025219,0.01,0.0,-0.009999999776482582,-0.46000000834465027,-0.009999999776482582,-0.02093505859375,-0.0087890625,1.003173828125,35.34000015258789,0.0,-12.0,0.61468505859375,-0.4012298583984375,Waiting,0.0,0.125,-460361.0,0.0,0.0,0.0,0.0,0.0,
1.4522290000000504,0.0,0.0,0.0,0.0,0.0,0.0,0.0,0.25,0.7885741380000001,0.01,0.0,0.0,0.0,0.0,-0.0,0.0,0.25,0.48583979400000005,0.01,0.0,244.0,0.0,0.0,0.0,0.0,0.0,3.333739893,0.01,0.0,771.0,0.0,0.0,-0.0,0.0,0.25,1.676025219,0.01,0.0,-0.019999999552965164,-0.4699999988079071,-0.009999999776482582,0.00384521484375,0.00360107421875,0.99560546875,35.34000015258789,0.0,12.0,0.61468505859375,-0.4012298583984375,Waiting,0.0,0.125,-460361.0,0.0,0.0,0.0,0.0,0.0,
1.5334920000000858,0.0,0.0,0.0,0.0,0.0,0.0,0.0,0.25,0.7885741380000001,0.01,0.0,0.0,0.0,0.0,-0.0,0.0,0.25,0.48583979400000005,0.01,0.0,244.0,0.0,0.0,0.0,0.0,0.0,3.333739893,0.01,0.0,771.0,0.0,0.0,-0.0,0.0,0.25,1.676025219,0.01,0.0,-0.009999999776482582,-0.4699999988079071,-0.009999999776482582,-0.01348876953125,-0.0074462890625,1.02105712890625,35.34000015258789,0.0,-5.0,0.61468505859375,-0.4012298583984375,Waiting,0.0,0.125,-460361.0,0.0,0.0,0.0,0.0,0.0,
1.5922569999999832,0.0,0.0,0.0,0.0,0.0,0.0,0.0,0.25,0.7897948410000001,0.01,0.0,0.0,0.0,0.0,-0.0,0.0,0.25,0.48706049700000004,0.01,0.0,244.0,0.0,0.0,0.0,0.0,0.0,3.334960596,0.01,0.0,771.0,0.125,0.0,-0.0,0.0,0.25,1.676025219,0.01,0.0,-0.009999999776482582,-0.49000000953674316,-0.009999999776482582,-0.0103759765625,-1.220703125E-4,1.02239990234375,35.34000015258789,0.0,-1.0,0.61468505859375,-0.4012298583984375,Waiting,0.0,0.125,-460361.0,0.0,0.0,0.0,0.0,0.0,
1.6527990000001156,0.0,0.0,0.0,0.0,0.0,0.0,0.0,0.25,0.7897948410000001,0.01,0.0,0.0,0.0,0.0,-0.0,0.0,0.25,0.48583979400000005,0.01,0.0,244.0,0.0,0.0,0.0,0.0,0.0,3.334960596,0.01,0.0,771.0,0.0,0.0,-0.0,0.0,0.25,1.677245922,0.01,0.0,-0.009999999776482582,-0.47999998927116394,-0.009999999776482582,-0.00946044921875,-0.00115966796875,1.0167236328125,35.34000015258789,0.0,0.0,0.61468505859375,-0.4012298583984375,Waiting,0.0,0.125,-460361.0,0.0,0.0,0.0,0.0,0.0,
1.7123930000001564,0.0,0.0,0.0,0.0,0.0,0.0,0.0,0.25,0.7897948410000001,0.01,0.0,0.0,0.0,0.0,-0.0,0.0,0.25,0.48706049700000004,0.01,0.0,244.0,0.0,0.0,0.0,0.0,0.0,3.33251919,0.01,0.0,771.0,0.0,0.0,-0.0,0.0,0.25,1.676025219,0.01,0.0,-0.009999999776482582,-0.49000000953674316,-0.009999999776482582,-0.01239013671875,8.544921875E-4,1.01702880859375,35.34000015258789,0.0,-3.0,0.61468505859375,-0.4012298583984375,Waiting,0.0,0.125,-460361.0,0.0,0.0,0.0,0.0,0.0,
1.7718390000001527,0.0,0.0,0.0,0.0,0.0,0.0,0.0,0.25,0.7897948410000001,0.01,0.0,0.0,0.0,0.0,-0.0,0.0,0.25,0.48706049700000004,0.01,0.0,244.0,0.0,0.0,0.0,0.0,0.0,3.333739893,0.01,0.0,771.0,0.0,0.0,-0.0,0.0,0.25,1.676025219,0.01,0.0,-0.009999999776482582,-0.49000000953674316,-0.009999999776482582,-0.00341796875,-0.00146484375,1.02081298828125,35.33000183105469,0.0,5.0,0.61468505859375,-0.4012298583984375,Waiting,0.0,0.125,-460361.0,0.0,0.0,0.0,0.0,0.0,
1.8318070000000297,0.0,0.0,0.0,0.0,0.0,0.0,0.0,0.25,0.7885741380000001,0.01,0.0,0.0,0.0,0.0,-0.0,0.0,0.25,0.48583979400000005,0.01,0.0,244.0,0.0,0.0,0.0,0.0,0.0,3.333739893,0.01,0.0,771.0,0.0,0.0,-0.0,0.0,0.25,1.676025219,0.01,0.0,-0.009999999776482582,-0.49000000953674316,-0.019999999552965164,-0.0123291015625,-0.0028076171875,1.02630615234375,35.33000183105469,0.0,-3.0,0.61468505859375,-0.4012298583984375,Waiting,0.0,0.125,-460361.0,0.0,0.0,0.0,0.0,0.0,
1.8955950000002049,0.0,0.0,0.0,0.0,0.0,0.0,0.0,0.25,0.7910155440000001,0.01,0.0,0.0,0.0,0.0,-0.0,0.0,0.25,0.48706049700000004,0.01,0.0,244.0,0.0,0.0,0.0,0.0,0.0,3.334960596,0.01,0.0,771.0,0.125,0.0,-0.0,0.0,0.25,1.676025219,0.01,0.0,-0.009999999776482582,-0.49000000953674316,-0.019999999552965164,-0.004150390625,-0.001220703125,1.02703857421875,35.33000183105469,0.0,4.0,0.61468505859375,-0.4012298583984375,Waiting,0.0,0.125,-460361.0,0.0,0.0,0.0,0.0,0.0,
1.956974000000162,0.0,0.0,0.0,0.0,0.0,0.0,0.0,0.25,0.7885741380000001,0.01,0.0,0.0,0.0,0.0,-0.0,0.0,0.25,0.48706049700000004,0.01,0.0,244.0,0.0,0.0,0.0,0.0,0.0,3.334960596,0.01,0.0,771.0,0.0,0.0,-0.0,0.0,0.25,1.676025219,0.01,0.0,-0.009999999776482582,-0.49000000953674316,-0.009999999776482582,-0.012939453125,-0.00238037109375,1.02581787109375,35.33000183105469,0.0,-4.0,0.61468505859375,-0.4012298583984375,Waiting,0.0,0.125,-460361.0,0.0,0.0,0.0,0.0,0.0,
2.016510000000009,0.0,0.0,0.0,0.0,0.0,0.0,0.0,0.25,0.7885741380000001,0.01,0.0,0.0,0.0,0.0,-0.0,0.0,0.25,0.48706049700000004,0.01,0.0,244.0,0.0,0.0,0.0,0.0,0.0,3.333739893,0.01,0.0,771.0,0.125,0.0,-0.0,0.0,0.25,1.676025219,0.01,0.0,-0.009999999776482582,-0.49000000953674316,-0.009999999776482582,-0.005615234375,-0.00244140625,1.025146484375,35.33000183105469,0.0,3.0,0.61468505859375,-0.4012298583984375,Waiting,0.0,0.125,-460361.0,0.0,0.0,0.0,0.0,0.0,
2.079102000000188,0.0,0.0,0.0,0.0,0.0,0.0,0.0,0.25,0.7885741380000001,0.01,0.0,0.0,0.0,0.0,-0.0,0.0,0.25,0.48706049700000004,0.01,0.0,244.0,0.0,0.0,0.0,0.0,0.0,3.333739893,0.01,0.0,771.0,0.0,0.0,-0.0,0.0,0.25,1.677245922,0.01,0.0,-0.009999999776482582,-0.49000000953674316,-0.009999999776482582,-0.0118408203125,-0.0010986328125,1.023193359375,35.33000183105469,0.0,-2.0,0.61468505859375,-0.4012298583984375,Waiting,0.0,0.125,-460361.0,0.0,0.0,0.0,0.0,0.0,
2.1476710000000896,0.0,0.0,0.0,0.0,0.0,0.0,0.0,0.25,0.7885741380000001,0.01,0.0,0.0,0.0,0.0,-0.0,0.0,0.25,0.48583979400000005,0.01,0.0,244.0,0.0,0.0,0.0,0.0,0.0,3.333739893,0.01,0.0,771.0,0.0,0.0,-0.0,0.0,0.25,1.677245922,0.01,0.0,0.0,-0.49000000953674316,-0.009999999776482582,-0.00384521484375,-9.765625E-4,1.02105712890625,35.33000183105469,0.0,5.0,0.61468505859375,-0.4012298583984375,Waiting,0.0,0.125,-460361.0,0.0,0.0,0.0,0.0,0.0,
2.208943000000203,0.0,0.0,0.0,0.0,0.0,0.0,0.0,0.25,0.7885741380000001,0.01,0.0,0.0,0.0,0.0,-0.0,0.0,0.25,0.48706049700000004,0.01,0.0,244.0,0.0,0.0,0.0,0.0,0.0,3.333739893,0.01,0.0,771.0,0.0,0.0,-0.0,0.0,0.25,1.676025219,0.01,0.0,0.0,-0.47999998927116394,-0.009999999776482582,-0.00799560546875,4.2724609375E-4,1.03009033203125,35.33000183105469,0.0,0.0,0.61468505859375,-0.4012298583984375,Waiting,0.0,0.125,-460361.0,0.0,0.0,0.0,0.0,0.0,
2.2688900000001304,0.0,0.0,0.0,0.0,0.0,0.0,0.0,0.25,0.7885741380000001,0.01,0.0,0.0,0.0,0.0,-0.0,0.0,0.25,0.48583979400000005,0.01,0.0,244.0,0.0,0.0,0.0,0.0,0.0,3.333739893,0.01,0.0,771.0,0.0,0.0,-0.0,0.0,0.25,1.676025219,0.01,0.0,0.0,-0.49000000953674316,-0.009999999776482582,-0.00872802734375,-0.001220703125,1.02337646484375,35.36000061035156,0.0,0.0,0.61468505859375,-0.4012298583984375,Waiting,0.0,0.125,-460361.0,0.0,0.0,0.0,0.0,0.0,
2.331533000000054,0.0,0.0,0.0,0.0,0.0,0.0,0.0,0.25,0.7897948410000001,0.01,0.0,0.0,0.0,0.0,-0.0,0.0,0.25,0.48706049700000004,0.01,0.0,244.0,0.0,0.0,0.0,0.0,0.0,3.333739893,0.01,0.0,771.0,0.125,0.0,-0.0,0.0,0.25,1.677245922,0.01,0.0,0.0,-0.49000000953674316,-0.009999999776482582,-0.010986328125,-0.00189208984375,1.02191162109375,35.36000061035156,0.0,-2.0,0.61468505859375,-0.4012298583984375,Waiting,0.0,0.125,-460361.0,0.0,0.0,0.0,0.0,0.0,
2.393722000000067,0.0,0.0,0.0,0.0,0.0,0.0,0.0,0.25,0.7885741380000001,0.01,0.0,0.0,0.0,0.0,-0.0,0.0,0.25,0.48583979400000005,0.01,0.0,244.0,0.0,0.0,0.0,0.0,0.0,3.333739893,0.01,0.0,771.0,0.0,0.0,-0.0,0.0,0.25,1.676025219,0.01,0.0,0.0,-0.49000000953674316,-0.009999999776482582,-0.00909423828125,0.001220703125,1.02325439453125,35.36000061035156,0.0,0.0,0.61468505859375,-0.4012298583984375,Waiting,0.0,0.125,-460361.0,0.0,0.0,0.0,0.0,0.0,
2.4510100000000095,0.0,0.0,0.0,0.0,0.0,0.0,0.0,0.25,0.7885741380000001,0.01,0.0,0.0,0.0,0.0,-0.0,0.0,0.25,0.48583979400000005,0.01,0.0,244.0,0.0,0.0,0.0,0.0,0.0,3.333739893,0.01,0.0,771.0,0.0,0.0,-0.0,0.0,0.25,1.677245922,0.01,0.0,0.0,-0.49000000953674316,-0.009999999776482582,-0.00762939453125,0.001708984375,1.02618408203125,35.36000061035156,0.0,1.0,0.61468505859375,-0.4012298583984375,Waiting,0.0,0.125,-460361.0,0.0,0.0,0.0,0.0,0.0,
2.511005000000121,0.0,0.0,0.0,0.0,0.0,0.0,0.0,0.25,0.7897948410000001,0.01,0.0,0.0,0.0,0.0,-0.0,0.0,0.25,0.48583979400000005,0.01,0.0,244.0,0.0,0.0,0.0,0.0,0.0,3.333739893,0.01,0.0,771.0,0.0,0.0,-0.0,0.0,0.25,1.676025219,0.01,0.0,0.0,-0.47999998927116394,-0.009999999776482582,-0.01055908203125,-3.0517578125E-4,1.0242919921875,35.36000061035156,0.0,-1.0,0.61468505859375,-0.4012298583984375,Waiting,0.0,0.125,-460361.0,0.0,0.0,0.0,0.0,0.0,
2.572417000000132,0.0,0.0,0.0,0.0,0.0,0.0,0.0,0.25,0.7885741380000001,0.01,0.0,0.0,0.0,0.0,-0.0,0.0,0.25,0.484619091,0.01,0.0,244.0,0.0,0.0,0.0,0.0,0.0,3.333739893,0.01,0.0,771.0,0.0,0.0,-0.0,0.0,0.25,1.676025219,0.01,0.0,0.0,-0.47999998927116394,-0.019999999552965164,-0.00494384765625,6.103515625E-5,1.02020263671875,35.36000061035156,0.0,3.0,0.61468505859375,-0.4012298583984375,Waiting,0.0,0.125,-460361.0,0.0,0.0,0.0,0.0,0.0,
2.634032000000123,0.0,0.0,0.0,0.0,0.0,0.0,0.0,0.25,0.7885741380000001,0.01,0.0,0.0,0.0,0.0,-0.0,0.0,0.25,0.48706049700000004,0.01,0.0,244.0,0.0,0.0,0.0,0.0,0.0,3.333739893,0.01,0.0,771.0,0.0,0.0,-0.0,0.0,0.25,1.676025219,0.01,0.0,0.0,-0.47999998927116394,-0.019999999552965164,-0.0128173828125,-1.8310546875E-4,1.0211181640625,35.36000061035156,0.0,-4.0,0.61468505859375,-0.4012298583984375,Waiting,0.0,0.125,-460361.0,0.0,0.0,0.0,0.0,0.125,
2.696881999999983,0.0,0.0,0.0,0.0,0.0,0.0,0.0,0.25,0.7885741380000001,0.01,0.0,0.0,0.0,0.0,-0.0,0.0,0.25,0.48706049700000004,0.01,0.0,244.0,0.0,0.0,0.0,0.0,0.0,3.333739893,0.01,0.0,771.0,0.0,0.0,-0.0,0.0,0.25,1.676025219,0.01,0.0,0.0,-0.49000000953674316,-0.019999999552965164,-0.0067138671875,-0.00201416015625,1.01904296875,35.36000061035156,0.0,2.0,0.61468505859375,-0.4012298583984375,Waiting,0.0,0.125,-460361.0,0.0,0.0,0.0,0.0,0.0,
2.7622970000000207,0.0,0.0,0.0,0.0,0.0,0.0,0.0,0.25,0.7885741380000001,0.01,0.0,0.0,0.0,0.0,-0.0,0.0,0.25,0.48583979400000005,0.01,0.0,244.0,0.0,0.0,0.0,0.0,0.0,3.334960596,0.01,0.0,771.0,0.0,0.0,-0.0,0.0,0.25,1.677245922,0.01,0.0,0.0,-0.47999998927116394,-0.019999999552965164,-0.0067138671875,-4.2724609375E-4,1.0185546875,35.36000061035156,0.0,1.0,0.61468505859375,-0.4012298583984375,Waiting,0.0,0.125,-460361.0,0.0,0.0,0.0,0.0,0.0,
2.822819000000134,0.0,0.0,0.0,0.0,0.0,0.0,0.0,0.25,0.7885741380000001,0.01,0.0,0.0,0.0,0.0,-0.0,0.0,0.25,0.48706049700000004,0.01,0.0,244.0,0.0,0.0,0.0,0.0,0.0,3.333739893,0.01,0.0,771.0,0.0,0.0,-0.0,0.0,0.25,1.674804516,0.01,0.0,0.0,-0.49000000953674316,-0.019999999552965164,-0.01104736328125,-6.7138671875E-4,1.0272216796875,35.349998474121094,0.0,-2.0,0.61468505859375,-0.4012298583984375,Waiting,0.0,0.125,-460361.0,0.0,0.0,0.0,0.0,0.0,
2.8905460000000893,0.0,0.0,0.0,0.0,0.0,0.0,0.0,0.25,0.7885741380000001,0.01,0.0,0.0,0.0,0.0,-0.0,0.0,0.25,0.48706049700000004,0.01,0.0,244.0,0.0,0.0,0.0,0.0,0.0,3.333739893,0.01,0.0,771.0,0.0,0.0,-0.0,0.0,0.25,1.676025219,0.01,0.0,0.0,-0.47999998927116394,-0.019999999552965164,-0.00921630859375,-0.00262451171875,1.016845703125,35.349998474121094,0.0,0.0,0.61468505859375,-0.4012298583984375,Waiting,0.0,0.125,-460361.0,0.0,0.0,0.0,0.0,0.0,
2.9514470000001602,0.0,0.0,0.0,0.0,0.0,0.0,0.0,0.25,0.7885741380000001,0.01,0.0,0.0,0.0,0.0,-0.0,0.0,0.25,0.48583979400000005,0.01,0.0,244.0,0.0,0.0,0.0,0.0,0.0,3.333739893,0.01,0.0,771.0,0.0,0.0,-0.0,0.0,0.25,1.677245922,0.01,0.0,0.0,-0.47999998927116394,-0.019999999552965164,-0.01080322265625,7.32421875E-4,1.0196533203125,35.349998474121094,0.0,-2.0,0.61468505859375,-0.4012298583984375,Waiting,0.0,0.125,-460361.0,0.0,0.0,0.0,0.0,0.0,
3.012242000000086,0.0,0.0,0.0,0.0,0.0,0.0,0.0,0.25,0.7885741380000001,0.01,0.0,0.0,0.0,0.0,-0.0,0.0,0.25,0.48706049700000004,0.01,0.0,244.0,0.0,0.0,0.0,0.0,0.0,3.334960596,0.01,0.0,771.0,0.0,0.0,-0.0,0.0,0.25,1.676025219,0.01,0.0,0.0,-0.47999998927116394,-0.019999999552965164,-0.008544921875,-7.9345703125E-4,1.01739501953125,35.349998474121094,0.0,0.0,0.61468505859375,-0.4012298583984375,Waiting,0.0,0.125,-460361.0,0.0,0.0,0.0,0.0,0.0,
3.0727040000001433,0.0,0.0,0.0,0.0,0.0,0.0,0.0,0.25,0.7885741380000001,0.01,0.0,0.0,0.0,0.0,-0.0,0.0,0.25,0.48583979400000005,0.01,0.0,244.0,0.0,0.0,0.0,0.0,0.0,3.333739893,0.01,0.0,771.0,0.0,0.0,-0.0,0.0,0.25,1.676025219,0.01,0.0,0.0,-0.47999998927116394,-0.019999999552965164,-0.0096435546875,0.00128173828125,1.0198974609375,35.349998474121094,0.0,0.0,0.61468505859375,-0.4012298583984375,Waiting,0.0,0.125,-460361.0,0.0,0.0,0.0,0.0,0.0,
3.134695000000065,0.0,0.0,0.0,0.0,0.0,0.0,0.0,0.25,0.7885741380000001,0.01,0.0,0.0,0.0,0.0,-0.0,0.0,0.25,0.48583979400000005,0.01,0.0,244.0,0.0,0.0,0.0,0.0,0.0,3.333739893,0.01,0.0,771.0,0.0,0.0,-0.0,0.0,0.25,1.676025219,0.01,0.0,0.0,-0.47999998927116394,-0.019999999552965164,-0.01165771484375,-8.544921875E-4,1.020751953125,35.349998474121094,0.0,-2.0,0.61468505859375,-0.4012298583984375,Waiting,0.0,0.125,-460361.0,0.0,0.0,0.0,0.0,0.0,
3.204096000000136,0.0,0.0,0.0,0.0,0.0,0.0,0.0,0.25,0.7885741380000001,0.01,0.0,0.0,0.0,0.0,-0.0,0.0,0.25,0.48706049700000004,0.01,0.0,244.0,0.0,0.0,0.0,0.0,0.0,3.334960596,0.01,0.0,771.0,0.0,0.0,-0.0,0.0,0.25,1.676025219,0.01,0.0,0.0,-0.49000000953674316,-0.019999999552965164,-0.01007080078125,-0.00335693359375,1.02178955078125,35.349998474121094,0.0,-1.0,0.61468505859375,-0.4012298583984375,Waiting,0.0,0.125,-460361.0,0.0,0.0,0.0,0.0,0.0,
3.2681070000000765,0.0,0.0,0.0,0.0,0.0,0.0,0.0,0.25,0.7897948410000001,0.01,0.0,0.0,0.0,0.0,-0.0,0.0,0.25,0.48706049700000004,0.01,0.0,244.0,0.0,0.0,0.0,0.0,0.0,3.334960596,0.01,-0.0012207030000004337,771.0,0.0,0.0,-0.0,0.0,0.25,1.676025219,0.01,0.0,0.0,-0.47999998927116394,-0.019999999552965164,-0.00909423828125,0.00286865234375,1.0201416015625,35.349998474121094,0.0,0.0,0.61468505859375,-0.4012298583984375,Waiting,0.0,0.125,-460361.0,0.0,0.0,0.0,0.0,0.0,
3.330725000000093,0.0,0.0,0.0,0.0,0.0,0.0,0.0,0.25,0.7885741380000001,0.01,0.0,0.0,0.0,0.0,-0.0,0.0,0.25,0.48583979400000005,0.01,0.0,244.0,0.0,0.0,0.0,0.0,0.0,3.333739893,0.01,0.0,771.0,0.125,0.0,-0.0,0.0,0.25,1.679687328,0.01,0.0,0.0,-0.47999998927116394,-0.019999999552965164,-0.010009765625,1.220703125E-4,1.02069091796875,35.369998931884766,0.0,-1.0,0.61468505859375,-0.4012298583984375,Waiting,0.0,0.125,-460361.0,0.0,0.0,0.0,0.0,0.125,
3.4042100000001954,0.0,0.0,0.0,0.0,0.0,0.0,0.0,0.25,0.7885741380000001,0.01,-0.0012207030000004337,0.0,0.0,0.0,-0.0,0.0,0.25,0.48706049700000004,0.01,0.0,244.0,0.0,0.0,0.0,0.0,0.0,3.333739893,0.01,0.0,771.0,0.0,0.0,-0.0,0.0,0.25,1.676025219,0.01,0.0,0.0,-0.47999998927116394,-0.019999999552965164,-0.0059814453125,0.00189208984375,1.02313232421875,35.369998931884766,0.0,2.0,0.61468505859375,-0.4012298583984375,Waiting,0.0,0.125,-460361.0,0.0,0.0,0.0,0.0,0.0,
3.4673640000000594,0.0,0.0,0.0,0.0,0.0,0.0,0.0,0.25,0.7897948410000001,0.01,0.0012207030000004337,0.0,0.0,0.0,-0.0,0.0,0.25,0.48706049700000004,0.01,0.0,244.0,0.0,0.0,0.0,0.0,0.0,3.333739893,0.01,0.0,771.0,0.0,0.0,-0.0,0.0,0.25,1.676025219,0.01,0.0,0.0,-0.47999998927116394,-0.019999999552965164,-0.01153564453125,4.2724609375E-4,1.01959228515625,35.369998931884766,0.0,-2.0,0.61468505859375,-0.4012298583984375,Waiting,0.0,0.125,-460361.0,0.0,0.0,0.0,0.0,0.0,
3.5303420000001786,0.0,0.0,0.0,0.0,0.0,0.0,0.0,0.25,0.7885741380000001,0.01,0.0,0.0,0.0,0.0,-0.0,0.0,0.25,0.484619091,0.01,0.0,244.0,0.0,0.0,0.0,0.0,0.0,3.333739893,0.01,-0.0012207030000004337,771.0,0.0,0.0,-0.0,0.0,0.25,1.677245922,0.01,0.0,0.0,-0.47999998927116394,-0.019999999552965164,-0.00640869140625,-5.4931640625E-4,1.02587890625,35.369998931884766,0.0,2.0,0.61468505859375,-0.4012298583984375,Waiting,0.0,0.125,-460361.0,0.0,0.0,0.0,0.0,0.0,
3.5964670000001786,0.0,0.0,0.0,0.0,0.0,0.0,0.0,0.25,0.7885741380000001,0.01,0.0,0.0,0.0,0.0,-0.0,0.0,0.25,0.48706049700000004,0.01,0.0,244.0,0.0,0.0,0.0,0.0,0.0,3.334960596,0.01,0.0012207030000004337,771.0,0.0,0.0,-0.0,0.0,0.25,1.676025219,0.01,0.0,0.0,-0.47999998927116394,-0.019999999552965164,-0.01055908203125,-0.001953125,1.01885986328125,35.369998931884766,0.0,-1.0,0.61468505859375,-0.4012298583984375,Waiting,0.0,0.125,-460361.0,0.0,0.0,0.0,0.0,0.0,
3.666234000000171,0.0,0.0,0.0,0.0,0.0,0.0,0.0,0.25,0.7885741380000001,0.01,0.0,0.0,0.0,0.0,-0.0,0.0,0.25,0.48706049700000004,0.01,0.0,244.0,0.0,0.0,0.0,0.0,0.0,3.333739893,0.01,0.0,771.0,0.0,0.0,-0.0,0.0,0.25,1.676025219,0.01,0.0,0.0,-0.47999998927116394,-0.019999999552965164,-0.00897216796875,-6.7138671875E-4,1.01953125,35.369998931884766,0.0,0.0,0.61468505859375,-0.4012298583984375,Waiting,0.0,0.125,-460361.0,0.0,0.0,0.0,0.0,0.0,
3.728689000000013,0.0,0.0,0.0,0.0,0.0,0.0,0.0,0.25,0.7885741380000001,0.01,0.0,0.0,0.0,0.0,-0.0,0.0,0.25,0.48706049700000004,0.01,0.0,244.0,0.0,0.0,0.0,0.0,0.0,3.333739893,0.01,0.0,771.0,0.125,0.0,-0.0,0.0,0.25,1.676025219,0.01,0.0,0.0,-0.47999998927116394,-0.019999999552965164,-0.00921630859375,7.9345703125E-4,1.01751708984375,35.369998931884766,0.0,0.0,0.61468505859375,-0.4012298583984375,Waiting,0.0,0.125,-460361.0,0.0,0.0,0.0,0.0,0.125,
3.7936470000001137,0.0,0.0,0.0,0.0,0.0,0.0,0.0,0.25,0.7897948410000001,0.01,0.0,0.0,0.0,0.0,-0.0,0.0,0.25,0.48706049700000004,0.01,0.0,244.0,0.0,0.0,0.0,0.0,0.0,3.334960596,0.01,0.0,771.0,0.0,0.0,-0.0,0.0,0.25,1.677245922,0.01,0.0,0.0,-0.47999998927116394,-0.019999999552965164,-0.007080078125,1.220703125E-4,1.01812744140625,35.34000015258789,0.0,1.0,0.61468505859375,-0.4012298583984375,Waiting,0.0,0.125,-460361.0,0.0,0.0,0.0,0.0,0.0,
3.862191000000108,0.0,0.0,0.0,0.0,0.0,0.0,0.0,0.25,0.7885741380000001,0.01,0.0,0.0,0.0,0.0,-0.0,0.0,0.25,0.48706049700000004,0.01,0.0,244.0,0.0,0.0,0.0,0.0,0.0,3.333739893,0.01,0.0,771.0,0.125,0.0,-0.0,0.0,0.25,1.676025219,0.01,0.0,0.0,-0.47999998927116394,-0.019999999552965164,-0.0106201171875,-0.00115966796875,1.0242919921875,35.34000015258789,0.0,-1.0,0.61468505859375,-0.4012298583984375,Waiting,0.0,0.125,-460361.0,0.0,0.0,0.0,0.0,0.0,
3.929253000000026,0.0,0.0,0.0,0.0,0.0,0.0,0.0,0.25,0.7897948410000001,0.01,0.0,0.0,0.0,0.0,-0.0,0.0,0.25,0.48583979400000005,0.01,0.0,244.0,0.0,0.0,0.0,0.0,0.0,3.333739893,0.01,0.0,771.0,0.0,0.0,-0.0,0.0,0.25,1.676025219,0.01,0.0,0.0,-0.49000000953674316,-0.019999999552965164,-0.0101318359375,-5.4931640625E-4,1.02325439453125,35.34000015258789,0.0,-1.0,0.61468505859375,-0.4012298583984375,Waiting,0.0,0.125,-460361.0,0.0,0.0,0.0,0.0,0.0,
3.995788000000175,0.0,0.0,0.0,0.0,0.0,0.0,0.0,0.25,0.7885741380000001,0.01,0.0,0.0,0.0,0.0,-0.0,0.0,0.25,0.48706049700000004,0.01,0.0,244.0,0.0,0.0,0.0,0.0,0.0,3.333739893,0.01,0.0,771.0,0.0,0.0,-0.0,0.0,0.25,1.677245922,0.01,0.0,0.0,-0.49000000953674316,-0.019999999552965164,-0.00787353515625,0.00341796875,1.02008056640625,35.34000015258789,0.0,0.0,0.61468505859375,-0.4012298583984375,Waiting,0.0,0.125,-460361.0,0.0,0.0,0.0,0.0,0.0,
4.062977000000188,0.0,0.0,0.0,0.0,0.0,0.0,0.0,0.25,0.7885741380000001,0.01,0.0,0.0,0.0,0.0,-0.0,0.0,0.25,0.48583979400000005,0.01,0.0,244.0,0.0,0.0,0.0,0.0,0.0,3.334960596,0.01,0.0,771.0,0.0,0.0,-0.0,0.0,0.25,1.676025219,0.01,0.0,0.0,-0.49000000953674316,-0.019999999552965164,-0.00860595703125,0.001953125,1.02197265625,35.34000015258789,0.0,0.0,0.61468505859375,-0.4012298583984375,Waiting,0.0,0.125,-460361.0,0.0,0.0,0.0,0.0,0.0,
4.1283960000001825,0.0,0.0,0.0,0.0,0.0,0.0,0.0,0.25,0.7885741380000001,0.01,0.0,0.0,0.0,0.0,-0.0,0.0,0.25,0.48706049700000004,0.01,0.0,244.0,0.0,0.0,0.0,0.0,0.0,3.333739893,0.01,0.0,771.0,0.0,0.0,-0.0,0.0,0.25,1.676025219,0.01,0.0,0.0,-0.49000000953674316,-0.019999999552965164,-0.0067138671875,-9.1552734375E-4,1.021728515625,35.34000015258789,0.0,2.0,0.61468505859375,-0.4012298583984375,Waiting,0.0,0.125,-460361.0,0.0,0.0,0.0,0.0,0.0,
4.191502000000095,0.0,0.0,0.0,0.0,0.0,0.0,0.0,0.25,0.7897948410000001,0.01,0.0,0.0,0.0,0.0,-0.0,0.0,0.25,0.48706049700000004,0.01,0.0,244.0,0.0,0.0,0.0,0.0,0.0,3.334960596,0.01,0.0,771.0,0.125,0.0,-0.0,0.0,0.25,1.676025219,0.01,0.0,0.0,-0.49000000953674316,-0.019999999552965164,-0.00640869140625,-0.00640869140625,1.0172119140625,35.34000015258789,0.0,2.0,0.61468505859375,-0.4012298583984375,Waiting,0.0,0.125,-460361.0,0.0,0.0,0.0,0.0,0.0,
4.266137000000104,0.0,0.0,0.0,0.0,0.0,0.0,0.0,0.25,0.7885741380000001,0.01,0.0,0.0,0.0,0.0,-0.0,0.0,0.25,0.48706049700000004,0.01,0.0,244.0,0.0,0.0,0.0,0.0,0.0,3.333739893,0.01,0.0,771.0,0.0,0.0,-0.0,0.0,0.25,1.676025219,0.01,0.0,0.0,-0.49000000953674316,-0.019999999552965164,-0.0106201171875,-7.9345703125E-4,1.0247802734375,35.34000015258789,0.0,-1.0,0.61468505859375,-0.4012298583984375,Waiting,0.0,0.125,-460361.0,0.0,0.0,0.0,0.0,0.0,
4.330351000000024,0.0,0.0,0.0,0.0,0.0,0.0,0.0,0.25,0.7897948410000001,0.01,0.0,0.0,0.0,0.0,-0.0,0.0,0.25,0.48583979400000005,0.01,0.0,244.0,0.0,0.0,0.0,0.0,0.0,3.333739893,0.01,0.0,771.0,0.0,0.0,-0.0,0.0,0.25,1.676025219,0.01,0.0,0.0,-0.49000000953674316,-0.019999999552965164,-0.01019287109375,-0.00103759765625,1.02008056640625,35.369998931884766,0.0,-1.0,0.61468505859375,-0.4012298583984375,Waiting,0.0,0.125,-460361.0,0.0,0.0,0.0,0.0,0.0,
4.395972000000067,0.0,0.0,0.0,0.0,0.0,0.0,0.0,0.25,0.787353435,0.01,0.0,0.0,0.0,0.0,-0.0,0.0,0.25,0.48706049700000004,0.01,0.0,244.0,0.0,0.0,0.0,0.0,0.0,3.334960596,0.01,0.0,771.0,0.0,0.0,-0.0,0.0,0.25,1.676025219,0.01,0.0,0.0,-0.49000000953674316,-0.019999999552965164,-0.01055908203125,-0.0018310546875,1.02484130859375,35.369998931884766,0.0,-1.0,0.61468505859375,-0.4012298583984375,Waiting,0.0,0.125,-460361.0,0.0,0.0,0.0,0.0,0.125,
4.466568000000203,0.0,0.0,0.0,0.0,0.0,0.0,0.0,0.25,0.7885741380000001,0.01,0.0,0.0,0.0,0.0,-0.0,0.0,0.25,0.48583979400000005,0.01,0.0,244.0,0.0,0.0,0.0,0.0,0.0,3.333739893,0.01,0.0,771.0,0.0,0.0,-0.0,0.0,0.25,1.676025219,0.01,0.0,0.0,-0.49000000953674316,-0.019999999552965164,-0.00689697265625,-5.4931640625E-4,1.0208740234375,35.369998931884766,0.0,1.0,0.61468505859375,-0.4012298583984375,Waiting,0.0,0.125,-460361.0,0.0,0.0,0.0,0.0,0.0,
4.529776000000071,0.0,0.0,0.0,0.0,0.0,0.0,0.0,0.25,0.7885741380000001,0.01,0.0,0.0,0.0,0.0,-0.0,0.0,0.25,0.48706049700000004,0.01,0.0,244.0,0.0,0.0,0.0,0.0,0.0,3.333739893,0.01,0.0,771.0,0.125,0.0,-0.0,0.0,0.25,1.677245922,0.01,0.0,0.0,-0.49000000953674316,-0.019999999552965164,-0.00811767578125,6.103515625E-5,1.01751708984375,35.369998931884766,0.0,0.0,0.61468505859375,-0.4012298583984375,Waiting,0.0,0.125,-460361.0,0.0,0.0,0.0,0.0,0.0,
4.595543000000063,0.0,0.0,0.0,0.0,0.0,0.0,0.0,0.25,0.7897948410000001,0.01,0.0,0.0,0.0,0.0,-0.0,0.0,0.25,0.48706049700000004,0.01,0.0,244.0,0.0,0.0,0.0,0.0,0.0,3.333739893,0.01,0.0,771.0,0.0,0.0,-0.0,0.0,0.25,1.676025219,0.01,0.0,0.0,-0.49000000953674316,-0.019999999552965164,-0.00811767578125,-0.0023193359375,1.0235595703125,35.369998931884766,0.0,0.0,0.61468505859375,-0.4012298583984375,Waiting,0.0,0.125,-460361.0,0.0,0.0,0.0,0.0,0.0,
4.665394000000088,0.0,0.0,0.0,0.0,0.0,0.0,0.0,0.25,0.7897948410000001,0.01,0.0,0.0,0.0,0.0,-0.0,0.0,0.25,0.48706049700000004,0.01,0.0,244.0,0.0,0.0,0.0,0.0,0.0,3.333739893,0.01,0.0,771.0,0.0,0.0,-0.0,0.0,0.25,1.676025219,0.01,0.0,0.0,-0.49000000953674316,-0.019999999552965164,-0.009033203125,0.00213623046875,1.021240234375,35.369998931884766,0.0,0.0,0.61468505859375,-0.4012298583984375,Waiting,0.0,0.125,-460361.0,0.0,0.0,0.0,0.0,0.0,
4.728178000000073,0.0,0.0,0.0,0.0,0.0,0.0,0.0,0.25,0.7885741380000001,0.01,0.0,0.0,0.0,0.0,-0.0,0.0,0.25,0.48583979400000005,0.01,0.0,244.0,0.0,0.0,0.0,0.0,0.0,3.333739893,0.01,0.0,771.0,0.0,0.0,-0.0,0.0,0.25,1.676025219,0.01,0.0,0.0,-0.49000000953674316,-0.019999999552965164,-0.011474609375,-0.0010986328125,1.02410888671875,35.369998931884766,0.0,-2.0,0.61468505859375,-0.4012298583984375,Waiting,0.0,0.125,-460361.0,0.0,0.0,0.0,0.0,0.0,
4.790009000000079,0.0,0.0,0.0,0.0,0.0,0.0,0.0,0.25,0.7885741380000001,0.01,0.0,0.0,0.0,0.0,-0.0,0.0,0.25,0.48583979400000005,0.01,0.0,244.0,0.0,0.0,0.0,0.0,0.0,3.334960596,0.01,0.0,771.0,0.0,0.0,-0.0,0.0,0.25,1.677245922,0.01,0.0,0.0,-0.49000000953674316,-0.019999999552965164,-0.0120849609375,0.0010986328125,1.02081298828125,35.369998931884766,0.0,-3.0,0.61468505859375,-0.4012298583984375,Waiting,0.0,0.125,-460361.0,0.0,0.0,0.0,0.0,0.0,
4.856181000000099,0.0,0.0,0.0,0.0,0.0,0.0,0.0,0.25,0.7897948410000001,0.01,0.0,0.0,0.0,0.0,-0.0,0.0,0.25,0.48583979400000005,0.01,0.0,244.0,0.0,0.0,0.0,0.0,0.0,3.334960596,0.01,0.0,771.0,0.0,0.0,-0.0,0.0,0.25,1.677245922,0.01,0.0,0.0,-0.49000000953674316,-0.019999999552965164,-0.00909423828125,0.001220703125,1.02154541015625,35.349998474121094,0.0,0.0,0.61468505859375,-0.4012298583984375,Waiting,0.0,0.125,-460361.0,0.0,0.0,0.0,0.0,0.125,
4.923965000000083,0.0,0.0,0.0,0.0,0.0,0.0,0.0,0.25,0.7885741380000001,0.01,0.0,0.0,0.0,0.0,-0.0,0.0,0.25,0.48706049700000004,0.01,0.0,244.0,0.0,0.0,0.0,0.0,0.0,3.334960596,0.01,0.0,771.0,0.0,0.0,-0.0,0.0,0.25,1.676025219,0.01,0.0,0.0,-0.49000000953674316,-0.019999999552965164,-0.01153564453125,-6.103515625E-4,1.02252197265625,35.349998474121094,0.0,-2.0,0.61468505859375,-0.4012298583984375,Waiting,0.0,0.125,-460361.0,0.0,0.0,0.0,0.0,0.0,
4.987839000000153,0.0,0.0,0.0,0.0,0.0,0.0,0.0,0.25,0.7885741380000001,0.01,0.0,0.0,0.0,0.0,-0.0,0.0,0.25,0.48583979400000005,0.01,0.0,244.0,0.0,0.0,0.0,0.0,0.0,3.334960596,0.01,0.0,771.0,0.0,0.0,-0.0,0.0,0.25,1.676025219,0.01,0.0,0.0,-0.49000000953674316,-0.019999999552965164,-0.0086669921875,1.8310546875E-4,1.02154541015625,35.349998474121094,0.0,0.0,0.61468505859375,-0.4012298583984375,Waiting,0.0,0.125,-460361.0,0.0,0.0,0.0,0.0,0.0,
5.050089000000153,0.0,0.0,0.0,0.0,0.0,0.0,0.0,0.25,0.7885741380000001,0.01,0.0,0.0,0.0,0.0,-0.0,0.0,0.25,0.48706049700000004,0.01,0.0,244.0,0.0,0.0,0.0,0.0,0.0,3.333739893,0.01,0.0,771.0,0.0,0.0,-0.0,0.0,0.25,1.676025219,0.01,0.0,0.0,-0.47999998927116394,-0.019999999552965164,-0.00921630859375,-3.0517578125E-4,1.0234375,35.349998474121094,0.0,0.0,0.61468505859375,-0.4012298583984375,Waiting,0.0,0.125,-460361.0,0.0,0.0,0.0,0.0,0.0,
5.110624000000069,0.0,0.0,0.0,0.0,0.0,0.0,0.0,0.25,0.7897948410000001,0.01,0.0,0.0,0.0,0.0,-0.0,0.0,0.25,0.48583979400000005,0.01,0.0,244.0,0.0,0.0,0.0,0.0,0.0,3.333739893,0.01,0.0,771.0,0.0,0.0,-0.0,0.0,0.25,1.676025219,0.01,0.0,0.0,-0.49000000953674316,-0.019999999552965164,-0.0079345703125,-1.220703125E-4,1.0218505859375,35.349998474121094,0.0,0.0,0.61468505859375,-0.4012298583984375,Waiting,0.0,0.125,-460361.0,0.0,0.0,0.0,0.0,0.0,
5.170924000000116,0.0,0.0,0.0,0.0,0.0,0.0,0.0,0.25,0.7910155440000001,0.01,0.0,0.0,0.0,0.0,-0.0,0.0,0.25,0.48706049700000004,0.01,0.0,244.0,0.0,0.0,0.0,0.0,0.0,3.333739893,0.01,0.0,771.0,0.125,0.0,-0.0,0.0,0.25,1.677245922,0.01,0.0,0.0,-0.5,-0.019999999552965164,-0.00811767578125,-4.2724609375E-4,1.01690673828125,35.349998474121094,0.0,0.0,0.61468505859375,-0.4012298583984375,Waiting,0.0,0.125,-460361.0,0.0,0.0,0.0,0.0,0.0,
5.233096000000136,0.0,0.0,0.0,0.0,0.0,0.0,0.0,0.25,0.7885741380000001,0.01,0.0,0.0,0.0,0.0,-0.0,0.0,0.25,0.48583979400000005,0.01,0.0,244.0,0.0,0.0,0.0,0.0,0.0,3.333739893,0.01,0.0,771.0,0.0,0.0,-0.0,0.0,0.25,1.677245922,0.01,0.0,0.0,-0.5,-0.019999999552965164,-0.00811767578125,0.00152587890625,1.02362060546875,35.349998474121094,0.0,0.0,0.61468505859375,-0.4012298583984375,Waiting,0.0,0.125,-460361.0,0.0,0.0,0.0,0.0,0.0,
5.295349000000162,0.0,0.0,0.0,0.0,0.0,0.0,0.0,0.25,0.7885741380000001,0.01,0.0,0.0,0.0,0.0,-0.0,0.0,0.25,0.48706049700000004,0.01,0.0,244.0,0.0,0.0,0.0,0.0,0.0,3.333739893,0.01,0.0,771.0,0.0,0.0,-0.0,0.0,0.25,1.676025219,0.01,0.0,0.0,-0.49000000953674316,-0.019999999552965164,-0.00811767578125,0.00238037109375,1.018310546875,35.349998474121094,0.0,0.0,0.61468505859375,-0.4012298583984375,Waiting,0.0,0.125,-460361.0,0.0,0.0,0.0,0.0,0.0,
5.362278000000166,0.0,0.0,0.0,0.0,0.0,0.0,0.0,0.25,0.7885741380000001,0.01,0.0,0.0,0.0,0.0,-0.0,0.0,0.25,0.48706049700000004,0.01,0.0,244.0,0.0,0.0,0.0,0.0,0.0,3.333739893,0.01,0.0,771.0,0.0,0.0,-0.0,0.0,0.25,1.676025219,0.01,0.0,0.0,-0.49000000953674316,-0.019999999552965164,-0.0098876953125,0.00201416015625,1.02130126953125,35.36000061035156,0.0,-1.0,0.61468505859375,-0.4012298583984375,Waiting,0.0,0.125,-460361.0,0.0,0.0,0.0,0.0,0.0,
5.425829000000143,0.0,0.0,0.0,0.0,0.0,0.0,0.0,0.25,0.7885741380000001,0.01,-0.0012207030000004337,0.0,0.0,0.0,-0.0,0.0,0.25,0.48706049700000004,0.01,0.0,244.0,0.0,0.0,0.0,0.0,0.0,3.334960596,0.01,0.0,771.0,0.0,0.0,-0.0,0.0,0.25,1.676025219,0.01,0.0,0.0,-0.49000000953674316,-0.019999999552965164,-0.008056640625,-0.00189208984375,1.02313232421875,35.36000061035156,0.0,0.0,0.61468505859375,-0.4012298583984375,Waiting,0.0,0.125,-460361.0,0.0,0.0,0.0,0.0,0.0,
5.486633000000147,0.0,0.0,0.0,0.0,0.0,0.0,0.0,0.25,0.7897948410000001,0.01,0.0012207030000004337,0.0,0.0,0.0,-0.0,0.0,0.25,0.48583979400000005,0.01,0.0,244.0,0.0,0.0,0.0,0.0,0.0,3.334960596,0.01,0.0,771.0,0.0,0.0,-0.0,0.0,0.25,1.676025219,0.01,0.0,0.0,-0.49000000953674316,-0.019999999552965164,-0.0086669921875,-0.0032958984375,1.02471923828125,35.36000061035156,0.0,0.0,0.61468505859375,-0.4012298583984375,Waiting,0.0,0.125,-460361.0,0.0,0.0,0.0,0.0,0.0,
5.549816000000108,0.0,0.0,0.0,0.0,0.0,0.0,0.0,0.25,0.7885741380000001,0.01,0.0,0.0,0.0,0.0,-0.0,0.0,0.25,0.48706049700000004,0.01,0.0,244.0,0.0,0.0,0.0,0.0,0.0,3.334960596,0.01,0.0,771.0,0.0,0.0,-0.0,0.0,0.25,1.676025219,0.01,0.0,0.0,-0.49000000953674316,-0.019999999552965164,-0.008056640625,-0.00103759765625,1.02545166015625,35.36000061035156,0.0,0.0,0.61468505859375,-0.4012298583984375,Waiting,0.0,0.125,-460361.0,0.0,0.0,0.0,0.0,0.0,
5.614666000000201,0.0,0.0,0.0,0.0,0.0,0.0,0.0,0.25,0.7897948410000001,0.01,0.0,0.0,0.0,0.0,-0.0,0.0,0.25,0.48583979400000005,0.01,0.0,244.0,0.0,0.0,0.0,0.0,0.0,3.334960596,0.01,0.0,771.0,0.0,0.0,-0.0,0.0,0.25,1.6809080310000002,0.01,0.0,0.0,-0.5,-0.019999999552965164,-0.00750732421875,-0.00146484375,1.0230712890625,35.36000061035156,0.0,1.0,0.61468505859375,-0.4012298583984375,Waiting,0.0,0.125,-460361.0,0.0,0.0,0.0,0.0,0.125,
5.6751750000000465,0.0,0.0,0.0,0.0,0.0,0.0,0.0,0.25,0.7885741380000001,0.01,0.0,0.0,0.0,0.0,-0.0,0.0,0.25,0.48583979400000005,0.01,0.0,244.0,0.0,0.0,0.0,0.0,0.0,3.333739893,0.01,0.0,771.0,0.0,0.0,-0.0,0.0,0.25,1.676025219,0.01,0.0,0.0,-0.5,-0.019999999552965164,-0.00885009765625,0.00189208984375,1.023193359375,35.36000061035156,0.0,0.0,0.61468505859375,-0.4012298583984375,Waiting,0.0,0.125,-460361.0,0.0,0.0,0.0,0.0,0.125,
5.734664000000106,0.0,0.0,0.0,0.0,0.0,0.0,0.0,0.25,0.7885741380000001,0.01,0.0,0.0,0.0,0.0,-0.0,0.0,0.25,0.48706049700000004,0.01,0.0,244.0,0.0,0.0,0.0,0.0,0.0,3.334960596,0.01,0.0,771.0,0.0,0.0,-0.0,0.0,0.25,1.677245922,0.01,0.0,0.0,-0.5,-0.019999999552965164,-0.00933837890625,-2.44140625E-4,1.01837158203125,35.36000061035156,0.0,0.0,0.61468505859375,-0.4012298583984375,Waiting,0.0,0.125,-460361.0,0.0,0.0,0.0,0.0,0.0,
5.796124000000069,0.0,0.0,0.0,0.0,0.0,0.0,0.0,0.25,0.7885741380000001,0.01,0.0,0.0,0.0,0.0,-0.0,0.0,0.25,0.48583979400000005,0.01,0.0,244.0,0.0,0.0,0.0,0.0,0.0,3.333739893,0.01,0.0,771.0,0.0,0.0,-0.0,0.0,0.25,1.676025219,0.01,0.0,0.0,-0.5,-0.019999999552965164,-0.0108642578125,0.00177001953125,1.02020263671875,35.36000061035156,0.0,-1.0,0.61468505859375,-0.4012298583984375,Waiting,0.0,0.125,-460361.0,0.0,0.0,0.0,0.0,0.0,
5.864771000000182,0.0,0.0,0.0,0.0,0.0,0.0,0.0,0.25,0.7897948410000001,0.01,0.0,0.0,0.0,0.0,-0.0,0.0,0.25,0.48706049700000004,0.01,0.0,244.0,0.0,0.0,0.0,0.0,0.0,3.333739893,0.01,0.0,771.0,0.0,0.0,-0.0,0.0,0.25,1.676025219,0.01,0.0,0.0,-0.5,-0.019999999552965164,-0.008056640625,-0.00225830078125,1.02117919921875,35.33000183105469,0.0,0.0,0.61468505859375,-0.4012298583984375,Waiting,0.0,0.125,-460361.0,0.0,0.0,0.0,0.0,0.0,
5.925003000000026,0.0,0.0,0.0,0.0,0.0,0.0,0.0,0.25,0.7885741380000001,0.01,0.0,0.0,0.0,0.0,-0.0,0.0,0.25,0.48583979400000005,0.01,0.0,244.0,0.0,0.0,0.0,0.0,0.0,3.334960596,0.01,0.0,771.0,0.0,0.0,-0.0,0.0,0.25,1.677245922,0.01,0.0,0.0,-0.5,-0.019999999552965164,-0.00799560546875,-5.4931640625E-4,1.02105712890625,35.33000183105469,0.0,0.0,0.61468505859375,-0.4012298583984375,Waiting,0.0,0.125,-460361.0,0.0,0.0,0.0,0.0,0.0,
5.986524000000209,0.0,0.0,0.0,0.0,0.0,0.0,0.0,0.25,0.7885741380000001,0.01,0.0,0.0,0.0,0.0,-0.0,0.0,0.25,0.48706049700000004,0.01,0.0,244.0,0.0,0.0,0.0,0.0,0.0,3.333739893,0.01,0.0,771.0,0.0,0.0,-0.0,0.0,0.25,1.676025219,0.01,0.0,0.0,-0.5,-0.019999999552965164,-0.01068115234375,0.0025634765625,1.016357421875,35.33000183105469,0.0,-1.0,0.61468505859375,-0.4012298583984375,Waiting,0.0,0.125,-460361.0,0.0,0.0,0.0,0.0,0.0,
6.051085000000196,0.0,0.0,0.0,0.0,0.0,0.0,0.0,0.25,0.7897948410000001,0.01,0.0,0.0,0.0,0.0,-0.0,0.0,0.25,0.48583979400000005,0.01,0.0,244.0,0.0,0.0,0.0,0.0,0.0,3.334960596,0.01,0.0,771.0,0.0,0.0,-0.0,0.0,0.25,1.677245922,0.01,0.0,0.0,-0.5099999904632568,-0.019999999552965164,-0.00543212890625,-0.0010986328125,1.01788330078125,35.33000183105469,0.0,3.0,0.61468505859375,-0.4012298583984375,Waiting,0.0,0.125,-460361.0,0.0,0.0,0.0,0.0,0.0,
6.110789000000106,0.0,0.0,0.0,0.0,0.0,0.0,0.0,0.25,0.7885741380000001,0.01,0.0,0.0,0.0,0.0,-0.0,0.0,0.25,0.48706049700000004,0.01,0.0,244.0,0.0,0.0,0.0,0.0,0.0,3.334960596,0.01,0.0,771.0,0.125,0.0,-0.0,0.0,0.25,1.676025219,0.01,0.0,0.0,-0.5099999904632568,-0.019999999552965164,-0.01068115234375,-0.00323486328125,1.02105712890625,35.33000183105469,0.0,-1.0,0.61468505859375,-0.4012298583984375,Waiting,0.0,0.125,-460361.0,0.0,0.0,0.0,0.0,0.125,
6.170015000000131,0.0,0.0,0.0,0.0,0.0,0.0,0.0,0.25,0.7885741380000001,0.01,0.0,0.0,0.0,0.0,-0.0,0.0,0.25,0.48706049700000004,0.01,0.0,244.0,0.0,0.0,0.0,0.0,0.0,3.334960596,0.01,0.0,771.0,0.0,0.0,-0.0,0.0,0.25,1.677245922,0.01,0.0,0.0,-0.5099999904632568,-0.019999999552965164,-0.00518798828125,-0.00335693359375,1.02276611328125,35.33000183105469,0.0,3.0,0.61468505859375,-0.4012298583984375,Waiting,0.0,0.125,-460361.0,0.0,0.0,0.0,0.0,0.0,
6.229707000000169,0.0,0.0,0.0,0.0,0.0,0.0,0.0,0.25,0.7885741380000001,0.01,0.0,0.0,0.0,0.0,-0.0,0.0,0.25,0.48706049700000004,0.01,0.0,244.0,0.0,0.0,0.0,0.0,0.0,3.334960596,0.01,0.0,771.0,0.0,0.0,-0.0,0.0,0.25,1.677245922,0.01,0.0,0.0,-0.5099999904632568,-0.019999999552965164,-0.01019287109375,-6.7138671875E-4,1.0198974609375,35.33000183105469,0.0,-1.0,0.61468505859375,-0.4012298583984375,Waiting,0.0,0.125,-460361.0,0.0,0.0,0.0,0.0,0.125,
6.2904660000000145,0.0,0.0,0.0,0.0,0.0,0.0,0.0,0.25,0.7885741380000001,0.01,0.0,0.0,0.0,0.0,-0.0,0.0,0.25,0.48706049700000004,0.01,0.0,244.0,0.0,0.0,0.0,0.0,0.0,3.333739893,0.01,0.0,771.0,0.0,0.0,-0.0,0.0,0.25,1.676025219,0.01,0.0,0.0,-0.5099999904632568,-0.019999999552965164,-0.0101318359375,4.8828125E-4,1.01837158203125,35.33000183105469,0.0,-1.0,0.61468505859375,-0.4012298583984375,Waiting,0.0,0.125,-460361.0,0.0,0.0,0.0,0.0,0.0,
6.3545120000001045,0.0,0.0,0.0,0.0,0.0,0.0,0.0,0.25,0.7897948410000001,0.01,0.0,0.0,0.0,0.0,-0.0,0.0,0.25,0.48706049700000004,0.01,0.0,244.0,0.0,0.0,0.0,0.0,0.0,3.333739893,0.01,0.0,771.0,0.0,0.0,-0.0,0.0,0.25,1.677245922,0.01,0.0,0.0,-0.5099999904632568,-0.019999999552965164,-0.01116943359375,-0.00177001953125,1.01812744140625,35.33000183105469,0.0,-2.0,0.61468505859375,-0.4012298583984375,Waiting,0.0,0.125,-460361.0,0.0,0.0,0.0,0.0,0.0,
6.414040000000037,0.0,0.0,0.0,0.0,0.0,0.0,0.0,0.25,0.7885741380000001,0.01,0.0,0.0,0.0,0.0,-0.0,0.0,0.25,0.48706049700000004,0.01,0.0,244.0,0.0,0.0,0.0,0.0,0.0,3.333739893,0.01,0.0,771.0,0.125,0.0,-0.0,0.0,0.25,1.676025219,0.01,0.0,0.0,-0.5099999904632568,-0.019999999552965164,-0.00665283203125,9.765625E-4,1.02471923828125,35.33000183105469,0.0,2.0,0.61468505859375,-0.4012298583984375,Waiting,0.0,0.125,-460361.0,0.0,0.0,0.0,0.0,0.0,
6.474970000000205,0.0,0.0,0.0,0.0,0.0,0.0,0.0,0.25,0.7885741380000001,0.01,0.0,0.0,0.0,0.0,-0.0,0.0,0.25,0.48706049700000004,0.01,0.0,244.0,0.0,0.0,0.0,0.0,0.0,3.334960596,0.01,0.0,771.0,0.0,0.0,-0.0,0.0,0.25,1.676025219,0.01,0.0,0.0,-0.5099999904632568,-0.019999999552965164,-0.009765625,-2.44140625E-4,1.02294921875,35.33000183105469,0.0,0.0,0.61468505859375,-0.4012298583984375,Waiting,0.0,0.125,-460361.0,0.0,0.0,0.0,0.0,0.0,
6.5362669999999925,0.0,0.0,0.0,0.0,0.0,0.0,0.0,0.25,0.7885741380000001,0.01,0.0,0.0,0.0,0.0,-0.0,0.0,0.25,0.48706049700000004,0.01,0.0,244.0,0.0,0.0,0.0,0.0,0.0,3.333739893,0.01,0.0,771.0,0.0,0.0,-0.0,0.0,0.25,1.6809080310000002,0.01,0.0,0.0,-0.5099999904632568,-0.019999999552965164,-0.0096435546875,-0.00115966796875,1.0194091796875,35.33000183105469,0.0,0.0,0.61468505859375,-0.4012298583984375,Waiting,0.0,0.125,-460361.0,0.0,0.0,0.0,0.0,0.0,
6.597185000000056,0.0,0.0,0.0,0.0,0.0,0.0,0.0,0.25,0.7885741380000001,0.01,0.0,0.0,0.0,0.0,-0.0,0.0,0.25,0.48583979400000005,0.01,0.0,244.0,0.0,0.0,0.0,0.0,0.0,3.334960596,0.01,0.0,771.0,0.0,0.0,-0.0,0.0,0.25,1.676025219,0.01,0.0,0.0,-0.5099999904632568,-0.029999999329447746,-0.00958251953125,0.00286865234375,1.02252197265625,35.33000183105469,0.0,0.0,0.61468505859375,-0.4012298583984375,Waiting,0.0,0.125,-460361.0,0.0,0.0,0.0,0.0,0.0,
6.665867000000086,0.0,0.0,0.0,0.0,0.0,0.0,0.0,0.25,0.7885741380000001,0.01,0.0,0.0,0.0,0.0,-0.0,0.0,0.25,0.48706049700000004,0.01,0.0,244.0,0.0,0.0,0.0,0.0,0.0,3.333739893,0.01,0.0,771.0,0.0,0.0,-0.0,0.0,0.25,1.676025219,0.01,0.0,0.0,-0.5099999904632568,-0.029999999329447746,-0.0079345703125,-3.0517578125E-4,1.02777099609375,35.33000183105469,0.0,1.0,0.61468505859375,-0.4012298583984375,Waiting,0.0,0.125,-460361.0,0.0,0.0,0.0,0.0,0.0,
6.726722000000067,0.0,0.0,0.0,0.0,0.0,0.0,0.0,0.25,0.7885741380000001,0.01,0.0,0.0,0.0,0.0,-0.0,0.0,0.25,0.48583979400000005,0.01,0.0,244.0,0.0,0.0,0.0,0.0,0.0,3.334960596,0.01,0.0,771.0,0.0,0.0,-0.0,0.0,0.25,1.676025219,0.01,0.0,0.0,-0.5,-0.029999999329447746,-0.0086669921875,6.7138671875E-4,1.01763916015625,35.33000183105469,0.0,0.0,0.61468505859375,-0.4012298583984375,Waiting,0.0,0.125,-460361.0,0.0,0.0,0.0,0.0,0.0,
6.787881000000052,0.0,0.0,0.0,0.0,0.0,0.0,0.0,0.25,0.7885741380000001,0.01,0.0,0.0,0.0,0.0,-0.0,0.0,0.25,0.48583979400000005,0.01,0.0,244.0,0.0,0.0,0.0,0.0,0.0,3.333739893,0.01,0.0,771.0,0.0,0.0,-0.0,0.0,0.25,1.677245922,0.01,0.0,0.0,-0.5,-0.029999999329447746,-0.0086669921875,4.8828125E-4,1.019287109375,35.33000183105469,0.0,0.0,0.61468505859375,-0.4012298583984375,Waiting,0.0,0.125,-460361.0,0.0,0.0,0.0,0.0,0.0,
6.850173000000185,0.0,0.0,0.0,0.0,0.0,0.0,0.0,0.25,0.7885741380000001,0.01,0.0,0.0,0.0,0.0,-0.0,0.0,0.25,0.48706049700000004,0.01,0.0,244.0,0.0,0.0,0.0,0.0,0.0,3.334960596,0.01,0.0,771.0,0.0,0.0,-0.0,0.0,0.25,1.676025219,0.01,0.0,0.0,-0.5,-0.029999999329447746,-0.00909423828125,-0.002197265625,1.01715087890625,35.349998474121094,0.0,-1.0,0.61468505859375,-0.4012298583984375,Waiting,0.0,0.125,-460361.0,0.0,0.0,0.0,0.0,0.0,
6.911052000000142,0.0,0.0,0.0,0.0,0.0,0.0,0.0,0.25,0.7885741380000001,0.01,0.0,0.0,0.0,0.0,-0.0,0.0,0.25,0.48706049700000004,0.01,0.0,244.0,0.0,0.0,0.0,0.0,0.0,3.334960596,0.01,0.0,771.0,0.125,0.0,-0.0,0.0,0.25,1.676025219,0.01,0.0,0.0,-0.5,-0.029999999329447746,-0.01043701171875,-8.544921875E-4,1.018798828125,35.349998474121094,0.0,-1.0,0.61468505859375,-0.4012298583984375,Waiting,0.0,0.125,-460361.0,0.0,0.0,0.0,0.0,0.0,
6.974441000000108,0.0,0.0,0.0,0.0,0.0,0.0,0.0,0.25,0.7885741380000001,0.01,0.0,0.0,0.0,0.0,-0.0,0.0,0.25,0.48706049700000004,0.01,0.0,244.0,0.0,0.0,0.0,0.0,0.0,3.333739893,0.01,0.0,771.0,0.125,0.0,-0.0,0.0,0.25,1.677245922,0.01,0.0,0.0,-0.5,-0.029999999329447746,-0.009033203125,0.00323486328125,1.02197265625,35.349998474121094,0.0,0.0,0.61468505859375,-0.4012298583984375,Waiting,0.0,0.125,-460361.0,0.0,0.0,0.0,0.0,0.0,
7.035628000000026,0.0,0.0,0.0,0.0,0.0,0.0,0.0,0.25,0.7885741380000001,0.01,0.0,0.0,0.0,0.0,-0.0,0.0,0.25,0.48706049700000004,0.01,0.0,244.0,0.0,0.0,0.0,0.0,0.0,3.333739893,0.01,0.0,771.0,0.0,0.0,-0.0,0.0,0.25,1.676025219,0.01,0.0,-0.009999999776482582,-0.5,-0.029999999329447746,-0.00909423828125,0.0018310546875,1.018310546875,35.349998474121094,0.0,0.0,0.61468505859375,-0.4012298583984375,Waiting,0.0,0.125,-460361.0,0.0,0.0,0.0,0.0,0.0,
7.097567000000039,0.0,0.0,0.0,0.0,0.0,0.0,0.0,0.25,0.7897948410000001,0.01,0.0,0.0,0.0,0.0,-0.0,0.0,0.25,0.48706049700000004,0.01,0.0,244.0,0.0,0.0,0.0,0.0,0.0,3.334960596,0.01,0.0,771.0,0.0,0.0,-0.0,0.0,0.25,1.676025219,0.01,0.0,-0.009999999776482582,-0.5,-0.029999999329447746,-0.01055908203125,0.00115966796875,1.01531982421875,35.349998474121094,0.0,-1.0,0.61468505859375,-0.4012298583984375,Waiting,0.0,0.125,-460361.0,0.0,0.0,0.0,0.0,0.125,
7.164688000000082,0.0,0.0,0.0,0.0,0.0,0.0,0.0,0.25,0.7885741380000001,0.01,0.0,0.0,0.0,0.0,-0.0,0.0,0.25,0.48583979400000005,0.01,0.0,244.0,0.0,0.0,0.0,0.0,0.0,3.333739893,0.01,0.0,771.0,0.0,0.0,-0.0,0.0,0.25,1.676025219,0.01,0.0,-0.009999999776482582,-0.5099999904632568,-0.03999999910593033,-0.0113525390625,0.00286865234375,1.01611328125,35.349998474121094,0.0,-2.0,0.61468505859375,-0.4012298583984375,Waiting,0.0,0.125,-460361.0,0.0,0.0,0.0,0.0,0.0,
7.2262180000001095,0.0,0.0,0.0,0.0,0.0,0.0,0.0,0.25,0.7897948410000001,0.01,0.0,0.0,0.0,0.0,-0.0,0.0,0.25,0.48583979400000005,0.01,0.0,244.0,0.0,0.0,0.0,0.0,0.0,3.333739893,0.01,0.0,771.0,0.0,0.0,-0.0,0.0,0.25,1.676025219,0.01,0.0,-0.009999999776482582,-0.5099999904632568,-0.03999999910593033,-0.0107421875,-6.103515625E-4,1.019775390625,35.349998474121094,0.0,-1.0,0.61468505859375,-0.4012298583984375,Waiting,0.0,0.125,-460361.0,0.0,0.0,0.0,0.0,0.0,
7.288725000000093,0.0,0.0,0.0,0.0,0.0,0.0,0.0,0.25,0.7885741380000001,0.01,-0.0012207030000004337,0.0,0.0,0.0,-0.0,0.0,0.25,0.48706049700000004,0.01,0.0,244.0,0.0,0.0,0.0,0.0,0.0,3.333739893,0.01,0.0,771.0,0.0,0.0,-0.0,0.0,0.25,1.676025219,0.01,0.0,-0.009999999776482582,-0.5099999904632568,-0.03999999910593033,-0.0084228515625,0.00146484375,1.02020263671875,35.349998474121094,0.0,0.0,0.61468505859375,-0.4012298583984375,Waiting,0.0,0.125,-460361.0,0.0,0.0,0.0,0.0,0.0,
7.353472000000067,0.0,0.0,0.0,0.0,0.0,0.0,0.0,0.25,0.7897948410000001,0.01,0.0012207030000004337,0.0,0.0,0.0,-0.0,0.0,0.25,0.48706049700000004,0.01,0.0,244.0,0.0,0.0,0.0,0.0,0.0,3.334960596,0.01,0.0,771.0,0.0,0.0,-0.0,0.0,0.25,1.676025219,0.01,0.0,-0.009999999776482582,-0.5099999904632568,-0.03999999910593033,-0.00775146484375,-9.1552734375E-4,1.0201416015625,35.36000061035156,0.0,1.0,0.61468505859375,-0.4012298583984375,Waiting,0.0,0.125,-460361.0,0.0,0.0,0.0,0.0,0.0,
7.4149160000002015,0.0,0.0,0.0,0.0,0.0,0.0,0.0,0.25,0.7897948410000001,0.01,0.0,0.0,0.0,0.0,-0.0,0.0,0.25,0.48706049700000004,0.01,0.0,244.0,0.0,0.0,0.0,0.0,0.0,3.333739893,0.01,0.0,771.0,0.0,0.0,-0.0,0.0,0.25,1.677245922,0.01,0.0,-0.009999999776482582,-0.5099999904632568,-0.03999999910593033,-0.0108642578125,-0.0010986328125,1.0247802734375,35.36000061035156,0.0,-1.0,0.61468505859375,-0.4012298583984375,Waiting,0.0,0.125,-460361.0,0.0,0.0,0.0,0.0,0.0,
7.47560400000005,0.0,0.0,0.0,0.0,0.0,0.0,0.0,0.25,0.7885741380000001,0.01,0.0,0.0,0.0,0.0,-0.0,0.0,0.25,0.48583979400000005,0.01,0.0,244.0,0.0,0.0,0.0,0.0,0.0,3.334960596,0.01,0.0,771.0,0.0,0.0,-0.0,0.0,0.25,1.676025219,0.01,0.0,-0.009999999776482582,-0.5099999904632568,-0.03999999910593033,-0.0106201171875,-5.4931640625E-4,1.0211181640625,35.36000061035156,0.0,-1.0,0.61468505859375,-0.4012298583984375,Waiting,0.0,0.125,-460361.0,0.0,0.0,0.0,0.0,0.125,
7.535564000000013,0.0,0.0,0.0,0.0,0.0,0.0,0.0,0.25,0.7885741380000001,0.01,0.0,0.0,0.0,0.0,-0.0,0.0,0.25,0.48706049700000004,0.01,0.0,244.0,0.0,0.0,0.0,0.0,0.0,3.333739893,0.01,0.0,771.0,0.125,0.0,-0.0,0.0,0.25,1.676025219,0.01,0.0,-0.009999999776482582,-0.5099999904632568,-0.03999999910593033,-0.00860595703125,-7.32421875E-4,1.0240478515625,35.36000061035156,0.0,0.0,0.61468505859375,-0.4012298583984375,Waiting,0.0,0.125,-460361.0,0.0,0.0,0.0,0.0,0.0,
7.595212000000058,0.0,0.0,0.0,0.0,0.0,0.0,0.0,0.25,0.7885741380000001,0.01,0.0,0.0,0.0,0.0,-0.0,0.0,0.25,0.48706049700000004,0.01,0.0,244.0,0.0,0.0,0.0,0.0,0.0,3.333739893,0.01,0.0,771.0,0.0,0.0,-0.0,0.0,0.25,1.677245922,0.01,0.0,-0.009999999776482582,-0.5099999904632568,-0.03999999910593033,-0.00469970703125,6.103515625E-4,1.02252197265625,35.36000061035156,0.0,4.0,0.61468505859375,-0.4012298583984375,Waiting,0.0,0.125,-460361.0,0.0,0.0,0.0,0.0,0.125,
7.66254700000002,0.0,0.0,0.0,0.0,0.0,0.0,0.0,0.25,0.7897948410000001,0.01,0.0,0.0,0.0,0.0,-0.0,0.0,0.25,0.48706049700000004,0.01,0.0,244.0,0.0,0.0,0.0,0.0,0.0,3.333739893,0.01,0.0,771.0,0.0,0.0,-0.0,0.0,0.25,1.677245922,0.01,0.0,-0.009999999776482582,-0.5099999904632568,-0.03999999910593033,-0.00836181640625,-8.544921875E-4,1.021484375,35.36000061035156,0.0,0.0,0.61468505859375,-0.4012298583984375,Waiting,0.0,0.125,-460361.0,0.0,0.0,0.0,0.0,0.0,
7.725744000000181,0.0,0.0,0.0,0.0,0.0,0.0,0.0,0.25,0.7885741380000001,0.01,0.0,0.0,0.0,0.0,-0.0,0.0,0.25,0.48706049700000004,0.01,0.0,244.0,0.0,0.0,0.0,0.0,0.0,3.334960596,0.01,0.0,771.0,0.0,0.0,-0.0,0.0,0.25,1.677245922,0.01,0.0,-0.009999999776482582,-0.5099999904632568,-0.03999999910593033,-0.0089111328125,7.9345703125E-4,1.0218505859375,35.36000061035156,0.0,0.0,0.61468505859375,-0.4012298583984375,Waiting,0.0,0.125,-460361.0,0.0,0.0,0.0,0.0,0.0,
7.787241000000154,0.0,0.0,0.0,0.0,0.0,0.0,0.0,0.25,0.7885741380000001,0.01,0.0,0.0,0.0,0.0,-0.0,0.0,0.25,0.48706049700000004,0.01,0.0,244.0,0.0,0.0,0.0,0.0,0.0,3.334960596,0.01,0.0,771.0,0.0,0.0,-0.0,0.0,0.25,1.676025219,0.01,0.0,-0.009999999776482582,-0.5099999904632568,-0.03999999910593033,-0.01104736328125,-0.0030517578125,1.02008056640625,35.36000061035156,0.0,-1.0,0.61468505859375,-0.4012298583984375,Waiting,0.0,0.125,-460361.0,0.0,0.0,0.0,0.0,0.0,
7.850633000000147,0.0,0.0,0.0,0.0,0.0,0.0,0.0,0.25,0.7885741380000001,0.01,0.0,0.0,0.0,0.0,-0.0,0.0,0.25,0.48583979400000005,0.01,0.0,244.0,0.0,0.0,0.0,0.0,0.0,3.333739893,0.01,0.0,771.0,0.0,0.0,-0.0,0.0,0.25,1.676025219,0.01,0.0,-0.009999999776482582,-0.5099999904632568,-0.03999999910593033,-0.0074462890625,0.00128173828125,1.02008056640625,35.36000061035156,0.0,1.0,0.61468505859375,-0.4012298583984375,Waiting,0.0,0.125,-460361.0,0.0,0.0,0.0,0.0,0.0,
7.9127820000001226,0.0,0.0,0.0,0.0,0.0,0.0,0.0,0.25,0.7885741380000001,0.01,0.0,0.0,0.0,0.0,-0.0,0.0,0.25,0.48583979400000005,0.01,0.0,244.0,0.0,0.0,0.0,0.0,0.0,3.333739893,0.01,0.0,771.0,0.125,0.0,-0.0,0.0,0.25,1.677245922,0.01,0.0,0.0,-0.5099999904632568,-0.03999999910593033,-0.00775146484375,0.00128173828125,1.021484375,35.36000061035156,0.0,1.0,0.61468505859375,-0.4012298583984375,Waiting,0.0,0.125,-460361.0,0.0,0.0,0.0,0.0,0.0,
7.972785000000149,0.0,0.0,0.0,0.0,0.0,0.0,0.0,0.25,0.7885741380000001,0.01,0.0,0.0,0.0,0.0,-0.0,0.0,0.25,0.48706049700000004,0.01,0.0,244.0,0.0,0.0,0.0,0.0,0.0,3.333739893,0.01,0.0,771.0,0.0,0.0,-0.0,0.0,0.25,1.677245922,0.01,0.0,0.0,-0.5099999904632568,-0.03999999910593033,-0.00860595703125,-0.002197265625,1.02093505859375,35.36000061035156,0.0,0.0,0.61468505859375,-0.4012298583984375,Waiting,0.0,0.125,-460361.0,0.0,0.0,0.0,0.0,0.0,
8.032689000000014,0.0,0.0,0.0,0.0,0.0,0.0,0.0,0.25,0.7885741380000001,0.01,0.0,0.0,0.0,0.0,-0.0,0.0,0.25,0.48706049700000004,0.01,0.0,244.0,0.0,0.0,0.0,0.0,0.0,3.333739893,0.01,0.0,771.0,0.0,0.0,-0.0,0.0,0.25,1.676025219,0.01,0.0,0.0,-0.5099999904632568,-0.03999999910593033,-0.01116943359375,6.7138671875E-4,1.02093505859375,35.36000061035156,0.0,-2.0,0.61468505859375,-0.4012298583984375,Waiting,0.0,0.125,-460361.0,0.0,0.0,0.0,0.0,0.0,
8.09273900000006,0.0,0.0,0.0,0.0,0.0,0.0,0.0,0.25,0.7897948410000001,0.01,0.0,0.0,0.0,0.0,-0.0,0.0,0.25,0.48706049700000004,0.01,0.0,244.0,0.0,0.0,0.0,0.0,0.0,3.333739893,0.01,0.0,771.0,0.0,0.0,-0.0,0.0,0.25,1.676025219,0.01,0.0,0.0,-0.5099999904632568,-0.03999999910593033,-0.00665283203125,-0.00152587890625,1.01995849609375,35.36000061035156,0.0,2.0,0.61468505859375,-0.4012298583984375,Waiting,0.0,0.125,-460361.0,0.0,0.0,0.0,0.0,0.0,
8.158587000000058,0.0,0.0,0.0,0.0,0.0,0.0,0.0,0.25,0.7885741380000001,0.01,0.0,0.0,0.0,0.0,-0.0,0.0,0.25,0.48706049700000004,0.01,0.0,244.0,0.0,0.0,0.0,0.0,0.0,3.334960596,0.01,0.0,771.0,0.0,0.0,-0.0,0.0,0.25,1.676025219,0.01,0.0,0.0,-0.5099999904632568,-0.03999999910593033,-0.00982666015625,-9.765625E-4,1.01898193359375,35.36000061035156,0.0,0.0,0.61468505859375,-0.4012298583984375,Waiting,0.0,0.125,-460361.0,0.0,0.0,0.0,0.0,0.0,
8.221585000000196,0.0,0.0,0.0,0.0,0.0,0.0,0.0,0.25,0.7885741380000001,0.01,0.0,0.0,0.0,0.0,-0.0,0.0,0.25,0.48706049700000004,0.01,0.0,244.0,0.0,0.0,0.0,0.0,0.0,3.334960596,0.01,0.0,771.0,0.0,0.0,-0.0,0.0,0.25,1.677245922,0.01,0.0,0.0,-0.5099999904632568,-0.03999999910593033,-0.00823974609375,0.0,1.02142333984375,35.36000061035156,0.0,0.0,0.61468505859375,-0.4012298583984375,Waiting,0.0,0.125,-460361.0,0.0,0.0,0.0,0.0,0.0,
8.292777000000003,0.0,0.0,0.0,0.0,0.0,0.0,0.0,0.25,0.7885741380000001,0.01,0.0,0.0,0.0,0.0,-0.0,0.0,0.25,0.48706049700000004,0.01,0.0,244.0,0.0,0.0,0.0,0.0,0.0,3.333739893,0.01,0.0,771.0,0.0,0.0,-0.0,0.0,0.25,1.676025219,0.01,0.0,0.0,-0.5099999904632568,-0.03999999910593033,-0.01092529296875,-0.00250244140625,1.0185546875,35.36000061035156,0.0,-1.0,0.61468505859375,-0.4012298583984375,Waiting,0.0,0.125,-460361.0,0.0,0.0,0.0,0.0,0.0,
8.352773000000045,0.0,0.0,0.0,0.0,0.0,0.0,0.0,0.25,0.7885741380000001,0.01,0.0,0.0,0.0,0.0,-0.0,0.0,0.25,0.48706049700000004,0.01,0.0,244.0,0.0,0.0,0.0,0.0,0.0,3.333739893,0.01,0.0,771.0,0.0,0.0,-0.0,0.0,0.25,1.677245922,0.01,0.0,0.0,-0.5099999904632568,-0.03999999910593033,-0.00946044921875,7.32421875E-4,1.013671875,35.36000061035156,0.0,0.0,0.61468505859375,-0.4012298583984375,Waiting,0.0,0.125,-460361.0,0.0,0.0,0.0,0.0,0.0,
8.421798000000184,0.0,0.0,0.0,0.0,0.0,0.0,0.0,0.25,0.7885741380000001,0.01,0.0,0.0,0.0,0.0,-0.0,0.0,0.25,0.48706049700000004,0.01,0.0,244.0,0.0,0.0,0.0,0.0,0.0,3.333739893,0.01,0.0,771.0,0.0,0.0,-0.0,0.0,0.25,1.676025219,0.01,0.0,0.0,-0.5099999904632568,-0.03999999910593033,-0.00799560546875,-7.32421875E-4,1.02154541015625,35.349998474121094,0.0,1.0,0.61468505859375,-0.4012298583984375,Waiting,0.0,0.125,-460361.0,0.0,0.0,0.0,0.0,0.0,
8.48585300000012,0.0,0.0,0.0,0.0,0.0,0.0,0.0,0.25,0.7885741380000001,0.01,0.0,0.0,0.0,0.0,-0.0,0.0,0.25,0.48706049700000004,0.01,0.0,244.0,0.0,0.0,0.0,0.0,0.0,3.333739893,0.01,0.0,771.0,0.125,0.0,-0.0,0.0,0.25,1.677245922,0.01,0.0,0.0,-0.5099999904632568,-0.03999999910593033,-0.0076904296875,-2.44140625E-4,1.01824951171875,35.349998474121094,0.0,1.0,0.61468505859375,-0.4012298583984375,Waiting,0.0,0.125,-460361.0,0.0,0.0,0.0,0.0,0.0,
8.547354999999982,0.0,0.0,0.0,0.0,0.0,0.0,0.0,0.25,0.7885741380000001,0.01,0.0,0.0,0.0,0.0,-0.0,0.0,0.25,0.48706049700000004,0.01,0.0,244.0,0.0,0.0,0.0,0.0,0.0,3.333739893,0.01,0.0,771.0,0.0,0.0,-0.0,0.0,0.25,1.677245922,0.01,0.0,0.0,-0.5099999904632568,-0.03999999910593033,-0.00738525390625,-0.00250244140625,1.017578125,35.349998474121094,0.0,1.0,0.61468505859375,-0.4012298583984375,Waiting,0.0,0.125,-460361.0,0.0,0.0,0.0,0.0,0.0,
8.612300999999977,0.0,0.0,0.0,0.0,0.0,0.0,0.0,0.25,0.7897948410000001,0.01,0.0,0.0,0.0,0.0,-0.0,0.0,0.25,0.48706049700000004,0.01,0.0,244.0,0.0,0.0,0.0,0.0,0.0,3.333739893,0.01,0.0,771.0,0.125,0.0,-0.0,0.0,0.25,1.676025219,0.01,0.0,0.0,-0.5099999904632568,-0.03999999910593033,-0.009521484375,0.00140380859375,1.01947021484375,35.349998474121094,0.0,0.0,0.61468505859375,-0.4012298583984375,Waiting,0.0,0.125,-460361.0,0.0,0.0,0.0,0.0,0.0,
