Time,ClimberA1,ClimberA2,FRpos,FRCurrent,FRspeed,FRsetpoint,FRApos,FRACurrent,FREncpos,FREncSetpoint,FREncSpeed,FLpos,FLCurrent,FLspeed,FLsetpoint,FLApos,FLACurrent,FLEncpos,FLEncSetpoint,FLEncSpeed,BRpos,BRCurrent,BRspeed,BRsetpoint,BRApos,BRACurrent,BREncpos,BREncSetpoint,BREncSpeed,BLpos,BLCurrent,BLspeed,BLsetpoint,BLApos,BLACurrent,BLEncpos,BLEncSetpoint,BLEncSpeed,navx_Pitch,navx_Roll,navx_Yaw,navx_XAcc,navx_YAcc,navx_ZAcc,navx_Temp,navx_Bar,navx_Alt,navx_XDis,navx_YDis,GearPlacerState,ShootOutputV,ShootOutputCurrent,ShootEncPos,ShootEncVelocity,ShootSpeed,ShootSetpoint,CarouselSetpoint,CarouselCurrent,
0.25418699999999805,0.0,0.0,0.0,0.0,0.0,0.0,0.0,0.0,0.032958981,0.01,0.0,0.0,0.0,0.0,0.0,0.0,0.0,0.717773364,0.01,0.0,0.0,0.0,0.0,0.0,0.0,0.0,4.853515128000001,0.01,0.0,0.0,0.0,0.0,0.0,0.0,0.0,2.762450889,0.01,0.0,0.8600000143051147,0.5799999833106995,-15.359999656677246,0.01519775390625,0.01837158203125,1.01708984375,24.170000076293945,0.0,3.0,0.0012969970703125,-1.52587890625E-4,Waiting,0.0,0.0,0.0,0.0,0.0,0.0,0.0,0.0,
0.3090919999999969,0.0,0.0,0.0,0.0,0.0,0.0,0.0,0.0,0.028076169,0.0,1.2169589810000008,0.0,0.0,0.0,-0.0,0.0,2.625,0.731201097,0.0,-1.2044473390000006,0.0,0.0,0.0,0.0,0.0,0.0,4.854735831,0.0,4.917515128000001,0.0,0.0,0.0,-0.0,0.0,0.0,2.767333701,0.0,4.839950889,0.8600000143051147,0.5799999833106995,-15.359999656677246,0.00994873046875,0.013671875,1.01458740234375,24.170000076293945,0.0,0.0,0.0012969970703125,-1.52587890625E-4,Waiting,0.0,0.0,0.0,0.0,0.0,0.0,0.0,0.0,
0.33570700000000214,0.0,0.0,0.0,0.0,0.0,0.0,0.0,3.125,4.838866692,0.0,1.2169589810000008,0.0,0.0,0.0,-0.0,0.0,5.125,0.8435057730000001,0.0,-1.2044473390000006,0.0,0.0,0.0,0.0,0.0,0.0,4.853515128000001,0.0,4.917515128000001,0.0,0.0,0.0,-0.0,0.0,0.0,2.767333701,0.0,0.003662108999999525,0.8600000143051147,0.5799999833106995,-15.359999656677246,-0.00897216796875,0.0028076171875,0.99853515625,24.170000076293945,0.0,-15.0,0.0012969970703125,-1.52587890625E-4,Waiting,0.0,0.0,0.0,0.0,0.0,0.0,0.0,0.0,
0.3603729999999996,0.0,0.0,0.0,0.0,0.0,0.0,0.0,5.875,4.683837411,0.0,-0.10560206000000072,0.0,0.0,0.0,-0.0,0.0,5.875,1.046142471,0.0,0.062255853000000805,0.0,0.0,0.0,0.0,0.0,0.0,4.853515128000001,0.0,0.0,0.0,0.0,0.0,-0.0,0.0,0.0,2.767333701,0.0,0.003662108999999525,0.8700000047683716,0.5600000023841858,-15.359999656677246,3.662109375E-4,0.01348876953125,1.01861572265625,24.170000076293945,0.0,-8.0,0.0012969970703125,-1.373291015625E-4,Waiting,0.0,0.0,0.0,0.0,0.0,0.0,0.0,0.0,
0.3811880000000019,0.0,0.0,0.0,0.0,0.0,0.0,0.0,2.5,4.542235863,0.0,-0.10560206000000072,0.0,0.0,0.0,-0.0,0.0,3.5,1.228027218,0.0,0.062255853000000805,0.0,0.0,0.0,0.0,0.0,0.0,4.853515128000001,0.0,0.0,0.0,0.0,0.0,-0.0,0.0,0.0,2.777099325,0.0,0.003662108999999525,0.8600000143051147,0.5600000023841858,-15.359999656677246,0.0042724609375,0.0462646484375,0.99298095703125,24.170000076293945,0.0,-13.0,0.0012969970703125,-9.1552734375E-5,Waiting,0.0,0.0,0.0,0.0,0.0,0.0,0.0,0.0,
0.40836899999999876,0.0,0.0,0.0,0.0,0.0,0.0,0.0,1.75,4.318847214,0.0,-0.28930661099999977,0.0,0.0,0.0,-0.0,0.0,1.0,1.437988134,0.0,0.35278316699999923,0.0,0.0,0.0,0.0,0.0,0.0,4.853515128000001,0.0,0.0,0.0,0.0,0.0,-0.0,0.0,0.0,2.7917477610000003,0.0,0.0012207030000004337,0.8700000047683716,0.5600000023841858,-15.359999656677246,0.02984619140625,0.005126953125,1.0101318359375,24.170000076293945,0.0,21.0,0.001312255859375,-4.57763671875E-5,Waiting,0.0,0.0,0.0,0.0,0.0,0.0,0.0,0.0,
0.43402399999999763,0.0,0.0,0.0,0.0,0.0,0.0,0.0,1.375,4.124755437,0.0,-0.28930661099999977,0.0,0.0,0.0,-0.0,0.0,0.375,1.6296385050000002,0.0,0.35278316699999923,0.0,0.0,0.0,0.0,0.0,0.0,4.855956534000001,0.0,0.0,0.0,0.0,0.0,-0.0,0.0,0.0,2.811279009,0.0,0.0012207030000004337,0.8600000143051147,0.5699999928474426,-15.359999656677246,0.0142822265625,0.0098876953125,1.0252685546875,24.170000076293945,0.0,5.0,0.0013427734375,-4.57763671875E-5,Waiting,0.0,0.0,0.0,0.0,0.0,0.0,0.0,0.0,
0.4723539999999994,0.0,0.0,0.0,0.0,0.0,0.0,0.0,0.125,3.8439937470000003,0.0,-0.40283199000000014,0.0,0.0,0.0,-0.0,0.0,0.0,1.8969724620000001,0.0,0.41625972300000047,0.0,0.0,0.0,0.0,0.0,0.0,4.853515128000001,0.0,0.0,0.0,0.0,0.0,-0.0,0.0,0.0,2.829589554,0.0,0.032958981000000165,0.8600000143051147,0.5799999833106995,-15.359999656677246,0.01959228515625,0.01947021484375,1.00048828125,24.170000076293945,0.0,7.0,0.0013885498046875,-4.57763671875E-5,Waiting,0.0,0.0,0.0,0.0,0.0,0.0,0.0,0.0,
0.49703399999999964,0.0,0.0,0.0,0.0,0.0,0.0,0.0,0.0,3.6950679810000002,0.0,-0.4138183169999996,0.0,0.0,0.0,-0.0,0.0,0.0,2.027587683,0.0,0.39428706899999977,0.0,0.0,0.0,0.0,0.0,0.0,4.853515128000001,0.0,0.0,0.0,0.0,0.0,-0.0,0.0,0.0,2.8442379900000003,0.0,0.03417968399999971,0.8600000143051147,0.5799999833106995,-15.359999656677246,0.0159912109375,0.00213623046875,1.01788330078125,24.170000076293945,0.0,8.0,0.0013885498046875,-4.57763671875E-5,Waiting,0.0,0.0,0.0,0.0,0.0,0.0,0.0,0.0,
0.520661,0.0,0.0,0.0,0.0,0.0,0.0,0.0,0.0,3.6218258010000004,0.0,-0.4138183169999996,0.0,0.0,0.0,-0.0,0.0,0.0,2.088622833,0.0,0.39428706899999977,0.0,0.0,0.0,0.0,0.0,0.0,4.853515128000001,0.0,0.0,0.0,0.0,0.0,-0.0,0.0,0.0,2.8540036140000002,0.0,0.03417968399999971,0.8600000143051147,0.5899999737739563,-15.359999656677246,0.0091552734375,0.01556396484375,1.0069580078125,24.170000076293945,0.0,-1.0,0.0013885498046875,-4.57763671875E-5,Waiting,0.0,0.0,0.0,0.0,0.0,0.0,0.0,0.0,
0.5436529999999984,0.0,0.0,0.0,0.0,0.0,0.0,0.0,0.0,3.5290523730000003,0.0,4.746714866000001,0.0,0.0,0.0,-0.0,0.0,0.0,2.1679685280000003,0.0,0.1733398260000003,0.0,0.0,0.0,0.0,0.0,0.0,4.853515128000001,0.0,0.0,0.0,0.0,0.0,-0.0,0.0,0.0,2.8540036140000002,0.0,0.01831054500000029,0.8600000143051147,0.5699999928474426,-15.359999656677246,0.00543212890625,0.02203369140625,1.0113525390625,24.170000076293945,0.0,-6.0,0.0013885498046875,-4.57763671875E-5,Waiting,0.0,0.0,0.0,0.0,0.0,0.0,0.0,0.0,
0.5670760000000009,0.0,0.0,0.0,0.0,0.0,0.0,0.0,0.125,3.4655758170000004,0.0,4.746714866000001,0.0,0.0,0.0,-0.0,0.0,0.0,2.200927509,0.0,0.1733398260000003,0.0,0.0,0.0,0.0,0.0,0.0,4.851073722000001,0.0,0.0,0.0,0.0,0.0,-0.0,0.0,0.0,2.8527829110000003,0.0,0.01831054500000029,0.8700000047683716,0.5600000023841858,-15.359999656677246,0.0023193359375,0.01885986328125,1.01007080078125,24.170000076293945,0.0,-8.0,0.0013885498046875,-4.57763671875E-5,Waiting,0.0,0.0,0.0,0.0,0.0,0.0,0.0,0.0,
0.6055899999999965,0.0,0.0,0.0,0.0,0.0,0.0,0.0,0.5,3.455810193,0.0,-0.12207030000000074,0.0,0.0,0.0,-0.0,0.0,0.25,2.177734152,0.0,0.0988769430000005,0.0,0.0,0.0,0.0,0.0,0.0,4.854735831,0.0,0.0,0.0,0.0,0.0,-0.0,0.0,0.0,2.8540036140000002,0.0,0.0,0.8700000047683716,0.5600000023841858,-15.359999656677246,0.0123291015625,0.01361083984375,0.9945068359375,24.170000076293945,0.0,2.0,0.0013885498046875,-4.57763671875E-5,Waiting,0.0,0.0,0.0,0.0,0.0,0.0,0.0,0.0,
0.6341369999999952,0.0,0.0,0.0,0.0,0.0,0.0,0.0,0.25,3.509521125,0.0,-0.12207030000000074,0.0,0.0,0.0,-0.0,0.0,0.0,2.1191404080000003,0.0,0.0988769430000005,0.0,0.0,0.0,0.0,0.0,0.0,4.854735831,0.0,0.0,0.0,0.0,0.0,-0.0,0.0,0.0,2.8527829110000003,0.0,0.0,0.8700000047683716,0.5600000023841858,-15.359999656677246,0.01947021484375,0.0047607421875,1.00238037109375,24.170000076293945,0.0,12.0,0.0013885498046875,-4.57763671875E-5,Waiting,0.0,0.0,0.0,0.0,0.0,0.0,0.0,0.0,
0.6581789999999964,0.0,0.0,0.0,0.0,0.0,0.0,0.0,0.0,3.553466433,0.0,0.04150390200000054,0.0,0.0,0.0,-0.0,0.0,0.0,2.0654294760000003,0.0,-0.06591796200000033,0.0,0.0,0.0,0.0,0.0,0.0,4.853515128000001,0.0,0.0,0.0,0.0,0.0,-0.0,0.0,0.0,2.8527829110000003,0.0,0.0,0.8600000143051147,0.5600000023841858,-15.359999656677246,0.01605224609375,0.01678466796875,1.0111083984375,24.170000076293945,0.0,5.0,0.0013885498046875,-4.57763671875E-5,Waiting,0.0,0.0,0.0,0.0,0.0,0.0,0.0,0.0,
0.6798899999999994,0.0,0.0,0.0,0.0,0.0,0.0,0.0,0.125,3.5876461170000002,0.0,0.04150390200000054,0.0,0.0,0.0,-0.0,0.0,0.0,2.023925574,0.0,-0.06591796200000033,0.0,0.0,0.0,0.0,0.0,0.0,4.854735831,0.0,0.0,0.0,0.0,0.0,-0.0,0.0,0.0,2.8515622080000003,0.0,0.0,0.8600000143051147,0.5699999928474426,-15.359999656677246,0.01068115234375,0.00872802734375,1.01202392578125,24.170000076293945,0.0,2.0,0.0013885498046875,-4.57763671875E-5,Waiting,0.0,0.0,0.0,0.0,0.0,0.0,0.0,0.0,
0.707752999999997,0.0,0.0,0.0,0.0,0.0,0.0,0.0,0.0,3.659667594,0.0,0.13183592399999888,0.0,0.0,0.0,-0.0,0.0,0.0,1.979980266,0.0,-0.10253905200000091,0.0,0.0,0.0,0.0,0.0,0.0,4.854735831,0.0,0.0,0.0,0.0,0.0,-0.0,0.0,0.0,2.8527829110000003,0.0,0.0012207030000004337,0.8600000143051147,0.5799999833106995,-15.369999885559082,0.00604248046875,0.02801513671875,1.021240234375,24.170000076293945,0.0,-7.0,0.0013885498046875,-4.57763671875E-5,Waiting,0.0,0.0,0.0,0.0,0.0,0.0,0.0,0.0,
0.7306939999999958,0.0,0.0,0.0,0.0,0.0,0.0,0.0,0.125,3.701171496,0.0,0.13183592399999888,0.0,0.0,0.0,-0.0,0.0,0.0,1.9409177700000002,0.0,-0.10253905200000091,0.0,0.0,0.0,0.0,0.0,0.0,4.853515128000001,0.0,0.0,0.0,0.0,0.0,-0.0,0.0,0.0,2.8527829110000003,0.0,0.0012207030000004337,0.8600000143051147,0.5799999833106995,-15.369999885559082,0.01513671875,0.0057373046875,1.0120849609375,24.170000076293945,0.0,7.0,0.0013885498046875,-4.57763671875E-5,Waiting,0.0,0.0,0.0,0.0,0.0,0.0,0.0,0.0,
0.7564119999999966,0.0,0.0,0.0,0.0,0.0,0.0,0.0,0.125,3.7463375070000002,0.0,0.0988769430000005,0.0,0.0,0.0,-0.0,0.0,0.0,1.911620898,0.0,-0.11474608199999992,0.0,0.0,0.0,0.0,0.0,0.0,4.853515128000001,0.0,0.0,0.0,0.0,0.0,-0.0,0.0,0.0,2.8527829110000003,0.0,-0.0012207030000004337,0.8600000143051147,0.5699999928474426,-15.369999885559082,0.00213623046875,0.013671875,1.028076171875,24.170000076293945,0.0,-7.0,0.0013885498046875,-4.57763671875E-5,Waiting,0.0,0.0,0.0,0.0,0.0,0.0,0.0,0.0,
0.7766869999999981,0.0,0.0,0.0,0.0,0.0,0.0,0.0,0.125,3.7817378940000004,0.0,0.0988769430000005,0.0,0.0,0.0,-0.0,0.0,0.0,1.878661917,0.0,-0.11474608199999992,0.0,0.0,0.0,0.0,0.0,0.0,4.854735831,0.0,0.0,0.0,0.0,0.0,-0.0,0.0,0.0,2.8540036140000002,0.0,-0.0012207030000004337,0.8600000143051147,0.5600000023841858,-15.369999885559082,0.00390625,0.01617431640625,1.01611328125,24.18000030517578,0.0,-6.0,0.0013885498046875,-4.57763671875E-5,Waiting,0.0,0.0,0.0,0.0,0.0,0.0,0.0,0.0,
0.8136089999999967,0.0,0.0,0.0,0.0,0.0,0.0,0.0,0.125,3.803710548,0.0,0.048828119999999586,0.0,0.0,0.0,-0.0,0.0,0.0,1.8688962930000002,0.0,-0.03295898099999928,0.0,0.0,0.0,0.0,0.0,0.0,4.854735831,0.0,0.0,0.0,0.0,0.0,-0.0,0.0,0.0,2.857665723,0.0,0.0,0.8600000143051147,0.5600000023841858,-15.369999885559082,0.00482177734375,0.0123291015625,1.01422119140625,24.18000030517578,0.0,-4.0,0.0013885498046875,-4.57763671875E-5,Waiting,0.0,0.0,0.0,0.0,0.0,0.0,0.0,0.0,
0.8391429999999964,0.0,0.0,0.0,0.0,0.0,0.0,0.0,0.0,3.80859336,0.0,0.048828119999999586,0.0,0.0,0.0,-0.0,0.0,0.0,1.8640134810000002,0.0,-0.03295898099999928,0.0,0.0,0.0,0.0,0.0,0.0,4.853515128000001,0.0,0.0,0.0,0.0,0.0,-0.0,0.0,0.0,2.8527829110000003,0.0,0.0,0.8600000143051147,0.5600000023841858,-15.369999885559082,0.0103759765625,0.01470947265625,1.01904296875,24.18000030517578,0.0,0.0,0.0013885498046875,-4.57763671875E-5,Waiting,0.0,0.0,0.0,0.0,0.0,0.0,0.0,0.0,
0.8596899999999951,0.0,0.0,0.0,0.0,0.0,0.0,0.0,0.0,3.80859336,0.0,-4.922496098,0.0,0.0,0.0,-0.0,0.0,0.0,1.8640134810000002,0.0,-0.035400387000000144,0.0,0.0,0.0,0.0,0.0,0.0,4.854735831,0.0,0.0,0.0,0.0,0.0,-0.0,0.0,0.0,2.8527829110000003,0.0,0.0,0.8600000143051147,0.5799999833106995,-15.369999885559082,0.01715087890625,0.01251220703125,1.00335693359375,24.18000030517578,0.0,7.0,0.0013885498046875,-4.57763671875E-5,Waiting,0.0,0.0,0.0,0.0,0.0,0.0,0.0,0.0,
0.8786849999999977,0.0,0.0,0.0,0.0,0.0,0.0,0.0,0.0,3.80859336,0.0,-4.922496098,0.0,0.0,0.0,-0.0,0.0,0.0,1.8640134810000002,0.0,-0.035400387000000144,0.0,0.0,0.0,0.0,0.0,0.0,4.853515128000001,0.0,0.0,0.0,0.0,0.0,-0.0,0.0,0.0,2.8527829110000003,0.0,0.0,0.8600000143051147,0.5799999833106995,-15.359999656677246,0.0185546875,0.01507568359375,1.01904296875,24.18000030517578,0.0,7.0,0.0013885498046875,-4.57763671875E-5,Waiting,0.0,0.0,0.0,0.0,0.0,0.0,0.0,0.0,
0.9134819999999964,0.0,0.0,0.0,0.0,0.0,0.0,0.0,0.0,3.80859336,0.0,0.0,0.0,0.0,0.0,-0.0,0.0,0.0,1.8737791050000001,0.0,0.0,0.0,0.0,0.0,0.0,0.0,0.0,4.853515128000001,0.0,0.0,0.0,0.0,0.0,-0.0,0.0,0.0,2.8527829110000003,0.0,0.0,0.8600000143051147,0.5799999833106995,-15.359999656677246,0.01336669921875,0.0106201171875,1.0201416015625,24.18000030517578,0.0,4.0,0.0013885498046875,-4.57763671875E-5,Waiting,0.0,0.0,0.0,0.0,0.0,0.0,0.0,0.0,
0.933349000000002,0.0,0.0,0.0,0.0,0.0,0.0,0.0,0.0,3.809814063,0.0,0.0,0.0,0.0,0.0,-0.0,0.0,0.0,1.877441214,0.0,0.0,0.0,0.0,0.0,0.0,0.0,0.0,4.853515128000001,0.0,0.0,0.0,0.0,0.0,-0.0,0.0,0.0,2.8527829110000003,0.0,0.0,0.8600000143051147,0.5799999833106995,-15.359999656677246,0.0166015625,0.0172119140625,1.00335693359375,24.18000030517578,0.0,5.0,0.0013885498046875,-4.57763671875E-5,Waiting,0.0,0.0,0.0,0.0,0.0,0.0,0.0,0.0,
0.9588919999999999,0.0,0.0,0.0,0.0,0.0,0.0,0.0,0.0,3.80859336,0.0,0.0,0.0,0.0,0.0,-0.0,0.0,0.0,1.887206838,0.0,0.019531247999999835,0.0,0.0,0.0,0.0,0.0,0.0,4.853515128000001,0.0,0.0,0.0,0.0,0.0,-0.0,0.0,0.0,2.8540036140000002,0.0,0.0,0.8600000143051147,0.5799999833106995,-15.369999885559082,0.0037841796875,0.0186767578125,1.03253173828125,24.18000030517578,0.0,-12.0,0.0013885498046875,-4.57763671875E-5,Waiting,0.0,0.0,0.0,0.0,0.0,0.0,0.0,0.0,
0.9787999999999957,0.0,0.0,0.0,0.0,0.0,0.0,0.0,0.0,3.80859336,0.0,0.0,0.0,0.0,0.0,-0.0,0.0,0.0,1.8920896500000002,0.0,0.019531247999999835,0.0,0.0,0.0,0.0,0.0,0.0,4.854735831,0.0,0.0,0.0,0.0,0.0,-0.0,0.0,0.0,2.8540036140000002,0.0,0.0,0.8700000047683716,0.5699999928474426,-15.369999885559082,0.0067138671875,0.01824951171875,0.99005126953125,24.18000030517578,0.0,-3.0,0.0013885498046875,-4.57763671875E-5,Waiting,0.0,0.0,0.0,0.0,0.0,0.0,0.0,0.0,
0.9962220000000016,0.0,0.0,0.0,0.0,0.0,0.0,0.0,0.0,3.809814063,0.0,0.0,0.0,0.0,0.0,-0.0,0.0,0.0,1.8969724620000001,0.0,0.019531247999999835,0.0,0.0,0.0,0.0,0.0,0.0,4.853515128000001,0.0,-0.0012207030000004337,0.0,0.0,0.0,-0.0,0.0,0.0,2.8540036140000002,0.0,0.0,0.8700000047683716,0.5600000023841858,-15.369999885559082,0.00445556640625,0.02166748046875,1.0096435546875,24.18000030517578,0.0,-7.0,0.0013885498046875,-4.57763671875E-5,Waiting,0.0,0.0,0.0,0.0,0.0,0.0,0.0,0.0,
1.0152129999999961,0.0,0.0,0.0,0.0,0.0,0.0,0.0,0.0,3.809814063,0.0,0.0,0.0,0.0,0.0,-0.0,0.0,0.0,1.8981931650000001,0.0,0.009765623999999917,0.0,0.0,0.0,0.0,0.0,0.0,4.853515128000001,0.0,-0.0012207030000004337,0.0,0.0,0.0,-0.0,0.0,0.0,2.8527829110000003,0.0,0.0,0.8799999952316284,0.5699999928474426,-15.369999885559082,0.0068359375,0.01910400390625,1.02520751953125,24.18000030517578,0.0,-4.0,0.0013885498046875,-4.57763671875E-5,Waiting,0.0,0.0,0.0,0.0,0.0,0.0,0.0,0.0,
1.0326180000000023,0.0,0.0,0.0,0.0,0.0,0.0,0.0,0.0,3.809814063,0.0,0.0,0.0,0.0,0.0,-0.0,0.0,0.0,1.8969724620000001,0.0,0.009765623999999917,0.0,0.0,0.0,0.0,0.0,0.0,4.853515128000001,0.0,-0.0012207030000004337,0.0,0.0,0.0,-0.0,0.0,0.0,2.8540036140000002,0.0,0.0,0.8799999952316284,0.5699999928474426,-15.369999885559082,0.00677490234375,0.0157470703125,1.01544189453125,24.18000030517578,0.0,-3.0,0.0013885498046875,-4.57763671875E-5,Waiting,0.0,0.0,0.0,0.0,0.0,0.0,0.0,0.0,
1.0487059999999984,0.0,0.0,0.0,0.0,0.0,0.0,0.0,0.0,3.80859336,0.0,0.0,0.0,0.0,0.0,-0.0,0.0,0.0,1.8969724620000001,0.0,0.004882811999999959,0.0,0.0,0.0,0.0,0.0,0.0,4.852294425,0.0,0.0012207030000004337,0.0,0.0,0.0,-0.0,0.0,0.0,2.8527829110000003,0.0,0.0,0.8700000047683716,0.5600000023841858,-15.369999885559082,0.00848388671875,0.0125732421875,1.00726318359375,24.18000030517578,0.0,0.0,0.0013885498046875,-4.57763671875E-5,Waiting,0.0,0.0,0.0,0.0,0.0,0.0,0.0,0.0,
1.0671650000000008,0.0,0.0,0.0,0.0,0.0,0.0,0.0,0.0,3.809814063,0.0,0.0,0.0,0.0,0.0,-0.0,0.0,0.0,1.8969724620000001,0.0,0.004882811999999959,0.0,0.0,0.0,0.0,0.0,0.0,4.853515128000001,0.0,0.0012207030000004337,0.0,0.0,0.0,-0.0,0.0,0.0,2.8527829110000003,0.0,0.0,0.8700000047683716,0.5600000023841858,-15.369999885559082,0.00909423828125,0.01104736328125,1.0003662109375,24.18000030517578,0.0,0.0,0.0013885498046875,-4.57763671875E-5,Waiting,0.0,0.0,0.0,0.0,0.0,0.0,0.0,0.0,
1.0864979999999995,0.0,0.0,0.0,0.0,0.0,0.0,0.0,0.0,3.80859336,0.0,0.0,0.0,0.0,0.0,-0.0,0.0,0.0,1.8969724620000001,0.0,0.004882811999999959,0.0,0.0,0.0,0.0,0.0,0.0,4.854735831,0.0,0.0012207030000004337,0.0,0.0,0.0,-0.0,0.0,0.0,2.8540036140000002,0.0,0.0,0.8700000047683716,0.5799999833106995,-15.380000114440918,0.013427734375,0.01165771484375,1.02667236328125,24.18000030517578,0.0,3.0,0.0013885498046875,-4.57763671875E-5,Waiting,0.0,0.0,0.0,0.0,0.0,0.0,0.0,0.0,
1.1080610000000015,0.0,0.0,0.0,0.0,0.0,0.0,0.0,0.0,3.811034766,0.0,0.0,0.0,0.0,0.0,-0.0,0.0,0.0,1.8969724620000001,0.0,0.0,0.0,0.0,0.0,0.0,0.0,0.0,4.852294425,0.0,0.0,0.0,0.0,0.0,-0.0,0.0,0.0,2.8540036140000002,0.0,0.0,0.8700000047683716,0.5899999737739563,-15.380000114440918,0.015380859375,0.01611328125,1.01812744140625,24.18000030517578,0.0,4.0,0.0013885498046875,-4.57763671875E-5,Waiting,0.0,0.0,0.0,0.0,0.0,0.0,0.0,0.0,
1.126760000000002,0.0,0.0,0.0,0.0,0.0,0.0,0.0,0.0,3.80859336,0.0,0.0,0.0,0.0,0.0,-0.0,0.0,0.0,1.8969724620000001,0.0,0.0,0.0,0.0,0.0,0.0,0.0,0.0,4.853515128000001,0.0,0.0,0.0,0.0,0.0,-0.0,0.0,0.0,2.8527829110000003,0.0,0.0,0.8600000143051147,0.5899999737739563,-15.380000114440918,0.0205078125,0.01507568359375,1.003173828125,24.18000030517578,0.0,9.0,0.0013885498046875,-4.57763671875E-5,Waiting,0.0,0.0,0.0,0.0,0.0,0.0,0.0,0.0,
1.1456699999999982,0.0,0.0,0.0,0.0,0.0,0.0,0.0,0.0,3.80859336,0.0,0.0,0.0,0.0,0.0,-0.0,0.0,0.0,1.8969724620000001,0.0,0.0,0.0,0.0,0.0,0.0,0.0,0.0,4.853515128000001,0.0,0.0,0.0,0.0,0.0,-0.0,0.0,0.0,2.8540036140000002,0.0,0.0,0.8700000047683716,0.6000000238418579,-15.380000114440918,0.015380859375,0.0172119140625,1.0120849609375,24.18000030517578,0.0,4.0,0.0013885498046875,-4.57763671875E-5,Waiting,0.0,0.0,0.0,0.0,0.0,0.0,0.0,0.0,
1.166525999999998,0.0,0.0,0.0,0.0,0.0,0.0,0.0,0.0,3.80859336,0.0,0.0,0.0,0.0,0.0,-0.0,0.0,0.0,1.8969724620000001,0.0,0.0,0.0,0.0,0.0,0.0,0.0,0.0,4.853515128000001,0.0,0.0,0.0,0.0,0.0,-0.0,0.0,0.0,2.8540036140000002,0.0,0.0,0.8700000047683716,0.6000000238418579,-15.380000114440918,0.012451171875,0.01708984375,1.02191162109375,24.18000030517578,0.0,1.0,0.0013885498046875,-4.57763671875E-5,Waiting,0.0,0.0,0.0,0.0,0.0,0.0,0.0,0.0,
1.186551999999996,0.0,0.0,0.0,0.0,0.0,0.0,0.0,0.0,3.80859336,0.0,0.0,0.0,0.0,0.0,-0.0,0.0,0.0,1.8969724620000001,0.0,0.0,0.0,0.0,0.0,0.0,0.0,0.0,4.853515128000001,0.0,0.0,0.0,0.0,0.0,-0.0,0.0,0.0,2.8515622080000003,0.0,0.0,0.8700000047683716,0.6000000238418579,-15.380000114440918,0.0103759765625,0.022216796875,1.01361083984375,24.18000030517578,0.0,-2.0,0.0013885498046875,-4.57763671875E-5,Waiting,0.0,0.0,0.0,0.0,0.0,0.0,0.0,0.0,
1.2074819999999964,0.0,0.0,0.0,0.0,0.0,0.0,0.0,0.0,3.809814063,0.0,0.0,0.0,0.0,0.0,-0.0,0.0,0.0,1.8969724620000001,0.0,0.0,0.0,0.0,0.0,0.0,0.0,0.0,4.853515128000001,0.0,0.0,0.0,0.0,0.0,-0.0,0.0,0.0,2.8527829110000003,0.0,0.0,0.8700000047683716,0.5899999737739563,-15.380000114440918,0.003173828125,0.01959228515625,1.01104736328125,24.18000030517578,0.0,-8.0,0.0013885498046875,-4.57763671875E-5,Waiting,0.0,0.0,0.0,0.0,0.0,0.0,0.0,0.0,
1.2267390000000014,0.0,0.0,0.0,0.0,0.0,0.0,0.0,0.0,3.809814063,0.0,0.0,0.0,0.0,0.0,-0.0,0.0,0.0,1.8969724620000001,0.0,0.0,0.0,0.0,0.0,0.0,0.0,0.0,4.853515128000001,0.0,0.0,0.0,0.0,0.0,-0.0,0.0,0.0,2.8527829110000003,0.0,0.0,0.8700000047683716,0.5899999737739563,-15.390000343322754,0.00250244140625,0.02203369140625,1.013427734375,24.18000030517578,0.0,-9.0,0.0013885498046875,-4.57763671875E-5,Waiting,0.0,0.0,0.0,0.0,0.0,0.0,0.0,0.0,
1.2465899999999965,0.0,0.0,0.0,0.0,0.0,0.0,0.0,0.0,3.80859336,0.0,0.0,0.0,0.0,0.0,-0.0,0.0,0.0,1.8969724620000001,0.0,0.0,0.0,0.0,0.0,0.0,0.0,0.0,4.854735831,0.0,0.0,0.0,0.0,0.0,-0.0,0.0,0.0,2.8540036140000002,0.0,0.0,0.8799999952316284,0.5799999833106995,-15.390000343322754,0.00384521484375,0.0162353515625,1.01129150390625,24.18000030517578,0.0,-6.0,0.0013885498046875,-4.57763671875E-5,Waiting,0.0,0.0,0.0,0.0,0.0,0.0,0.0,0.0,
1.2669069999999993,0.0,0.0,0.0,0.0,0.0,0.0,0.0,0.0,3.809814063,0.0,0.0,0.0,0.0,0.0,-0.0,0.0,0.0,1.8981931650000001,0.0,0.0,0.0,0.0,0.0,0.0,0.0,0.0,4.853515128000001,0.0,0.0,0.0,0.0,0.0,-0.0,0.0,0.0,2.8527829110000003,0.0,0.0,0.8700000047683716,0.5799999833106995,-15.390000343322754,0.0111083984375,0.0108642578125,1.0194091796875,24.18000030517578,0.0,1.0,0.0013885498046875,-4.57763671875E-5,Waiting,0.0,0.0,0.0,0.0,0.0,0.0,0.0,0.0,
1.2868379999999962,0.0,0.0,0.0,0.0,0.0,0.0,0.0,0.0,3.80859336,0.0,0.0,0.0,0.0,0.0,-0.0,0.0,0.0,1.8969724620000001,0.0,0.0,0.0,0.0,0.0,0.0,0.0,0.0,4.853515128000001,0.0,0.0,0.0,0.0,0.0,-0.0,0.0,0.0,2.8540036140000002,0.0,0.0,0.8700000047683716,0.5799999833106995,-15.390000343322754,0.01385498046875,0.01708984375,1.0029296875,24.200000762939453,0.0,3.0,0.0013885498046875,-4.57763671875E-5,Waiting,0.0,0.0,0.0,0.0,0.0,0.0,0.0,0.0,
1.3074700000000012,0.0,0.0,0.0,0.0,0.0,0.0,0.0,0.0,3.80859336,0.0,0.0,0.0,0.0,0.0,-0.0,0.0,0.0,1.8969724620000001,0.0,0.0,0.0,0.0,0.0,0.0,0.0,0.0,4.853515128000001,0.0,0.0,0.0,0.0,0.0,-0.0,0.0,0.0,2.8527829110000003,0.0,0.0,0.8700000047683716,0.5899999737739563,-15.390000343322754,0.017578125,0.01318359375,1.0169677734375,24.200000762939453,0.0,7.0,0.0013885498046875,-4.57763671875E-5,Waiting,0.0,0.0,0.0,0.0,0.0,0.0,0.0,0.0,
1.3268329999999988,0.0,0.0,0.0,0.0,0.0,0.0,0.0,0.0,3.80859336,0.0,0.0,0.0,0.0,0.0,-0.0,0.0,0.0,1.8981931650000001,0.0,0.0,0.0,0.0,0.0,0.0,0.0,0.0,4.853515128000001,0.0,0.0,0.0,0.0,0.0,-0.0,0.0,0.0,2.8540036140000002,0.0,0.0,0.8600000143051147,0.5899999737739563,-15.390000343322754,0.01953125,0.0025634765625,1.01129150390625,24.200000762939453,0.0,12.0,0.0013885498046875,-4.57763671875E-5,Waiting,0.0,0.0,0.0,0.0,0.0,0.0,0.0,0.0,
1.346886999999995,0.0,0.0,0.0,0.0,0.0,0.0,0.0,0.0,3.80859336,0.0,0.0,0.0,0.0,0.0,-0.0,0.0,0.0,1.8969724620000001,0.0,0.0,0.0,0.0,0.0,0.0,0.0,0.0,4.854735831,0.0,0.0,0.0,0.0,0.0,-0.0,0.0,0.0,2.8527829110000003,0.0,0.0,0.8600000143051147,0.6000000238418579,-15.390000343322754,0.0150146484375,0.0186767578125,1.010986328125,24.200000762939453,0.0,3.0,0.0013885498046875,-4.57763671875E-5,Waiting,0.0,0.0,0.0,0.0,0.0,0.0,0.0,0.0,
1.3668949999999969,0.0,0.0,0.0,0.0,0.0,0.0,0.0,0.0,3.80859336,0.0,0.0,0.0,0.0,0.0,-0.0,0.0,0.0,1.8969724620000001,0.0,0.0,0.0,0.0,0.0,0.0,0.0,0.0,4.853515128000001,0.0,0.0,0.0,0.0,0.0,-0.0,0.0,0.0,2.8540036140000002,0.0,0.0,0.8500000238418579,0.6000000238418579,-15.390000343322754,0.007568359375,0.015869140625,1.03350830078125,24.200000762939453,0.0,-3.0,0.0013885498046875,-4.57763671875E-5,Waiting,0.0,0.0,0.0,0.0,0.0,0.0,0.0,0.0,
1.3876129999999975,0.0,0.0,0.0,0.0,0.0,0.0,0.0,0.0,3.818358984,0.0,0.0,0.0,0.0,0.0,-0.0,0.0,0.0,1.8969724620000001,0.0,0.0,0.0,0.0,0.0,0.0,0.0,0.0,4.854735831,0.0,0.0,0.0,0.0,0.0,-0.0,0.0,0.0,2.8552243170000002,0.0,0.0,0.8500000238418579,0.6000000238418579,-15.390000343322754,0.0098876953125,0.007568359375,0.99822998046875,24.200000762939453,0.0,1.0,0.0013885498046875,-4.57763671875E-5,Waiting,0.0,0.0,0.0,0.0,0.0,0.0,0.0,0.0,
1.407563000000002,0.0,0.0,0.0,0.0,0.0,0.0,0.0,0.0,3.80859336,0.0,0.0,0.0,0.0,0.0,-0.0,0.0,0.0,1.8969724620000001,0.0,0.0,0.0,0.0,0.0,0.0,0.0,0.0,4.854735831,0.0,0.0,0.0,0.0,0.0,-0.0,0.0,0.0,2.8540036140000002,0.0,0.0,0.8500000238418579,0.5899999737739563,-15.390000343322754,0.00909423828125,0.0189208984375,1.01068115234375,24.200000762939453,0.0,-2.0,0.0013885498046875,-4.57763671875E-5,Waiting,0.0,0.0,0.0,0.0,0.0,0.0,0.0,0.0,
1.427180999999997,0.0,0.0,0.0,0.0,0.0,0.0,0.0,0.0,3.809814063,0.0,0.0,0.0,0.0,0.0,-0.0,0.0,0.0,1.8969724620000001,0.0,0.0,0.0,0.0,0.0,0.0,0.0,0.0,4.853515128000001,0.0,0.0,0.0,0.0,0.0,-0.0,0.0,0.0,2.857665723,0.0,0.0,0.8500000238418579,0.5799999833106995,-15.390000343322754,0.00286865234375,0.01312255859375,1.0269775390625,24.200000762939453,0.0,-6.0,0.0013885498046875,-4.57763671875E-5,Waiting,0.0,0.0,0.0,0.0,0.0,0.0,0.0,0.0,
1.4461699999999982,0.0,0.0,0.0,0.0,0.0,0.0,0.0,0.0,3.809814063,0.0,0.0,0.0,0.0,0.0,-0.0,0.0,0.0,1.8969724620000001,0.0,0.0,0.0,0.0,0.0,0.0,0.0,0.0,4.853515128000001,0.0,0.0,0.0,0.0,0.0,-0.0,0.0,0.0,2.8527829110000003,0.0,0.0012207030000004337,0.8600000143051147,0.5799999833106995,-15.390000343322754,6.103515625E-4,0.0145263671875,1.0137939453125,24.200000762939453,0.0,-9.0,0.0013885498046875,-4.57763671875E-5,Waiting,0.0,0.0,0.0,0.0,0.0,0.0,0.0,0.0,
1.4664449999999998,0.0,0.0,0.0,0.0,0.0,0.0,0.0,0.0,3.806151954,0.0,0.0,0.0,0.0,0.0,-0.0,0.0,0.0,1.8969724620000001,0.0,0.0,0.0,0.0,0.0,0.0,0.0,0.0,4.854735831,0.0,0.0,0.0,0.0,0.0,-0.0,0.0,0.0,2.8527829110000003,0.0,0.0012207030000004337,0.8600000143051147,0.5699999928474426,-15.390000343322754,0.00927734375,0.0196533203125,0.99676513671875,24.200000762939453,0.0,-1.0,0.0013885498046875,-4.57763671875E-5,Waiting,0.0,0.0,0.0,0.0,0.0,0.0,0.0,0.0,
1.4862569999999977,0.0,0.0,0.0,0.0,0.0,0.0,0.0,0.0,3.80859336,0.0,0.0,0.0,0.0,0.0,-0.0,0.0,0.0,1.8969724620000001,0.0,0.0,0.0,0.0,0.0,0.0,0.0,0.0,4.853515128000001,0.0,0.0,0.0,0.0,0.0,-0.0,0.0,0.0,2.8540036140000002,0.0,0.0012207030000004337,0.8600000143051147,0.5699999928474426,-15.390000343322754,0.0089111328125,0.01397705078125,0.997802734375,24.200000762939453,0.0,0.0,0.0013885498046875,-4.57763671875E-5,Waiting,0.0,0.0,0.0,0.0,0.0,0.0,0.0,0.0,
1.5075420000000013,0.0,0.0,0.0,0.0,0.0,0.0,0.0,0.0,3.80859336,0.0,0.0,0.0,0.0,0.0,-0.0,0.0,0.0,1.8969724620000001,0.0,0.0,0.0,0.0,0.0,0.0,0.0,0.0,4.858397940000001,0.0,0.0,0.0,0.0,0.0,-0.0,0.0,0.0,2.8491208020000003,0.0,-0.0012207030000004337,0.8600000143051147,0.5699999928474426,-15.390000343322754,0.0155029296875,0.01190185546875,0.994140625,24.200000762939453,0.0,6.0,0.0013885498046875,-4.57763671875E-5,Waiting,0.0,0.0,0.0,0.0,0.0,0.0,0.0,0.0,
1.526273000000001,0.0,0.0,0.0,0.0,0.0,0.0,0.0,0.0,3.80859336,0.0,0.0,0.0,0.0,0.0,-0.0,0.0,0.0,1.8969724620000001,0.0,0.0,0.0,0.0,0.0,0.0,0.0,0.0,4.859618643,0.0,0.0,0.0,0.0,0.0,-0.0,0.0,0.0,2.8540036140000002,0.0,-0.0012207030000004337,0.8500000238418579,0.5799999833106995,-15.390000343322754,0.0142822265625,0.020751953125,1.00518798828125,24.200000762939453,0.0,2.0,0.0013885498046875,-4.57763671875E-5,Waiting,0.0,0.0,0.0,0.0,0.0,0.0,0.0,0.0,
1.5462619999999951,0.0,0.0,0.0,0.0,0.0,0.0,0.0,0.0,3.809814063,0.0,0.0,0.0,0.0,0.0,-0.0,0.0,0.0,1.8957517590000001,0.0,0.0,0.0,0.0,0.0,0.0,0.0,0.0,4.864501455,0.0,0.004882811999999959,0.0,0.0,0.0,-0.0,0.0,0.0,2.8540036140000002,0.0,0.0,0.8600000143051147,0.5799999833106995,-15.390000343322754,0.011962890625,0.017578125,1.02850341796875,24.200000762939453,0.0,0.0,0.0013885498046875,-4.57763671875E-5,Waiting,0.0,0.0,0.0,0.0,0.0,0.0,0.0,0.0,
1.5739809999999999,0.0,0.0,0.0,0.0,0.0,0.0,0.0,0.0,3.80859336,0.0,0.0,0.0,0.0,0.0,-0.0,0.0,0.0,1.8969724620000001,0.0,0.0,0.0,0.0,0.0,0.0,0.0,0.0,4.8632807520000005,0.0,0.004882811999999959,0.0,0.0,0.0,-0.0,0.0,0.0,2.8527829110000003,0.0,0.0,0.8600000143051147,0.5799999833106995,-15.390000343322754,0.0155029296875,0.0172119140625,1.03228759765625,24.200000762939453,0.0,4.0,0.0013885498046875,-4.57763671875E-5,Waiting,0.0,0.0,0.0,0.0,0.0,0.0,0.0,0.0,
1.5896829999999973,0.0,0.0,0.0,0.0,0.0,0.0,0.0,0.0,3.809814063,0.0,0.0,0.0,0.0,0.0,-0.0,0.0,0.0,1.8969724620000001,0.0,0.0,0.0,0.0,0.0,0.0,0.0,0.0,4.8632807520000005,0.0,0.004882811999999959,0.0,0.0,0.0,-0.0,0.0,0.0,2.8527829110000003,0.0,0.0,0.8600000143051147,0.5899999737739563,-15.390000343322754,0.016357421875,0.0111083984375,1.01190185546875,24.200000762939453,0.0,6.0,0.0013885498046875,-4.57763671875E-5,Waiting,0.0,0.0,0.0,0.0,0.0,0.0,0.0,0.0,
1.6074969999999957,0.0,0.0,0.0,0.0,0.0,0.0,0.0,0.0,3.809814063,0.0,0.0,0.0,0.0,0.0,-0.0,0.0,0.0,1.8969724620000001,0.0,0.0,0.0,0.0,0.0,0.0,0.0,0.0,4.8632807520000005,0.0,0.004882811999999959,0.0,0.0,0.0,-0.0,0.0,0.0,2.8540036140000002,0.0,0.0,0.8500000238418579,0.5899999737739563,-15.390000343322754,0.01171875,0.0142822265625,0.99993896484375,24.200000762939453,0.0,1.0,0.0013885498046875,-4.57763671875E-5,Waiting,0.0,0.0,0.0,0.0,0.0,0.0,0.0,0.0,
1.6262249999999985,0.0,0.0,0.0,0.0,0.0,0.0,0.0,0.0,3.809814063,0.0,0.0,0.0,0.0,0.0,-0.0,0.0,0.0,1.8969724620000001,0.0,0.0,0.0,0.0,0.0,0.0,0.0,0.0,4.864501455,0.0,0.004882811999999959,0.0,0.0,0.0,-0.0,0.0,0.0,2.8527829110000003,0.0,0.0,0.8500000238418579,0.5899999737739563,-15.390000343322754,0.0101318359375,0.0086669921875,0.99652099609375,24.200000762939453,0.0,1.0,0.0013885498046875,-4.57763671875E-5,Waiting,0.0,0.0,0.0,0.0,0.0,0.0,0.0,0.0,
1.6465509999999994,0.0,0.0,0.0,0.0,0.0,0.0,0.0,0.0,3.80859336,0.0,0.0,0.0,0.0,0.0,-0.0,0.0,0.0,1.8969724620000001,0.0,0.0,0.0,0.0,0.0,0.0,0.0,0.0,4.8632807520000005,0.0,0.0,0.0,0.0,0.0,-0.0,0.0,0.0,2.8540036140000002,0.0,0.0,0.8500000238418579,0.5799999833106995,-15.390000343322754,0.0047607421875,0.01190185546875,1.03076171875,24.200000762939453,0.0,-4.0,0.0013885498046875,-4.57763671875E-5,Waiting,0.0,0.0,0.0,0.0,0.0,0.0,0.0,0.0,
1.6666140000000014,0.0,0.0,0.0,0.0,0.0,0.0,0.0,0.0,3.80859336,0.0,0.0,0.0,0.0,0.0,-0.0,0.0,0.0,1.8981931650000001,0.0,0.0,0.0,0.0,0.0,0.0,0.0,0.0,4.862060049,0.0,0.0,0.0,0.0,0.0,-0.0,0.0,0.0,2.8527829110000003,0.0,0.0,0.8500000238418579,0.5799999833106995,-15.390000343322754,0.00433349609375,0.0147705078125,1.01336669921875,24.200000762939453,0.0,-5.0,0.0013885498046875,-4.57763671875E-5,Waiting,0.0,0.0,0.0,0.0,0.0,0.0,0.0,0.0,
1.6878539999999993,0.0,0.0,0.0,0.0,0.0,0.0,0.0,0.0,3.80859336,0.0,0.0,0.0,0.0,0.0,-0.0,0.0,0.0,1.8969724620000001,0.0,0.0,0.0,0.0,0.0,0.0,0.0,0.0,4.864501455,0.0,0.0,0.0,0.0,0.0,-0.0,0.0,0.0,2.8540036140000002,0.0,0.0,0.8500000238418579,0.5699999928474426,-15.390000343322754,0.00701904296875,0.01104736328125,1.01995849609375,24.200000762939453,0.0,-1.0,0.0013885498046875,-4.57763671875E-5,Waiting,0.0,0.0,0.0,0.0,0.0,0.0,0.0,0.0,
1.707163999999997,0.0,0.0,0.0,0.0,0.0,0.0,0.0,0.0,3.80859336,0.0,0.0,0.0,0.0,0.0,-0.0,0.0,0.0,1.8969724620000001,0.0,0.0,0.0,0.0,0.0,0.0,0.0,0.0,4.8632807520000005,0.0,0.0,0.0,0.0,0.0,-0.0,0.0,0.0,2.8540036140000002,0.0,0.0,0.8500000238418579,0.5699999928474426,-15.390000343322754,0.00958251953125,0.015625,1.003173828125,24.200000762939453,0.0,0.0,0.0013885498046875,-4.57763671875E-5,Waiting,0.0,0.0,0.0,0.0,0.0,0.0,0.0,0.0,
1.7263159999999989,0.0,0.0,0.0,0.0,0.0,0.0,0.0,0.0,3.80859336,0.0,0.0,0.0,0.0,0.0,-0.0,0.0,0.0,1.8969724620000001,0.0,0.0,0.0,0.0,0.0,0.0,0.0,0.0,4.8632807520000005,0.0,0.0,0.0,0.0,0.0,-0.0,0.0,0.0,2.8527829110000003,0.0,0.0,0.8500000238418579,0.5699999928474426,-15.390000343322754,0.0107421875,0.022216796875,1.0126953125,24.200000762939453,0.0,0.0,0.0013885498046875,-4.57763671875E-5,Waiting,0.0,0.0,0.0,0.0,0.0,0.0,0.0,0.0,
1.7466909999999989,0.0,0.0,0.0,0.0,0.0,0.0,0.0,0.0,3.80859336,0.0,0.0,0.0,0.0,0.0,-0.0,0.0,0.0,1.8969724620000001,0.0,0.0,0.0,0.0,0.0,0.0,0.0,0.0,4.8632807520000005,0.0,0.0,0.0,0.0,0.0,-0.0,0.0,0.0,2.8540036140000002,0.0,0.0,0.8600000143051147,0.5699999928474426,-15.390000343322754,0.011474609375,0.02081298828125,1.005615234375,24.200000762939453,0.0,0.0,0.0013885498046875,-4.57763671875E-5,Waiting,0.0,0.0,0.0,0.0,0.0,0.0,0.0,0.0,
1.7666239999999962,0.0,0.0,0.0,0.0,0.0,0.0,0.0,0.0,3.809814063,0.0,0.0,0.0,0.0,0.0,-0.0,0.0,0.0,1.8969724620000001,0.0,0.0,0.0,0.0,0.0,0.0,0.0,0.0,4.864501455,0.0,0.0,0.0,0.0,0.0,-0.0,0.0,0.0,2.8527829110000003,0.0,0.0,0.8600000143051147,0.5699999928474426,-15.390000343322754,0.0098876953125,0.01470947265625,1.01519775390625,24.200000762939453,0.0,0.0,0.0013885498046875,-4.57763671875E-5,Waiting,0.0,0.0,0.0,0.0,0.0,0.0,0.0,0.0,
1.7864850000000005,0.0,0.0,0.0,0.0,0.0,0.0,0.0,0.0,3.809814063,0.0,0.0,0.0,0.0,0.0,-0.0,0.0,0.0,1.8969724620000001,0.0,0.0,0.0,0.0,0.0,0.0,0.0,0.0,4.8632807520000005,0.0,0.0,0.0,0.0,0.0,-0.0,0.0,0.0,2.8540036140000002,0.0,0.0,0.8600000143051147,0.5699999928474426,-15.390000343322754,0.00958251953125,0.01849365234375,1.01409912109375,24.18000030517578,0.0,-1.0,0.0013885498046875,-4.57763671875E-5,Waiting,0.0,0.0,0.0,0.0,0.0,0.0,0.0,0.0,
1.8077220000000016,0.0,0.0,0.0,0.0,0.0,0.0,0.0,0.0,3.807372657,0.0,0.0,0.0,0.0,0.0,-0.0,0.0,0.0,1.8969724620000001,0.0,0.0,0.0,0.0,0.0,0.0,0.0,0.0,4.8632807520000005,0.0,0.0,0.0,0.0,0.0,-0.0,0.0,0.0,2.8540036140000002,0.0,0.0012207030000004337,0.8600000143051147,0.5699999928474426,-15.390000343322754,0.01190185546875,0.0201416015625,1.01788330078125,24.18000030517578,0.0,0.0,0.0013885498046875,-4.57763671875E-5,Waiting,0.0,0.0,0.0,0.0,0.0,0.0,0.0,0.0,
1.8263099999999977,0.0,0.0,0.0,0.0,0.0,0.0,0.0,0.0,3.809814063,0.0,0.0,0.0,0.0,0.0,-0.0,0.0,0.0,1.8969724620000001,0.0,0.0,0.0,0.0,0.0,0.0,0.0,0.0,4.862060049,0.0,0.0,0.0,0.0,0.0,-0.0,0.0,0.0,2.8527829110000003,0.0,0.0012207030000004337,0.8600000143051147,0.5699999928474426,-15.390000343322754,0.01239013671875,0.01214599609375,1.008056640625,24.18000030517578,0.0,3.0,0.0013885498046875,-4.57763671875E-5,Waiting,0.0,0.0,0.0,0.0,0.0,0.0,0.0,0.0,
1.846436999999998,0.0,0.0,0.0,0.0,0.0,0.0,0.0,0.0,3.80859336,0.0,0.0,0.0,0.0,0.0,-0.0,0.0,0.0,1.8969724620000001,0.0,0.0,0.0,0.0,0.0,0.0,0.0,0.0,4.8632807520000005,0.0,0.0,0.0,0.0,0.0,-0.0,0.0,0.0,2.8527829110000003,0.0,-0.0012207030000004337,0.8600000143051147,0.5699999928474426,-15.390000343322754,0.01458740234375,0.01025390625,1.0067138671875,24.18000030517578,0.0,5.0,0.0013885498046875,-4.57763671875E-5,Waiting,0.0,0.0,0.0,0.0,0.0,0.0,0.0,0.0,
1.8668399999999965,0.0,0.0,0.0,0.0,0.0,0.0,0.0,0.0,3.80859336,0.0,0.0,0.0,0.0,0.0,-0.0,0.0,0.0,1.8969724620000001,0.0,0.0,0.0,0.0,0.0,0.0,0.0,0.0,4.864501455,0.0,0.0,0.0,0.0,0.0,-0.0,0.0,0.0,2.8540036140000002,0.0,-0.0012207030000004337,0.8600000143051147,0.5799999833106995,-15.390000343322754,0.01129150390625,0.00531005859375,1.0185546875,24.18000030517578,0.0,3.0,0.0013885498046875,-4.57763671875E-5,Waiting,0.0,0.0,0.0,0.0,0.0,0.0,0.0,0.0,
1.8870089999999982,0.0,0.0,0.0,0.0,0.0,0.0,0.0,0.0,3.80859336,0.0,0.0,0.0,0.0,0.0,-0.0,0.0,0.0,1.8969724620000001,0.0,0.0,0.0,0.0,0.0,0.0,0.0,0.0,4.8632807520000005,0.0,0.0,0.0,0.0,0.0,-0.0,0.0,0.0,2.8527829110000003,0.0,-0.0012207030000004337,0.8600000143051147,0.5799999833106995,-15.390000343322754,0.01177978515625,0.01275634765625,1.02130126953125,24.18000030517578,0.0,2.0,0.0013885498046875,-4.57763671875E-5,Waiting,0.0,0.0,0.0,0.0,0.0,0.0,0.0,0.0,
1.9082359999999972,0.0,0.0,0.0,0.0,0.0,0.0,0.0,0.0,3.80859336,0.0,0.0,0.0,0.0,0.0,-0.0,0.0,0.0,1.8969724620000001,0.0,0.0,0.0,0.0,0.0,0.0,0.0,0.0,4.8632807520000005,0.0,0.0,0.0,0.0,0.0,-0.0,0.0,0.0,2.8527829110000003,0.0,0.0,0.8600000143051147,0.5799999833106995,-15.390000343322754,0.0068359375,0.0164794921875,1.02001953125,24.18000030517578,0.0,-3.0,0.0013885498046875,-4.57763671875E-5,Waiting,0.0,0.0,0.0,0.0,0.0,0.0,0.0,0.0,
1.926760000000002,0.0,0.0,0.0,0.0,0.0,0.0,0.0,0.0,3.80859336,0.0,0.0,0.0,0.0,0.0,-0.0,0.0,0.0,1.8969724620000001,0.0,0.0,0.0,0.0,0.0,0.0,0.0,0.0,4.864501455,0.0,0.0,0.0,0.0,0.0,-0.0,0.0,0.0,2.8527829110000003,0.0,0.0,0.8600000143051147,0.5799999833106995,-15.390000343322754,0.01068115234375,0.01318359375,1.018310546875,24.18000030517578,0.0,0.0,0.0013885498046875,-4.57763671875E-5,Waiting,0.0,0.0,0.0,0.0,0.0,0.0,0.0,0.0,
1.9472730000000011,0.0,0.0,0.0,0.0,0.0,0.0,0.0,0.0,3.809814063,0.0,0.0,0.0,0.0,0.0,-0.0,0.0,0.0,1.8969724620000001,0.0,0.0,0.0,0.0,0.0,0.0,0.0,0.0,4.864501455,0.0,0.0,0.0,0.0,0.0,-0.0,0.0,0.0,2.8527829110000003,0.0,0.0,0.8600000143051147,0.5699999928474426,-15.390000343322754,0.0123291015625,0.02532958984375,1.01214599609375,24.18000030517578,0.0,0.0,0.0013885498046875,-4.57763671875E-5,Waiting,0.0,0.0,0.0,0.0,0.0,0.0,0.0,0.0,
1.9666829999999973,0.0,0.0,0.0,0.0,0.0,0.0,0.0,0.0,3.807372657,0.0,0.0,0.0,0.0,0.0,-0.0,0.0,0.0,1.8969724620000001,0.0,0.0,0.0,0.0,0.0,0.0,0.0,0.0,4.864501455,0.0,0.0,0.0,0.0,0.0,-0.0,0.0,0.0,2.8540036140000002,0.0,0.0,0.8600000143051147,0.5799999833106995,-15.390000343322754,0.01611328125,0.01910400390625,1.0179443359375,24.18000030517578,0.0,4.0,0.0013885498046875,-4.57763671875E-5,Waiting,0.0,0.0,0.0,0.0,0.0,0.0,0.0,0.0,
1.9864660000000003,0.0,0.0,0.0,0.0,0.0,0.0,0.0,0.0,3.80859336,0.0,0.0,0.0,0.0,0.0,-0.0,0.0,0.0,1.8969724620000001,0.0,0.0,0.0,0.0,0.0,0.0,0.0,0.0,4.864501455,0.0,0.0,0.0,0.0,0.0,-0.0,0.0,0.0,2.8540036140000002,0.0,0.0,0.8600000143051147,0.5799999833106995,-15.390000343322754,0.00811767578125,0.01873779296875,1.02349853515625,24.18000030517578,0.0,-3.0,0.0013885498046875,-4.57763671875E-5,Waiting,0.0,0.0,0.0,0.0,0.0,0.0,0.0,0.0,
2.0079069999999994,0.0,0.0,0.0,0.0,0.0,0.0,0.0,0.0,3.80859336,0.0,0.0,0.0,0.0,0.0,-0.0,0.0,0.0,1.8969724620000001,0.0,0.0,0.0,0.0,0.0,0.0,0.0,0.0,4.8632807520000005,0.0,0.0,0.0,0.0,0.0,-0.0,0.0,0.0,2.8540036140000002,0.0,0.0012207030000004337,0.8700000047683716,0.5799999833106995,-15.390000343322754,0.00604248046875,0.0177001953125,1.00592041015625,24.18000030517578,0.0,-4.0,0.0013885498046875,-4.57763671875E-5,Waiting,0.0,0.0,0.0,0.0,0.0,0.0,0.0,0.0,
2.0267030000000013,0.0,0.0,0.0,0.0,0.0,0.0,0.0,0.0,3.80859336,0.0,0.0,0.0,0.0,0.0,-0.0,0.0,0.0,1.8969724620000001,0.0,0.0,0.0,0.0,0.0,0.0,0.0,0.0,4.8632807520000005,0.0,0.0,0.0,0.0,0.0,-0.0,0.0,0.0,2.8540036140000002,0.0,0.0012207030000004337,0.8700000047683716,0.5699999928474426,-15.390000343322754,0.009033203125,0.01849365234375,1.0308837890625,24.18000030517578,0.0,-2.0,0.0013885498046875,-4.57763671875E-5,Waiting,0.0,0.0,0.0,0.0,0.0,0.0,0.0,0.0,
2.0464349999999976,0.0,0.0,0.0,0.0,0.0,0.0,0.0,0.0,3.80859336,0.0,0.0,0.0,0.0,0.0,-0.0,0.0,0.0,1.8969724620000001,0.0,0.0,0.0,0.0,0.0,0.0,0.0,0.0,4.864501455,0.0,0.0,0.0,0.0,0.0,-0.0,0.0,0.0,2.8540036140000002,0.0,0.0012207030000004337,0.8700000047683716,0.5699999928474426,-15.390000343322754,0.009033203125,0.0130615234375,1.00390625,24.18000030517578,0.0,0.0,0.0013885498046875,-4.57763671875E-5,Waiting,0.0,0.0,0.0,0.0,0.0,0.0,0.0,0.0,
2.066555,0.0,0.0,0.0,0.0,0.0,0.0,0.0,0.0,3.80859336,0.0,0.0,0.0,0.0,0.0,-0.0,0.0,0.0,1.8969724620000001,0.0,0.0,0.0,0.0,0.0,0.0,0.0,0.0,4.8632807520000005,0.0,0.0,0.0,0.0,0.0,-0.0,0.0,0.0,2.8527829110000003,0.0,-0.0012207030000004337,0.8700000047683716,0.5699999928474426,-15.390000343322754,0.0096435546875,0.01214599609375,1.01751708984375,24.18000030517578,0.0,0.0,0.0013885498046875,-4.57763671875E-5,Waiting,0.0,0.0,0.0,0.0,0.0,0.0,0.0,0.0,
2.0874850000000005,0.0,0.0,0.0,0.0,0.0,0.0,0.0,0.0,3.80859336,0.0,0.0,0.0,0.0,0.0,-0.0,0.0,0.0,1.8969724620000001,0.0,0.0,0.0,0.0,0.0,0.0,0.0,0.0,4.8632807520000005,0.0,0.0,0.0,0.0,0.0,-0.0,0.0,0.0,2.8540036140000002,0.0,-0.0012207030000004337,0.8700000047683716,0.5699999928474426,-15.390000343322754,0.01068115234375,0.0068359375,0.99700927734375,24.18000030517578,0.0,2.0,0.0013885498046875,-4.57763671875E-5,Waiting,0.0,0.0,0.0,0.0,0.0,0.0,0.0,0.0,
2.1090009999999966,0.0,0.0,0.0,0.0,0.0,0.0,0.0,0.0,3.80859336,0.0,0.0,0.0,0.0,0.0,-0.0,0.0,0.0,1.8981931650000001,0.0,0.0,0.0,0.0,0.0,0.0,0.0,0.0,4.864501455,0.0,0.0,0.0,0.0,0.0,-0.0,0.0,0.0,2.8540036140000002,0.0,0.0,0.8600000143051147,0.5799999833106995,-15.390000343322754,0.01397705078125,0.0123291015625,1.01824951171875,24.18000030517578,0.0,4.0,0.0013885498046875,-4.57763671875E-5,Waiting,0.0,0.0,0.0,0.0,0.0,0.0,0.0,0.0,
2.126568999999996,0.0,0.0,0.0,0.0,0.0,0.0,0.0,0.0,3.809814063,0.0,0.0,0.0,0.0,0.0,-0.0,0.0,0.0,1.8969724620000001,0.0,0.0,0.0,0.0,0.0,0.0,0.0,0.0,4.8632807520000005,0.0,0.0,0.0,0.0,0.0,-0.0,0.0,0.0,2.8540036140000002,0.0,0.0,0.8600000143051147,0.5799999833106995,-15.390000343322754,0.009521484375,0.00830078125,1.02423095703125,24.18000030517578,0.0,1.0,0.0013885498046875,-4.57763671875E-5,Waiting,0.0,0.0,0.0,0.0,0.0,0.0,0.0,0.0,
2.1471860000000014,0.0,0.0,0.0,0.0,0.0,0.0,0.0,0.0,3.809814063,0.0,0.0,0.0,0.0,0.0,-0.0,0.0,0.0,1.8969724620000001,0.0,0.0,0.0,0.0,0.0,0.0,0.0,0.0,4.862060049,0.0,0.0,0.0,0.0,0.0,-0.0,0.0,0.0,2.8540036140000002,0.0,0.0,0.8600000143051147,0.5799999833106995,-15.390000343322754,0.01336669921875,0.01434326171875,1.0072021484375,24.18000030517578,0.0,3.0,0.0013885498046875,-4.57763671875E-5,Waiting,0.0,0.0,0.0,0.0,0.0,0.0,0.0,0.0,
2.166828999999998,0.0,0.0,0.0,0.0,0.0,0.0,0.0,0.0,3.80859336,0.0,0.0,0.0,0.0,0.0,-0.0,0.0,0.0,1.8969724620000001,0.0,0.0,0.0,0.0,0.0,0.0,0.0,0.0,4.8632807520000005,0.0,0.0,0.0,0.0,0.0,-0.0,0.0,0.0,2.8540036140000002,0.0,0.0,0.8600000143051147,0.5799999833106995,-15.390000343322754,0.00958251953125,0.01422119140625,1.01348876953125,24.18000030517578,0.0,0.0,0.0013885498046875,-4.57763671875E-5,Waiting,0.0,0.0,0.0,0.0,0.0,0.0,0.0,0.0,
2.187476999999999,0.0,0.0,0.0,0.0,0.0,0.0,0.0,0.0,3.80859336,0.0,0.0,0.0,0.0,0.0,-0.0,0.0,0.0,1.8969724620000001,0.0,0.0,0.0,0.0,0.0,0.0,0.0,0.0,4.8632807520000005,0.0,0.0,0.0,0.0,0.0,-0.0,0.0,0.0,2.8527829110000003,0.0,0.0,0.8600000143051147,0.5799999833106995,-15.399999618530273,0.01336669921875,0.0194091796875,1.0076904296875,24.18000030517578,0.0,1.0,0.0013885498046875,-4.57763671875E-5,Waiting,0.0,0.0,0.0,0.0,0.0,0.0,0.0,0.0,
2.2094199999999984,0.0,0.0,0.0,0.0,0.0,0.0,0.0,0.0,3.80859336,0.0,0.0,0.0,0.0,0.0,-0.0,0.0,0.0,1.8969724620000001,0.0,0.0,0.0,0.0,0.0,0.0,0.0,0.0,4.864501455,0.0,0.0,0.0,0.0,0.0,-0.0,0.0,0.0,2.8527829110000003,0.0,0.0,0.8600000143051147,0.5799999833106995,-15.399999618530273,0.0096435546875,0.01922607421875,1.02032470703125,24.18000030517578,0.0,-1.0,0.0013885498046875,-4.57763671875E-5,Waiting,0.0,0.0,0.0,0.0,0.0,0.0,0.0,0.0,
2.227252999999997,0.0,0.0,0.0,0.0,0.0,0.0,0.0,0.0,3.80859336,0.0,0.0,0.0,0.0,0.0,-0.0,0.0,0.0,1.8969724620000001,0.0,0.0,0.0,0.0,0.0,0.0,0.0,0.0,4.8632807520000005,0.0,0.0,0.0,0.0,0.0,-0.0,0.0,0.0,2.8527829110000003,0.0,0.0,0.8600000143051147,0.5799999833106995,-15.399999618530273,0.012939453125,0.0216064453125,1.01678466796875,24.18000030517578,0.0,0.0,0.0013885498046875,-4.57763671875E-5,Waiting,0.0,0.0,0.0,0.0,0.0,0.0,0.0,0.0,
2.246635000000002,0.0,0.0,0.0,0.0,0.0,0.0,0.0,0.0,3.80859336,0.0,0.0,0.0,0.0,0.0,-0.0,0.0,0.0,1.8969724620000001,0.0,0.0,0.0,0.0,0.0,0.0,0.0,0.0,4.864501455,0.0,0.0,0.0,0.0,0.0,-0.0,0.0,0.0,2.8527829110000003,0.0,0.0,0.8700000047683716,0.5899999737739563,-15.399999618530273,0.00909423828125,0.01580810546875,0.99444580078125,24.18000030517578,0.0,-1.0,0.0013885498046875,-4.57763671875E-5,Waiting,0.0,0.0,0.0,0.0,0.0,0.0,0.0,0.0,
2.266815999999999,0.0,0.0,0.0,0.0,0.0,0.0,0.0,0.0,3.809814063,0.0,0.0,0.0,0.0,0.0,-0.0,0.0,0.0,1.8969724620000001,0.0,0.0,0.0,0.0,0.0,0.0,0.0,0.0,4.8632807520000005,0.0,0.0,0.0,0.0,0.0,-0.0,0.0,0.0,2.8527829110000003,0.0,0.0,0.8700000047683716,0.5899999737739563,-15.399999618530273,0.00946044921875,0.01409912109375,1.0164794921875,24.18000030517578,0.0,0.0,0.0013885498046875,-4.57763671875E-5,Waiting,0.0,0.0,0.0,0.0,0.0,0.0,0.0,0.0,
2.286781999999999,0.0,0.0,0.0,0.0,0.0,0.0,0.0,0.0,3.809814063,0.0,0.0,0.0,0.0,0.0,-0.0,0.0,0.0,1.8981931650000001,0.0,0.0,0.0,0.0,0.0,0.0,0.0,0.0,4.8632807520000005,0.0,0.0,0.0,0.0,0.0,-0.0,0.0,0.0,2.8540036140000002,0.0,0.0,0.8700000047683716,0.5899999737739563,-15.399999618530273,0.0098876953125,0.01123046875,1.00439453125,24.18000030517578,0.0,2.0,0.0013885498046875,-4.57763671875E-5,Waiting,0.0,0.0,0.0,0.0,0.0,0.0,0.0,0.0,
2.310055,0.0,0.0,0.0,0.0,0.0,0.0,0.0,0.0,3.80859336,0.0,0.0,0.0,0.0,0.0,-0.0,0.0,0.0,1.8981931650000001,0.0,0.0,0.0,0.0,0.0,0.0,0.0,0.0,4.864501455,0.0,0.0,0.0,0.0,0.0,-0.0,0.0,0.0,2.8540036140000002,0.0,0.0,0.8600000143051147,0.5799999833106995,-15.399999618530273,0.00823974609375,0.011962890625,1.0172119140625,24.15999984741211,0.0,-1.0,0.0013885498046875,-4.57763671875E-5,Waiting,0.0,0.0,0.0,0.0,0.0,0.0,0.0,0.0,
2.3265899999999964,0.0,0.0,0.0,0.0,0.0,0.0,0.0,0.0,3.80859336,0.0,0.0,0.0,0.0,0.0,-0.0,0.0,0.0,1.8969724620000001,0.0,0.0,0.0,0.0,0.0,0.0,0.0,0.0,4.8632807520000005,0.0,0.0,0.0,0.0,0.0,-0.0,0.0,0.0,2.8527829110000003,0.0,0.0,0.8500000238418579,0.5899999737739563,-15.399999618530273,0.01043701171875,0.009765625,1.0068359375,24.15999984741211,0.0,1.0,0.0013885498046875,-4.57763671875E-5,Waiting,0.0,0.0,0.0,0.0,0.0,0.0,0.0,0.0,
2.3468839999999984,0.0,0.0,0.0,0.0,0.0,0.0,0.0,0.0,3.80859336,0.0,0.0,0.0,0.0,0.0,-0.0,0.0,0.0,1.8969724620000001,0.0,0.0,0.0,0.0,0.0,0.0,0.0,0.0,4.864501455,0.0,0.0,0.0,0.0,0.0,-0.0,0.0,0.0,2.8540036140000002,0.0,0.0,0.8500000238418579,0.5899999737739563,-15.399999618530273,0.01019287109375,0.01617431640625,1.02337646484375,24.15999984741211,0.0,0.0,0.0013885498046875,-4.57763671875E-5,Waiting,0.0,0.0,0.0,0.0,0.0,0.0,0.0,0.0,
2.3675639999999984,0.0,0.0,0.0,0.0,0.0,0.0,0.0,0.0,3.806151954,0.0,0.0,0.0,0.0,0.0,-0.0,0.0,0.0,1.8969724620000001,0.0,0.0,0.0,0.0,0.0,0.0,0.0,0.0,4.8632807520000005,0.0,0.0,0.0,0.0,0.0,-0.0,0.0,0.0,2.8540036140000002,0.0,0.0,0.8500000238418579,0.5899999737739563,-15.399999618530273,0.0130615234375,0.01190185546875,1.00201416015625,24.15999984741211,0.0,3.0,0.0013885498046875,-4.57763671875E-5,Waiting,0.0,0.0,0.0,0.0,0.0,0.0,0.0,0.0,
2.386862000000001,0.0,0.0,0.0,0.0,0.0,0.0,0.0,0.0,3.80859336,0.0,0.0,0.0,0.0,0.0,-0.0,0.0,0.0,1.8969724620000001,0.0,0.0,0.0,0.0,0.0,0.0,0.0,0.0,4.864501455,0.0,0.0,0.0,0.0,0.0,-0.0,0.0,0.0,2.8527829110000003,0.0,0.0,0.8500000238418579,0.6000000238418579,-15.399999618530273,0.00982666015625,0.01800537109375,1.00994873046875,24.15999984741211,0.0,-1.0,0.0013885498046875,-4.57763671875E-5,Waiting,0.0,0.0,0.0,0.0,0.0,0.0,0.0,0.0,
2.4095559999999967,0.0,0.0,0.0,0.0,0.0,0.0,0.0,0.0,3.80859336,0.0,0.0,0.0,0.0,0.0,-0.0,0.0,0.0,1.8969724620000001,0.0,0.0,0.0,0.0,0.0,0.0,0.0,0.0,4.864501455,0.0,0.0,0.0,0.0,0.0,-0.0,0.0,0.0,2.8540036140000002,0.0,0.0,0.8500000238418579,0.5899999737739563,-15.399999618530273,0.0115966796875,0.01580810546875,1.01104736328125,24.15999984741211,0.0,0.0,0.0013885498046875,-4.57763671875E-5,Waiting,0.0,0.0,0.0,0.0,0.0,0.0,0.0,0.0,
2.4260999999999986,0.0,0.0,0.0,0.0,0.0,0.0,0.0,0.0,3.80859336,0.0,0.0,0.0,0.0,0.0,-0.0,0.0,0.0,1.8969724620000001,0.0,0.0,0.0,0.0,0.0,0.0,0.0,0.0,4.8632807520000005,0.0,0.0,0.0,0.0,0.0,-0.0,0.0,0.0,2.8540036140000002,0.0,0.0,0.8500000238418579,0.5899999737739563,-15.399999618530273,0.010498046875,0.0157470703125,1.01214599609375,24.15999984741211,0.0,0.0,0.0013885498046875,-4.57763671875E-5,Waiting,0.0,0.0,0.0,0.0,0.0,0.0,0.0,0.0,
2.446142999999996,0.0,0.0,0.0,0.0,0.0,0.0,0.0,0.0,3.80859336,0.0,0.0,0.0,0.0,0.0,-0.0,0.0,0.0,1.8969724620000001,0.0,0.0,0.0,0.0,0.0,0.0,0.0,0.0,4.864501455,0.0,0.0,0.0,0.0,0.0,-0.0,0.0,0.0,2.8527829110000003,0.0,0.0,0.8500000238418579,0.5899999737739563,-15.399999618530273,0.0093994140625,0.01336669921875,1.01116943359375,24.15999984741211,0.0,0.0,0.0013885498046875,-4.57763671875E-5,Waiting,0.0,0.0,0.0,0.0,0.0,0.0,0.0,0.0,
2.466072,0.0,0.0,0.0,0.0,0.0,0.0,0.0,0.0,3.80859336,0.0,0.0,0.0,0.0,0.0,-0.0,0.0,0.0,1.8969724620000001,0.0,0.0,0.0,0.0,0.0,0.0,0.0,0.0,4.862060049,0.0,0.0,0.0,0.0,0.0,-0.0,0.0,0.0,2.8540036140000002,0.0,0.0,0.8500000238418579,0.5899999737739563,-15.390000343322754,0.0101318359375,0.01611328125,1.004638671875,24.15999984741211,0.0,0.0,0.0013885498046875,-4.57763671875E-5,Waiting,0.0,0.0,0.0,0.0,0.0,0.0,0.0,0.0,
2.487042000000001,0.0,0.0,0.0,0.0,0.0,0.0,0.0,0.0,3.80859336,0.0,0.0,0.0,0.0,0.0,-0.0,0.0,0.0,1.8969724620000001,0.0,0.0,0.0,0.0,0.0,0.0,0.0,0.0,4.8632807520000005,0.0,0.0,0.0,0.0,0.0,-0.0,0.0,0.0,2.8540036140000002,0.0,0.0,0.8500000238418579,0.5799999833106995,-15.390000343322754,0.0087890625,0.017578125,1.01171875,24.15999984741211,0.0,-2.0,0.0013885498046875,-4.57763671875E-5,Waiting,0.0,0.0,0.0,0.0,0.0,0.0,0.0,0.0,
2.508796000000002,0.0,0.0,0.0,0.0,0.0,0.0,0.0,0.0,3.80859336,0.0,0.0,0.0,0.0,0.0,-0.0,0.0,0.0,1.8969724620000001,0.0,0.0,0.0,0.0,0.0,0.0,0.0,0.0,4.8632807520000005,0.0,0.0,0.0,0.0,0.0,-0.0,0.0,0.0,2.8540036140000002,0.0,0.0,0.8500000238418579,0.5799999833106995,-15.399999618530273,0.0086669921875,0.01629638671875,1.0179443359375,24.15999984741211,0.0,-2.0,0.0013885498046875,-4.57763671875E-5,Waiting,0.0,0.0,0.0,0.0,0.0,0.0,0.0,0.0,
2.5258699999999954,0.0,0.0,0.0,0.0,0.0,0.0,0.0,0.0,3.809814063,0.0,0.0,0.0,0.0,0.0,-0.0,0.0,0.0,1.8969724620000001,0.0,0.0,0.0,0.0,0.0,0.0,0.0,0.0,4.862060049,0.0,0.0,0.0,0.0,0.0,-0.0,0.0,0.0,2.8540036140000002,0.0,0.0,0.8500000238418579,0.5799999833106995,-15.399999618530273,0.008056640625,0.01177978515625,1.0001220703125,24.15999984741211,0.0,-1.0,0.0013885498046875,-4.57763671875E-5,Waiting,0.0,0.0,0.0,0.0,0.0,0.0,0.0,0.0,
2.5460139999999956,0.0,0.0,0.0,0.0,0.0,0.0,0.0,0.0,3.80859336,0.0,0.0,0.0,0.0,0.0,-0.0,0.0,0.0,1.8969724620000001,0.0,0.0,0.0,0.0,0.0,0.0,0.0,0.0,4.864501455,0.0,0.0,0.0,0.0,0.0,-0.0,0.0,0.0,2.8527829110000003,0.0,0.0,0.8500000238418579,0.5799999833106995,-15.399999618530273,0.01007080078125,0.01483154296875,1.02142333984375,24.15999984741211,0.0,0.0,0.0013885498046875,-4.57763671875E-5,Waiting,0.0,0.0,0.0,0.0,0.0,0.0,0.0,0.0,
2.566680999999997,0.0,0.0,0.0,0.0,0.0,0.0,0.0,0.0,3.807372657,0.0,0.0,0.0,0.0,0.0,-0.0,0.0,0.0,1.8969724620000001,0.0,0.0,0.0,0.0,0.0,0.0,0.0,0.0,4.864501455,0.0,0.0,0.0,0.0,0.0,-0.0,0.0,0.0,2.8527829110000003,0.0,0.0,0.8500000238418579,0.5799999833106995,-15.399999618530273,0.00830078125,0.00958251953125,1.01910400390625,24.15999984741211,0.0,0.0,0.0013885498046875,-4.57763671875E-5,Waiting,0.0,0.0,0.0,0.0,0.0,0.0,0.0,0.0,
2.585998999999996,0.0,0.0,0.0,0.0,0.0,0.0,0.0,0.0,3.80859336,0.0,0.0,0.0,0.0,0.0,-0.0,0.0,0.0,1.8969724620000001,0.0,0.0,0.0,0.0,0.0,0.0,0.0,0.0,4.8632807520000005,0.0,0.0,0.0,0.0,0.0,-0.0,0.0,0.0,2.8527829110000003,0.0,0.0,0.8500000238418579,0.5799999833106995,-15.390000343322754,0.0166015625,0.0216064453125,1.0269775390625,24.15999984741211,0.0,4.0,0.0013885498046875,-4.57763671875E-5,Waiting,0.0,0.0,0.0,0.0,0.0,0.0,0.0,0.0,
2.6087560000000014,0.0,0.0,0.0,0.0,0.0,0.0,0.0,0.0,3.809814063,0.0,0.0,0.0,0.0,0.0,-0.0,0.0,0.0,1.8969724620000001,0.0,0.0,0.0,0.0,0.0,0.0,0.0,0.0,4.8632807520000005,0.0,0.0,0.0,0.0,0.0,-0.0,0.0,0.0,2.8540036140000002,0.0,0.0,0.8500000238418579,0.5799999833106995,-15.390000343322754,0.0084228515625,0.00982666015625,1.00799560546875,24.15999984741211,0.0,0.0,0.0013885498046875,-4.57763671875E-5,Waiting,0.0,0.0,0.0,0.0,0.0,0.0,0.0,0.0,
2.626135000000002,0.0,0.0,0.0,0.0,0.0,0.0,0.0,0.0,3.80859336,0.0,0.0,0.0,0.0,0.0,-0.0,0.0,0.0,1.8969724620000001,0.0,0.0,0.0,0.0,0.0,0.0,0.0,0.0,4.8632807520000005,0.0,0.0,0.0,0.0,0.0,-0.0,0.0,0.0,2.8540036140000002,0.0,0.0,0.8500000238418579,0.5799999833106995,-15.390000343322754,0.01641845703125,0.02691650390625,1.03857421875,24.15999984741211,0.0,2.0,0.0013885498046875,-4.57763671875E-5,Waiting,0.0,0.0,0.0,0.0,0.0,0.0,0.0,0.0,
2.646084999999999,0.0,0.0,0.0,0.0,0.0,0.0,0.0,0.0,3.80859336,0.0,0.0,0.0,0.0,0.0,-0.0,0.0,0.0,1.8969724620000001,0.0,0.0,0.0,0.0,0.0,0.0,0.0,0.0,4.864501455,0.0,0.0,0.0,0.0,0.0,-0.0,0.0,0.0,2.8540036140000002,0.0,0.0,0.8500000238418579,0.5899999737739563,-15.390000343322754,0.01361083984375,0.01019287109375,0.991943359375,24.15999984741211,0.0,4.0,0.0013885498046875,-4.57763671875E-5,Waiting,0.0,0.0,0.0,0.0,0.0,0.0,0.0,0.0,
2.6662249999999985,0.0,0.0,0.0,0.0,0.0,0.0,0.0,0.0,3.80859336,0.0,0.0,0.0,0.0,0.0,-0.0,0.0,0.0,1.8969724620000001,0.0,0.0,0.0,0.0,0.0,0.0,0.0,0.0,4.8632807520000005,0.0,0.0,0.0,0.0,0.0,-0.0,0.0,0.0,2.8527829110000003,0.0,0.0,0.8500000238418579,0.5799999833106995,-15.390000343322754,0.0052490234375,0.0216064453125,1.02398681640625,24.15999984741211,0.0,-6.0,0.0013885498046875,-4.57763671875E-5,Waiting,0.0,0.0,0.0,0.0,0.0,0.0,0.0,0.0,
2.6863689999999987,0.0,0.0,0.0,0.0,0.0,0.0,0.0,0.0,3.80859336,0.0,0.0,0.0,0.0,0.0,-0.0,0.0,0.0,1.8981931650000001,0.0,0.0,0.0,0.0,0.0,0.0,0.0,0.0,4.8632807520000005,0.0,0.0,0.0,0.0,0.0,-0.0,0.0,0.0,2.8540036140000002,0.0,0.0,0.8500000238418579,0.5799999833106995,-15.399999618530273,0.0069580078125,0.0179443359375,1.01123046875,24.15999984741211,0.0,-4.0,0.0013885498046875,-4.57763671875E-5,Waiting,0.0,0.0,0.0,0.0,0.0,0.0,0.0,0.0,
2.709434999999998,0.0,0.0,0.0,0.0,0.0,0.0,0.0,0.0,3.809814063,0.0,0.0,0.0,0.0,0.0,-0.0,0.0,0.0,1.8981931650000001,0.0,0.0,0.0,0.0,0.0,0.0,0.0,0.0,4.864501455,0.0,0.0,0.0,0.0,0.0,-0.0,0.0,0.0,2.8540036140000002,0.0,0.0,0.8600000143051147,0.5799999833106995,-15.399999618530273,0.005615234375,0.01300048828125,1.0167236328125,24.15999984741211,0.0,-4.0,0.0013885498046875,-4.57763671875E-5,Waiting,0.0,0.0,0.0,0.0,0.0,0.0,0.0,0.0,
2.7259579999999985,0.0,0.0,0.0,0.0,0.0,0.0,0.0,0.0,3.80859336,0.0,0.0,0.0,0.0,0.0,-0.0,0.0,0.0,1.8969724620000001,0.0,0.0,0.0,0.0,0.0,0.0,0.0,0.0,4.8632807520000005,0.0,0.0,0.0,0.0,0.0,-0.0,0.0,0.0,2.8527829110000003,0.0,0.0,0.8600000143051147,0.5799999833106995,-15.390000343322754,0.00445556640625,0.0191650390625,1.01116943359375,24.15999984741211,0.0,-6.0,0.0013885498046875,-4.57763671875E-5,Waiting,0.0,0.0,0.0,0.0,0.0,0.0,0.0,0.0,
2.746449999999997,0.0,0.0,0.0,0.0,0.0,0.0,0.0,0.0,3.80859336,0.0,0.0,0.0,0.0,0.0,-0.0,0.0,0.0,1.8969724620000001,0.0,0.0,0.0,0.0,0.0,0.0,0.0,0.0,4.8632807520000005,0.0,0.0,0.0,0.0,0.0,-0.0,0.0,0.0,2.8540036140000002,0.0,0.0,0.8600000143051147,0.5699999928474426,-15.390000343322754,0.00408935546875,0.01226806640625,1.021728515625,24.15999984741211,0.0,-5.0,0.0013885498046875,-4.57763671875E-5,Waiting,0.0,0.0,0.0,0.0,0.0,0.0,0.0,0.0,
2.7660219999999973,0.0,0.0,0.0,0.0,0.0,0.0,0.0,0.0,3.809814063,0.0,0.0,0.0,0.0,0.0,-0.0,0.0,0.0,1.8981931650000001,0.0,0.0,0.0,0.0,0.0,0.0,0.0,0.0,4.864501455,0.0,0.0,0.0,0.0,0.0,-0.0,0.0,0.0,2.8527829110000003,0.0,0.0,0.8600000143051147,0.5799999833106995,-15.390000343322754,0.0159912109375,0.0118408203125,1.00384521484375,24.15999984741211,0.0,6.0,0.0013885498046875,-4.57763671875E-5,Waiting,0.0,0.0,0.0,0.0,0.0,0.0,0.0,0.0,
2.785841999999997,0.0,0.0,0.0,0.0,0.0,0.0,0.0,0.0,3.809814063,0.0,0.0,0.0,0.0,0.0,-0.0,0.0,0.0,1.8969724620000001,0.0,0.0,0.0,0.0,0.0,0.0,0.0,0.0,4.8632807520000005,0.0,0.0,0.0,0.0,0.0,-0.0,0.0,0.0,2.8540036140000002,0.0,0.0,0.8600000143051147,0.5699999928474426,-15.390000343322754,0.00994873046875,0.014892578125,1.0201416015625,24.15999984741211,0.0,0.0,0.0013885498046875,-4.57763671875E-5,Waiting,0.0,0.0,0.0,0.0,0.0,0.0,0.0,0.0,
2.8096659999999973,0.0,0.0,0.0,0.0,0.0,0.0,0.0,0.0,3.809814063,0.0,0.0,0.0,0.0,0.0,-0.0,0.0,0.0,1.8969724620000001,0.0,0.0,0.0,0.0,0.0,0.0,0.0,0.0,4.864501455,0.0,0.0,0.0,0.0,0.0,-0.0,0.0,0.0,2.8540036140000002,0.0,0.0,0.8600000143051147,0.5799999833106995,-15.399999618530273,0.011962890625,0.01422119140625,1.01007080078125,24.209999084472656,0.0,1.0,0.0013885498046875,-4.57763671875E-5,Waiting,0.0,0.0,0.0,0.0,0.0,0.0,0.0,0.0,
2.826082999999999,0.0,0.0,0.0,0.0,0.0,0.0,0.0,0.0,3.80859336,0.0,0.0,0.0,0.0,0.0,-0.0,0.0,0.0,1.8969724620000001,0.0,0.0,0.0,0.0,0.0,0.0,0.0,0.0,4.8632807520000005,0.0,0.0,0.0,0.0,0.0,-0.0,0.0,0.0,2.8540036140000002,0.0,0.0,0.8600000143051147,0.5799999833106995,-15.399999618530273,0.01702880859375,0.0179443359375,1.00994873046875,24.209999084472656,0.0,5.0,0.0013885498046875,-4.57763671875E-5,Waiting,0.0,0.0,0.0,0.0,0.0,0.0,0.0,0.0,
2.8461990000000004,0.0,0.0,0.0,0.0,0.0,0.0,0.0,0.0,3.807372657,0.0,0.0,0.0,0.0,0.0,-0.0,0.0,0.0,1.8969724620000001,0.0,0.0,0.0,0.0,0.0,0.0,0.0,0.0,4.8632807520000005,0.0,0.0,0.0,0.0,0.0,-0.0,0.0,0.0,2.8540036140000002,0.0,0.0,0.8600000143051147,0.5799999833106995,-15.399999618530273,0.01739501953125,0.01593017578125,1.00946044921875,24.209999084472656,0.0,6.0,0.0013885498046875,-4.57763671875E-5,Waiting,0.0,0.0,0.0,0.0,0.0,0.0,0.0,0.0,
2.8666129999999974,0.0,0.0,0.0,0.0,0.0,0.0,0.0,0.0,3.80859336,0.0,0.0,0.0,0.0,0.0,-0.0,0.0,0.0,1.8969724620000001,0.0,0.0,0.0,0.0,0.0,0.0,0.0,0.0,4.864501455,0.0,0.0,0.0,0.0,0.0,-0.0,0.0,0.0,2.8527829110000003,0.0,0.0,0.8500000238418579,0.5799999833106995,-15.399999618530273,0.01861572265625,0.012451171875,1.00689697265625,24.209999084472656,0.0,8.0,0.0013885498046875,-4.57763671875E-5,Waiting,0.0,0.0,0.0,0.0,0.0,0.0,0.0,0.0,
2.8870380000000004,0.0,0.0,0.0,0.0,0.0,0.0,0.0,0.0,3.80859336,0.0,0.0,0.0,0.0,0.0,-0.0,0.0,0.0,1.8969724620000001,0.0,0.0,0.0,0.0,0.0,0.0,0.0,0.0,4.864501455,0.0,0.0,0.0,0.0,0.0,-0.0,0.0,0.0,2.8540036140000002,0.0,0.0,0.8500000238418579,0.5799999833106995,-15.390000343322754,0.00909423828125,0.01922607421875,0.99298095703125,24.209999084472656,0.0,-2.0,0.0013885498046875,-4.57763671875E-5,Waiting,0.0,0.0,0.0,0.0,0.0,0.0,0.0,0.0,
2.909646000000001,0.0,0.0,0.0,0.0,0.0,0.0,0.0,0.0,3.809814063,0.0,0.0,0.0,0.0,0.0,-0.0,0.0,0.0,1.8969724620000001,0.0,0.0,0.0,0.0,0.0,0.0,0.0,0.0,4.864501455,0.0,0.0,0.0,0.0,0.0,-0.0,0.0,0.0,2.8540036140000002,0.0,0.0,0.8600000143051147,0.5699999928474426,-15.390000343322754,0.00762939453125,0.0101318359375,1.00592041015625,24.209999084472656,0.0,-1.0,0.0013885498046875,-4.57763671875E-5,Waiting,0.0,0.0,0.0,0.0,0.0,0.0,0.0,0.0,
2.9259029999999986,0.0,0.0,0.0,0.0,0.0,0.0,0.0,0.0,3.807372657,0.0,0.0,0.0,0.0,0.0,-0.0,0.0,0.0,1.8969724620000001,0.0,0.0,0.0,0.0,0.0,0.0,0.0,0.0,4.864501455,0.0,0.0,0.0,0.0,0.0,-0.0,0.0,0.0,2.8540036140000002,0.0,0.0,0.8600000143051147,0.5600000023841858,-15.390000343322754,0.00250244140625,0.01251220703125,1.0206298828125,24.209999084472656,0.0,-6.0,0.0013885498046875,-4.57763671875E-5,Waiting,0.0,0.0,0.0,0.0,0.0,0.0,0.0,0.0,
2.947036999999997,0.0,0.0,0.0,0.0,0.0,0.0,0.0,0.0,3.80859336,0.0,0.0,0.0,0.0,0.0,-0.0,0.0,0.0,1.8969724620000001,0.0,0.0,0.0,0.0,0.0,0.0,0.0,0.0,4.8657221580000005,0.0,0.0,0.0,0.0,0.0,-0.0,0.0,0.0,2.8540036140000002,0.0,0.0,0.8600000143051147,0.5600000023841858,-15.390000343322754,1.220703125E-4,0.013916015625,1.01446533203125,24.209999084472656,0.0,-9.0,0.0013885498046875,-4.57763671875E-5,Waiting,0.0,0.0,0.0,0.0,0.0,0.0,0.0,0.0,
2.9670020000000004,0.0,0.0,0.0,0.0,0.0,0.0,0.0,0.0,3.80859336,0.0,0.0,0.0,0.0,0.0,-0.0,0.0,0.0,1.8969724620000001,0.0,0.0,0.0,0.0,0.0,0.0,0.0,0.0,4.8632807520000005,0.0,0.0,0.0,0.0,0.0,-0.0,0.0,0.0,2.8540036140000002,0.0,0.0,0.8600000143051147,0.550000011920929,-15.390000343322754,-8.544921875E-4,0.01068115234375,1.02325439453125,24.209999084472656,0.0,-9.0,0.0013885498046875,-4.57763671875E-5,Waiting,0.0,0.0,0.0,0.0,0.0,0.0,0.0,0.0,
2.9866429999999964,0.0,0.0,0.0,0.0,0.0,0.0,0.0,0.0,3.80859336,0.0,0.0,0.0,0.0,0.0,-0.0,0.0,0.0,1.8969724620000001,0.0,0.0,0.0,0.0,0.0,0.0,0.0,0.0,4.8632807520000005,0.0,0.0,0.0,0.0,0.0,-0.0,0.0,0.0,2.8540036140000002,0.0,0.0,0.8600000143051147,0.5400000214576721,-15.380000114440918,0.00567626953125,0.01910400390625,1.02191162109375,24.209999084472656,0.0,-4.0,0.0013885498046875,-4.57763671875E-5,Waiting,0.0,0.0,0.0,0.0,0.0,0.0,0.0,0.0,
3.0090919999999968,0.0,0.0,0.0,0.0,0.0,0.0,0.0,0.0,3.80859336,0.0,0.0,0.0,0.0,0.0,-0.0,0.0,0.0,1.8969724620000001,0.0,0.0,0.0,0.0,0.0,0.0,0.0,0.0,4.864501455,0.0,0.0,0.0,0.0,0.0,-0.0,0.0,0.0,2.8515622080000003,0.0,0.0,0.8600000143051147,0.5400000214576721,-15.380000114440918,0.008056640625,0.01763916015625,1.01824951171875,24.209999084472656,0.0,-2.0,0.0013885498046875,-4.57763671875E-5,Waiting,0.0,0.0,0.0,0.0,0.0,0.0,0.0,0.0,
3.0263709999999993,0.0,0.0,0.0,0.0,0.0,0.0,0.0,0.0,3.80859336,0.0,0.0,0.0,0.0,0.0,-0.0,0.0,0.0,1.906738086,0.0,0.0,0.0,0.0,0.0,0.0,0.0,0.0,4.864501455,0.0,0.0,0.0,0.0,0.0,-0.0,0.0,0.0,2.8540036140000002,0.0,0.0,0.8600000143051147,0.5400000214576721,-15.380000114440918,0.00518798828125,0.0167236328125,1.0009765625,24.209999084472656,0.0,-4.0,0.0013885498046875,-4.57763671875E-5,Waiting,0.0,0.0,0.0,0.0,0.0,0.0,0.0,0.0,
3.0466659999999974,0.0,0.0,0.0,0.0,0.0,0.0,0.0,0.0,3.809814063,0.0,0.0,0.0,0.0,0.0,-0.0,0.0,0.0,1.9165037100000002,0.0,0.0,0.0,0.0,0.0,0.0,0.0,0.0,4.864501455,0.0,0.0,0.0,0.0,0.0,-0.0,0.0,0.0,2.8540036140000002,0.0,0.0,0.8700000047683716,0.550000011920929,-15.390000343322754,0.0181884765625,0.01708984375,1.01385498046875,24.209999084472656,0.0,7.0,0.0013885498046875,-4.57763671875E-5,Waiting,0.0,0.0,0.0,0.0,0.0,0.0,0.0,0.0,
3.0666719999999987,0.0,0.0,0.0,0.0,0.0,0.0,0.0,0.0,3.80859336,0.0,0.0,0.0,0.0,0.0,-0.0,0.0,0.0,1.9165037100000002,0.0,0.009765623999999917,0.0,0.0,0.0,0.0,0.0,0.0,4.862060049,0.0,0.0,0.0,0.0,0.0,-0.0,0.0,0.0,2.8527829110000003,0.0,0.0012207030000004337,0.8700000047683716,0.550000011920929,-15.390000343322754,0.02032470703125,0.02069091796875,1.02490234375,24.209999084472656,0.0,8.0,0.0013885498046875,-4.57763671875E-5,Waiting,0.0,0.0,0.0,0.0,0.0,0.0,0.0,0.0,
