Time,ClimberA1,ClimberA2,FRpos,FRCurrent,FRspeed,FRsetpoint,FRApos,FRACurrent,FREncpos,FREncSetpoint,FREncSpeed,FLpos,FLCurrent,FLspeed,FLsetpoint,FLApos,FLACurrent,FLEncpos,FLEncSetpoint,FLEncSpeed,BRpos,BRCurrent,BRspeed,BRsetpoint,BRApos,BRACurrent,BREncpos,BREncSetpoint,BREncSpeed,BLpos,BLCurrent,BLspeed,BLsetpoint,BLApos,BLACurrent,BLEncpos,BLEncSetpoint,BLEncSpeed,navx_Pitch,navx_Roll,navx_Yaw,navx_XAcc,navx_YAcc,navx_ZAcc,navx_Temp,navx_Bar,navx_Alt,navx_XDis,navx_YDis,GearPlacerState,ShootOutputV,ShootOutputCurrent,ShootEncPos,ShootEncVelocity,ShootSpeed,ShootSetpoint,CarouselSetpoint,CarouselCurrent,
0.40639999999999415,0.0,0.0,0.0,0.0,0.0,0.0,0.0,0.0,3.809814063,0.0,0.0,0.0,0.0,0.0,0.0,0.0,0.0,1.8920896500000002,0.0,0.0,0.0,0.0,0.0,0.0,0.0,0.0,4.871825673,0.0,0.0,0.0,0.0,0.0,0.0,0.0,0.0,2.862548535,0.0,0.0,0.8600000143051147,0.6899999976158142,5.630000114440918,0.01422119140625,0.01513671875,1.00604248046875,29.6200008392334,0.0,1.0,2.74658203125E-4,-1.373291015625E-4,Closing,0.0,0.0,0.0,0.0,0.0,0.0,0.0,0.0,
0.4704310000000114,0.0,0.0,0.0,0.0,0.0,0.0,0.0,0.0,3.809814063,0.0,0.0,0.0,0.0,0.0,-0.0,0.0,0.0,1.8920896500000002,0.0,0.0,0.0,0.0,0.0,0.0,0.0,0.0,4.866942861,0.0,0.003662109000000413,0.0,0.0,0.0,-0.0,0.0,0.0,2.863769238,0.0,0.0,0.8700000047683716,0.6899999976158142,5.630000114440918,0.01446533203125,0.01544189453125,1.00103759765625,29.639999389648438,0.0,2.0,2.74658203125E-4,-1.373291015625E-4,Closing,0.0,0.0,0.0,0.0,0.0,0.0,0.0,0.0,
0.5340050000000046,0.0,0.0,0.0,0.0,0.0,0.0,0.0,0.0,3.809814063,0.0,0.0,0.0,0.0,0.0,-0.0,0.0,0.0,1.8920896500000002,0.0,0.0,0.0,0.0,0.0,0.0,0.0,0.0,4.8681635640000005,0.0,0.0,0.0,0.0,0.0,-0.0,0.0,0.0,2.862548535,0.0,0.0,0.8700000047683716,0.6899999976158142,5.630000114440918,0.010009765625,0.0125732421875,1.00390625,29.639999389648438,0.0,-2.0,2.74658203125E-4,-1.373291015625E-4,Closing,0.0,0.0,0.0,0.0,0.0,0.0,0.0,0.0,
0.5730080000000016,0.0,0.0,0.0,0.0,0.0,0.0,0.0,0.0,3.80859336,0.0,0.0,0.0,0.0,0.0,-0.0,0.0,0.0,1.8920896500000002,0.0,0.0,0.0,0.0,0.0,0.0,0.0,0.0,4.874267079,0.0,0.0,0.0,0.0,0.0,-0.0,0.0,0.0,2.863769238,0.0,0.0,0.8700000047683716,0.6899999976158142,5.630000114440918,0.01263427734375,0.01385498046875,1.00750732421875,29.639999389648438,0.0,0.0,2.74658203125E-4,-1.373291015625E-4,Closing,0.0,0.0,0.0,0.0,0.0,0.0,0.0,0.0,
0.5991780000000144,0.0,0.0,0.0,0.0,0.0,0.0,0.0,0.0,3.80859336,0.0,0.0,0.0,0.0,0.0,-0.0,0.0,0.0,1.8920896500000002,0.0,0.0,0.0,0.0,0.0,0.0,0.0,0.0,4.8681635640000005,0.0,-0.0012207030000004337,0.0,0.0,0.0,-0.0,0.0,0.0,2.862548535,0.0,0.0,0.8700000047683716,0.6899999976158142,5.630000114440918,0.01165771484375,0.01666259765625,1.00225830078125,29.639999389648438,0.0,0.0,2.74658203125E-4,-1.373291015625E-4,Closing,0.0,0.0,0.0,0.0,0.0,0.0,0.0,0.0,
0.6285340000000142,0.0,0.0,0.0,0.0,0.0,0.0,0.0,0.0,3.809814063,0.0,0.0,0.0,0.0,0.0,-0.0,0.0,0.0,1.8920896500000002,0.0,0.0,0.0,0.0,0.0,0.0,0.0,0.0,4.8730463760000005,0.0,-0.0012207030000004337,0.0,0.0,0.0,-0.0,0.0,0.0,2.863769238,0.0,0.0,0.8700000047683716,0.6899999976158142,5.630000114440918,0.0098876953125,0.01483154296875,1.00555419921875,29.639999389648438,0.0,-2.0,2.74658203125E-4,-1.373291015625E-4,Closing,0.0,0.0,0.0,0.0,0.0,0.0,0.0,0.0,
0.6537050000000163,0.0,0.0,0.0,0.0,0.0,0.0,0.0,0.0,3.80859336,0.0,0.0,0.0,0.0,0.0,-0.0,0.0,0.0,1.8920896500000002,0.0,0.0,0.0,0.0,0.0,0.0,0.0,0.0,4.8681635640000005,0.0,0.0024414059999999793,0.0,0.0,0.0,-0.0,0.0,0.0,2.862548535,0.0,0.0,0.8700000047683716,0.6899999976158142,5.630000114440918,0.0135498046875,0.014404296875,1.0084228515625,29.639999389648438,0.0,1.0,2.74658203125E-4,-1.373291015625E-4,Closing,0.0,0.0,0.0,0.0,0.0,0.0,0.0,0.0,
0.6831180000000168,0.0,0.0,0.0,0.0,0.0,0.0,0.0,0.0,3.80859336,0.0,0.0,0.0,0.0,0.0,-0.0,0.0,0.0,1.8920896500000002,0.0,0.0,0.0,0.0,0.0,0.0,0.0,0.0,4.874267079,0.0,0.0024414059999999793,0.0,0.0,0.0,-0.0,0.0,0.0,2.862548535,0.0,0.0,0.8700000047683716,0.6899999976158142,5.630000114440918,0.01336669921875,0.0128173828125,1.00653076171875,29.639999389648438,0.0,0.0,2.74658203125E-4,-1.373291015625E-4,Closing,0.0,0.0,0.0,0.0,0.0,0.0,0.0,0.0,
0.7109800000000105,0.0,0.0,0.0,0.0,0.0,0.0,0.0,0.0,3.80859336,0.0,0.0,0.0,0.0,0.0,-0.0,0.0,0.0,1.8920896500000002,0.0,0.0,0.0,0.0,0.0,0.0,0.0,0.0,4.866942861,0.0,-0.003662108999999525,0.0,0.0,0.0,-0.0,0.0,0.0,2.862548535,0.0,0.0,0.8700000047683716,0.6899999976158142,5.630000114440918,0.01177978515625,0.0166015625,1.00946044921875,29.639999389648438,0.0,0.0,2.74658203125E-4,-1.373291015625E-4,Closing,0.0,0.0,0.0,0.0,0.0,0.0,0.0,0.0,
0.7343120000000054,0.0,0.0,0.0,0.0,0.0,0.0,0.0,0.0,3.80859336,0.0,0.0,0.0,0.0,0.0,-0.0,0.0,0.0,1.8920896500000002,0.0,0.0,0.0,0.0,0.0,0.0,0.0,0.0,4.869384267,0.0,0.0012207029999995456,0.0,0.0,0.0,-0.0,0.0,0.0,2.863769238,0.0,0.0,0.8700000047683716,0.6899999976158142,5.630000114440918,0.01190185546875,0.01556396484375,1.00811767578125,29.639999389648438,0.0,0.0,2.74658203125E-4,-1.373291015625E-4,Closing,0.0,0.0,0.0,0.0,0.0,0.0,0.0,0.0,
0.7662149999999965,0.0,0.0,0.0,0.0,0.0,0.0,0.0,0.0,3.80859336,0.0,0.0,0.0,0.0,0.0,-0.0,0.0,0.0,1.8920896500000002,0.0,0.0,0.0,0.0,0.0,0.0,0.0,0.0,4.874267079,0.0,0.0012207029999995456,0.0,0.0,0.0,-0.0,0.0,0.0,2.864989941,0.0,0.0,0.8700000047683716,0.6899999976158142,5.630000114440918,0.0125732421875,0.0191650390625,1.0115966796875,29.639999389648438,0.0,0.0,2.74658203125E-4,-1.373291015625E-4,Closing,0.0,0.0,0.0,0.0,0.0,0.0,0.0,0.0,
0.7894250000000175,0.0,0.0,0.0,0.0,0.0,0.0,0.0,0.0,3.80859336,0.0,0.0,0.0,0.0,0.0,-0.0,0.0,0.0,1.8920896500000002,0.0,0.0,0.0,0.0,0.0,0.0,0.0,0.0,4.874267079,0.0,0.0,0.0,0.0,0.0,-0.0,0.0,0.0,2.862548535,0.0,0.0,0.8700000047683716,0.6899999976158142,5.630000114440918,0.01055908203125,0.0162353515625,1.005615234375,29.639999389648438,0.0,-1.0,2.74658203125E-4,-1.373291015625E-4,Closing,0.0,0.0,0.0,0.0,0.0,0.0,0.0,0.0,
0.8192369999999937,0.0,0.0,0.0,0.0,0.0,0.0,0.0,0.0,3.80859336,0.0,0.0,0.0,0.0,0.0,-0.0,0.0,0.0,1.8920896500000002,0.0,0.0,0.0,0.0,0.0,0.0,0.0,0.0,4.8681635640000005,0.0,0.0,0.0,0.0,0.0,-0.0,0.0,0.0,2.864989941,0.0,0.0,0.8700000047683716,0.6899999976158142,5.630000114440918,0.01361083984375,0.01422119140625,1.00408935546875,29.639999389648438,0.0,1.0,2.74658203125E-4,-1.373291015625E-4,Closing,0.0,0.0,0.0,0.0,0.0,0.0,0.0,0.0,
0.8465970000000088,0.0,0.0,0.0,0.0,0.0,0.0,0.0,0.0,3.809814063,0.0,0.0,0.0,0.0,0.0,-0.0,0.0,0.0,1.8920896500000002,0.0,0.0,0.0,0.0,0.0,0.0,0.0,0.0,4.8681635640000005,0.0,0.0024414059999999793,0.0,0.0,0.0,-0.0,0.0,0.0,2.863769238,0.0,0.0,0.8700000047683716,0.6899999976158142,5.630000114440918,0.0113525390625,0.01318359375,1.0015869140625,29.639999389648438,0.0,0.0,2.74658203125E-4,-1.373291015625E-4,Closing,0.0,0.0,0.0,0.0,0.0,0.0,0.0,0.0,
0.8738509999999952,0.0,0.0,0.0,0.0,0.0,0.0,0.0,0.0,3.80859336,0.0,0.0,0.0,0.0,0.0,-0.0,0.0,0.0,1.8933103530000002,0.0,0.0,0.0,0.0,0.0,0.0,0.0,0.0,4.8730463760000005,0.0,0.0024414059999999793,0.0,0.0,0.0,-0.0,0.0,0.0,2.863769238,0.0,0.0,0.8700000047683716,0.6899999976158142,5.630000114440918,0.01214599609375,0.01654052734375,1.00396728515625,29.639999389648438,0.0,0.0,2.74658203125E-4,-1.373291015625E-4,Closing,0.0,0.0,0.0,0.0,0.0,0.0,0.0,0.0,
0.9050230000000156,0.0,0.0,0.0,0.0,0.0,0.0,0.0,0.0,3.809814063,0.0,0.0,0.0,0.0,0.0,-0.0,0.0,0.0,1.8920896500000002,0.0,0.0,0.0,0.0,0.0,0.0,0.0,0.0,4.866942861,0.0,-0.0024414059999999793,0.0,0.0,0.0,-0.0,0.0,0.0,2.862548535,0.0,0.0,0.8700000047683716,0.6899999976158142,5.630000114440918,0.0106201171875,0.01434326171875,1.00592041015625,29.639999389648438,0.0,-1.0,2.74658203125E-4,-1.373291015625E-4,Closing,0.0,0.0,0.0,0.0,0.0,0.0,0.0,0.0,
0.9319180000000051,0.0,0.0,0.0,0.0,0.0,0.0,0.0,0.0,3.80859336,0.0,0.0,0.0,0.0,0.0,-0.0,0.0,0.0,1.8920896500000002,0.0,0.0,0.0,0.0,0.0,0.0,0.0,0.0,4.869384267,0.0,-0.0024414059999999793,0.0,0.0,0.0,-0.0,0.0,0.0,2.862548535,0.0,0.0,0.8700000047683716,0.6899999976158142,5.630000114440918,0.01287841796875,0.01580810546875,1.00262451171875,29.639999389648438,0.0,0.0,2.74658203125E-4,-1.373291015625E-4,Closing,0.0,0.0,0.0,0.0,0.0,0.0,0.0,0.0,
0.9623470000000088,0.0,0.0,0.0,0.0,0.0,0.0,0.0,0.0,3.809814063,0.0,0.0,0.0,0.0,0.0,-0.0,0.0,0.0,1.8920896500000002,0.0,0.0,0.0,0.0,0.0,0.0,0.0,0.0,4.8681635640000005,0.0,-0.0012207029999995456,0.0,0.0,0.0,-0.0,0.0,0.0,2.862548535,0.0,0.0,0.8700000047683716,0.6899999976158142,5.630000114440918,0.013427734375,0.01434326171875,1.0081787109375,29.6200008392334,0.0,1.0,2.74658203125E-4,-1.373291015625E-4,Closing,0.0,0.0,0.0,0.0,0.0,0.0,0.0,0.0,
0.9874759999999951,0.0,0.0,0.0,0.0,0.0,0.0,0.0,0.0,3.80859336,0.0,0.0,0.0,0.0,0.0,-0.0,0.0,0.0,1.8920896500000002,0.0,0.0,0.0,0.0,0.0,0.0,0.0,0.0,4.8681635640000005,0.0,0.0012207029999995456,0.0,0.0,0.0,-0.0,0.0,0.0,2.862548535,0.0,0.0,0.8700000047683716,0.6899999976158142,5.630000114440918,0.0126953125,0.0174560546875,1.00372314453125,29.6200008392334,0.0,0.0,2.74658203125E-4,-1.373291015625E-4,Closing,0.0,0.0,0.0,0.0,0.0,0.0,0.0,0.0,
1.014466000000015,0.0,0.0,0.0,0.0,0.0,0.0,0.0,0.0,3.80859336,0.0,0.0,0.0,0.0,0.0,-0.0,0.0,0.0,1.8920896500000002,0.0,0.0,0.0,0.0,0.0,0.0,0.0,0.0,4.8730463760000005,0.0,0.0012207029999995456,0.0,0.0,0.0,-0.0,0.0,0.0,2.863769238,0.0,0.0,0.8700000047683716,0.6899999976158142,5.630000114440918,0.01373291015625,0.01654052734375,1.0057373046875,29.6200008392334,0.0,1.0,2.74658203125E-4,-1.373291015625E-4,Closing,0.0,0.0,0.0,0.0,0.0,0.0,0.0,0.0,
1.0428729999999924,0.0,0.0,0.0,0.0,0.0,0.0,0.0,0.0,3.80859336,0.0,0.0,0.0,0.0,0.0,-0.0,0.0,0.0,1.8920896500000002,0.0,0.0,0.0,0.0,0.0,0.0,0.0,0.0,4.8681635640000005,0.0,-0.0012207029999995456,0.0,0.0,0.0,-0.0,0.0,0.0,2.862548535,0.0,0.0,0.8700000047683716,0.6899999976158142,5.630000114440918,0.0123291015625,0.0185546875,1.00567626953125,29.6200008392334,0.0,0.0,2.74658203125E-4,-1.373291015625E-4,Closing,0.0,0.0,0.0,0.0,0.0,0.0,0.0,0.0,
1.0710500000000174,0.0,0.0,0.0,0.0,0.0,0.0,0.0,0.125,3.80859336,0.0,0.0,0.0,0.0,0.0,-0.0,0.0,0.0,1.8933103530000002,0.0,0.0,0.0,0.0,0.0,0.0,0.0,0.0,4.8706049700000005,0.0,-0.0012207029999995456,0.0,0.0,0.0,-0.0,0.0,0.0,2.862548535,0.0,0.0,0.8700000047683716,0.6899999976158142,5.630000114440918,0.00982666015625,0.01483154296875,1.007080078125,29.6200008392334,0.0,-2.0,2.74658203125E-4,-1.373291015625E-4,Closing,0.0,0.0,0.0,0.0,0.0,0.0,0.0,0.0,
1.0947099999999919,0.0,0.0,0.0,0.0,0.0,0.0,0.0,0.125,3.809814063,0.0,-0.0012207029999999897,0.0,0.0,0.0,-0.0,0.0,0.0,1.8920896500000002,0.0,0.0,0.0,0.0,0.0,0.0,0.0,0.0,4.866942861,0.0,0.0024414059999999793,0.0,0.0,0.0,-0.0,0.0,0.0,2.862548535,0.0,0.0,0.8700000047683716,0.6800000071525574,5.630000114440918,0.0137939453125,0.0172119140625,1.0079345703125,29.6200008392334,0.0,1.0,2.74658203125E-4,-1.373291015625E-4,Closing,0.0,0.0,0.0,0.0,0.0,0.0,0.0,0.0,
1.1497270000000135,0.0,0.0,0.0,0.0,0.0,0.0,0.0,0.0,3.809814063,0.0,0.0012207029999999897,0.0,0.0,0.0,-0.0,0.0,0.0,1.8920896500000002,0.0,0.0,0.0,0.0,0.0,0.0,0.0,0.0,4.8730463760000005,0.0,-0.0012207030000004337,0.0,0.0,0.0,-0.0,0.0,0.0,2.863769238,0.0,0.0,0.8700000047683716,0.6800000071525574,5.630000114440918,0.012939453125,0.01336669921875,1.00872802734375,29.6200008392334,0.0,0.0,2.74658203125E-4,-1.373291015625E-4,Closing,0.0,0.0,0.0,0.0,0.0,0.0,0.0,0.0,
1.1931650000000082,0.0,0.0,0.0,0.0,0.0,0.0,0.0,0.0,3.80859336,0.0,0.0,0.0,0.0,0.0,-0.0,0.0,0.0,1.8920896500000002,0.0,0.0,0.0,0.0,0.0,0.0,0.0,0.0,4.8681635640000005,0.0,0.0012207030000004337,0.0,0.0,0.0,-0.0,0.0,0.0,2.862548535,0.0,0.0,0.8700000047683716,0.6800000071525574,5.630000114440918,0.01025390625,0.0166015625,1.00494384765625,29.6200008392334,0.0,-1.0,2.74658203125E-4,-1.373291015625E-4,Closing,0.0,0.0,0.0,0.0,0.0,0.0,0.0,0.0,
1.2255769999999901,0.0,0.0,0.0,0.0,0.0,0.0,0.0,0.0,3.809814063,0.0,0.0,0.0,0.0,0.0,-0.0,0.0,0.0,1.8920896500000002,0.0,0.0,0.0,0.0,0.0,0.0,0.0,0.0,4.8730463760000005,0.0,0.0012207030000004337,0.0,0.0,0.0,-0.0,0.0,0.0,2.863769238,0.0,0.0,0.8700000047683716,0.6800000071525574,5.630000114440918,0.01214599609375,0.01385498046875,1.00531005859375,29.6200008392334,0.0,0.0,2.74658203125E-4,-1.373291015625E-4,Closing,0.0,0.0,0.0,0.0,0.0,0.0,0.0,0.0,
1.2488479999999982,0.0,0.0,0.0,0.0,0.0,0.0,0.0,0.0,3.809814063,0.0,0.0,0.0,0.0,0.0,-0.0,0.0,0.0,1.8920896500000002,0.0,0.0,0.0,0.0,0.0,0.0,0.0,0.0,4.8730463760000005,0.0,-0.0012207030000004337,0.0,0.0,0.0,-0.0,0.0,0.0,2.863769238,0.0,0.0,0.8700000047683716,0.6800000071525574,5.630000114440918,0.0140380859375,0.01422119140625,1.00244140625,29.6200008392334,0.0,1.0,2.74658203125E-4,-1.373291015625E-4,Closing,0.0,0.0,0.0,0.0,0.0,0.0,0.0,0.0,
1.274869000000006,0.0,0.0,0.0,0.0,0.0,0.0,0.0,0.125,3.809814063,0.0,0.0,0.0,0.0,0.0,-0.0,0.0,0.0,1.8920896500000002,0.0,0.0,0.0,0.0,0.0,0.0,0.0,0.0,4.8681635640000005,0.0,-0.0012207030000004337,0.0,0.0,0.0,-0.0,0.0,0.0,2.862548535,0.0,0.0,0.8700000047683716,0.6800000071525574,5.630000114440918,0.01190185546875,0.013671875,1.00592041015625,29.6200008392334,0.0,0.0,2.74658203125E-4,-1.373291015625E-4,Closing,0.0,0.0,0.0,0.0,0.0,0.0,0.0,0.0,
1.3063559999999999,0.0,0.0,0.0,0.0,0.0,0.0,0.0,0.125,3.80859336,0.0,0.0,0.0,0.0,0.0,-0.0,0.0,0.0,1.8920896500000002,0.0,0.0,0.0,0.0,0.0,0.0,0.0,0.0,4.8681635640000005,0.0,0.0024414059999999793,0.0,0.0,0.0,-0.0,0.0,0.0,2.863769238,0.0,0.0,0.8700000047683716,0.6800000071525574,5.630000114440918,0.01263427734375,0.0150146484375,1.01055908203125,29.6200008392334,0.0,0.0,2.74658203125E-4,-1.373291015625E-4,Closing,0.0,0.0,0.0,0.0,0.0,0.0,0.0,0.0,
1.3312850000000034,0.0,0.0,0.0,0.0,0.0,0.0,0.0,0.125,3.809814063,0.0,0.0,0.0,0.0,0.0,-0.0,0.0,0.0,1.8920896500000002,0.0,0.0,0.0,0.0,0.0,0.0,0.0,0.0,4.8730463760000005,0.0,0.0024414059999999793,0.0,0.0,0.0,-0.0,0.0,0.0,2.863769238,0.0,0.0,0.8700000047683716,0.6800000071525574,5.630000114440918,0.009765625,0.01348876953125,1.00433349609375,29.6200008392334,0.0,-2.0,2.74658203125E-4,-1.373291015625E-4,Closing,0.0,0.0,0.0,0.0,0.0,0.0,0.0,0.0,
1.3577209999999904,0.0,0.0,0.0,0.0,0.0,0.0,0.0,0.0,3.809814063,0.0,0.0,0.0,0.0,0.0,-0.0,0.0,0.0,1.8920896500000002,0.0,0.0,0.0,0.0,0.0,0.0,0.0,0.0,4.8730463760000005,0.0,-0.0024414059999999793,0.0,0.0,0.0,-0.0,0.0,0.0,2.863769238,0.0,0.0,0.8700000047683716,0.6800000071525574,5.630000114440918,0.01458740234375,0.0146484375,1.00653076171875,29.6200008392334,0.0,2.0,2.74658203125E-4,-1.373291015625E-4,Closing,0.0,0.0,0.0,0.0,0.0,0.0,0.0,0.0,
1.3842980000000098,0.0,0.0,0.0,0.0,0.0,0.0,0.0,0.0,3.809814063,0.0,0.0,0.0,0.0,0.0,-0.0,0.0,0.0,1.8920896500000002,0.0,0.0,0.0,0.0,0.0,0.0,0.0,0.0,4.8730463760000005,0.0,-0.0024414059999999793,0.0,0.0,0.0,-0.0,0.0,0.0,2.862548535,0.0,0.0,0.8700000047683716,0.6800000071525574,5.630000114440918,0.0103759765625,0.01495361328125,1.0037841796875,29.6200008392334,0.0,-1.0,2.74658203125E-4,-1.373291015625E-4,Closing,0.0,0.0,0.0,0.0,0.0,0.0,0.0,0.0,
1.4108220000000147,0.0,0.0,0.0,0.0,0.0,0.0,0.0,0.0,3.809814063,0.0,0.0,0.0,0.0,0.0,-0.0,0.0,0.0,1.8920896500000002,0.0,0.0,0.0,0.0,0.0,0.0,0.0,0.0,4.871825673,0.0,0.0,0.0,0.0,0.0,-0.0,0.0,0.0,2.862548535,0.0,0.0,0.8700000047683716,0.6800000071525574,5.630000114440918,0.01318359375,0.0111083984375,1.0072021484375,29.6200008392334,0.0,0.0,2.74658203125E-4,-1.373291015625E-4,Closing,0.0,0.0,0.0,0.0,0.0,0.0,0.0,0.0,
1.4338010000000068,0.0,0.0,0.0,0.0,0.0,0.0,0.0,0.0,3.80859336,0.0,0.0,0.0,0.0,0.0,-0.0,0.0,0.0,1.8920896500000002,0.0,0.0,0.0,0.0,0.0,0.0,0.0,0.0,4.8730463760000005,0.0,0.0,0.0,0.0,0.0,-0.0,0.0,0.0,2.862548535,0.0,0.0,0.8700000047683716,0.6800000071525574,5.630000114440918,0.014892578125,0.01788330078125,1.00640869140625,29.6200008392334,0.0,3.0,2.74658203125E-4,-1.373291015625E-4,Closing,0.0,0.0,0.0,0.0,0.0,0.0,0.0,0.0,
1.4649919999999983,0.0,0.0,0.0,0.0,0.0,0.0,0.0,0.0,3.80859336,0.0,-0.0012207029999999897,0.0,0.0,0.0,-0.0,0.0,0.0,1.8933103530000002,0.0,-0.0012207029999995456,0.0,0.0,0.0,0.0,0.0,0.0,4.874267079,0.0,0.0024414059999999793,0.0,0.0,0.0,-0.0,0.0,0.0,2.863769238,0.0,0.0,0.8700000047683716,0.6800000071525574,5.630000114440918,0.01275634765625,0.01763916015625,1.0084228515625,29.6200008392334,0.0,0.0,2.74658203125E-4,-1.373291015625E-4,Closing,0.0,0.0,0.0,0.0,0.0,0.0,0.0,0.0,
1.4905810000000055,0.0,0.0,0.0,0.0,0.0,0.0,0.0,0.0,3.80859336,0.0,0.0012207029999999897,0.0,0.0,0.0,-0.0,0.0,0.0,1.8920896500000002,0.0,0.0012207029999995456,0.0,0.0,0.0,0.0,0.0,0.0,4.871825673,0.0,-0.0024414059999999793,0.0,0.0,0.0,-0.0,0.0,0.0,2.862548535,0.0,0.0,0.8700000047683716,0.6800000071525574,5.630000114440918,0.01123046875,0.01251220703125,1.00531005859375,29.6200008392334,0.0,-1.0,2.74658203125E-4,-1.373291015625E-4,Closing,0.0,0.0,0.0,0.0,0.0,0.0,0.0,0.0,
1.5205819999999948,0.0,0.0,0.0,0.0,0.0,0.0,0.0,0.0,3.80859336,0.0,0.0012207029999999897,0.0,0.0,0.0,-0.0,0.0,0.0,1.8920896500000002,0.0,0.0012207029999995456,0.0,0.0,0.0,0.0,0.0,0.0,4.8730463760000005,0.0,-0.0024414059999999793,0.0,0.0,0.0,-0.0,0.0,0.0,2.862548535,0.0,0.0,0.8700000047683716,0.6800000071525574,5.630000114440918,0.012451171875,0.01434326171875,1.0096435546875,29.6200008392334,0.0,0.0,2.74658203125E-4,-1.373291015625E-4,Closing,0.0,0.0,0.0,0.0,0.0,0.0,0.0,0.0,
1.5470830000000133,0.0,0.0,0.0,0.0,0.0,0.0,0.0,0.0,3.809814063,0.0,0.0,0.0,0.0,0.0,-0.0,0.0,0.0,1.8920896500000002,0.0,0.0,0.0,0.0,0.0,0.0,0.0,0.0,4.866942861,0.0,0.0,0.0,0.0,0.0,-0.0,0.0,0.0,2.863769238,0.0,0.0,0.8700000047683716,0.6800000071525574,5.630000114440918,0.01287841796875,0.01409912109375,1.00360107421875,29.6200008392334,0.0,0.0,2.74658203125E-4,-1.373291015625E-4,Closing,0.0,0.0,0.0,0.0,0.0,0.0,0.0,0.0,
1.5738159999999917,0.0,0.0,0.0,0.0,0.0,0.0,0.0,0.0,3.809814063,0.0,0.0,0.0,0.0,0.0,-0.0,0.0,0.0,1.8920896500000002,0.0,0.0,0.0,0.0,0.0,0.0,0.0,0.0,4.869384267,0.0,0.0,0.0,0.0,0.0,-0.0,0.0,0.0,2.863769238,0.0,0.0,0.8700000047683716,0.6800000071525574,5.630000114440918,0.01324462890625,0.015869140625,1.00201416015625,29.6200008392334,0.0,1.0,2.74658203125E-4,-1.373291015625E-4,Closing,0.0,0.0,0.0,0.0,0.0,0.0,0.0,0.0,
1.6011989999999932,0.0,0.0,0.0,0.0,0.0,0.0,0.0,0.0,3.80859336,0.0,0.0,0.0,0.0,0.0,-0.0,0.0,0.0,1.8933103530000002,0.0,0.0,0.0,0.0,0.0,0.0,0.0,0.0,4.8730463760000005,0.0,0.0,0.0,0.0,0.0,-0.0,0.0,0.0,2.863769238,0.0,0.0,0.8700000047683716,0.6800000071525574,5.630000114440918,0.01544189453125,0.01409912109375,1.0078125,29.6200008392334,0.0,3.0,2.74658203125E-4,-1.373291015625E-4,Closing,0.0,0.0,0.0,0.0,0.0,0.0,0.0,0.0,
1.6288179999999992,0.0,0.0,0.0,0.0,0.0,0.0,0.0,0.0,3.80859336,0.0,0.0,0.0,0.0,0.0,-0.0,0.0,0.0,1.8933103530000002,0.0,0.0,0.0,0.0,0.0,0.0,0.0,0.0,4.871825673,0.0,0.0,0.0,0.0,0.0,-0.0,0.0,0.0,2.862548535,0.0,0.0,0.8700000047683716,0.6800000071525574,5.630000114440918,0.013671875,0.0164794921875,1.00225830078125,29.6200008392334,0.0,1.0,2.74658203125E-4,-1.373291015625E-4,Closing,0.0,0.0,0.0,0.0,0.0,0.0,0.0,0.0,
1.6531419999999926,0.0,0.0,0.0,0.0,0.0,0.0,0.0,0.0,3.80859336,0.0,0.0,0.0,0.0,0.0,-0.0,0.0,0.0,1.8920896500000002,0.0,0.0,0.0,0.0,0.0,0.0,0.0,0.0,4.874267079,0.0,0.0024414059999999793,0.0,0.0,0.0,-0.0,0.0,0.0,2.862548535,0.0,0.0,0.8700000047683716,0.6800000071525574,5.630000114440918,0.01080322265625,0.01544189453125,1.00726318359375,29.6200008392334,0.0,-1.0,2.74658203125E-4,-1.373291015625E-4,Closing,0.0,0.0,0.0,0.0,0.0,0.0,0.0,0.0,
1.6857609999999985,0.0,0.0,0.0,0.0,0.0,0.0,0.0,0.0,3.80859336,0.0,0.0,0.0,0.0,0.0,-0.0,0.0,0.0,1.8920896500000002,0.0,0.0,0.0,0.0,0.0,0.0,0.0,0.0,4.8730463760000005,0.0,0.0024414059999999793,0.0,0.0,0.0,-0.0,0.0,0.0,2.862548535,0.0,0.0,0.8700000047683716,0.6800000071525574,5.630000114440918,0.0107421875,0.019287109375,1.00433349609375,29.6200008392334,0.0,0.0,2.74658203125E-4,-1.373291015625E-4,Closing,0.0,0.0,0.0,0.0,0.0,0.0,0.0,0.0,
1.7132179999999935,0.0,0.0,0.0,0.0,0.0,0.0,0.0,0.0,3.80859336,0.0,0.0,0.0,0.0,0.0,-0.0,0.0,0.0,1.8933103530000002,0.0,0.0,0.0,0.0,0.0,0.0,0.0,0.0,4.8730463760000005,0.0,-0.0012207029999995456,0.0,0.0,0.0,-0.0,0.0,0.0,2.863769238,0.0,0.0,0.8700000047683716,0.6800000071525574,5.630000114440918,0.01153564453125,0.01531982421875,1.00872802734375,29.6200008392334,0.0,0.0,2.74658203125E-4,-1.373291015625E-4,Closing,0.0,0.0,0.0,0.0,0.0,0.0,0.0,0.0,
1.742070000000007,0.0,0.0,0.0,0.0,0.0,0.0,0.0,0.0,3.809814063,0.0,0.0,0.0,0.0,0.0,-0.0,0.0,0.0,1.8920896500000002,0.0,0.0,0.0,0.0,0.0,0.0,0.0,0.0,4.871825673,0.0,-0.0012207030000004337,0.0,0.0,0.0,-0.0,0.0,0.0,2.862548535,0.0,0.0,0.8700000047683716,0.6899999976158142,5.630000114440918,0.01226806640625,0.0140380859375,1.00592041015625,29.6200008392334,0.0,0.0,2.74658203125E-4,-1.373291015625E-4,Closing,0.0,0.0,0.0,0.0,0.0,0.0,0.0,0.0,
1.7744519999999901,0.0,0.0,0.0,0.0,0.0,0.0,0.0,0.0,3.80859336,0.0,0.0,0.0,0.0,0.0,-0.0,0.0,0.0,1.8920896500000002,0.0,0.0,0.0,0.0,0.0,0.0,0.0,0.0,4.874267079,0.0,-0.0012207030000004337,0.0,0.0,0.0,-0.0,0.0,0.0,2.863769238,0.0,0.0,0.8700000047683716,0.6800000071525574,5.630000114440918,0.0113525390625,0.01690673828125,1.003662109375,29.6200008392334,0.0,0.0,2.74658203125E-4,-1.373291015625E-4,Closing,0.0,0.0,0.0,0.0,0.0,0.0,0.0,0.0,
1.8101810000000114,0.0,0.0,0.0,0.0,0.0,0.0,0.0,0.0,3.809814063,0.0,0.0,0.0,0.0,0.0,-0.0,0.0,0.0,1.8920896500000002,0.0,0.0,0.0,0.0,0.0,0.0,0.0,0.0,4.8730463760000005,0.0,-0.0012207029999995456,0.0,0.0,0.0,-0.0,0.0,0.0,2.863769238,0.0,0.0,0.8700000047683716,0.6899999976158142,5.630000114440918,0.0130615234375,0.011474609375,1.00213623046875,29.6200008392334,0.0,0.0,2.74658203125E-4,-1.373291015625E-4,Closing,0.0,0.0,0.0,0.0,0.0,0.0,0.0,0.0,
1.8352320000000182,0.0,0.0,0.0,0.0,0.0,0.0,0.0,0.0,3.80859336,0.0,0.0,0.0,0.0,0.0,-0.0,0.0,0.0,1.8920896500000002,0.0,0.0,0.0,0.0,0.0,0.0,0.0,0.0,4.8730463760000005,0.0,-0.0012207029999995456,0.0,0.0,0.0,-0.0,0.0,0.0,2.862548535,0.0,0.0,0.8700000047683716,0.6899999976158142,5.630000114440918,0.01519775390625,0.01416015625,1.00469970703125,29.6200008392334,0.0,1.0,2.74658203125E-4,-1.373291015625E-4,Closing,0.0,0.0,0.0,0.0,0.0,0.0,0.0,0.0,
1.8687080000000134,0.0,0.0,0.0,0.0,0.0,0.0,0.0,0.0,3.809814063,0.0,-0.0012207029999999897,0.0,0.0,0.0,-0.0,0.0,0.0,1.8920896500000002,0.0,0.0,0.0,0.0,0.0,0.0,0.0,0.0,4.8730463760000005,0.0,0.0024414059999999793,0.0,0.0,0.0,-0.0,0.0,0.0,2.863769238,0.0,0.0,0.8700000047683716,0.6899999976158142,5.630000114440918,0.01275634765625,0.0147705078125,1.00384521484375,29.6200008392334,0.0,0.0,2.74658203125E-4,-1.373291015625E-4,Closing,0.0,0.0,0.0,0.0,0.0,0.0,0.0,0.0,
1.8941359999999987,0.0,0.0,0.0,0.0,0.0,0.0,0.0,0.0,3.80859336,0.0,0.0012207029999999897,0.0,0.0,0.0,-0.0,0.0,0.0,1.8920896500000002,0.0,0.0,0.0,0.0,0.0,0.0,0.0,0.0,4.874267079,0.0,-0.0012207030000004337,0.0,0.0,0.0,-0.0,0.0,0.0,2.861327832,0.0,0.0,0.8700000047683716,0.6899999976158142,5.630000114440918,0.01123046875,0.01611328125,1.00384521484375,29.6200008392334,0.0,0.0,2.74658203125E-4,-1.373291015625E-4,Closing,0.0,0.0,0.0,0.0,0.0,0.0,0.0,0.0,
1.9275050000000047,0.0,0.0,0.0,0.0,0.0,0.0,0.0,0.0,3.80859336,0.0,0.0012207029999999897,0.0,0.0,0.0,-0.0,0.0,0.0,1.8920896500000002,0.0,0.0,0.0,0.0,0.0,0.0,0.0,0.0,4.8730463760000005,0.0,-0.0012207030000004337,0.0,0.0,0.0,-0.0,0.0,0.0,2.863769238,0.0,0.0,0.8700000047683716,0.6899999976158142,5.630000114440918,0.00958251953125,0.0135498046875,1.00579833984375,29.6200008392334,0.0,-2.0,2.74658203125E-4,-1.373291015625E-4,Closing,0.0,0.0,0.0,0.0,0.0,0.0,0.0,0.0,
1.9534090000000142,0.0,0.0,0.0,0.0,0.0,0.0,0.0,0.0,3.80859336,0.0,0.0,0.0,0.0,0.0,-0.0,0.0,0.0,1.8920896500000002,0.0,0.0,0.0,0.0,0.0,0.0,0.0,0.0,4.866942861,0.0,0.0,0.0,0.0,0.0,-0.0,0.0,0.0,2.862548535,0.0,0.0,0.8700000047683716,0.6899999976158142,5.630000114440918,0.01226806640625,0.01531982421875,1.0052490234375,29.6200008392334,0.0,0.0,2.74658203125E-4,-1.373291015625E-4,Closing,0.0,0.0,0.0,0.0,0.0,0.0,0.0,0.0,
1.986073000000004,0.0,0.0,0.0,0.0,0.0,0.0,0.0,0.0,3.80859336,0.0,0.0,0.0,0.0,0.0,-0.0,0.0,0.0,1.8933103530000002,0.0,0.0,0.0,0.0,0.0,0.0,0.0,0.0,4.874267079,0.0,0.0,0.0,0.0,0.0,-0.0,0.0,0.0,2.862548535,0.0,0.0,0.8700000047683716,0.6899999976158142,5.630000114440918,0.01336669921875,0.017333984375,1.0067138671875,29.600000381469727,0.0,1.0,2.74658203125E-4,-1.373291015625E-4,Closing,0.0,0.0,0.0,0.0,0.0,0.0,0.0,0.0,
2.0139269999999962,0.0,0.0,0.0,0.0,0.0,0.0,0.0,0.0,3.80859336,0.0,0.0,0.0,0.0,0.0,-0.0,0.0,0.0,1.8920896500000002,0.0,0.0,0.0,0.0,0.0,0.0,0.0,0.0,4.8681635640000005,0.0,0.0,0.0,0.0,0.0,-0.0,0.0,0.0,2.862548535,0.0,0.0,0.8700000047683716,0.6899999976158142,5.630000114440918,0.0126953125,0.01458740234375,1.00799560546875,29.600000381469727,0.0,0.0,2.74658203125E-4,-1.373291015625E-4,Closing,0.0,0.0,0.0,0.0,0.0,0.0,0.0,0.0,
2.0433030000000145,0.0,0.0,0.0,0.0,0.0,0.0,0.0,0.0,3.80859336,0.0,0.0,0.0,0.0,0.0,-0.0,0.0,0.0,1.8920896500000002,0.0,0.0,0.0,0.0,0.0,0.0,0.0,0.0,4.8730463760000005,0.0,0.0024414059999999793,0.0,0.0,0.0,-0.0,0.0,0.0,2.862548535,0.0,0.0,0.8700000047683716,0.6899999976158142,5.630000114440918,0.01202392578125,0.01513671875,1.00726318359375,29.600000381469727,0.0,0.0,2.74658203125E-4,-1.373291015625E-4,Closing,0.0,0.0,0.0,0.0,0.0,0.0,0.0,0.0,
2.0732300000000103,0.0,0.0,0.0,0.0,0.0,0.0,0.0,0.0,3.80859336,0.0,0.0,0.0,0.0,0.0,-0.0,0.0,0.0,1.8933103530000002,0.0,0.0,0.0,0.0,0.0,0.0,0.0,0.0,4.874267079,0.0,0.0024414059999999793,0.0,0.0,0.0,-0.0,0.0,0.0,2.862548535,0.0,0.0,0.8700000047683716,0.6899999976158142,5.630000114440918,0.0137939453125,0.015380859375,1.005859375,29.600000381469727,0.0,1.0,2.74658203125E-4,-1.373291015625E-4,Closing,0.0,0.0,0.0,0.0,0.0,0.0,0.0,0.0,
2.101472999999998,0.0,0.0,0.0,0.0,0.0,0.0,0.0,0.0,3.809814063,0.0,0.0,0.0,0.0,0.0,-0.0,0.0,0.0,1.8920896500000002,0.0,0.0,0.0,0.0,0.0,0.0,0.0,0.0,4.8730463760000005,0.0,-0.0012207029999995456,0.0,0.0,0.0,-0.0,0.0,0.0,2.863769238,0.0,0.0,0.8700000047683716,0.6899999976158142,5.630000114440918,0.0096435546875,0.015625,1.0064697265625,29.600000381469727,0.0,-2.0,2.74658203125E-4,-1.373291015625E-4,Closing,0.0,0.0,0.0,0.0,0.0,0.0,0.0,0.0,
2.1312969999999916,0.0,0.0,0.0,0.0,0.0,0.0,0.0,0.0,3.807372657,0.0,0.0,0.0,0.0,0.0,-0.0,0.0,0.0,1.8933103530000002,0.0,0.0,0.0,0.0,0.0,0.0,0.0,0.0,4.8681635640000005,0.0,-0.0012207029999995456,0.0,0.0,0.0,-0.0,0.0,0.0,2.862548535,0.0,0.0,0.8700000047683716,0.6899999976158142,5.630000114440918,0.01654052734375,0.0169677734375,1.00286865234375,29.600000381469727,0.0,4.0,2.74658203125E-4,-1.373291015625E-4,Closing,0.0,0.0,0.0,0.0,0.0,0.0,0.0,0.0,
2.163309999999998,0.0,0.0,0.0,0.0,0.0,0.0,0.0,0.0,3.809814063,0.0,0.0,0.0,0.0,0.0,-0.0,0.0,0.0,1.8920896500000002,0.0,0.0,0.0,0.0,0.0,0.0,0.0,0.0,4.866942861,0.0,0.0,0.0,0.0,0.0,-0.0,0.0,0.0,2.862548535,0.0,0.0,0.8700000047683716,0.6899999976158142,5.630000114440918,0.0111083984375,0.01275634765625,1.00152587890625,29.600000381469727,0.0,-1.0,2.74658203125E-4,-1.373291015625E-4,Closing,0.0,0.0,0.0,0.0,0.0,0.0,0.0,0.0,
2.22158600000001,0.0,0.0,0.0,0.0,0.0,0.0,0.0,0.0,3.809814063,0.0,0.0,0.0,0.0,0.0,-0.0,0.0,0.0,1.8933103530000002,0.0,0.0,0.0,0.0,0.0,0.0,0.0,0.0,4.866942861,0.0,0.0,0.0,0.0,0.0,-0.0,0.0,0.0,2.863769238,0.0,0.0,0.8700000047683716,0.6899999976158142,5.630000114440918,0.01025390625,0.01416015625,1.00653076171875,29.600000381469727,0.0,-2.0,2.74658203125E-4,-1.373291015625E-4,Closing,0.0,0.0,0.0,0.0,0.0,0.0,0.0,0.0,
2.246771000000008,0.0,0.0,0.0,0.0,0.0,0.0,0.0,0.0,3.809814063,0.0,0.0,0.0,0.0,0.0,-0.0,0.0,0.0,1.8920896500000002,0.0,0.0,0.0,0.0,0.0,0.0,0.0,0.0,4.866942861,0.0,0.003662109000000413,0.0,0.0,0.0,-0.0,0.0,0.0,2.862548535,0.0,0.0,0.8700000047683716,0.6899999976158142,5.630000114440918,0.0133056640625,0.01513671875,1.0113525390625,29.600000381469727,0.0,1.0,2.74658203125E-4,-1.373291015625E-4,Closing,0.0,0.0,0.0,0.0,0.0,0.0,0.0,0.0,
2.2740789999999977,0.0,0.0,0.0,0.0,0.0,0.0,0.0,0.0,3.80859336,0.0,0.0,0.0,0.0,0.0,-0.0,0.0,0.0,1.8920896500000002,0.0,0.0,0.0,0.0,0.0,0.0,0.0,0.0,4.869384267,0.0,0.003662109000000413,0.0,0.0,0.0,-0.0,0.0,0.0,2.862548535,0.0,0.0,0.8700000047683716,0.6899999976158142,5.630000114440918,0.0133056640625,0.01300048828125,1.00421142578125,29.600000381469727,0.0,0.0,2.74658203125E-4,-1.373291015625E-4,Closing,0.0,0.0,0.0,0.0,0.0,0.0,0.0,0.0,
2.3040139999999956,0.0,0.0,0.0,0.0,0.0,0.0,0.0,0.0,3.809814063,0.0,0.0,0.0,0.0,0.0,-0.0,0.0,0.0,1.8920896500000002,0.0,0.0,0.0,0.0,0.0,0.0,0.0,0.0,4.8681635640000005,0.0,0.0,0.0,0.0,0.0,-0.0,0.0,0.0,2.863769238,0.0,0.0,0.8700000047683716,0.6899999976158142,5.630000114440918,0.01605224609375,0.0167236328125,1.00921630859375,29.600000381469727,0.0,3.0,2.74658203125E-4,-1.373291015625E-4,Closing,0.0,0.0,0.0,0.0,0.0,0.0,0.0,0.0,
2.331377000000008,0.0,0.0,0.0,0.0,0.0,0.0,0.0,0.0,3.80859336,0.0,0.0,0.0,0.0,0.0,-0.0,0.0,0.0,1.8920896500000002,0.0,0.0,0.0,0.0,0.0,0.0,0.0,0.0,4.8681635640000005,0.0,0.0,0.0,0.0,0.0,-0.0,0.0,0.0,2.862548535,0.0,0.0,0.8700000047683716,0.6899999976158142,5.630000114440918,0.01312255859375,0.014892578125,1.00103759765625,29.600000381469727,0.0,0.0,2.74658203125E-4,-1.373291015625E-4,Closing,0.0,0.0,0.0,0.0,0.0,0.0,0.0,0.0,
2.354505999999994,0.0,0.0,0.0,0.0,0.0,0.0,0.0,0.0,3.809814063,0.0,0.0,0.0,0.0,0.0,-0.0,0.0,0.0,1.8920896500000002,0.0,0.0,0.0,0.0,0.0,0.0,0.0,0.0,4.8730463760000005,0.0,0.0012207029999995456,0.0,0.0,0.0,-0.0,0.0,0.0,2.863769238,0.0,0.0,0.8700000047683716,0.6899999976158142,5.630000114440918,0.00958251953125,0.01416015625,1.00811767578125,29.600000381469727,0.0,-2.0,2.74658203125E-4,-1.373291015625E-4,Closing,0.0,0.0,0.0,0.0,0.0,0.0,0.0,0.0,
2.3862730000000156,0.0,0.0,0.0,0.0,0.0,0.0,0.0,0.0,3.809814063,0.0,0.0,0.0,0.0,0.0,-0.0,0.0,0.0,1.8920896500000002,0.0,0.0,0.0,0.0,0.0,0.0,0.0,0.0,4.871825673,0.0,0.0012207029999995456,0.0,0.0,0.0,-0.0,0.0,0.0,2.862548535,0.0,0.0,0.8700000047683716,0.6899999976158142,5.630000114440918,0.01416015625,0.0157470703125,0.99749755859375,29.600000381469727,0.0,2.0,2.74658203125E-4,-1.373291015625E-4,Closing,0.0,0.0,0.0,0.0,0.0,0.0,0.0,0.0,
2.414323999999993,0.0,0.0,0.0,0.0,0.0,0.0,0.0,0.0,3.809814063,0.0,0.0,0.0,0.0,0.0,-0.0,0.0,0.0,1.8920896500000002,0.0,0.0,0.0,0.0,0.0,0.0,0.0,0.0,4.871825673,0.0,-0.0024414059999999793,0.0,0.0,0.0,-0.0,0.0,0.0,2.862548535,0.0,0.0,0.8700000047683716,0.6899999976158142,5.630000114440918,0.0128173828125,0.01422119140625,1.00994873046875,29.600000381469727,0.0,0.0,2.74658203125E-4,-1.373291015625E-4,Closing,0.0,0.0,0.0,0.0,0.0,0.0,0.0,0.0,
2.44395199999999,0.0,0.0,0.0,0.0,0.0,0.0,0.0,0.0,3.809814063,0.0,0.0,0.0,0.0,0.0,-0.0,0.0,0.0,1.8920896500000002,0.0,0.0,0.0,0.0,0.0,0.0,0.0,0.0,4.866942861,0.0,0.0012207030000004337,0.0,0.0,0.0,-0.0,0.0,0.0,2.861327832,0.0,0.0,0.8600000143051147,0.6899999976158142,5.630000114440918,0.0125732421875,0.01593017578125,1.00653076171875,29.600000381469727,0.0,0.0,2.74658203125E-4,-1.373291015625E-4,Closing,0.0,0.0,0.0,0.0,0.0,0.0,0.0,0.0,
2.472649000000005,0.0,0.0,0.0,0.0,0.0,0.0,0.0,0.0,3.80859336,0.0,0.0,0.0,0.0,0.0,-0.0,0.0,0.0,1.8920896500000002,0.0,0.0,0.0,0.0,0.0,0.0,0.0,0.0,4.866942861,0.0,0.0012207030000004337,0.0,0.0,0.0,-0.0,0.0,0.0,2.863769238,0.0,0.0,0.8600000143051147,0.6899999976158142,5.630000114440918,0.01190185546875,0.01776123046875,1.0074462890625,29.600000381469727,0.0,0.0,2.74658203125E-4,-1.373291015625E-4,Closing,0.0,0.0,0.0,0.0,0.0,0.0,0.0,0.0,
2.502510999999999,0.0,0.0,0.0,0.0,0.0,0.0,0.0,0.0,3.809814063,0.0,0.0,0.0,0.0,0.0,-0.0,0.0,0.0,1.8920896500000002,0.0,0.0,0.0,0.0,0.0,0.0,0.0,0.0,4.871825673,0.0,0.0,0.0,0.0,0.0,-0.0,0.0,0.0,2.862548535,0.0,0.0,0.8600000143051147,0.6899999976158142,5.630000114440918,0.0103759765625,0.017333984375,1.00811767578125,29.610000610351562,0.0,-1.0,2.74658203125E-4,-1.373291015625E-4,Closing,0.0,0.0,0.0,0.0,0.0,0.0,0.0,0.0,
2.5316380000000063,0.0,0.0,0.0,0.0,0.0,0.0,0.0,0.125,3.80859336,0.0,0.0,0.0,0.0,0.0,-0.0,0.0,0.0,1.8920896500000002,0.0,0.0,0.0,0.0,0.0,0.0,0.0,0.0,4.8681635640000005,0.0,0.0,0.0,0.0,0.0,-0.0,0.0,0.0,2.863769238,0.0,0.0,0.8600000143051147,0.6899999976158142,5.630000114440918,0.01287841796875,0.01434326171875,1.00555419921875,29.610000610351562,0.0,0.0,2.74658203125E-4,-1.373291015625E-4,Closing,0.0,0.0,0.0,0.0,0.0,0.0,0.0,0.0,
2.55567300000001,0.0,0.0,0.0,0.0,0.0,0.0,0.0,0.125,3.809814063,0.0,-0.0012207029999999897,0.0,0.0,0.0,-0.0,0.0,0.0,1.8920896500000002,0.0,0.0,0.0,0.0,0.0,0.0,0.0,0.0,4.8681635640000005,0.0,-0.0012207030000004337,0.0,0.0,0.0,-0.0,0.0,0.0,2.862548535,0.0,0.0,0.8700000047683716,0.6899999976158142,5.630000114440918,0.01226806640625,0.0157470703125,1.00640869140625,29.610000610351562,0.0,0.0,2.74658203125E-4,-1.373291015625E-4,Closing,0.0,0.0,0.0,0.0,0.0,0.0,0.0,0.0,
2.586719000000012,0.0,0.0,0.0,0.0,0.0,0.0,0.0,0.125,3.811034766,0.0,-0.0012207029999999897,0.0,0.0,0.0,-0.0,0.0,0.0,1.8920896500000002,0.0,0.0,0.0,0.0,0.0,0.0,0.0,0.0,4.8681635640000005,0.0,-0.0012207030000004337,0.0,0.0,0.0,-0.0,0.0,0.0,2.862548535,0.0,0.0,0.8700000047683716,0.6899999976158142,5.630000114440918,0.01239013671875,0.01422119140625,1.00518798828125,29.610000610351562,0.0,0.0,2.74658203125E-4,-1.373291015625E-4,Closing,0.0,0.0,0.0,0.0,0.0,0.0,0.0,0.0,
2.614618000000017,0.0,0.0,0.0,0.0,0.0,0.0,0.0,0.0,3.80859336,0.0,0.0012207029999999897,0.0,0.0,0.0,-0.0,0.0,0.0,1.8933103530000002,0.0,0.0,0.0,0.0,0.0,0.0,0.0,0.0,4.8730463760000005,0.0,0.0,0.0,0.0,0.0,-0.0,0.0,0.0,2.862548535,0.0,0.0,0.8600000143051147,0.6899999976158142,5.630000114440918,0.01605224609375,0.01629638671875,1.01177978515625,29.610000610351562,0.0,3.0,2.74658203125E-4,-1.373291015625E-4,Closing,0.0,0.0,0.0,0.0,0.0,0.0,0.0,0.0,
2.6447449999999955,0.0,0.0,0.0,0.0,0.0,0.0,0.0,0.0,3.80859336,0.0,0.0012207029999999897,0.0,0.0,0.0,-0.0,0.0,0.0,1.8920896500000002,0.0,0.0,0.0,0.0,0.0,0.0,0.0,0.0,4.866942861,0.0,0.0,0.0,0.0,0.0,-0.0,0.0,0.0,2.863769238,0.0,0.0,0.8600000143051147,0.6899999976158142,5.630000114440918,0.0113525390625,0.01483154296875,1.00787353515625,29.610000610351562,0.0,0.0,2.74658203125E-4,-1.373291015625E-4,Closing,0.0,0.0,0.0,0.0,0.0,0.0,0.0,0.0,
2.6737080000000133,0.0,0.0,0.0,0.0,0.0,0.0,0.0,0.0,3.80859336,0.0,0.0,0.0,0.0,0.0,-0.0,0.0,0.0,1.8920896500000002,0.0,0.0,0.0,0.0,0.0,0.0,0.0,0.0,4.866942861,0.0,0.0,0.0,0.0,0.0,-0.0,0.0,0.0,2.863769238,0.0,0.0,0.8600000143051147,0.6899999976158142,5.630000114440918,0.01141357421875,0.01544189453125,1.0059814453125,29.610000610351562,0.0,0.0,2.74658203125E-4,-1.373291015625E-4,Closing,0.0,0.0,0.0,0.0,0.0,0.0,0.0,0.0,
2.704652000000002,0.0,0.0,0.0,0.0,0.0,0.0,0.0,0.0,3.80859336,0.0,0.0,0.0,0.0,0.0,-0.0,0.0,0.0,1.8920896500000002,0.0,0.0,0.0,0.0,0.0,0.0,0.0,0.0,4.8730463760000005,0.0,0.0012207030000004337,0.0,0.0,0.0,-0.0,0.0,0.0,2.862548535,0.0,0.0,0.8600000143051147,0.6899999976158142,5.630000114440918,0.012451171875,0.0142822265625,1.00799560546875,29.610000610351562,0.0,0.0,2.74658203125E-4,-1.373291015625E-4,Closing,0.0,0.0,0.0,0.0,0.0,0.0,0.0,0.0,
2.7295570000000007,0.0,0.0,0.0,0.0,0.0,0.0,0.0,0.0,3.80859336,0.0,0.0,0.0,0.0,0.0,-0.0,0.0,0.0,1.8920896500000002,0.0,0.0,0.0,0.0,0.0,0.0,0.0,0.0,4.869384267,0.0,0.0012207030000004337,0.0,0.0,0.0,-0.0,0.0,0.0,2.861327832,0.0,0.0,0.8600000143051147,0.6899999976158142,5.630000114440918,0.0118408203125,0.013916015625,1.0078125,29.610000610351562,0.0,0.0,2.74658203125E-4,-1.373291015625E-4,Closing,0.0,0.0,0.0,0.0,0.0,0.0,0.0,0.0,
2.7545610000000162,0.0,0.0,0.0,0.0,0.0,0.0,0.0,0.125,3.80859336,0.0,0.0,0.0,0.0,0.0,-0.0,0.0,0.0,1.8920896500000002,0.0,0.0,0.0,0.0,0.0,0.0,0.0,0.0,4.8730463760000005,0.0,0.0012207029999995456,0.0,0.0,0.0,-0.0,0.0,0.0,2.862548535,0.0,0.0,0.8600000143051147,0.6899999976158142,5.630000114440918,0.01123046875,0.0164794921875,1.0068359375,29.610000610351562,0.0,0.0,2.74658203125E-4,-1.373291015625E-4,Closing,0.0,0.0,0.0,0.0,0.0,0.0,0.0,0.0,
2.7876260000000186,0.0,0.0,0.0,0.0,0.0,0.0,0.0,0.0,3.80859336,0.0,0.0,0.0,0.0,0.0,-0.0,0.0,0.0,1.8920896500000002,0.0,0.0,0.0,0.0,0.0,0.0,0.0,0.0,4.8730463760000005,0.0,0.0012207029999995456,0.0,0.0,0.0,-0.0,0.0,0.0,2.862548535,0.0,0.0,0.8600000143051147,0.6899999976158142,5.630000114440918,0.01226806640625,0.015869140625,1.00323486328125,29.610000610351562,0.0,0.0,2.74658203125E-4,-1.373291015625E-4,Closing,0.0,0.0,0.0,0.0,0.0,0.0,0.0,0.0,
2.8159610000000104,0.0,0.0,0.0,0.0,0.0,0.0,0.0,0.0,3.807372657,0.0,0.0,0.0,0.0,0.0,-0.0,0.0,0.0,1.8920896500000002,0.0,0.0,0.0,0.0,0.0,0.0,0.0,0.0,4.8681635640000005,0.0,-0.0012207029999995456,0.0,0.0,0.0,-0.0,0.0,0.0,2.863769238,0.0,0.0,0.8600000143051147,0.6899999976158142,5.630000114440918,0.01226806640625,0.01422119140625,1.00347900390625,29.610000610351562,0.0,0.0,2.74658203125E-4,-1.373291015625E-4,Closing,0.0,0.0,0.0,0.0,0.0,0.0,0.0,0.0,
2.8455760000000008,0.0,0.0,0.0,0.0,0.0,0.0,0.0,0.0,3.80859336,0.0,0.0,0.0,0.0,0.0,-0.0,0.0,0.0,1.8920896500000002,0.0,0.0,0.0,0.0,0.0,0.0,0.0,0.0,4.8681635640000005,0.0,0.0,0.0,0.0,0.0,-0.0,0.0,0.0,2.862548535,0.0,0.0,0.8600000143051147,0.6899999976158142,5.630000114440918,0.0120849609375,0.0185546875,1.00262451171875,29.610000610351562,0.0,0.0,2.74658203125E-4,-1.373291015625E-4,Closing,0.0,0.0,0.0,0.0,0.0,0.0,0.0,0.0,
2.8736520000000016,0.0,0.0,0.0,0.0,0.0,0.0,0.0,0.0,3.80859336,0.0,0.0,0.0,0.0,0.0,-0.0,0.0,0.0,1.8920896500000002,0.0,0.0,0.0,0.0,0.0,0.0,0.0,0.0,4.8681635640000005,0.0,0.0,0.0,0.0,0.0,-0.0,0.0,0.0,2.863769238,0.0,0.0,0.8600000143051147,0.6899999976158142,5.630000114440918,0.01513671875,0.01385498046875,1.0087890625,29.610000610351562,0.0,2.0,2.74658203125E-4,-1.373291015625E-4,Closing,0.0,0.0,0.0,0.0,0.0,0.0,0.0,0.0,
2.9030240000000047,0.0,0.0,0.0,0.0,0.0,0.0,0.0,0.125,3.809814063,0.0,0.0,0.0,0.0,0.0,-0.0,0.0,0.0,1.8920896500000002,0.0,0.0,0.0,0.0,0.0,0.0,0.0,0.0,4.866942861,0.0,0.0012207029999995456,0.0,0.0,0.0,-0.0,0.0,0.0,2.863769238,0.0,0.0,0.8600000143051147,0.699999988079071,5.630000114440918,0.0150146484375,0.01434326171875,1.00677490234375,29.610000610351562,0.0,2.0,2.74658203125E-4,-1.373291015625E-4,Closing,0.0,0.0,0.0,0.0,0.0,0.0,0.0,0.0,
2.9325679999999994,0.0,0.0,0.0,0.0,0.0,0.0,0.0,0.0,3.80859336,0.0,0.0,0.0,0.0,0.0,-0.0,0.0,0.0,1.8920896500000002,0.0,0.0,0.0,0.0,0.0,0.0,0.0,0.0,4.8681635640000005,0.0,0.0012207029999995456,0.0,0.0,0.0,-0.0,0.0,0.0,2.862548535,0.0,0.0,0.8600000143051147,0.699999988079071,5.630000114440918,0.01202392578125,0.014404296875,1.005126953125,29.610000610351562,0.0,-1.0,2.74658203125E-4,-1.373291015625E-4,Closing,0.0,0.0,0.0,0.0,0.0,0.0,0.0,0.0,
2.9647669999999926,0.0,0.0,0.0,0.0,0.0,0.0,0.0,0.0,3.80859336,0.0,0.0,0.0,0.0,0.0,-0.0,0.0,0.0,1.8920896500000002,0.0,0.0,0.0,0.0,0.0,0.0,0.0,0.0,4.871825673,0.0,-0.0012207029999995456,0.0,0.0,0.0,-0.0,0.0,0.0,2.863769238,0.0,0.0,0.8600000143051147,0.6899999976158142,5.630000114440918,0.0125732421875,0.0145263671875,1.0030517578125,29.610000610351562,0.0,0.0,2.74658203125E-4,-1.373291015625E-4,Closing,0.0,0.0,0.0,0.0,0.0,0.0,0.0,0.0,
2.990436000000016,0.0,0.0,0.0,0.0,0.0,0.0,0.0,0.0,3.80859336,0.0,0.0,0.0,0.0,0.0,-0.0,0.0,0.0,1.8920896500000002,0.0,0.0,0.0,0.0,0.0,0.0,0.0,0.0,4.8730463760000005,0.0,0.0,0.0,0.0,0.0,-0.0,0.0,0.0,2.863769238,0.0,0.0,0.8600000143051147,0.6899999976158142,5.630000114440918,0.0133056640625,0.01708984375,1.01025390625,29.610000610351562,0.0,1.0,2.74658203125E-4,-1.373291015625E-4,Closing,0.0,0.0,0.0,0.0,0.0,0.0,0.0,0.0,
3.018499000000011,0.0,0.0,0.0,0.0,0.0,0.0,0.0,0.0,3.809814063,0.0,0.0,0.0,0.0,0.0,-0.0,0.0,0.0,1.8920896500000002,0.0,0.0,0.0,0.0,0.0,0.0,0.0,0.0,4.8730463760000005,0.0,0.0,0.0,0.0,0.0,-0.0,0.0,0.0,2.863769238,0.0,0.0,0.8600000143051147,0.6899999976158142,5.630000114440918,0.0111083984375,0.01318359375,1.009033203125,29.6200008392334,0.0,-1.0,2.74658203125E-4,-1.373291015625E-4,Closing,0.0,0.0,0.0,0.0,0.0,0.0,0.0,0.0,
3.047588000000018,0.0,0.0,0.0,0.0,0.0,0.0,0.0,0.0,3.809814063,0.0,0.0,0.0,0.0,0.0,-0.0,0.0,0.0,1.8920896500000002,0.0,0.0,0.0,0.0,0.0,0.0,0.0,0.0,4.871825673,0.0,0.0012207029999995456,0.0,0.0,0.0,-0.0,0.0,0.0,2.862548535,0.0,0.0,0.8600000143051147,0.699999988079071,5.630000114440918,0.01300048828125,0.01483154296875,1.0057373046875,29.6200008392334,0.0,0.0,2.74658203125E-4,-1.373291015625E-4,Closing,0.0,0.0,0.0,0.0,0.0,0.0,0.0,0.0,
3.074616000000009,0.0,0.0,0.0,0.0,0.0,0.0,0.0,0.0,3.80859336,0.0,0.0,0.0,0.0,0.0,-0.0,0.0,0.0,1.8920896500000002,0.0,0.0,0.0,0.0,0.0,0.0,0.0,0.0,4.866942861,0.0,0.0012207029999995456,0.0,0.0,0.0,-0.0,0.0,0.0,2.862548535,0.0,0.0,0.8600000143051147,0.6899999976158142,5.630000114440918,0.01080322265625,0.0155029296875,1.00439453125,29.6200008392334,0.0,-1.0,2.74658203125E-4,-1.373291015625E-4,Closing,0.0,0.0,0.0,0.0,0.0,0.0,0.0,0.0,
3.105084999999992,0.0,0.0,0.0,0.0,0.0,0.0,0.0,0.125,3.809814063,0.0,0.0,0.0,0.0,0.0,-0.0,0.0,0.0,1.8920896500000002,0.0,0.0,0.0,0.0,0.0,0.0,0.0,0.0,4.8681635640000005,0.0,-0.0012207029999995456,0.0,0.0,0.0,-0.0,0.0,0.0,2.863769238,0.0,0.0,0.8600000143051147,0.6899999976158142,5.630000114440918,0.01190185546875,0.015380859375,1.01007080078125,29.6200008392334,0.0,0.0,2.74658203125E-4,-1.373291015625E-4,Closing,0.0,0.0,0.0,0.0,0.0,0.0,0.0,0.0,
3.131975999999995,0.0,0.0,0.0,0.0,0.0,0.0,0.0,0.125,3.809814063,0.0,0.0,0.0,0.0,0.0,-0.0,0.0,0.0,1.8920896500000002,0.0,0.0,0.0,0.0,0.0,0.0,0.0,0.0,4.871825673,0.0,-0.0012207029999995456,0.0,0.0,0.0,-0.0,0.0,0.0,2.862548535,0.0,0.0,0.8600000143051147,0.6899999976158142,5.630000114440918,0.01251220703125,0.01336669921875,1.00537109375,29.6200008392334,0.0,0.0,2.74658203125E-4,-1.373291015625E-4,Closing,0.0,0.0,0.0,0.0,0.0,0.0,0.0,0.0,
3.1617850000000036,0.0,0.0,0.0,0.0,0.0,0.0,0.0,0.0,3.80859336,0.0,0.0,0.0,0.0,0.0,-0.0,0.0,0.0,1.8933103530000002,0.0,0.0,0.0,0.0,0.0,0.0,0.0,0.0,4.874267079,0.0,-0.0012207030000004337,0.0,0.0,0.0,-0.0,0.0,0.0,2.863769238,0.0,0.0,0.8500000238418579,0.6899999976158142,5.630000114440918,0.0115966796875,0.0159912109375,1.00921630859375,29.6200008392334,0.0,0.0,2.74658203125E-4,-1.373291015625E-4,Closing,0.0,0.0,0.0,0.0,0.0,0.0,0.0,0.0,
3.189107000000018,0.0,0.0,0.0,0.0,0.0,0.0,0.0,0.0,3.80859336,0.0,0.0,0.0,0.0,0.0,-0.0,0.0,0.0,1.8920896500000002,0.0,0.0,0.0,0.0,0.0,0.0,0.0,0.0,4.871825673,0.0,-0.0012207030000004337,0.0,0.0,0.0,-0.0,0.0,0.0,2.863769238,0.0,0.0,0.8500000238418579,0.6899999976158142,5.630000114440918,0.0098876953125,0.0150146484375,1.00872802734375,29.6200008392334,0.0,-2.0,2.74658203125E-4,-1.373291015625E-4,Closing,0.0,0.0,0.0,0.0,0.0,0.0,0.0,0.0,
3.2170880000000177,0.0,0.0,0.0,0.0,0.0,0.0,0.0,0.0,3.809814063,0.0,0.0,0.0,0.0,0.0,-0.0,0.0,0.0,1.8920896500000002,0.0,0.0,0.0,0.0,0.0,0.0,0.0,0.0,4.869384267,0.0,0.0024414059999999793,0.0,0.0,0.0,-0.0,0.0,0.0,2.862548535,0.0,0.0,0.8500000238418579,0.6899999976158142,5.630000114440918,0.01202392578125,0.01483154296875,1.0040283203125,29.6200008392334,0.0,0.0,2.74658203125E-4,-1.373291015625E-4,Closing,0.0,0.0,0.0,0.0,0.0,0.0,0.0,0.0,
3.246871000000014,0.0,0.0,0.0,0.0,0.0,0.0,0.0,0.0,3.809814063,0.0,0.0,0.0,0.0,0.0,-0.0,0.0,0.0,1.8920896500000002,0.0,0.0,0.0,0.0,0.0,0.0,0.0,0.0,4.871825673,0.0,-0.0024414059999999793,0.0,0.0,0.0,-0.0,0.0,0.0,2.862548535,0.0,0.0,0.8500000238418579,0.6899999976158142,5.630000114440918,0.012451171875,0.01483154296875,1.01025390625,29.6200008392334,0.0,0.0,2.74658203125E-4,-1.373291015625E-4,Closing,0.0,0.0,0.0,0.0,0.0,0.0,0.0,0.0,
3.2763220000000146,0.0,0.0,0.0,0.0,0.0,0.0,0.0,0.0,3.80859336,0.0,0.0,0.0,0.0,0.0,-0.0,0.0,0.0,1.8920896500000002,0.0,0.0,0.0,0.0,0.0,0.0,0.0,0.0,4.871825673,0.0,-0.0024414059999999793,0.0,0.0,0.0,-0.0,0.0,0.0,2.862548535,0.0,0.0,0.8500000238418579,0.6899999976158142,5.630000114440918,0.0135498046875,0.01507568359375,1.00726318359375,29.6200008392334,0.0,1.0,2.74658203125E-4,-1.373291015625E-4,Closing,0.0,0.0,0.0,0.0,0.0,0.0,0.0,0.0,
3.306720000000001,0.0,0.0,0.0,0.0,0.0,0.0,0.0,0.0,3.80859336,0.0,0.0,0.0,0.0,0.0,-0.0,0.0,0.0,1.8920896500000002,0.0,0.0,0.0,0.0,0.0,0.0,0.0,0.0,4.8681635640000005,0.0,0.0,0.0,0.0,0.0,-0.0,0.0,0.0,2.863769238,0.0,0.0,0.8600000143051147,0.6899999976158142,5.630000114440918,0.01226806640625,0.01263427734375,1.003662109375,29.6200008392334,0.0,0.0,2.74658203125E-4,-1.373291015625E-4,Closing,0.0,0.0,0.0,0.0,0.0,0.0,0.0,0.0,
3.3348220000000146,0.0,0.0,0.0,0.0,0.0,0.0,0.0,0.0,3.80859336,0.0,0.0,0.0,0.0,0.0,-0.0,0.0,0.0,1.8920896500000002,0.0,0.0,0.0,0.0,0.0,0.0,0.0,0.0,4.8730463760000005,0.0,0.0,0.0,0.0,0.0,-0.0,0.0,0.0,2.863769238,0.0,0.0,0.8500000238418579,0.6899999976158142,5.630000114440918,0.01617431640625,0.0125732421875,1.004150390625,29.6200008392334,0.0,3.0,2.74658203125E-4,-1.373291015625E-4,Closing,0.0,0.0,0.0,0.0,0.0,0.0,0.0,0.0,
3.368777000000002,0.0,0.0,0.0,0.0,0.0,0.0,0.0,0.0,3.809814063,0.0,0.0,0.0,0.0,0.0,-0.0,0.0,0.0,1.8920896500000002,0.0,0.0,0.0,0.0,0.0,0.0,0.0,0.0,4.874267079,0.0,0.0,0.0,0.0,0.0,-0.0,0.0,0.0,2.862548535,0.0,0.0,0.8500000238418579,0.6899999976158142,5.630000114440918,0.01123046875,0.01373291015625,1.009765625,29.6200008392334,0.0,-1.0,2.74658203125E-4,-1.373291015625E-4,Closing,0.0,0.0,0.0,0.0,0.0,0.0,0.0,0.0,
3.3926600000000033,0.0,0.0,0.0,0.0,0.0,0.0,0.0,0.0,3.80859336,0.0,0.0,0.0,0.0,0.0,-0.0,0.0,0.0,1.8933103530000002,0.0,0.0,0.0,0.0,0.0,0.0,0.0,0.0,4.8730463760000005,0.0,0.0012207030000004337,0.0,0.0,0.0,-0.0,0.0,0.0,2.862548535,0.0,0.0,0.8600000143051147,0.6899999976158142,5.630000114440918,0.0108642578125,0.01361083984375,1.0068359375,29.6200008392334,0.0,-1.0,2.74658203125E-4,-1.373291015625E-4,Closing,0.0,0.0,0.0,0.0,0.0,0.0,0.0,0.0,
3.4248120000000055,0.0,0.0,0.0,0.0,0.0,0.0,0.0,0.0,3.80859336,0.0,0.0,0.0,0.0,0.0,-0.0,0.0,0.0,1.8920896500000002,0.0,0.0,0.0,0.0,0.0,0.0,0.0,0.0,4.866942861,0.0,0.0012207030000004337,0.0,0.0,0.0,-0.0,0.0,0.0,2.863769238,0.0,0.0,0.8600000143051147,0.6899999976158142,5.630000114440918,0.01025390625,0.01531982421875,1.00390625,29.6200008392334,0.0,-1.0,2.74658203125E-4,-1.373291015625E-4,Closing,0.0,0.0,0.0,0.0,0.0,0.0,0.0,0.0,
3.4478490000000166,0.0,0.0,0.0,0.0,0.0,0.0,0.0,0.0,3.80859336,0.0,0.0,0.0,0.0,0.0,-0.0,0.0,0.0,1.8920896500000002,0.0,0.0,0.0,0.0,0.0,0.0,0.0,0.0,4.871825673,0.0,-0.0024414059999999793,0.0,0.0,0.0,-0.0,0.0,0.0,2.862548535,0.0,0.0,0.8600000143051147,0.6899999976158142,5.630000114440918,0.00848388671875,0.015625,1.00653076171875,29.6200008392334,0.0,-3.0,2.74658203125E-4,-1.373291015625E-4,Closing,0.0,0.0,0.0,0.0,0.0,0.0,0.0,0.0,
3.474209999999992,0.0,0.0,0.0,0.0,0.0,0.0,0.0,0.0,3.80859336,0.0,0.0,0.0,0.0,0.0,-0.0,0.0,0.0,1.8920896500000002,0.0,0.0,0.0,0.0,0.0,0.0,0.0,0.0,4.8681635640000005,0.0,-0.0024414059999999793,0.0,0.0,0.0,-0.0,0.0,0.0,2.863769238,0.0,0.0,0.8600000143051147,0.6899999976158142,5.630000114440918,0.01171875,0.01422119140625,1.0140380859375,29.6200008392334,0.0,0.0,2.74658203125E-4,-1.373291015625E-4,Closing,0.0,0.0,0.0,0.0,0.0,0.0,0.0,0.0,
3.505482000000018,0.0,0.0,0.0,0.0,0.0,0.0,0.0,0.0,3.80859336,0.0,0.0,0.0,0.0,0.0,-0.0,0.0,0.0,1.8920896500000002,0.0,0.0,0.0,0.0,0.0,0.0,0.0,0.0,4.866942861,0.0,0.0012207029999995456,0.0,0.0,0.0,-0.0,0.0,0.0,2.862548535,0.0,0.0,0.8600000143051147,0.6899999976158142,5.630000114440918,0.01348876953125,0.01397705078125,1.0062255859375,29.6200008392334,0.0,1.0,2.74658203125E-4,-1.373291015625E-4,Closing,0.0,0.0,0.0,0.0,0.0,0.0,0.0,0.0,
3.532831999999995,0.0,0.0,0.0,0.0,0.0,0.0,0.0,0.125,3.80859336,0.0,0.0,0.0,0.0,0.0,-0.0,0.0,0.0,1.8933103530000002,0.0,0.0,0.0,0.0,0.0,0.0,0.0,0.0,4.8681635640000005,0.0,0.0012207029999995456,0.0,0.0,0.0,-0.0,0.0,0.0,2.863769238,0.0,0.0,0.8600000143051147,0.6899999976158142,5.630000114440918,0.01275634765625,0.01483154296875,1.00628662109375,29.6200008392334,0.0,0.0,2.74658203125E-4,-1.373291015625E-4,Closing,0.0,0.0,0.0,0.0,0.0,0.0,0.0,0.0,
3.5601240000000107,0.0,0.0,0.0,0.0,0.0,0.0,0.0,0.0,3.80859336,0.0,0.0,0.0,0.0,0.0,-0.0,0.0,0.0,1.8920896500000002,0.0,0.0,0.0,0.0,0.0,0.0,0.0,0.0,4.875487782,0.0,0.0012207030000004337,0.0,0.0,0.0,-0.0,0.0,0.0,2.863769238,0.0,0.0,0.8500000238418579,0.6899999976158142,5.630000114440918,0.01104736328125,0.01348876953125,1.00714111328125,29.6200008392334,0.0,-1.0,2.74658203125E-4,-1.373291015625E-4,Closing,0.0,0.0,0.0,0.0,0.0,0.0,0.0,0.0,
3.5887520000000075,0.0,0.0,0.0,0.0,0.0,0.0,0.0,0.0,3.80859336,0.0,0.0,0.0,0.0,0.0,-0.0,0.0,0.0,1.8920896500000002,0.0,0.0,0.0,0.0,0.0,0.0,0.0,0.0,4.866942861,0.0,0.0012207030000004337,0.0,0.0,0.0,-0.0,0.0,0.0,2.862548535,0.0,0.0,0.8500000238418579,0.6899999976158142,5.630000114440918,0.0128173828125,0.01416015625,1.0086669921875,29.6200008392334,0.0,0.0,2.74658203125E-4,-1.373291015625E-4,Closing,0.0,0.0,0.0,0.0,0.0,0.0,0.0,0.0,
3.615360000000015,0.0,0.0,0.0,0.0,0.0,0.0,0.0,0.0,3.80859336,0.0,0.0,0.0,0.0,0.0,-0.0,0.0,0.0,1.8920896500000002,0.0,0.0,0.0,0.0,0.0,0.0,0.0,0.0,4.8681635640000005,0.0,-0.0024414059999999793,0.0,0.0,0.0,-0.0,0.0,0.0,2.862548535,0.0,0.0,0.8500000238418579,0.6899999976158142,5.630000114440918,0.0140380859375,0.012451171875,1.00433349609375,29.6200008392334,0.0,1.0,2.74658203125E-4,-1.373291015625E-4,Closing,0.0,0.0,0.0,0.0,0.0,0.0,0.0,0.0,
3.644412000000011,0.0,0.0,0.0,0.0,0.0,0.0,0.0,0.0,3.809814063,0.0,0.0,0.0,0.0,0.0,-0.0,0.0,0.0,1.8920896500000002,0.0,0.0,0.0,0.0,0.0,0.0,0.0,0.0,4.874267079,0.0,-0.0024414059999999793,0.0,0.0,0.0,-0.0,0.0,0.0,2.862548535,0.0,0.0,0.8500000238418579,0.6899999976158142,5.630000114440918,0.01104736328125,0.01446533203125,1.00421142578125,29.6200008392334,0.0,-1.0,2.74658203125E-4,-1.373291015625E-4,Closing,0.0,0.0,0.0,0.0,0.0,0.0,0.0,0.0,
3.6707369999999937,0.0,0.0,0.0,0.0,0.0,0.0,0.0,0.0,3.80859336,0.0,0.0,0.0,0.0,0.0,-0.0,0.0,0.0,1.8945310560000002,0.0,0.0,0.0,0.0,0.0,0.0,0.0,0.0,4.866942861,0.0,0.0012207029999995456,0.0,0.0,0.0,-0.0,0.0,0.0,2.862548535,0.0,0.0,0.8500000238418579,0.6899999976158142,5.630000114440918,0.010986328125,0.01348876953125,1.00860595703125,29.6200008392334,0.0,-1.0,2.74658203125E-4,-1.373291015625E-4,Closing,0.0,0.0,0.0,0.0,0.0,0.0,0.0,0.0,
3.6935249999999944,0.0,0.0,0.0,0.0,0.0,0.0,0.0,0.0,3.80859336,0.0,0.0,0.0,0.0,0.0,-0.0,0.0,0.0,1.8920896500000002,0.0,0.0,0.0,0.0,0.0,0.0,0.0,0.0,4.8681635640000005,0.0,0.0,0.0,0.0,0.0,-0.0,0.0,0.0,2.863769238,0.0,0.0,0.8600000143051147,0.6899999976158142,5.630000114440918,0.00946044921875,0.01507568359375,1.00543212890625,29.6200008392334,0.0,-2.0,2.74658203125E-4,-1.373291015625E-4,Closing,0.0,0.0,0.0,0.0,0.0,0.0,0.0,0.0,
3.72579800000001,0.0,0.0,0.0,0.0,0.0,0.0,0.0,0.0,3.80859336,0.0,0.0,0.0,0.0,0.0,-0.0,0.0,0.0,1.8920896500000002,0.0,0.0,0.0,0.0,0.0,0.0,0.0,0.0,4.8730463760000005,0.0,0.0,0.0,0.0,0.0,-0.0,0.0,0.0,2.862548535,0.0,0.0,0.8500000238418579,0.6899999976158142,5.630000114440918,0.0108642578125,0.0142822265625,1.0062255859375,29.6200008392334,0.0,-1.0,2.74658203125E-4,-1.373291015625E-4,Closing,0.0,0.0,0.0,0.0,0.0,0.0,0.0,0.0,
3.748991000000009,0.0,0.0,0.0,0.0,0.0,0.0,0.0,0.125,3.80859336,0.0,0.0,0.0,0.0,0.0,-0.0,0.0,0.0,1.8933103530000002,0.0,0.0,0.0,0.0,0.0,0.0,0.0,0.0,4.8681635640000005,0.0,0.0012207030000004337,0.0,0.0,0.0,-0.0,0.0,0.0,2.863769238,0.0,0.0,0.8600000143051147,0.6899999976158142,5.619999885559082,0.011474609375,0.01312255859375,1.001953125,29.6200008392334,0.0,0.0,2.74658203125E-4,-1.373291015625E-4,Closing,0.0,0.0,0.0,0.0,0.0,0.0,0.0,0.0,
3.775010999999999,0.0,0.0,0.0,0.0,0.0,0.0,0.0,0.0,3.809814063,0.0,0.0,0.0,0.0,0.0,-0.0,0.0,0.0,1.8920896500000002,0.0,0.0,0.0,0.0,0.0,0.0,0.0,0.0,4.8730463760000005,0.0,0.0012207030000004337,0.0,0.0,0.0,-0.0,0.0,0.0,2.862548535,0.0,0.0,0.8500000238418579,0.6899999976158142,5.619999885559082,0.00830078125,0.01580810546875,1.00677490234375,29.6200008392334,0.0,-3.0,2.74658203125E-4,-1.373291015625E-4,Closing,0.0,0.0,0.0,0.0,0.0,0.0,0.0,0.0,
3.8042930000000053,0.0,0.0,0.0,0.0,0.0,0.0,0.0,0.0,3.80859336,0.0,0.0,0.0,0.0,0.0,-0.0,0.0,0.0,1.8920896500000002,0.0,0.0,0.0,0.0,0.0,0.0,0.0,0.0,4.866942861,0.0,0.0,0.0,0.0,0.0,-0.0,0.0,0.0,2.862548535,0.0,0.0,0.8600000143051147,0.6899999976158142,5.619999885559082,0.0108642578125,0.01446533203125,1.00494384765625,29.6200008392334,0.0,-1.0,2.74658203125E-4,-1.373291015625E-4,Closing,0.0,0.0,0.0,0.0,0.0,0.0,0.0,0.0,
3.83095199999999,0.0,0.0,0.0,0.0,0.0,0.0,0.0,0.0,3.80859336,0.0,0.0,0.0,0.0,0.0,-0.0,0.0,0.0,1.8920896500000002,0.0,0.0,0.0,0.0,0.0,0.0,0.0,0.0,4.8730463760000005,0.0,0.0,0.0,0.0,0.0,-0.0,0.0,0.0,2.863769238,0.0,0.0,0.8600000143051147,0.6899999976158142,5.619999885559082,0.013671875,0.0118408203125,1.00634765625,29.6200008392334,0.0,1.0,2.74658203125E-4,-1.373291015625E-4,Closing,0.0,0.0,0.0,0.0,0.0,0.0,0.0,0.0,
3.864287000000011,0.0,0.0,0.0,0.0,0.0,0.0,0.0,0.125,3.80859336,0.0,0.0,0.0,0.0,0.0,-0.0,0.0,0.0,1.8920896500000002,0.0,0.0,0.0,0.0,0.0,0.0,0.0,0.0,4.8730463760000005,0.0,-0.0024414059999999793,0.0,0.0,0.0,-0.0,0.0,0.0,2.862548535,0.0,0.0,0.8600000143051147,0.6899999976158142,5.619999885559082,0.01025390625,0.0157470703125,1.00494384765625,29.6200008392334,0.0,-1.0,2.74658203125E-4,-1.373291015625E-4,Closing,0.0,0.0,0.0,0.0,0.0,0.0,0.0,0.0,
3.890114999999991,0.0,0.0,0.0,0.0,0.0,0.0,0.0,0.125,3.80859336,0.0,0.0,0.0,0.0,0.0,-0.0,0.0,0.0,1.8920896500000002,0.0,0.0,0.0,0.0,0.0,0.0,0.0,0.0,4.871825673,0.0,-0.0024414059999999793,0.0,0.0,0.0,-0.0,0.0,0.0,2.862548535,0.0,0.0,0.8600000143051147,0.6899999976158142,5.619999885559082,0.01104736328125,0.01287841796875,1.010986328125,29.6200008392334,0.0,-1.0,2.74658203125E-4,-1.373291015625E-4,Closing,0.0,0.0,0.0,0.0,0.0,0.0,0.0,0.0,
3.9171070000000183,0.0,0.0,0.0,0.0,0.0,0.0,0.0,0.0,3.80859336,0.0,0.0,0.0,0.0,0.0,-0.0,0.0,0.0,1.8920896500000002,0.0,-0.0012207029999995456,0.0,0.0,0.0,0.0,0.0,0.0,4.8730463760000005,0.0,0.0024414059999999793,0.0,0.0,0.0,-0.0,0.0,0.0,2.863769238,0.0,0.0,0.8600000143051147,0.6899999976158142,5.619999885559082,0.01202392578125,0.01507568359375,1.007080078125,29.6200008392334,0.0,0.0,2.74658203125E-4,-1.373291015625E-4,Closing,0.0,0.0,0.0,0.0,0.0,0.0,0.0,0.0,
3.9457799999999987,0.0,0.0,0.0,0.0,0.0,0.0,0.0,0.0,3.807372657,0.0,0.0,0.0,0.0,0.0,-0.0,0.0,0.0,1.8920896500000002,0.0,-0.0012207029999995456,0.0,0.0,0.0,0.0,0.0,0.0,4.871825673,0.0,0.0,0.0,0.0,0.0,-0.0,0.0,0.0,2.863769238,0.0,0.0,0.8600000143051147,0.6899999976158142,5.619999885559082,0.011962890625,0.01416015625,1.00653076171875,29.6200008392334,0.0,0.0,2.74658203125E-4,-1.373291015625E-4,Closing,0.0,0.0,0.0,0.0,0.0,0.0,0.0,0.0,
3.9712430000000167,0.0,0.0,0.0,0.0,0.0,0.0,0.0,0.0,3.809814063,0.0,0.0,0.0,0.0,0.0,-0.0,0.0,0.0,1.8920896500000002,0.0,0.0012207029999995456,0.0,0.0,0.0,0.0,0.0,0.0,4.871825673,0.0,0.0,0.0,0.0,0.0,-0.0,0.0,0.0,2.862548535,0.0,0.0,0.8600000143051147,0.6899999976158142,5.619999885559082,0.01348876953125,0.01629638671875,1.00091552734375,29.6200008392334,0.0,1.0,2.74658203125E-4,-1.373291015625E-4,Closing,0.0,0.0,0.0,0.0,0.0,0.0,0.0,0.0,
3.9955739999999933,0.0,0.0,0.0,0.0,0.0,0.0,0.0,0.0,3.80859336,0.0,-0.0012207029999999897,0.0,0.0,0.0,-0.0,0.0,0.0,1.8920896500000002,0.0,0.0012207029999995456,0.0,0.0,0.0,0.0,0.0,0.0,4.8730463760000005,0.0,-0.0012207030000004337,0.0,0.0,0.0,-0.0,0.0,0.0,2.863769238,0.0,0.0,0.8500000238418579,0.6899999976158142,5.619999885559082,0.009521484375,0.0142822265625,1.00604248046875,29.649999618530273,0.0,-2.0,2.74658203125E-4,-1.373291015625E-4,Closing,0.0,0.0,0.0,0.0,0.0,0.0,0.0,0.0,
4.0275359999999925,0.0,0.0,0.0,0.0,0.0,0.0,0.0,0.0,3.80859336,0.0,-0.0012207029999999897,0.0,0.0,0.0,-0.0,0.0,0.0,1.8920896500000002,0.0,0.0,0.0,0.0,0.0,0.0,0.0,0.0,4.8681635640000005,0.0,-0.0012207030000004337,0.0,0.0,0.0,-0.0,0.0,0.0,2.863769238,0.0,0.0,0.8600000143051147,0.6899999976158142,5.619999885559082,0.00970458984375,0.015380859375,1.00714111328125,29.649999618530273,0.0,-2.0,2.74658203125E-4,-1.373291015625E-4,Closing,0.0,0.0,0.0,0.0,0.0,0.0,0.0,0.0,
4.050659000000014,0.0,0.0,0.0,0.0,0.0,0.0,0.0,0.0,3.80859336,0.0,0.0012207029999999897,0.0,0.0,0.0,-0.0,0.0,0.0,1.8920896500000002,0.0,0.0,0.0,0.0,0.0,0.0,0.0,0.0,4.874267079,0.0,0.0012207030000004337,0.0,0.0,0.0,-0.0,0.0,0.0,2.861327832,0.0,0.0,0.8500000238418579,0.6899999976158142,5.619999885559082,0.015380859375,0.016845703125,1.00439453125,29.649999618530273,0.0,3.0,2.74658203125E-4,-1.373291015625E-4,Closing,0.0,0.0,0.0,0.0,0.0,0.0,0.0,0.0,
4.081176999999996,0.0,0.0,0.0,0.0,0.0,0.0,0.0,0.0,3.80859336,0.0,0.0012207029999999897,0.0,0.0,0.0,-0.0,0.0,0.0,1.8920896500000002,0.0,0.0,0.0,0.0,0.0,0.0,0.0,0.0,4.874267079,0.0,0.0012207030000004337,0.0,0.0,0.0,-0.0,0.0,0.0,2.862548535,0.0,0.0,0.8600000143051147,0.6899999976158142,5.619999885559082,0.01434326171875,0.0128173828125,1.008544921875,29.649999618530273,0.0,1.0,2.74658203125E-4,-1.373291015625E-4,Closing,0.0,0.0,0.0,0.0,0.0,0.0,0.0,0.0,
4.107144,0.0,0.0,0.0,0.0,0.0,0.0,0.0,0.0,3.80859336,0.0,0.0,0.0,0.0,0.0,-0.0,0.0,0.0,1.8920896500000002,0.0,0.0,0.0,0.0,0.0,0.0,0.0,0.0,4.866942861,0.0,0.0,0.0,0.0,0.0,-0.0,0.0,0.0,2.863769238,0.0,0.0,0.8500000238418579,0.6899999976158142,5.619999885559082,0.01220703125,0.01458740234375,1.00830078125,29.649999618530273,0.0,0.0,2.74658203125E-4,-1.373291015625E-4,Closing,0.0,0.0,0.0,0.0,0.0,0.0,0.0,0.0,
4.133266999999993,0.0,0.0,0.0,0.0,0.0,0.0,0.0,0.0,3.809814063,0.0,0.0,0.0,0.0,0.0,-0.0,0.0,0.0,1.8920896500000002,0.0,0.0,0.0,0.0,0.0,0.0,0.0,0.0,4.869384267,0.0,0.0,0.0,0.0,0.0,-0.0,0.0,0.0,2.863769238,0.0,0.0,0.8500000238418579,0.6899999976158142,5.619999885559082,0.01373291015625,0.01654052734375,1.0081787109375,29.649999618530273,0.0,0.0,2.74658203125E-4,-1.373291015625E-4,Closing,0.0,0.0,0.0,0.0,0.0,0.0,0.0,0.0,
4.162394,0.0,0.0,0.0,0.0,0.0,0.0,0.0,0.0,3.809814063,0.0,0.0,0.0,0.0,0.0,-0.0,0.0,0.0,1.8920896500000002,0.0,0.0,0.0,0.0,0.0,0.0,0.0,0.0,4.871825673,0.0,0.0,0.0,0.0,0.0,-0.0,0.0,0.0,2.862548535,0.0,0.0,0.8500000238418579,0.6899999976158142,5.619999885559082,0.01007080078125,0.013671875,1.003173828125,29.649999618530273,0.0,-2.0,2.74658203125E-4,-1.373291015625E-4,Closing,0.0,0.0,0.0,0.0,0.0,0.0,0.0,0.0,
4.190035999999993,0.0,0.0,0.0,0.0,0.0,0.0,0.0,0.0,3.80859336,0.0,0.0,0.0,0.0,0.0,-0.0,0.0,0.0,1.8920896500000002,0.0,0.0,0.0,0.0,0.0,0.0,0.0,0.0,4.8730463760000005,0.0,0.0,0.0,0.0,0.0,-0.0,0.0,0.0,2.862548535,0.0,0.0,0.8500000238418579,0.6899999976158142,5.619999885559082,0.0120849609375,0.01654052734375,1.00262451171875,29.649999618530273,0.0,0.0,2.74658203125E-4,-1.373291015625E-4,Closing,0.0,0.0,0.0,0.0,0.0,0.0,0.0,0.0,
4.216621000000014,0.0,0.0,0.0,0.0,0.0,0.0,0.0,0.0,3.809814063,0.0,0.0,0.0,0.0,0.0,-0.0,0.0,0.0,1.8920896500000002,0.0,0.0,0.0,0.0,0.0,0.0,0.0,0.0,4.8681635640000005,0.0,0.0,0.0,0.0,0.0,-0.0,0.0,0.0,2.863769238,0.0,0.0,0.8500000238418579,0.6899999976158142,5.619999885559082,0.01336669921875,0.013916015625,1.00177001953125,29.649999618530273,0.0,1.0,2.74658203125E-4,-1.373291015625E-4,Closing,0.0,0.0,0.0,0.0,0.0,0.0,0.0,0.0,
4.245360000000015,0.0,0.0,0.0,0.0,0.0,0.0,0.0,0.0,3.80859336,0.0,0.0,0.0,0.0,0.0,-0.0,0.0,0.0,1.8920896500000002,0.0,0.0,0.0,0.0,0.0,0.0,0.0,0.0,4.8730463760000005,0.0,0.0,0.0,0.0,0.0,-0.0,0.0,0.0,2.862548535,0.0,0.0,0.8500000238418579,0.6899999976158142,5.619999885559082,0.01275634765625,0.01580810546875,1.00830078125,29.649999618530273,0.0,0.0,2.74658203125E-4,-1.373291015625E-4,Closing,0.0,0.0,0.0,0.0,0.0,0.0,0.0,0.0,
4.270209999999992,0.0,0.0,0.0,0.0,0.0,0.0,0.0,0.0,3.80859336,0.0,0.0,0.0,0.0,0.0,-0.0,0.0,0.0,1.8920896500000002,0.0,0.0,0.0,0.0,0.0,0.0,0.0,0.0,4.8730463760000005,0.0,0.0012207029999995456,0.0,0.0,0.0,-0.0,0.0,0.0,2.862548535,0.0,0.0,0.8500000238418579,0.6899999976158142,5.619999885559082,0.01275634765625,0.01513671875,1.00494384765625,29.649999618530273,0.0,0.0,2.74658203125E-4,-1.373291015625E-4,Closing,0.0,0.0,0.0,0.0,0.0,0.0,0.0,0.0,
4.293257000000012,0.0,0.0,0.0,0.0,0.0,0.0,0.0,0.0,3.809814063,0.0,0.0,0.0,0.0,0.0,-0.0,0.0,0.0,1.8920896500000002,0.0,0.0,0.0,0.0,0.0,0.0,0.0,0.0,4.8730463760000005,0.0,-0.0024414059999999793,0.0,0.0,0.0,-0.0,0.0,0.0,2.863769238,0.0,0.0,0.8500000238418579,0.6899999976158142,5.619999885559082,0.01275634765625,0.0142822265625,1.00738525390625,29.649999618530273,0.0,0.0,2.74658203125E-4,-1.373291015625E-4,Closing,0.0,0.0,0.0,0.0,0.0,0.0,0.0,0.0,
4.323463000000018,0.0,0.0,0.0,0.0,0.0,0.0,0.0,0.125,3.80859336,0.0,0.0,0.0,0.0,0.0,-0.0,0.0,0.0,1.8920896500000002,0.0,0.0,0.0,0.0,0.0,0.0,0.0,0.0,4.8681635640000005,0.0,-0.0024414059999999793,0.0,0.0,0.0,-0.0,0.0,0.0,2.862548535,0.0,0.0,0.8500000238418579,0.6899999976158142,5.610000133514404,0.01422119140625,0.01483154296875,1.00848388671875,29.649999618530273,0.0,1.0,2.74658203125E-4,-1.373291015625E-4,Closing,0.0,0.0,0.0,0.0,0.0,0.0,0.0,0.0,
