Time,ClimberA1,ClimberA2,FRpos,FRCurrent,FRspeed,FRsetpoint,FRApos,FRACurrent,FREncpos,FREncSetpoint,FREncSpeed,FLpos,FLCurrent,FLspeed,FLsetpoint,FLApos,FLACurrent,FLEncpos,FLEncSetpoint,FLEncSpeed,BRpos,BRCurrent,BRspeed,BRsetpoint,BRApos,BRACurrent,BREncpos,BREncSetpoint,BREncSpeed,BLpos,BLCurrent,BLspeed,BLsetpoint,BLApos,BLACurrent,BLEncpos,BLEncSetpoint,BLEncSpeed,navx_Pitch,navx_Roll,navx_Yaw,navx_XAcc,navx_YAcc,navx_ZAcc,navx_Temp,navx_Bar,navx_Alt,navx_XDis,navx_YDis,GearPlacerState,ShootOutputV,ShootOutputCurrent,ShootEncPos,ShootEncVelocity,ShootSpeed,ShootSetpoint,CarouselSetpoint,CarouselCurrent,
0.492775999999998,0.0,0.0,0.0,0.0,0.0,0.0,0.0,0.125,3.814696875,0.0,0.0,0.0,0.0,0.0,0.0,0.0,0.0,1.8920896500000002,0.0,0.0,0.0,0.0,0.0,0.0,0.0,0.0,4.908446763000001,0.0,0.0,0.0,0.0,0.0,0.0,0.0,0.0,2.834472366,0.0,0.0,1.3600000143051147,0.15000000596046448,-0.27000001072883606,-2.44140625E-4,0.0238037109375,0.99749755859375,33.93000030517578,0.0,-2.0,0.0,0.0,Waiting,0.0,0.0,0.0,0.0,0.0,0.0,0.0,0.0,
0.5586520000000018,0.0,0.0,0.0,0.0,0.0,840.0,0.0,0.125,3.8293453110000004,0.0,0.0,0.0,0.125,0.0,-840.0,0.0,0.0,1.8933103530000002,0.0,0.0,0.0,0.0,0.0,840.0,0.0,0.0,4.90722606,0.0,0.0,0.0,0.0,0.0,-840.0,0.0,0.0,2.8454586930000003,0.0,0.0,1.3600000143051147,0.15000000596046448,-0.25999999046325684,0.00299072265625,0.02435302734375,0.99542236328125,33.93000030517578,0.0,0.0,0.0,0.0,Waiting,0.0,0.0,0.0,0.0,0.0,0.0,0.0,0.0,
0.5930629999999947,0.0,0.0,0.0,1.0,0.0,840.0,0.0,0.125,3.814696875,0.0,-0.0012207029999999897,0.0,1.5,-52.5,-840.0,0.0,0.0,1.8933103530000002,0.0,0.0012207029999995456,0.0,2.125,30.0,840.0,0.0,0.0,4.904784654,0.0,-0.0012207029999995456,-19.0,1.75,-22.5,-840.0,0.0,0.0,2.833251663,0.0,0.0,1.3600000143051147,0.1599999964237213,-0.27000001072883606,0.02215576171875,0.0587158203125,0.99609375,33.90999984741211,0.0,19.0,6.103515625E-5,3.0517578125E-5,Waiting,0.0,0.0,0.0,0.0,0.0,0.0,0.0,0.0,
0.6215910000000003,0.0,0.0,0.0,2.5,0.0,840.0,0.0,0.125,3.814696875,1.3788875738779706E-4,-0.0012207029999999897,-24.0,4.125,-112.5,-840.0,0.0,0.0,1.8920896500000002,1.3747209111849467E-4,0.0012207029999995456,20.0,2.875,82.5,840.0,0.0,0.0,4.90722606,1.376109798749288E-4,-0.0012207029999995456,-19.0,3.25,-75.0,-840.0,0.0,0.0,2.834472366,1.3743042449156442E-4,0.0,1.440000057220459,0.5099999904632568,-0.2199999988079071,0.52642822265625,-0.1455078125,0.93145751953125,33.90999984741211,0.0,518.0,8.23974609375E-4,4.730224609375E-4,Waiting,0.0,0.0,0.0,0.0,0.0,0.0,0.0,0.0,
0.6491530000000058,0.0,0.0,0.0,3.75,0.0,840.0,0.0,0.125,3.813476172,6.894444033503533E-4,0.0,-24.0,4.875,-172.5,-840.0,0.0,0.0,1.8908689470000002,6.873610701411962E-4,-0.0012207029999995456,20.0,3.875,142.5,840.0,0.0,0.0,4.906005357000001,6.880555145442486E-4,0.0,-19.0,4.25,-127.5,-840.0,0.0,0.0,2.834472366,6.871527368202806E-4,0.0,1.3700000047683716,0.8100000023841858,-0.20000000298023224,0.22430419921875,-0.01251220703125,0.6558837890625,33.90999984741211,0.0,214.0,0.002899169921875,0.0010833740234375,Waiting,0.0,0.0,0.0,0.0,0.0,0.0,0.0,0.0,
0.6724170000000013,0.0,0.0,0.0,5.125,0.0,840.0,0.0,0.125,3.814696875,8.273331607381505E-4,0.0,-24.0,5.75,-202.5,-840.0,0.0,0.0,1.8920896500000002,8.248331612596911E-4,0.0012207029999995456,20.0,4.75,217.5,840.0,0.0,0.0,4.906005357000001,8.256664944191775E-4,0.0012207029999995456,-19.0,5.875,-195.0,-840.0,0.0,0.0,2.833251663,8.245831613118451E-4,0.0,1.399999976158142,0.9100000262260437,-0.20999999344348907,0.10943603515625,0.11993408203125,1.518798828125,33.90999984741211,0.0,84.0,0.0057220458984375,0.00164794921875,Waiting,0.0,0.0,0.0,0.0,0.0,0.0,0.0,0.0,
0.7071750000000029,0.0,0.0,0.0,7.0,0.0,840.0,0.0,0.125,3.814696875,6.894444033503533E-4,0.0,-24.0,6.125,-210.0,-840.0,0.0,0.0,1.8908689470000002,6.873610701411962E-4,0.0012207029999995456,20.0,4.5,225.0,840.0,0.0,0.0,4.90722606,6.880555145442486E-4,0.0012207029999995456,-19.0,6.25,-210.0,-840.0,0.0,0.0,2.834472366,6.871527368202806E-4,0.0,1.2999999523162842,1.3200000524520874,-0.23999999463558197,0.2376708984375,-0.04266357421875,0.62335205078125,33.90999984741211,0.0,223.0,0.0093536376953125,0.0023651123046875,Waiting,0.0,0.0,0.0,0.0,0.0,0.0,0.0,0.0,
0.7359159999999975,0.0,0.0,0.0,7.625,0.0,840.0,0.0,0.125,3.814696875,2.7577772024605014E-4,0.0012207029999999897,-59.0,6.5,-217.5,-840.0,0.0,0.0,1.8920896500000002,2.7494438708656365E-4,-0.0012207029999995456,56.0,4.75,232.5,840.0,0.0,0.0,4.90722606,2.752221648063925E-4,0.0,-52.0,7.25,-225.0,-840.0,0.0,0.0,2.834472366,2.7486105377061496E-4,0.0,1.409999966621399,1.4299999475479126,-0.33000001311302185,0.18792724609375,0.053955078125,1.28179931640625,33.90999984741211,0.0,155.0,0.014007568359375,0.00311279296875,Waiting,0.0,0.0,0.0,0.0,0.0,0.0,0.0,0.0,
0.7631129999999976,0.0,0.0,0.0,8.375,0.0,840.0,0.0,0.125,3.818358984,4.963034777465463,0.0012207029999999897,-59.0,7.25,-232.5,-840.0,0.0,0.0,1.887206838,4.948037694133073,-0.0012207029999995456,56.0,4.75,232.5,840.0,0.0,0.0,4.906005357000001,4.953036721910537,0.0,-52.0,7.75,-262.5,-840.0,0.0,0.0,2.835693069,4.946537985799834,0.0,1.3700000047683716,1.600000023841858,-0.36000001430511475,0.20208740234375,0.00323486328125,0.9449462890625,33.90999984741211,0.0,175.0,0.01666259765625,0.003509521484375,Waiting,0.0,0.0,0.0,0.0,0.0,0.0,0.0,0.0,
0.7834309999999969,0.0,0.0,0.0,9.125,0.0,840.0,0.0,0.125,3.826903905,4.961931666584479,0.0,-59.0,7.5,-270.0,-840.0,0.0,0.0,1.8920896500000002,4.9469379165847265,0.0,56.0,5.0,330.0,840.0,0.0,0.0,4.906005357000001,4.95193583325131,-0.0012207029999995456,-52.0,8.0,-315.0,-840.0,0.0,0.0,2.834472366,4.9454385415847515,0.0012207030000004337,1.3700000047683716,1.840000033378601,-0.4699999988079071,0.2164306640625,0.00103759765625,0.98150634765625,33.90999984741211,0.0,184.0,0.0227813720703125,0.0034942626953125,Waiting,0.0,0.0,0.0,0.0,0.0,0.0,0.0,0.0,
0.8064309999999969,0.0,0.0,0.0,10.0,0.0,840.0,0.0,0.125,3.813476172,4.9611043332182705,0.0,-59.0,7.5,-300.0,-840.0,0.0,0.0,1.8896482440000002,4.946113083218617,0.0,56.0,5.0,390.0,840.0,0.0,0.0,4.908446763000001,4.951110166551835,-0.0012207029999995456,-52.0,7.875,-360.0,-840.0,0.0,0.0,2.834472366,4.944613958218652,0.0012207030000004337,1.3799999952316284,1.9500000476837158,-0.5199999809265137,0.2191162109375,0.0911865234375,1.07147216796875,33.90999984741211,0.0,181.0,0.026214599609375,0.003509521484375,Waiting,0.0,0.0,0.0,0.0,0.0,0.0,0.0,0.0,
0.8267519999999932,0.0,0.0,0.0,11.0,0.0,840.0,0.0,0.125,3.814696875,4.959587555654182,0.0,-59.0,7.25,-337.5,-840.0,0.0,0.0,1.8896482440000002,4.944600888987217,0.0,56.0,5.0,390.0,840.0,0.0,0.0,4.903563951000001,4.9495964445428715,-0.0012207029999995456,-52.0,7.625,-412.5,-840.0,0.0,0.0,2.836913772,4.94310222232052,0.0,1.399999976158142,2.190000057220459,-0.6399999856948853,0.254150390625,0.026611328125,1.031982421875,33.90999984741211,0.0,214.0,0.033935546875,0.0035858154296875,Waiting,0.0,0.0,0.0,0.0,0.0,0.0,0.0,0.0,
0.8494290000000038,0.0,0.0,0.0,12.0,0.0,840.0,0.0,0.125,3.814696875,4.958760222287974,-0.0012207029999999897,-138.0,7.125,-382.5,-840.0,0.0,0.0,1.8920896500000002,4.9437760556211074,0.0012207029999995456,142.0,4.5,502.5,840.0,0.0,0.0,4.899901842,4.948770777843396,-0.003662109000000413,-132.0,7.25,-465.0,-840.0,0.0,0.0,2.834472366,4.942277638954421,0.0,1.3700000047683716,2.430000066757202,-0.75,0.21514892578125,0.05364990234375,1.006591796875,33.90999984741211,0.0,171.0,0.0427093505859375,0.003692626953125,Waiting,0.0,0.0,0.0,0.0,0.0,0.0,0.0,0.0,
0.8803479999999981,0.0,0.0,0.0,14.125,0.0,839.9999999999999,0.0,0.125,3.814696875,4.957243444312944,0.0,-138.0,6.75,-525.0,-839.9999999999999,0.0,0.0,1.8933103530000002,4.942263860980007,0.0,142.0,4.0,562.5,839.9999999999999,0.0,0.0,4.902343248,4.94725705542432,-0.0012207029999995456,-132.0,7.125,-517.5,-839.9999999999999,0.0,0.0,2.834472366,4.940765902646714,-0.0012207030000004337,1.3700000047683716,2.630000114440918,-0.9200000166893005,0.219482421875,-0.00177001953125,1.011962890625,33.90999984741211,0.0,173.0,0.05242919921875,0.0037689208984375,Waiting,0.0,0.0,0.0,0.0,0.0,0.0,0.0,0.0,
0.9120190000000002,0.0,0.0,0.0,15.25,0.0,840.0,0.0,0.125,3.814696875,4.9548993329717055,0.0,-138.0,6.125,-592.5,-840.0,0.0,0.0,1.8908689470000002,4.939926832972798,0.0,142.0,3.25,667.5,840.0,0.0,0.0,4.899901842,4.944917666305767,-0.0012207029999995456,-132.0,6.0,-622.5,-840.0,0.0,0.0,2.834472366,4.9384295829729075,-0.0012207030000004337,1.3600000143051147,2.740000009536743,-1.0299999713897705,0.1361083984375,0.0594482421875,1.1695556640625,33.90999984741211,0.0,79.0,0.0575714111328125,0.0037841796875,Waiting,0.0,0.0,0.0,0.0,0.0,0.0,0.0,0.0,
0.9328389999999926,0.0,0.0,0.0,16.625,0.0,840.0,0.0,0.125,3.817138281,4.952003666600917,0.0,-138.0,4.875,-697.5,-840.0,0.0,0.0,1.8920896500000002,4.9370399166011145,0.0,142.0,2.875,720.0,840.0,0.0,0.0,4.904784654,4.942027833267716,0.0012207029999995456,-132.0,5.375,-667.5,-840.0,0.0,0.0,2.834472366,4.935543541601135,0.0,1.350000023841858,2.9700000286102295,-1.2400000095367432,0.20513916015625,0.0357666015625,0.80352783203125,33.90999984741211,0.0,162.0,0.0684051513671875,0.00408935546875,Waiting,0.0,0.0,0.0,0.0,0.0,0.0,0.0,0.0,
0.9614719999999943,0.0,0.0,0.0,18.75,0.0,840.0,0.0,0.125,3.815917578,4.950486888625887,0.0,-263.0,4.25,-735.0,-840.0,0.0,0.0,1.8896482440000002,4.935527721960015,0.0,278.0,2.375,780.0,840.0,0.0,0.0,4.901122545000001,4.940514110848639,0.0012207029999995456,-253.0,4.875,-705.0,-840.0,0.0,0.0,2.833251663,4.9340318052934276,0.0,1.3600000143051147,3.0199999809265137,-1.3700000047683716,0.15643310546875,0.0111083984375,1.05401611328125,33.90999984741211,0.0,100.0,0.0741119384765625,0.004302978515625,Waiting,0.0,0.0,0.0,0.0,0.0,0.0,0.0,0.0,
0.9841370000000025,0.0,0.0,0.0,20.0,0.0,840.0,0.0,0.125,3.8281246080000004,4.946763888888889,0.0012207029999999897,-263.0,3.75,-765.0,-840.0,0.0,0.0,1.8920896500000002,4.931815972222222,0.0,278.0,2.0,825.0,840.0,0.0,0.0,4.902343248,4.9367986111111115,0.0,-253.0,4.25,-742.5,-840.0,0.0,0.0,2.8405758810000004,4.930321180555556,0.0012207030000004337,1.3600000143051147,3.140000104904175,-1.649999976158142,0.1375732421875,0.06903076171875,0.94512939453125,33.90999984741211,0.0,84.0,0.08587646484375,0.0048828125,Waiting,0.0,0.0,0.0,0.0,0.0,0.0,0.0,0.0,
1.006566000000006,0.0,0.0,0.0,21.625,0.0,840.0000000000001,0.0,0.125,3.822021093,4.942903000394504,0.0012207029999999897,-263.0,3.25,-780.0,-840.0000000000001,0.0,0.0,1.8920896500000002,4.927966750393311,0.0,278.0,1.125,877.5,840.0000000000001,0.0,0.0,4.901122545000001,4.932945500393709,0.0,-253.0,3.75,-772.5,-840.0000000000001,0.0,0.0,2.833251663,4.9264731253931915,0.0012207030000004337,1.2899999618530273,3.2899999618530273,-1.7899999618530273,0.1572265625,-0.0238037109375,0.54327392578125,33.90999984741211,0.0,126.0,0.091949462890625,0.005218505859375,Waiting,0.0,0.0,0.0,0.0,0.0,0.0,0.0,0.0,
1.0422479999999923,0.0,0.0,0.0,24.625,0.0,840.0,0.0,0.125,3.813476172,4.9386284456279546,0.0,-263.0,2.875,-795.0,-840.0,0.0,0.0,1.8920896500000002,4.923705112291044,-0.0012207029999995456,278.0,0.5,952.5,840.0,0.0,0.0,4.904784654,4.9286795567366815,-0.0012207029999995456,-253.0,2.875,-840.0,-840.0,0.0,0.0,2.833251663,4.922212778957354,-0.0012207030000004337,1.340000033378601,3.369999885559082,-2.259999990463257,0.191162109375,-0.0430908203125,0.6021728515625,33.90999984741211,0.0,157.0,0.11083984375,0.0064544677734375,Waiting,0.0,0.0,0.0,0.0,0.0,0.0,0.0,0.0,
1.0720810000000056,0.0,0.0,0.0,26.125,0.0,840.0,0.0,0.125,3.811034766,4.934078110059103,0.0,-263.0,2.625,-817.5,-840.0,0.0,0.0,1.8920896500000002,4.9191685267289476,-0.0012207029999995456,278.0,0.375,967.5,840.0,0.0,0.0,4.901122545000001,4.924138387838999,-0.0012207029999995456,-253.0,2.0,-892.5,-840.0,0.0,0.0,2.834472366,4.917677568395932,0.0,1.3899999856948853,3.359999895095825,-2.609999895095825,-0.03289794921875,0.14886474609375,1.4302978515625,33.90999984741211,0.0,-121.0,0.12396240234375,0.007354736328125,Waiting,0.0,0.0,0.0,0.0,0.0,0.0,0.0,0.0,
1.0963699999999954,0.0,0.0,0.0,27.375,0.0,840.0,0.0,0.125,3.817138281,4.92938988902039,-0.0012207029999999897,-404.0,2.5,-840.0,-840.0,0.0,0.0,1.8933103530000002,4.914494472353326,0.0,432.0,0.375,967.5,840.0,0.0,0.0,4.903563951000001,4.919459611242347,0.0012207029999995456,-401.0,1.625,-915.0,-840.0,0.0,0.0,2.833251663,4.913004930686619,0.0,1.350000023841858,3.549999952316284,-2.9800000190734863,0.19952392578125,0.01104736328125,0.747314453125,33.88999938964844,0.0,152.0,0.1371917724609375,0.008514404296875,Waiting,0.0,0.0,0.0,0.0,0.0,0.0,0.0,0.0,
1.1251609999999928,0.0,0.0,0.0,29.0,0.0,840.0,0.0,0.125,3.814696875,4.92649422182772,-0.0012207029999999897,-404.0,1.875,-922.5,-840.0,0.0,0.0,1.8920896500000002,4.911607555162244,0.0,432.0,0.125,967.5,840.0,0.0,0.0,4.902343248,4.916569777384069,0.0012207029999995456,-401.0,1.25,-937.5,-840.0,0.0,0.0,2.833251663,4.910118888495697,0.0,1.4199999570846558,3.390000104904175,-3.1700000762939453,-0.07073974609375,0.1519775390625,1.68035888671875,33.88999938964844,0.0,-175.0,0.1438751220703125,0.0091705322265625,Waiting,0.0,0.0,0.0,0.0,0.0,0.0,0.0,0.0,
1.1481959999999962,0.0,0.0,0.0,32.875,0.0,840.0,0.0,0.125,3.813476172,4.921254445759456,0.0,-404.0,1.25,-960.0,-840.0,0.0,0.0,1.8933103530000002,4.9063836124221485,0.0012207029999995456,432.0,0.125,990.0,840.0,0.0,0.0,4.902343248,4.911340556867917,0.0,-401.0,1.125,-952.5,-840.0,0.0,0.0,2.834472366,4.9048965290884174,0.0,1.3600000143051147,3.619999885559082,-3.559999942779541,0.14239501953125,-0.03411865234375,0.50738525390625,33.88999938964844,0.0,112.0,0.1571502685546875,0.010589599609375,Waiting,0.0,0.0,0.0,0.0,0.0,0.0,0.0,0.0,
1.179573000000004,0.0,0.0,0.0,34.625,0.0,840.0,0.0,0.125,3.807372657,4.915601000131502,0.0,-404.0,0.75,-975.0,-840.0,0.0,0.0,1.8920896500000002,4.900747250131103,-0.0012207029999995456,432.0,0.0,1095.0,840.0,0.0,0.0,4.896239733000001,4.905698500131236,-0.0012207029999995456,-401.0,0.875,-960.0,-840.0,0.0,0.0,2.834472366,4.899261875131064,0.0,1.3600000143051147,3.5899999141693115,-3.990000009536743,0.13446044921875,-0.016357421875,1.27862548828125,33.88999938964844,0.0,57.0,0.1707000732421875,0.011749267578125,Waiting,0.0,0.0,0.0,0.0,0.0,0.0,0.0,0.0,
1.2051790000000038,0.0,0.0,0.0,36.125,0.0,840.0,0.0,0.125,3.80859336,4.9093960027615235,-0.006103514999999948,-561.0,0.5,-982.5,-840.0,0.0,0.0,1.8920896500000002,4.894561002753178,-0.0012207029999995456,621.0,0.0,1095.0,840.0,0.0,0.0,4.896239733000001,4.89950600275596,-0.0012207029999995456,-552.0,0.75,-952.5,-840.0,0.0,0.0,2.836913772,4.893077502752344,0.0,1.3899999856948853,3.549999952316284,-4.21999979019165,-0.01202392578125,0.1019287109375,1.59930419921875,33.88999938964844,0.0,-115.0,0.1774444580078125,0.012298583984375,Waiting,0.0,0.0,0.0,0.0,0.0,0.0,0.0,0.0,
1.2271860000000014,0.0,0.0,0.0,38.25,0.0,840.0,0.0,0.125,3.7939449240000003,4.906362443523937,-0.006103514999999948,-561.0,0.5,-982.5,-840.0,0.0,0.0,1.8920896500000002,4.891536610193385,-0.0012207029999995456,621.0,0.0,1192.5,840.0,0.0,0.0,4.892577624,4.896478554636902,-0.008544921000000372,-552.0,0.625,-937.5,-840.0,0.0,0.0,2.834472366,4.89005402686033,0.0012207030000004337,1.2899999618530273,3.7200000286102295,-4.659999847412109,0.1019287109375,0.09283447265625,0.7071533203125,33.88999938964844,0.0,49.0,0.1907958984375,0.0135650634765625,Waiting,0.0,0.0,0.0,0.0,0.0,0.0,0.0,0.0,
1.2518650000000053,0.0,0.0,0.0,42.125,0.0,840.0,0.0,0.125,3.818358984,4.900019554109044,0.0012207029999999897,-561.0,0.25,-975.0,-840.0,0.0,0.0,1.8920896500000002,4.885212887446747,0.0,621.0,0.0,1215.0,840.0,0.0,0.0,4.887694812,4.890148443000847,-0.008544921000000372,-552.0,0.5,-937.5,-840.0,0.0,0.0,2.834472366,4.8837322207805185,0.0012207030000004337,1.2999999523162842,3.619999885559082,-5.150000095367432,0.12628173828125,-0.11480712890625,0.94073486328125,33.88999938964844,0.0,78.0,0.2042083740234375,0.0147552490234375,Waiting,0.0,0.0,0.0,0.0,0.0,0.0,0.0,0.0,
1.269546000000002,0.0,0.0,0.0,42.125,0.0,839.9999999999999,0.0,0.125,3.818358984,4.896572331886822,0.0012207029999999897,-561.0,0.25,-975.0,-839.9999999999999,0.0,0.0,1.8896482440000002,4.881776081891192,0.0,621.0,0.0,1215.0,839.9999999999999,0.0,0.0,4.886474109,4.886708165223069,-0.008544921000000372,-552.0,0.25,-960.0,-839.9999999999999,0.0,0.0,2.834472366,4.880296456891629,0.0012207030000004337,1.2300000190734863,3.609999895095825,-5.400000095367432,-0.089599609375,0.0390625,1.14996337890625,33.88999938964844,0.0,-162.0,0.2108612060546875,0.0151824951171875,Waiting,0.0,0.0,0.0,0.0,0.0,0.0,0.0,0.0,
1.2909199999999983,0.0,0.0,0.0,44.625,0.0,840.0,0.0,0.125,3.7817378940000004,4.8931251096646,0.0,-561.0,0.25,-960.0,-840.0,0.0,0.0,1.8920896500000002,4.878339276335637,0.0012207029999995456,621.0,0.0,1207.5,840.0,0.0,0.0,4.887694812,4.883267887445291,4.949117188,-552.0,0.0,-990.0,-840.0,0.0,0.0,2.834472366,4.87686069300274,-0.0012207030000004337,1.2699999809265137,3.559999942779541,-5.639999866485596,-0.01214599609375,0.175537109375,0.9998779296875,33.88999938964844,0.0,-89.0,0.21734619140625,0.015716552734375,Waiting,0.0,0.0,0.0,0.0,0.0,0.0,0.0,0.0,
1.311596000000005,0.0,0.0,0.0,47.25,0.0,840.0,0.0,0.125,3.7988277360000002,4.886368557265071,0.0,-561.0,0.25,-945.0,-840.0,0.0,0.0,1.8920896500000002,4.871603140593237,0.0012207029999995456,621.0,0.0,1200.0,840.0,0.0,0.0,4.879149891,4.876524946150515,4.949117188,-552.0,0.0,-1027.5,-840.0,0.0,0.0,2.834472366,4.870126598926054,-0.0012207030000004337,1.2599999904632568,3.4600000381469727,-6.150000095367432,-0.0408935546875,0.168212890625,1.0838623046875,33.88999938964844,0.0,-121.0,0.23016357421875,0.0169219970703125,Waiting,0.0,0.0,0.0,0.0,0.0,0.0,0.0,0.0,
1.3298399999999966,0.0,0.0,0.0,48.875,0.0,840.0,0.0,0.125,3.803710548,4.882783442997933,0.0,-719.0,0.125,-945.0,-840.0,0.0,0.0,1.8920896500000002,4.86802885966897,0.0012207029999995456,812.0,0.0,1200.0,840.0,0.0,0.0,4.876708485,4.8729470541119575,4.949117188,-723.0,0.0,-1065.0,-840.0,0.0,0.0,2.833251663,4.866553401336073,0.0,1.2699999809265137,3.4600000381469727,-6.389999866485596,0.1356201171875,0.05950927734375,0.81781005859375,33.88999938964844,0.0,80.0,0.2365264892578125,0.017669677734375,Waiting,0.0,0.0,0.0,0.0,0.0,0.0,0.0,0.0,
1.3493999999999942,0.0,0.0,0.0,49.125,0.0,840.0,0.0,0.125,3.7780757850000004,4.879474112820626,-0.004882811999999959,-719.0,0.125,-967.5,-840.0,0.0,0.0,1.8920896500000002,4.864729529482126,-0.0012207029999995456,812.0,0.0,1192.5,840.0,0.0,0.0,4.874267079,4.869644390594959,-0.009765623999999917,-723.0,0.0,-1065.0,-840.0,0.0,0.0,2.834472366,4.863255071148276,0.0,1.2899999618530273,3.509999990463257,-6.659999847412109,-0.02911376953125,-0.0452880859375,0.9471435546875,33.88999938964844,0.0,-78.0,0.242889404296875,0.018402099609375,Waiting,0.0,0.0,0.0,0.0,0.0,0.0,0.0,0.0,
1.3675179999999965,0.0,0.0,0.0,49.25,0.0,840.0,0.0,0.125,3.7988277360000002,4.872165998816491,-0.004882811999999959,-719.0,0.125,-997.5,-840.0,0.0,0.0,1.8920896500000002,4.857443498820066,-0.0012207029999995456,812.0,0.0,1185.0,840.0,0.0,0.0,4.880370594,4.862350998818874,-0.009765623999999917,-723.0,0.0,-1080.0,-840.0,0.0,0.0,2.834472366,4.855971248820424,0.0,1.309999942779541,3.450000047683716,-6.920000076293945,-0.01629638671875,0.014404296875,1.0518798828125,33.88999938964844,0.0,-77.0,0.2491302490234375,0.0190582275390625,Waiting,0.0,0.0,0.0,0.0,0.0,0.0,0.0,0.0,
1.3876630000000005,0.0,0.0,0.0,49.75,0.0,840.0,0.0,0.125,3.7988277360000002,4.868718776594268,-0.006103514999999948,-719.0,0.0,-1027.5,-840.0,0.0,0.0,1.8920896500000002,4.854006693264511,0.0,812.0,0.0,1185.0,840.0,0.0,0.0,4.876708485,4.858910721041097,-0.0012207030000004337,-723.0,0.0,-1087.5,-840.0,0.0,0.0,2.835693069,4.852535484931535,0.0012207030000004337,1.2799999713897705,3.319999933242798,-7.409999847412109,-0.05535888671875,0.05499267578125,0.92901611328125,33.88999938964844,0.0,-112.0,0.2613677978515625,0.0203094482421875,Waiting,0.0,0.0,0.0,0.0,0.0,0.0,0.0,0.0,
1.4076910000000062,0.0,0.0,0.0,50.25,0.0,840.0,0.0,0.125,3.7963863300000003,4.865409446416962,-0.006103514999999948,-719.0,0.0,-1050.0,-840.0,0.0,0.0,1.8920896500000002,4.8507073630776665,0.0,812.0,0.0,1177.5,840.0,0.0,0.0,4.8730463760000005,4.8556080575240985,-0.0012207030000004337,-723.0,0.0,-1080.0,-840.0,0.0,0.0,2.834472366,4.849237154743737,0.0012207030000004337,1.159999966621399,3.4100000858306885,-7.659999847412109,0.02392578125,-0.0872802734375,0.3765869140625,33.88999938964844,0.0,14.0,0.267364501953125,0.0208740234375,Waiting,0.0,0.0,0.0,0.0,0.0,0.0,0.0,0.0,
1.4330629999999946,0.0,0.0,0.0,50.5,0.0,840.0,0.0,0.125,3.752441022,4.8586528874423776,-0.003662108999999969,-719.0,0.0,-1050.0,-840.0,0.0,0.0,1.8896482440000002,4.843971220780081,0.0012207029999995456,994.0,0.0,1162.5,840.0,0.0,0.0,4.871825673,4.848865109667513,-0.004882811999999959,-894.0,0.0,-1072.5,-840.0,0.0,0.0,2.833251663,4.842503054113852,-0.0012207030000004337,1.3700000047683716,3.069999933242798,-8.149999618530273,-0.00927734375,0.28790283203125,1.7413330078125,33.88999938964844,0.0,-136.0,0.27899169921875,0.0223846435546875,Waiting,0.0,0.0,0.0,0.0,0.0,0.0,0.0,0.0,
1.454755999999994,0.0,0.0,0.0,50.25,0.0,840.0000000000001,0.0,0.125,3.7915035180000003,4.8552056717952095,-0.003662108999999969,-887.0,0.0,-1050.0,-840.0000000000001,0.0,0.0,1.887206838,4.8405344217797115,0.0012207029999995456,994.0,0.0,1140.0,840.0000000000001,0.0,0.0,4.8730463760000005,4.845424838451544,-0.004882811999999959,-894.0,0.0,-1065.0,-840.0000000000001,0.0,0.0,2.829589554,4.839067296778162,-0.0012207030000004337,1.3899999856948853,3.1500000953674316,-8.399999618530273,-0.05096435546875,-0.0350341796875,0.914794921875,33.88999938964844,0.0,-91.0,0.2845611572265625,0.0233917236328125,Waiting,0.0,0.0,0.0,0.0,0.0,0.0,0.0,0.0,
1.4726919999999954,0.0,0.0,0.0,50.5,0.0,840.0,0.0,0.125,3.7902828150000003,4.848449106245571,-0.003662108999999969,-887.0,0.0,-1050.0,-840.0,0.0,0.0,1.887206838,4.8337982729269395,0.0012207029999995456,994.0,0.0,1140.0,840.0,0.0,0.0,4.8657221580000005,4.83868188403315,-0.004882811999999959,-894.0,0.0,-1057.5,-840.0,0.0,0.0,2.834472366,4.832333189595077,0.0,1.2899999618530273,3.0399999618530273,-8.880000114440918,-0.13421630859375,-0.026123046875,1.13385009765625,33.88999938964844,0.0,-183.0,0.2953033447265625,0.0252685546875,Waiting,0.0,0.0,0.0,0.0,0.0,0.0,0.0,0.0,
1.4932479999999924,0.0,0.0,0.0,50.875,0.0,840.0,0.0,0.125,3.7915035180000003,4.845139776068264,-0.003662108999999969,-887.0,0.0,-1035.0,-840.0,0.0,0.0,1.883544729,4.830498942740095,-0.006103514999999504,994.0,0.0,1110.0,840.0,0.0,0.0,4.8681635640000005,4.835379220516152,-0.004882811999999959,-894.0,0.0,-1042.5,-840.0,0.0,0.0,2.834472366,4.829034859407279,0.0,1.3300000429153442,2.7799999713897705,-9.100000381469727,0.006591796875,0.08306884765625,1.58489990234375,33.88999938964844,0.0,-76.0,0.3003997802734375,0.026153564453125,Waiting,0.0,0.0,0.0,0.0,0.0,0.0,0.0,0.0,
1.510548999999999,0.0,0.0,0.0,52.0,0.0,839.9999999999999,0.0,0.125,3.7854000030000003,4.842106216830678,-0.003662108999999969,-887.0,0.0,-1027.5,-839.9999999999999,0.0,0.0,1.882324026,4.827474550180303,-0.006103514999999504,994.0,0.0,1080.0,839.9999999999999,0.0,0.0,4.8681635640000005,4.832351772397094,-0.004882811999999959,-894.0,0.0,-1042.5,-839.9999999999999,0.0,0.0,2.834472366,4.826011383515265,0.0,1.350000023841858,2.8399999141693115,-9.34000015258789,-0.0517578125,0.0013427734375,1.111572265625,33.88999938964844,0.0,-101.0,0.305389404296875,0.0270233154296875,Waiting,0.0,0.0,0.0,0.0,0.0,0.0,0.0,0.0,
1.5313089999999938,0.0,0.0,0.0,52.25,0.0,840.0,0.0,0.125,3.7805171910000004,4.835763327415785,-0.003662108999999969,-887.0,0.0,-1020.0,-840.0,0.0,0.0,1.877441214,4.821150827433665,-0.008544921000000372,994.0,0.0,1057.5,840.0,0.0,0.0,4.864501455,4.826021660761039,0.0,-894.0,0.0,-1035.0,-840.0,0.0,0.0,2.829589554,4.819689577435454,0.0,1.2200000286102295,2.6600000858306885,-9.760000228881836,-0.08160400390625,0.043701171875,0.87335205078125,33.88999938964844,0.0,-124.0,0.314727783203125,0.0283355712890625,Waiting,0.0,0.0,0.0,0.0,0.0,0.0,0.0,0.0,
1.5523389999999926,0.0,0.0,0.0,52.125,0.0,840.0,0.0,0.125,3.7768550820000004,4.833005552268029,-0.009765623999999917,-887.0,0.0,-1005.0,-840.0,0.0,0.0,1.8737791050000001,4.8184013856112955,-0.008544921000000372,994.0,0.0,1035.0,840.0,0.0,0.0,4.858397940000001,4.82326944116354,0.0,-894.0,0.0,-1012.5,-840.0,0.0,0.0,2.824706742,4.816940968945622,0.0,1.1399999856948853,2.6500000953674316,-9.989999771118164,-0.04901123046875,-0.19097900390625,0.46282958984375,33.88999938964844,0.0,-34.0,0.319183349609375,0.0287933349609375,Waiting,0.0,0.0,0.0,0.0,0.0,0.0,0.0,0.0,
1.569373999999996,0.0,0.0,0.0,52.25,0.0,840.0,0.0,0.125,3.775634379,4.829834114135637,-0.009765623999999917,-1043.0,0.0,-982.5,-840.0,0.0,0.0,1.8688962930000002,4.815239530793163,-0.008544921000000372,1157.0,0.0,1020.0,840.0,0.0,0.0,4.860839346000001,4.820104391907321,0.0,-1052.0,0.0,-997.5,-840.0,0.0,0.0,2.825927445,4.813780072458916,0.0,1.25,2.5799999237060547,-10.199999809265137,-0.006103515625,0.29833984375,1.50390625,33.88999938964844,0.0,-119.0,0.323516845703125,0.0292816162109375,Waiting,0.0,0.0,0.0,0.0,0.0,0.0,0.0,0.0,
1.5895559999999969,0.0,0.0,0.0,52.75,0.0,840.0,0.0,0.125,3.770751567,4.8269384469429655,4.955455079,-1043.0,0.0,-975.0,-840.0,0.0,0.0,1.8664548870000002,4.812352613602082,-0.009765623999999917,1157.0,0.0,1005.0,840.0,0.0,0.0,4.852294425,4.817214558049043,-0.014648435999999876,-1052.0,0.0,-982.5,-840.0,0.0,0.0,2.818603227,4.810894030267994,-0.014648435999999876,1.3700000047683716,2.5199999809265137,-10.420000076293945,-0.12091064453125,-0.13250732421875,1.4478759765625,33.88999938964844,0.0,-151.0,0.3276824951171875,0.02978515625,Waiting,0.0,0.0,0.0,0.0,0.0,0.0,0.0,0.0,
1.6065910000000003,0.0,0.0,0.0,52.75,0.0,840.0,0.0,0.125,3.769530864,4.821422883497345,4.955455079,-1043.0,0.0,-975.0,-840.0,0.0,0.0,1.859130669,4.806853716846969,-0.009765623999999917,1157.0,0.0,990.0,840.0,0.0,0.0,4.848632316000001,4.811710105730428,-0.014648435999999876,-1052.0,0.0,-967.5,-840.0,0.0,0.0,2.810058306,4.805396800181931,-0.014648435999999876,1.2899999618530273,2.4700000286102295,-10.600000381469727,-0.06378173828125,0.16650390625,1.02093505859375,33.90999984741211,0.0,-132.0,0.3316497802734375,0.0302581787109375,Waiting,0.0,0.0,0.0,0.0,0.0,0.0,0.0,0.0,
1.6238530000000029,0.0,0.0,0.0,53.0,0.0,840.0,0.0,0.125,3.760985943,4.818940892439419,4.955455079,-1043.0,0.0,-960.0,-840.0,0.0,0.0,1.853027154,4.804379225762022,-0.009765623999999917,1157.0,0.0,990.0,840.0,0.0,0.0,4.842528801,4.809233114654488,-0.014648435999999876,-1052.0,0.0,-960.0,-840.0,0.0,0.0,2.808837603,4.802923059094283,-0.014648435999999876,1.1399999856948853,2.490000009536743,-10.779999732971191,0.01434326171875,-0.11163330078125,0.28656005859375,33.90999984741211,0.0,-54.0,0.33941650390625,0.031158447265625,Waiting,0.0,0.0,0.0,0.0,0.0,0.0,0.0,0.0,
1.6447649999999994,0.0,0.0,0.0,52.5,0.0,840.0,0.0,0.125,3.757323834,4.816183117291663,-0.010986326999999463,-1043.0,0.0,-945.0,-840.0,0.0,0.0,1.848144342,4.801629783939653,-0.014648435999999876,1157.0,0.0,975.0,840.0,0.0,0.0,4.841308098,4.806480895056989,-0.009765623999999917,-1052.0,0.0,-952.5,-840.0,0.0,0.0,2.8002926820000003,4.800174450604452,-0.008544920999999484,1.309999942779541,2.2699999809265137,-11.1899995803833,-0.16998291015625,0.03778076171875,1.430908203125,33.90999984741211,0.0,-223.0,0.3430938720703125,0.0316009521484375,Waiting,0.0,0.0,0.0,0.0,0.0,0.0,0.0,0.0,
1.6622229999999982,0.0,0.0,0.0,52.875,0.0,840.0,0.0,0.125,3.757323834,4.813287450098992,-0.010986326999999463,-1043.0,0.0,-937.5,-840.0,0.0,0.0,1.849365045,4.798742866748571,-0.014648435999999876,1157.0,0.0,960.0,840.0,0.0,0.0,4.835204583,4.803591061198712,-0.009765623999999917,-1052.0,0.0,-952.5,-840.0,0.0,0.0,2.7954098700000003,4.79728840841353,-0.008544920999999484,1.2999999523162842,2.2200000286102295,-11.359999656677246,-0.09210205078125,0.10968017578125,1.0064697265625,33.90999984741211,0.0,-145.0,0.346527099609375,0.03204345703125,Waiting,0.0,0.0,0.0,0.0,0.0,0.0,0.0,0.0,
1.6786579999999958,0.0,0.0,0.0,54.125,0.0,840.0,0.0,0.125,3.752441022,4.810943337935872,-0.010986326999999463,-1043.0,0.0,-922.5,-840.0,0.0,0.0,1.8444822330000001,4.796405837921964,-0.014648435999999876,1157.0,0.0,945.0,840.0,0.0,0.0,4.840087395,4.801251671259933,-0.009765623999999917,-1200.0,0.0,-945.0,-840.0,0.0,0.0,2.7868649490000004,4.7949520879205725,-0.014648435999999876,1.2100000381469727,2.200000047683716,-11.539999961853027,-5.4931640625E-4,-0.1109619140625,1.0389404296875,33.90999984741211,0.0,-13.0,0.349853515625,0.0324554443359375,Waiting,0.0,0.0,0.0,0.0,0.0,0.0,0.0,0.0,
1.698127999999997,0.0,0.0,0.0,55.125,0.0,840.0,0.0,0.125,3.752441022,4.806117221564717,-0.007324217999999938,-1188.0,0.0,-915.0,-840.0,0.0,0.0,1.8395994210000002,4.791594304900037,-0.008544921000000372,1305.0,0.0,937.5,840.0,0.0,0.0,4.835204583,4.796435277121597,-0.003662109000000413,-1200.0,0.0,-930.0,-840.0,0.0,0.0,2.781982137,4.790142013233569,-0.014648435999999876,1.2000000476837158,2.0999999046325684,-11.710000038146973,-0.01385498046875,0.11859130859375,0.8082275390625,33.90999984741211,0.0,-63.0,0.3563232421875,0.03314208984375,Waiting,0.0,0.0,0.0,0.0,0.0,0.0,0.0,0.0,
1.7182590000000055,0.0,0.0,0.0,54.625,0.0,840.0,0.0,0.125,3.7390132890000003,4.803635217356683,-0.007324217999999938,-1188.0,0.0,-900.0,-840.0,0.0,0.0,1.8371580150000002,4.789119800704717,-0.008544921000000372,1305.0,0.0,922.5,840.0,0.0,0.0,4.83398388,4.793958272922039,-0.003662109000000413,-1200.0,0.0,-922.5,-840.0,0.0,0.0,2.775878622,4.787668259039521,-0.014648435999999876,1.2200000286102295,2.0899999141693115,-12.0600004196167,-0.06524658203125,0.139404296875,0.98333740234375,33.90999984741211,0.0,-123.0,0.35943603515625,0.033416748046875,Waiting,0.0,0.0,0.0,0.0,0.0,0.0,0.0,0.0,
1.7412909999999975,0.0,0.0,0.0,54.125,0.0,840.0,0.0,0.125,3.7438961010000003,4.801291105193562,-0.007324217999999938,-1188.0,0.0,-892.5,-840.0,0.0,0.0,1.827392391,4.7867827718781095,-0.010986326999999463,1305.0,0.0,915.0,840.0,0.0,0.0,4.827880365,4.79161888298326,-0.006103514999999504,-1200.0,0.0,-907.5,-840.0,0.0,0.0,2.77099581,4.785331938546565,-0.019531248000000723,1.2300000190734863,2.0199999809265137,-12.229999542236328,-0.088134765625,0.01763916015625,1.10064697265625,33.90999984741211,0.0,-122.0,0.3623809814453125,0.0337371826171875,Waiting,0.0,0.0,0.0,0.0,0.0,0.0,0.0,0.0,
1.758373999999996,0.0,0.0,0.0,53.75,0.0,840.0,0.0,0.125,3.7353511800000003,4.796740772912238,-0.007324217999999938,-1188.0,0.0,-885.0,-840.0,0.0,0.0,1.828613094,4.782246189593606,-0.010986326999999463,1305.0,0.0,907.5,840.0,0.0,0.0,4.824218256,4.787077717366484,-0.006103514999999504,-1200.0,0.0,-900.0,-840.0,0.0,0.0,2.767333701,4.780796731261743,-0.019531248000000723,1.190000057220459,2.009999990463257,-12.390000343322754,-0.10626220703125,-0.11236572265625,1.093017578125,33.90999984741211,0.0,-112.0,0.3651580810546875,0.0339202880859375,Waiting,0.0,0.0,0.0,0.0,0.0,0.0,0.0,0.0,
1.7783120000000054,0.0,0.0,0.0,54.375,0.0,840.0,0.0,0.125,3.7292476650000004,4.794396660749118,-0.007324217999999938,-1188.0,0.0,-870.0,-840.0,0.0,0.0,1.824950985,4.779909160766999,-0.010986326999999463,1305.0,0.0,907.5,840.0,0.0,0.0,4.829101068,4.784738327427705,-0.006103514999999504,-1200.0,0.0,-885.0,-840.0,0.0,0.0,2.762450889,4.778460410768787,-0.009765623999999917,1.190000057220459,1.8799999952316284,-12.75,-0.1456298828125,-0.065673828125,1.2265625,33.90999984741211,0.0,-161.0,0.3705291748046875,0.034149169921875,Waiting,0.0,0.0,0.0,0.0,0.0,0.0,0.0,0.0,
1.798375,0.0,0.0,0.0,54.5,0.0,840.0,0.0,0.125,3.7243648530000004,4.791776777646278,-0.010986326999999463,-1188.0,0.0,-862.5,-840.0,0.0,0.0,1.824950985,4.77729719431334,-0.004882811999999959,1305.0,0.0,900.0,840.0,0.0,0.0,4.814452632,4.7821237220909865,-0.01342773300000033,-1200.0,0.0,-877.5,-840.0,0.0,0.0,2.757568077,4.775849235980047,-0.009765623999999917,1.1699999570846558,1.8200000524520874,-12.899999618530273,0.0516357421875,0.07733154296875,1.167236328125,33.90999984741211,0.0,2.0,0.3730621337890625,0.0341949462890625,Waiting,0.0,0.0,0.0,0.0,0.0,0.0,0.0,0.0,
1.8183570000000036,0.0,0.0,0.0,54.5,0.0,839.9999999999999,0.0,0.125,3.720702744,4.789708449572988,-0.010986326999999463,-1326.0,0.0,-855.0,-839.9999999999999,0.0,0.0,1.8200681730000001,4.775235116224156,-0.004882811999999959,1448.0,0.0,892.5,839.9999999999999,0.0,0.0,4.808349117000001,4.780059560673767,-0.01342773300000033,-1341.0,0.0,-877.5,-839.9999999999999,0.0,0.0,2.752685265,4.773787782889273,-0.009765623999999917,1.1299999952316284,1.940000057220459,-13.069999694824219,-0.00103759765625,-0.02978515625,0.54632568359375,33.90999984741211,0.0,-9.0,0.3755950927734375,0.0342559814453125,Waiting,0.0,0.0,0.0,0.0,0.0,0.0,0.0,0.0,
1.8405130000000063,0.0,0.0,0.0,53.875,0.0,840.0,0.0,0.125,3.719482041,4.785020225246748,-0.015869139000001198,-1326.0,0.0,-847.5,-840.0,0.0,0.0,1.8115232520000002,4.770561058570941,-0.01342773300000033,1448.0,0.0,892.5,840.0,0.0,0.0,4.8107905230000005,4.77538078079621,-0.009765623999999917,-1341.0,0.0,-870.0,-840.0,0.0,0.0,2.7514645620000002,4.76911514190336,-0.014648435999999876,1.2100000381469727,1.7100000381469727,-13.390000343322754,1.8310546875E-4,0.021240234375,1.45220947265625,33.90999984741211,0.0,-39.0,0.380462646484375,0.0341339111328125,Waiting,0.0,0.0,0.0,0.0,0.0,0.0,0.0,0.0,
1.8585320000000065,0.0,0.0,0.0,53.875,0.0,840.0,0.0,0.125,3.715819932,4.782951884023349,-0.015869139000001198,-1326.0,0.0,-847.5,-840.0,0.0,0.0,1.8151853610000002,4.768498967371384,-0.01342773300000033,1448.0,0.0,877.5,840.0,0.0,0.0,4.805907711000001,4.7733166062553725,-0.009765623999999917,-1341.0,0.0,-870.0,-840.0,0.0,0.0,2.7502438590000002,4.767053675706188,-0.014648435999999876,1.2100000381469727,1.690000057220459,-13.550000190734863,-0.03656005859375,0.01580810546875,1.3060302734375,33.90999984741211,0.0,-70.0,0.382781982421875,0.03399658203125,Waiting,0.0,0.0,0.0,0.0,0.0,0.0,0.0,0.0,
1.8890979999999982,0.0,0.0,0.0,54.25,0.0,840.0,0.0,0.125,3.7304683680000004,4.778401551742024,-0.003662108999999525,-1326.0,0.0,-840.0,-840.0,0.0,0.0,1.8103025490000002,4.763962385086881,-0.004882811999999959,1448.0,0.0,870.0,840.0,0.0,0.0,4.805907711000001,4.768775440638596,-0.004882811999999959,-1341.0,0.0,-862.5,-840.0,0.0,0.0,2.7429196410000003,4.762518468421367,0.0012207030000004337,1.0800000429153442,1.809999942779541,-13.880000114440918,-0.10162353515625,-0.0205078125,0.5831298828125,33.90999984741211,0.0,-109.0,0.38720703125,0.03369140625,Waiting,0.0,0.0,0.0,0.0,0.0,0.0,0.0,0.0,
1.9071110000000044,0.0,0.0,0.0,55.125,0.0,840.0,0.0,0.125,3.713378526,4.7761953316238195,-0.003662108999999525,-1326.0,0.0,-832.5,-840.0,0.0,0.0,1.8103025490000002,4.761762831628984,-0.004882811999999959,1448.0,0.0,862.5,840.0,0.0,0.0,4.801024899000001,4.766573664960596,-0.004882811999999959,-1341.0,0.0,-862.5,-840.0,0.0,0.0,2.7429196410000003,4.760319581629501,0.0012207030000004337,1.1799999475479126,1.590000033378601,-14.050000190734863,0.0350341796875,-0.15130615234375,1.4085693359375,33.90999984741211,0.0,39.0,0.389312744140625,0.033355712890625,Waiting,0.0,0.0,0.0,0.0,0.0,0.0,0.0,0.0,
1.924372000000003,0.0,0.0,0.0,54.875,0.0,840.0,0.0,0.125,3.696288684,4.7738512194607,-0.003662108999999525,-1460.0,0.0,-832.5,-840.0,0.0,0.0,1.80664044,4.759425802802377,-0.004882811999999959,1585.0,0.0,855.0,840.0,0.0,0.0,4.793700681000001,4.764234275021818,-0.004882811999999959,-1477.0,0.0,-855.0,-840.0,0.0,0.0,2.7429196410000003,4.757983261136545,0.0012207030000004337,1.190000057220459,1.5399999618530273,-14.210000038146973,-0.0772705078125,0.0965576171875,1.5069580078125,33.90999984741211,0.0,-130.0,0.3913726806640625,0.032928466796875,Waiting,0.0,0.0,0.0,0.0,0.0,0.0,0.0,0.0,
1.9438640000000014,0.0,0.0,0.0,54.875,0.0,840.0,0.0,0.125,3.709716417,4.771644999342495,-0.007324217999999938,-1460.0,0.0,-832.5,-840.0,0.0,0.0,1.800536925,4.757226249344481,-0.006103515000000392,1585.0,0.0,855.0,840.0,0.0,0.0,4.79736279,4.762032499343819,-0.006103514999999504,-1477.0,0.0,-847.5,-840.0,0.0,0.0,2.7380368290000003,4.75578437434468,-0.01586913900000031,1.1200000047683716,1.7000000476837158,-14.380000114440918,-0.05096435546875,0.0401611328125,0.59332275390625,33.90999984741211,0.0,-73.0,0.393280029296875,0.03253173828125,Waiting,0.0,0.0,0.0,0.0,0.0,0.0,0.0,0.0,
1.9598559999999998,0.0,0.0,0.0,55.5,0.0,840.0,0.0,0.125,3.707275011,4.767094667061171,-0.007324217999999938,-1460.0,0.0,-832.5,-840.0,0.0,0.0,1.800536925,4.752689667059977,-0.006103515000000392,1585.0,0.0,855.0,840.0,0.0,0.0,4.792479978,4.7574913337270415,-0.006103514999999504,-1477.0,0.0,-847.5,-840.0,0.0,0.0,2.7380368290000003,4.751249167059859,-0.01586913900000031,1.1100000143051147,1.6699999570846558,-14.539999961853027,0.01513671875,-0.14501953125,0.6668701171875,33.90999984741211,0.0,35.0,0.395172119140625,0.03204345703125,Waiting,0.0,0.0,0.0,0.0,0.0,0.0,0.0,0.0,
2.010751999999993,0.0,0.0,0.0,54.75,0.0,840.0,0.0,0.125,3.697509387,4.765026338987881,-0.003662109000000413,-1460.0,0.0,-825.0,-840.0,0.0,0.0,1.7895505980000002,4.750627588970794,-0.004882811999999959,1585.0,0.0,855.0,840.0,0.0,0.0,4.782714354,4.7554271723098225,-0.007324218000000826,-1477.0,0.0,-832.5,-840.0,0.0,0.0,2.7392575320000003,4.749187713969085,0.0,1.1200000047683716,1.600000023841858,-15.170000076293945,0.05523681640625,0.10113525390625,0.88818359375,33.90999984741211,0.0,7.0,0.4027252197265625,0.029571533203125,Waiting,0.0,0.0,0.0,0.0,0.0,0.0,0.0,0.0,
2.027326000000001,0.0,0.0,0.0,54.75,0.0,840.0,0.0,0.125,3.6926265750000002,4.7584076654831575,-0.003662109000000413,-1460.0,0.0,-817.5,-840.0,0.0,0.0,1.783447083,4.744028915486733,-0.004882811999999959,1585.0,0.0,855.0,840.0,0.0,0.0,4.776610839,4.748821832152208,-0.007324218000000826,-1477.0,0.0,-825.0,-840.0,0.0,0.0,2.727050502,4.742591040487091,0.0,1.1799999475479126,1.590000033378601,-15.329999923706055,-0.0179443359375,0.01654052734375,1.1839599609375,33.90999984741211,0.0,-46.0,0.404632568359375,0.0290374755859375,Waiting,0.0,0.0,0.0,0.0,0.0,0.0,0.0,0.0,
2.046122999999992,0.0,0.0,0.0,54.625,0.0,840.0,0.0,0.125,3.6926265750000002,4.754133117291663,-0.012207029999999008,-1590.0,0.0,-817.5,-840.0,0.0,0.0,1.778564271,4.739767283939653,-0.013427732999999442,1722.0,0.0,855.0,840.0,0.0,0.0,4.776610839,4.7445558950569895,-0.009765623999999917,-1610.0,0.0,-825.0,-840.0,0.0,0.0,2.728271205,4.738330700604452,-0.004882811999999959,1.100000023841858,1.5499999523162842,-15.479999542236328,0.01617431640625,-0.0750732421875,0.9627685546875,33.90999984741211,0.0,15.0,0.4065093994140625,0.028411865234375,Waiting,0.0,0.0,0.0,0.0,0.0,0.0,0.0,0.0,
2.0629470000000003,0.0,0.0,0.0,54.375,0.0,840.0,0.0,0.125,3.6865230600000003,4.7522026681131795,-0.012207029999999008,-1590.0,0.0,-817.5,-840.0,0.0,0.0,1.78222638,4.737842668108807,-0.013427732999999442,1722.0,0.0,855.0,840.0,0.0,0.0,4.774169433,4.7426293347769315,-0.009765623999999917,-1610.0,0.0,-832.5,-840.0,0.0,0.0,2.723388393,4.73640666810837,-0.004882811999999959,1.0800000429153442,1.590000033378601,-15.619999885559082,0.019287109375,0.25872802734375,0.89801025390625,33.90999984741211,0.0,-70.0,0.408355712890625,0.02789306640625,Waiting,0.0,0.0,0.0,0.0,0.0,0.0,0.0,0.0,
2.0784370000000054,0.0,0.0,0.0,54.625,0.0,840.0,0.0,0.125,3.6828609510000003,4.750272218934695,-0.012207029999999008,-1590.0,0.0,-817.5,-840.0,0.0,0.0,1.776122865,4.735918052277962,-0.013427732999999442,1722.0,0.0,847.5,840.0,0.0,0.0,4.7656245120000005,4.7407027744968735,-0.009765623999999917,-1610.0,0.0,-832.5,-840.0,0.0,0.0,2.717284878,4.734482635612289,-0.009765623999999917,1.1699999570846558,1.5399999618530273,-15.760000228881836,-0.08819580078125,-0.04473876953125,1.0989990234375,33.90999984741211,0.0,-95.0,0.4100799560546875,0.0274658203125,Waiting,0.0,0.0,0.0,0.0,0.0,0.0,0.0,0.0,
2.098024000000005,0.0,0.0,0.0,54.25,0.0,840.0,0.0,0.125,3.6914058720000003,4.748341782906321,-0.006103515000000392,-1590.0,0.0,-825.0,-840.0,0.0,0.0,1.772460756,4.73399344955749,-0.006103515000000392,1722.0,0.0,847.5,840.0,0.0,0.0,4.7680659180000005,4.738776227340433,-0.010986326999999463,-1610.0,0.0,-832.5,-840.0,0.0,0.0,2.713622769,4.732558616222606,-0.009765623999999917,1.0800000429153442,1.5199999809265137,-16.030000686645508,0.14794921875,0.06097412109375,0.5933837890625,33.90999984741211,0.0,113.0,0.4133758544921875,0.0264739990234375,Waiting,0.0,0.0,0.0,0.0,0.0,0.0,0.0,0.0,
2.118626000000004,0.0,0.0,0.0,54.125,0.0,840.0,0.0,0.125,3.6779781390000004,4.746549212622643,-0.006103515000000392,-1590.0,0.0,-825.0,-840.0,0.0,0.0,1.773681459,4.732206295984983,-0.006103515000000392,1722.0,0.0,840.0,840.0,0.0,0.0,4.7607417000000005,4.736987268197536,-0.010986326999999463,-1610.0,0.0,-840.0,-840.0,0.0,0.0,2.705077848,4.730772004321217,-0.009765623999999917,1.090000033378601,1.4900000095367432,-16.15999984741211,-0.08905029296875,0.04461669921875,1.09649658203125,33.86000061035156,0.0,-119.0,0.4150390625,0.0260467529296875,Waiting,0.0,0.0,0.0,0.0,0.0,0.0,0.0,0.0,
2.1407090000000024,0.0,0.0,0.0,53.875,0.0,840.0,0.0,0.125,3.6730953270000004,4.744756668639184,-0.008544920999999484,-1590.0,0.0,-832.5,-840.0,0.0,0.0,1.752929508,4.730419168633222,-0.013427732999999442,1722.0,0.0,840.0,840.0,0.0,0.0,4.749755373,4.7351983353018765,-0.01342773300000033,-1610.0,0.0,-840.0,-840.0,0.0,0.0,2.703857145,4.728985418632626,-0.01342773300000033,1.1200000047683716,1.4900000095367432,-16.43000030517578,-0.0272216796875,-0.16912841796875,0.84490966796875,33.86000061035156,0.0,5.0,0.4182281494140625,0.024932861328125,Waiting,0.0,0.0,0.0,0.0,0.0,0.0,0.0,0.0,
2.159035999999993,0.0,0.0,0.0,53.5,0.0,840.0,0.0,0.125,3.671874624,4.741033662327131,-0.008544920999999484,-1590.0,0.0,-840.0,-840.0,0.0,0.0,1.7614744290000002,4.726707412340243,-0.013427732999999442,1722.0,0.0,840.0,840.0,0.0,0.0,4.753417482000001,4.731482829002539,-0.01342773300000033,-1745.0,0.0,-840.0,-840.0,0.0,0.0,2.703857145,4.725274787341555,-0.01342773300000033,1.0399999618530273,1.4500000476837158,-16.56999969482422,0.02978515625,0.12445068359375,1.0250244140625,33.86000061035156,0.0,-26.0,0.4198150634765625,0.02423095703125,Waiting,0.0,0.0,0.0,0.0,0.0,0.0,0.0,0.0,
2.1778570000000035,0.0,0.0,0.0,53.0,0.0,840.0,0.0,0.125,3.670653921,4.739103226298757,-0.008544920999999484,-1726.0,0.0,-840.0,-840.0,0.0,0.0,1.7626951320000002,4.724782809619771,-0.013427732999999442,1859.0,0.0,847.5,840.0,0.0,0.0,4.748534670000001,4.729556281846099,-0.01342773300000033,-1745.0,0.0,-840.0,-840.0,0.0,0.0,2.703857145,4.723350767951873,-0.01342773300000033,1.0499999523162842,1.4900000095367432,-16.709999084472656,0.06402587890625,0.06884765625,0.6934814453125,33.86000061035156,0.0,27.0,0.4214019775390625,0.0236358642578125,Waiting,0.0,0.0,0.0,0.0,0.0,0.0,0.0,0.0,
2.198429999999993,0.0,0.0,0.0,53.0,0.0,840.0,0.0,0.125,3.668212515,4.735104435896874,-0.004882811999999959,-1726.0,0.0,-840.0,-840.0,0.0,0.0,1.756591617,4.720796102589369,-0.004882811999999959,1859.0,0.0,855.0,840.0,0.0,0.0,4.743651858000001,4.725565547025203,-0.004882811999999959,-1745.0,0.0,-840.0,-840.0,0.0,0.0,2.6989743330000002,4.719365269258618,-0.004882811999999959,1.149999976158142,1.4299999475479126,-17.020000457763672,0.01947021484375,0.10125732421875,1.31439208984375,33.86000061035156,0.0,-34.0,0.424652099609375,0.0221710205078125,Waiting,0.0,0.0,0.0,0.0,0.0,0.0,0.0,0.0,
2.220620999999999,0.0,0.0,0.0,54.0,0.0,840.0,0.0,0.125,3.662109,4.732898215778669,-0.004882811999999959,-1726.0,0.0,-840.0,-840.0,0.0,0.0,1.7578123200000002,4.7185965491314725,-0.004882811999999959,1859.0,0.0,862.5,840.0,0.0,0.0,4.742431155,4.723363771347205,-0.004882811999999959,-1745.0,0.0,-832.5,-840.0,0.0,0.0,2.6953122240000003,4.717166382466753,-0.004882811999999959,1.0800000429153442,1.4500000476837158,-17.15999984741211,0.02166748046875,7.32421875E-4,0.9765625,33.86000061035156,0.0,2.0,0.4262542724609375,0.0214385986328125,Waiting,0.0,0.0,0.0,0.0,0.0,0.0,0.0,0.0,
2.2411600000000034,0.0,0.0,0.0,54.0,0.0,840.0,0.0,0.125,3.658446891,4.730967779750294,-0.009765624000000805,-1726.0,0.0,-840.0,-840.0,0.0,0.0,1.751708805,4.716671946411,-0.006103515000000392,1859.0,0.0,862.5,840.0,0.0,0.0,4.744872561,4.721437224190765,-0.008544920999999484,-1745.0,0.0,-832.5,-840.0,0.0,0.0,2.6940915210000003,4.715242363077071,-0.009765623999999917,1.0,1.4800000190734863,-17.280000686645508,-0.06512451171875,0.3109130859375,0.9022216796875,33.86000061035156,0.0,-172.0,0.4277496337890625,0.0208587646484375,Waiting,0.0,0.0,0.0,0.0,0.0,0.0,0.0,0.0,
2.2590669999999955,0.0,0.0,0.0,54.0,0.0,840.0,0.0,0.125,3.658446891,4.727520557528073,-0.009765624000000805,-1726.0,0.0,-832.5,-840.0,0.0,0.0,1.7370603690000002,4.713235140855445,-0.006103515000000392,1859.0,0.0,855.0,840.0,0.0,0.0,4.733886234,4.717996946412987,-0.008544920999999484,-1745.0,0.0,-840.0,-840.0,0.0,0.0,2.6940915210000003,4.711806599188182,-0.009765623999999917,1.1100000143051147,1.3700000047683716,-17.540000915527344,0.06903076171875,0.05572509765625,1.33160400390625,33.86000061035156,0.0,26.0,0.43060302734375,0.0201416015625,Waiting,0.0,0.0,0.0,0.0,0.0,0.0,0.0,0.0,
2.279010999999999,0.0,0.0,0.0,54.125,0.0,840.0,0.0,0.125,3.653564079,4.725727987244395,-0.009765624000000805,-1726.0,0.0,-832.5,-840.0,0.0,0.0,1.749267399,4.711447987282938,-0.006103515000000392,1859.0,0.0,847.5,840.0,0.0,0.0,4.739989749,4.71620798727009,-0.008544920999999484,-1745.0,0.0,-840.0,-840.0,0.0,0.0,2.6892087090000003,4.710019987286793,-0.003662108999999525,1.059999942779541,1.399999976158142,-17.68000030517578,-0.03955078125,-0.110107421875,1.07232666015625,33.86000061035156,0.0,-23.0,0.43206787109375,0.0197296142578125,Waiting,0.0,0.0,0.0,0.0,0.0,0.0,0.0,0.0,
2.2981790000000037,0.0,0.0,0.0,54.125,0.0,839.9999999999999,0.0,0.125,3.6425777520000002,4.72379755121602,-0.006103515000000392,-1860.0,0.0,-832.5,-839.9999999999999,0.0,0.0,1.746825993,4.709523384562465,-0.008544921000000372,1995.0,0.0,840.0,839.9999999999999,0.0,0.0,4.738769046,4.71428144011365,0.0,-1881.0,0.0,-840.0,-839.9999999999999,0.0,0.0,2.6904294120000003,4.70809596789711,-0.003662108999999525,1.0299999713897705,1.409999966621399,-17.799999237060547,0.0528564453125,0.03094482421875,0.900390625,33.86000061035156,0.0,24.0,0.4335174560546875,0.0192413330078125,Waiting,0.0,0.0,0.0,0.0,0.0,0.0,0.0,0.0,
2.318297000000006,0.0,0.0,0.0,55.0,0.0,840.0,0.0,0.125,3.651122673,4.720488221038713,-0.006103515000000392,-1860.0,0.0,-832.5,-840.0,0.0,0.0,1.748046696,4.706224054375622,-0.008544921000000372,1995.0,0.0,840.0,840.0,0.0,0.0,4.735106937,4.710978776596652,0.0,-1881.0,0.0,-847.5,-840.0,0.0,0.0,2.6904294120000003,4.704797637709313,-0.003662108999999525,1.0,1.350000023841858,-18.040000915527344,-0.09521484375,0.0404052734375,1.0294189453125,33.86000061035156,0.0,-120.0,0.436370849609375,0.0184478759765625,Waiting,0.0,0.0,0.0,0.0,0.0,0.0,0.0,0.0,
2.341754000000001,0.0,0.0,0.0,55.375,0.0,840.0,0.0,0.125,3.647460564,4.71883354279995,-0.009765623999999917,-1860.0,0.0,-832.5,-840.0,0.0,0.0,1.7419431810000001,4.704574376171827,0.0,1995.0,0.0,840.0,840.0,0.0,0.0,4.735106937,4.709327431714534,-0.009765624000000805,-1881.0,0.0,-855.0,-840.0,0.0,0.0,2.6892087090000003,4.703148459509015,-0.0012207030000004337,1.0399999618530273,1.3600000143051147,-18.170000076293945,0.02508544921875,-0.0684814453125,1.22027587890625,33.86000061035156,0.0,24.0,0.4376983642578125,0.01800537109375,Waiting,0.0,0.0,0.0,0.0,0.0,0.0,0.0,0.0,
2.358119000000006,0.0,0.0,0.0,55.0,0.0,840.0,0.0,0.125,3.6413570490000002,4.717040998816491,-0.009765623999999917,-1860.0,0.0,-840.0,-840.0,0.0,0.0,1.744384587,4.702787248820067,0.0,1995.0,0.0,840.0,840.0,0.0,0.0,4.730224125,4.707538498818875,-0.009765624000000805,-1881.0,0.0,-855.0,-840.0,0.0,0.0,2.6831051940000004,4.701361873820424,-0.0012207030000004337,1.0199999809265137,1.3300000429153442,-18.280000686645508,-0.05108642578125,0.0272216796875,1.0140380859375,33.86000061035156,0.0,-73.0,0.438995361328125,0.0175018310546875,Waiting,0.0,0.0,0.0,0.0,0.0,0.0,0.0,0.0,
2.379626999999993,0.0,0.0,0.0,54.625,0.0,840.0,0.0,0.125,3.647460564,4.713869560684099,-0.009765623999999917,-1860.0,0.0,-847.5,-840.0,0.0,0.0,1.7395017750000001,4.699625394001934,0.0,1995.0,0.0,832.5,840.0,0.0,0.0,4.729003422,4.704373449562656,-0.009765624000000805,-1881.0,0.0,-855.0,-840.0,0.0,0.0,2.6855466000000003,4.698200977333718,-0.004882811999999959,0.9599999785423279,1.309999942779541,-18.520000457763672,-0.017822265625,0.0867919921875,0.8636474609375,33.86000061035156,0.0,-58.0,0.44146728515625,0.016571044921875,Waiting,0.0,0.0,0.0,0.0,0.0,0.0,0.0,0.0,
2.3984330000000047,0.0,0.0,0.0,54.375,0.0,840.0,0.0,0.125,3.653564079,4.712214882445336,-0.006103514999999504,-1860.0,0.0,-862.5,-840.0,0.0,0.0,1.7346189630000002,4.697975715798139,-0.008544920999999484,1995.0,0.0,832.5,840.0,0.0,0.0,4.725341313,4.7027221046805385,-0.004882811999999959,-1881.0,0.0,-862.5,-840.0,0.0,0.0,2.680663788,4.69655179913342,-0.004882811999999959,1.0099999904632568,1.350000023841858,-18.639999389648438,0.04656982421875,-0.0860595703125,0.85699462890625,33.86000061035156,0.0,57.0,0.4426727294921875,0.01611328125,Waiting,0.0,0.0,0.0,0.0,0.0,0.0,0.0,0.0,
2.4182280000000027,0.0,0.0,0.0,54.375,0.0,840.0,0.0,0.125,3.665771109,4.7105602305067915,-0.006103514999999504,-1999.0,0.0,-862.5,-840.0,0.0,0.0,1.7333982600000002,4.69632606381509,-0.008544920999999484,2131.0,0.0,840.0,840.0,0.0,0.0,4.719237798,4.7010707860456575,-0.004882811999999959,-2018.0,0.0,-862.5,-840.0,0.0,0.0,2.679443085,4.69490264714592,-0.004882811999999959,1.0499999523162842,1.3200000524520874,-18.770000457763672,0.07086181640625,0.0040283203125,1.16107177734375,33.86000061035156,0.0,47.0,0.4439697265625,0.015594482421875,Waiting,0.0,0.0,0.0,0.0,0.0,0.0,0.0,0.0,
2.4419850000000007,0.0,0.0,0.0,54.25,0.0,840.0,0.0,0.125,3.6340328310000003,4.706975116239654,-0.0024414059999999793,-1999.0,0.0,-862.5,-840.0,0.0,0.0,1.728515448,4.692751782890823,-0.004882811999999959,2131.0,0.0,840.0,840.0,0.0,0.0,4.719237798,4.6974928940071,-0.009765623999999917,-2018.0,0.0,-855.0,-840.0,0.0,0.0,2.675780976,4.69132944955594,-0.006103514999999504,1.0299999713897705,1.309999942779541,-19.020000457763672,-0.05230712890625,-0.0537109375,0.8245849609375,33.86000061035156,0.0,-44.0,0.4464111328125,0.014678955078125,Waiting,0.0,0.0,0.0,0.0,0.0,0.0,0.0,0.0,
2.4592119999999995,0.0,0.0,0.0,54.25,0.0,840.0,0.0,0.125,3.6340328310000003,4.705320438000891,-0.0024414059999999793,-1999.0,0.0,-855.0,-840.0,0.0,0.0,1.724853339,4.691102104687028,-0.004882811999999959,2131.0,0.0,847.5,840.0,0.0,0.0,4.7131342830000005,4.6958415491249825,-0.009765623999999917,-2018.0,0.0,-847.5,-840.0,0.0,0.0,2.669677461,4.689680271355642,-0.006103514999999504,0.9700000286102295,1.2999999523162842,-19.139999389648438,0.0279541015625,0.01751708984375,0.8712158203125,33.86000061035156,0.0,6.0,0.4475555419921875,0.0141754150390625,Waiting,0.0,0.0,0.0,0.0,0.0,0.0,0.0,0.0,
2.4779600000000066,0.0,0.0,0.0,54.625,0.0,840.0,0.0,0.125,3.6303707220000003,4.703665786062347,-0.0024414059999999793,-1999.0,0.0,-855.0,-840.0,0.0,0.0,1.723632636,4.689452452703979,-0.004882811999999959,2131.0,0.0,847.5,840.0,0.0,0.0,4.709472174,4.6941902304901015,-0.009765623999999917,-2018.0,0.0,-847.5,-840.0,0.0,0.0,2.666015352,4.6880311193681425,-0.006103514999999504,1.0099999904632568,1.2999999523162842,-19.270000457763672,-0.02630615234375,-0.046875,1.0789794921875,33.86000061035156,0.0,-167.0,0.4496917724609375,0.0130462646484375,Waiting,0.0,0.0,0.0,0.0,0.0,0.0,0.0,0.0,
2.4987130000000035,0.0,0.0,0.0,54.375,0.0,840.0,0.0,0.125,3.651122673,4.700218563840125,-0.004882811999999959,-1999.0,0.0,-847.5,-840.0,0.0,0.0,1.718749824,4.686015647148423,-0.009765623999999917,2131.0,0.0,847.5,840.0,0.0,0.0,4.707030768,4.6907499527123235,-0.006103514999999504,-2018.0,0.0,-847.5,-840.0,0.0,0.0,2.666015352,4.684595355479254,-0.008544921000000372,1.090000033378601,1.1699999570846558,-19.5,0.065673828125,-0.12213134765625,1.18536376953125,33.86000061035156,0.0,87.0,0.4506378173828125,0.0124664306640625,Waiting,0.0,0.0,0.0,0.0,0.0,0.0,0.0,0.0,
2.518474000000002,0.0,0.0,0.0,55.0,0.0,840.0,0.0,0.125,3.6254879100000004,4.698701777646277,-0.004882811999999959,-1999.0,0.0,-840.0,-840.0,0.0,0.0,1.72119123,4.68450344431334,-0.009765623999999917,2131.0,0.0,847.5,840.0,0.0,0.0,4.7106928770000005,4.689236222090986,-0.006103514999999504,-2018.0,0.0,-847.5,-840.0,0.0,0.0,2.66113254,4.683083610980047,-0.008544921000000372,1.0,1.2000000476837158,-19.6200008392334,0.00799560546875,-0.0390625,0.89996337890625,33.86000061035156,0.0,8.0,0.4516448974609375,0.0117645263671875,Waiting,0.0,0.0,0.0,0.0,0.0,0.0,0.0,0.0,
2.5413139999999985,0.0,0.0,0.0,54.75,0.0,840.0,0.0,0.125,3.6242672070000004,4.697047099407515,-0.009765623999999917,-2134.0,0.0,-847.5,-840.0,0.0,0.0,1.7150877150000001,4.682853766109546,-0.004882811999999959,2263.0,0.0,840.0,840.0,0.0,0.0,4.7058100650000005,4.687584877208868,-0.003662109000000413,-2155.0,0.0,-847.5,-840.0,0.0,0.0,2.66113254,4.681434432779749,-0.008544921000000372,0.949999988079071,1.2300000190734863,-19.850000381469727,-0.003662109375,0.2371826171875,0.91058349609375,33.86000061035156,0.0,-97.0,0.4536590576171875,0.0101165771484375,Waiting,0.0,0.0,0.0,0.0,0.0,0.0,0.0,0.0,
2.558476999999999,0.0,0.0,0.0,54.625,0.0,840.0,0.0,0.125,3.6254879100000004,4.693875661275122,-0.009765623999999917,-2134.0,0.0,-847.5,-840.0,0.0,0.0,1.7150877150000001,4.679691911291414,-0.004882811999999959,2263.0,0.0,832.5,840.0,0.0,0.0,4.704589362,4.68441982795265,-0.003662109000000413,-2155.0,0.0,-855.0,-840.0,0.0,0.0,2.656249728,4.678273536293043,-0.008544921000000372,1.0800000429153442,1.1299999952316284,-19.969999313354492,0.0018310546875,0.0777587890625,1.27728271484375,33.86000061035156,0.0,-40.0,0.4545440673828125,0.00946044921875,Waiting,0.0,0.0,0.0,0.0,0.0,0.0,0.0,0.0,
2.5776779999999997,0.0,0.0,0.0,55.125,0.0,839.9999999999999,0.0,0.125,3.619384395,4.692221009336578,-0.009765623999999917,-2134.0,0.0,-847.5,-839.9999999999999,0.0,0.0,1.7163084180000001,4.678042259308365,-0.004882811999999959,2263.0,0.0,825.0,839.9999999999999,0.0,0.0,4.700927253000001,4.682768509317769,-0.003662109000000413,-2155.0,0.0,-855.0,-839.9999999999999,0.0,0.0,2.657470431,4.676624384305543,-0.008544921000000372,1.0800000429153442,1.1299999952316284,-19.969999313354492,0.0018310546875,0.0777587890625,1.27728271484375,33.86000061035156,0.0,-40.0,0.4545440673828125,0.00946044921875,Waiting,0.0,0.0,0.0,0.0,0.0,0.0,0.0,0.0,
2.598419999999998,0.0,0.0,0.0,54.75,0.0,840.0,0.0,0.125,3.619384395,4.690566331097815,-0.004882812000000847,-2134.0,0.0,-847.5,-840.0,0.0,0.0,1.7163084180000001,4.67639258110457,-0.003662109000000413,2263.0,0.0,832.5,840.0,0.0,0.0,4.698485847000001,4.681117164435651,-0.009765623999999917,-2155.0,0.0,-855.0,-840.0,0.0,0.0,2.657470431,4.674975206105246,-0.006103514999999504,0.9900000095367432,1.159999966621399,-20.209999084472656,-0.01873779296875,0.064697265625,0.77587890625,33.86000061035156,0.0,-50.0,0.456512451171875,0.00823974609375,Waiting,0.0,0.0,0.0,0.0,0.0,0.0,0.0,0.0,
2.6191100000000005,0.0,0.0,0.0,55.25,0.0,840.0,0.0,0.125,3.615722286,4.688911679159271,-0.004882812000000847,-2134.0,0.0,-847.5,-840.0,0.0,0.0,1.7150877150000001,4.67474292912152,-0.003662109000000413,2263.0,0.0,840.0,840.0,0.0,0.0,4.696044441000001,4.67946584580077,-0.009765623999999917,-2155.0,0.0,-855.0,-840.0,0.0,0.0,2.655029025,4.673326054117746,-0.006103514999999504,0.9900000095367432,1.2300000190734863,-20.350000381469727,0.02203369140625,0.0496826171875,0.7200927734375,33.86000061035156,0.0,-6.0,0.4575042724609375,0.0076751708984375,Waiting,0.0,0.0,0.0,0.0,0.0,0.0,0.0,0.0,
2.6404919999999983,0.0,0.0,0.0,54.625,0.0,840.0,0.0,0.125,3.610839474,4.686981216830678,-0.004882811999999959,-2134.0,0.0,-855.0,-840.0,0.0,0.0,1.7163084180000001,4.672818300180302,-0.0012207029999995456,2263.0,0.0,847.5,840.0,0.0,0.0,4.688720223000001,4.6775392723970945,-0.004882811999999959,-2155.0,0.0,-855.0,-840.0,0.0,0.0,2.656249728,4.671402008515265,0.0012207029999995456,1.1200000047683716,1.100000023841858,-20.6299991607666,-0.04595947265625,0.0955810546875,1.26092529296875,33.900001525878906,0.0,-90.0,0.4595794677734375,0.006591796875,Waiting,0.0,0.0,0.0,0.0,0.0,0.0,0.0,0.0,
2.658857000000004,0.0,0.0,0.0,55.375,0.0,840.0,0.0,0.125,3.610839474,4.683120344773929,-0.004882811999999959,-2271.0,0.0,-855.0,-840.0,0.0,0.0,1.7102049030000002,4.668969094739357,-0.0012207029999995456,2402.0,0.0,855.0,840.0,0.0,0.0,4.689940926,4.673686178084215,-0.004882811999999959,-2291.0,0.0,-855.0,-840.0,0.0,0.0,2.656249728,4.6675539697359,0.0012207029999995456,1.1299999952316284,1.1299999952316284,-20.780000686645508,-0.0738525390625,-0.02423095703125,1.16070556640625,33.900001525878906,0.0,-73.0,0.46051025390625,0.0060272216796875,Waiting,0.0,0.0,0.0,0.0,0.0,0.0,0.0,0.0,
2.679525999999998,0.0,0.0,0.0,56.5,0.0,840.0,0.0,0.125,3.610839474,4.68105199040042,-0.004882811999999959,-2271.0,0.0,-855.0,-840.0,0.0,0.0,1.7065427940000002,4.666906990429427,-0.0012207029999995456,2402.0,0.0,862.5,840.0,0.0,0.0,4.691161629000001,4.671621990419759,-0.004882811999999959,-2291.0,0.0,-855.0,-840.0,0.0,0.0,2.656249728,4.665492490432329,0.0012207029999995456,1.059999942779541,1.1399999856948853,-20.899999618530273,0.11181640625,0.00469970703125,0.85601806640625,33.900001525878906,0.0,92.0,0.461456298828125,0.00543212890625,Waiting,0.0,0.0,0.0,0.0,0.0,0.0,0.0,0.0,
2.698379000000001,0.0,0.0,0.0,56.5,0.0,840.0,0.0,0.125,3.610839474,4.679397338461876,-0.003662108999999525,-2271.0,0.0,-855.0,-840.0,0.0,0.0,1.699218576,4.665257338446378,-0.009765624000000805,2402.0,0.0,862.5,840.0,0.0,0.0,4.691161629000001,4.669970671784878,-0.004882811999999959,-2291.0,0.0,-855.0,-840.0,0.0,0.0,2.652587619,4.663843338444829,0.0,1.0399999618530273,1.190000057220459,-21.020000457763672,-0.0152587890625,0.0628662109375,0.8109130859375,33.900001525878906,0.0,-47.0,0.462432861328125,0.0048675537109375,Waiting,0.0,0.0,0.0,0.0,0.0,0.0,0.0,0.0,
2.719630000000005,0.0,0.0,0.0,57.75,0.0,840.0,0.0,0.125,3.60107385,4.6760880082845695,-0.003662108999999525,-2271.0,0.0,-847.5,-840.0,0.0,0.0,1.700439279,4.661958008259535,-0.009765624000000805,2402.0,0.0,855.0,840.0,0.0,0.0,4.689940926,4.666668008267879,-0.004882811999999959,-2291.0,0.0,-855.0,-840.0,0.0,0.0,2.652587619,4.660545008257031,0.0,1.1399999856948853,1.0499999523162842,-21.260000228881836,-0.05657958984375,0.0394287109375,1.27508544921875,33.900001525878906,0.0,-79.0,0.464111328125,0.0037384033203125,Waiting,0.0,0.0,0.0,0.0,0.0,0.0,0.0,0.0,
2.740929999999993,0.0,0.0,0.0,57.875,0.0,840.0,0.0,0.125,3.60107385,4.674433330045806,-0.006103515000000392,-2271.0,0.0,-847.5,-840.0,0.0,0.0,1.69677717,4.66030833005574,-0.003662108999999525,2402.0,0.0,855.0,840.0,0.0,0.0,4.685058114,4.665016663385762,0.0,-2291.0,0.0,-855.0,-840.0,0.0,0.0,2.6464841040000002,4.658895830056734,-0.004882811999999959,1.1299999952316284,1.1100000143051147,-21.3700008392334,0.04730224609375,0.02593994140625,0.8795166015625,33.900001525878906,0.0,25.0,0.4648590087890625,0.0037384033203125,Waiting,0.0,0.0,0.0,0.0,0.0,0.0,0.0,0.0,
2.7578209999999963,0.0,0.0,0.0,57.25,0.0,840.0,0.0,0.125,3.60107385,4.671399783958329,-0.006103515000000392,-2271.0,0.0,-847.5,-840.0,0.0,0.0,1.695556467,4.6572839506063195,-0.003662108999999525,2402.0,0.0,855.0,840.0,0.0,0.0,4.685058114,4.661989228390323,0.0,-2291.0,0.0,-855.0,-840.0,0.0,0.0,2.6428219950000003,4.655872367271119,-0.004882811999999959,1.1200000047683716,1.100000023841858,-21.479999542236328,-0.06866455078125,0.05035400390625,0.74676513671875,33.900001525878906,0.0,-90.0,0.4655609130859375,0.0037384033203125,Waiting,0.0,0.0,0.0,0.0,0.0,0.0,0.0,0.0,
