Time,ClimberA1,ClimberA2,FRpos,FRCurrent,FRspeed,FRsetpoint,FRApos,FRACurrent,FREncpos,FREncSetpoint,FREncSpeed,FLpos,FLCurrent,FLspeed,FLsetpoint,FLApos,FLACurrent,FLEncpos,FLEncSetpoint,FLEncSpeed,BRpos,BRCurrent,BRspeed,BRsetpoint,BRApos,BRACurrent,BREncpos,BREncSetpoint,BREncSpeed,BLpos,BLCurrent,BLspeed,BLsetpoint,BLApos,BLACurrent,BLEncpos,BLEncSetpoint,BLEncSpeed,navx_Pitch,navx_Roll,navx_Yaw,navx_XAcc,navx_YAcc,navx_ZAcc,navx_Temp,navx_Bar,navx_Alt,navx_XDis,navx_YDis,GearPlacerState,ShootOutputV,ShootOutputCurrent,ShootEncPos,ShootEncVelocity,ShootSpeed,ShootSetpoint,CarouselSetpoint,CarouselCurrent,
0.12429099999996833,0.0,0.0,8220.0,0.0,0.0,0.0,0.0,0.0,3.770751567,0.0,0.0,-8233.0,0.0,0.0,-0.0,0.0,0.0,1.8920896500000002,0.0,0.0,8172.0,0.0,0.0,0.0,0.0,0.0,4.877929188,0.0,0.0,-8190.0,0.0,0.0,-0.0,0.0,0.0,2.877196971,0.0,0.0,1.100000023841858,0.7599999904632568,0.0,0.0164794921875,0.0206298828125,0.99853515625,34.54999923706055,0.0,3.0,-0.79217529296875,-1.3264617919921875,Closing,0.0,0.0,2.0,0.0,0.0,0.0,0.0,0.0,
0.1704780000000028,0.0,0.0,8220.0,0.0,0.0,0.0,0.0,0.0,3.77197227,0.0,0.0,-8233.0,0.0,0.0,-0.0,0.0,0.0,1.8920896500000002,0.0,0.0,8172.0,0.0,0.0,0.0,0.0,0.0,4.877929188,0.0,-0.0012207030000004337,-8190.0,0.0,0.0,-0.0,0.0,0.0,2.877196971,0.0,-0.0012207029999999897,1.100000023841858,0.7699999809265137,0.0,0.02191162109375,0.015869140625,1.00225830078125,34.54999923706055,0.0,8.0,-0.79217529296875,-1.3264617919921875,Closing,0.0,0.0,2.0,0.0,0.0,0.0,0.0,0.0,
0.22760800000000744,0.0,0.0,8220.0,0.0,0.0,0.0,0.0,0.0,3.77197227,0.0,0.0,-8233.0,0.0,0.0,-0.0,0.0,0.0,1.8920896500000002,0.0,0.0,8172.0,0.0,0.0,0.0,0.0,0.0,4.876708485,0.0,0.0012207030000004337,-8190.0,0.0,0.0,-0.0,0.0,0.0,2.877196971,0.0,0.0012207029999999897,1.090000033378601,0.7699999809265137,0.0,0.014404296875,0.0213623046875,1.004638671875,34.54999923706055,0.0,0.0,-0.79217529296875,-1.3264617919921875,Closing,0.0,0.0,2.0,0.0,0.0,0.0,0.0,0.0,
0.28058299999998415,0.0,0.0,8220.0,0.0,0.0,0.0,0.0,0.0,3.770751567,0.0,0.0,-8233.0,0.0,0.0,-0.0,0.0,0.0,1.8920896500000002,0.0,0.0,8172.0,0.0,0.0,0.0,0.0,0.0,4.876708485,0.0,0.0,-8190.0,0.0,0.0,-0.0,0.0,0.0,2.875976268,0.0,0.0,1.090000033378601,0.7699999809265137,0.0,0.01055908203125,0.01953125,0.9954833984375,34.54999923706055,0.0,-2.0,-0.79217529296875,-1.3264617919921875,Closing,0.0,0.0,2.0,0.0,0.0,0.0,0.0,0.0,
0.3309000000000233,0.0,0.0,8220.0,0.0,0.0,0.0,0.0,0.0,3.770751567,0.0,0.0,-8233.0,0.0,0.0,-0.0,0.0,0.0,1.8920896500000002,0.0,0.0012207029999995456,8172.0,0.0,0.0,0.0,0.0,0.0,4.876708485,0.0,0.0,-8190.0,0.0,0.0,-0.0,0.0,0.0,2.877196971,0.0,-0.0012207029999999897,1.100000023841858,0.7699999809265137,0.0,0.0135498046875,0.01947021484375,1.0003662109375,34.54999923706055,0.0,0.0,-0.79217529296875,-1.3264617919921875,Closing,0.0,0.0,2.0,0.0,0.0,0.0,0.0,0.0,
0.38388000000000466,0.0,0.0,8220.0,0.0,0.0,0.0,0.0,0.0,3.770751567,0.0,0.0,-8233.0,0.0,0.0,-0.0,0.0,0.0,1.8920896500000002,0.0,-0.0012207029999995456,8172.0,0.0,0.0,0.0,0.0,0.0,4.877929188,0.0,-0.0012207030000004337,-8190.0,0.0,0.0,-0.0,0.0,0.0,2.877196971,0.0,0.0012207029999999897,1.100000023841858,0.7699999809265137,0.0,0.01446533203125,0.02374267578125,1.0001220703125,34.54999923706055,0.0,0.0,-0.79217529296875,-1.3264617919921875,Closing,0.0,0.0,2.0,0.0,0.0,0.0,0.0,0.0,
0.4337600000000093,0.0,0.0,8220.0,0.0,0.0,0.0,0.0,0.0,3.77197227,0.0,0.0,-8233.0,0.0,0.0,-0.0,0.0,0.0,1.8933103530000002,0.0,0.0,8172.0,0.0,0.0,0.0,0.0,0.0,4.879149891,0.0,0.0,-8190.0,0.0,0.0,-0.0,0.0,0.0,2.878417674,0.0,0.0,1.100000023841858,0.7599999904632568,0.0,0.00927734375,0.02349853515625,0.992919921875,34.54999923706055,0.0,-4.0,-0.79217529296875,-1.3264617919921875,Closing,0.0,0.0,2.0,0.0,0.0,0.0,0.0,0.0,
0.4871219999999739,0.0,0.0,8220.0,0.0,0.0,0.0,0.0,0.0,3.770751567,0.0,0.0,-8233.0,0.0,0.0,-0.0,0.0,0.0,1.8920896500000002,0.0,0.0,8172.0,0.0,0.0,0.0,0.0,0.0,4.877929188,0.0,0.0012207030000004337,-8190.0,0.0,0.0,-0.0,0.0,0.0,2.877196971,0.0,0.0,1.100000023841858,0.7599999904632568,0.0,0.0155029296875,0.0174560546875,0.9945068359375,34.52000045776367,0.0,2.0,-0.79217529296875,-1.3264617919921875,Closing,0.0,0.0,2.0,0.0,0.0,0.0,0.0,0.0,
0.533859999999986,0.0,0.0,8220.0,0.0,0.0,0.0,0.0,0.0,3.770751567,0.0,0.0,-8233.0,0.0,0.0,-0.0,0.0,0.0,1.8933103530000002,0.0,0.0,8172.0,0.0,0.0,0.0,0.0,0.0,4.877929188,0.0,-0.0012207030000004337,-8190.0,0.0,0.0,-0.0,0.0,0.0,2.878417674,0.0,-0.0012207029999999897,1.100000023841858,0.7599999904632568,0.0,0.01702880859375,0.01934814453125,0.991455078125,34.52000045776367,0.0,3.0,-0.79217529296875,-1.3264617919921875,Closing,0.0,0.0,2.0,0.0,0.0,0.0,0.0,0.0,
0.587378000000026,0.0,0.0,8220.0,0.0,0.0,0.0,0.0,0.0,3.770751567,0.0,0.0,-8233.0,0.0,0.0,-0.0,0.0,0.0,1.8920896500000002,0.0,0.0,8172.0,0.0,0.0,0.0,0.0,0.0,4.877929188,0.0,0.0012207030000004337,-8190.0,0.0,0.0,-0.0,0.0,0.0,2.877196971,0.0,0.0012207029999999897,1.090000033378601,0.7699999809265137,0.0,0.01519775390625,0.01708984375,0.9925537109375,34.52000045776367,0.0,1.0,-0.79217529296875,-1.3264617919921875,Closing,0.0,0.0,2.0,0.0,0.0,0.0,0.0,0.0,
0.6448630000000121,0.0,0.0,8220.0,0.0,0.0,0.0,0.0,0.0,3.770751567,0.0,0.0,-8233.0,0.0,0.0,-0.0,0.0,0.0,1.8920896500000002,0.0,0.0012207029999995456,8172.0,0.0,0.0,0.0,0.0,0.0,4.877929188,0.0,0.0,-8190.0,0.0,0.0,-0.0,0.0,0.0,2.877196971,0.0,0.0,1.100000023841858,0.7699999809265137,0.0,0.0142822265625,0.0189208984375,0.98681640625,34.52000045776367,0.0,0.0,-0.79217529296875,-1.3264617919921875,Closing,0.0,0.0,2.0,0.0,0.0,0.0,0.0,0.0,
0.6937110000000103,0.0,0.0,8220.0,0.0,0.0,0.0,0.0,0.0,3.770751567,0.0,0.0,-8233.0,0.0,0.0,-0.0,0.0,0.0,1.8920896500000002,0.0,-0.0012207029999995456,8172.0,0.0,0.0,0.0,0.0,0.0,4.876708485,0.0,-0.0012207030000004337,-8190.0,0.0,0.0,-0.0,0.0,0.0,2.877196971,0.0,-0.0012207029999999897,1.100000023841858,0.7599999904632568,0.0,0.01171875,0.02020263671875,1.0023193359375,34.52000045776367,0.0,-1.0,-0.79217529296875,-1.3264617919921875,Closing,0.0,0.0,2.0,0.0,0.0,0.0,0.0,0.0,
0.7494610000000103,0.0,0.0,8220.0,0.0,0.0,0.0,0.0,0.0,3.770751567,0.0,0.0,-8233.0,0.0,0.0,-0.0,0.0,0.0,1.8908689470000002,0.0,0.0,8172.0,0.0,0.0,0.0,0.0,0.0,4.876708485,0.0,0.0,-8190.0,0.0,0.0,-0.0,0.0,0.0,2.877196971,0.0,0.0012207029999999897,1.100000023841858,0.7599999904632568,0.0,0.01373291015625,0.01995849609375,1.00421142578125,34.52000045776367,0.0,0.0,-0.79217529296875,-1.3264617919921875,Closing,0.0,0.0,2.0,0.0,0.0,0.0,0.0,0.0,
0.7984490000000224,0.0,0.0,8220.0,0.0,0.0,0.0,0.0,0.0,3.77197227,0.0,0.0,-8233.0,0.0,0.0,-0.0,0.0,0.0,1.8920896500000002,0.0,0.0,8172.0,0.0,0.0,0.0,0.0,0.0,4.877929188,0.0,0.0,-8190.0,0.0,0.0,-0.0,0.0,0.0,2.877196971,0.0,0.0,1.100000023841858,0.7699999809265137,0.0,0.01861572265625,0.01995849609375,0.99981689453125,34.52000045776367,0.0,5.0,-0.79217529296875,-1.3264617919921875,Closing,0.0,0.0,2.0,0.0,0.0,0.0,0.0,0.0,
0.8532140000000363,0.0,0.0,8220.0,0.0,0.0,0.0,0.0,0.0,3.77197227,0.0,0.0,-8233.0,0.0,0.0,-0.0,0.0,0.0,1.8920896500000002,0.0,0.0,8172.0,0.0,0.0,0.0,0.0,0.0,4.877929188,0.0,0.0,-8190.0,0.0,0.0,-0.0,0.0,0.0,2.877196971,0.0,-0.0012207029999999897,1.100000023841858,0.7699999809265137,0.0,0.01324462890625,0.020263671875,1.00628662109375,34.52000045776367,0.0,0.0,-0.79217529296875,-1.3264617919921875,Closing,0.0,0.0,2.0,0.0,0.0,0.0,0.0,0.0,
0.9090420000000158,0.0,0.0,8220.0,0.0,0.0,0.0,0.0,0.0,3.770751567,0.0,0.0,-8233.0,0.0,0.0,-0.0,0.0,0.0,1.8920896500000002,0.0,0.0,8172.0,0.0,0.0,0.0,0.0,0.0,4.877929188,0.0,0.0,-8190.0,0.0,0.0,-0.0,0.0,0.0,2.878417674,0.0,0.0012207029999999897,1.100000023841858,0.7699999809265137,0.0,0.01422119140625,0.0185546875,1.008056640625,34.52000045776367,0.0,0.0,-0.79217529296875,-1.3264617919921875,Closing,0.0,0.0,2.0,0.0,0.0,0.0,0.0,0.0,
0.9593669999999692,0.0,0.0,8220.0,0.0,0.0,0.0,0.0,0.0,3.770751567,0.0,0.0,-8233.0,0.0,0.0,-0.0,0.0,0.0,1.8920896500000002,0.0,0.0,8172.0,0.0,0.0,0.0,0.0,0.0,4.876708485,0.0,0.0,-8190.0,0.0,0.0,-0.0,0.0,0.0,2.877196971,0.0,0.0,1.100000023841858,0.7699999809265137,0.0,0.013671875,0.01751708984375,0.992431640625,34.52000045776367,0.0,0.0,-0.79217529296875,-1.3264617919921875,Closing,0.0,0.0,2.0,0.0,0.0,0.0,0.0,0.0,
1.0101600000000326,0.0,0.0,8220.0,0.0,0.0,0.0,0.0,0.0,3.770751567,0.0,0.0,-8233.0,0.0,0.0,-0.0,0.0,0.0,1.8920896500000002,0.0,0.0,8172.0,0.0,0.0,0.0,0.0,0.0,4.879149891,0.0,0.0,-8190.0,0.0,0.0,-0.0,0.0,0.0,2.877196971,0.0,-0.0012207029999999897,1.100000023841858,0.7699999809265137,0.0,0.01385498046875,0.02130126953125,0.997314453125,34.52000045776367,0.0,0.0,-0.79217529296875,-1.3264617919921875,Closing,0.0,0.0,2.0,0.0,0.0,0.0,0.0,0.0,
1.0599070000000066,0.0,0.0,8220.0,0.0,0.0,0.0,0.0,0.0,3.770751567,0.0,0.0,-8233.0,0.0,0.0,-0.0,0.0,0.0,1.8920896500000002,0.0,0.0,8172.0,0.0,0.0,0.0,0.0,0.0,4.877929188,0.0,0.0,-8190.0,0.0,0.0,-0.0,0.0,0.0,2.877196971,0.0,0.0012207029999999897,1.100000023841858,0.7799999713897705,0.0,0.0166015625,0.01702880859375,0.99981689453125,34.52000045776367,0.0,2.0,-0.79217529296875,-1.3264617919921875,Closing,0.0,0.0,2.0,0.0,0.0,0.0,0.0,0.0,
1.1112519999999786,0.0,0.0,8220.0,0.0,0.0,0.0,0.0,0.0,3.770751567,0.0,0.0,-8233.0,0.0,0.0,-0.0,0.0,0.0,1.8933103530000002,0.0,0.0,8172.0,0.0,0.0,0.0,0.0,0.0,4.877929188,0.0,0.0,-8190.0,0.0,0.0,-0.0,0.0,0.0,2.875976268,0.0,-0.0012207029999999897,1.090000033378601,0.7799999713897705,0.0,0.01434326171875,0.015380859375,1.0040283203125,34.52000045776367,0.0,0.0,-0.79217529296875,-1.3264617919921875,Closing,0.0,0.0,2.0,0.0,0.0,0.0,0.0,0.0,
1.1611950000000653,0.0,0.0,8220.0,0.0,0.0,0.0,0.0,0.0,3.770751567,0.0,0.0,-8233.0,0.0,0.0,-0.0,0.0,0.0,1.8920896500000002,0.0,0.0,8172.0,0.0,0.0,0.0,0.0,0.0,4.877929188,0.0,0.0,-8190.0,0.0,0.0,-0.0,0.0,0.0,2.877196971,0.0,0.0012207029999999897,1.100000023841858,0.7799999713897705,0.0,0.00994873046875,0.01934814453125,1.00762939453125,34.52000045776367,0.0,-3.0,-0.79217529296875,-1.3264617919921875,Closing,0.0,0.0,2.0,0.0,0.0,0.0,0.0,0.0,
1.2121979999999748,0.0,0.0,8220.0,0.0,0.0,0.0,0.0,0.0,3.77197227,0.0,0.0,-8233.0,0.0,0.0,-0.0,0.0,0.0,1.8920896500000002,0.0,0.0,8172.0,0.0,0.0,0.0,0.0,0.0,4.877929188,0.0,0.0,-8190.0,0.0,0.0,-0.0,0.0,0.0,2.877196971,0.0,-0.0012207029999999897,1.100000023841858,0.7799999713897705,0.0,0.0107421875,0.0186767578125,1.0106201171875,34.52000045776367,0.0,-3.0,-0.79217529296875,-1.3264617919921875,Closing,0.0,0.0,2.0,0.0,0.0,0.0,0.0,0.0,
1.2960720000000439,0.0,0.0,8220.0,0.0,0.0,0.0,0.0,0.0,3.769530864,0.0,0.0,-8233.0,0.0,0.0,-0.0,0.0,0.0,1.8920896500000002,0.0,0.0,8172.0,0.0,0.0,0.0,0.0,0.0,4.877929188,0.0,0.0,-8190.0,0.0,0.0,-0.0,0.0,0.0,2.879638377,0.0,0.0,1.090000033378601,0.7799999713897705,0.0,0.01513671875,0.0164794921875,0.9903564453125,34.52000045776367,0.0,1.0,-0.79217529296875,-1.3264617919921875,Closing,0.0,0.0,2.0,0.0,0.0,0.0,0.0,0.0,
1.354280000000028,0.0,0.0,8220.0,0.0,0.0,0.0,0.0,0.0,3.77197227,0.0,0.0,-8233.0,0.0,0.0,-0.0,0.0,0.0,1.8933103530000002,0.0,0.0,8172.0,0.0,0.0,0.0,0.0,0.0,4.879149891,0.0,0.0,-8190.0,0.0,0.0,-0.0,0.0,0.0,2.877196971,0.0,-0.0012207029999999897,1.100000023841858,0.7799999713897705,0.0,0.0133056640625,0.02099609375,0.9981689453125,34.52000045776367,0.0,0.0,-0.79217529296875,-1.3264617919921875,Closing,0.0,0.0,2.0,0.0,0.0,0.0,0.0,0.0,
1.4101290000000737,0.0,0.0,8220.0,0.0,0.0,0.0,0.0,0.0,3.770751567,0.0,0.0,-8233.0,0.0,0.0,-0.0,0.0,0.0,1.8920896500000002,0.0,0.0,8172.0,0.0,0.0,0.0,0.0,0.0,4.877929188,0.0,0.0,-8190.0,0.0,0.0,-0.0,0.0,0.0,2.877196971,0.0,0.0,1.100000023841858,0.7799999713897705,0.0,0.01318359375,0.02001953125,1.00433349609375,34.52000045776367,0.0,0.0,-0.79217529296875,-1.3264617919921875,Closing,0.0,0.0,2.0,0.0,0.0,0.0,0.0,0.0,
1.459298000000068,0.0,0.0,8220.0,0.0,0.0,0.0,0.0,0.0,3.770751567,0.0,0.0,-8233.0,0.0,0.0,-0.0,0.0,0.0,1.8920896500000002,0.0,0.0,8172.0,0.0,0.0,0.0,0.0,0.0,4.877929188,0.0,0.0012207030000004337,-8190.0,0.0,0.0,-0.0,0.0,0.0,2.877196971,0.0,0.0012207029999999897,1.100000023841858,0.7799999713897705,0.0,0.01336669921875,0.021728515625,0.99725341796875,34.529998779296875,0.0,0.0,-0.79217529296875,-1.3264617919921875,Closing,0.0,0.0,2.0,0.0,0.0,0.0,0.0,0.0,
1.5096280000000262,0.0,0.0,8220.0,0.0,0.0,0.0,0.0,0.0,3.770751567,0.0,0.0,-8233.0,0.0,0.0,-0.0,0.0,0.0,1.8920896500000002,0.0,0.0,8172.0,0.0,0.0,0.0,0.0,0.0,4.877929188,0.0,-0.0012207030000004337,-8190.0,0.0,0.0,-0.0,0.0,0.0,2.877196971,0.0,-0.0012207029999999897,1.090000033378601,0.7799999713897705,0.0,0.01312255859375,0.0184326171875,1.00250244140625,34.529998779296875,0.0,0.0,-0.79217529296875,-1.3264617919921875,Closing,0.0,0.0,2.0,0.0,0.0,0.0,0.0,0.0,
1.5585310000000754,0.0,0.0,8220.0,0.0,0.0,0.0,0.0,0.0,3.770751567,0.0,0.0,-8233.0,0.0,0.0,-0.0,0.0,0.0,1.8920896500000002,0.0,0.0012207029999995456,8172.0,0.0,0.0,0.0,0.0,0.0,4.877929188,0.0,0.0,-8190.0,0.0,0.0,-0.0,0.0,0.0,2.878417674,0.0,0.0012207029999999897,1.100000023841858,0.7799999713897705,0.0,0.0162353515625,0.020751953125,1.0029296875,34.529998779296875,0.0,2.0,-0.79217529296875,-1.3264617919921875,Closing,0.0,0.0,2.0,0.0,0.0,0.0,0.0,0.0,
1.6099790000000502,0.0,0.0,8220.0,0.0,0.0,0.0,0.0,0.0,3.770751567,0.0,-0.0012207029999995456,-8233.0,0.0,0.0,-0.0,0.0,0.0,1.8920896500000002,0.0,-0.0012207029999995456,8172.0,0.0,0.0,0.0,0.0,0.0,4.876708485,0.0,0.0,-8190.0,0.0,0.0,-0.0,0.0,0.0,2.877196971,0.0,-0.0012207029999999897,1.100000023841858,0.7799999713897705,0.0,0.013427734375,0.019287109375,1.00299072265625,34.529998779296875,0.0,0.0,-0.79217529296875,-1.3264617919921875,Closing,0.0,0.0,2.0,0.0,0.0,0.0,0.0,0.0,
1.6594220000000204,0.0,0.0,8220.0,0.0,0.0,0.0,0.0,0.0,3.770751567,0.0,0.0012207029999995456,-8233.0,0.0,0.0,-0.0,0.0,0.0,1.8920896500000002,0.0,0.0,8172.0,0.0,0.0,0.0,0.0,0.0,4.877929188,0.0,0.0,-8190.0,0.0,0.0,-0.0,0.0,0.0,2.875976268,0.0,0.0012207029999999897,1.100000023841858,0.7799999713897705,0.0,0.01422119140625,0.01983642578125,1.00299072265625,34.529998779296875,0.0,0.0,-0.79217529296875,-1.3264617919921875,Closing,0.0,0.0,2.0,0.0,0.0,0.0,0.0,0.0,
1.711045999999973,0.0,0.0,8220.0,0.0,0.0,0.0,0.0,0.0,3.77197227,0.0,-0.0012207029999995456,-8233.0,0.0,0.0,-0.0,0.0,0.0,1.8920896500000002,0.0,0.0,8172.0,0.0,0.0,0.0,0.0,0.0,4.879149891,0.0,0.0,-8190.0,0.0,0.0,-0.0,0.0,0.0,2.877196971,0.0,-0.0012207029999999897,1.100000023841858,0.7699999809265137,0.0,0.0137939453125,0.01800537109375,1.0023193359375,34.529998779296875,0.0,0.0,-0.79217529296875,-1.3264617919921875,Closing,0.0,0.0,2.0,0.0,0.0,0.0,0.0,0.0,
1.7660210000000662,0.0,0.0,8220.0,0.0,0.0,0.0,0.0,0.0,3.77197227,0.0,0.0012207029999995456,-8233.0,0.0,0.0,-0.0,0.0,0.0,1.8908689470000002,0.0,0.0012207029999995456,8172.0,0.0,0.0,0.0,0.0,0.0,4.877929188,0.0,0.0,-8190.0,0.0,0.0,-0.0,0.0,0.0,2.877196971,0.0,0.0012207029999999897,1.090000033378601,0.7699999809265137,0.0,0.014892578125,0.01904296875,0.99981689453125,34.529998779296875,0.0,1.0,-0.79217529296875,-1.3264617919921875,Closing,0.0,0.0,2.0,0.0,0.0,0.0,0.0,0.0,
1.8144960000000427,0.0,0.0,8220.0,0.0,0.0,0.0,0.0,0.0,3.770751567,0.0,-0.0012207029999995456,-8233.0,0.0,0.0,-0.0,0.0,0.0,1.8920896500000002,0.0,-0.0012207029999995456,8172.0,0.0,0.0,0.0,0.0,0.0,4.877929188,0.0,0.0,-8190.0,0.0,0.0,-0.0,0.0,0.0,2.877196971,0.0,0.0,1.100000023841858,0.7699999809265137,0.0,0.01312255859375,0.02081298828125,0.999267578125,34.529998779296875,0.0,0.0,-0.79217529296875,-1.3264617919921875,Closing,0.0,0.0,2.0,0.0,0.0,0.0,0.0,0.0,
1.8676830000000773,0.0,0.0,8220.0,0.0,0.0,0.0,0.0,0.0,3.770751567,0.0,0.0012207029999995456,-8233.0,0.0,0.0,-0.0,0.0,0.0,1.8920896500000002,0.0,0.0,8172.0,0.0,0.0,0.0,0.0,0.0,4.879149891,0.0,0.0012207030000004337,-8190.0,0.0,0.0,-0.0,0.0,0.0,2.877196971,0.0,0.0,1.100000023841858,0.7699999809265137,0.0,0.01416015625,0.0166015625,1.00762939453125,34.529998779296875,0.0,0.0,-0.79217529296875,-1.3264617919921875,Closing,0.0,0.0,2.0,0.0,0.0,0.0,0.0,0.0,
1.9206180000000168,0.0,0.0,8220.0,0.0,0.0,0.0,0.0,0.0,3.770751567,0.0,0.0,-8233.0,0.0,0.0,-0.0,0.0,0.0,1.8920896500000002,0.0,0.0,8172.0,0.0,0.0,0.0,0.0,0.0,4.879149891,0.0,-0.0012207030000004337,-8190.0,0.0,0.0,-0.0,0.0,0.0,2.877196971,0.0,0.0,1.090000033378601,0.7699999809265137,0.0,0.01318359375,0.0174560546875,0.99853515625,34.529998779296875,0.0,0.0,-0.79217529296875,-1.3264617919921875,Closing,0.0,0.0,2.0,0.0,0.0,0.0,0.0,0.0,
1.9725999999999768,0.0,0.0,8220.0,0.0,0.0,0.0,0.0,0.0,3.77197227,0.0,0.0,-8233.0,0.0,0.0,-0.0,0.0,0.0,1.8908689470000002,0.0,0.0,8172.0,0.0,0.0,0.0,0.0,0.0,4.877929188,0.0,0.0,-8190.0,0.0,0.0,-0.0,0.0,0.0,2.877196971,0.0,0.0,1.090000033378601,0.7699999809265137,0.0,0.0126953125,0.0174560546875,1.00970458984375,34.529998779296875,0.0,0.0,-0.79217529296875,-1.3264617919921875,Closing,0.0,0.0,2.0,0.0,0.0,0.0,0.0,0.0,
2.0281130000000123,0.0,0.0,8220.0,0.0,0.0,0.0,0.0,0.0,3.770751567,0.0,0.0,-8233.0,0.0,0.0,-0.0,0.0,0.0,1.8920896500000002,0.0,0.0,8172.0,0.0,0.0,0.0,0.0,0.0,4.876708485,0.0,0.0012207030000004337,-8190.0,0.0,0.0,-0.0,0.0,0.0,2.877196971,0.0,0.0,1.100000023841858,0.7699999809265137,0.0,0.01513671875,0.01904296875,1.00390625,34.529998779296875,0.0,1.0,-0.79217529296875,-1.3264617919921875,Closing,0.0,0.0,2.0,0.0,0.0,0.0,0.0,0.0,
2.077210000000079,0.0,0.0,8220.0,0.0,0.0,0.0,0.0,0.0,3.770751567,0.0,0.0,-8233.0,0.0,0.0,-0.0,0.0,0.0,1.8933103530000002,0.0,0.0,8172.0,0.0,0.0,0.0,0.0,0.0,4.876708485,0.0,-0.0012207030000004337,-8190.0,0.0,0.0,-0.0,0.0,0.0,2.877196971,0.0,-0.0012207029999999897,1.100000023841858,0.7699999809265137,0.0,0.01275634765625,0.02056884765625,0.99908447265625,34.529998779296875,0.0,0.0,-0.79217529296875,-1.3264617919921875,Closing,0.0,0.0,2.0,0.0,0.0,0.0,0.0,0.0,
2.1299020000000017,0.0,0.0,8220.0,0.0,0.0,0.0,0.0,0.0,3.770751567,0.0,0.0,-8233.0,0.0,0.0,-0.0,0.0,0.0,1.8908689470000002,0.0,0.0012207029999995456,8172.0,0.0,0.0,0.0,0.0,0.0,4.879149891,0.0,0.0,-8190.0,0.0,0.0,-0.0,0.0,0.0,2.877196971,0.0,0.0012207029999999897,1.100000023841858,0.7699999809265137,0.0,0.0107421875,0.02288818359375,0.99688720703125,34.529998779296875,0.0,-2.0,-0.79217529296875,-1.3264617919921875,Closing,0.0,0.0,2.0,0.0,0.0,0.0,0.0,0.0,
2.181087999999989,0.0,0.0,8220.0,0.0,0.0,0.0,0.0,0.0,3.770751567,0.0,0.0,-8233.0,0.0,0.0,-0.0,0.0,0.0,1.8920896500000002,0.0,0.0,8172.0,0.0,0.0,0.0,0.0,0.0,4.877929188,0.0,0.0012207030000004337,-8190.0,0.0,0.0,-0.0,0.0,0.0,2.877196971,0.0,0.0,1.100000023841858,0.7599999904632568,0.0,0.0152587890625,0.01702880859375,1.00360107421875,34.529998779296875,0.0,1.0,-0.79217529296875,-1.3264617919921875,Closing,0.0,0.0,2.0,0.0,0.0,0.0,0.0,0.0,
2.2326900000000607,0.0,0.0,8220.0,0.0,0.0,0.0,0.0,0.0,3.770751567,0.0,0.0,-8233.0,0.0,0.0,-0.0,0.0,0.0,1.8920896500000002,0.0,0.0,8172.0,0.0,0.0,0.0,0.0,0.0,4.876708485,0.0,0.0,-8190.0,0.0,0.0,-0.0,0.0,0.0,2.877196971,0.0,-0.0012207029999999897,1.0800000429153442,0.7699999809265137,0.0,0.02227783203125,0.0169677734375,1.00469970703125,34.529998779296875,0.0,8.0,-0.79217529296875,-1.3264617919921875,Closing,0.0,0.0,2.0,0.0,0.0,0.0,0.0,0.0,
2.2874280000000726,0.0,0.0,8220.0,0.0,0.0,0.0,0.0,0.0,3.770751567,0.0,0.0,-8233.0,0.0,0.0,-0.0,0.0,0.0,1.8908689470000002,0.0,0.0,8172.0,0.0,0.0,0.0,0.0,0.0,4.877929188,0.0,0.0,-8190.0,0.0,0.0,-0.0,0.0,0.0,2.877196971,0.0,0.0012207029999999897,1.0800000429153442,0.7799999713897705,0.0,0.01922607421875,0.02215576171875,0.99774169921875,34.529998779296875,0.0,5.0,-0.79217529296875,-1.3264617919921875,Closing,0.0,0.0,2.0,0.0,0.0,0.0,0.0,0.0,
2.335989999999991,0.0,0.0,8220.0,0.0,0.0,0.0,0.0,0.0,3.770751567,0.0,0.0,-8233.0,0.0,0.0,-0.0,0.0,0.0,1.8920896500000002,0.0,0.0,8172.0,0.0,0.0,0.0,0.0,0.0,4.877929188,0.0,0.0,-8190.0,0.0,0.0,-0.0,0.0,0.0,2.878417674,0.0,0.0,1.100000023841858,0.7699999809265137,0.0,0.01507568359375,0.01904296875,1.0089111328125,34.529998779296875,0.0,1.0,-0.79217529296875,-1.3264617919921875,Closing,0.0,0.0,2.0,0.0,0.0,0.0,0.0,0.0,
2.388738000000012,0.0,0.0,8220.0,0.0,0.0,0.0,0.0,0.0,3.770751567,0.0,0.0,-8233.0,0.0,0.0,-0.0,0.0,0.0,1.8920896500000002,0.0,-0.0012207029999995456,8172.0,0.0,0.0,0.0,0.0,0.0,4.877929188,0.0,0.0,-8190.0,0.0,0.0,-0.0,0.0,0.0,2.877196971,0.0,0.0,1.100000023841858,0.7599999904632568,0.0,0.00592041015625,0.019775390625,1.01043701171875,34.529998779296875,0.0,-7.0,-0.79217529296875,-1.3264617919921875,Closing,0.0,0.0,2.0,0.0,0.0,0.0,0.0,0.0,
2.446222999999998,0.0,0.0,8220.0,0.0,0.0,0.0,0.0,0.0,3.770751567,0.0,0.0,-8233.0,0.0,0.0,-0.0,0.0,0.0,1.8933103530000002,0.0,0.0,8172.0,0.0,0.0,0.0,0.0,0.0,4.877929188,0.0,0.0012207030000004337,-8190.0,0.0,0.0,-0.0,0.0,0.0,2.877196971,0.0,0.0,1.0800000429153442,0.7599999904632568,0.0,0.02130126953125,0.01190185546875,0.98681640625,34.529998779296875,0.0,8.0,-0.79217529296875,-1.3264617919921875,Closing,0.0,0.0,2.0,0.0,0.0,0.0,0.0,0.0,
2.4945289999999805,0.0,0.0,8220.0,0.0,0.0,0.0,0.0,0.0,3.770751567,0.0,0.0,-8233.0,0.0,0.0,-0.0,0.0,0.0,1.8920896500000002,0.0,0.0012207029999995456,8172.0,0.0,0.0,0.0,0.0,0.0,4.877929188,0.0,-0.0012207030000004337,-8190.0,0.0,0.0,-0.0,0.0,0.0,2.878417674,0.0,0.0,1.0800000429153442,0.7799999713897705,0.0,0.01983642578125,0.01458740234375,0.991455078125,34.5,0.0,6.0,-0.79217529296875,-1.3264617919921875,Closing,0.0,0.0,2.0,0.0,0.0,0.0,0.0,0.0,
2.547454000000027,0.0,0.0,8220.0,0.0,0.0,0.0,0.0,0.0,3.770751567,0.0,0.0,-8233.0,0.0,0.0,-0.0,0.0,0.0,1.8920896500000002,0.0,0.0,8172.0,0.0,0.0,0.0,0.0,0.0,4.877929188,0.0,0.0012207030000004337,-8190.0,0.0,0.0,-0.0,0.0,0.0,2.878417674,0.0,0.0,1.090000033378601,0.7799999713897705,0.0,0.0145263671875,0.01947021484375,0.99859619140625,34.5,0.0,0.0,-0.79217529296875,-1.3264617919921875,Closing,0.0,0.0,2.0,0.0,0.0,0.0,0.0,0.0,
2.5953360000000103,0.0,0.0,8220.0,0.0,0.0,0.0,0.0,0.0,3.770751567,0.0,0.0,-8233.0,0.0,0.0,-0.0,0.0,0.0,1.8908689470000002,0.0,0.0,8172.0,0.0,0.0,0.0,0.0,0.0,4.877929188,0.0,-0.0012207030000004337,-8190.0,0.0,0.0,-0.0,0.0,0.0,2.875976268,0.0,0.0,1.100000023841858,0.7699999809265137,0.0,0.0078125,0.021728515625,1.00390625,34.5,0.0,-5.0,-0.79217529296875,-1.3264617919921875,Closing,0.0,0.0,2.0,0.0,0.0,0.0,0.0,0.0,
2.647332999999984,0.0,0.0,8220.0,0.0,0.0,0.0,0.0,0.0,3.769530864,0.0,0.0,-8233.0,0.0,0.0,-0.0,0.0,0.0,1.8920896500000002,0.0,-0.0012207029999995456,8172.0,0.0,0.0,0.0,0.0,0.0,4.877929188,0.0,0.0012207030000004337,-8190.0,0.0,0.0,-0.0,0.0,0.0,2.878417674,0.0,0.0,1.100000023841858,0.7599999904632568,0.0,0.01220703125,0.01953125,1.0001220703125,34.5,0.0,-1.0,-0.79217529296875,-1.3264617919921875,Closing,0.0,0.0,2.0,0.0,0.0,0.0,0.0,0.0,
2.6961099999999862,0.0,0.0,8220.0,0.0,0.0,0.0,0.0,0.0,3.77197227,0.0,0.0,-8233.0,0.0,0.0,-0.0,0.0,0.0,1.8920896500000002,0.0,0.0,8172.0,0.0,0.0,0.0,0.0,0.0,4.876708485,0.0,0.0,-8190.0,0.0,0.0,-0.0,0.0,0.0,2.875976268,0.0,0.0,1.090000033378601,0.7599999904632568,0.0,0.01470947265625,0.01947021484375,1.01385498046875,34.5,0.0,1.0,-0.79217529296875,-1.3264617919921875,Closing,0.0,0.0,2.0,0.0,0.0,0.0,0.0,0.0,
2.7493059999999825,0.0,0.0,8220.0,0.0,0.0,0.0,0.0,0.0,3.770751567,0.0,-0.0012207029999995456,-8233.0,0.0,0.0,-0.0,0.0,0.0,1.8920896500000002,0.0,0.0,8172.0,0.0,0.0,0.0,0.0,0.0,4.877929188,0.0,-0.0012207030000004337,-8190.0,0.0,0.0,-0.0,0.0,0.0,2.877196971,0.0,-0.0012207029999999897,1.090000033378601,0.7799999713897705,0.0,0.02142333984375,0.02117919921875,1.00115966796875,34.5,0.0,7.0,-0.79217529296875,-1.3264617919921875,Closing,0.0,0.0,2.0,0.0,0.0,0.0,0.0,0.0,
2.8004060000000752,0.0,0.0,8220.0,0.0,0.0,0.0,0.0,0.0,3.769530864,0.0,0.0012207029999995456,-8233.0,0.0,0.0,-0.0,0.0,0.0,1.8920896500000002,0.0,0.0,8172.0,0.0,0.0,0.0,0.0,0.0,4.877929188,0.0,0.0012207030000004337,-8190.0,0.0,0.0,-0.0,0.0,0.0,2.877196971,0.0,0.0012207029999999897,1.090000033378601,0.7799999713897705,0.0,0.01690673828125,0.0189208984375,1.0218505859375,34.5,0.0,2.0,-0.79217529296875,-1.3264617919921875,Closing,0.0,0.0,2.0,0.0,0.0,0.0,0.0,0.0,
2.8523520000000717,0.0,0.0,8220.0,0.0,0.0,0.0,0.0,0.0,3.770751567,0.0,-0.0012207029999995456,-8233.0,0.0,0.0,-0.0,0.0,0.0,1.8920896500000002,0.0,0.0,8172.0,0.0,0.0,0.0,0.0,0.0,4.877929188,0.0,-0.0012207030000004337,-8190.0,0.0,0.0,-0.0,0.0,0.0,2.877196971,0.0,-0.0012207029999999897,1.090000033378601,0.7799999713897705,0.0,0.0103759765625,0.01983642578125,1.00640869140625,34.5,0.0,-3.0,-0.79217529296875,-1.3264617919921875,Closing,0.0,0.0,2.0,0.0,0.0,0.0,0.0,0.0,
2.906902000000002,0.0,0.0,8220.0,0.0,0.0,0.0,0.0,0.0,3.769530864,0.0,0.0012207029999995456,-8233.0,0.0,0.0,-0.0,0.0,0.0,1.8920896500000002,0.0,0.0,8172.0,0.0,0.0,0.0,0.0,0.0,4.879149891,0.0,0.0012207030000004337,-8190.0,0.0,0.0,-0.0,0.0,0.0,2.877196971,0.0,0.0012207029999999897,1.090000033378601,0.7599999904632568,0.0,0.0074462890625,0.0223388671875,1.01153564453125,34.5,0.0,-6.0,-0.79217529296875,-1.3264617919921875,Closing,0.0,0.0,2.0,0.0,0.0,0.0,0.0,0.0,
2.956935999999987,0.0,0.0,8220.0,0.0,0.0,0.0,0.0,0.0,3.77197227,0.0,0.0,-8233.0,0.0,0.0,-0.0,0.0,0.0,1.8920896500000002,0.0,0.0,8172.0,0.0,0.0,0.0,0.0,0.0,4.877929188,0.0,0.0,-8190.0,0.0,0.0,-0.0,0.0,0.0,2.877196971,0.0,0.0,1.090000033378601,0.7599999904632568,0.0,0.01312255859375,0.0208740234375,1.00048828125,34.5,0.0,0.0,-0.79217529296875,-1.3264617919921875,Closing,0.0,0.0,2.0,0.0,0.0,0.0,0.0,0.0,
3.0101870000000344,0.0,0.0,8220.0,0.0,0.0,0.0,0.0,0.0,3.770751567,0.0,-0.0012207029999995456,-8233.0,0.0,0.0,-0.0,0.0,0.0,1.8920896500000002,0.0,0.0,8172.0,0.0,0.0,0.0,0.0,0.0,4.876708485,0.0,-0.0012207030000004337,-8190.0,0.0,0.0,-0.0,0.0,0.0,2.877196971,0.0,-0.0012207029999999897,1.090000033378601,0.7799999713897705,0.0,0.01470947265625,0.017333984375,1.001953125,34.54999923706055,0.0,1.0,-0.79217529296875,-1.3264617919921875,Closing,0.0,0.0,2.0,0.0,0.0,0.0,0.0,0.0,
3.063563000000082,0.0,0.0,8220.0,0.0,0.0,0.0,0.0,0.0,3.770751567,0.0,0.0012207029999995456,-8233.0,0.0,0.0,-0.0,0.0,0.0,1.8920896500000002,0.0,0.0,8172.0,0.0,0.0,0.0,0.0,0.0,4.877929188,0.0,0.0,-8190.0,0.0,0.0,-0.0,0.0,0.0,2.877196971,0.0,0.0012207029999999897,1.0800000429153442,0.7799999713897705,0.0,0.016357421875,0.0147705078125,1.0079345703125,34.54999923706055,0.0,2.0,-0.79217529296875,-1.3264617919921875,Closing,0.0,0.0,2.0,0.0,0.0,0.0,0.0,0.0,
3.1139520000000482,0.0,0.0,8220.0,0.0,0.0,0.0,0.0,0.0,3.770751567,0.0,0.0,-8233.0,0.0,0.0,-0.0,0.0,0.0,1.8920896500000002,0.0,0.0,8172.0,0.0,0.0,0.0,0.0,0.0,4.877929188,0.0,0.0,-8190.0,0.0,0.0,-0.0,0.0,0.0,2.877196971,0.0,-0.0012207029999999897,1.0700000524520874,0.7799999713897705,0.0,0.01483154296875,0.01910400390625,0.99688720703125,34.54999923706055,0.0,1.0,-0.79217529296875,-1.3264617919921875,Closing,0.0,0.0,2.0,0.0,0.0,0.0,0.0,0.0,
3.166207999999984,0.0,0.0,8220.0,0.0,0.0,0.0,0.0,0.0,3.77197227,0.0,0.0,-8233.0,0.0,0.0,-0.0,0.0,0.0,1.8920896500000002,0.0,0.0,8172.0,0.0,0.0,0.0,0.0,0.0,4.879149891,0.0,0.0,-8190.0,0.0,0.0,-0.0,0.0,0.0,2.877196971,0.0,0.0012207029999999897,1.0700000524520874,0.7699999809265137,0.0,0.01129150390625,0.01806640625,0.9932861328125,34.54999923706055,0.0,-2.0,-0.79217529296875,-1.3264617919921875,Closing,0.0,0.0,2.0,0.0,0.0,0.0,0.0,0.0,
3.2150289999999804,0.0,0.0,8220.0,0.0,0.0,0.0,0.0,0.0,3.769530864,0.0,0.0,-8233.0,0.0,0.0,-0.0,0.0,0.0,1.8920896500000002,0.0,0.0,8172.0,0.0,0.0,0.0,0.0,0.0,4.877929188,0.0,0.0,-8190.0,0.0,0.0,-0.0,0.0,0.0,2.877196971,0.0,0.0,1.0800000429153442,0.7599999904632568,0.0,0.0091552734375,0.0159912109375,0.99896240234375,34.54999923706055,0.0,-4.0,-0.79217529296875,-1.3264617919921875,Closing,0.0,0.0,2.0,0.0,0.0,0.0,0.0,0.0,
3.277136000000057,0.0,0.0,8220.0,0.0,0.0,0.0,0.0,0.0,3.770751567,0.0,0.0,-8233.0,0.0,0.0,-0.0,0.0,0.0,1.8920896500000002,0.0,0.0,8172.0,0.0,0.0,0.0,0.0,0.0,4.876708485,0.0,0.0,-8190.0,0.0,0.0,-0.0,0.0,0.0,2.877196971,0.0,-0.0012207029999999897,1.0700000524520874,0.7599999904632568,0.0,0.0181884765625,0.01593017578125,0.99462890625,34.54999923706055,0.0,4.0,-0.79217529296875,-1.3264617919921875,Closing,0.0,0.0,2.0,0.0,0.0,0.0,0.0,0.0,
3.3306570000000066,0.0,0.0,8220.0,0.0,0.0,0.0,0.0,0.0,3.770751567,0.0,0.0,-8233.0,0.0,0.0,-0.0,0.0,0.0,1.8908689470000002,0.0,0.0,8172.0,0.0,0.0,0.0,0.0,0.0,4.876708485,0.0,0.0,-8190.0,0.0,0.0,-0.0,0.0,0.0,2.877196971,0.0,0.0,1.0700000524520874,0.7799999713897705,0.0,0.018310546875,0.01873779296875,0.98980712890625,34.54999923706055,0.0,4.0,-0.79217529296875,-1.3264617919921875,Closing,0.0,0.0,2.0,0.0,0.0,0.0,0.0,0.0,
3.3765550000000513,0.0,0.0,8220.0,0.0,0.0,0.0,0.0,0.0,3.770751567,0.0,0.0,-8233.0,0.0,0.0,-0.0,0.0,0.0,1.8920896500000002,0.0,0.0,8172.0,0.0,0.0,0.0,0.0,0.0,4.877929188,0.0,0.0,-8190.0,0.0,0.0,-0.0,0.0,0.0,2.878417674,0.0,0.0,1.059999942779541,0.7799999713897705,0.0,0.0133056640625,0.0133056640625,0.986572265625,34.54999923706055,0.0,0.0,-0.79217529296875,-1.3264617919921875,Closing,0.0,0.0,2.0,0.0,0.0,0.0,0.0,0.0,
3.431462999999989,0.0,0.0,8220.0,0.0,0.0,0.0,0.0,0.0,3.770751567,0.0,0.0,-8233.0,0.0,0.0,-0.0,0.0,0.0,1.8920896500000002,0.0,0.0,8172.0,0.0,0.0,0.0,0.0,0.0,4.877929188,0.0,0.0,-8190.0,0.0,0.0,-0.0,0.0,0.0,2.877196971,0.0,0.0,1.0499999523162842,0.7799999713897705,0.0,0.01611328125,0.021728515625,0.99517822265625,34.54999923706055,0.0,2.0,-0.79217529296875,-1.3264617919921875,Closing,0.0,0.0,2.0,0.0,0.0,0.0,0.0,0.0,
3.476881000000052,0.0,0.0,8220.0,0.0,0.0,0.0,0.0,0.0,3.77197227,0.0,0.0,-8233.0,0.0,0.0,-0.0,0.0,0.0,1.8920896500000002,0.0,0.0,8172.0,0.0,0.0,0.0,0.0,0.0,4.879149891,0.0,0.0012207030000004337,-8190.0,0.0,0.0,-0.0,0.0,0.0,2.877196971,0.0,0.0012207029999999897,1.0499999523162842,0.7799999713897705,0.0,0.01446533203125,0.01690673828125,0.98956298828125,34.54999923706055,0.0,0.0,-0.79217529296875,-1.3264617919921875,Closing,0.0,0.0,2.0,0.0,0.0,0.0,0.0,0.0,
3.531423999999999,0.0,0.0,8220.0,0.0,0.0,0.0,0.0,0.0,3.770751567,0.0,0.0,-8233.0,0.0,0.0,-0.0,0.0,0.0,1.8920896500000002,0.0,0.0,8172.0,0.0,0.0,0.0,0.0,0.0,4.877929188,0.0,-0.0012207030000004337,-8190.0,0.0,0.0,-0.0,0.0,0.0,2.877196971,0.0,0.0,1.0499999523162842,0.7799999713897705,0.0,0.01239013671875,0.02001953125,0.99908447265625,34.5099983215332,0.0,-1.0,-0.79217529296875,-1.3264617919921875,Closing,0.0,0.0,2.0,0.0,0.0,0.0,0.0,0.0,
3.5891920000000392,0.0,0.0,8220.0,0.0,0.0,0.0,0.0,0.0,3.77197227,0.0,0.0,-8233.0,0.0,0.0,-0.0,0.0,0.0,1.8920896500000002,0.0,0.0,8172.0,0.0,0.0,0.0,0.0,0.0,4.877929188,0.0,0.0,-8190.0,0.0,0.0,-0.0,0.0,0.0,2.877196971,0.0,-0.0012207029999999897,1.0499999523162842,0.7799999713897705,0.0,0.01361083984375,0.01904296875,0.99505615234375,34.5099983215332,0.0,0.0,-0.79217529296875,-1.3264617919921875,Closing,0.0,0.0,2.0,0.0,0.0,0.0,0.0,0.0,
3.6366659999999684,0.0,0.0,8220.0,0.0,0.0,0.0,0.0,0.0,3.770751567,0.0,0.0,-8233.0,0.0,0.0,-0.0,0.0,0.0,1.8920896500000002,0.0,0.0,8172.0,0.0,0.0,0.0,0.0,0.0,4.877929188,0.0,0.0,-8190.0,0.0,0.0,-0.0,0.0,0.0,2.877196971,0.0,0.0012207029999999897,1.0399999618530273,0.7900000214576721,0.0,0.01593017578125,0.0146484375,0.9910888671875,34.5099983215332,0.0,2.0,-0.79217529296875,-1.3264617919921875,Closing,0.0,0.0,2.0,0.0,0.0,0.0,0.0,0.0,
3.6896970000000437,0.0,0.0,8220.0,0.0,0.0,0.0,0.0,0.0,3.770751567,0.0,0.0,-8233.0,0.0,0.0,-0.0,0.0,0.0,1.8920896500000002,0.0,-0.0012207029999995456,8172.0,0.0,0.0,0.0,0.0,0.0,4.879149891,0.0,-0.0012207030000004337,-8190.0,0.0,0.0,-0.0,0.0,0.0,2.878417674,0.0,-0.0012207029999999897,1.0299999713897705,0.7799999713897705,0.0,0.0152587890625,0.018310546875,0.99554443359375,34.5099983215332,0.0,1.0,-0.79217529296875,-1.3264617919921875,Closing,0.0,0.0,2.0,0.0,0.0,0.0,0.0,0.0,
3.741389000000083,0.0,0.0,8220.0,0.0,0.0,0.0,0.0,0.0,3.770751567,0.0,0.0012207029999995456,-8233.0,0.0,0.0,-0.0,0.0,0.0,1.8908689470000002,0.0,0.0,8172.0,0.0,0.0,0.0,0.0,0.0,4.876708485,0.0,0.0012207030000004337,-8190.0,0.0,0.0,-0.0,0.0,0.0,2.877196971,0.0,0.0012207029999999897,1.0199999809265137,0.7900000214576721,0.0,0.0172119140625,0.0133056640625,0.982666015625,34.5099983215332,0.0,3.0,-0.79217529296875,-1.3264617919921875,Closing,0.0,0.0,2.0,0.0,0.0,0.0,0.0,0.0,
3.7935690000000175,0.0,0.0,8220.0,0.0,0.0,0.0,0.0,0.0,3.77197227,0.0,0.0,-8233.0,0.0,0.0,-0.0,0.0,0.0,1.8920896500000002,0.0,0.0,8172.0,0.0,0.0,0.0,0.0,0.0,4.877929188,0.0,-0.0012207030000004337,-8190.0,0.0,0.0,-0.0,0.0,0.0,2.877196971,0.0,0.0,1.0299999713897705,0.7900000214576721,0.0,0.01416015625,0.0167236328125,1.00787353515625,34.5099983215332,0.0,0.0,-0.79217529296875,-1.3264617919921875,Closing,0.0,0.0,2.0,0.0,0.0,0.0,0.0,0.0,
3.846515000000014,0.0,0.0,8220.0,0.0,0.0,0.0,0.0,0.0,3.77197227,0.0,0.0,-8233.0,0.0,0.0,-0.0,0.0,0.0,1.8920896500000002,0.0,0.0012207029999995456,8172.0,0.0,0.0,0.0,0.0,0.0,4.877929188,0.0,0.0,-8190.0,0.0,0.0,-0.0,0.0,0.0,2.877196971,0.0,0.0,1.0199999809265137,0.7900000214576721,0.0,0.01177978515625,0.020751953125,1.011962890625,34.5099983215332,0.0,-2.0,-0.79217529296875,-1.3264617919921875,Closing,0.0,0.0,2.0,0.0,0.0,0.0,0.0,0.0,
3.895457999999984,0.0,0.0,8220.0,0.0,0.0,0.0,0.0,0.0,3.770751567,0.0,0.0,-8233.0,0.0,0.0,-0.0,0.0,0.0,1.8920896500000002,0.0,-0.0012207029999995456,8172.0,0.0,0.0,0.0,0.0,0.0,4.879149891,0.0,0.0,-8190.0,0.0,0.0,-0.0,0.0,0.0,2.877196971,0.0,0.0,1.0099999904632568,0.7900000214576721,0.0,0.01605224609375,0.01544189453125,0.99554443359375,34.5099983215332,0.0,2.0,-0.79217529296875,-1.3264617919921875,Closing,0.0,0.0,2.0,0.0,0.0,0.0,0.0,0.0,
3.9484309999999825,0.0,0.0,8220.0,0.0,0.0,0.0,0.0,0.0,3.770751567,0.0,-0.0012207029999995456,-8233.0,0.0,0.0,-0.0,0.0,0.0,1.8920896500000002,0.0,0.0,8172.0,0.0,0.0,0.0,0.0,0.0,4.879149891,0.0,0.0,-8190.0,0.0,0.0,-0.0,0.0,0.0,2.877196971,0.0,-0.0012207029999999897,1.0099999904632568,0.7900000214576721,0.0,0.01519775390625,0.01416015625,1.00067138671875,34.5099983215332,0.0,1.0,-0.79217529296875,-1.3264617919921875,Closing,0.0,0.0,2.0,0.0,0.0,0.0,0.0,0.0,
3.9953880000000352,0.0,0.0,8220.0,0.0,0.0,0.0,0.0,0.0,3.77197227,0.0,0.0012207029999995456,-8233.0,0.0,0.0,-0.0,0.0,0.0,1.8908689470000002,0.0,0.0,8172.0,0.0,0.0,0.0,0.0,0.0,4.879149891,0.0,0.0,-8190.0,0.0,0.0,-0.0,0.0,0.0,2.877196971,0.0,0.0012207029999999897,1.0099999904632568,0.7900000214576721,-0.009999999776482582,0.01483154296875,0.017822265625,0.99969482421875,34.5099983215332,0.0,0.0,-0.79217529296875,-1.3264617919921875,Closing,0.0,0.0,2.0,0.0,0.0,0.0,0.0,0.0,
4.048359000000055,0.0,0.0,8220.0,0.0,0.0,0.0,0.0,0.0,3.770751567,0.0,0.0,-8233.0,0.0,0.0,-0.0,0.0,0.0,1.8920896500000002,0.0,0.0,8172.0,0.0,0.0,0.0,0.0,0.0,4.879149891,0.0,0.0,-8190.0,0.0,0.0,-0.0,0.0,0.0,2.877196971,0.0,-0.0012207029999999897,1.0099999904632568,0.7900000214576721,0.0,0.01300048828125,0.01934814453125,1.00567626953125,34.52000045776367,0.0,0.0,-0.79217529296875,-1.3264617919921875,Closing,0.0,0.0,2.0,0.0,0.0,0.0,0.0,0.0,
4.095219999999972,0.0,0.0,8220.0,0.0,0.0,0.0,0.0,0.0,3.770751567,0.0,0.0,-8233.0,0.0,0.0,-0.0,0.0,0.0,1.8920896500000002,0.0,0.0,8172.0,0.0,0.0,0.0,0.0,0.0,4.877929188,0.0,0.0,-8190.0,0.0,0.0,-0.0,0.0,0.0,2.877196971,0.0,0.0012207029999999897,1.0099999904632568,0.7900000214576721,0.0,0.0128173828125,0.02264404296875,1.00555419921875,34.52000045776367,0.0,-1.0,-0.79217529296875,-1.3264617919921875,Closing,0.0,0.0,2.0,0.0,0.0,0.0,0.0,0.0,
4.148332000000053,0.0,0.0,8220.0,0.0,0.0,0.0,0.0,0.0,3.770751567,0.0,0.0,-8233.0,0.0,0.0,-0.0,0.0,0.0,1.8920896500000002,0.0,0.0,8172.0,0.0,0.0,0.0,0.0,0.0,4.877929188,0.0,0.0,-8190.0,0.0,0.0,-0.0,0.0,0.0,2.877196971,0.0,0.0,1.0199999809265137,0.7799999713897705,0.0,0.0126953125,0.0205078125,1.00341796875,34.52000045776367,0.0,-1.0,-0.79217529296875,-1.3264617919921875,Closing,0.0,0.0,2.0,0.0,0.0,0.0,0.0,0.0,
4.196080000000075,0.0,0.0,8220.0,0.0,0.0,0.0,0.0,0.0,3.770751567,0.0,0.0,-8233.0,0.0,0.0,-0.0,0.0,0.0,1.8920896500000002,0.0,0.0,8172.0,0.0,0.0,0.0,0.0,0.0,4.877929188,0.0,0.0,-8190.0,0.0,0.0,-0.0,0.0,0.0,2.875976268,0.0,0.0,1.0199999809265137,0.7799999713897705,0.0,0.0101318359375,0.0185546875,0.993408203125,34.52000045776367,0.0,-3.0,-0.79217529296875,-1.3264617919921875,Closing,0.0,0.0,2.0,0.0,0.0,0.0,0.0,0.0,
4.249224000000046,0.0,0.0,8220.0,0.0,0.0,0.0,0.0,0.0,3.770751567,0.0,0.0,-8233.0,0.0,0.0,-0.0,0.0,0.0,1.8908689470000002,0.0,0.0,8172.0,0.0,0.0,0.0,0.0,0.0,4.879149891,0.0,0.0,-8190.0,0.0,0.0,-0.0,0.0,0.0,2.878417674,0.0,-0.0012207029999999897,1.0199999809265137,0.7799999713897705,0.0,0.014892578125,0.02252197265625,0.99981689453125,34.52000045776367,0.0,1.0,-0.79217529296875,-1.3264617919921875,Closing,0.0,0.0,2.0,0.0,0.0,0.0,0.0,0.0,
4.3009230000000676,0.0,0.0,8220.0,0.0,0.0,0.0,0.0,0.0,3.770751567,0.0,0.0,-8233.0,0.0,0.0,-0.0,0.0,0.0,1.8908689470000002,0.0,0.0,8172.0,0.0,0.0,0.0,0.0,0.0,4.876708485,0.0,0.0,-8190.0,0.0,0.0,-0.0,0.0,0.0,2.877196971,0.0,0.0012207029999999897,1.0199999809265137,0.7900000214576721,0.0,0.01593017578125,0.0164794921875,0.99169921875,34.52000045776367,0.0,2.0,-0.79217529296875,-1.3264617919921875,Closing,0.0,0.0,2.0,0.0,0.0,0.0,0.0,0.0,
4.351842000000063,0.0,0.0,8220.0,0.0,0.0,0.0,0.0,0.0,3.770751567,0.0,-0.0012207029999995456,-8233.0,0.0,0.0,-0.0,0.0,0.0,1.8908689470000002,0.0,0.0,8172.0,0.0,0.0,0.0,0.0,0.0,4.876708485,0.0,0.0,-8190.0,0.0,0.0,-0.0,0.0,0.0,2.878417674,0.0,-0.0012207029999999897,1.0199999809265137,0.7900000214576721,0.0,0.01434326171875,0.013427734375,0.98565673828125,34.52000045776367,0.0,0.0,-0.79217529296875,-1.3264617919921875,Closing,0.0,0.0,2.0,0.0,0.0,0.0,0.0,0.0,
4.403651000000071,0.0,0.0,8220.0,0.0,0.0,0.0,0.0,0.0,3.770751567,0.0,0.0012207029999995456,-8233.0,0.0,0.0,-0.0,0.0,0.0,1.8908689470000002,0.0,0.0,8172.0,0.0,0.0,0.0,0.0,0.0,4.877929188,0.0,0.0012207030000004337,-8190.0,0.0,0.0,-0.0,0.0,0.0,2.877196971,0.0,0.0012207029999999897,1.0099999904632568,0.7900000214576721,0.0,0.0172119140625,0.0133056640625,0.994873046875,34.52000045776367,0.0,3.0,-0.79217529296875,-1.3264617919921875,Closing,0.0,0.0,2.0,0.0,0.0,0.0,0.0,0.0,
4.454038000000058,0.0,0.0,8220.0,0.0,0.0,0.0,0.0,0.0,3.770751567,0.0,0.0,-8233.0,0.0,0.0,-0.0,0.0,0.0,1.8920896500000002,0.0,0.0,8172.0,0.0,0.0,0.0,0.0,0.0,4.879149891,0.0,-0.0012207030000004337,-8190.0,0.0,0.0,-0.0,0.0,0.0,2.878417674,0.0,0.0,1.0099999904632568,0.800000011920929,0.0,0.01513671875,0.01837158203125,0.98834228515625,34.52000045776367,0.0,1.0,-0.79217529296875,-1.3264617919921875,Closing,0.0,0.0,2.0,0.0,0.0,0.0,0.0,0.0,
4.505631000000053,0.0,0.0,8220.0,0.0,0.0,0.0,0.0,0.0,3.770751567,0.0,0.0,-8233.0,0.0,0.0,-0.0,0.0,0.0,1.8920896500000002,0.0,0.0,8172.0,0.0,0.0,0.0,0.0,0.0,4.876708485,0.0,0.0,-8190.0,0.0,0.0,-0.0,0.0,0.0,2.877196971,0.0,0.0,1.0299999713897705,0.7900000214576721,0.0,0.01092529296875,0.0211181640625,0.99920654296875,34.52000045776367,0.0,-2.0,-0.79217529296875,-1.3264617919921875,Closing,0.0,0.0,2.0,0.0,0.0,0.0,0.0,0.0,
4.552993000000017,0.0,0.0,8220.0,0.0,0.0,0.0,0.0,0.0,3.770751567,0.0,0.0,-8233.0,0.0,0.0,-0.0,0.0,0.0,1.8920896500000002,0.0,0.0,8172.0,0.0,0.0,0.0,0.0,0.0,4.877929188,0.0,0.0,-8190.0,0.0,0.0,-0.0,0.0,0.0,2.877196971,0.0,0.0,1.0399999618530273,0.7799999713897705,-0.009999999776482582,0.01104736328125,0.023193359375,0.9962158203125,34.560001373291016,0.0,-2.0,-0.79217529296875,-1.3264617919921875,Closing,0.0,0.0,2.0,0.0,0.0,0.0,0.0,0.0,
4.606188000000082,0.0,0.0,8220.0,0.0,0.0,0.0,0.0,0.0,3.769530864,0.0,0.0,-8233.0,0.0,0.0,-0.0,0.0,0.0,1.8920896500000002,0.0,0.0,8172.0,0.0,0.0,0.0,0.0,0.0,4.876708485,0.0,0.0,-8190.0,0.0,0.0,-0.0,0.0,0.0,2.877196971,0.0,-0.0012207029999999897,1.0299999713897705,0.7799999713897705,-0.009999999776482582,0.016357421875,0.0113525390625,0.9993896484375,34.560001373291016,0.0,2.0,-0.79217529296875,-1.3264617919921875,Closing,0.0,0.0,2.0,0.0,0.0,0.0,0.0,0.0,
4.654804000000004,0.0,0.0,8220.0,0.0,0.0,0.0,0.0,0.0,3.770751567,0.0,0.0,-8233.0,0.0,0.0,-0.0,0.0,0.0,1.8920896500000002,0.0,0.0,8172.0,0.0,0.0,0.0,0.0,0.0,4.876708485,0.0,0.0,-8190.0,0.0,0.0,-0.0,0.0,0.0,2.878417674,0.0,0.0012207029999999897,1.0099999904632568,0.7900000214576721,-0.009999999776482582,0.0191650390625,0.00946044921875,0.99505615234375,34.560001373291016,0.0,5.0,-0.79217529296875,-1.3264617919921875,Closing,0.0,0.0,2.0,0.0,0.0,0.0,0.0,0.0,
4.712560999999987,0.0,0.0,8220.0,0.0,0.0,0.0,0.0,0.0,3.770751567,0.0,0.0,-8233.0,0.0,0.0,-0.0,0.0,0.0,1.8920896500000002,0.0,0.0,8172.0,0.0,0.0,0.0,0.0,0.0,4.877929188,0.0,0.0,-8190.0,0.0,0.0,-0.0,0.0,0.0,2.877196971,0.0,0.0,1.0099999904632568,0.7900000214576721,-0.009999999776482582,0.01629638671875,0.0177001953125,0.991943359375,34.560001373291016,0.0,2.0,-0.79217529296875,-1.3264617919921875,Closing,0.0,0.0,2.0,0.0,0.0,0.0,0.0,0.0,
4.768514000000083,0.0,0.0,8220.0,0.0,0.0,0.0,0.0,0.0,3.770751567,0.0,0.0,-8233.0,0.0,0.0,-0.0,0.0,0.0,1.8920896500000002,0.0,0.0,8172.0,0.0,0.0,0.0,0.0,0.0,4.876708485,0.0,0.0,-8190.0,0.0,0.0,-0.0,0.0,0.0,2.875976268,0.0,-0.0012207029999999897,1.0199999809265137,0.800000011920929,-0.019999999552965164,0.011474609375,0.02825927734375,1.0008544921875,34.560001373291016,0.0,-2.0,-0.79217529296875,-1.3264617919921875,Closing,0.0,0.0,2.0,0.0,0.0,0.0,0.0,0.0,
4.815986000000033,0.0,0.0,8220.0,0.0,0.0,0.0,0.0,0.0,3.77197227,0.0,0.0,-8233.0,0.0,0.0,-0.0,0.0,0.0,1.8920896500000002,0.0,0.0,8172.0,0.0,0.0,0.0,0.0,0.0,4.877929188,0.0,0.0,-8190.0,0.0,0.0,-0.0,0.0,0.0,2.877196971,0.0,0.0012207029999999897,1.0399999618530273,0.7900000214576721,-0.019999999552965164,0.01641845703125,0.02630615234375,0.9971923828125,34.560001373291016,0.0,2.0,-0.79217529296875,-1.3264617919921875,Closing,0.0,0.0,2.0,0.0,0.0,0.0,0.0,0.0,
4.869447000000044,0.0,0.0,8220.0,0.0,0.0,0.0,0.0,0.0,3.770751567,0.0,0.0,-8233.0,0.0,0.0,-0.0,0.0,0.0,1.8908689470000002,0.0,0.0,8172.0,0.0,0.0,0.0,0.0,0.0,4.877929188,0.0,0.0,-8190.0,0.0,0.0,-0.0,0.0,0.0,2.878417674,0.0,-0.0012207029999999897,1.0499999523162842,0.800000011920929,-0.009999999776482582,0.017333984375,0.0206298828125,1.0020751953125,34.560001373291016,0.0,0.0,-0.79217529296875,-1.3264617919921875,Closing,0.0,0.0,2.0,0.0,0.0,0.0,0.0,0.0,
4.9206240000000685,0.0,0.0,8220.0,0.0,0.0,0.0,0.0,0.0,3.770751567,0.0,0.0,-8233.0,0.0,0.0,-0.0,0.0,0.0,1.8908689470000002,0.0,0.0,8172.0,0.0,0.0,0.0,0.0,0.0,4.876708485,0.0,0.0,-8190.0,0.0,0.0,-0.0,0.0,0.0,2.877196971,0.0,0.0012207029999999897,1.0399999618530273,0.7900000214576721,-0.009999999776482582,0.0135498046875,0.01409912109375,1.0025634765625,34.560001373291016,0.0,0.0,-0.79217529296875,-1.3264617919921875,Closing,0.0,0.0,2.0,0.0,0.0,0.0,0.0,0.0,
4.974933000000077,0.0,0.0,8220.0,0.0,0.0,0.0,0.0,0.0,3.77197227,0.0,0.0,-8233.0,0.0,0.0,-0.0,0.0,0.0,1.8920896500000002,0.0,0.0,8172.0,0.0,0.0,0.0,0.0,0.0,4.876708485,0.0,0.0,-8190.0,0.0,0.0,-0.0,0.0,0.0,2.877196971,0.0,0.0,1.0299999713897705,0.7900000214576721,0.0,0.0177001953125,0.0123291015625,0.993408203125,34.560001373291016,0.0,3.0,-0.79217529296875,-1.3264617919921875,Closing,0.0,0.0,2.0,0.0,0.0,0.0,0.0,0.0,
5.029347000000067,0.0,0.0,8220.0,0.0,0.0,0.0,0.0,0.0,3.770751567,0.0,0.0,-8233.0,0.0,0.0,-0.0,0.0,0.0,1.8920896500000002,0.0,0.0,8172.0,0.0,0.0,0.0,0.0,0.0,4.877929188,0.0,0.0,-8190.0,0.0,0.0,-0.0,0.0,0.0,2.877196971,0.0,-0.0012207029999999897,1.0199999809265137,0.7900000214576721,0.0,0.01373291015625,0.0137939453125,1.0018310546875,34.560001373291016,0.0,0.0,-0.79217529296875,-1.3264617919921875,Closing,0.0,0.0,2.0,0.0,0.0,0.0,0.0,0.0,
5.080199000000023,0.0,0.0,8220.0,0.0,0.0,0.0,0.0,0.0,3.770751567,0.0,0.0,-8233.0,0.0,0.0,-0.0,0.0,0.0,1.8920896500000002,0.0,0.0012207029999995456,8172.0,0.0,0.0,0.0,0.0,0.0,4.877929188,0.0,0.0012207030000004337,-8190.0,0.0,0.0,-0.0,0.0,0.0,2.877196971,0.0,0.0012207029999999897,1.0199999809265137,0.7900000214576721,0.0,0.01397705078125,0.017333984375,1.00482177734375,34.5099983215332,0.0,0.0,-0.79217529296875,-1.3264617919921875,Closing,0.0,0.0,2.0,0.0,0.0,0.0,0.0,0.0,
5.131815999999992,0.0,0.0,8220.0,0.0,0.0,0.0,0.0,0.0,3.770751567,0.0,-0.0012207029999995456,-8233.0,0.0,0.0,-0.0,0.0,0.0,1.8920896500000002,0.0,-0.0012207029999995456,8172.0,0.0,0.0,0.0,0.0,0.0,4.879149891,0.0,-0.0012207030000004337,-8190.0,0.0,0.0,-0.0,0.0,0.0,2.877196971,0.0,-0.0012207029999999897,1.0199999809265137,0.7900000214576721,0.0,0.01361083984375,0.0179443359375,1.00347900390625,34.5099983215332,0.0,0.0,-0.79217529296875,-1.3264617919921875,Closing,0.0,0.0,2.0,0.0,0.0,0.0,0.0,0.0,
5.182119000000064,0.0,0.0,8220.0,0.0,0.0,0.0,0.0,0.0,3.770751567,0.0,0.0012207029999995456,-8233.0,0.0,0.0,-0.0,0.0,0.0,1.8945310560000002,0.0,0.0,8172.0,0.0,0.0,0.0,0.0,0.0,4.877929188,0.0,0.0,-8190.0,0.0,0.0,-0.0,0.0,0.0,2.875976268,0.0,0.0012207029999999897,1.0199999809265137,0.7900000214576721,0.0,0.0155029296875,0.01934814453125,1.00408935546875,34.5099983215332,0.0,1.0,-0.79217529296875,-1.3264617919921875,Closing,0.0,0.0,2.0,0.0,0.0,0.0,0.0,0.0,
5.231239999999991,0.0,0.0,8220.0,0.0,0.0,0.0,0.0,0.0,3.770751567,0.0,0.0,-8233.0,0.0,0.0,-0.0,0.0,0.0,1.8920896500000002,0.0,0.0,8172.0,0.0,0.0,0.0,0.0,0.0,4.876708485,0.0,0.0,-8190.0,0.0,0.0,-0.0,0.0,0.0,2.878417674,0.0,-0.0012207029999999897,1.0299999713897705,0.7799999713897705,0.0,0.015625,0.02130126953125,1.00140380859375,34.5099983215332,0.0,1.0,-0.79217529296875,-1.3264617919921875,Closing,0.0,0.0,2.0,0.0,0.0,0.0,0.0,0.0,
5.281949000000022,0.0,0.0,8220.0,0.0,0.0,0.0,0.0,0.0,3.770751567,0.0,0.0,-8233.0,0.0,0.0,-0.0,0.0,0.0,1.8920896500000002,0.0,0.0,8172.0,0.0,0.0,0.0,0.0,0.0,4.877929188,0.0,0.0012207030000004337,-8190.0,0.0,0.0,-0.0,0.0,0.0,2.877196971,0.0,0.0012207029999999897,1.0299999713897705,0.7799999713897705,0.0,0.017333984375,0.01922607421875,1.0,34.5099983215332,0.0,3.0,-0.79217529296875,-1.3264617919921875,Closing,0.0,0.0,2.0,0.0,0.0,0.0,0.0,0.0,
5.33331500000006,0.0,0.0,8220.0,0.0,0.0,0.0,0.0,0.0,3.77197227,0.0,0.0,-8233.0,0.0,0.0,-0.0,0.0,0.0,1.8920896500000002,0.0,0.0,8172.0,0.0,0.0,0.0,0.0,0.0,4.877929188,0.0,-0.0012207030000004337,-8190.0,0.0,0.0,-0.0,0.0,0.0,2.877196971,0.0,0.0,1.0299999713897705,0.7900000214576721,0.0,0.01812744140625,0.0172119140625,1.0020751953125,34.5099983215332,0.0,4.0,-0.79217529296875,-1.3264617919921875,Closing,0.0,0.0,2.0,0.0,0.0,0.0,0.0,0.0,
5.387157000000006,0.0,0.0,8220.0,0.0,0.0,0.0,0.0,0.0,3.770751567,0.0,0.0,-8233.0,0.0,0.0,-0.0,0.0,0.0,1.8933103530000002,0.0,0.0,8172.0,0.0,0.0,0.0,0.0,0.0,4.876708485,0.0,0.0,-8190.0,0.0,0.0,-0.0,0.0,0.0,2.877196971,0.0,0.0,1.0399999618530273,0.7900000214576721,0.0,0.01025390625,0.01837158203125,0.9942626953125,34.5099983215332,0.0,0.0,-0.79217529296875,-1.3264617919921875,Closing,0.0,0.0,2.0,0.0,0.0,0.0,0.0,0.0,
5.438479000000051,0.0,0.0,8220.0,0.0,0.0,0.0,0.0,0.0,3.770751567,0.0,0.0,-8233.0,0.0,0.0,-0.0,0.0,0.0,1.8920896500000002,0.0,0.0,8172.0,0.0,0.0,0.0,0.0,0.0,4.876708485,0.0,0.0,-8190.0,0.0,0.0,-0.0,0.0,0.0,2.878417674,0.0,0.0,1.0299999713897705,0.7799999713897705,0.0,0.012939453125,0.0150146484375,0.99945068359375,34.5099983215332,0.0,0.0,-0.79217529296875,-1.3264617919921875,Closing,0.0,0.0,2.0,0.0,0.0,0.0,0.0,0.0,
5.491413000000058,0.0,0.0,8220.0,0.0,0.0,0.0,0.0,0.0,3.770751567,0.0,0.0,-8233.0,0.0,0.0,-0.0,0.0,0.0,1.8933103530000002,0.0,0.0,8172.0,0.0,0.0,0.0,0.0,0.0,4.877929188,0.0,0.0,-8190.0,0.0,0.0,-0.0,0.0,0.0,2.877196971,0.0,0.0,1.0299999713897705,0.7799999713897705,0.0,0.01129150390625,0.01617431640625,1.024658203125,34.5099983215332,0.0,-2.0,-0.79217529296875,-1.3264617919921875,Closing,0.0,0.0,2.0,0.0,0.0,0.0,0.0,0.0,
5.542777000000002,0.0,0.0,8220.0,0.0,0.0,0.0,0.0,0.0,3.770751567,0.0,0.0,-8233.0,0.0,0.0,-0.0,0.0,0.0,1.8920896500000002,0.0,0.0,8172.0,0.0,0.0,0.0,0.0,0.0,4.879149891,0.0,0.0012207030000004337,-8190.0,0.0,0.0,-0.0,0.0,0.0,2.877196971,0.0,0.0012207029999999897,1.0199999809265137,0.7799999713897705,0.0,0.01434326171875,0.0179443359375,1.01263427734375,34.540000915527344,0.0,0.0,-0.79217529296875,-1.3264617919921875,Closing,0.0,0.0,2.0,0.0,0.0,0.0,0.0,0.0,
5.595778000000049,0.0,0.0,8220.0,0.0,0.0,0.0,0.0,0.0,3.770751567,0.0,0.0,-8233.0,0.0,0.0,-0.0,0.0,0.0,1.8920896500000002,0.0,0.0,8172.0,0.0,0.0,0.0,0.0,0.0,4.877929188,0.0,-0.0012207030000004337,-8190.0,0.0,0.0,-0.0,0.0,0.0,2.877196971,0.0,0.0,1.0199999809265137,0.7799999713897705,0.0,0.016845703125,0.01971435546875,0.9879150390625,34.540000915527344,0.0,3.0,-0.79217529296875,-1.3264617919921875,Closing,0.0,0.0,2.0,0.0,0.0,0.0,0.0,0.0,
5.652612000000081,0.0,0.0,8220.0,0.0,0.0,0.0,0.0,0.0,3.770751567,0.0,0.0,-8233.0,0.0,0.0,-0.0,0.0,0.0,1.8920896500000002,0.0,0.0,8172.0,0.0,0.0,0.0,0.0,0.0,4.876708485,0.0,0.0012207030000004337,-8190.0,0.0,0.0,-0.0,0.0,0.0,2.877196971,0.0,0.0,1.0199999809265137,0.7900000214576721,0.0,0.01702880859375,0.0198974609375,0.9783935546875,34.540000915527344,0.0,3.0,-0.79217529296875,-1.3264617919921875,Closing,0.0,0.0,2.0,0.0,0.0,0.0,0.0,0.0,
5.707038999999989,0.0,0.0,8220.0,0.0,0.0,0.0,0.0,0.0,3.770751567,0.0,0.0,-8233.0,0.0,0.0,-0.0,0.0,0.0,1.8920896500000002,0.0,0.0,8172.0,0.0,0.0,0.0,0.0,0.0,4.877929188,0.0,-0.0012207030000004337,-8190.0,0.0,0.0,-0.0,0.0,0.0,2.877196971,0.0,-0.0012207029999999897,1.0199999809265137,0.7799999713897705,0.0,0.017333984375,0.01806640625,1.0,34.540000915527344,0.0,3.0,-0.79217529296875,-1.3264617919921875,Closing,0.0,0.0,2.0,0.0,0.0,0.0,0.0,0.0,
5.7570239999999755,0.0,0.0,8220.0,0.0,0.0,0.0,0.0,0.0,3.77197227,0.0,0.0,-8233.0,0.0,0.0,-0.0,0.0,0.0,1.8908689470000002,0.0,0.0,8172.0,0.0,0.0,0.0,0.0,0.0,4.876708485,0.0,0.0,-8190.0,0.0,0.0,-0.0,0.0,0.0,2.877196971,0.0,0.0012207029999999897,1.0299999713897705,0.7799999713897705,0.0,0.01556396484375,0.01812744140625,0.9901123046875,34.540000915527344,0.0,2.0,-0.79217529296875,-1.3264617919921875,Closing,0.0,0.0,2.0,0.0,0.0,0.0,0.0,0.0,
5.810197999999975,0.0,0.0,8220.0,0.0,0.0,0.0,0.0,0.0,3.770751567,0.0,0.0,-8233.0,0.0,0.0,-0.0,0.0,0.0,1.8933103530000002,0.0,0.0012207029999995456,8172.0,0.0,0.0,0.0,0.0,0.0,4.876708485,0.0,0.0012207030000004337,-8190.0,0.0,0.0,-0.0,0.0,0.0,2.877196971,0.0,-0.0012207029999999897,1.0199999809265137,0.7799999713897705,0.0,0.01263427734375,0.01116943359375,0.986083984375,34.540000915527344,0.0,0.0,-0.79217529296875,-1.3264617919921875,Closing,0.0,0.0,2.0,0.0,0.0,0.0,0.0,0.0,
5.873787000000011,0.0,0.0,8220.0,0.0,0.0,0.0,0.0,0.0,3.77197227,0.0,0.0,-8233.0,0.0,0.0,-0.0,0.0,0.0,1.8920896500000002,0.0,0.0,8172.0,0.0,0.0,0.0,0.0,0.0,4.877929188,0.0,0.0,-8190.0,0.0,0.0,-0.0,0.0,0.0,2.875976268,0.0,0.0012207029999999897,1.0199999809265137,0.7799999713897705,0.0,0.0107421875,0.0123291015625,0.99359130859375,34.540000915527344,0.0,-2.0,-0.79217529296875,-1.3264617919921875,Closing,0.0,0.0,2.0,0.0,0.0,0.0,0.0,0.0,
5.930217000000062,0.0,0.0,8220.0,0.0,0.0,0.0,0.0,0.0,3.770751567,0.0,0.0,-8233.0,0.0,0.0,-0.0,0.0,0.0,1.8908689470000002,0.0,-0.0012207029999995456,8172.0,0.0,0.0,0.0,0.0,0.0,4.877929188,0.0,-0.0012207030000004337,-8190.0,0.0,0.0,-0.0,0.0,0.0,2.877196971,0.0,0.0,1.0099999904632568,0.7799999713897705,0.0,0.018798828125,0.01513671875,0.9798583984375,34.540000915527344,0.0,5.0,-0.79217529296875,-1.3264617919921875,Closing,0.0,0.0,2.0,0.0,0.0,0.0,0.0,0.0,
5.9897900000000375,0.0,0.0,8220.0,0.0,0.0,0.0,0.0,0.0,3.770751567,0.0,0.0,-8233.0,0.0,0.0,-0.0,0.0,0.0,1.8920896500000002,0.0,0.0,8172.0,0.0,0.0,0.0,0.0,0.0,4.879149891,0.0,0.0,-8190.0,0.0,0.0,-0.0,0.0,0.0,2.877196971,0.0,0.0,1.0099999904632568,0.800000011920929,0.0,0.01971435546875,0.02044677734375,0.98895263671875,34.540000915527344,0.0,5.0,-0.79217529296875,-1.3264617919921875,Closing,0.0,0.0,2.0,0.0,0.0,0.0,0.0,0.0,
6.04475,0.0,0.0,8220.0,0.0,0.0,0.0,0.0,0.0,3.770751567,0.0,0.0,-8233.0,0.0,0.0,-0.0,0.0,0.0,1.8920896500000002,0.0,0.0,8172.0,0.0,0.0,0.0,0.0,0.0,4.876708485,0.0,0.0,-8190.0,0.0,0.0,-0.0,0.0,0.0,2.877196971,0.0,0.0,1.0199999809265137,0.7900000214576721,0.0,0.01220703125,0.019287109375,0.99658203125,34.54999923706055,0.0,-1.0,-0.79217529296875,-1.3264617919921875,Closing,0.0,0.0,2.0,0.0,0.0,0.0,0.0,0.0,
6.097125,0.0,0.0,8220.0,0.0,0.0,0.0,0.0,0.0,3.770751567,0.0,0.0,-8233.0,0.0,0.0,-0.0,0.0,0.0,1.8908689470000002,0.0,0.0,8172.0,0.0,0.0,0.0,0.0,0.0,4.876708485,0.0,0.0012207030000004337,-8190.0,0.0,0.0,-0.0,0.0,0.0,2.877196971,0.0,0.0,1.0199999809265137,0.7799999713897705,0.0,-0.02606201171875,0.01776123046875,1.019287109375,34.54999923706055,0.0,-40.0,-0.7921905517578125,-1.3264617919921875,Closing,0.0,0.0,2.0,0.0,0.0,0.0,0.0,0.0,
6.153303000000073,0.0,0.0,8220.0,0.0,0.0,0.0,0.0,0.0,3.77197227,0.0,0.0,-8233.0,0.0,0.0,-0.0,0.0,0.0,1.8920896500000002,0.0,0.0,8172.0,0.0,0.0,0.0,0.0,0.0,4.877929188,0.0,0.0,-8190.0,0.0,0.0,-0.0,0.0,0.0,2.877196971,0.0,0.0,1.0199999809265137,0.7799999713897705,0.0,0.02789306640625,-0.01104736328125,0.99169921875,34.54999923706055,0.0,14.0,-0.79217529296875,-1.32647705078125,Closing,0.0,0.0,2.0,0.0,0.0,0.0,0.0,0.0,
6.209005000000005,0.0,0.0,8220.0,0.0,0.0,0.0,0.0,0.0,3.770751567,0.0,0.0,-8233.0,0.0,0.0,-0.0,0.0,0.0,1.8920896500000002,0.0,0.0,8172.0,0.0,0.0,0.0,0.0,0.0,4.879149891,0.0,-0.0012207030000004337,-8190.0,0.0,0.0,-0.0,0.0,0.0,2.877196971,0.0,-0.0012207029999999897,1.0199999809265137,0.7900000214576721,-0.009999999776482582,0.00750732421875,0.0302734375,1.00225830078125,34.54999923706055,0.0,-6.0,-0.79217529296875,-1.3264923095703125,Closing,0.0,0.0,2.0,0.0,0.0,0.0,0.0,0.0,
6.265457999999984,0.0,0.0,8220.0,0.0,0.0,0.0,0.0,0.0,3.769530864,0.0,0.0,-8233.0,0.0,0.0,-0.0,0.0,0.0,1.8920896500000002,0.0,0.0,8172.0,0.0,0.0,0.0,0.0,0.0,4.877929188,0.0,0.0012207030000004337,-8190.0,0.0,0.0,-0.0,0.0,0.0,2.877196971,0.0,0.0012207029999999897,1.0299999713897705,0.800000011920929,0.0,0.0277099609375,0.016357421875,0.99713134765625,34.54999923706055,0.0,13.0,-0.7921295166015625,-1.3264923095703125,Closing,0.0,0.0,2.0,0.0,0.0,0.0,0.0,0.0,
6.31483600000001,0.0,0.0,8220.0,0.0,0.0,0.0,0.0,0.0,3.77197227,0.0,0.0,-8233.0,0.0,0.0,-0.0,0.0,0.0,1.8920896500000002,0.0,0.0,8172.0,0.0,0.0,0.0,0.0,0.0,4.877929188,0.0,-0.0012207030000004337,-8190.0,0.0,0.0,-0.0,0.0,0.0,2.877196971,0.0,0.0,1.0299999713897705,0.7900000214576721,0.0,0.0106201171875,0.0184326171875,1.01129150390625,34.54999923706055,0.0,-3.0,-0.7921295166015625,-1.3264923095703125,Closing,0.0,0.0,2.0,0.0,0.0,0.0,0.0,0.0,
6.376080000000075,0.0,0.0,8220.0,0.0,0.0,0.0,0.0,0.0,3.77197227,0.0,0.0,-8233.0,0.0,0.0,-0.0,0.0,0.0,1.8920896500000002,0.0,0.0,8172.0,0.0,0.0,0.0,0.0,0.0,4.877929188,0.0,0.0,-8190.0,0.0,0.0,-0.0,0.0,0.0,2.877196971,0.0,0.0,1.0199999809265137,0.7799999713897705,0.0,0.02325439453125,0.03271484375,1.01141357421875,34.54999923706055,0.0,9.0,-0.7921295166015625,-1.3265228271484375,Closing,0.0,0.0,2.0,0.0,0.0,0.0,0.0,0.0,
6.431741000000038,0.0,0.0,8220.0,0.0,0.0,0.0,0.0,0.0,3.77197227,0.0,0.0,-8233.0,0.0,0.0,-0.0,0.0,0.0,1.8920896500000002,0.0,0.0,8172.0,0.0,0.0,0.0,0.0,0.0,4.877929188,0.0,0.0,-8190.0,0.0,0.0,-0.0,0.0,0.0,2.877196971,0.0,-0.0012207029999999897,1.0199999809265137,0.7799999713897705,0.0,0.013427734375,0.01776123046875,0.99169921875,34.54999923706055,0.0,0.0,-0.7921295166015625,-1.3265228271484375,Closing,0.0,0.0,2.0,0.0,0.0,0.0,0.0,0.0,
6.48956799999997,0.0,0.0,8220.0,0.0,0.0,0.0,0.0,0.0,3.770751567,0.0,0.0,-8233.0,0.0,0.0,-0.0,0.0,0.0,1.8920896500000002,0.0,0.0,8172.0,0.0,0.0,0.0,0.0,0.0,4.876708485,0.0,0.0,-8190.0,0.0,0.0,-0.0,0.0,0.0,2.875976268,0.0,0.0012207029999999897,1.0199999809265137,0.7900000214576721,0.0,0.0467529296875,-0.0496826171875,1.00213623046875,34.54999923706055,0.0,32.0,-0.7921142578125,-1.326568603515625,Closing,0.0,0.0,2.0,0.0,0.0,0.0,0.0,0.0,
6.538412000000011,0.0,0.0,8220.0,0.0,0.0,0.0,0.0,0.0,3.77197227,0.0,0.0,-8233.0,0.0,0.0,-0.0,0.0,0.0,1.8920896500000002,0.0,0.0,8172.0,0.0,0.0,0.0,0.0,0.0,4.877929188,0.0,0.0012207030000004337,-8190.0,0.0,0.0,-0.0,0.0,0.0,2.877196971,0.0,0.0,1.0099999904632568,0.800000011920929,0.0,0.01708984375,0.03167724609375,1.0013427734375,34.54999923706055,0.0,3.0,-0.792022705078125,-1.3266754150390625,Closing,0.0,0.0,2.0,0.0,0.0,0.0,0.0,0.0,
6.593853000000003,0.0,0.0,8220.0,0.0,0.0,0.0,0.0,0.0,3.77197227,0.0,0.0,-8233.0,0.0,0.0,-0.0,0.0,0.0,1.8920896500000002,0.0,0.0,8172.0,0.0,0.0,0.0,0.0,0.0,4.879149891,0.0,0.0,-8190.0,0.0,0.0,-0.0,0.0,0.0,2.877196971,0.0,0.0,1.0199999809265137,0.7799999713897705,0.0,0.011474609375,0.01153564453125,0.98565673828125,34.5,0.0,-2.0,-0.792022705078125,-1.3266448974609375,Closing,0.0,0.0,2.0,0.0,0.0,0.0,0.0,0.0,
6.648947999999975,0.0,0.0,8220.0,0.0,0.0,0.0,0.0,0.0,3.770751567,0.0,0.0,-8233.0,0.0,0.0,-0.0,0.0,0.0,1.8933103530000002,0.0,-0.0012207029999995456,8172.0,0.0,0.0,0.0,0.0,0.0,4.877929188,0.0,-0.0012207030000004337,-8190.0,0.0,0.0,-0.0,0.0,0.0,2.877196971,0.0,-0.0012207029999999897,1.0,0.7799999713897705,0.0,0.03936767578125,0.03271484375,1.010498046875,34.5,0.0,25.0,-0.7919921875,-1.3266448974609375,Closing,0.0,0.0,2.0,0.0,0.0,0.0,0.0,0.0,
6.7040180000000404,0.0,0.0,8220.0,0.0,0.0,0.0,0.0,0.0,3.770751567,0.0,0.0,-8233.0,0.0,0.0,-0.0,0.0,0.0,1.8920896500000002,0.0,0.0,8172.0,0.0,0.0,0.0,0.0,0.0,4.877929188,0.0,0.0012207030000004337,-8190.0,0.0,0.0,-0.0,0.0,0.0,2.878417674,0.0,0.0012207029999999897,1.0,0.7799999713897705,0.0,0.01763916015625,0.02886962890625,0.99871826171875,34.5,0.0,3.0,-0.7917633056640625,-1.3267822265625,Closing,0.0,0.0,2.0,0.0,0.0,0.0,0.0,0.0,
6.755380000000005,0.0,0.0,8220.0,0.0,0.0,0.0,0.0,0.0,3.77197227,0.0,0.0,-8233.0,0.0,0.0,-0.0,0.0,0.0,1.8908689470000002,0.0,0.0012207029999995456,8172.0,0.0,0.0,0.0,0.0,0.0,4.876708485,0.0,0.0,-8190.0,0.0,0.0,-0.0,0.0,0.0,2.877196971,0.0,0.0,0.9900000095367432,0.7900000214576721,0.0,-0.0078125,0.0308837890625,1.00799560546875,34.5,0.0,-21.0,-0.791778564453125,-1.32684326171875,Closing,0.0,0.0,2.0,0.0,0.0,0.0,0.0,0.0,
6.8112510000000475,0.0,0.0,8220.0,0.0,0.0,0.0,0.0,0.0,3.770751567,0.0,0.0,-8233.0,0.0,0.0,-0.0,0.0,0.0,1.8920896500000002,0.0,0.0,8172.0,0.0,0.0,0.0,0.0,0.0,4.879149891,0.0,0.0,-8190.0,0.0,0.0,-0.0,0.0,0.0,2.877196971,0.0,0.0,0.9900000095367432,0.7799999713897705,0.0,0.03619384765625,0.05389404296875,1.012939453125,34.5,0.0,22.0,-0.7917938232421875,-1.3269195556640625,Closing,0.0,0.0,2.0,0.0,0.0,0.0,0.0,0.0,
6.866688000000082,0.0,0.0,8220.0,0.0,0.0,0.0,0.0,0.0,3.770751567,0.0,0.0,-8233.0,0.0,0.0,-0.0,0.0,0.0,1.8920896500000002,0.0,-0.0012207029999995456,8172.0,0.0,0.0,0.0,0.0,0.0,4.876708485,0.0,-0.0012207030000004337,-8190.0,0.0,0.0,-0.0,0.0,0.0,2.877196971,0.0,-0.0012207029999999897,1.0199999809265137,0.7799999713897705,0.0,0.020751953125,0.01513671875,0.96868896484375,34.5,0.0,7.0,-0.791717529296875,-1.32696533203125,Closing,0.0,0.0,2.0,0.0,0.0,0.0,0.0,0.0,
6.920139000000083,0.0,0.0,8220.0,0.0,0.0,0.0,0.0,0.0,3.769530864,0.0,0.0,-8233.0,0.0,0.0,-0.0,0.0,0.0,1.8920896500000002,0.0,0.0,8172.0,0.0,0.0,0.0,0.0,0.0,4.879149891,0.0,0.0012207030000004337,-8190.0,0.0,0.0,-0.0,0.0,0.0,2.877196971,0.0,0.0012207029999999897,1.0299999713897705,0.7799999713897705,0.0,0.038330078125,-0.02471923828125,0.976318359375,34.5,0.0,24.0,-0.7916412353515625,-1.3268280029296875,Closing,0.0,0.0,2.0,0.0,0.0,0.0,0.0,0.0,
6.975813000000082,0.0,0.0,8220.0,0.0,0.0,0.0,0.0,0.0,3.770751567,0.0,0.0,-8233.0,0.0,0.0,-0.0,0.0,0.0,1.8933103530000002,0.0,0.0012207029999995456,8172.0,0.0,0.0,0.0,0.0,0.0,4.876708485,0.0,0.0,-8190.0,0.0,0.0,-0.0,0.0,0.0,2.877196971,0.0,0.0,1.0099999904632568,0.7699999809265137,0.0,-0.01409912109375,-0.00323486328125,1.010986328125,34.5,0.0,-27.0,-0.79156494140625,-1.32666015625,Closing,0.0,0.0,2.0,0.0,0.0,0.0,0.0,0.0,
7.030994999999995,0.0,0.0,8220.0,0.0,0.0,0.0,0.0,0.0,3.77197227,0.0,0.0,-8233.0,0.0,0.0,-0.0,0.0,0.0,1.8920896500000002,0.0,-0.0012207029999995456,8172.0,0.0,0.0,0.0,0.0,0.0,4.877929188,0.0,-0.0012207030000004337,-8190.0,0.0,0.0,-0.0,0.0,0.0,2.877196971,0.0,0.0,0.9800000190734863,0.7699999809265137,0.0,-0.029296875,0.009033203125,1.03460693359375,34.5,0.0,-43.0,-0.79168701171875,-1.3265838623046875,Closing,0.0,0.0,2.0,0.0,0.0,0.0,0.0,0.0,
7.094585000000079,0.0,0.0,8220.0,0.0,0.0,0.0,0.0,0.0,3.770751567,0.0,0.0,-8233.0,0.0,0.0,-0.0,0.0,0.0,1.8920896500000002,0.0,0.0,8172.0,0.0,0.0,0.0,0.0,0.0,4.879149891,0.0,0.0012207030000004337,-8190.0,0.0,0.0,-0.0,0.0,0.0,2.877196971,0.0,0.0,0.9900000095367432,0.7599999904632568,0.0,0.042724609375,0.02325439453125,1.042724609375,34.5,0.0,28.0,-0.791748046875,-1.32672119140625,Closing,0.0,0.0,2.0,0.0,0.0,0.0,0.0,0.0,
7.149741000000038,0.0,0.0,8220.0,0.0,0.0,0.0,0.0,0.0,3.770751567,0.0,0.0,-8233.0,0.0,0.0,-0.0,0.0,0.0,1.8920896500000002,0.0,0.0,8172.0,0.0,0.0,0.0,0.0,0.0,4.879149891,0.0,0.0,-8190.0,0.0,0.0,-0.0,0.0,0.0,2.877196971,0.0,-0.0012207029999999897,1.0099999904632568,0.7699999809265137,0.0,0.005126953125,0.032470703125,1.00970458984375,34.5,0.0,-8.0,-0.79168701171875,-1.32672119140625,Closing,0.0,0.0,2.0,0.0,0.0,0.0,0.0,0.0,
