Time,ClimberA1,ClimberA2,FRpos,FRCurrent,FRspeed,FRsetpoint,FRApos,FRACurrent,FREncpos,FREncSetpoint,FREncSpeed,FLpos,FLCurrent,FLspeed,FLsetpoint,FLApos,FLACurrent,FLEncpos,FLEncSetpoint,FLEncSpeed,BRpos,BRCurrent,BRspeed,BRsetpoint,BRApos,BRACurrent,BREncpos,BREncSetpoint,BREncSpeed,BLpos,BLCurrent,BLspeed,BLsetpoint,BLApos,BLACurrent,BLEncpos,BLEncSetpoint,BLEncSpeed,navx_Pitch,navx_Roll,navx_Yaw,navx_XAcc,navx_YAcc,navx_ZAcc,navx_Temp,navx_Bar,navx_Alt,navx_XDis,navx_YDis,GearPlacerState,ShootOutputV,ShootOutputCurrent,ShootEncPos,ShootEncVelocity,ShootSpeed,ShootSetpoint,CarouselSetpoint,CarouselCurrent,
0.17370299999999997,0.0,0.0,852.0,0.0,0.0,0.0,0.0,0.0,3.858642183,0.01,0.0,-790.0,0.0,0.0,0.0,0.0,0.0,1.887206838,0.01,0.0,509.0,0.0,0.0,0.0,0.0,0.0,4.884032703,0.01,0.0,-849.0,0.0,0.0,0.0,0.0,0.0,2.940673527,0.01,0.0,0.800000011920929,0.029999999329447746,0.0,0.006103515625,0.009033203125,0.984619140625,27.610000610351562,0.0,5.0,0.3975830078125,-0.417144775390625,Waiting,0.0,0.0,3.0,0.0,0.0,0.0,0.0,0.0,
0.21217000000000008,0.0,0.0,852.0,0.0,0.0,0.0,0.0,0.0,3.858642183,0.0,0.0,-790.0,0.0,0.0,-0.0,0.0,0.0,1.887206838,0.0,-0.033793162000000265,509.0,0.0,0.0,0.0,0.0,0.0,4.882812,0.0,4.946812,-849.0,0.0,0.0,-0.0,0.0,0.0,2.940673527,0.0,0.06945282399999986,0.8199999928474426,0.009999999776482582,0.0,-0.00732421875,0.0325927734375,1.107177734375,27.610000610351562,0.0,-7.0,0.3975830078125,-0.417144775390625,Closing,0.0,0.0,3.0,0.0,0.0,0.0,0.0,0.0,
0.2394870000000001,0.0,0.0,852.0,0.0,0.0,0.0,0.0,0.0,3.859862886,0.0,0.07742148000000038,-790.0,0.0,0.0,-0.0,0.0,0.0,1.887206838,0.0,-0.033793162000000265,509.0,0.0,0.0,0.0,0.0,0.0,4.884032703,0.0,4.946812,-849.0,0.0,0.0,-0.0,0.0,0.0,2.940673527,0.0,0.06945282399999986,0.7900000214576721,0.05000000074505806,0.0,0.00518798828125,-0.00982666015625,0.88623046875,27.610000610351562,0.0,4.0,0.3975830078125,-0.4171600341796875,Closing,0.0,0.0,3.0,0.0,0.0,0.0,0.0,0.0,
0.2671300000000001,0.0,0.0,852.0,0.0,0.0,0.0,0.0,0.0,3.858642183,0.0,0.0012207029999999897,-790.0,0.0,0.0,-0.0,0.0,0.0,1.887206838,0.0,-0.0012207029999995456,509.0,0.0,0.0,0.0,0.0,0.0,4.882812,0.0,-0.0012207030000004337,-849.0,0.0,0.0,-0.0,0.0,0.0,2.940673527,0.0,0.0,0.8199999928474426,0.009999999776482582,0.0,-0.01416015625,0.02685546875,1.142578125,27.610000610351562,0.0,-14.0,0.3975830078125,-0.4171905517578125,Closing,0.0,0.0,3.0,0.0,0.0,0.0,0.0,0.0,
0.2952000000000003,0.0,0.0,852.0,0.0,0.0,0.0,0.0,0.0,3.858642183,0.0,0.0012207029999999897,-790.0,0.0,0.0,-0.0,0.0,0.0,1.887206838,0.0,-0.0012207029999995456,509.0,0.0,0.0,0.0,0.0,0.0,4.884032703,0.0,-0.0012207030000004337,-849.0,0.0,0.0,-0.0,0.0,0.0,2.939452824,0.0,0.0,0.7900000214576721,0.03999999910593033,0.0,0.00408935546875,0.00482177734375,0.91680908203125,27.6299991607666,0.0,3.0,0.3975830078125,-0.4171905517578125,Closing,0.0,0.0,3.0,0.0,0.0,0.0,0.0,0.0,
0.32665999999999984,0.0,0.0,852.0,0.0,0.0,0.0,0.0,0.0,3.859862886,0.0,-0.0012207029999999897,-790.0,0.0,0.0,-0.0,0.0,0.0,1.887206838,0.0,0.0012207029999995456,509.0,0.0,0.0,0.0,0.0,0.0,4.882812,0.0,0.0012207030000004337,-849.0,0.0,0.0,-0.0,0.0,0.0,2.939452824,0.0,0.0,0.8100000023841858,0.019999999552965164,0.0,-0.00494384765625,0.0189208984375,1.0838623046875,27.6299991607666,0.0,-5.0,0.3975830078125,-0.4171905517578125,Closing,0.0,0.0,3.0,0.0,0.0,0.0,0.0,0.0,
0.35034500000000024,0.0,0.0,852.0,0.0,0.0,0.0,0.0,0.0,3.858642183,0.0,-0.0012207029999999897,-790.0,0.0,0.0,-0.0,0.0,0.0,1.887206838,0.0,0.0012207029999995456,509.0,0.0,0.0,0.0,0.0,0.0,4.884032703,0.0,-0.0012207030000004337,-849.0,0.0,0.0,-0.0,0.0,0.0,2.939452824,0.0,0.0,0.800000011920929,0.029999999329447746,0.0,0.00787353515625,0.01739501953125,0.98876953125,27.6299991607666,0.0,7.0,0.3975830078125,-0.4171905517578125,Closing,0.0,0.0,3.0,0.0,0.0,0.0,0.0,0.0,
0.399922,0.0,0.0,852.0,0.0,0.0,0.0,0.0,0.0,3.858642183,0.0,0.0012207029999999897,-790.0,0.0,0.0,-0.0,0.0,0.0,1.887206838,0.0,0.0,509.0,0.0,0.0,0.0,0.0,0.0,4.881591297,0.0,-0.0012207030000004337,-849.0,0.0,0.0,-0.0,0.0,0.0,2.940673527,0.0,0.0,0.8100000023841858,0.029999999329447746,0.0,-0.00457763671875,0.01153564453125,1.0303955078125,27.6299991607666,0.0,-5.0,0.3975830078125,-0.4171905517578125,Closing,0.0,0.0,3.0,0.0,0.0,0.0,0.0,0.0,
0.4284490000000001,0.0,0.0,852.0,0.0,0.0,0.0,0.0,0.0,3.85742148,0.0,0.0,-790.0,0.0,0.0,-0.0,0.0,0.0,1.887206838,0.0,0.0,509.0,0.0,0.0,0.0,0.0,0.0,4.884032703,0.0,0.0012207030000004337,-849.0,0.0,0.0,-0.0,0.0,0.0,2.940673527,0.0,0.0,0.8100000023841858,0.019999999552965164,0.0,0.00445556640625,0.015625,0.992431640625,27.6299991607666,0.0,4.0,0.3975830078125,-0.4171905517578125,Closing,0.0,0.0,3.0,0.0,0.0,0.0,0.0,0.0,
0.44976099999999997,0.0,0.0,852.0,0.0,0.0,0.0,0.0,0.0,3.858642183,0.0,0.0,-790.0,0.0,0.0,-0.0,0.0,0.0,1.8884275410000002,0.0,0.0,509.0,0.0,0.0,0.0,0.0,0.0,4.882812,0.0,0.0012207030000004337,-849.0,0.0,0.0,-0.0,0.0,0.0,2.940673527,0.0,0.0,0.800000011920929,0.029999999329447746,0.0,-0.00164794921875,0.00634765625,0.9801025390625,27.6299991607666,0.0,-2.0,0.3975830078125,-0.4171905517578125,Closing,0.0,0.0,3.0,0.0,0.0,0.0,0.0,0.0,
0.4772910000000002,0.0,0.0,852.0,0.0,0.0,0.0,0.0,0.0,3.858642183,0.0,-0.0012207029999999897,-790.0,0.0,0.0,-0.0,0.0,0.0,1.8884275410000002,0.0,0.0,509.0,0.0,0.0,0.0,0.0,0.0,4.884032703,0.0,-0.0012207030000004337,-849.0,0.0,0.0,-0.0,0.0,0.0,2.939452824,0.0,0.0,0.8100000023841858,0.019999999552965164,0.0,-0.0013427734375,0.0157470703125,1.0284423828125,27.6299991607666,0.0,-1.0,0.3975830078125,-0.4171905517578125,Closing,0.0,0.0,3.0,0.0,0.0,0.0,0.0,0.0,
0.5044569999999999,0.0,0.0,852.0,0.0,0.0,0.0,0.0,0.0,3.858642183,0.0,-0.0012207029999999897,-790.0,0.0,0.0,-0.0,0.0,0.0,1.887206838,0.0,0.0,509.0,0.0,0.0,0.0,0.0,0.0,4.879149891,0.0,-0.0012207030000004337,-849.0,0.0,0.0,-0.0,0.0,0.0,2.939452824,0.0,0.0,0.8100000023841858,0.029999999329447746,0.0,-4.2724609375E-4,0.01336669921875,0.995849609375,27.6299991607666,0.0,-1.0,0.3975830078125,-0.4171905517578125,Closing,0.0,0.0,3.0,0.0,0.0,0.0,0.0,0.0,
0.5311620000000002,0.0,0.0,852.0,0.0,0.0,0.0,0.0,0.0,3.858642183,0.0,0.0012207029999999897,-790.0,0.0,0.0,-0.0,0.0,0.0,1.887206838,0.0,0.0,509.0,0.0,0.0,0.0,0.0,0.0,4.884032703,0.0,0.0012207030000004337,-849.0,0.0,0.0,-0.0,0.0,0.0,2.940673527,0.0,0.0,0.800000011920929,0.029999999329447746,0.0,-0.0020751953125,0.013671875,1.01812744140625,27.6299991607666,0.0,-2.0,0.3975830078125,-0.4171905517578125,Closing,0.0,0.0,3.0,0.0,0.0,0.0,0.0,0.0,
0.5523620000000001,0.0,0.0,852.0,0.0,0.0,0.0,0.0,0.0,3.858642183,0.0,0.0012207029999999897,-790.0,0.0,0.0,-0.0,0.0,0.0,1.887206838,0.0,0.0,509.0,0.0,0.0,0.0,0.0,0.0,4.882812,0.0,0.0012207030000004337,-849.0,0.0,0.0,-0.0,0.0,0.0,2.94189423,0.0,0.0,0.8100000023841858,0.029999999329447746,0.0,-3.0517578125E-4,0.01416015625,1.01226806640625,27.6299991607666,0.0,0.0,0.3975830078125,-0.4171905517578125,Closing,0.0,0.0,3.0,0.0,0.0,0.0,0.0,0.0,
0.587587,0.0,0.0,852.0,0.0,0.0,0.0,0.0,0.0,3.861083589,0.0,-0.0012207029999999897,-790.0,0.0,0.0,-0.0,0.0,0.0,1.885986135,0.0,0.0,509.0,0.0,0.0,0.0,0.0,0.0,4.882812,0.0,0.0,-849.0,0.0,0.0,-0.0,0.0,0.0,2.939452824,0.0,0.0,0.800000011920929,0.019999999552965164,0.0,-7.32421875E-4,0.0072021484375,1.01898193359375,27.6299991607666,0.0,-1.0,0.3975830078125,-0.4171905517578125,Closing,0.0,0.0,3.0,0.0,0.0,0.0,0.0,0.0,
0.6104180000000001,0.0,0.0,852.0,0.0,0.0,0.0,0.0,0.0,3.859862886,0.0,-0.0012207029999999897,-790.0,0.0,0.0,-0.0,0.0,0.0,1.887206838,0.0,0.0,509.0,0.0,0.0,0.0,0.0,0.0,4.884032703,0.0,0.0,-849.0,0.0,0.0,-0.0,0.0,0.0,2.940673527,0.0,0.0,0.800000011920929,0.019999999552965164,0.0,-0.00665283203125,0.01806640625,1.03118896484375,27.6299991607666,0.0,-7.0,0.3975830078125,-0.4171905517578125,Closing,0.0,0.0,3.0,0.0,0.0,0.0,0.0,0.0,
0.635203,0.0,0.0,852.0,0.0,0.0,0.0,0.0,0.0,3.859862886,0.0,0.0012207029999999897,-790.0,0.0,0.0,-0.0,0.0,0.0,1.887206838,0.0,0.0,509.0,0.0,0.0,0.0,0.0,0.0,4.885253406,0.0,0.0,-849.0,0.0,0.0,-0.0,0.0,0.0,2.94189423,0.0,0.0,0.800000011920929,0.029999999329447746,0.0,0.00244140625,0.0186767578125,0.9971923828125,27.6299991607666,0.0,1.0,0.3975830078125,-0.4171905517578125,Closing,0.0,0.0,3.0,0.0,0.0,0.0,0.0,0.0,
0.6558180000000002,0.0,0.0,852.0,0.0,0.0,0.0,0.0,0.0,3.858642183,0.0,0.0012207029999999897,-790.0,0.0,0.0,-0.0,0.0,0.0,1.8884275410000002,0.0,0.0,509.0,0.0,0.0,0.0,0.0,0.0,4.884032703,0.0,0.0,-849.0,0.0,0.0,-0.0,0.0,0.0,2.939452824,0.0,0.0,0.800000011920929,0.029999999329447746,0.0,0.00244140625,0.01611328125,0.98681640625,27.6299991607666,0.0,1.0,0.3975830078125,-0.4171905517578125,Closing,0.0,0.0,3.0,0.0,0.0,0.0,0.0,0.0,
0.6854659999999999,0.0,0.0,852.0,0.0,0.0,0.0,0.0,0.0,3.858642183,0.0,0.0,-790.0,0.0,0.0,-0.0,0.0,0.0,1.8884275410000002,0.0,0.0,509.0,0.0,0.0,0.0,0.0,0.0,4.884032703,0.0,0.0,-849.0,0.0,0.0,-0.0,0.0,0.0,2.940673527,0.0,0.0,0.8100000023841858,0.029999999329447746,0.0,0.00189208984375,0.01470947265625,1.0213623046875,27.6299991607666,0.0,1.0,0.3975830078125,-0.4171905517578125,Closing,0.0,0.0,3.0,0.0,0.0,0.0,0.0,0.0,
0.7089120000000002,0.0,0.0,852.0,0.0,0.0,0.0,0.0,0.0,3.859862886,0.0,0.0,-790.0,0.0,0.0,-0.0,0.0,0.0,1.887206838,0.0,0.0,509.0,0.0,0.0,0.0,0.0,0.0,4.882812,0.0,0.0,-849.0,0.0,0.0,-0.0,0.0,0.0,2.940673527,0.0,0.0,0.800000011920929,0.029999999329447746,0.0,0.00323486328125,0.01104736328125,0.9832763671875,27.6299991607666,0.0,2.0,0.3975830078125,-0.4171905517578125,Closing,0.0,0.0,3.0,0.0,0.0,0.0,0.0,0.0,
0.7529760000000001,0.0,0.0,852.0,0.0,0.0,0.0,0.0,0.0,3.824462499,0.0,0.0,-790.0,0.0,0.0,-0.0,0.0,0.0,1.8884275410000002,0.0,0.0,509.0,0.0,0.0,0.0,0.0,0.0,4.884032703,0.0,-0.0012207030000004337,-849.0,0.0,0.0,-0.0,0.0,0.0,2.939452824,0.0,0.0,0.800000011920929,0.029999999329447746,0.0,0.0042724609375,0.0167236328125,1.00860595703125,27.6299991607666,0.0,3.0,0.3975830078125,-0.4171905517578125,Closing,0.0,0.0,3.0,0.0,0.0,0.0,0.0,0.0,
0.7764169999999999,0.0,0.0,852.0,0.0,0.0,0.0,0.0,0.0,3.858642183,0.0,-0.0012207029999999897,-790.0,0.0,0.0,-0.0,0.0,0.0,1.887206838,0.0,0.0,509.0,0.0,0.0,0.0,0.0,0.0,4.884032703,0.0,0.0012207030000004337,-849.0,0.0,0.0,-0.0,0.0,0.0,2.940673527,0.0,0.0,0.800000011920929,0.029999999329447746,0.0,-0.00140380859375,0.01458740234375,1.010986328125,27.6299991607666,0.0,-2.0,0.3975830078125,-0.4171905517578125,Closing,0.0,0.0,3.0,0.0,0.0,0.0,0.0,0.0,
0.7989180000000001,0.0,0.0,852.0,0.0,0.0,0.0,0.0,0.0,3.854980074,0.0,-0.0012207029999999897,-790.0,0.0,0.0,-0.0,0.0,0.0,1.8884275410000002,0.0,0.0,509.0,0.0,0.0,0.0,0.0,0.0,4.884032703,0.0,0.0012207030000004337,-849.0,0.0,0.0,-0.0,0.0,0.0,2.940673527,0.0,0.0,0.8100000023841858,0.029999999329447746,0.0,0.00244140625,0.01312255859375,1.02508544921875,27.6299991607666,0.0,1.0,0.3975830078125,-0.4171905517578125,Closing,0.0,0.0,3.0,0.0,0.0,0.0,0.0,0.0,
0.8304180000000001,0.0,0.0,852.0,0.0,0.0,0.0,0.0,0.0,3.858642183,0.0,0.0012207029999999897,-790.0,0.0,0.0,-0.0,0.0,0.0,1.887206838,0.0,0.0,509.0,0.0,0.0,0.0,0.0,0.0,4.886474109,0.0,0.0,-849.0,0.0,0.0,-0.0,0.0,0.0,2.939452824,0.0,0.0,0.800000011920929,0.029999999329447746,0.0,0.00360107421875,0.01116943359375,0.996826171875,27.59000015258789,0.0,2.0,0.3975830078125,-0.4171905517578125,Closing,0.0,0.0,3.0,0.0,0.0,0.0,0.0,0.0,
0.8668630000000003,0.0,0.0,852.0,0.0,0.0,0.0,0.0,0.0,3.858642183,0.0,0.0012207029999999897,-790.0,0.0,0.0,-0.0,0.0,0.0,1.887206838,0.0,0.0,509.0,0.0,0.0,0.0,0.0,0.0,4.882812,0.0,0.0,-849.0,0.0,0.0,-0.0,0.0,0.0,2.940673527,0.0,0.0,0.800000011920929,0.029999999329447746,0.0,-0.00360107421875,0.0166015625,1.013671875,27.59000015258789,0.0,-4.0,0.3975830078125,-0.4171905517578125,Closing,0.0,0.0,3.0,0.0,0.0,0.0,0.0,0.0,
0.8899960000000001,0.0,0.0,852.0,0.0,0.0,0.0,0.0,0.0,3.858642183,0.0,0.0,-790.0,0.0,0.0,-0.0,0.0,0.0,1.887206838,0.0,0.0,509.0,0.0,0.0,0.0,0.0,0.0,4.884032703,0.0,0.0,-849.0,0.0,0.0,-0.0,0.0,0.0,2.939452824,0.0,0.0,0.800000011920929,0.029999999329447746,0.0,3.0517578125E-4,0.01300048828125,1.01129150390625,27.59000015258789,0.0,0.0,0.3975830078125,-0.4171905517578125,Closing,0.0,0.0,3.0,0.0,0.0,0.0,0.0,0.0,
0.9149,0.0,0.0,852.0,0.0,0.0,0.0,0.0,0.0,3.85742148,0.0,-0.0012207029999999897,-790.0,0.0,0.0,-0.0,0.0,0.0,1.887206838,0.0,0.0,509.0,0.0,0.0,0.0,0.0,0.0,4.886474109,0.0,0.0,-849.0,0.0,0.0,-0.0,0.0,0.0,2.940673527,0.0,0.0,0.800000011920929,0.029999999329447746,0.0,0.00238037109375,0.01544189453125,0.99383544921875,27.59000015258789,0.0,1.0,0.3975830078125,-0.4171905517578125,Closing,0.0,0.0,3.0,0.0,0.0,0.0,0.0,0.0,
0.9461860000000002,0.0,0.0,852.0,0.0,0.0,0.0,0.0,0.0,3.85742148,0.0,-0.0012207029999999897,-790.0,0.0,0.0,-0.0,0.0,0.0,1.887206838,0.0,0.0,509.0,0.0,0.0,0.0,0.0,0.0,4.884032703,0.0,0.0,-849.0,0.0,0.0,-0.0,0.0,0.0,2.940673527,0.0,0.0,0.800000011920929,0.029999999329447746,0.0,0.00469970703125,0.01385498046875,1.011962890625,27.59000015258789,0.0,3.0,0.3975830078125,-0.4171905517578125,Closing,0.0,0.0,3.0,0.0,0.0,0.0,0.0,0.0,
0.9653830000000002,0.0,0.0,852.0,0.0,0.0,0.0,0.0,0.0,3.853759371,0.0,-0.0012207029999999897,-790.0,0.0,0.0,-0.0,0.0,0.0,1.887206838,0.0,0.0,509.0,0.0,0.0,0.0,0.0,0.0,4.882812,0.0,0.0,-849.0,0.0,0.0,-0.0,0.0,0.0,2.940673527,0.0,0.0,0.800000011920929,0.029999999329447746,0.0,0.0035400390625,0.0172119140625,1.0128173828125,27.59000015258789,0.0,2.0,0.3975830078125,-0.4171905517578125,Closing,0.0,0.0,3.0,0.0,0.0,0.0,0.0,0.0,
0.986868,0.0,0.0,852.0,0.0,0.0,0.0,0.0,0.0,3.858642183,0.0,0.0012207029999999897,-790.0,0.0,0.0,-0.0,0.0,0.0,1.887206838,0.0,0.0,509.0,0.0,0.0,0.0,0.0,0.0,4.882812,0.0,0.0,-849.0,0.0,0.0,-0.0,0.0,0.0,2.939452824,0.0,0.0,0.800000011920929,0.029999999329447746,0.0,0.00286865234375,0.0111083984375,0.9984130859375,27.59000015258789,0.0,2.0,0.3975830078125,-0.4171905517578125,Closing,0.0,0.0,3.0,0.0,0.0,0.0,0.0,0.0,
1.005938,0.0,0.0,852.0,0.0,0.0,0.0,0.0,0.0,3.865966401,0.0,0.0012207029999999897,-790.0,0.0,0.0,-0.0,0.0,0.0,1.887206838,0.0,0.0,509.0,0.0,0.0,0.0,0.0,0.0,4.881591297,0.0,0.0,-849.0,0.0,0.0,-0.0,0.0,0.0,2.939452824,0.0,0.0,0.800000011920929,0.029999999329447746,0.0,-0.00335693359375,0.01312255859375,1.01220703125,27.59000015258789,0.0,-4.0,0.3975830078125,-0.4171905517578125,Closing,0.0,0.0,3.0,0.0,0.0,0.0,0.0,0.0,
1.0282870000000002,0.0,0.0,852.0,0.0,0.0,0.0,0.0,0.0,3.85742148,0.0,-0.0012207029999999897,-790.0,0.0,0.0,-0.0,0.0,0.0,1.887206838,0.0,0.0,509.0,0.0,0.0,0.0,0.0,0.0,4.884032703,0.0,0.0,-849.0,0.0,0.0,-0.0,0.0,0.0,2.939452824,0.0,0.0,0.800000011920929,0.029999999329447746,0.0,0.00115966796875,0.01397705078125,1.000732421875,27.59000015258789,0.0,0.0,0.3975830078125,-0.4171905517578125,Closing,0.0,0.0,3.0,0.0,0.0,0.0,0.0,0.0,
1.048011,0.0,0.0,852.0,0.0,0.0,0.0,0.0,0.0,3.85742148,0.0,-0.0012207029999999897,-790.0,0.0,0.0,-0.0,0.0,0.0,1.887206838,0.0,0.0,509.0,0.0,0.0,0.0,0.0,0.0,4.877929188,0.0,0.0,-849.0,0.0,0.0,-0.0,0.0,0.0,2.940673527,0.0,0.0,0.800000011920929,0.029999999329447746,0.0,-4.2724609375E-4,0.01190185546875,1.0025634765625,27.59000015258789,0.0,-1.0,0.3975830078125,-0.4171905517578125,Closing,0.0,0.0,3.0,0.0,0.0,0.0,0.0,0.0,
1.067538,0.0,0.0,852.0,0.0,0.0,0.0,0.0,0.0,3.858642183,0.0,-0.0012207029999999897,-790.0,0.0,0.0,-0.0,0.0,0.0,1.887206838,0.0,0.0,509.0,0.0,0.0,0.0,0.0,0.0,4.884032703,0.0,-0.0012207030000004337,-849.0,0.0,0.0,-0.0,0.0,0.0,2.940673527,0.0,0.0,0.8100000023841858,0.03999999910593033,0.0,-1.220703125E-4,0.0145263671875,1.01336669921875,27.59000015258789,0.0,0.0,0.3975830078125,-0.4171905517578125,Closing,0.0,0.0,3.0,0.0,0.0,0.0,0.0,0.0,
1.0941010000000002,0.0,0.0,852.0,0.0,0.0,0.0,0.0,0.0,3.85742148,0.0,0.0012207029999999897,-790.0,0.0,0.0,-0.0,0.0,0.0,1.887206838,0.0,0.0,509.0,0.0,0.0,0.0,0.0,0.0,4.884032703,0.0,-0.0012207030000004337,-849.0,0.0,0.0,-0.0,0.0,0.0,2.940673527,0.0,0.0,0.8100000023841858,0.03999999910593033,0.0,0.001953125,0.0120849609375,0.99920654296875,27.59000015258789,0.0,1.0,0.3975830078125,-0.4171905517578125,Closing,0.0,0.0,3.0,0.0,0.0,0.0,0.0,0.0,
1.1139659999999998,0.0,0.0,852.0,0.0,0.0,0.0,0.0,0.0,3.85742148,0.0,0.0012207029999999897,-790.0,0.0,0.0,-0.0,0.0,0.0,1.884765432,0.0,0.0,509.0,0.0,0.0,0.0,0.0,0.0,4.882812,0.0,0.0012207030000004337,-849.0,0.0,0.0,-0.0,0.0,0.0,2.940673527,0.0,0.0,0.800000011920929,0.029999999329447746,0.0,0.0010986328125,0.01397705078125,1.00079345703125,27.59000015258789,0.0,0.0,0.3975830078125,-0.4171905517578125,Closing,-12.55,13.375,3.0,0.0,0.0,-1640.0,0.0,0.0,
1.136571,0.0,0.0,852.0,0.0,0.0,0.0,0.0,0.0,3.858642183,0.0,-0.0024414059999999793,-790.0,0.0,0.0,-0.0,0.0,0.0,1.887206838,0.0,0.0,509.0,0.0,0.0,0.0,0.0,0.0,4.882812,0.0,0.0012207030000004337,-849.0,0.0,0.0,-0.0,0.0,0.0,2.939452824,0.0,0.0,0.8100000023841858,0.03999999910593033,0.0,-0.00872802734375,0.009033203125,1.02166748046875,27.59000015258789,0.0,-9.0,0.3975830078125,-0.4171905517578125,Closing,-12.55,13.375,3.0,0.0,0.0,-1640.0,0.0,0.0,
1.1545929999999998,0.0,0.0,852.0,0.0,0.0,0.0,0.0,0.0,3.858642183,0.0,-0.0024414059999999793,-790.0,0.0,0.0,-0.0,0.0,0.0,1.887206838,0.0,0.0,509.0,0.0,0.0,0.0,0.0,0.0,4.882812,0.0,0.0012207030000004337,-849.0,0.0,0.0,-0.0,0.0,0.0,2.940673527,0.0,0.0,0.800000011920929,0.03999999910593033,0.0,-5.4931640625E-4,-0.00140380859375,0.9677734375,27.59000015258789,0.0,-1.0,0.3975830078125,-0.4171905517578125,Closing,-12.55,38.625,3.0,0.0,0.0,-1640.0,0.0,0.0,
1.176581,0.0,0.0,852.0,0.0,0.0,0.0,0.0,0.0,3.858642183,0.0,0.0012207029999999897,-790.0,0.0,0.0,-0.0,0.0,0.0,1.885986135,0.0,0.0,509.0,0.0,0.0,0.0,0.0,0.0,4.884032703,0.0,0.0,-849.0,0.0,0.0,-0.0,0.0,0.0,2.939452824,0.0,0.0,0.800000011920929,0.029999999329447746,0.0,-0.00689697265625,7.32421875E-4,1.00848388671875,27.59000015258789,0.0,-7.0,0.3975830078125,-0.4171905517578125,Closing,-12.55,64.75,3.0,0.0,-15.0,-1640.0,0.0,0.0,
1.19496,0.0,0.0,852.0,0.0,0.0,0.0,0.0,0.0,3.858642183,0.0,0.0012207029999999897,-790.0,0.0,0.0,-0.0,0.0,0.0,1.885986135,0.0,0.0,509.0,0.0,0.0,0.0,0.0,0.0,4.882812,0.0,0.0,-849.0,0.0,0.0,-0.0,0.0,0.0,2.939452824,0.0,0.0,0.800000011920929,0.029999999329447746,0.0,0.01751708984375,0.00225830078125,1.003662109375,27.59000015258789,0.0,0.0,0.3975830078125,-0.4171905517578125,Closing,-10.100000000000001,82.5,-13.0,-6.0,-37.5,-1640.0,0.0,0.0,
1.214732,0.0,0.0,852.0,0.0,0.0,0.0,0.0,0.0,3.858642183,0.0,0.0012207029999999897,-790.0,0.0,0.0,-0.0,0.0,0.0,1.8896482440000002,0.0,0.0,509.0,0.0,0.0,0.0,0.0,0.0,4.884032703,0.0,0.0,-849.0,0.0,0.0,-0.0,0.0,0.0,2.940673527,0.0,0.0,0.800000011920929,0.029999999329447746,0.0,0.00946044921875,0.0029296875,1.00238037109375,27.59000015258789,0.0,8.0,0.3975830078125,-0.4171905517578125,Closing,-10.100000000000001,80.75,-13.0,-6.0,-82.5,-1640.0,0.0,0.0,
1.238319,62.5,0.0,852.0,0.0,0.0,0.0,0.0,0.0,3.858642183,0.0,0.0,-790.0,0.0,0.0,-0.0,0.0,0.0,1.887206838,0.0,0.0,509.0,0.0,0.0,0.0,0.0,0.0,4.882812,0.0,0.0,-849.0,0.0,0.0,-0.0,0.0,0.0,2.939452824,0.0,0.0,0.800000011920929,0.03999999910593033,0.0,0.01043701171875,-8.544921875E-4,0.98504638671875,27.59000015258789,0.0,9.0,0.3975830078125,-0.4171905517578125,Closing,-10.100000000000001,79.125,-13.0,-6.0,-142.5,-1640.0,0.0,0.0,
1.2577870000000002,62.5,0.0,852.0,0.0,0.0,0.0,0.0,0.0,3.858642183,0.0,0.0,-790.0,0.0,0.0,-0.0,0.0,0.0,1.887206838,0.0,0.0,509.0,0.0,0.0,0.0,0.0,0.0,4.884032703,0.0,0.0,-849.0,0.0,0.0,-0.0,0.0,0.0,2.94189423,0.0,0.0,0.7900000214576721,0.05000000074505806,0.0,-0.011474609375,0.01226806640625,1.016845703125,27.59000015258789,0.0,-12.0,0.3975830078125,-0.4171905517578125,Closing,-10.100000000000001,77.0,-13.0,-6.0,-210.0,-1640.0,0.0,0.0,
1.284821,62.5,0.0,852.0,0.0,0.0,0.0,0.0,0.0,3.858642183,0.0,0.0012207029999999897,-790.0,0.0,0.0,-0.0,0.0,0.0,1.887206838,0.0,0.0,509.0,0.0,0.0,0.0,0.0,0.0,4.876708485,0.0,0.0,-849.0,0.0,0.0,-0.0,0.0,0.0,2.940673527,0.0,0.0,0.800000011920929,0.03999999910593033,0.0,-0.00335693359375,0.01983642578125,0.998779296875,27.59000015258789,0.0,-4.0,0.3975830078125,-0.4171905517578125,Closing,-10.100000000000001,75.125,-13.0,-6.0,-292.5,-1640.0,0.0,0.0,
1.30452,69.5,0.0,852.0,0.0,0.0,0.0,0.0,0.0,3.858642183,0.0,0.0012207029999999897,-790.0,0.0,0.0,-0.0,0.0,0.0,1.884765432,0.0,0.0,509.0,0.0,0.0,0.0,0.0,0.0,4.882812,0.0,0.0,-849.0,0.0,0.0,-0.0,0.0,0.0,2.939452824,0.0,0.0,0.7900000214576721,0.05000000074505806,0.0,-0.01953125,0.02764892578125,0.9974365234375,27.59000015258789,0.0,-20.0,0.397552490234375,-0.4171905517578125,Closing,-10.100000000000001,73.625,-13.0,-6.0,-367.5,-1640.0,0.0,0.0,
1.324801,69.5,0.0,852.0,0.0,0.0,0.0,0.0,0.0,3.858642183,0.0,-0.0012207029999999897,-790.0,0.0,0.0,-0.0,0.0,0.0,1.887206838,0.0,0.0,509.0,0.0,0.0,0.0,0.0,0.0,4.882812,0.0,-0.0012207030000004337,-849.0,0.0,0.0,-0.0,0.0,0.0,2.939452824,0.0,0.0,0.800000011920929,0.05000000074505806,0.0,0.03875732421875,-0.0196533203125,1.0198974609375,27.6200008392334,0.0,37.0,0.3975067138671875,-0.4172210693359375,Closing,-10.3,73.0,-95.0,-58.0,-442.5,-1640.0,0.0,0.0,
1.3478,69.5,0.0,852.0,0.0,0.0,0.0,0.0,0.0,3.858642183,0.0,-0.0012207029999999897,-790.0,0.0,0.0,-0.0,0.0,0.0,1.887206838,0.0,0.0,509.0,0.0,0.0,0.0,0.0,0.0,4.882812,0.0,-0.0012207030000004337,-849.0,0.0,0.0,-0.0,0.0,0.0,2.937011418,0.0,0.0,0.7900000214576721,0.05000000074505806,0.0,-0.00958251953125,0.0665283203125,0.9345703125,27.6200008392334,0.0,-10.0,0.3975067138671875,-0.417236328125,Closing,-10.3,72.0,-95.0,-58.0,-517.5,-1640.0,0.0,0.0,
1.365716,69.5,0.0,852.0,0.0,0.0,0.0,0.0,0.0,3.861083589,0.0,-0.0012207029999999897,-790.0,0.0,0.0,-0.0,0.0,0.0,1.887206838,0.0,0.0,509.0,0.0,0.0,0.0,0.0,0.0,4.885253406,0.0,-0.0012207030000004337,-849.0,0.0,0.0,-0.0,0.0,0.0,2.939452824,0.0,0.0,0.800000011920929,0.05999999865889549,0.0,0.0478515625,0.00732421875,1.02349853515625,27.6200008392334,0.0,46.0,0.39752197265625,-0.417266845703125,Closing,-10.3,71.0,-95.0,-58.0,-592.5,-1640.0,0.0,0.0,
1.3882469999999998,69.5,0.0,852.0,0.0,0.0,0.0,0.0,0.0,3.858642183,0.0,0.0,-790.0,0.0,0.0,-0.0,0.0,0.0,1.887206838,0.0,-0.0012207029999995456,509.0,0.0,0.0,0.0,0.0,0.0,4.884032703,0.0,0.0012207030000004337,-849.0,0.0,0.0,-0.0,0.0,0.0,2.940673527,0.0,0.0,0.7799999713897705,0.07000000029802322,0.0,0.0037841796875,-0.008544921875,1.00830078125,27.6200008392334,0.0,2.0,0.3975830078125,-0.41729736328125,Closing,-10.3,69.5,-95.0,-58.0,-667.5,-1640.0,0.0,0.0,
1.407828,69.5,0.0,852.0,0.0,0.0,0.0,0.0,0.0,3.854980074,0.0,0.0,-790.0,0.0,0.0,-0.0,0.0,0.0,1.887206838,0.0,-0.0012207029999995456,509.0,0.0,0.0,0.0,0.0,0.0,4.881591297,0.0,0.0012207030000004337,-849.0,0.0,0.0,-0.0,0.0,0.0,2.939452824,0.0,0.0,0.7799999713897705,0.07000000029802322,0.0,0.0234375,0.04345703125,1.04022216796875,27.6200008392334,0.0,22.0,0.39764404296875,-0.4173431396484375,Closing,-10.3,68.25,-95.0,-58.0,-742.5,-1640.0,0.0,0.0,
1.429804,69.5,0.0,852.0,0.0,0.0,0.0,0.0,0.0,3.858642183,0.0,0.0012207029999999897,-790.0,0.0,0.0,-0.0,0.0,0.0,1.887206838,0.0,0.0012207029999995456,509.0,0.0,0.0,0.0,0.0,0.0,4.884032703,0.0,0.0,-849.0,0.0,0.0,-0.0,0.0,0.0,2.940673527,0.0,0.0,0.7799999713897705,0.07999999821186066,0.0,0.00762939453125,0.02471923828125,1.00238037109375,27.6200008392334,0.0,6.0,0.397796630859375,-0.4173736572265625,Closing,-10.4,66.875,-243.0,-114.0,-810.0,-1640.0,0.0,0.0,
1.4491330000000002,69.5,0.0,852.0,0.0,0.0,0.0,0.0,0.0,3.86962851,0.0,0.0012207029999999897,-790.0,0.0,0.0,-0.0,0.0,0.0,1.887206838,0.0,0.0012207029999995456,509.0,0.0,0.0,0.0,0.0,0.0,4.884032703,0.0,0.0,-849.0,0.0,0.0,-0.0,0.0,0.0,2.940673527,0.0,0.0,0.7799999713897705,0.07000000029802322,0.0,-0.0040283203125,-0.0291748046875,0.99566650390625,27.6200008392334,0.0,-5.0,0.397796630859375,-0.417388916015625,Closing,-10.4,66.0,-243.0,-114.0,-885.0,-1640.0,0.0,0.0,
1.468732,69.25,0.0,852.0,0.0,0.0,0.0,0.0,0.0,3.858642183,0.0,0.0012207029999999897,-790.0,0.0,0.0,-0.0,0.0,0.0,1.887206838,0.0,0.0012207029999995456,509.0,0.0,0.0,0.0,0.0,0.0,4.882812,0.0,-0.0012207030000004337,-849.0,0.0,0.0,-0.0,0.0,0.0,2.940673527,0.0,0.0,0.7900000214576721,0.07000000029802322,0.0,-0.0103759765625,-6.103515625E-5,0.99169921875,27.6200008392334,0.0,-11.0,0.397796630859375,-0.417510986328125,Closing,-10.4,63.375,-243.0,-114.0,-1012.5,-1640.0,0.0,0.0,
1.4924050000000002,69.25,0.0,852.0,0.0,0.0,0.0,0.0,0.0,3.856200777,0.0,-0.0012207029999999897,-790.0,0.0,0.0,-0.0,0.0,0.0,1.887206838,0.0,0.0,509.0,0.0,0.0,0.0,0.0,0.0,4.884032703,0.0,-0.0012207030000004337,-849.0,0.0,0.0,-0.0,0.0,0.0,2.940673527,0.0,0.0,0.800000011920929,0.05999999865889549,0.0,0.01336669921875,-0.00750732421875,1.00439453125,27.6200008392334,0.0,12.0,0.397796630859375,-0.4176177978515625,Closing,-10.4,63.375,-243.0,-114.0,-1012.5,-1640.0,0.0,0.0,
1.510006,69.25,0.0,852.0,0.0,0.0,0.0,0.0,0.0,3.858642183,0.0,-0.0012207029999999897,-790.0,0.0,0.0,-0.0,0.0,0.0,1.887206838,0.0,0.0,509.0,0.0,0.0,0.0,0.0,0.0,4.884032703,0.0,-0.0012207030000004337,-849.0,0.0,0.0,-0.0,0.0,0.0,2.939452824,0.0,0.0,0.7900000214576721,0.07000000029802322,0.0,0.02996826171875,0.0577392578125,1.0518798828125,27.6200008392334,0.0,28.0,0.3978271484375,-0.417694091796875,Closing,-10.4,62.375,-243.0,-114.0,-1080.0,-1640.0,0.0,0.0,
1.5407010000000005,69.25,0.0,852.0,0.0,0.0,0.0,0.0,0.0,3.858642183,0.0,0.0012207029999999897,-790.0,0.0,0.0,-0.0,0.0,0.0,1.887206838,0.0,0.0,509.0,0.0,0.0,0.0,0.0,0.0,4.882812,0.0,0.0012207030000004337,-849.0,0.0,0.0,-0.0,0.0,0.0,2.940673527,0.0,0.0,0.7900000214576721,0.07000000029802322,0.0,-0.02410888671875,-0.00555419921875,1.06781005859375,27.6200008392334,0.0,-25.0,0.3979339599609375,-0.4178466796875,Closing,-10.4,61.625,-243.0,-114.0,-1147.5,-1640.0,0.0,0.0,
1.5635340000000002,67.375,0.0,852.0,0.0,0.0,0.0,0.0,0.0,3.858642183,0.0,0.0012207029999999897,-790.0,0.0,0.0,-0.0,0.0,0.0,1.887206838,0.0,0.0,509.0,0.0,0.0,0.0,0.0,0.0,4.882812,0.0,0.0012207030000004337,-849.0,0.0,0.0,-0.0,0.0,0.0,2.940673527,0.0,0.0,0.800000011920929,0.05999999865889549,0.0,0.048583984375,0.0029296875,1.1219482421875,27.6200008392334,0.0,47.0,0.3979644775390625,-0.41790771484375,Closing,-10.55,59.0,-450.0,-163.0,-1267.5,-1640.0,0.0,0.0,
1.5824780000000005,67.375,0.0,852.0,0.0,0.0,0.0,0.0,0.0,3.859862886,0.0,-0.0012207029999999897,-790.0,0.0,0.0,-0.0,0.0,0.0,1.887206838,0.0,0.0,509.0,0.0,0.0,0.0,0.0,0.0,4.882812,0.0,0.0,-849.0,0.0,0.0,-0.0,0.0,0.0,2.94189423,0.0,0.0,0.7900000214576721,0.05999999865889549,0.0,0.031005859375,0.052978515625,1.0728759765625,27.6200008392334,0.0,29.0,0.3980560302734375,-0.4179534912109375,Closing,-9.095894428152492,59.0,-450.0,-163.0,-1327.5,-1640.0,0.0,0.0,
1.6012339999999998,67.375,0.0,852.0,0.0,0.0,0.0,0.0,0.0,3.858642183,0.0,-0.0012207029999999897,-790.0,0.0,0.0,-0.0,0.0,0.0,1.8884275410000002,0.0,0.0,509.0,0.0,0.0,0.0,0.0,0.0,4.882812,0.0,0.0,-849.0,0.0,0.0,-0.0,0.0,0.0,2.9443356360000004,0.0,0.0,0.800000011920929,0.05999999865889549,0.0,-0.02117919921875,-0.00701904296875,0.9549560546875,27.6200008392334,0.0,-22.0,0.398345947265625,-0.4179840087890625,Closing,-8.239931573802542,56.0,-450.0,-163.0,-1327.5,-1640.0,0.0,0.0,
1.6209230000000003,61.75,0.0,852.0,0.0,0.0,0.0,0.0,0.0,3.858642183,0.0,-0.0012207029999999897,-790.0,0.0,0.0,-0.0,0.0,0.0,1.887206838,0.0,0.0,509.0,0.0,0.0,0.0,0.0,0.0,4.884032703,0.0,0.0,-849.0,0.0,0.0,-0.0,0.0,0.0,2.939452824,0.0,0.0,0.800000011920929,0.07999999821186066,0.0,-0.04119873046875,0.0267333984375,0.95257568359375,27.6200008392334,0.0,-42.0,0.3984527587890625,-0.4180145263671875,Closing,-9.570283479960901,51.875,-450.0,-163.0,-1387.5,-1640.0,0.0,0.0,
1.6424820000000004,61.75,0.0,852.0,0.0,0.0,0.0,0.0,0.0,3.858642183,0.0,0.0,-790.0,0.0,0.0,-0.0,0.0,0.0,1.887206838,0.0,0.0,509.0,0.0,0.0,0.0,0.0,0.0,4.884032703,0.0,0.0,-849.0,0.0,0.0,-0.0,0.0,0.0,2.940673527,0.0,0.0,0.7900000214576721,0.07000000029802322,0.0,-0.0111083984375,0.0186767578125,1.0162353515625,27.6200008392334,0.0,-12.0,0.3985137939453125,-0.4180145263671875,Closing,-9.12683284457478,45.75,-450.0,-163.0,-1440.0,-1640.0,0.0,0.0,
1.6598520000000003,61.75,0.0,852.0,0.0,0.0,0.0,0.0,0.0,3.858642183,0.0,0.0,-790.0,0.0,0.0,-0.0,0.0,0.0,1.887206838,0.0,0.0,509.0,0.0,0.0,0.0,0.0,0.0,4.880370594,0.0,0.0,-849.0,0.0,0.0,-0.0,0.0,0.0,2.94189423,0.0,0.0,0.800000011920929,0.07000000029802322,0.0,0.0408935546875,-0.00531005859375,1.05364990234375,27.6200008392334,0.0,39.0,0.3987274169921875,-0.4180450439453125,Closing,-6.197996089931574,38.375,-450.0,-163.0,-1492.5,-1640.0,0.0,0.0,
1.681935,42.375,0.0,852.0,0.0,0.0,0.0,0.0,0.0,3.858642183,0.0,0.0012207029999999897,-790.0,0.0,0.0,-0.0,0.0,0.0,1.887206838,0.0,0.0,509.0,0.0,0.0,0.0,0.0,0.0,4.882812,0.0,-0.0012207030000004337,-849.0,0.0,0.0,-0.0,0.0,0.0,2.940673527,0.0,0.0,0.800000011920929,0.07000000029802322,0.0,0.0120849609375,0.030029296875,1.04034423828125,27.6200008392334,0.0,10.0,0.3988800048828125,-0.418060302734375,Closing,-8.30967741935484,30.75,-706.0,-206.0,-1537.5,-1640.0,0.0,0.0,
1.7004540000000001,42.375,0.0,852.0,0.0,0.0,0.0,0.0,0.0,3.858642183,0.0,0.0012207029999999897,-790.0,0.0,0.0,-0.0,0.0,0.0,1.887206838,0.0,0.0,509.0,0.0,0.0,0.0,0.0,0.0,4.876708485,0.0,-0.0012207030000004337,-849.0,0.0,0.0,-0.0,0.0,0.0,2.940673527,0.0,0.0,0.7900000214576721,0.07000000029802322,0.009999999776482582,0.0196533203125,0.04095458984375,1.05401611328125,27.6200008392334,0.0,18.0,0.3988800048828125,-0.418060302734375,Closing,-7.564516129032259,24.5,-706.0,-206.0,-1582.5,-1640.0,0.0,0.0,
1.7202339999999998,42.375,0.0,852.0,0.0,0.0,0.0,0.0,0.0,3.858642183,0.0,0.0012207029999999897,-790.0,0.0,0.0,-0.0,0.0,0.0,1.887206838,0.0,0.0,509.0,0.0,0.0,0.0,0.0,0.0,4.879149891,0.0,-0.0012207030000004337,-849.0,0.0,0.0,-0.0,0.0,0.0,2.939452824,0.0,0.0,0.800000011920929,0.07999999821186066,0.009999999776482582,0.0191650390625,0.03619384765625,1.026123046875,27.6200008392334,0.0,17.0,0.3988800048828125,-0.4179229736328125,Closing,-6.943548387096774,19.0,-706.0,-206.0,-1627.5,-1640.0,0.0,0.0,
1.7413089999999998,42.375,0.0,852.0,0.0,0.0,0.0,0.0,0.0,3.858642183,0.0,0.0,-790.0,0.0,0.0,-0.0,0.0,0.0,1.8884275410000002,0.0,0.0,509.0,0.0,0.0,0.0,0.0,0.0,4.884032703,0.0,0.0012207030000004337,-849.0,0.0,0.0,-0.0,0.0,0.0,2.9296872,0.0,0.0,0.800000011920929,0.07999999821186066,0.009999999776482582,0.0238037109375,0.018798828125,1.0528564453125,27.6200008392334,0.0,22.0,0.3989105224609375,-0.417816162109375,Closing,-4.312903225806452,14.75,-706.0,-206.0,-1657.5,-1640.0,0.0,0.0,
1.7607770000000005,20.125,0.0,852.0,0.0,0.0,0.0,0.0,0.0,3.858642183,0.0,0.0,-790.0,0.0,0.0,-0.0,0.0,0.0,1.887206838,0.0,0.0,509.0,0.0,0.0,0.0,0.0,0.0,4.884032703,0.0,0.0012207030000004337,-849.0,0.0,0.0,-0.0,0.0,0.0,2.932128606,0.0,0.0,0.800000011920929,0.07999999821186066,0.009999999776482582,0.01385498046875,0.04364013671875,1.03887939453125,27.6200008392334,0.0,12.0,0.3989715576171875,-0.4176788330078125,Closing,-6.175806451612903,11.375,-706.0,-206.0,-1680.0,-1640.0,0.0,0.0,
1.7819699999999998,20.125,0.0,852.0,0.0,0.0,0.0,0.0,0.0,3.858642183,0.0,0.0,-790.0,0.0,0.0,-0.0,0.0,0.0,1.887206838,0.0,0.0,509.0,0.0,0.0,0.0,0.0,0.0,4.881591297,0.0,0.0,-849.0,0.0,0.0,-0.0,0.0,0.0,2.940673527,0.0,0.0,0.800000011920929,0.07999999821186066,0.009999999776482582,0.03448486328125,0.03070068359375,1.04248046875,27.6200008392334,0.0,32.0,0.399169921875,-0.41729736328125,Closing,-5.791935483870969,9.5,-706.0,-206.0,-1702.5,-1640.0,0.0,0.0,
1.8009479999999998,9.625,0.0,852.0,0.0,0.0,0.0,0.0,0.0,3.858642183,0.0,0.0,-790.0,0.0,0.0,-0.0,0.0,0.0,1.887206838,0.0,0.0,509.0,0.0,0.0,0.0,0.0,0.0,4.884032703,0.0,0.0,-849.0,0.0,0.0,-0.0,0.0,0.0,2.940673527,0.0,0.0,0.7900000214576721,0.10000000149011612,0.009999999776482582,0.0379638671875,0.00579833984375,1.07415771484375,27.6200008392334,0.0,36.0,0.3993377685546875,-0.41729736328125,Closing,-5.748191593352884,7.875,-980.0,-228.0,-1717.5,-1640.0,0.0,0.0,
1.8202779999999998,9.625,0.0,852.0,0.0,0.0,0.0,0.0,0.0,3.858642183,0.0,0.0,-790.0,0.0,0.0,-0.0,0.0,0.0,1.8884275410000002,0.0,0.0,509.0,0.0,0.0,0.0,0.0,0.0,4.884032703,0.0,0.0,-849.0,0.0,0.0,-0.0,0.0,0.0,2.940673527,0.0,0.0,0.800000011920929,0.10000000149011612,0.009999999776482582,0.050048828125,0.03558349609375,1.08331298828125,27.6200008392334,0.0,48.0,0.3995819091796875,-0.41729736328125,Closing,-5.606842619745846,6.875,-980.0,-228.0,-1725.0,-1640.0,0.0,0.0,
1.8403740000000002,9.625,0.0,852.0,0.0,0.0,0.0,0.0,0.0,3.858642183,0.0,-0.0012207029999999897,-790.0,0.0,0.0,-0.0,0.0,0.0,1.887206838,0.0,0.0,509.0,0.0,0.0,0.0,0.0,0.0,4.877929188,0.0,0.0,-849.0,0.0,0.0,-0.0,0.0,0.0,2.940673527,0.0,0.0,0.7900000214576721,0.10000000149011612,0.009999999776482582,0.010009765625,0.0078125,1.0516357421875,27.6200008392334,0.0,8.0,0.39984130859375,-0.4172210693359375,Closing,-5.441935483870968,6.0,-980.0,-228.0,-1732.5,-1640.0,0.0,0.0,
1.8602549999999995,9.625,0.0,852.0,0.0,0.0,0.0,0.0,0.0,3.858642183,0.0,-0.0012207029999999897,-790.0,0.0,0.0,-0.0,0.0,0.0,1.887206838,0.0,0.0,509.0,0.0,0.0,0.0,0.0,0.0,4.884032703,0.0,0.0,-849.0,0.0,0.0,-0.0,0.0,0.0,2.939452824,0.0,0.0,0.7799999713897705,0.10000000149011612,0.009999999776482582,0.0174560546875,0.00860595703125,0.9678955078125,27.6200008392334,0.0,15.0,0.39984130859375,-0.4172210693359375,Closing,-5.418377321603128,5.625,-980.0,-228.0,-1732.5,-1640.0,0.0,0.0,
1.8813300000000004,6.625,0.0,852.0,0.0,0.0,0.0,0.0,0.0,3.858642183,0.0,-0.0012207029999999897,-790.0,0.0,0.0,-0.0,0.0,0.0,1.887206838,0.0,0.0,509.0,0.0,0.0,0.0,0.0,0.0,4.879149891,0.0,0.0,-849.0,0.0,0.0,-0.0,0.0,0.0,2.939452824,0.0,0.0,0.7699999809265137,0.09000000357627869,0.009999999776482582,0.0218505859375,0.0306396484375,1.01690673828125,27.6200008392334,0.0,20.0,0.399871826171875,-0.4172210693359375,Closing,-5.253470185728251,5.25,-980.0,-228.0,-1740.0,-1640.0,0.0,0.0,
1.9002090000000003,6.625,0.0,852.0,0.0,0.0,0.0,0.0,0.0,3.858642183,0.0,0.0012207029999999897,-790.0,0.0,0.0,-0.0,0.0,0.0,1.887206838,0.0,0.0,509.0,0.0,0.0,0.0,0.0,0.0,4.884032703,0.0,0.0,-849.0,0.0,0.0,-0.0,0.0,0.0,2.940673527,0.0,0.0,0.7699999809265137,0.09000000357627869,0.009999999776482582,0.0096435546875,-0.00225830078125,1.03094482421875,27.6200008392334,0.0,7.0,0.399993896484375,-0.4172210693359375,Closing,-5.218132942326491,5.0,-980.0,-228.0,-1740.0,-1640.0,0.0,0.0,
1.9206489999999998,6.625,0.0,852.0,0.0,0.0,0.0,0.0,0.0,3.859862886,0.0,0.0012207029999999897,-790.0,0.0,0.0,-0.0,0.0,0.0,1.887206838,0.0,0.0,509.0,0.0,0.0,0.0,0.0,0.0,4.884032703,0.0,0.0,-849.0,0.0,0.0,-0.0,0.0,0.0,2.940673527,0.0,0.0,0.7699999809265137,0.09000000357627869,0.009999999776482582,0.03631591796875,0.03509521484375,1.1004638671875,27.6200008392334,0.0,34.0,0.40008544921875,-0.4172210693359375,Closing,-7.731818181818182,4.875,-1258.0,-232.0,-1732.5,-1640.0,0.0,0.0,
1.940248,5.25,0.0,852.0,0.0,0.0,0.0,0.0,0.0,3.858642183,0.0,0.0,-790.0,0.0,0.0,-0.0,0.0,0.0,1.887206838,0.0,0.0,509.0,0.0,0.0,0.0,0.0,0.0,4.885253406,0.0,0.0,-849.0,0.0,0.0,-0.0,0.0,0.0,2.940673527,0.0,0.0,0.7900000214576721,0.10000000149011612,0.009999999776482582,0.0184326171875,0.01324462890625,1.0101318359375,27.6200008392334,0.0,16.0,0.4002227783203125,-0.417205810546875,Closing,-5.344574780058651,4.875,-1258.0,-232.0,-1732.5,-1640.0,0.0,0.0,
1.9600800000000005,5.25,0.0,852.0,0.0,0.0,0.0,0.0,0.0,3.858642183,0.0,0.0,-790.0,0.0,0.0,-0.0,0.0,0.0,1.887206838,0.0,0.0,509.0,0.0,0.0,0.0,0.0,0.0,4.885253406,0.0,0.0,-849.0,0.0,0.0,-0.0,0.0,0.0,2.940673527,0.0,0.0,0.7900000214576721,0.10000000149011612,0.009999999776482582,-0.00103759765625,0.03662109375,1.00927734375,27.6200008392334,0.0,-2.0,0.400360107421875,-0.41717529296875,Closing,-5.308944281524927,5.125,-1258.0,-232.0,-1732.5,-1640.0,0.0,0.0,
1.981873,5.25,0.0,852.0,0.0,0.0,0.0,0.0,0.0,3.858642183,0.0,0.0,-790.0,0.0,0.0,-0.0,0.0,0.0,1.887206838,0.0,0.0,509.0,0.0,0.0,0.0,0.0,0.0,4.882812,0.0,-0.0024414059999999793,-849.0,0.0,0.0,-0.0,0.0,0.0,2.939452824,0.0,0.0012207029999999897,0.8399999737739563,0.07999999821186066,0.009999999776482582,0.0321044921875,0.037109375,1.0511474609375,27.6200008392334,0.0,30.0,0.4007110595703125,-0.41705322265625,Closing,-5.285190615835777,5.125,-1258.0,-232.0,-1732.5,-1640.0,0.0,0.0,
2.0007930000000003,5.625,0.0,852.0,0.0,0.0,0.0,0.0,0.0,3.85742148,0.0,0.0,-790.0,0.0,0.0,-0.0,0.0,0.0,1.887206838,0.0,0.0,509.0,0.0,0.0,0.0,0.0,0.0,4.884032703,0.0,-0.0024414059999999793,-849.0,0.0,0.0,-0.0,0.0,0.0,2.940673527,0.0,0.0012207029999999897,0.8500000238418579,0.09000000357627869,0.009999999776482582,0.00921630859375,0.03271484375,1.017822265625,27.6200008392334,0.0,7.0,0.40093994140625,-0.4169464111328125,Closing,-5.392082111436951,5.25,-1258.0,-232.0,-1725.0,-1640.0,0.0,0.0,
2.020345,5.625,0.0,852.0,0.0,0.0,0.0,0.0,0.0,3.858642183,0.0,0.0,-790.0,0.0,0.0,-0.0,0.0,0.0,1.887206838,0.0,0.0,509.0,0.0,0.0,0.0,0.0,0.0,4.884032703,0.0,-0.0024414059999999793,-849.0,0.0,0.0,-0.0,0.0,0.0,2.932128606,0.0,0.0012207029999999897,0.8700000047683716,0.09000000357627869,0.009999999776482582,0.01776123046875,0.03424072265625,1.02801513671875,27.6200008392334,0.0,16.0,0.40093994140625,-0.4168243408203125,Closing,-5.3683284457478,5.375,-1258.0,-232.0,-1725.0,-1640.0,0.0,0.0,
2.0407850000000005,5.625,0.0,852.0,0.0,0.0,0.0,0.0,0.0,3.861083589,0.0,0.0,-790.0,0.0,0.0,-0.0,0.0,0.0,1.887206838,0.0,0.0,509.0,0.0,0.0,0.0,0.0,0.0,4.892577624,0.0,0.0024414059999999793,-849.0,0.0,0.0,-0.0,0.0,0.0,2.939452824,0.0,-0.0012207029999999897,0.8999999761581421,0.09000000357627869,0.0,0.01788330078125,0.0277099609375,1.03515625,27.6200008392334,0.0,16.0,0.401031494140625,-0.4168243408203125,Closing,-5.32258064516129,5.375,-1534.0,-230.0,-1725.0,-1640.0,0.0,0.0,
2.060215,5.25,0.0,852.0,0.0,0.0,0.0,0.0,0.0,3.859862886,0.0,0.0,-790.0,0.0,0.0,-0.0,0.0,0.0,1.8884275410000002,0.0,0.0,509.0,0.0,0.0,0.0,0.0,0.0,4.882812,0.0,0.0024414059999999793,-849.0,0.0,0.0,-0.0,0.0,0.0,2.940673527,0.0,-0.0012207029999999897,0.9200000166893005,0.09000000357627869,0.0,0.0111083984375,0.01361083984375,1.02093505859375,27.6200008392334,0.0,9.0,0.4011077880859375,-0.4168243408203125,Closing,-5.429032258064516,5.625,-1534.0,-230.0,-1717.5,-1640.0,0.0,0.0,
2.081502,5.25,0.0,852.0,0.0,0.0,0.0,0.0,0.0,3.858642183,0.0,0.0,-790.0,0.0,0.0,-0.0,0.0,0.0,1.887206838,0.0,0.0,509.0,0.0,0.0,0.0,0.0,0.0,4.882812,0.0,0.0,-849.0,0.0,0.0,-0.0,0.0,0.0,2.940673527,0.0,0.0,0.9300000071525574,0.10000000149011612,0.009999999776482582,0.01239013671875,0.02691650390625,1.04180908203125,27.6200008392334,0.0,10.0,0.4013671875,-0.4168243408203125,Closing,-5.405376344086021,5.5,-1534.0,-230.0,-1717.5,-1640.0,0.0,0.0,
2.0998330000000003,5.25,0.0,852.0,0.0,0.0,0.0,0.0,0.0,3.85742148,0.0,-0.0012207029999999897,-790.0,0.0,0.0,-0.0,0.0,0.0,1.887206838,0.0,0.0,509.0,0.0,0.0,0.0,0.0,0.0,4.884032703,0.0,0.0,-849.0,0.0,0.0,-0.0,0.0,0.0,2.939452824,0.0,0.0,0.9399999976158142,0.09000000357627869,0.0,0.00274658203125,0.03826904296875,1.07696533203125,27.6200008392334,0.0,0.0,0.401519775390625,-0.41680908203125,Closing,-5.381720430107527,5.625,-1534.0,-230.0,-1717.5,-1640.0,0.0,0.0,
2.1209469999999997,6.0,0.0,852.0,0.0,0.0,0.0,0.0,0.0,3.85742148,0.0,-0.0012207029999999897,-790.0,0.0,0.0,-0.0,0.0,0.0,1.887206838,0.0,0.0,509.0,0.0,0.0,0.0,0.0,0.0,4.884032703,0.0,0.0,-849.0,0.0,0.0,-0.0,0.0,0.0,2.939452824,0.0,0.0,0.9599999785423279,0.09000000357627869,0.0,0.032958984375,0.01226806640625,1.05511474609375,27.6200008392334,0.0,31.0,0.4016876220703125,-0.416778564453125,Closing,-5.358064516129033,5.625,-1534.0,-230.0,-1717.5,-1640.0,0.0,0.0,
2.1408759999999996,6.0,0.0,852.0,0.0,0.0,0.0,0.0,0.0,3.85742148,0.0,0.0,-790.0,0.0,0.0,-0.0,0.0,0.0,1.887206838,0.0,0.0,509.0,0.0,0.0,0.0,0.0,0.0,4.884032703,0.0,0.0,-849.0,0.0,0.0,-0.0,0.0,0.0,2.940673527,0.0,0.0,0.9599999785423279,0.09000000357627869,0.0,0.03106689453125,0.023681640625,1.063720703125,27.6200008392334,0.0,29.0,0.4019012451171875,-0.416748046875,Closing,-5.476344086021506,5.625,-1534.0,-230.0,-1710.0,-1640.0,0.0,0.0,
2.1606699999999996,6.0,0.0,852.0,0.0,0.0,0.0,0.0,0.0,3.858642183,0.0,0.0,-790.0,0.0,0.0,-0.0,0.0,0.0,1.885986135,0.0,0.0,509.0,0.0,0.0,0.0,0.0,0.0,4.876708485,0.0,0.0,-849.0,0.0,0.0,-0.0,0.0,0.0,2.940673527,0.0,0.0,0.9900000095367432,0.10000000149011612,0.0,0.0137939453125,0.0186767578125,1.0523681640625,27.6200008392334,0.0,11.0,0.4021453857421875,-0.416748046875,Closing,-5.487096774193549,5.75,-1811.0,-228.0,-1710.0,-1640.0,0.0,0.0,
2.1829140000000002,6.0,0.0,852.0,0.0,0.0,0.0,0.0,0.0,3.858642183,0.0,0.0012207029999999897,-790.0,0.0,0.0,-0.0,0.0,0.0,1.887206838,0.0,0.0,509.0,0.0,0.0,0.0,0.0,0.0,4.884032703,0.0,-0.0012207030000004337,-849.0,0.0,0.0,-0.0,0.0,0.0,2.940673527,0.0,0.0,1.0,0.09000000357627869,0.0,0.02740478515625,0.02789306640625,1.0653076171875,27.6200008392334,0.0,25.0,0.4021759033203125,-0.416748046875,Closing,-5.451466275659825,5.875,-1811.0,-228.0,-1710.0,-1640.0,0.0,0.0,
2.20018,6.625,0.0,852.0,0.0,0.0,0.0,0.0,0.0,3.858642183,0.0,0.0012207029999999897,-790.0,0.0,0.0,-0.0,0.0,0.0,1.887206838,0.0,0.0,509.0,0.0,0.0,0.0,0.0,0.0,4.882812,0.0,-0.0012207030000004337,-849.0,0.0,0.0,-0.0,0.0,0.0,2.9296872,0.0,0.0,1.0099999904632568,0.09000000357627869,0.0,0.0164794921875,0.0194091796875,1.04644775390625,27.6200008392334,0.0,14.0,0.4022216796875,-0.416748046875,Closing,-5.439589442815249,5.75,-1811.0,-228.0,-1710.0,-1640.0,0.0,0.0,
2.220124,6.625,0.0,852.0,0.0,0.0,0.0,0.0,0.0,3.858642183,0.0,0.0012207029999999897,-790.0,0.0,0.0,-0.0,0.0,0.0,1.887206838,0.0,0.0,509.0,0.0,0.0,0.0,0.0,0.0,4.884032703,0.0,-0.0012207030000004337,-849.0,0.0,0.0,-0.0,0.0,0.0,2.940673527,0.0,0.0,1.0399999618530273,0.10000000149011612,0.0,0.0123291015625,0.03509521484375,1.02197265625,27.6200008392334,0.0,10.0,0.4022979736328125,-0.4166717529296875,Closing,-5.4158357771261,5.75,-1811.0,-228.0,-1710.0,-1640.0,0.0,0.0,
2.244729,6.625,0.0,852.0,0.0,0.0,0.0,0.0,0.0,3.859862886,0.0,0.0,-790.0,0.0,0.0,-0.0,0.0,0.0,1.887206838,0.0,0.0,509.0,0.0,0.0,0.0,0.0,0.0,4.884032703,0.0,0.0012207030000004337,-849.0,0.0,0.0,-0.0,0.0,0.0,2.939452824,0.0,0.0,1.0499999523162842,0.07999999821186066,0.0,0.01934814453125,0.02301025390625,1.0218505859375,27.6200008392334,0.0,17.0,0.4022979736328125,-0.4166107177734375,Closing,-5.392082111436951,5.625,-1811.0,-228.0,-1710.0,-1640.0,0.0,0.0,
2.262405,5.875,0.0,852.0,0.0,0.0,0.0,0.0,0.0,3.8403316380000003,0.0,0.0,-790.0,0.0,0.0,-0.0,0.0,0.0,1.887206838,0.0,0.0,509.0,0.0,0.0,0.0,0.0,0.0,4.884032703,0.0,0.0012207030000004337,-849.0,0.0,0.0,-0.0,0.0,0.0,2.940673527,0.0,0.0,1.059999942779541,0.09000000357627869,0.0,0.0296630859375,0.0142822265625,1.01861572265625,27.6200008392334,0.0,27.0,0.4023284912109375,-0.4166107177734375,Closing,-5.3683284457478,5.625,-1811.0,-228.0,-1710.0,-1640.0,0.0,0.0,
2.2825390000000003,5.875,0.0,852.0,0.0,0.0,0.0,0.0,0.0,3.858642183,0.0,0.0,-790.0,0.0,0.0,-0.0,0.0,0.0,1.8884275410000002,0.0,0.0,509.0,0.0,0.0,0.0,0.0,0.0,4.877929188,0.0,0.0,-849.0,0.0,0.0,-0.0,0.0,0.0,2.940673527,0.0,0.0,1.0800000429153442,0.10000000149011612,0.0,0.01904296875,0.03363037109375,0.98956298828125,27.6200008392334,0.0,17.0,0.4024658203125,-0.4166107177734375,Closing,-5.366568914956012,5.5,-2082.0,-228.0,-1710.0,-1640.0,0.0,0.0,
2.3010360000000003,5.875,0.0,852.0,0.0,0.0,0.0,0.0,0.0,3.858642183,0.0,-0.0012207029999999897,-790.0,0.0,0.0,-0.0,0.0,0.0,1.8896482440000002,0.0,0.0,509.0,0.0,0.0,0.0,0.0,0.0,4.884032703,0.0,0.0,-849.0,0.0,0.0,-0.0,0.0,0.0,2.938232121,0.0,0.0,1.090000033378601,0.09000000357627869,0.0,0.011962890625,0.014892578125,1.05499267578125,27.6200008392334,0.0,10.0,0.4024658203125,-0.4166107177734375,Closing,-5.485826001955035,5.75,-2082.0,-228.0,-1702.5,-1640.0,0.0,0.0,
2.32011,5.5,0.0,852.0,0.0,0.0,0.0,0.0,0.0,3.858642183,0.0,-0.0012207029999999897,-790.0,0.0,0.0,-0.0,0.0,0.0,1.8884275410000002,0.0,0.0,509.0,0.0,0.0,0.0,0.0,0.0,4.884032703,0.0,0.0,-849.0,0.0,0.0,-0.0,0.0,0.0,2.939452824,0.0,0.0,1.090000033378601,0.07999999821186066,0.0,0.0196533203125,0.039306640625,1.0096435546875,27.6200008392334,0.0,18.0,0.4024658203125,-0.4166107177734375,Closing,-5.46197458455523,5.75,-2082.0,-228.0,-1702.5,-1640.0,0.0,0.0,
2.3408870000000004,5.5,0.0,852.0,0.0,0.0,0.0,0.0,0.0,3.858642183,0.0,0.0,-790.0,0.0,0.0,-0.0,0.0,0.0,1.887206838,0.0,0.0,509.0,0.0,0.0,0.0,0.0,0.0,4.884032703,0.0,0.0,-849.0,0.0,0.0,-0.0,0.0,0.0,2.940673527,0.0,0.0,1.100000023841858,0.09000000357627869,0.0,0.02508544921875,0.02716064453125,1.04522705078125,27.6299991607666,0.0,23.0,0.4024810791015625,-0.4166107177734375,Closing,-5.4381231671554255,5.75,-2082.0,-228.0,-1702.5,-1640.0,0.0,0.0,
2.360813,5.5,0.0,852.0,0.0,0.0,0.0,0.0,0.0,3.859862886,0.0,0.0,-790.0,0.0,0.0,-0.0,0.0,0.0,1.887206838,0.0,0.0,509.0,0.0,0.0,0.0,0.0,0.0,4.882812,0.0,0.0,-849.0,0.0,0.0,-0.0,0.0,0.0,2.940673527,0.0,0.0,1.1100000143051147,0.09000000357627869,0.0,0.02325439453125,0.0091552734375,1.01123046875,27.6299991607666,0.0,21.0,0.4025421142578125,-0.4166107177734375,Closing,-5.4261974584555235,5.75,-2082.0,-228.0,-1702.5,-1640.0,0.0,0.0,
2.3805620000000003,6.25,0.0,852.0,0.0,0.0,0.0,0.0,0.0,3.858642183,0.0,0.0,-790.0,0.0,0.0,-0.0,0.0,0.0,1.887206838,0.0,0.0,509.0,0.0,0.0,0.0,0.0,0.0,4.882812,0.0,-0.0012207030000004337,-849.0,0.0,0.0,-0.0,0.0,0.0,2.940673527,0.0,0.0,1.100000023841858,0.09000000357627869,0.0,0.0032958984375,0.0274658203125,1.03692626953125,27.6299991607666,0.0,1.0,0.4026031494140625,-0.4166107177734375,Closing,-5.4023460410557185,5.625,-2082.0,-228.0,-1702.5,-1640.0,0.0,0.0,
2.3997940000000004,6.25,0.0,852.0,0.0,0.0,0.0,0.0,0.0,3.856200777,0.0,0.0,-790.0,0.0,0.0,-0.0,0.0,0.0,1.8884275410000002,0.0,0.0,509.0,0.0,0.0,0.0,0.0,0.0,4.884032703,0.0,-0.0012207030000004337,-849.0,0.0,0.0,-0.0,0.0,0.0,2.940673527,0.0,0.0,1.100000023841858,0.10000000149011612,0.0,0.02142333984375,0.00201416015625,1.02459716796875,27.6299991607666,0.0,19.0,0.4028167724609375,-0.4166107177734375,Closing,-5.4125122189638315,5.625,-2355.0,-227.0,-1702.5,-1640.0,0.0,0.0,
2.4208160000000003,6.25,0.0,852.0,0.0,0.0,0.0,0.0,0.0,3.85742148,0.0,0.0,-790.0,0.0,0.0,-0.0,0.0,0.0,1.887206838,0.0,0.0,509.0,0.0,0.0,0.0,0.0,0.0,4.882812,0.0,-0.0012207030000004337,-849.0,0.0,0.0,-0.0,0.0,0.0,2.939452824,0.0,0.0,1.0800000429153442,0.10000000149011612,0.0,0.01605224609375,0.0152587890625,0.97906494140625,27.6299991607666,0.0,14.0,0.4029541015625,-0.4166107177734375,Closing,-5.3885630498533725,5.625,-2355.0,-227.0,-1702.5,-1640.0,0.0,0.0,
2.44123,6.25,0.0,852.0,0.0,0.0,0.0,0.0,0.0,3.858642183,0.0,0.0012207029999999897,-790.0,0.0,0.0,-0.0,0.0,0.0,1.8884275410000002,0.0,0.0,509.0,0.0,0.0,0.0,0.0,0.0,4.884032703,0.0,0.0012207030000004337,-849.0,0.0,0.0,-0.0,0.0,0.0,2.940673527,0.0,0.0,1.0800000429153442,0.10999999940395355,0.009999999776482582,0.00628662109375,-0.0068359375,0.98431396484375,27.6299991607666,0.0,4.0,0.4029541015625,-0.4166259765625,Closing,-5.364613880742913,5.5,-2355.0,-227.0,-1702.5,-1640.0,0.0,0.0,
2.460498,6.0,0.0,852.0,0.0,0.0,0.0,0.0,0.0,3.858642183,0.0,0.0012207029999999897,-790.0,0.0,0.0,-0.0,0.0,0.0,1.887206838,0.0,0.0,509.0,0.0,0.0,0.0,0.0,0.0,4.880370594,0.0,0.0012207030000004337,-849.0,0.0,0.0,-0.0,0.0,0.0,2.940673527,0.0,0.0,1.0499999523162842,0.10000000149011612,0.009999999776482582,-0.0050048828125,-8.544921875E-4,1.030517578125,27.6299991607666,0.0,-6.0,0.4029541015625,-0.4167327880859375,Closing,-5.352639296187683,5.25,-2355.0,-227.0,-1702.5,-1640.0,0.0,0.0,
2.482935,6.0,0.0,852.0,0.0,0.0,0.0,0.0,0.0,3.858642183,0.0,0.0012207029999999897,-790.0,0.0,0.0,-0.0,0.0,0.0,1.887206838,0.0,0.0,509.0,0.0,0.0,0.0,0.0,0.0,4.884032703,0.0,0.0,-849.0,0.0,0.0,-0.0,0.0,0.0,2.939452824,0.0,0.0,1.0399999618530273,0.07999999821186066,0.009999999776482582,0.01544189453125,0.018798828125,1.05877685546875,27.6299991607666,0.0,13.0,0.4029541015625,-0.4167327880859375,Closing,-5.46041055718475,5.375,-2355.0,-227.0,-1695.0,-1640.0,0.0,0.0,
2.5018390000000004,6.0,0.0,852.0,0.0,0.0,0.0,0.0,0.0,3.859862886,0.0,0.0,-790.0,0.0,0.0,-0.0,0.0,0.0,1.887206838,0.0,0.0,509.0,0.0,0.0,0.0,0.0,0.0,4.882812,0.0,0.0,-849.0,0.0,0.0,-0.0,0.0,0.0,2.940673527,0.0,0.0,1.0399999618530273,0.09000000357627869,0.009999999776482582,0.0167236328125,0.0118408203125,1.05712890625,27.6299991607666,0.0,14.0,0.4029541015625,-0.4167327880859375,Closing,-5.448435972629521,5.5,-2355.0,-227.0,-1695.0,-1640.0,0.0,0.0,
2.5207059999999997,6.0,0.0,852.0,0.0,0.0,0.0,0.0,0.0,3.858642183,0.0,0.0,-790.0,0.0,0.0,-0.0,0.0,0.0,1.887206838,0.0,0.0,509.0,0.0,0.0,0.0,0.0,0.0,4.885253406,0.0,0.0,-849.0,0.0,0.0,-0.0,0.0,0.0,2.940673527,0.0,0.0,1.0199999809265137,0.10000000149011612,0.009999999776482582,0.025146484375,0.045166015625,1.0584716796875,27.6299991607666,0.0,23.0,0.403045654296875,-0.416717529296875,Closing,-5.392082111436951,5.625,-2629.0,-226.0,-1695.0,-1640.0,0.0,0.0,
2.5422909999999996,6.0,0.0,852.0,0.0,0.0,0.0,0.0,0.0,3.85742148,0.0,0.0,-790.0,0.0,0.0,-0.0,0.0,0.0,1.887206838,0.0,0.0,509.0,0.0,0.0,0.0,0.0,0.0,4.879149891,0.0,-0.003662109000000413,-849.0,0.0,0.0,-0.0,0.0,0.0,2.940673527,0.0,0.0,1.0299999713897705,0.10999999940395355,0.009999999776482582,0.01629638671875,0.027587890625,1.05841064453125,27.6299991607666,0.0,14.0,0.40313720703125,-0.4166717529296875,Closing,-5.3683284457478,5.625,-2629.0,-226.0,-1695.0,-1640.0,0.0,0.0,
2.5619029999999996,6.0,0.0,852.0,0.0,0.0,0.0,0.0,0.0,3.858642183,0.0,0.0,-790.0,0.0,0.0,-0.0,0.0,0.0,1.887206838,0.0,0.0,509.0,0.0,0.0,0.0,0.0,0.0,4.882812,0.0,-0.003662109000000413,-849.0,0.0,0.0,-0.0,0.0,0.0,2.939452824,0.0,0.0,1.0199999809265137,0.10999999940395355,0.009999999776482582,0.0230712890625,0.052734375,1.04791259765625,27.6299991607666,0.0,20.0,0.4032440185546875,-0.4166107177734375,Closing,-5.344574780058651,5.375,-2629.0,-226.0,-1695.0,-1640.0,0.0,0.0,
2.5812459999999997,5.25,0.0,852.0,0.0,0.0,0.0,0.0,0.0,3.85742148,0.0,0.0,-790.0,0.0,0.0,-0.0,0.0,0.0,1.887206838,0.0,0.0,509.0,0.0,0.0,0.0,0.0,0.0,4.885253406,0.0,0.003662109000000413,-849.0,0.0,0.0,-0.0,0.0,0.0,2.940673527,0.0,0.0,1.0199999809265137,0.11999999731779099,0.0,0.0184326171875,0.02008056640625,1.03912353515625,27.6299991607666,0.0,16.0,0.403533935546875,-0.4163970947265625,Closing,-5.3326979472140765,5.375,-2629.0,-226.0,-1695.0,-1640.0,0.0,0.0,
2.602028,5.25,0.0,852.0,0.0,0.0,0.0,0.0,0.0,3.85742148,0.0,0.0,-790.0,0.0,0.0,-0.0,0.0,0.0,1.887206838,0.0,0.0,509.0,0.0,0.0,0.0,0.0,0.0,4.876708485,0.0,0.003662109000000413,-849.0,0.0,0.0,-0.0,0.0,0.0,2.9516598540000003,0.0,0.0,1.0199999809265137,0.12999999523162842,0.0,0.00408935546875,0.020751953125,1.00274658203125,27.6299991607666,0.0,1.0,0.403533935546875,-0.4163970947265625,Closing,-5.439589442815249,5.375,-2629.0,-226.0,-1687.5,-1640.0,0.0,0.0,
2.6204110000000007,5.875,0.0,852.0,0.0,0.0,0.0,0.0,0.0,3.85742148,0.0,0.0,-790.0,0.0,0.0,-0.0,0.0,0.0,1.887206838,0.0,0.0,509.0,0.0,0.0,0.0,0.0,0.0,4.885253406,0.0,0.003662109000000413,-849.0,0.0,0.0,-0.0,0.0,0.0,2.939452824,0.0,0.0,1.0099999904632568,0.12999999523162842,0.0,0.016845703125,0.0274658203125,0.9921875,27.6299991607666,0.0,14.0,0.403533935546875,-0.4163970947265625,Closing,-5.439589442815249,5.5,-2629.0,-226.0,-1687.5,-1640.0,0.0,0.0,
2.6416389999999996,5.875,0.0,852.0,0.0,0.0,0.0,0.0,0.0,3.858642183,0.0,-0.0012207029999999897,-790.0,0.0,0.0,-0.0,0.0,0.0,1.8884275410000002,0.0,-0.0012207029999995456,509.0,0.0,0.0,0.0,0.0,0.0,4.884032703,0.0,-0.0024414059999999793,-849.0,0.0,0.0,-0.0,0.0,0.0,2.940673527,0.0,0.0,0.9900000095367432,0.11999999731779099,0.0,-0.03399658203125,0.0087890625,0.9737548828125,27.6299991607666,0.0,-36.0,0.4035186767578125,-0.4163970947265625,Closing,-5.4158357771261,5.75,-2898.0,-225.0,-1687.5,-1640.0,0.0,0.0,
2.6602360000000003,5.875,0.0,852.0,0.0,0.0,0.0,0.0,0.0,3.858642183,0.0,-0.0012207029999999897,-790.0,0.0,0.0,-0.0,0.0,0.0,1.887206838,0.0,-0.0012207029999995456,509.0,0.0,0.0,0.0,0.0,0.0,4.885253406,0.0,-0.0024414059999999793,-849.0,0.0,0.0,-0.0,0.0,0.0,2.940673527,0.0,0.0,0.9800000190734863,0.10999999940395355,0.0,-0.03228759765625,0.04083251953125,1.04949951171875,27.6299991607666,0.0,-34.0,0.4034576416015625,-0.4163818359375,Closing,-5.403958944281525,5.625,-2898.0,-225.0,-1687.5,-1640.0,0.0,0.0,
2.683752,5.875,0.0,852.0,0.0,0.0,0.0,0.0,0.0,3.858642183,0.0,-0.0012207029999999897,-790.0,0.0,0.0,-0.0,0.0,0.0,1.887206838,0.0,0.0012207029999995456,509.0,0.0,0.0,0.0,0.0,0.0,4.885253406,0.0,0.0024414059999999793,-849.0,0.0,0.0,-0.0,0.0,0.0,2.9504391510000003,0.0,0.0,0.9700000286102295,0.09000000357627869,0.0,-0.0140380859375,0.0296630859375,1.04681396484375,27.6299991607666,0.0,-15.0,0.4033660888671875,-0.416351318359375,Closing,-5.380205278592375,5.625,-2898.0,-225.0,-1687.5,-1640.0,0.0,0.0,
2.701823,6.375,0.0,852.0,0.0,0.0,0.0,0.0,0.0,3.859862886,0.0,0.0,-790.0,0.0,0.0,-0.0,0.0,0.0,1.8884275410000002,0.0,0.0012207029999995456,509.0,0.0,0.0,0.0,0.0,0.0,4.882812,0.0,0.0024414059999999793,-849.0,0.0,0.0,-0.0,0.0,0.0,2.939452824,0.0,0.0,0.9700000286102295,0.07999999821186066,0.0,0.01031494140625,0.00469970703125,1.03997802734375,27.6299991607666,0.0,8.0,0.4033660888671875,-0.41632080078125,Closing,-5.3683284457478,5.625,-2898.0,-225.0,-1687.5,-1640.0,0.0,0.0,
2.7201070000000005,6.375,0.0,852.0,0.0,0.0,0.0,0.0,0.0,3.858642183,0.0,0.0,-790.0,0.0,0.0,-0.0,0.0,0.0,1.887206838,0.0,0.0012207029999995456,509.0,0.0,0.0,0.0,0.0,0.0,4.882812,0.0,0.0024414059999999793,-849.0,0.0,0.0,-0.0,0.0,0.0,2.940673527,0.0,0.0,0.9900000095367432,0.07000000029802322,0.0,0.010009765625,0.05450439453125,1.00738525390625,27.6299991607666,0.0,8.0,0.4033660888671875,-0.4161834716796875,Closing,-5.356451612903227,5.5,-2898.0,-225.0,-1687.5,-1640.0,0.0,0.0,
2.742239,6.375,0.0,852.0,0.0,0.0,0.0,0.0,0.0,3.85742148,0.0,0.0012207029999999897,-790.0,0.0,0.0,-0.0,0.0,0.0,1.8884275410000002,0.0,0.0,509.0,0.0,0.0,0.0,0.0,0.0,4.882812,0.0,-0.0012207030000004337,-849.0,0.0,0.0,-0.0,0.0,0.0,2.939452824,0.0,0.0,0.9900000095367432,0.07999999821186066,0.0,0.00360107421875,0.0467529296875,0.9698486328125,27.6299991607666,0.0,2.0,0.4033660888671875,-0.416046142578125,Closing,-5.344574780058651,5.5,-2898.0,-225.0,-1687.5,-1640.0,0.0,0.0,
2.7614259999999997,6.375,0.0,852.0,0.0,0.0,0.0,0.0,0.0,3.858642183,0.0,0.0012207029999999897,-790.0,0.0,0.0,-0.0,0.0,0.0,1.887206838,0.0,0.0,509.0,0.0,0.0,0.0,0.0,0.0,4.879149891,0.0,-0.0012207030000004337,-849.0,0.0,0.0,-0.0,0.0,0.0,2.940673527,0.0,0.0,1.0,0.07999999821186066,0.0,-0.00933837890625,0.02996826171875,0.98974609375,27.6299991607666,0.0,-10.0,0.4033660888671875,-0.4158782958984375,Closing,-5.3326979472140765,5.625,-3167.0,-225.0,-1680.0,-1640.0,0.0,0.0,
2.78033,6.0,0.0,852.0,0.0,0.0,0.0,0.0,0.0,3.858642183,0.0,0.0012207029999999897,-790.0,0.0,0.0,-0.0,0.0,0.0,1.887206838,0.0,0.0,509.0,0.0,0.0,0.0,0.0,0.0,4.884032703,0.0,-0.0012207029999995456,-849.0,0.0,0.0,-0.0,0.0,0.0,2.939452824,0.0,0.0,1.0099999904632568,0.07999999821186066,0.009999999776482582,0.02105712890625,0.01971435546875,0.97406005859375,27.6299991607666,0.0,19.0,0.4033660888671875,-0.4156951904296875,Closing,-5.439589442815249,5.75,-3167.0,-225.0,-1680.0,-1640.0,0.0,0.0,
2.801088,6.0,0.0,852.0,0.0,0.0,0.0,0.0,0.0,3.858642183,0.0,0.0,-790.0,0.0,0.0,-0.0,0.0,0.0,1.887206838,0.0,0.0,509.0,0.0,0.0,0.0,0.0,0.0,4.884032703,0.0,-0.0012207029999995456,-849.0,0.0,0.0,-0.0,0.0,0.0,2.940673527,0.0,0.0,1.0,0.09000000357627869,0.0,-0.00238037109375,-0.00537109375,1.01361083984375,27.6299991607666,0.0,-4.0,0.4033660888671875,-0.41571044921875,Closing,-5.4277126099706745,5.75,-3167.0,-225.0,-1680.0,-1640.0,0.0,0.0,
2.8204670000000003,5.625,0.0,852.0,0.0,0.0,0.0,0.0,0.0,3.859862886,0.0,0.0,-790.0,0.0,0.0,-0.0,0.0,0.0,1.887206838,0.0,0.0,509.0,0.0,0.0,0.0,0.0,0.0,4.879149891,0.0,-0.0012207029999995456,-849.0,0.0,0.0,-0.0,0.0,0.0,2.94189423,0.0,0.0,0.9900000095367432,0.09000000357627869,0.009999999776482582,-0.0064697265625,0.00579833984375,1.016845703125,27.6299991607666,0.0,-8.0,0.4033660888671875,-0.4157562255859375,Closing,-5.4158357771261,5.75,-3167.0,-225.0,-1680.0,-1640.0,0.0,0.0,
2.8420310000000004,5.625,0.0,852.0,0.0,0.0,0.0,0.0,0.0,3.858642183,0.0,0.0,-790.0,0.0,0.0,-0.0,0.0,0.0,1.8884275410000002,0.0,0.0,509.0,0.0,0.0,0.0,0.0,0.0,4.882812,0.0,0.0024414059999999793,-849.0,0.0,0.0,-0.0,0.0,0.0,2.939452824,0.0,0.0,0.9800000190734863,0.09000000357627869,0.009999999776482582,0.01715087890625,0.0308837890625,1.109619140625,27.6299991607666,0.0,15.0,0.4033660888671875,-0.4158935546875,Closing,-5.403958944281525,5.875,-3167.0,-225.0,-1680.0,-1640.0,0.0,0.0,
2.8616870000000003,5.625,0.0,852.0,0.0,0.0,0.0,0.0,0.0,3.858642183,0.0,0.0,-790.0,0.0,0.0,-0.0,0.0,0.0,1.8884275410000002,0.0,0.0,509.0,0.0,0.0,0.0,0.0,0.0,4.882812,0.0,0.0024414059999999793,-849.0,0.0,0.0,-0.0,0.0,0.0,2.940673527,0.0,0.0,0.9800000190734863,0.10000000149011612,0.009999999776482582,0.00238037109375,0.02691650390625,1.0181884765625,27.639999389648438,0.0,0.0,0.4033660888671875,-0.4159393310546875,Closing,-5.392082111436951,5.625,-3167.0,-225.0,-1680.0,-1640.0,0.0,0.0,
2.8805850000000004,5.625,0.0,852.0,0.0,0.0,0.0,0.0,0.0,3.858642183,0.0,0.0,-790.0,0.0,0.0,-0.0,0.0,0.0,1.887206838,0.0,0.0,509.0,0.0,0.0,0.0,0.0,0.0,4.879149891,0.0,0.0,-849.0,0.0,0.0,-0.0,0.0,0.0,2.940673527,0.0,0.0,0.9800000190734863,0.10000000149011612,0.009999999776482582,-0.011962890625,0.00445556640625,0.94268798828125,27.639999389648438,0.0,-13.0,0.4033660888671875,-0.4161224365234375,Closing,-5.4023460410557185,5.625,-3437.0,-224.0,-1680.0,-1640.0,0.0,0.0,
2.900733,6.0,0.0,852.0,0.0,0.0,0.0,0.0,0.0,3.8513179650000002,0.0,0.0,-790.0,0.0,0.0,-0.0,0.0,0.0,1.887206838,0.0,0.0,509.0,0.0,0.0,0.0,0.0,0.0,4.884032703,0.0,0.0,-849.0,0.0,0.0,-0.0,0.0,0.0,2.940673527,0.0,0.0,0.9800000190734863,0.10999999940395355,0.009999999776482582,-0.0142822265625,-0.001708984375,0.98016357421875,27.639999389648438,0.0,-16.0,0.4033660888671875,-0.4162445068359375,Closing,-5.390420332355816,5.625,-3437.0,-224.0,-1680.0,-1640.0,0.0,0.0,
2.921168,6.0,0.0,852.0,0.0,0.0,0.0,0.0,0.0,3.858642183,0.0,0.0,-790.0,0.0,0.0,-0.0,0.0,0.0,1.887206838,0.0,0.0,509.0,0.0,0.0,0.0,0.0,0.0,4.886474109,0.0,0.0,-849.0,0.0,0.0,-0.0,0.0,0.0,2.940673527,0.0,0.0,0.9700000286102295,0.10000000149011612,0.009999999776482582,-0.01910400390625,-0.0194091796875,1.00531005859375,27.639999389648438,0.0,-20.0,0.4033355712890625,-0.4163970947265625,Closing,-5.378494623655914,5.5,-3437.0,-224.0,-1680.0,-1640.0,0.0,0.0,
2.942158,6.0,0.0,852.0,0.0,0.0,0.0,0.0,0.0,3.859862886,0.0,-0.0012207029999999897,-790.0,0.0,0.0,-0.0,0.0,0.0,1.887206838,0.0,0.0,509.0,0.0,0.0,0.0,0.0,0.0,4.882812,0.0,0.0,-849.0,0.0,0.0,-0.0,0.0,0.0,2.940673527,0.0,0.0,0.9599999785423279,0.09000000357627869,0.009999999776482582,-0.04058837890625,-0.0076904296875,0.96478271484375,27.639999389648438,0.0,-42.0,0.4032745361328125,-0.416595458984375,Closing,-5.354643206256109,5.5,-3437.0,-224.0,-1680.0,-1640.0,0.0,0.0,
2.960351,6.0,0.0,852.0,0.0,0.0,0.0,0.0,0.0,3.858642183,0.0,-0.0012207029999999897,-790.0,0.0,0.0,-0.0,0.0,0.0,1.887206838,0.0,0.0,509.0,0.0,0.0,0.0,0.0,0.0,4.884032703,0.0,0.0,-849.0,0.0,0.0,-0.0,0.0,0.0,2.940673527,0.0,0.0,0.949999988079071,0.07000000029802322,0.009999999776482582,-0.0357666015625,0.03436279296875,1.02410888671875,27.639999389648438,0.0,-37.0,0.4029998779296875,-0.4168243408203125,Closing,-5.354643206256109,5.5,-3437.0,-224.0,-1680.0,-1640.0,0.0,0.0,
2.9828120000000005,6.0,0.0,852.0,0.0,0.0,0.0,0.0,0.0,3.85742148,0.0,-0.0012207029999999897,-790.0,0.0,0.0,-0.0,0.0,0.0,1.887206838,0.0,0.0,509.0,0.0,0.0,0.0,0.0,0.0,4.882812,0.0,0.0,-849.0,0.0,0.0,-0.0,0.0,0.0,2.940673527,0.0,0.0,0.9599999785423279,0.05999999865889549,0.009999999776482582,-0.02630615234375,0.00408935546875,1.03570556640625,27.639999389648438,0.0,-27.0,0.4027862548828125,-0.4168243408203125,Closing,-5.485826001955035,6.25,-3437.0,-224.0,-1672.5,-1640.0,0.0,0.0,
3.001891,6.0,0.0,852.0,0.0,0.0,0.0,0.0,0.0,3.858642183,0.0,0.0,-790.0,0.0,0.0,-0.0,0.0,0.0,1.8884275410000002,0.0,0.0,509.0,0.0,0.0,0.0,0.0,0.0,4.884032703,0.0,0.0,-849.0,0.0,0.0,-0.0,0.0,0.0,2.940673527,0.0,0.0,0.9700000286102295,0.05999999865889549,0.009999999776482582,-0.01416015625,0.031494140625,0.9642333984375,27.639999389648438,0.0,-15.0,0.402557373046875,-0.4168243408203125,Closing,-5.473900293255132,5.875,-3705.0,-223.0,-1672.5,-1640.0,0.0,0.0,
3.020863,6.375,0.0,852.0,0.0,0.0,0.0,0.0,0.0,3.858642183,0.0,0.0,-790.0,0.0,0.0,-0.0,0.0,0.0,1.8884275410000002,0.0,0.0,509.0,0.0,0.0,0.0,0.0,0.0,4.879149891,0.0,0.0,-849.0,0.0,0.0,-0.0,0.0,0.0,2.940673527,0.0,0.0,0.9700000286102295,0.05999999865889549,0.009999999776482582,0.00390625,-0.00494384765625,0.9635009765625,27.639999389648438,0.0,2.0,0.4020233154296875,-0.416839599609375,Closing,-5.46197458455523,6.0,-3705.0,-223.0,-1672.5,-1640.0,0.0,0.0,
