Time,ClimberA1,ClimberA2,FRpos,FRCurrent,FRspeed,FRsetpoint,FRApos,FRACurrent,FREncpos,FREncSetpoint,FREncSpeed,FLpos,FLCurrent,FLspeed,FLsetpoint,FLApos,FLACurrent,FLEncpos,FLEncSetpoint,FLEncSpeed,BRpos,BRCurrent,BRspeed,BRsetpoint,BRApos,BRACurrent,BREncpos,BREncSetpoint,BREncSpeed,BLpos,BLCurrent,BLspeed,BLsetpoint,BLApos,BLACurrent,BLEncpos,BLEncSetpoint,BLEncSpeed,navx_Pitch,navx_Roll,navx_Yaw,navx_XAcc,navx_YAcc,navx_ZAcc,navx_Temp,navx_Bar,navx_Alt,navx_XDis,navx_YDis,GearPlacerState,ShootOutputV,ShootOutputCurrent,ShootEncPos,ShootEncVelocity,ShootSpeed,ShootSetpoint,CarouselSetpoint,CarouselCurrent,
0.19457900000000064,0.0,0.0,0.0,0.0,0.0,0.0,0.0,0.0,3.757323834,0.01,0.0,0.0,0.0,0.0,0.0,0.0,0.0,1.927490037,0.01,0.0,0.0,0.0,0.0,0.0,0.0,0.0,4.8681635640000005,0.01,0.0,0.0,0.0,0.0,0.0,0.0,0.0,2.882079783,0.01,0.0,83.91999816894531,1.6299999952316284,-1.4199999570846558,0.02728271484375,1.01348876953125,0.099609375,27.200000762939453,0.0,-1.0,-1.52587890625E-4,1.52587890625E-4,Waiting,0.0,0.0,0.0,0.0,0.0,0.0,0.0,0.0,
0.24496200000000046,0.0,0.0,0.0,0.0,0.0,0.0,0.0,0.0,3.756103131,0.0,4.940103131000001,0.0,0.0,0.0,-0.0,0.0,0.0,1.926269334,0.0,0.004048630999999858,0.0,0.0,0.0,0.0,0.0,0.0,4.866942861,0.0,4.9321635640000006,0.0,0.0,0.0,-0.0,0.0,0.0,2.882079783,0.0,0.0120797829999999,83.9000015258789,1.6299999952316284,-1.4199999570846558,0.03094482421875,1.01123046875,0.10137939453125,27.200000762939453,0.0,1.0,-1.52587890625E-4,1.52587890625E-4,Closing,0.0,0.0,0.0,0.0,0.0,0.0,0.0,0.0,
0.26852599999999893,0.0,0.0,0.0,0.0,0.0,0.0,0.0,0.0,3.758544537,0.0,4.940103131000001,0.0,0.0,0.0,-0.0,0.0,0.0,1.926269334,0.0,0.004048630999999858,0.0,0.0,0.0,0.0,0.0,0.0,4.8681635640000005,0.0,4.9321635640000006,0.0,0.0,0.0,-0.0,0.0,0.0,2.883300486,0.0,0.0,83.88999938964844,1.6299999952316284,-1.4199999570846558,0.0338134765625,1.0118408203125,0.1015625,27.200000762939453,0.0,4.0,-1.52587890625E-4,1.52587890625E-4,Closing,0.0,0.0,0.0,0.0,0.0,0.0,0.0,0.0,
0.30510899999999946,0.0,0.0,0.0,0.0,0.0,0.0,0.0,0.0,3.756103131,0.0,0.0,0.0,0.0,0.0,-0.0,0.0,0.0,1.926269334,0.0,0.0012207029999995456,0.0,0.0,0.0,0.0,0.0,0.0,4.8681635640000005,0.0,0.0,0.0,0.0,0.0,-0.0,0.0,0.0,2.882079783,0.0,0.0,83.87999725341797,1.6399999856948853,-1.4299999475479126,0.03070068359375,1.012939453125,0.0992431640625,27.200000762939453,0.0,1.0,-1.52587890625E-4,1.52587890625E-4,Closing,0.0,0.0,0.0,0.0,0.0,0.0,0.0,0.0,
0.3313110000000006,0.0,0.0,0.0,0.0,0.0,0.0,0.0,0.0,3.757323834,0.0,0.0,0.0,0.0,0.0,-0.0,0.0,0.0,1.926269334,0.0,0.0,0.0,0.0,0.0,0.0,0.0,0.0,4.8681635640000005,0.0,0.0,0.0,0.0,0.0,-0.0,0.0,0.0,2.883300486,0.0,0.0,83.87999725341797,1.6399999856948853,-1.4299999475479126,0.02685546875,1.01226806640625,0.10186767578125,27.200000762939453,0.0,-2.0,-1.52587890625E-4,1.52587890625E-4,Closing,0.0,0.0,0.0,0.0,0.0,0.0,0.0,0.0,
0.3615140000000001,0.0,0.0,0.0,0.0,0.0,0.0,0.0,0.0,3.757323834,0.0,0.0,0.0,0.0,0.0,-0.0,0.0,0.0,1.926269334,0.0,0.0,0.0,0.0,0.0,0.0,0.0,0.0,4.866942861,0.0,0.0,0.0,0.0,0.0,-0.0,0.0,0.0,2.883300486,0.0,0.0,83.88999938964844,1.6399999856948853,-1.4299999475479126,0.026123046875,1.00823974609375,0.10015869140625,27.229999542236328,0.0,-2.0,-1.52587890625E-4,1.52587890625E-4,Closing,0.0,0.0,0.0,0.0,0.0,0.0,0.0,0.0,
0.3900279999999993,0.0,0.0,0.0,0.0,0.0,0.0,0.0,0.0,3.756103131,0.0,0.0,0.0,0.0,0.0,-0.0,0.0,0.0,1.926269334,0.0,-0.0012207029999995456,0.0,0.0,0.0,0.0,0.0,0.0,4.8681635640000005,0.0,-0.0012207030000004337,0.0,0.0,0.0,-0.0,0.0,0.0,2.882079783,0.0,0.0,83.9000015258789,1.6299999952316284,-1.4199999570846558,0.02978515625,1.0107421875,0.10394287109375,27.229999542236328,0.0,0.0,-1.52587890625E-4,1.52587890625E-4,Closing,0.0,0.0,0.0,0.0,0.0,0.0,0.0,0.0,
0.4287529999999997,0.0,0.0,0.0,0.0,0.0,0.0,0.0,0.0,3.757323834,0.0,0.0,0.0,0.0,0.0,-0.0,0.0,0.0,1.926269334,0.0,0.0012207029999995456,0.0,0.0,0.0,0.0,0.0,0.0,4.8681635640000005,0.0,0.0012207030000004337,0.0,0.0,0.0,-0.0,0.0,0.0,2.883300486,0.0,0.0,83.93000030517578,1.6299999952316284,-1.4199999570846558,0.02655029296875,1.00946044921875,0.10125732421875,27.229999542236328,0.0,-2.0,-1.52587890625E-4,1.52587890625E-4,Closing,0.0,0.0,0.0,0.0,0.0,0.0,0.0,0.0,
0.465570999999999,0.0,0.0,0.0,0.0,0.0,0.0,0.0,0.0,3.756103131,0.0,0.0,0.0,0.0,0.0,-0.0,0.0,0.0,1.927490037,0.0,0.0012207029999995456,0.0,0.0,0.0,0.0,0.0,0.0,4.8681635640000005,0.0,0.0012207030000004337,0.0,0.0,0.0,-0.0,0.0,0.0,2.882079783,0.0,0.0,83.95999908447266,1.6299999952316284,-1.4199999570846558,0.03466796875,1.0093994140625,0.11004638671875,27.229999542236328,0.0,5.0,-1.52587890625E-4,1.52587890625E-4,Closing,0.0,0.0,0.0,0.0,0.0,0.0,0.0,0.0,
0.4905639999999994,0.0,0.0,0.0,0.0,0.0,0.0,0.0,0.0,3.757323834,0.0,0.0,0.0,0.0,0.0,-0.0,0.0,0.0,1.926269334,0.0,-0.0012207029999995456,0.0,0.0,0.0,0.0,0.0,0.0,4.8681635640000005,0.0,0.0,0.0,0.0,0.0,-0.0,0.0,0.0,2.882079783,0.0,0.0,83.95999908447266,1.6299999952316284,-1.4299999475479126,0.03607177734375,1.00994873046875,0.106201171875,27.229999542236328,0.0,6.0,-1.52587890625E-4,1.52587890625E-4,Closing,0.0,0.0,0.0,0.0,0.0,0.0,0.0,0.0,
0.5136240000000007,0.0,0.0,0.0,0.0,0.0,0.0,0.0,0.0,3.757323834,0.0,0.0,0.0,0.0,0.0,-0.0,0.0,0.0,1.926269334,0.0,-0.0012207029999995456,0.0,0.0,0.0,0.0,0.0,0.0,4.866942861,0.0,0.0,0.0,0.0,0.0,-0.0,0.0,0.0,2.882079783,0.0,0.0,83.97000122070312,1.6399999856948853,-1.4299999475479126,0.0325927734375,1.01287841796875,0.10540771484375,27.229999542236328,0.0,3.0,-1.52587890625E-4,1.52587890625E-4,Closing,0.0,0.0,0.0,0.0,0.0,0.0,0.0,0.0,
0.5418849999999993,0.0,0.0,0.0,0.0,0.0,0.0,0.0,0.0,3.757323834,0.0,0.0,0.0,0.0,0.0,-0.0,0.0,0.0,1.9250486310000001,0.0,0.0,0.0,0.0,0.0,0.0,0.0,0.0,4.866942861,0.0,-0.0012207030000004337,0.0,0.0,0.0,-0.0,0.0,0.0,2.882079783,0.0,0.0,83.9800033569336,1.6399999856948853,-1.440000057220459,0.0345458984375,1.01226806640625,0.09954833984375,27.229999542236328,0.0,5.0,-1.52587890625E-4,1.52587890625E-4,Closing,0.0,0.0,0.0,0.0,0.0,0.0,0.0,0.0,
0.5673200000000006,0.0,0.0,0.0,0.0,0.0,0.0,0.0,0.0,3.757323834,0.0,0.0,0.0,0.0,0.0,-0.0,0.0,0.0,1.926269334,0.0,0.0,0.0,0.0,0.0,0.0,0.0,0.0,4.8681635640000005,0.0,-0.0012207030000004337,0.0,0.0,0.0,-0.0,0.0,0.0,2.882079783,0.0,0.0,83.9800033569336,1.6399999856948853,-1.440000057220459,0.0325927734375,1.01605224609375,0.1094970703125,27.229999542236328,0.0,2.0,-1.52587890625E-4,1.52587890625E-4,Closing,0.0,0.0,0.0,0.0,0.0,0.0,0.0,0.0,
0.5911220000000003,0.0,0.0,0.0,0.0,0.0,0.0,0.0,0.0,3.757323834,0.0,0.0012207029999995456,0.0,0.0,0.0,-0.0,0.0,0.0,1.927490037,0.0,0.0,0.0,0.0,0.0,0.0,0.0,0.0,4.8681635640000005,0.0,0.0,0.0,0.0,0.0,-0.0,0.0,0.0,2.882079783,0.0,0.0,83.95999908447266,1.6399999856948853,-1.4299999475479126,0.0186767578125,1.0067138671875,0.1026611328125,27.229999542236328,0.0,-10.0,-1.52587890625E-4,1.52587890625E-4,Closing,0.0,0.0,0.0,0.0,0.0,0.0,0.0,0.0,
0.621293999999999,0.0,0.0,0.0,0.0,0.0,0.0,0.0,0.0,3.756103131,0.0,0.0012207029999995456,0.0,0.0,0.0,-0.0,0.0,0.0,1.926269334,0.0,0.0,0.0,0.0,0.0,0.0,0.0,0.0,4.8681635640000005,0.0,0.0,0.0,0.0,0.0,-0.0,0.0,0.0,2.882079783,0.0,0.0,83.95999908447266,1.6299999952316284,-1.4199999570846558,0.026611328125,1.0120849609375,0.10198974609375,27.229999542236328,0.0,-2.0,-1.52587890625E-4,1.52587890625E-4,Closing,0.0,0.0,0.0,0.0,0.0,0.0,0.0,0.0,
0.6510929999999998,0.0,0.0,0.0,0.0,0.0,0.0,0.0,0.0,3.757323834,0.0,-0.0012207029999995456,0.0,0.0,0.0,-0.0,0.0,0.0,1.926269334,0.0,0.0,0.0,0.0,0.0,0.0,0.0,0.0,4.866942861,0.0,0.0,0.0,0.0,0.0,-0.0,0.0,0.0,2.882079783,0.0,0.0,83.94000244140625,1.6299999952316284,-1.4199999570846558,0.03076171875,1.0140380859375,0.10626220703125,27.229999542236328,0.0,1.0,-1.52587890625E-4,1.52587890625E-4,Closing,0.0,0.0,0.0,0.0,0.0,0.0,0.0,0.0,
0.6730749999999999,0.0,0.0,0.0,0.0,0.0,0.0,0.0,0.0,3.756103131,0.0,-0.0012207029999995456,0.0,0.0,0.0,-0.0,0.0,0.0,1.926269334,0.0,0.0,0.0,0.0,0.0,0.0,0.0,0.0,4.8681635640000005,0.0,0.0,0.0,0.0,0.0,-0.0,0.0,0.0,2.883300486,0.0,0.0,83.91000366210938,1.6299999952316284,-1.4199999570846558,0.02606201171875,1.0093994140625,0.09783935546875,27.229999542236328,0.0,-2.0,-1.52587890625E-4,1.52587890625E-4,Closing,0.0,0.0,0.0,0.0,0.0,0.0,0.0,0.0,
0.7050160000000005,0.0,0.0,0.0,0.0,0.0,0.0,0.0,0.0,3.756103131,0.0,0.0,0.0,0.0,0.0,-0.0,0.0,0.0,1.926269334,0.0,0.0012207029999995456,0.0,0.0,0.0,0.0,0.0,0.0,4.866942861,0.0,0.0,0.0,0.0,0.0,-0.0,0.0,0.0,2.882079783,0.0,0.0,83.9000015258789,1.6299999952316284,-1.4199999570846558,0.03472900390625,1.00897216796875,0.1064453125,27.229999542236328,0.0,5.0,-1.52587890625E-4,1.52587890625E-4,Closing,0.0,0.0,0.0,0.0,0.0,0.0,0.0,0.0,
0.7282210000000005,0.0,0.0,0.0,0.0,0.0,0.0,0.0,0.0,3.757323834,0.0,0.0,0.0,0.0,0.0,-0.0,0.0,0.0,1.926269334,0.0,0.0012207029999995456,0.0,0.0,0.0,0.0,0.0,0.0,4.866942861,0.0,0.0,0.0,0.0,0.0,-0.0,0.0,0.0,2.882079783,0.0,0.0,83.88999938964844,1.6399999856948853,-1.4299999475479126,0.03826904296875,1.012451171875,0.1085205078125,27.229999542236328,0.0,8.0,-1.52587890625E-4,1.52587890625E-4,Closing,0.0,0.0,0.0,0.0,0.0,0.0,0.0,0.0,
0.762129,0.0,0.0,0.0,0.0,0.0,0.0,0.0,0.0,3.757323834,0.0,0.0,0.0,0.0,0.0,-0.0,0.0,0.0,1.926269334,0.0,0.0,0.0,0.0,0.0,0.0,0.0,0.0,4.866942861,0.0,0.0012207030000004337,0.0,0.0,0.0,-0.0,0.0,0.0,2.882079783,0.0,0.0,83.87000274658203,1.649999976158142,-1.440000057220459,0.02142333984375,1.0079345703125,0.10406494140625,27.229999542236328,0.0,-7.0,-1.52587890625E-4,1.52587890625E-4,Closing,0.0,0.0,0.0,0.0,0.0,0.0,0.0,0.0,
0.8196989999999996,0.0,0.0,0.0,0.0,0.0,0.0,0.0,0.0,3.757323834,0.0,0.0,0.0,0.0,0.0,-0.0,0.0,0.0,1.926269334,0.0,0.0,0.0,0.0,0.0,0.0,0.0,0.0,4.8681635640000005,0.0,0.0,0.0,0.0,0.0,-0.0,0.0,0.0,2.883300486,0.0,0.0,83.88999938964844,1.6299999952316284,-1.4199999570846558,0.02423095703125,1.00787353515625,0.10260009765625,27.229999542236328,0.0,-4.0,-1.52587890625E-4,1.52587890625E-4,Closing,0.0,0.0,0.0,0.0,0.0,0.0,0.0,0.0,
0.9208779999999998,0.0,0.0,0.0,0.0,0.0,0.0,0.0,0.0,3.757323834,0.0,0.0,0.0,0.0,0.0,-0.0,0.0,0.0,1.926269334,0.0,0.0,0.0,0.0,0.0,0.0,0.0,0.0,4.866942861,0.0,0.0,0.0,0.0,0.0,-0.0,0.0,0.0,2.882079783,0.0,0.0,83.94000244140625,1.6399999856948853,-1.4299999475479126,0.03179931640625,1.01446533203125,0.10516357421875,27.229999542236328,0.0,1.0,-1.52587890625E-4,1.52587890625E-4,Closing,0.0,0.0,0.0,0.0,0.0,0.0,0.0,0.0,
1.013746,0.0,0.0,0.0,0.0,0.0,0.0,0.0,0.0,3.757323834,0.0,0.0,0.0,0.0,0.0,-0.0,0.0,0.0,1.926269334,0.0,0.0,0.0,0.0,0.0,0.0,0.0,0.0,4.866942861,0.0,0.0,0.0,0.0,0.0,-0.0,0.0,0.0,2.883300486,0.0,0.0,83.94999694824219,1.6299999952316284,-1.4299999475479126,0.03460693359375,1.01165771484375,0.10772705078125,27.229999542236328,0.0,5.0,-1.52587890625E-4,1.52587890625E-4,Closing,0.0,0.0,0.0,0.0,0.0,0.0,0.0,0.0,
1.065490999999999,0.0,0.0,0.0,0.0,0.0,0.0,0.0,0.0,3.757323834,0.0,0.0,0.0,0.0,0.0,-0.0,0.0,0.0,1.926269334,0.0,0.0,0.0,0.0,0.0,0.0,0.0,0.0,4.8681635640000005,0.0,0.0,0.0,0.0,0.0,-0.0,0.0,0.0,2.882079783,0.0,0.0,83.93000030517578,1.6399999856948853,-1.4299999475479126,0.03076171875,1.00787353515625,0.1063232421875,27.229999542236328,0.0,1.0,-1.52587890625E-4,1.52587890625E-4,Closing,0.0,0.0,0.0,0.0,0.0,0.0,0.0,0.0,
1.113901999999999,0.0,0.0,0.0,0.0,0.0,0.0,0.0,0.0,3.757323834,0.0,0.0,0.0,0.0,0.0,-0.0,0.0,0.0,1.926269334,0.0,0.0,0.0,0.0,0.0,0.0,0.0,0.0,4.8681635640000005,0.0,0.0,0.0,0.0,0.0,-0.0,0.0,0.0,2.882079783,0.0,0.0,83.91999816894531,1.6399999856948853,-1.440000057220459,0.03265380859375,1.00994873046875,0.10076904296875,27.229999542236328,0.0,3.0,-1.52587890625E-4,1.52587890625E-4,Closing,0.0,0.0,0.0,0.0,0.0,0.0,0.0,0.0,
1.171505,0.0,0.0,0.0,0.0,0.0,0.0,0.0,0.0,3.757323834,0.0,0.0012207029999995456,0.0,0.0,0.0,-0.0,0.0,0.0,1.926269334,0.0,0.0012207029999995456,0.0,0.0,0.0,0.0,0.0,0.0,4.8681635640000005,0.0,0.0,0.0,0.0,0.0,-0.0,0.0,0.0,2.882079783,0.0,0.0,83.91999816894531,1.6399999856948853,-1.4299999475479126,0.0277099609375,1.0120849609375,0.10284423828125,27.229999542236328,0.0,-1.0,-1.52587890625E-4,1.52587890625E-4,Closing,0.0,0.0,0.0,0.0,0.0,0.0,0.0,0.0,
1.211802999999999,0.0,0.0,0.0,0.0,0.0,0.0,0.0,0.0,3.756103131,0.0,-0.0012207029999995456,0.0,0.0,0.0,-0.0,0.0,0.0,1.926269334,0.0,0.0,0.0,0.0,0.0,0.0,0.0,0.0,4.8681635640000005,0.0,0.0,0.0,0.0,0.0,-0.0,0.0,0.0,2.883300486,0.0,0.0,83.91000366210938,1.6399999856948853,-1.4299999475479126,0.02996826171875,1.01025390625,0.09710693359375,27.229999542236328,0.0,1.0,-1.52587890625E-4,1.52587890625E-4,Closing,0.0,0.0,0.0,0.0,0.0,0.0,0.0,0.0,
1.2453699999999999,0.0,0.0,0.0,0.0,0.0,0.0,0.0,0.0,3.757323834,0.0,0.0,0.0,0.0,0.0,-0.0,0.0,0.0,1.926269334,0.0,0.0,0.0,0.0,0.0,0.0,0.0,0.0,4.8681635640000005,0.0,0.0,0.0,0.0,0.0,-0.0,0.0,0.0,2.883300486,0.0,0.0,83.91000366210938,1.6299999952316284,-1.4299999475479126,0.02679443359375,1.01177978515625,0.10906982421875,27.229999542236328,0.0,-2.0,-1.52587890625E-4,1.52587890625E-4,Closing,0.0,0.0,0.0,0.0,0.0,0.0,0.0,0.0,
1.2832259999999998,0.0,0.0,0.0,0.0,0.0,0.0,0.0,0.0,3.757323834,0.0,0.0,0.0,0.0,0.0,-0.0,0.0,0.0,1.926269334,0.0,-0.0012207029999995456,0.0,0.0,0.0,0.0,0.0,0.0,4.8681635640000005,0.0,-0.0012207030000004337,0.0,0.0,0.0,-0.0,0.0,0.0,2.882079783,0.0,0.0,83.9000015258789,1.6399999856948853,-1.4299999475479126,0.0316162109375,1.01153564453125,0.09552001953125,27.229999542236328,0.0,2.0,-1.52587890625E-4,1.52587890625E-4,Closing,0.0,0.0,0.0,0.0,0.0,0.0,0.0,0.0,
1.3361699999999992,0.0,0.0,0.0,0.0,0.0,0.0,0.0,0.0,3.757323834,0.0,0.0,0.0,0.0,0.0,-0.0,0.0,0.0,1.9250486310000001,0.0,0.0,0.0,0.0,0.0,0.0,0.0,0.0,4.869384267,0.0,0.0012207030000004337,0.0,0.0,0.0,-0.0,0.0,0.0,2.882079783,0.0,0.0,83.88999938964844,1.6399999856948853,-1.4299999475479126,0.0283203125,1.00872802734375,0.0975341796875,27.229999542236328,0.0,0.0,-1.52587890625E-4,1.52587890625E-4,Closing,0.0,0.0,0.0,0.0,0.0,0.0,0.0,0.0,
1.4110690000000004,0.0,0.0,0.0,0.0,0.0,0.0,0.0,0.0,3.757323834,0.0,0.0,0.0,0.0,0.0,-0.0,0.0,0.0,1.926269334,0.0,0.0,0.0,0.0,0.0,0.0,0.0,0.0,4.866942861,0.0,0.0,0.0,0.0,0.0,-0.0,0.0,0.0,2.882079783,0.0,0.0,83.88999938964844,1.6399999856948853,-1.4299999475479126,0.03399658203125,1.012451171875,0.109130859375,27.229999542236328,0.0,4.0,-1.52587890625E-4,1.52587890625E-4,Closing,0.0,0.0,0.0,0.0,0.0,0.0,0.0,0.0,
1.4733219999999991,0.0,0.0,0.0,0.0,0.0,0.0,0.0,0.0,3.757323834,0.0,0.0,0.0,0.0,0.0,-0.0,0.0,0.0,1.926269334,0.0,0.0,0.0,0.0,0.0,0.0,0.0,0.0,4.8681635640000005,0.0,0.0,0.0,0.0,0.0,-0.0,0.0,0.0,2.882079783,0.0,0.0,83.9000015258789,1.649999976158142,-1.440000057220459,0.02410888671875,1.00994873046875,0.10870361328125,27.229999542236328,0.0,-5.0,-1.52587890625E-4,1.52587890625E-4,Closing,0.0,0.0,0.0,0.0,0.0,0.0,0.0,0.0,
1.5271709999999994,0.0,0.0,0.0,0.0,0.0,0.0,0.0,0.0,3.756103131,0.0,0.0,0.0,0.0,0.0,-0.0,0.0,0.0,1.926269334,0.0,0.0012207029999995456,0.0,0.0,0.0,0.0,0.0,0.0,4.866942861,0.0,0.0,0.0,0.0,0.0,-0.0,0.0,0.0,2.883300486,0.0,0.0,83.91000366210938,1.6399999856948853,-1.440000057220459,0.023681640625,1.00958251953125,0.10089111328125,27.229999542236328,0.0,-5.0,-1.52587890625E-4,1.52587890625E-4,Closing,0.0,0.0,0.0,0.0,0.0,0.0,0.0,0.0,
1.5509810000000006,0.0,0.0,0.0,0.0,0.0,0.0,0.0,0.0,3.757323834,0.0,0.0,0.0,0.0,0.0,-0.0,0.0,0.0,1.926269334,0.0,-0.0012207029999995456,0.0,0.0,0.0,0.0,0.0,0.0,4.869384267,0.0,-0.0012207030000004337,0.0,0.0,0.0,-0.0,0.0,0.0,2.882079783,0.0,0.0,83.91999816894531,1.6399999856948853,-1.440000057220459,0.0245361328125,1.0128173828125,0.10052490234375,27.229999542236328,0.0,-1.0,-1.52587890625E-4,1.52587890625E-4,Closing,0.0,0.0,0.0,0.0,0.0,0.0,0.0,0.0,
1.5995330000000003,0.0,0.0,0.0,0.0,0.0,0.0,0.0,0.0,3.757323834,0.0,0.0,0.0,0.0,0.0,-0.0,0.0,0.0,1.926269334,0.0,0.0,0.0,0.0,0.0,0.0,0.0,0.0,4.866942861,0.0,0.0,0.0,0.0,0.0,-0.0,0.0,0.0,2.882079783,0.0,0.0,83.93000030517578,1.6399999856948853,-1.440000057220459,0.031982421875,1.010498046875,0.10455322265625,27.229999542236328,0.0,2.0,-1.52587890625E-4,1.52587890625E-4,Closing,0.0,0.0,0.0,0.0,0.0,0.0,0.0,0.0,
1.617844,0.0,0.0,0.0,0.0,0.0,0.0,0.0,0.0,3.757323834,0.0,0.0,0.0,0.0,0.0,-0.0,0.0,0.0,1.926269334,0.0,0.0,0.0,0.0,0.0,0.0,0.0,0.0,4.866942861,0.0,0.0,0.0,0.0,0.0,-0.0,0.0,0.0,2.882079783,0.0,0.0,83.94000244140625,1.6399999856948853,-1.440000057220459,0.03021240234375,1.0113525390625,0.10211181640625,27.229999542236328,0.0,1.0,-1.52587890625E-4,1.52587890625E-4,Closing,0.0,0.0,0.0,0.0,0.0,0.0,0.0,0.0,
1.6366279999999997,0.0,0.0,0.0,0.0,0.0,0.0,0.0,0.0,3.757323834,0.0,0.0,0.0,0.0,0.0,-0.0,0.0,0.0,1.926269334,0.0,0.0,0.0,0.0,0.0,0.0,0.0,0.0,4.8681635640000005,0.0,0.0,0.0,0.0,0.0,-0.0,0.0,0.0,2.882079783,0.0,0.0,83.94000244140625,1.6399999856948853,-1.440000057220459,0.0284423828125,1.009521484375,0.1046142578125,27.229999542236328,0.0,0.0,-1.52587890625E-4,1.52587890625E-4,Closing,0.0,0.0,0.0,0.0,0.0,0.0,0.0,0.0,
1.6610250000000006,0.0,0.0,0.0,0.0,0.0,0.0,0.0,0.0,3.757323834,0.0,0.0,0.0,0.0,0.0,-0.0,0.0,0.0,1.926269334,0.0,0.0,0.0,0.0,0.0,0.0,0.0,0.0,4.8681635640000005,0.0,0.0,0.0,0.0,0.0,-0.0,0.0,0.0,2.882079783,0.0,0.0,83.94000244140625,1.6299999952316284,-1.4299999475479126,0.025146484375,1.01092529296875,0.10919189453125,27.229999542236328,0.0,-4.0,-1.52587890625E-4,1.52587890625E-4,Closing,0.0,0.0,0.0,0.0,0.0,0.0,0.0,0.0,
1.6821989999999996,0.0,0.0,0.0,0.0,0.0,0.0,0.0,0.0,3.757323834,0.0,0.0,0.0,0.0,0.0,-0.0,0.0,0.0,1.926269334,0.0,0.0,0.0,0.0,0.0,0.0,0.0,0.0,4.8681635640000005,0.0,0.0,0.0,0.0,0.0,-0.0,0.0,0.0,2.882079783,0.0,0.0,83.94000244140625,1.6299999952316284,-1.4299999475479126,0.02496337890625,1.0123291015625,0.10382080078125,27.229999542236328,0.0,-4.0,-1.52587890625E-4,1.52587890625E-4,Closing,0.0,0.0,0.0,0.0,0.0,0.0,0.0,0.0,
1.7060629999999992,0.0,0.0,0.0,0.0,0.0,0.0,0.0,0.0,3.757323834,0.0,0.0,0.0,0.0,0.0,-0.0,0.0,0.0,1.926269334,0.0,0.0,0.0,0.0,0.0,0.0,0.0,0.0,4.866942861,0.0,0.0,0.0,0.0,0.0,-0.0,0.0,0.0,2.882079783,0.0,0.0,83.94000244140625,1.6299999952316284,-1.4299999475479126,0.0277099609375,1.01116943359375,0.103515625,27.229999542236328,0.0,-1.0,-1.52587890625E-4,1.52587890625E-4,Closing,0.0,0.0,0.0,0.0,0.0,0.0,0.0,0.0,
1.7238270000000002,0.0,0.0,0.0,0.0,0.0,0.0,0.0,0.0,3.758544537,0.0,0.0,0.0,0.0,0.0,-0.0,0.0,0.0,1.926269334,0.0,0.0,0.0,0.0,0.0,0.0,0.0,0.0,4.8681635640000005,0.0,0.0,0.0,0.0,0.0,-0.0,0.0,0.0,2.882079783,0.0,0.0,83.94000244140625,1.6299999952316284,-1.4299999475479126,0.03131103515625,1.01092529296875,0.10491943359375,27.229999542236328,0.0,2.0,-1.52587890625E-4,1.52587890625E-4,Closing,0.0,0.0,0.0,0.0,0.0,0.0,0.0,0.0,
1.7408180000000002,0.0,0.0,0.0,0.0,0.0,0.0,0.0,0.0,3.757323834,0.0,0.0,0.0,0.0,0.0,-0.0,0.0,0.0,1.926269334,0.0,0.0,0.0,0.0,0.0,0.0,0.0,0.0,4.8681635640000005,0.0,0.0,0.0,0.0,0.0,-0.0,0.0,0.0,2.883300486,0.0,0.0,83.93000030517578,1.6299999952316284,-1.4299999475479126,0.03656005859375,1.011474609375,0.10601806640625,27.229999542236328,0.0,7.0,-1.52587890625E-4,1.52587890625E-4,Closing,0.0,0.0,0.0,0.0,0.0,0.0,0.0,0.0,
1.7639000000000005,0.0,0.0,0.0,0.0,0.0,0.0,0.0,0.0,3.758544537,0.0,0.0,0.0,0.0,0.0,-0.0,0.0,0.0,1.926269334,0.0,0.0,0.0,0.0,0.0,0.0,0.0,0.0,4.8681635640000005,0.0,0.0,0.0,0.0,0.0,-0.0,0.0,0.0,2.882079783,0.0,0.0,83.91999816894531,1.6399999856948853,-1.440000057220459,0.0418701171875,1.01055908203125,0.10577392578125,27.229999542236328,0.0,12.0,-1.52587890625E-4,1.52587890625E-4,Closing,0.0,0.0,0.0,0.0,0.0,0.0,0.0,0.0,
1.780472999999999,0.0,0.0,0.0,0.0,0.0,0.0,0.0,0.0,3.757323834,0.0,0.0,0.0,0.0,0.0,-0.0,0.0,0.0,1.926269334,0.0,0.0,0.0,0.0,0.0,0.0,0.0,0.0,4.8681635640000005,0.0,0.0,0.0,0.0,0.0,-0.0,0.0,0.0,2.88085908,0.0,0.0,83.88999938964844,1.649999976158142,-1.4500000476837158,0.03009033203125,1.010986328125,0.09930419921875,27.229999542236328,0.0,0.0,-1.52587890625E-4,1.52587890625E-4,Closing,0.0,0.0,0.0,0.0,0.0,0.0,0.0,0.0,
1.8122879999999995,0.0,0.0,0.0,0.0,0.0,0.0,0.0,0.0,3.757323834,0.0,0.0,0.0,0.0,0.0,-0.0,0.0,0.0,1.926269334,0.0,0.0,0.0,0.0,0.0,0.0,0.0,0.0,4.8681635640000005,0.0,0.0,0.0,0.0,0.0,-0.0,0.0,0.0,2.883300486,0.0,0.0,83.87999725341797,1.6399999856948853,-1.440000057220459,0.02734375,1.01043701171875,0.09881591796875,27.229999542236328,0.0,-1.0,-1.52587890625E-4,1.52587890625E-4,Closing,0.0,0.0,0.0,0.0,0.0,0.0,0.0,0.0,
1.8318920000000007,0.0,0.0,0.0,0.0,0.0,0.0,0.0,0.0,3.757323834,0.0,0.0,0.0,0.0,0.0,-0.0,0.0,0.0,1.926269334,0.0,0.0,0.0,0.0,0.0,0.0,0.0,0.0,4.869384267,0.0,0.0,0.0,0.0,0.0,-0.0,0.0,0.0,2.882079783,0.0,0.0,83.87999725341797,1.6399999856948853,-1.440000057220459,0.02996826171875,1.0086669921875,0.1055908203125,27.229999542236328,0.0,0.0,-1.52587890625E-4,1.52587890625E-4,Closing,0.0,0.0,0.0,0.0,0.0,0.0,0.0,0.0,
1.8528450000000003,0.0,0.0,0.0,0.0,0.0,0.0,0.0,0.0,3.757323834,0.0,0.0012207029999995456,0.0,0.0,0.0,-0.0,0.0,0.0,1.926269334,0.0,0.0,0.0,0.0,0.0,0.0,0.0,0.0,4.8681635640000005,0.0,0.0012207030000004337,0.0,0.0,0.0,-0.0,0.0,0.0,2.882079783,0.0,0.0,83.87999725341797,1.6399999856948853,-1.440000057220459,0.0240478515625,1.0133056640625,0.1026611328125,27.229999542236328,0.0,-5.0,-1.52587890625E-4,1.52587890625E-4,Closing,0.0,0.0,0.0,0.0,0.0,0.0,0.0,0.0,
1.87196,0.0,0.0,0.0,0.0,0.0,0.0,0.0,0.0,3.757323834,0.0,0.0012207029999995456,0.0,0.0,0.0,-0.0,0.0,0.0,1.926269334,0.0,0.0,0.0,0.0,0.0,0.0,0.0,0.0,4.8681635640000005,0.0,0.0012207030000004337,0.0,0.0,0.0,-0.0,0.0,0.0,2.883300486,0.0,0.0,83.87999725341797,1.6399999856948853,-1.440000057220459,0.02423095703125,1.00982666015625,0.1048583984375,27.229999542236328,0.0,-5.0,-1.52587890625E-4,1.52587890625E-4,Closing,0.0,0.0,0.0,0.0,0.0,0.0,0.0,0.0,
1.8946629999999995,0.0,0.0,0.0,0.0,0.0,0.0,0.0,0.0,3.757323834,0.0,0.0,0.0,0.0,0.0,-0.0,0.0,0.0,1.926269334,0.0,0.0012207029999995456,0.0,0.0,0.0,0.0,0.0,0.0,4.8681635640000005,0.0,0.0,0.0,0.0,0.0,-0.0,0.0,0.0,2.883300486,0.0,0.0,83.88999938964844,1.6399999856948853,-1.4299999475479126,0.02105712890625,1.010009765625,0.101318359375,27.25,0.0,-7.0,-1.52587890625E-4,1.52587890625E-4,Closing,0.0,0.0,0.0,0.0,0.0,0.0,0.0,0.0,
1.9132730000000002,0.0,0.0,0.0,0.0,0.0,0.0,0.0,0.0,3.756103131,0.0,0.0,0.0,0.0,0.0,-0.0,0.0,0.0,1.927490037,0.0,0.0012207029999995456,0.0,0.0,0.0,0.0,0.0,0.0,4.8681635640000005,0.0,0.0,0.0,0.0,0.0,-0.0,0.0,0.0,2.882079783,0.0,0.0,83.91999816894531,1.6299999952316284,-1.4299999475479126,0.02899169921875,1.01275634765625,0.10321044921875,27.25,0.0,0.0,-1.52587890625E-4,1.52587890625E-4,Closing,0.0,0.0,0.0,0.0,0.0,0.0,0.0,0.0,
1.932177999999999,0.0,0.0,0.0,0.0,0.0,0.0,0.0,0.0,3.756103131,0.0,0.0,0.0,0.0,0.0,-0.0,0.0,0.0,1.926269334,0.0,0.0012207029999995456,0.0,0.0,0.0,0.0,0.0,0.0,4.8681635640000005,0.0,0.0,0.0,0.0,0.0,-0.0,0.0,0.0,2.883300486,0.0,0.0,83.93000030517578,1.6299999952316284,-1.4299999475479126,0.03265380859375,1.009033203125,0.10455322265625,27.25,0.0,3.0,-1.52587890625E-4,1.52587890625E-4,Closing,0.0,0.0,0.0,0.0,0.0,0.0,0.0,0.0,
1.9540289999999996,0.0,0.0,0.0,0.0,0.0,0.0,0.0,0.0,3.757323834,0.0,-0.0012207029999995456,0.0,0.0,0.0,-0.0,0.0,0.0,1.926269334,0.0,-0.0012207029999995456,0.0,0.0,0.0,0.0,0.0,0.0,4.869384267,0.0,0.0,0.0,0.0,0.0,-0.0,0.0,0.0,2.883300486,0.0,0.0,83.93000030517578,1.6299999952316284,-1.4299999475479126,0.03033447265625,1.0103759765625,0.103271484375,27.25,0.0,1.0,-1.52587890625E-4,1.52587890625E-4,Closing,0.0,0.0,0.0,0.0,0.0,0.0,0.0,0.0,
1.9725479999999997,0.0,0.0,0.0,0.0,0.0,0.0,0.0,0.0,3.756103131,0.0,-0.0012207029999995456,0.0,0.0,0.0,-0.0,0.0,0.0,1.926269334,0.0,-0.0012207029999995456,0.0,0.0,0.0,0.0,0.0,0.0,4.869384267,0.0,0.0,0.0,0.0,0.0,-0.0,0.0,0.0,2.882079783,0.0,0.0,83.94000244140625,1.6299999952316284,-1.4299999475479126,0.0306396484375,1.01092529296875,0.1041259765625,27.25,0.0,1.0,-1.52587890625E-4,1.52587890625E-4,Closing,0.0,0.0,0.0,0.0,0.0,0.0,0.0,0.0,
1.9931320000000006,0.0,0.0,0.0,0.0,0.0,0.0,0.0,0.0,3.757323834,0.0,0.0,0.0,0.0,0.0,-0.0,0.0,0.0,1.926269334,0.0,0.0012207029999995456,0.0,0.0,0.0,0.0,0.0,0.0,4.8681635640000005,0.0,0.0,0.0,0.0,0.0,-0.0,0.0,0.0,2.883300486,0.0,0.0,83.94000244140625,1.6399999856948853,-1.440000057220459,0.0306396484375,1.00946044921875,0.10284423828125,27.25,0.0,1.0,-1.52587890625E-4,1.52587890625E-4,Closing,0.0,0.0,0.0,0.0,0.0,0.0,0.0,0.0,
2.029523,0.0,0.0,0.0,0.0,0.0,0.0,0.0,0.0,3.757323834,0.0,0.0,0.0,0.0,0.0,-0.0,0.0,0.0,1.926269334,0.0,0.0012207029999995456,0.0,0.0,0.0,0.0,0.0,0.0,4.8657221580000005,0.0,0.0,0.0,0.0,0.0,-0.0,0.0,0.0,2.883300486,0.0,0.0,83.94000244140625,1.6399999856948853,-1.440000057220459,0.02728271484375,1.01348876953125,0.10369873046875,27.25,0.0,-1.0,-1.52587890625E-4,1.52587890625E-4,Closing,0.0,0.0,0.0,0.0,0.0,0.0,0.0,0.0,
2.051291,0.0,0.0,0.0,0.0,0.0,0.0,0.0,0.0,3.757323834,0.0,0.0,0.0,0.0,0.0,-0.0,0.0,0.0,1.926269334,0.0,-0.0012207029999995456,0.0,0.0,0.0,0.0,0.0,0.0,4.866942861,0.0,-0.0012207030000004337,0.0,0.0,0.0,-0.0,0.0,0.0,2.882079783,0.0,0.0,83.94000244140625,1.6399999856948853,-1.440000057220459,0.0262451171875,1.01202392578125,0.1015625,27.25,0.0,-2.0,-1.52587890625E-4,1.52587890625E-4,Closing,0.0,0.0,0.0,0.0,0.0,0.0,0.0,0.0,
2.0703190000000005,0.0,0.0,0.0,0.0,0.0,0.0,0.0,0.0,3.756103131,0.0,0.0,0.0,0.0,0.0,-0.0,0.0,0.0,1.926269334,0.0,-0.0012207029999995456,0.0,0.0,0.0,0.0,0.0,0.0,4.866942861,0.0,-0.0012207030000004337,0.0,0.0,0.0,-0.0,0.0,0.0,2.882079783,0.0,0.0,83.94000244140625,1.6399999856948853,-1.440000057220459,0.02850341796875,1.0096435546875,0.101806640625,27.25,0.0,-1.0,-1.52587890625E-4,1.52587890625E-4,Closing,0.0,0.0,0.0,0.0,0.0,0.0,0.0,0.0,
2.0888550000000006,0.0,0.0,0.0,0.0,0.0,0.0,0.0,0.0,3.756103131,0.0,0.0,0.0,0.0,0.0,-0.0,0.0,0.0,1.926269334,0.0,0.0012207029999995456,0.0,0.0,0.0,0.0,0.0,0.0,4.8681635640000005,0.0,0.0012207030000004337,0.0,0.0,0.0,-0.0,0.0,0.0,2.882079783,0.0,0.0,83.94999694824219,1.6399999856948853,-1.440000057220459,0.024658203125,1.01116943359375,0.10137939453125,27.25,0.0,-4.0,-1.52587890625E-4,1.52587890625E-4,Closing,0.0,0.0,0.0,0.0,0.0,0.0,0.0,0.0,
2.1090410000000004,0.0,0.0,0.0,0.0,0.0,0.0,0.0,0.0,3.756103131,0.0,0.0,0.0,0.0,0.0,-0.0,0.0,0.0,1.926269334,0.0,0.0012207029999995456,0.0,0.0,0.0,0.0,0.0,0.0,4.8681635640000005,0.0,0.0012207030000004337,0.0,0.0,0.0,-0.0,0.0,0.0,2.883300486,0.0,0.0,83.94999694824219,1.6399999856948853,-1.440000057220459,0.03070068359375,1.010009765625,0.10345458984375,27.25,0.0,1.0,-1.52587890625E-4,1.52587890625E-4,Closing,0.0,0.0,0.0,0.0,0.0,0.0,0.0,0.0,
2.1283640000000004,0.0,0.0,0.0,0.0,0.0,0.0,0.0,0.0,3.757323834,0.0,0.0,0.0,0.0,0.0,-0.0,0.0,0.0,1.926269334,0.0,0.0012207029999995456,0.0,0.0,0.0,0.0,0.0,0.0,4.8681635640000005,0.0,0.0012207030000004337,0.0,0.0,0.0,-0.0,0.0,0.0,2.883300486,0.0,0.0,83.94999694824219,1.6399999856948853,-1.4299999475479126,0.02874755859375,1.007568359375,0.10675048828125,27.25,0.0,0.0,-1.52587890625E-4,1.52587890625E-4,Closing,0.0,0.0,0.0,0.0,0.0,0.0,0.0,0.0,
2.1488990000000006,0.0,0.0,0.0,0.0,0.0,0.0,0.0,0.0,3.757323834,0.0,0.0,0.0,0.0,0.0,-0.0,0.0,0.0,1.926269334,0.0,-0.0012207029999995456,0.0,0.0,0.0,0.0,0.0,0.0,4.8681635640000005,0.0,0.0,0.0,0.0,0.0,-0.0,0.0,0.0,2.883300486,0.0,0.0,83.94999694824219,1.6399999856948853,-1.4299999475479126,0.0289306640625,1.0123291015625,0.10797119140625,27.25,0.0,0.0,-1.52587890625E-4,1.52587890625E-4,Closing,0.0,0.0,0.0,0.0,0.0,0.0,0.0,0.0,
2.1672930000000004,0.0,0.0,0.0,0.0,0.0,0.0,0.0,0.0,3.757323834,0.0,0.0,0.0,0.0,0.0,-0.0,0.0,0.0,1.926269334,0.0,-0.0012207029999995456,0.0,0.0,0.0,0.0,0.0,0.0,4.8681635640000005,0.0,0.0,0.0,0.0,0.0,-0.0,0.0,0.0,2.883300486,0.0,0.0,83.94999694824219,1.6399999856948853,-1.4299999475479126,0.02874755859375,1.01239013671875,0.10614013671875,27.25,0.0,0.0,-1.52587890625E-4,1.52587890625E-4,Closing,0.0,0.0,0.0,0.0,0.0,0.0,0.0,0.0,
2.1860469999999994,0.0,0.0,0.0,0.0,0.0,0.0,0.0,0.0,3.757323834,0.0,0.0,0.0,0.0,0.0,-0.0,0.0,0.0,1.926269334,0.0,-0.0012207029999995456,0.0,0.0,0.0,0.0,0.0,0.0,4.866942861,0.0,0.0,0.0,0.0,0.0,-0.0,0.0,0.0,2.882079783,0.0,0.0,83.94999694824219,1.6399999856948853,-1.4299999475479126,0.0263671875,1.011474609375,0.10589599609375,27.25,0.0,-2.0,-1.52587890625E-4,1.52587890625E-4,Closing,0.0,0.0,0.0,0.0,0.0,0.0,0.0,0.0,
2.207478,0.0,0.0,0.0,0.0,0.0,0.0,0.0,0.0,3.756103131,0.0,0.0,0.0,0.0,0.0,-0.0,0.0,0.0,1.926269334,0.0,0.0,0.0,0.0,0.0,0.0,0.0,0.0,4.8681635640000005,0.0,-0.0012207030000004337,0.0,0.0,0.0,-0.0,0.0,0.0,2.88085908,0.0,0.0,83.95999908447266,1.6399999856948853,-1.4299999475479126,0.02606201171875,1.00970458984375,0.10711669921875,27.25,0.0,-3.0,-1.52587890625E-4,1.52587890625E-4,Closing,0.0,0.0,0.0,0.0,0.0,0.0,0.0,0.0,
2.2255549999999995,0.0,0.0,0.0,0.0,0.0,0.0,0.0,0.0,3.757323834,0.0,0.0,0.0,0.0,0.0,-0.0,0.0,0.0,1.926269334,0.0,0.0,0.0,0.0,0.0,0.0,0.0,0.0,4.869384267,0.0,-0.0012207030000004337,0.0,0.0,0.0,-0.0,0.0,0.0,2.882079783,0.0,0.0,83.95999908447266,1.6399999856948853,-1.4299999475479126,0.02886962890625,1.00982666015625,0.110595703125,27.25,0.0,0.0,-1.52587890625E-4,1.52587890625E-4,Closing,0.0,0.0,0.0,0.0,0.0,0.0,0.0,0.0,
2.2491770000000004,0.0,0.0,0.0,0.0,0.0,0.0,0.0,0.0,3.756103131,0.0,0.0,0.0,0.0,0.0,-0.0,0.0,0.0,1.926269334,0.0,0.0,0.0,0.0,0.0,0.0,0.0,0.0,4.8681635640000005,0.0,0.0,0.0,0.0,0.0,-0.0,0.0,0.0,2.882079783,0.0,0.0,83.95999908447266,1.6399999856948853,-1.4299999475479126,0.032470703125,1.01348876953125,0.1024169921875,27.25,0.0,3.0,-1.52587890625E-4,1.52587890625E-4,Closing,0.0,0.0,0.0,0.0,0.0,0.0,0.0,0.0,
2.267872,0.0,0.0,0.0,0.0,0.0,0.0,0.0,0.0,3.757323834,0.0,0.0,0.0,0.0,0.0,-0.0,0.0,0.0,1.9250486310000001,0.0,0.0,0.0,0.0,0.0,0.0,0.0,0.0,4.8681635640000005,0.0,0.0,0.0,0.0,0.0,-0.0,0.0,0.0,2.882079783,0.0,0.0,83.95999908447266,1.6399999856948853,-1.4299999475479126,0.03167724609375,1.01165771484375,0.1019287109375,27.25,0.0,2.0,-1.52587890625E-4,1.52587890625E-4,Closing,0.0,0.0,0.0,0.0,0.0,0.0,0.0,0.0,
2.2873499999999996,0.0,0.0,0.0,0.0,0.0,0.0,0.0,0.0,3.757323834,0.0,0.0,0.0,0.0,0.0,-0.0,0.0,0.0,1.926269334,0.0,0.0,0.0,0.0,0.0,0.0,0.0,0.0,4.8681635640000005,0.0,0.0012207030000004337,0.0,0.0,0.0,-0.0,0.0,0.0,2.882079783,0.0,0.0,83.94999694824219,1.6399999856948853,-1.4299999475479126,0.028564453125,1.01153564453125,0.102294921875,27.25,0.0,0.0,-1.52587890625E-4,1.52587890625E-4,Closing,0.0,0.0,0.0,0.0,0.0,0.0,0.0,0.0,
2.307955999999999,0.0,0.0,0.0,0.0,0.0,0.0,0.0,0.0,3.757323834,0.0,0.0012207029999995456,0.0,0.0,0.0,-0.0,0.0,0.0,1.926269334,0.0,0.0012207029999995456,0.0,0.0,0.0,0.0,0.0,0.0,4.8681635640000005,0.0,0.0012207030000004337,0.0,0.0,0.0,-0.0,0.0,0.0,2.882079783,0.0,0.0,83.94999694824219,1.6399999856948853,-1.4299999475479126,0.03033447265625,1.00921630859375,0.10614013671875,27.25,0.0,1.0,-1.52587890625E-4,1.52587890625E-4,Closing,0.0,0.0,0.0,0.0,0.0,0.0,0.0,0.0,
2.327883999999999,0.0,0.0,0.0,0.0,0.0,0.0,0.0,0.0,3.757323834,0.0,0.0012207029999995456,0.0,0.0,0.0,-0.0,0.0,0.0,1.926269334,0.0,0.0012207029999995456,0.0,0.0,0.0,0.0,0.0,0.0,4.869384267,0.0,0.0012207030000004337,0.0,0.0,0.0,-0.0,0.0,0.0,2.883300486,0.0,0.0,83.93000030517578,1.6399999856948853,-1.4299999475479126,0.02880859375,1.01080322265625,0.10443115234375,27.25,0.0,0.0,-1.52587890625E-4,1.52587890625E-4,Closing,0.0,0.0,0.0,0.0,0.0,0.0,0.0,0.0,
2.350702,0.0,0.0,0.0,0.0,0.0,0.0,0.0,0.0,3.756103131,0.0,-0.0012207029999995456,0.0,0.0,0.0,-0.0,0.0,0.0,1.926269334,0.0,-0.0012207029999995456,0.0,0.0,0.0,0.0,0.0,0.0,4.8681635640000005,0.0,0.0,0.0,0.0,0.0,-0.0,0.0,0.0,2.882079783,0.0,0.0,83.91999816894531,1.6399999856948853,-1.4299999475479126,0.0269775390625,1.0084228515625,0.103759765625,27.25,0.0,-2.0,-1.52587890625E-4,1.52587890625E-4,Closing,0.0,0.0,0.0,0.0,0.0,0.0,0.0,0.0,
2.368058,0.0,0.0,0.0,0.0,0.0,0.0,0.0,0.0,3.757323834,0.0,-0.0012207029999995456,0.0,0.0,0.0,-0.0,0.0,0.0,1.926269334,0.0,-0.0012207029999995456,0.0,0.0,0.0,0.0,0.0,0.0,4.8657221580000005,0.0,0.0,0.0,0.0,0.0,-0.0,0.0,0.0,2.883300486,0.0,0.0,83.93000030517578,1.6299999952316284,-1.4299999475479126,0.0299072265625,1.01129150390625,0.104248046875,27.25,0.0,0.0,-1.52587890625E-4,1.52587890625E-4,Closing,0.0,0.0,0.0,0.0,0.0,0.0,0.0,0.0,
2.3869309999999997,0.0,0.0,0.0,0.0,0.0,0.0,0.0,0.0,3.756103131,0.0,-0.0012207029999995456,0.0,0.0,0.0,-0.0,0.0,0.0,1.926269334,0.0,-0.0012207029999995456,0.0,0.0,0.0,0.0,0.0,0.0,4.8681635640000005,0.0,0.0,0.0,0.0,0.0,-0.0,0.0,0.0,2.883300486,0.0,0.0,83.91999816894531,1.6399999856948853,-1.4299999475479126,0.02880859375,1.01312255859375,0.10552978515625,27.25,0.0,0.0,-1.52587890625E-4,1.52587890625E-4,Closing,0.0,0.0,0.0,0.0,0.0,0.0,0.0,0.0,
2.4077409999999992,0.0,0.0,0.0,0.0,0.0,0.0,0.0,0.0,3.757323834,0.0,0.0,0.0,0.0,0.0,-0.0,0.0,0.0,1.926269334,0.0,0.0012207029999995456,0.0,0.0,0.0,0.0,0.0,0.0,4.8681635640000005,0.0,0.0,0.0,0.0,0.0,-0.0,0.0,0.0,2.883300486,0.0,0.0,83.91999816894531,1.6399999856948853,-1.4299999475479126,0.0284423828125,1.01190185546875,0.0999755859375,27.270000457763672,0.0,0.0,-1.52587890625E-4,1.52587890625E-4,Closing,0.0,0.0,0.0,0.0,0.0,0.0,0.0,0.0,
2.428945999999999,0.0,0.0,0.0,0.0,0.0,0.0,0.0,0.0,3.756103131,0.0,0.0,0.0,0.0,0.0,-0.0,0.0,0.0,1.926269334,0.0,0.0012207029999995456,0.0,0.0,0.0,0.0,0.0,0.0,4.866942861,0.0,0.0,0.0,0.0,0.0,-0.0,0.0,0.0,2.883300486,0.0,0.0,83.91999816894531,1.6399999856948853,-1.4299999475479126,0.02783203125,1.010986328125,0.10455322265625,27.270000457763672,0.0,-1.0,-1.52587890625E-4,1.52587890625E-4,Closing,0.0,0.0,0.0,0.0,0.0,0.0,0.0,0.0,
2.450606999999999,0.0,0.0,0.0,0.0,0.0,0.0,0.0,0.0,3.757323834,0.0,0.0012207029999995456,0.0,0.0,0.0,-0.0,0.0,0.0,1.926269334,0.0,0.0,0.0,0.0,0.0,0.0,0.0,0.0,4.869384267,0.0,0.0,0.0,0.0,0.0,-0.0,0.0,0.0,2.882079783,0.0,0.0,83.93000030517578,1.6299999952316284,-1.4299999475479126,0.03082275390625,1.0120849609375,0.10406494140625,27.270000457763672,0.0,1.0,-1.52587890625E-4,1.52587890625E-4,Closing,0.0,0.0,0.0,0.0,0.0,0.0,0.0,0.0,
2.46879,0.0,0.0,0.0,0.0,0.0,0.0,0.0,0.0,3.757323834,0.0,0.0012207029999995456,0.0,0.0,0.0,-0.0,0.0,0.0,1.926269334,0.0,0.0,0.0,0.0,0.0,0.0,0.0,0.0,4.866942861,0.0,0.0,0.0,0.0,0.0,-0.0,0.0,0.0,2.882079783,0.0,0.0,83.91999816894531,1.6399999856948853,-1.4299999475479126,0.031982421875,1.00927734375,0.1007080078125,27.270000457763672,0.0,3.0,-1.52587890625E-4,1.52587890625E-4,Closing,0.0,0.0,0.0,0.0,0.0,0.0,0.0,0.0,
2.4879260000000003,0.0,0.0,0.0,0.0,0.0,0.0,0.0,0.0,3.756103131,0.0,0.0012207029999995456,0.0,0.0,0.0,-0.0,0.0,0.0,1.926269334,0.0,0.0,0.0,0.0,0.0,0.0,0.0,0.0,4.8681635640000005,0.0,0.0,0.0,0.0,0.0,-0.0,0.0,0.0,2.882079783,0.0,0.0,83.93000030517578,1.6399999856948853,-1.4299999475479126,0.0283203125,1.01336669921875,0.10400390625,27.270000457763672,0.0,0.0,-1.52587890625E-4,1.52587890625E-4,Closing,0.0,0.0,0.0,0.0,0.0,0.0,0.0,0.0,
2.509566,0.0,0.0,0.0,0.0,0.0,0.0,0.0,0.0,3.756103131,0.0,-0.0012207029999995456,0.0,0.0,0.0,-0.0,0.0,0.0,1.9250486310000001,0.0,-0.0012207029999995456,0.0,0.0,0.0,0.0,0.0,0.0,4.869384267,0.0,0.0,0.0,0.0,0.0,-0.0,0.0,0.0,2.883300486,0.0,0.0,83.93000030517578,1.6399999856948853,-1.440000057220459,0.027099609375,1.009765625,0.103271484375,27.270000457763672,0.0,-2.0,-1.52587890625E-4,1.52587890625E-4,Closing,0.0,0.0,0.0,0.0,0.0,0.0,0.0,0.0,
2.5267930000000005,0.0,0.0,0.0,0.0,0.0,0.0,0.0,0.0,3.756103131,0.0,-0.0012207029999995456,0.0,0.0,0.0,-0.0,0.0,0.0,1.926269334,0.0,-0.0012207029999995456,0.0,0.0,0.0,0.0,0.0,0.0,4.8657221580000005,0.0,0.0,0.0,0.0,0.0,-0.0,0.0,0.0,2.883300486,0.0,0.0,83.94000244140625,1.6399999856948853,-1.440000057220459,0.0284423828125,1.00848388671875,0.098876953125,27.270000457763672,0.0,0.0,-1.52587890625E-4,1.52587890625E-4,Closing,0.0,0.0,0.0,0.0,0.0,0.0,0.0,0.0,
2.5487879999999996,0.0,0.0,0.0,0.0,0.0,0.0,0.0,0.0,3.757323834,0.0,0.0,0.0,0.0,0.0,-0.0,0.0,0.0,1.9250486310000001,0.0,0.0012207029999995456,0.0,0.0,0.0,0.0,0.0,0.0,4.866942861,0.0,0.0,0.0,0.0,0.0,-0.0,0.0,0.0,2.883300486,0.0,0.0,83.94000244140625,1.6399999856948853,-1.440000057220459,0.0301513671875,1.0107421875,0.1043701171875,27.270000457763672,0.0,0.0,-1.52587890625E-4,1.52587890625E-4,Closing,0.0,0.0,0.0,0.0,0.0,0.0,0.0,0.0,
2.567549,0.0,0.0,0.0,0.0,0.0,0.0,0.0,0.0,3.757323834,0.0,0.0,0.0,0.0,0.0,-0.0,0.0,0.0,1.926269334,0.0,0.0012207029999995456,0.0,0.0,0.0,0.0,0.0,0.0,4.8681635640000005,0.0,0.0,0.0,0.0,0.0,-0.0,0.0,0.0,2.882079783,0.0,0.0,83.94999694824219,1.6399999856948853,-1.440000057220459,0.0308837890625,1.01251220703125,0.1014404296875,27.270000457763672,0.0,1.0,-1.52587890625E-4,1.52587890625E-4,Closing,0.0,0.0,0.0,0.0,0.0,0.0,0.0,0.0,
2.5873550000000005,0.0,0.0,0.0,0.0,0.0,0.0,0.0,0.0,3.757323834,0.0,0.0,0.0,0.0,0.0,-0.0,0.0,0.0,1.927490037,0.0,0.0012207029999995456,0.0,0.0,0.0,0.0,0.0,0.0,4.8681635640000005,0.0,0.0,0.0,0.0,0.0,-0.0,0.0,0.0,2.882079783,0.0,0.0,83.94999694824219,1.6399999856948853,-1.440000057220459,0.03179931640625,1.00970458984375,0.10223388671875,27.270000457763672,0.0,2.0,-1.52587890625E-4,1.52587890625E-4,Closing,0.0,0.0,0.0,0.0,0.0,0.0,0.0,0.0,
2.6103239999999994,0.0,0.0,0.0,0.0,0.0,0.0,0.0,0.0,3.757323834,0.0,0.0,0.0,0.0,0.0,-0.0,0.0,0.0,1.926269334,0.0,-0.0012207029999995456,0.0,0.0,0.0,0.0,0.0,0.0,4.8681635640000005,0.0,0.0,0.0,0.0,0.0,-0.0,0.0,0.0,2.883300486,0.0,0.0,83.94999694824219,1.6399999856948853,-1.440000057220459,0.03192138671875,1.01141357421875,0.1053466796875,27.270000457763672,0.0,2.0,-1.52587890625E-4,1.52587890625E-4,Closing,0.0,0.0,0.0,0.0,0.0,0.0,0.0,0.0,
2.6318270000000004,0.0,0.0,0.0,0.0,0.0,0.0,0.0,0.0,3.757323834,0.0,0.0,0.0,0.0,0.0,-0.0,0.0,0.0,1.926269334,0.0,-0.0012207029999995456,0.0,0.0,0.0,0.0,0.0,0.0,4.869384267,0.0,0.0,0.0,0.0,0.0,-0.0,0.0,0.0,2.882079783,0.0,0.0,83.94999694824219,1.6399999856948853,-1.440000057220459,0.029296875,1.0096435546875,0.11041259765625,27.270000457763672,0.0,0.0,-1.52587890625E-4,1.52587890625E-4,Closing,0.0,0.0,0.0,0.0,0.0,0.0,0.0,0.0,
2.652240999999999,0.0,0.0,0.0,0.0,0.0,0.0,0.0,0.0,3.757323834,0.0,0.0,0.0,0.0,0.0,-0.0,0.0,0.0,1.926269334,0.0,0.0012207029999995456,0.0,0.0,0.0,0.0,0.0,0.0,4.8681635640000005,0.0,0.0,0.0,0.0,0.0,-0.0,0.0,0.0,2.882079783,0.0,0.0,83.94999694824219,1.6399999856948853,-1.440000057220459,0.0284423828125,1.0113525390625,0.10595703125,27.270000457763672,0.0,0.0,-1.52587890625E-4,1.52587890625E-4,Closing,0.0,0.0,0.0,0.0,0.0,0.0,0.0,0.0,
2.6713190000000004,0.0,0.0,0.0,0.0,0.0,0.0,0.0,0.0,3.756103131,0.0,0.0,0.0,0.0,0.0,-0.0,0.0,0.0,1.926269334,0.0,0.0012207029999995456,0.0,0.0,0.0,0.0,0.0,0.0,4.869384267,0.0,0.0,0.0,0.0,0.0,-0.0,0.0,0.0,2.883300486,0.0,0.0,83.94999694824219,1.6399999856948853,-1.440000057220459,0.0281982421875,1.01171875,0.1014404296875,27.270000457763672,0.0,0.0,-1.52587890625E-4,1.52587890625E-4,Closing,0.0,0.0,0.0,0.0,0.0,0.0,0.0,0.0,
2.6893239999999996,0.0,0.0,0.0,0.0,0.0,0.0,0.0,0.0,3.756103131,0.0,0.0,0.0,0.0,0.0,-0.0,0.0,0.0,1.926269334,0.0,0.0012207029999995456,0.0,0.0,0.0,0.0,0.0,0.0,4.8681635640000005,0.0,0.0,0.0,0.0,0.0,-0.0,0.0,0.0,2.882079783,0.0,0.0,83.94999694824219,1.649999976158142,-1.440000057220459,0.03472900390625,1.01226806640625,0.105224609375,27.270000457763672,0.0,5.0,-1.52587890625E-4,1.52587890625E-4,Closing,0.0,0.0,0.0,0.0,0.0,0.0,0.0,0.0,
2.712678999999999,0.0,0.0,0.0,0.0,0.0,0.0,0.0,0.0,3.757323834,0.0,0.0,0.0,0.0,0.0,-0.0,0.0,0.0,1.926269334,0.0,-0.0012207029999995456,0.0,0.0,0.0,0.0,0.0,0.0,4.8681635640000005,0.0,0.0,0.0,0.0,0.0,-0.0,0.0,0.0,2.882079783,0.0,0.0,83.94000244140625,1.649999976158142,-1.4500000476837158,0.03082275390625,1.01251220703125,0.1031494140625,27.270000457763672,0.0,1.0,-1.52587890625E-4,1.52587890625E-4,Closing,0.0,0.0,0.0,0.0,0.0,0.0,0.0,0.0,
2.7311169999999994,0.0,0.0,0.0,0.0,0.0,0.0,0.0,0.0,3.757323834,0.0,0.0,0.0,0.0,0.0,-0.0,0.0,0.0,1.926269334,0.0,-0.0012207029999995456,0.0,0.0,0.0,0.0,0.0,0.0,4.8681635640000005,0.0,0.0,0.0,0.0,0.0,-0.0,0.0,0.0,2.883300486,0.0,0.0,83.94000244140625,1.649999976158142,-1.4500000476837158,0.0242919921875,1.00970458984375,0.1029052734375,27.270000457763672,0.0,-5.0,-1.52587890625E-4,1.52587890625E-4,Closing,0.0,0.0,0.0,0.0,0.0,0.0,0.0,0.0,
2.7533010000000004,0.0,0.0,0.0,0.0,0.0,0.0,0.0,0.0,3.758544537,0.0,0.0,0.0,0.0,0.0,-0.0,0.0,0.0,1.926269334,0.0,0.0012207029999995456,0.0,0.0,0.0,0.0,0.0,0.0,4.8681635640000005,0.0,0.0,0.0,0.0,0.0,-0.0,0.0,0.0,2.882079783,0.0,0.0,83.94000244140625,1.649999976158142,-1.440000057220459,0.0247802734375,1.0107421875,0.099853515625,27.270000457763672,0.0,-4.0,-1.52587890625E-4,1.52587890625E-4,Closing,0.0,0.0,0.0,0.0,0.0,0.0,0.0,0.0,
2.770517000000001,0.0,0.0,0.0,0.0,0.0,0.0,0.0,0.0,3.757323834,0.0,0.0,0.0,0.0,0.0,-0.0,0.0,0.0,1.926269334,0.0,0.0012207029999995456,0.0,0.0,0.0,0.0,0.0,0.0,4.8681635640000005,0.0,0.0,0.0,0.0,0.0,-0.0,0.0,0.0,2.882079783,0.0,0.0,83.94999694824219,1.6399999856948853,-1.440000057220459,0.02783203125,1.00970458984375,0.09832763671875,27.270000457763672,0.0,-1.0,-1.52587890625E-4,1.52587890625E-4,Closing,0.0,0.0,0.0,0.0,0.0,0.0,0.0,0.0,
2.7884389999999994,0.0,0.0,0.0,0.0,0.0,0.0,0.0,0.0,3.757323834,0.0,0.0,0.0,0.0,0.0,-0.0,0.0,0.0,1.926269334,0.0,0.0012207029999995456,0.0,0.0,0.0,0.0,0.0,0.0,4.866942861,0.0,0.0,0.0,0.0,0.0,-0.0,0.0,0.0,2.882079783,0.0,0.0,83.94999694824219,1.6399999856948853,-1.440000057220459,0.027587890625,1.0108642578125,0.108154296875,27.270000457763672,0.0,-1.0,-1.52587890625E-4,1.52587890625E-4,Closing,0.0,0.0,0.0,0.0,0.0,0.0,0.0,0.0,
2.8096639999999997,0.0,0.0,0.0,0.0,0.0,0.0,0.0,0.0,3.757323834,0.0,0.0012207029999995456,0.0,0.0,0.0,-0.0,0.0,0.0,1.9250486310000001,0.0,0.0,0.0,0.0,0.0,0.0,0.0,0.0,4.8681635640000005,0.0,0.0,0.0,0.0,0.0,-0.0,0.0,0.0,2.882079783,0.0,0.0,83.94000244140625,1.6399999856948853,-1.440000057220459,0.02490234375,1.0118408203125,0.10980224609375,27.270000457763672,0.0,-4.0,-1.52587890625E-4,1.52587890625E-4,Closing,0.0,0.0,0.0,0.0,0.0,0.0,0.0,0.0,
2.8270199999999996,0.0,0.0,0.0,0.0,0.0,0.0,0.0,0.0,3.756103131,0.0,0.0012207029999995456,0.0,0.0,0.0,-0.0,0.0,0.0,1.926269334,0.0,0.0,0.0,0.0,0.0,0.0,0.0,0.0,4.8681635640000005,0.0,0.0,0.0,0.0,0.0,-0.0,0.0,0.0,2.882079783,0.0,0.0,83.94000244140625,1.6399999856948853,-1.440000057220459,0.026123046875,1.007568359375,0.1068115234375,27.270000457763672,0.0,-3.0,-1.52587890625E-4,1.52587890625E-4,Closing,0.0,0.0,0.0,0.0,0.0,0.0,0.0,0.0,
2.849159999999999,0.0,0.0,0.0,0.0,0.0,0.0,0.0,0.0,3.757323834,0.0,-0.0012207029999995456,0.0,0.0,0.0,-0.0,0.0,0.0,1.926269334,0.0,-0.0012207029999995456,0.0,0.0,0.0,0.0,0.0,0.0,4.8681635640000005,0.0,-0.0012207030000004337,0.0,0.0,0.0,-0.0,0.0,0.0,2.883300486,0.0,0.0,83.94000244140625,1.6399999856948853,-1.4299999475479126,0.0257568359375,1.00970458984375,0.10308837890625,27.270000457763672,0.0,-3.0,-1.52587890625E-4,1.52587890625E-4,Closing,0.0,0.0,0.0,0.0,0.0,0.0,0.0,0.0,
2.8696369999999995,0.0,0.0,0.0,0.0,0.0,0.0,0.0,0.0,3.756103131,0.0,-0.0012207029999995456,0.0,0.0,0.0,-0.0,0.0,0.0,1.9250486310000001,0.0,-0.0012207029999995456,0.0,0.0,0.0,0.0,0.0,0.0,4.869384267,0.0,-0.0012207030000004337,0.0,0.0,0.0,-0.0,0.0,0.0,2.883300486,0.0,0.0,83.94000244140625,1.6399999856948853,-1.440000057220459,0.03173828125,1.00933837890625,0.10809326171875,27.270000457763672,0.0,2.0,-1.52587890625E-4,1.52587890625E-4,Closing,0.0,0.0,0.0,0.0,0.0,0.0,0.0,0.0,
2.8876189999999995,0.0,0.0,0.0,0.0,0.0,0.0,0.0,0.0,3.757323834,0.0,-0.0012207029999995456,0.0,0.0,0.0,-0.0,0.0,0.0,1.926269334,0.0,-0.0012207029999995456,0.0,0.0,0.0,0.0,0.0,0.0,4.8681635640000005,0.0,-0.0012207030000004337,0.0,0.0,0.0,-0.0,0.0,0.0,2.882079783,0.0,0.0,83.93000030517578,1.649999976158142,-1.440000057220459,0.03106689453125,1.0115966796875,0.0989990234375,27.270000457763672,0.0,1.0,-1.52587890625E-4,1.52587890625E-4,Closing,0.0,0.0,0.0,0.0,0.0,0.0,0.0,0.0,
2.9103399999999993,0.0,0.0,0.0,0.0,0.0,0.0,0.0,0.0,3.756103131,0.0,0.0,0.0,0.0,0.0,-0.0,0.0,0.0,1.926269334,0.0,0.0012207029999995456,0.0,0.0,0.0,0.0,0.0,0.0,4.8681635640000005,0.0,0.0012207030000004337,0.0,0.0,0.0,-0.0,0.0,0.0,2.882079783,0.0,0.0,83.93000030517578,1.649999976158142,-1.440000057220459,0.028564453125,1.01214599609375,0.10589599609375,27.270000457763672,0.0,0.0,-1.52587890625E-4,1.52587890625E-4,Closing,0.0,0.0,0.0,0.0,0.0,0.0,0.0,0.0,
2.927660999999999,0.0,0.0,0.0,0.0,0.0,0.0,0.0,0.0,3.757323834,0.0,0.0,0.0,0.0,0.0,-0.0,0.0,0.0,1.926269334,0.0,0.0012207029999995456,0.0,0.0,0.0,0.0,0.0,0.0,4.869384267,0.0,0.0012207030000004337,0.0,0.0,0.0,-0.0,0.0,0.0,2.883300486,0.0,0.0,83.93000030517578,1.649999976158142,-1.440000057220459,0.0303955078125,1.00738525390625,0.10150146484375,27.280000686645508,0.0,1.0,-1.52587890625E-4,1.52587890625E-4,Closing,0.0,0.0,0.0,0.0,0.0,0.0,0.0,0.0,
2.947981999999999,0.0,0.0,0.0,0.0,0.0,0.0,0.0,0.0,3.757323834,0.0,0.0,0.0,0.0,0.0,-0.0,0.0,0.0,1.9250486310000001,0.0,-0.0012207029999995456,0.0,0.0,0.0,0.0,0.0,0.0,4.869384267,0.0,0.0,0.0,0.0,0.0,-0.0,0.0,0.0,2.883300486,0.0,0.0,83.93000030517578,1.649999976158142,-1.440000057220459,0.0277099609375,1.01153564453125,0.10089111328125,27.280000686645508,0.0,-1.0,-1.52587890625E-4,1.52587890625E-4,Closing,0.0,0.0,0.0,0.0,0.0,0.0,0.0,0.0,
2.96721,0.0,0.0,0.0,0.0,0.0,0.0,0.0,0.0,3.756103131,0.0,0.0,0.0,0.0,0.0,-0.0,0.0,0.0,1.926269334,0.0,-0.0012207029999995456,0.0,0.0,0.0,0.0,0.0,0.0,4.8681635640000005,0.0,0.0,0.0,0.0,0.0,-0.0,0.0,0.0,2.882079783,0.0,0.0,83.93000030517578,1.6399999856948853,-1.440000057220459,0.0286865234375,1.01055908203125,0.09979248046875,27.280000686645508,0.0,0.0,-1.52587890625E-4,1.52587890625E-4,Closing,0.0,0.0,0.0,0.0,0.0,0.0,0.0,0.0,
2.9838630000000004,0.0,0.0,0.0,0.0,0.0,0.0,0.0,0.0,3.758544537,0.0,0.0,0.0,0.0,0.0,-0.0,0.0,0.0,1.926269334,0.0,-0.0012207029999995456,0.0,0.0,0.0,0.0,0.0,0.0,4.869384267,0.0,0.0,0.0,0.0,0.0,-0.0,0.0,0.0,2.882079783,0.0,0.0,83.93000030517578,1.6399999856948853,-1.440000057220459,0.0277099609375,1.0115966796875,0.0955810546875,27.280000686645508,0.0,-1.0,-1.52587890625E-4,1.52587890625E-4,Closing,0.0,0.0,0.0,0.0,0.0,0.0,0.0,0.0,
3.003883999999999,0.0,0.0,0.0,0.0,0.0,0.0,0.0,0.0,3.757323834,0.0,0.0,0.0,0.0,0.0,-0.0,0.0,0.0,1.926269334,0.0,0.0,0.0,0.0,0.0,0.0,0.0,0.0,4.869384267,0.0,-0.0012207030000004337,0.0,0.0,0.0,-0.0,0.0,0.0,2.883300486,0.0,0.0,83.94000244140625,1.6399999856948853,-1.4299999475479126,0.0308837890625,1.00518798828125,0.1044921875,27.280000686645508,0.0,-3.0,-1.52587890625E-4,1.52587890625E-4,Closing,0.0,0.0,0.0,0.0,0.0,0.0,0.0,0.0,
3.0213280000000005,0.0,0.0,0.0,0.0,0.0,0.0,0.0,0.0,3.757323834,0.0,0.0,0.0,0.0,0.0,-0.0,0.0,0.0,1.926269334,0.0,0.0,0.0,0.0,0.0,0.0,0.0,0.0,4.866942861,0.0,-0.0012207030000004337,0.0,0.0,0.0,-0.0,0.0,0.0,2.883300486,0.0,0.0,83.94000244140625,1.6399999856948853,-1.4299999475479126,0.03375244140625,1.0111083984375,0.10272216796875,27.280000686645508,0.0,4.0,-1.52587890625E-4,1.52587890625E-4,Closing,0.0,0.0,0.0,0.0,0.0,0.0,0.0,0.0,
3.040552999999999,0.0,0.0,0.0,0.0,0.0,0.0,0.0,0.0,3.757323834,0.0,0.0,0.0,0.0,0.0,-0.0,0.0,0.0,1.927490037,0.0,0.0,0.0,0.0,0.0,0.0,0.0,0.0,4.8681635640000005,0.0,0.0,0.0,0.0,0.0,-0.0,0.0,0.0,2.882079783,0.0,0.0,83.94000244140625,1.6399999856948853,-1.4299999475479126,0.02716064453125,1.00970458984375,0.108154296875,27.280000686645508,0.0,-2.0,-1.52587890625E-4,1.52587890625E-4,Closing,0.0,0.0,0.0,0.0,0.0,0.0,0.0,0.0,
3.0607480000000007,0.0,0.0,0.0,0.0,0.0,0.0,0.0,0.0,3.757323834,0.0,0.0,0.0,0.0,0.0,-0.0,0.0,0.0,1.926269334,0.0,0.0,0.0,0.0,0.0,0.0,0.0,0.0,4.869384267,0.0,0.0,0.0,0.0,0.0,-0.0,0.0,0.0,2.883300486,0.0,0.0,83.94000244140625,1.6399999856948853,-1.4299999475479126,0.026611328125,1.01153564453125,0.1026611328125,27.280000686645508,0.0,-2.0,-1.52587890625E-4,1.52587890625E-4,Closing,0.0,0.0,0.0,0.0,0.0,0.0,0.0,0.0,
3.080463000000001,0.0,0.0,0.0,0.0,0.0,0.0,0.0,0.0,3.757323834,0.0,0.0,0.0,0.0,0.0,-0.0,0.0,0.0,1.926269334,0.0,0.0,0.0,0.0,0.0,0.0,0.0,0.0,4.8681635640000005,0.0,0.0,0.0,0.0,0.0,-0.0,0.0,0.0,2.882079783,0.0,0.0,83.94000244140625,1.6399999856948853,-1.4299999475479126,0.030517578125,1.01025390625,0.10064697265625,27.280000686645508,0.0,1.0,-1.52587890625E-4,1.52587890625E-4,Closing,0.0,0.0,0.0,0.0,0.0,0.0,0.0,0.0,
3.1024659999999993,0.0,0.0,0.0,0.0,0.0,0.0,0.0,0.0,3.757323834,0.0,0.0,0.0,0.0,0.0,-0.0,0.0,0.0,1.926269334,0.0,0.0012207029999995456,0.0,0.0,0.0,0.0,0.0,0.0,4.8681635640000005,0.0,0.0,0.0,0.0,0.0,-0.0,0.0,0.0,2.882079783,0.0,0.0,83.94000244140625,1.6399999856948853,-1.4299999475479126,0.03167724609375,1.00970458984375,0.11260986328125,27.280000686645508,0.0,2.0,-1.52587890625E-4,1.52587890625E-4,Closing,0.0,0.0,0.0,0.0,0.0,0.0,0.0,0.0,
3.1249759999999998,0.0,0.0,0.0,0.0,0.0,0.0,0.0,0.0,3.757323834,0.0,0.0,0.0,0.0,0.0,-0.0,0.0,0.0,1.926269334,0.0,0.0012207029999995456,0.0,0.0,0.0,0.0,0.0,0.0,4.8681635640000005,0.0,0.0,0.0,0.0,0.0,-0.0,0.0,0.0,2.883300486,0.0,0.0,83.94000244140625,1.6399999856948853,-1.4299999475479126,0.0255126953125,1.00982666015625,0.1087646484375,27.280000686645508,0.0,-3.0,-1.52587890625E-4,1.52587890625E-4,Closing,0.0,0.0,0.0,0.0,0.0,0.0,0.0,0.0,
3.142798,0.0,0.0,0.0,0.0,0.0,0.0,0.0,0.0,3.757323834,0.0,0.0,0.0,0.0,0.0,-0.0,0.0,0.0,1.926269334,0.0,-0.0012207029999995456,0.0,0.0,0.0,0.0,0.0,0.0,4.8681635640000005,0.0,0.0,0.0,0.0,0.0,-0.0,0.0,0.0,2.883300486,0.0,0.0,83.94000244140625,1.6399999856948853,-1.4299999475479126,0.0308837890625,1.01007080078125,0.09954833984375,27.280000686645508,0.0,1.0,-1.52587890625E-4,1.52587890625E-4,Closing,0.0,0.0,0.0,0.0,0.0,0.0,0.0,0.0,
3.1634399999999996,0.0,0.0,0.0,0.0,0.0,0.0,0.0,0.0,3.756103131,0.0,0.0,0.0,0.0,0.0,-0.0,0.0,0.0,1.926269334,0.0,-0.0012207029999995456,0.0,0.0,0.0,0.0,0.0,0.0,4.8681635640000005,0.0,0.0,0.0,0.0,0.0,-0.0,0.0,0.0,2.882079783,0.0,0.0,83.94000244140625,1.6399999856948853,-1.4299999475479126,0.03033447265625,1.0107421875,0.107421875,27.280000686645508,0.0,0.0,-1.52587890625E-4,1.52587890625E-4,Closing,0.0,0.0,0.0,0.0,0.0,0.0,0.0,0.0,
3.180612,0.0,0.0,0.0,0.0,0.0,0.0,0.0,0.0,3.757323834,0.0,0.0,0.0,0.0,0.0,-0.0,0.0,0.0,1.926269334,0.0,-0.0012207029999995456,0.0,0.0,0.0,0.0,0.0,0.0,4.8681635640000005,0.0,0.0,0.0,0.0,0.0,-0.0,0.0,0.0,2.883300486,0.0,0.0,83.94000244140625,1.6399999856948853,-1.4299999475479126,0.031982421875,1.0142822265625,0.10235595703125,27.280000686645508,0.0,2.0,-1.52587890625E-4,1.52587890625E-4,Closing,0.0,0.0,0.0,0.0,0.0,0.0,0.0,0.0,
3.2026500000000007,0.0,0.0,0.0,0.0,0.0,0.0,0.0,0.0,3.756103131,0.0,0.0,0.0,0.0,0.0,-0.0,0.0,0.0,1.926269334,0.0,0.0,0.0,0.0,0.0,0.0,0.0,0.0,4.869384267,0.0,0.0,0.0,0.0,0.0,-0.0,0.0,0.0,2.883300486,0.0,0.0,83.94000244140625,1.6399999856948853,-1.4299999475479126,0.02752685546875,1.00775146484375,0.09808349609375,27.280000686645508,0.0,-1.0,-1.52587890625E-4,1.52587890625E-4,Closing,0.0,0.0,0.0,0.0,0.0,0.0,0.0,0.0,
3.2210379999999996,0.0,0.0,0.0,0.0,0.0,0.0,0.0,0.0,3.757323834,0.0,0.0,0.0,0.0,0.0,-0.0,0.0,0.0,1.926269334,0.0,0.0,0.0,0.0,0.0,0.0,0.0,0.0,4.8681635640000005,0.0,0.0,0.0,0.0,0.0,-0.0,0.0,0.0,2.883300486,0.0,0.0,83.93000030517578,1.6399999856948853,-1.4299999475479126,0.028076171875,1.0096435546875,0.09991455078125,27.280000686645508,0.0,0.0,-1.52587890625E-4,1.52587890625E-4,Closing,0.0,0.0,0.0,0.0,0.0,0.0,0.0,0.0,
3.2412670000000006,0.0,0.0,0.0,0.0,0.0,0.0,0.0,0.0,3.757323834,0.0,0.0,0.0,0.0,0.0,-0.0,0.0,0.0,1.926269334,0.0,0.0,0.0,0.0,0.0,0.0,0.0,0.0,4.866942861,0.0,0.0012207030000004337,0.0,0.0,0.0,-0.0,0.0,0.0,2.882079783,0.0,0.0,83.93000030517578,1.6399999856948853,-1.4299999475479126,0.03179931640625,1.00927734375,0.1041259765625,27.280000686645508,0.0,2.0,-1.52587890625E-4,1.52587890625E-4,Closing,0.0,0.0,0.0,0.0,0.0,0.0,0.0,0.0,
3.2617660000000006,0.0,0.0,0.0,0.0,0.0,0.0,0.0,0.0,3.757323834,0.0,0.0,0.0,0.0,0.0,-0.0,0.0,0.0,1.926269334,0.0,0.0,0.0,0.0,0.0,0.0,0.0,0.0,4.8681635640000005,0.0,0.0012207030000004337,0.0,0.0,0.0,-0.0,0.0,0.0,2.882079783,0.0,0.0,83.93000030517578,1.6399999856948853,-1.4299999475479126,0.02783203125,1.0118408203125,0.1053466796875,27.280000686645508,0.0,-1.0,-1.52587890625E-4,1.52587890625E-4,Closing,0.0,0.0,0.0,0.0,0.0,0.0,0.0,0.0,
3.2814090000000005,0.0,0.0,0.0,0.0,0.0,0.0,0.0,0.0,3.758544537,0.0,0.0,0.0,0.0,0.0,-0.0,0.0,0.0,1.926269334,0.0,0.0,0.0,0.0,0.0,0.0,0.0,0.0,4.866942861,0.0,0.0012207030000004337,0.0,0.0,0.0,-0.0,0.0,0.0,2.883300486,0.0,0.0,83.93000030517578,1.6399999856948853,-1.4299999475479126,0.02899169921875,1.0084228515625,0.09674072265625,27.280000686645508,0.0,0.0,-1.52587890625E-4,1.52587890625E-4,Closing,0.0,0.0,0.0,0.0,0.0,0.0,0.0,0.0,
3.303487,0.0,0.0,0.0,0.0,0.0,0.0,0.0,0.0,3.757323834,0.0,0.0,0.0,0.0,0.0,-0.0,0.0,0.0,1.926269334,0.0,0.0012207029999995456,0.0,0.0,0.0,0.0,0.0,0.0,4.8681635640000005,0.0,-0.0012207030000004337,0.0,0.0,0.0,-0.0,0.0,0.0,2.882079783,0.0,0.0,83.93000030517578,1.6399999856948853,-1.4299999475479126,0.0296630859375,1.010498046875,0.10479736328125,27.280000686645508,0.0,0.0,-1.52587890625E-4,1.52587890625E-4,Closing,0.0,0.0,0.0,0.0,0.0,0.0,0.0,0.0,
3.320245,0.0,0.0,0.0,0.0,0.0,0.0,0.0,0.0,3.757323834,0.0,0.0,0.0,0.0,0.0,-0.0,0.0,0.0,1.926269334,0.0,0.0012207029999995456,0.0,0.0,0.0,0.0,0.0,0.0,4.8681635640000005,0.0,-0.0012207030000004337,0.0,0.0,0.0,-0.0,0.0,0.0,2.882079783,0.0,0.0,83.93000030517578,1.6399999856948853,-1.4299999475479126,0.02691650390625,1.012451171875,0.1044921875,27.280000686645508,0.0,-2.0,-1.52587890625E-4,1.52587890625E-4,Closing,0.0,0.0,0.0,0.0,0.0,0.0,0.0,0.0,
3.3408,0.0,0.0,0.0,0.0,0.0,0.0,0.0,0.0,3.757323834,0.0,0.0,0.0,0.0,0.0,-0.0,0.0,0.0,1.926269334,0.0,0.0012207029999995456,0.0,0.0,0.0,0.0,0.0,0.0,4.866942861,0.0,-0.0012207030000004337,0.0,0.0,0.0,-0.0,0.0,0.0,2.882079783,0.0,0.0,83.93000030517578,1.6399999856948853,-1.4299999475479126,0.02667236328125,1.01275634765625,0.10174560546875,27.280000686645508,0.0,-2.0,-1.52587890625E-4,1.52587890625E-4,Closing,0.0,0.0,0.0,0.0,0.0,0.0,0.0,0.0,
3.3603239999999994,0.0,0.0,0.0,0.0,0.0,0.0,0.0,0.0,3.757323834,0.0,0.0,0.0,0.0,0.0,-0.0,0.0,0.0,1.926269334,0.0,-0.0012207029999995456,0.0,0.0,0.0,0.0,0.0,0.0,4.869384267,0.0,0.0,0.0,0.0,0.0,-0.0,0.0,0.0,2.883300486,0.0,0.0,83.94000244140625,1.6399999856948853,-1.4299999475479126,0.0255126953125,1.00933837890625,0.10357666015625,27.280000686645508,0.0,-3.0,-1.52587890625E-4,1.52587890625E-4,Closing,0.0,0.0,0.0,0.0,0.0,0.0,0.0,0.0,
3.3808339999999997,0.0,0.0,0.0,0.0,0.0,0.0,0.0,0.0,3.757323834,0.0,0.0,0.0,0.0,0.0,-0.0,0.0,0.0,1.926269334,0.0,-0.0012207029999995456,0.0,0.0,0.0,0.0,0.0,0.0,4.8681635640000005,0.0,0.0,0.0,0.0,0.0,-0.0,0.0,0.0,2.882079783,0.0,0.0,83.94000244140625,1.6299999952316284,-1.4299999475479126,0.02862548828125,1.010498046875,0.10296630859375,27.280000686645508,0.0,0.0,-1.52587890625E-4,1.52587890625E-4,Closing,0.0,0.0,0.0,0.0,0.0,0.0,0.0,0.0,
3.403263,0.0,0.0,0.0,0.0,0.0,0.0,0.0,0.0,3.757323834,0.0,0.0,0.0,0.0,0.0,-0.0,0.0,0.0,1.926269334,0.0,0.0,0.0,0.0,0.0,0.0,0.0,0.0,4.869384267,0.0,0.0012207030000004337,0.0,0.0,0.0,-0.0,0.0,0.0,2.882079783,0.0,0.0,83.94000244140625,1.6399999856948853,-1.4299999475479126,0.0283203125,1.01318359375,0.10296630859375,27.280000686645508,0.0,0.0,-1.52587890625E-4,1.52587890625E-4,Closing,0.0,0.0,0.0,0.0,0.0,0.0,0.0,0.0,
3.4204029999999994,0.0,0.0,0.0,0.0,0.0,0.0,0.0,0.0,3.757323834,0.0,0.0,0.0,0.0,0.0,-0.0,0.0,0.0,1.926269334,0.0,0.0,0.0,0.0,0.0,0.0,0.0,0.0,4.8681635640000005,0.0,0.0012207030000004337,0.0,0.0,0.0,-0.0,0.0,0.0,2.882079783,0.0,0.0,83.94000244140625,1.6399999856948853,-1.4299999475479126,0.02825927734375,1.013427734375,0.1019287109375,27.280000686645508,0.0,0.0,-1.52587890625E-4,1.52587890625E-4,Closing,0.0,0.0,0.0,0.0,0.0,0.0,0.0,0.0,
3.4399319999999998,0.0,0.0,0.0,0.0,0.0,0.0,0.0,0.0,3.757323834,0.0,0.0,0.0,0.0,0.0,-0.0,0.0,0.0,1.926269334,0.0,0.0,0.0,0.0,0.0,0.0,0.0,0.0,4.8681635640000005,0.0,0.0,0.0,0.0,0.0,-0.0,0.0,0.0,2.882079783,0.0,0.0,83.94000244140625,1.6399999856948853,-1.4299999475479126,0.034423828125,1.01092529296875,0.10272216796875,27.270000457763672,0.0,5.0,-1.52587890625E-4,1.52587890625E-4,Closing,0.0,0.0,0.0,0.0,0.0,0.0,0.0,0.0,
3.4626089999999996,0.0,0.0,0.0,0.0,0.0,0.0,0.0,0.0,3.757323834,0.0,0.0,0.0,0.0,0.0,-0.0,0.0,0.0,1.9238279280000001,0.0,0.0012207029999995456,0.0,0.0,0.0,0.0,0.0,0.0,4.8681635640000005,0.0,0.0,0.0,0.0,0.0,-0.0,0.0,0.0,2.883300486,0.0,0.0,83.94000244140625,1.6399999856948853,-1.440000057220459,0.0284423828125,1.01190185546875,0.09979248046875,27.270000457763672,0.0,0.0,-1.52587890625E-4,1.52587890625E-4,Closing,0.0,0.0,0.0,0.0,0.0,0.0,0.0,0.0,
3.4817390000000006,0.0,0.0,0.0,0.0,0.0,0.0,0.0,0.0,3.757323834,0.0,0.0,0.0,0.0,0.0,-0.0,0.0,0.0,1.927490037,0.0,0.0012207029999995456,0.0,0.0,0.0,0.0,0.0,0.0,4.866942861,0.0,0.0,0.0,0.0,0.0,-0.0,0.0,0.0,2.883300486,0.0,0.0,83.94000244140625,1.6399999856948853,-1.440000057220459,0.0269775390625,1.010498046875,0.10601806640625,27.270000457763672,0.0,-2.0,-1.52587890625E-4,1.52587890625E-4,Closing,0.0,0.0,0.0,0.0,0.0,0.0,0.0,0.0,
3.5035880000000006,0.0,0.0,0.0,0.0,0.0,0.0,0.0,0.0,3.757323834,0.0,0.0,0.0,0.0,0.0,-0.0,0.0,0.0,1.9250486310000001,0.0,-0.0012207029999995456,0.0,0.0,0.0,0.0,0.0,0.0,4.8681635640000005,0.0,0.0,0.0,0.0,0.0,-0.0,0.0,0.0,2.882079783,0.0,0.0,83.94999694824219,1.6299999952316284,-1.4299999475479126,0.0316162109375,1.01385498046875,0.1025390625,27.270000457763672,0.0,2.0,-1.52587890625E-4,1.52587890625E-4,Closing,0.0,0.0,0.0,0.0,0.0,0.0,0.0,0.0,
3.5216629999999998,0.0,0.0,0.0,0.0,0.0,0.0,0.0,0.0,3.757323834,0.0,0.0,0.0,0.0,0.0,-0.0,0.0,0.0,1.926269334,0.0,-0.0012207029999995456,0.0,0.0,0.0,0.0,0.0,0.0,4.8681635640000005,0.0,0.0,0.0,0.0,0.0,-0.0,0.0,0.0,2.883300486,0.0,0.0,83.94999694824219,1.6299999952316284,-1.4299999475479126,0.0316162109375,1.01385498046875,0.1025390625,27.270000457763672,0.0,2.0,-1.52587890625E-4,1.52587890625E-4,Closing,0.0,0.0,0.0,0.0,0.0,0.0,0.0,0.0,
3.541106999999999,0.0,0.0,0.0,0.0,0.0,0.0,0.0,0.0,3.756103131,0.0,0.0,0.0,0.0,0.0,-0.0,0.0,0.0,1.926269334,0.0,-0.0012207029999995456,0.0,0.0,0.0,0.0,0.0,0.0,4.869384267,0.0,-0.0012207030000004337,0.0,0.0,0.0,-0.0,0.0,0.0,2.882079783,0.0,0.0,83.94999694824219,1.6299999952316284,-1.4299999475479126,0.03240966796875,1.00921630859375,0.1065673828125,27.270000457763672,0.0,3.0,-1.52587890625E-4,1.52587890625E-4,Closing,0.0,0.0,0.0,0.0,0.0,0.0,0.0,0.0,
3.560799,0.0,0.0,0.0,0.0,0.0,0.0,0.0,0.0,3.757323834,0.0,0.0,0.0,0.0,0.0,-0.0,0.0,0.0,1.926269334,0.0,0.0,0.0,0.0,0.0,0.0,0.0,0.0,4.8681635640000005,0.0,-0.0012207030000004337,0.0,0.0,0.0,-0.0,0.0,0.0,2.882079783,0.0,0.0,83.95999908447266,1.6399999856948853,-1.440000057220459,0.0283203125,1.0074462890625,0.1082763671875,27.270000457763672,0.0,0.0,-1.52587890625E-4,1.52587890625E-4,Closing,0.0,0.0,0.0,0.0,0.0,0.0,0.0,0.0,
3.5803900000000004,0.0,0.0,0.0,0.0,0.0,0.0,0.0,0.0,3.756103131,0.0,0.0,0.0,0.0,0.0,-0.0,0.0,0.0,1.926269334,0.0,0.0,0.0,0.0,0.0,0.0,0.0,0.0,4.8681635640000005,0.0,-0.0012207030000004337,0.0,0.0,0.0,-0.0,0.0,0.0,2.882079783,0.0,0.0,83.95999908447266,1.6399999856948853,-1.4299999475479126,0.0347900390625,1.011962890625,0.10308837890625,27.270000457763672,0.0,5.0,-1.52587890625E-4,1.52587890625E-4,Closing,0.0,0.0,0.0,0.0,0.0,0.0,0.0,0.0,
3.603696999999999,0.0,0.0,0.0,0.0,0.0,0.0,0.0,0.0,3.758544537,0.0,0.0,0.0,0.0,0.0,-0.0,0.0,0.0,1.926269334,0.0,0.0,0.0,0.0,0.0,0.0,0.0,0.0,4.8681635640000005,0.0,0.0,0.0,0.0,0.0,-0.0,0.0,0.0,2.882079783,0.0,0.0,83.95999908447266,1.649999976158142,-1.440000057220459,0.03167724609375,1.01025390625,0.099853515625,27.270000457763672,0.0,2.0,-1.52587890625E-4,1.52587890625E-4,Closing,0.0,0.0,0.0,0.0,0.0,0.0,0.0,0.0,
3.620168999999999,0.0,0.0,0.0,0.0,0.0,0.0,0.0,0.0,3.757323834,0.0,0.0,0.0,0.0,0.0,-0.0,0.0,0.0,1.926269334,0.0,0.0,0.0,0.0,0.0,0.0,0.0,0.0,4.869384267,0.0,0.0,0.0,0.0,0.0,-0.0,0.0,0.0,2.882079783,0.0,0.0,83.94999694824219,1.649999976158142,-1.440000057220459,0.0286865234375,1.0120849609375,0.103759765625,27.270000457763672,0.0,0.0,-1.52587890625E-4,1.52587890625E-4,Closing,0.0,0.0,0.0,0.0,0.0,0.0,0.0,0.0,
3.6407629999999997,0.0,0.0,0.0,0.0,0.0,0.0,0.0,0.0,3.757323834,0.0,0.0,0.0,0.0,0.0,-0.0,0.0,0.0,1.926269334,0.0,0.0,0.0,0.0,0.0,0.0,0.0,0.0,4.8681635640000005,0.0,0.0,0.0,0.0,0.0,-0.0,0.0,0.0,2.882079783,0.0,0.0,83.95999908447266,1.6399999856948853,-1.440000057220459,0.02239990234375,1.0128173828125,0.1005859375,27.270000457763672,0.0,-6.0,-1.52587890625E-4,1.52587890625E-4,Closing,0.0,0.0,0.0,0.0,0.0,0.0,0.0,0.0,
3.6605099999999995,0.0,0.0,0.0,0.0,0.0,0.0,0.0,0.0,3.756103131,0.0,0.0,0.0,0.0,0.0,-0.0,0.0,0.0,1.926269334,0.0,0.0,0.0,0.0,0.0,0.0,0.0,0.0,4.869384267,0.0,0.0,0.0,0.0,0.0,-0.0,0.0,0.0,2.882079783,0.0,0.0,83.95999908447266,1.6399999856948853,-1.440000057220459,0.0272216796875,1.01019287109375,0.10284423828125,27.270000457763672,0.0,-1.0,-1.52587890625E-4,1.52587890625E-4,Closing,0.0,0.0,0.0,0.0,0.0,0.0,0.0,0.0,
