Time,ClimberA1,ClimberA2,FRpos,FRCurrent,FRspeed,FRsetpoint,FRApos,FRACurrent,FREncpos,FREncSetpoint,FREncSpeed,FLpos,FLCurrent,FLspeed,FLsetpoint,FLApos,FLACurrent,FLEncpos,FLEncSetpoint,FLEncSpeed,BRpos,BRCurrent,BRspeed,BRsetpoint,BRApos,BRACurrent,BREncpos,BREncSetpoint,BREncSpeed,BLpos,BLCurrent,BLspeed,BLsetpoint,BLApos,BLACurrent,BLEncpos,BLEncSetpoint,BLEncSpeed,navx_Pitch,navx_Roll,navx_Yaw,navx_XAcc,navx_YAcc,navx_ZAcc,navx_Temp,navx_Bar,navx_Alt,navx_XDis,navx_YDis,GearPlacerState,ShootOutputV,ShootOutputCurrent,ShootEncPos,ShootEncVelocity,ShootSpeed,ShootSetpoint,CarouselSetpoint,CarouselCurrent,
0.1426399999999994,0.0,0.0,654.0,0.0,0.0,0.0,0.0,0.0,3.870849213,0.0,0.0,-751.0,0.0,0.0,-0.0,0.0,0.0,1.8444822330000001,0.0,0.0,389.0,0.0,0.0,0.0,0.0,0.0,4.843749504,0.0,0.0,-695.0,0.0,0.0,-0.0,0.0,0.0,2.969970399,0.0,0.0,0.8799999952316284,-0.009999999776482582,0.0,-0.00164794921875,0.0123291015625,1.01336669921875,28.110000610351562,0.0,-1.0,0.3845977783203125,-0.4434356689453125,Closing,0.0,0.0,-19871.0,0.0,0.0,0.0,0.0,0.0,
0.17010000000000583,0.0,0.0,654.0,0.0,0.0,0.0,0.0,0.0,3.922118739,0.0,0.0,-751.0,0.0,0.0,-0.0,0.0,0.0,1.8432615300000001,0.0,0.0,389.0,0.0,0.0,0.0,0.0,0.0,4.843749504,0.0,0.0024414059999999793,-695.0,0.0,0.0,-0.0,0.0,0.0,2.969970399,0.0,-0.004882811999999959,0.8799999952316284,-0.009999999776482582,0.0,6.103515625E-4,0.0152587890625,0.9990234375,28.110000610351562,0.0,0.0,0.3845977783203125,-0.4434356689453125,Closing,0.0,0.0,-19871.0,0.0,0.0,0.0,0.0,0.0,
0.203929999999993,0.0,0.0,654.0,0.0,0.0,0.0,0.0,0.0,3.872069916,0.0,0.0012207029999999897,-751.0,0.0,0.0,-0.0,0.0,0.0,1.8444822330000001,0.0,0.0,389.0,0.0,0.0,0.0,0.0,0.0,4.843749504,0.0,0.0024414059999999793,-695.0,0.0,0.0,-0.0,0.0,0.0,2.968749696,0.0,-0.004882811999999959,0.8799999952316284,-0.009999999776482582,0.0,-5.4931640625E-4,0.01800537109375,1.01019287109375,28.110000610351562,0.0,0.0,0.3845977783203125,-0.4434356689453125,Closing,0.0,0.0,-19871.0,0.0,0.0,0.0,0.0,0.0,
0.23020799999999872,0.0,0.0,654.0,0.0,0.0,0.0,0.0,0.0,3.872069916,0.0,-0.0012207029999999897,-751.0,0.0,0.0,-0.0,0.0,0.0,1.8444822330000001,0.0,0.0,389.0,0.0,0.0,0.0,0.0,0.0,4.842528801,0.0,-0.0024414059999999793,-695.0,0.0,0.0,-0.0,0.0,0.0,2.968749696,0.0,0.0,0.8799999952316284,-0.009999999776482582,0.0,0.00103759765625,0.013916015625,1.00701904296875,28.110000610351562,0.0,1.0,0.3845977783203125,-0.4434356689453125,Closing,0.0,0.0,-19871.0,0.0,0.0,0.0,0.0,0.0,
0.25836299999999757,0.0,0.0,654.0,0.0,0.0,0.0,0.0,0.0,3.872069916,0.0,-0.0012207029999999897,-751.0,0.0,0.0,-0.0,0.0,0.0,1.8444822330000001,0.0,0.0,389.0,0.0,0.0,0.0,0.0,0.0,4.849853019,0.0,-0.0024414059999999793,-695.0,0.0,0.0,-0.0,0.0,0.0,2.969970399,0.0,0.0,0.8799999952316284,-0.009999999776482582,0.0,0.00146484375,0.01483154296875,1.00848388671875,28.110000610351562,0.0,1.0,0.3845977783203125,-0.4434356689453125,Closing,0.0,0.0,-19871.0,0.0,0.0,0.0,0.0,0.0,
0.2905819999999949,0.0,0.0,654.0,0.0,0.0,0.0,0.0,0.0,3.872069916,0.0,0.0,-751.0,0.0,0.0,-0.0,0.0,0.0,1.8444822330000001,0.0,0.0,389.0,0.0,0.0,0.0,0.0,0.0,4.843749504,0.0,0.0012207029999995456,-695.0,0.0,0.0,-0.0,0.0,0.0,2.968749696,0.0,0.0,0.8799999952316284,-0.009999999776482582,0.0,-0.0030517578125,0.01837158203125,1.0087890625,28.110000610351562,0.0,-2.0,0.3845977783203125,-0.4434356689453125,Closing,0.0,0.0,-19871.0,0.0,0.0,0.0,0.0,0.0,
0.31454700000000596,0.0,0.0,654.0,0.0,0.0,0.0,0.0,0.0,3.874511322,0.0,0.0,-751.0,0.0,0.0,-0.0,0.0,0.0,1.8432615300000001,0.0,0.0,389.0,0.0,0.0,0.0,0.0,0.0,4.844970207,0.0,0.0012207029999995456,-695.0,0.0,0.0,-0.0,0.0,0.0,2.968749696,0.0,0.0,0.8799999952316284,-0.009999999776482582,0.0,6.103515625E-4,0.02001953125,1.012451171875,28.110000610351562,0.0,0.0,0.3845977783203125,-0.4434356689453125,Closing,0.0,0.0,-19871.0,0.0,0.0,0.0,0.0,0.0,
0.34500599999999393,0.0,0.0,654.0,0.0,0.0,0.0,0.0,0.0,3.870849213,0.0,0.0,-751.0,0.0,0.0,-0.0,0.0,0.0,1.8444822330000001,0.0,0.0,389.0,0.0,0.0,0.0,0.0,0.0,4.842528801,0.0,-0.0012207029999995456,-695.0,0.0,0.0,-0.0,0.0,0.0,2.968749696,0.0,0.0,0.8799999952316284,-0.009999999776482582,0.0,-0.00323486328125,0.0166015625,1.0130615234375,28.110000610351562,0.0,-3.0,0.3845977783203125,-0.4434356689453125,Closing,0.0,0.0,-19871.0,0.0,0.0,0.0,0.0,0.0,
0.37248399999999676,0.0,0.0,654.0,0.0,0.0,0.0,0.0,0.0,3.865966401,0.0,0.0,-751.0,0.0,0.0,-0.0,0.0,0.0,1.8432615300000001,0.0,0.0,389.0,0.0,0.0,0.0,0.0,0.0,4.843749504,0.0,0.0,-695.0,0.0,0.0,-0.0,0.0,0.0,2.968749696,0.0,0.0,0.8799999952316284,-0.009999999776482582,0.0,-0.00146484375,0.01617431640625,1.00665283203125,28.110000610351562,0.0,-1.0,0.3845977783203125,-0.4434356689453125,Closing,0.0,0.0,-19871.0,0.0,0.0,0.0,0.0,0.0,
0.40517299999999523,0.0,0.0,654.0,0.0,0.0,0.0,0.0,0.0,3.873290619,0.0,0.0,-751.0,0.0,0.0,-0.0,0.0,0.0,1.8432615300000001,0.0,0.0,389.0,0.0,0.0,0.0,0.0,0.0,4.843749504,0.0,0.0,-695.0,0.0,0.0,-0.0,0.0,0.0,2.968749696,0.0,0.0,0.8799999952316284,-0.009999999776482582,0.0,-4.2724609375E-4,0.01800537109375,1.01226806640625,28.110000610351562,0.0,0.0,0.3845977783203125,-0.4434356689453125,Closing,0.0,0.0,-19871.0,0.0,0.0,0.0,0.0,0.0,
0.4294520000000048,0.0,0.0,654.0,0.0,0.0,0.0,0.0,0.0,3.872069916,0.0,0.0012207029999999897,-751.0,0.0,0.0,-0.0,0.0,0.0,1.8444822330000001,0.0,0.0,389.0,0.0,0.0,0.0,0.0,0.0,4.843749504,0.0,0.0012207029999995456,-695.0,0.0,0.0,-0.0,0.0,0.0,2.969970399,0.0,0.0,0.8799999952316284,-0.009999999776482582,0.0,-0.00103759765625,0.016845703125,1.00701904296875,28.110000610351562,0.0,0.0,0.3845977783203125,-0.4434356689453125,Closing,0.0,0.0,-19871.0,0.0,0.0,0.0,0.0,0.0,
0.45696600000000037,0.0,0.0,654.0,0.0,0.0,0.0,0.0,0.0,3.872069916,0.0,0.0012207029999999897,-751.0,0.0,0.0,-0.0,0.0,0.0,1.8444822330000001,0.0,0.0,389.0,0.0,0.0,0.0,0.0,0.0,4.844970207,0.0,0.0012207029999995456,-695.0,0.0,0.0,-0.0,0.0,0.0,2.968749696,0.0,0.0,0.8899999856948853,0.0,0.0,-6.103515625E-5,0.0126953125,1.00732421875,28.110000610351562,0.0,0.0,0.3845977783203125,-0.4434356689453125,Closing,0.0,0.0,-19871.0,0.0,0.0,0.0,0.0,0.0,
0.48902999999999885,0.0,0.0,654.0,0.0,0.0,0.0,0.0,0.0,3.868407807,0.0,-0.0012207029999999897,-751.0,0.0,0.0,-0.0,0.0,0.0,1.8444822330000001,0.0,0.0,389.0,0.0,0.0,0.0,0.0,0.0,4.847411613,0.0,0.0,-695.0,0.0,0.0,-0.0,0.0,0.0,2.968749696,0.0,0.0,0.8899999856948853,0.0,0.0,0.0,0.01531982421875,1.01116943359375,28.110000610351562,0.0,0.0,0.3845977783203125,-0.4434356689453125,Closing,0.0,0.0,-19871.0,0.0,0.0,0.0,0.0,0.0,
0.5155310000000026,0.0,0.0,654.0,0.0,0.0,0.0,0.0,0.0,3.870849213,0.0,-0.0012207029999999897,-751.0,0.0,0.0,-0.0,0.0,0.0,1.8444822330000001,0.0,0.0,389.0,0.0,0.0,0.0,0.0,0.0,4.844970207,0.0,0.0,-695.0,0.0,0.0,-0.0,0.0,0.0,2.968749696,0.0,0.0,0.8899999856948853,0.0,0.0,-4.8828125E-4,0.01715087890625,1.010009765625,28.110000610351562,0.0,0.0,0.3845977783203125,-0.4434356689453125,Closing,0.0,0.0,-19871.0,0.0,0.0,0.0,0.0,0.0,
0.5466230000000069,0.0,0.0,654.0,0.0,0.0,0.0,0.0,0.0,3.872069916,0.0,0.0012207029999999897,-751.0,0.0,0.0,-0.0,0.0,0.0,1.8444822330000001,0.0,0.0,389.0,0.0,0.0,0.0,0.0,0.0,4.847411613,0.0,-0.0012207029999995456,-695.0,0.0,0.0,-0.0,0.0,0.0,2.968749696,0.0,0.0,0.8899999856948853,0.0,0.0,-0.00140380859375,0.01513671875,0.99798583984375,28.139999389648438,0.0,-1.0,0.3845977783203125,-0.4434356689453125,Closing,0.0,0.0,-19871.0,0.0,0.0,0.0,0.0,0.0,
0.573127999999997,0.0,0.0,654.0,0.0,0.0,0.0,0.0,0.0,3.872069916,0.0,-0.0012207029999999897,-751.0,0.0,0.0,-0.0,0.0,0.0,1.8457029360000001,0.0,0.0,389.0,0.0,0.0,0.0,0.0,0.0,4.843749504,0.0,0.0,-695.0,0.0,0.0,-0.0,0.0,0.0,2.969970399,0.0,0.0,0.8899999856948853,0.0,0.0,0.0029296875,0.0194091796875,1.0198974609375,28.139999389648438,0.0,3.0,0.3845977783203125,-0.4434356689453125,Closing,0.0,0.0,-19871.0,0.0,0.0,0.0,0.0,0.0,
0.6039719999999943,0.0,0.0,654.0,0.0,0.0,0.0,0.0,0.0,3.873290619,0.0,-0.0012207029999999897,-751.0,0.0,0.0,-0.0,0.0,0.0,1.8444822330000001,0.0,0.0,389.0,0.0,0.0,0.0,0.0,0.0,4.843749504,0.0,0.0,-695.0,0.0,0.0,-0.0,0.0,0.0,2.968749696,0.0,0.0,0.8799999952316284,0.0,0.0,-9.1552734375E-4,0.0167236328125,1.00701904296875,28.139999389648438,0.0,0.0,0.3845977783203125,-0.4434356689453125,Closing,0.0,0.0,-19871.0,0.0,0.0,0.0,0.0,0.0,
0.6312550000000047,0.0,0.0,654.0,0.0,0.0,0.0,0.0,0.0,3.870849213,0.0,0.0012207029999999897,-751.0,0.0,0.0,-0.0,0.0,0.0,1.8444822330000001,0.0,0.0,389.0,0.0,0.0,0.0,0.0,0.0,4.849853019,0.0,0.0,-695.0,0.0,0.0,-0.0,0.0,0.0,2.969970399,0.0,0.0,0.8799999952316284,-0.009999999776482582,0.0,4.8828125E-4,0.01568603515625,1.00921630859375,28.139999389648438,0.0,0.0,0.3845977783203125,-0.4434356689453125,Closing,-12.55,0.0,-19871.0,0.0,0.0,-1600.0,0.0,0.0,
0.658494000000006,0.0,0.0,654.0,0.0,0.0,0.0,0.0,0.0,3.873290619,0.0,0.0012207029999999897,-751.0,0.0,0.0,-0.0,0.0,0.0,1.8444822330000001,0.0,0.0,389.0,0.0,0.0,0.0,0.0,0.0,4.844970207,0.0,0.0,-695.0,0.0,0.0,-0.0,0.0,0.0,2.969970399,0.0,0.0,0.8899999856948853,-0.009999999776482582,0.0,0.00311279296875,0.0157470703125,1.003662109375,28.139999389648438,0.0,3.0,0.3845977783203125,-0.4434356689453125,Closing,-12.55,21.625,-19871.0,0.0,0.0,-1600.0,0.0,0.0,
0.6885840000000025,24.125,0.0,654.0,0.0,0.0,0.0,0.0,0.0,3.872069916,0.0,-0.0012207029999999897,-751.0,0.0,0.0,-0.0,0.0,0.0,1.8469236390000001,0.0,0.0,389.0,0.0,0.0,0.0,0.0,0.0,4.844970207,0.0,0.0012207029999995456,-695.0,0.0,0.0,-0.0,0.0,0.0,2.96630829,0.0,0.0,0.8899999856948853,0.0,0.0,-6.103515625E-4,0.00738525390625,1.02264404296875,28.139999389648438,0.0,0.0,0.3845977783203125,-0.4434356689453125,Closing,-12.55,69.75,-19871.0,0.0,-15.0,-1600.0,0.0,0.0,
0.714724000000002,24.125,0.0,654.0,0.0,0.0,0.0,0.0,0.0,3.872069916,0.0,-0.0012207029999999897,-751.0,0.0,0.0,-0.0,0.0,0.0,1.8432615300000001,0.0,0.0,389.0,0.0,0.0,0.0,0.0,0.0,4.843749504,0.0,0.0012207029999995456,-695.0,0.0,0.0,-0.0,0.0,0.0,2.968749696,0.0,0.0,0.8899999856948853,-0.009999999776482582,0.0,-0.00115966796875,0.02032470703125,1.00665283203125,28.139999389648438,0.0,0.0,0.3845977783203125,-0.4434356689453125,Closing,-12.55,79.0,-19871.0,0.0,-45.0,-1600.0,0.0,0.0,
0.7450380000000004,69.5,0.0,654.0,0.0,0.0,0.0,0.0,0.0,3.873290619,0.0,0.0,-751.0,0.0,0.0,-0.0,0.0,0.0,1.8432615300000001,0.0,0.0,389.0,0.0,0.0,0.0,0.0,0.0,4.842528801,0.0,0.0,-695.0,0.0,0.0,-0.0,0.0,0.0,2.969970399,0.0,0.0,0.8899999856948853,-0.009999999776482582,0.0,-0.00238037109375,0.005615234375,1.00811767578125,28.139999389648438,0.0,-2.0,0.384552001953125,-0.4434356689453125,Closing,-10.25,77.125,-19897.0,-12.0,-157.5,-1600.0,0.0,0.0,
0.7712179999999935,69.5,0.0,654.0,0.0,0.0,0.0,0.0,0.0,3.872069916,0.0,0.0,-751.0,0.0,0.0,-0.0,0.0,0.0,1.8444822330000001,0.0,0.0,389.0,0.0,0.0,0.0,0.0,0.0,4.855956534000001,0.0,-0.0012207029999995456,-695.0,0.0,0.0,-0.0,0.0,0.0,2.969970399,0.0,0.0,0.8799999952316284,-0.009999999776482582,0.0,0.0079345703125,0.037841796875,1.013427734375,28.139999389648438,0.0,8.0,0.384521484375,-0.44342041015625,Closing,-10.25,75.625,-19897.0,-12.0,-232.5,-1600.0,0.0,0.0,
0.8035,69.5,0.0,654.0,0.0,0.0,0.0,0.0,0.0,3.872069916,0.0,0.0012207029999999897,-751.0,0.0,0.0,-0.0,0.0,0.0,1.8457029360000001,0.0,0.0,389.0,0.0,0.0,0.0,0.0,0.0,4.844970207,0.0,-0.0012207029999995456,-695.0,0.0,0.0,-0.0,0.0,0.0,2.967528993,0.0,0.0,0.8999999761581421,-0.009999999776482582,0.0,0.01220703125,-0.0220947265625,1.01092529296875,28.139999389648438,0.0,12.0,0.384521484375,-0.44342041015625,Closing,-10.25,74.625,-19897.0,-12.0,-307.5,-1600.0,0.0,0.0,
0.829849000000002,69.5,0.0,654.0,0.0,0.0,0.0,0.0,0.0,3.872069916,0.0,-0.0012207029999999897,-751.0,0.0,0.0,-0.0,0.0,0.0,1.8444822330000001,0.0,0.0,389.0,0.0,0.0,0.0,0.0,0.0,4.846190910000001,0.0,0.0012207029999995456,-695.0,0.0,0.0,-0.0,0.0,0.0,2.968749696,0.0,0.0,0.8899999856948853,-0.009999999776482582,0.0,-0.01593017578125,0.05657958984375,0.96722412109375,28.139999389648438,0.0,-15.0,0.3845977783203125,-0.4435272216796875,Closing,-10.25,71.75,-19897.0,-12.0,-465.0,-1600.0,0.0,0.0,
0.8561100000000006,69.5,0.0,654.0,0.0,0.0,0.0,0.0,0.0,3.872069916,0.0,-0.0012207029999999897,-751.0,0.0,0.0,-0.0,0.0,0.0,1.8444822330000001,0.0,0.0,389.0,0.0,0.0,0.0,0.0,0.0,4.843749504,0.0,0.0012207029999995456,-695.0,0.0,0.0,-0.0,0.0,0.0,2.968749696,0.0,0.0,0.8899999856948853,0.0,0.0,-0.01788330078125,-0.0157470703125,1.015869140625,28.139999389648438,0.0,-17.0,0.384613037109375,-0.443572998046875,Closing,-10.350000000000001,70.25,-19992.0,-69.0,-540.0,-1600.0,0.0,0.0,
0.8862390000000014,69.625,0.0,654.0,0.0,0.0,0.0,0.0,0.0,3.867187104,0.0,0.0,-751.0,0.0,0.0,-0.0,0.0,0.0,1.8432615300000001,0.0,0.0,389.0,0.0,0.0,0.0,0.0,0.0,4.843749504,0.0,0.0,-695.0,0.0,0.0,-0.0,0.0,0.0,2.968749696,0.0,0.0,0.8899999856948853,-0.009999999776482582,0.0,-0.001220703125,0.035400390625,1.02838134765625,28.139999389648438,0.0,0.0,0.384613037109375,-0.4436187744140625,Closing,-10.350000000000001,69.5,-19992.0,-69.0,-615.0,-1600.0,0.0,0.0,
0.9140099999999948,69.625,0.0,654.0,0.0,0.0,0.0,0.0,0.0,3.870849213,0.0,0.0,-751.0,0.0,0.0,-0.0,0.0,0.0,1.8432615300000001,0.0,0.0,389.0,0.0,0.0,0.0,0.0,0.0,4.848632316000001,0.0,0.0,-695.0,0.0,0.0,-0.0,0.0,0.0,2.968749696,0.0,0.0,0.9100000262260437,-0.019999999552965164,0.0,-0.0147705078125,0.01336669921875,1.000732421875,28.139999389648438,0.0,-14.0,0.384613037109375,-0.4436187744140625,Closing,-10.350000000000001,66.875,-19992.0,-69.0,-757.5,-1600.0,0.0,0.0,
0.9440430000000051,69.5,0.0,654.0,0.0,0.0,0.0,0.0,0.0,3.873290619,0.0,0.0,-751.0,0.0,0.0,-0.0,0.0,0.0,1.8444822330000001,0.0,0.0,389.0,0.0,0.0,0.0,0.0,0.0,4.843749504,0.0,0.0024414060000008675,-695.0,0.0,0.0,-0.0,0.0,0.0,2.968749696,0.0,0.0,0.8999999761581421,-0.019999999552965164,0.0,-0.00537109375,0.044189453125,1.03314208984375,28.139999389648438,0.0,-4.0,0.384613037109375,-0.443603515625,Closing,-10.350000000000001,65.75,-19992.0,-69.0,-825.0,-1600.0,0.0,0.0,
0.9713340000000026,69.5,0.0,654.0,0.0,0.0,0.0,0.0,0.0,3.872069916,0.0,0.0,-751.0,0.0,0.0,-0.0,0.0,0.0,1.8444822330000001,0.0,0.0,389.0,0.0,0.0,0.0,0.0,0.0,4.842528801,0.0,-0.003662109000000413,-695.0,0.0,0.0,-0.0,0.0,0.0,2.969970399,0.0,0.0,0.9100000262260437,-0.019999999552965164,0.0,-9.1552734375E-4,-0.01580810546875,1.0565185546875,28.139999389648438,0.0,0.0,0.384613037109375,-0.4435272216796875,Closing,-10.45,63.75,-20151.0,-123.0,-960.0,-1600.0,0.0,0.0,
1.002797000000006,69.5,0.0,654.0,0.0,0.0,0.0,0.0,0.0,3.870849213,0.0,0.0,-751.0,0.0,0.0,-0.0,0.0,0.0,1.8444822330000001,0.0,0.0,389.0,0.0,0.0,0.0,0.0,0.0,4.842528801,0.0,-0.003662109000000413,-695.0,0.0,0.0,-0.0,0.0,0.0,2.96630829,0.0,0.0,0.8999999761581421,-0.019999999552965164,0.0,0.03704833984375,0.01959228515625,1.05242919921875,28.139999389648438,0.0,37.0,0.3846893310546875,-0.44354248046875,Closing,-10.45,62.5,-20151.0,-123.0,-1027.5,-1600.0,0.0,0.0,
1.0285090000000054,68.875,0.0,654.0,0.0,0.0,0.0,0.0,0.0,3.872069916,0.0,0.0,-751.0,0.0,0.0,-0.0,0.0,0.0,1.8457029360000001,0.0,0.0,389.0,0.0,0.0,0.0,0.0,0.0,4.843749504,0.0,0.0012207029999995456,-695.0,0.0,0.0,-0.0,0.0,0.0,2.967528993,0.0,0.0,0.8999999761581421,-0.009999999776482582,0.0,-0.04669189453125,-0.01385498046875,0.9927978515625,28.139999389648438,0.0,-46.0,0.3848114013671875,-0.4434356689453125,Closing,-10.45,61.875,-20151.0,-123.0,-1095.0,-1600.0,0.0,0.0,
1.055649000000005,67.25,0.0,654.0,0.0,0.0,0.0,0.0,0.0,3.874511322,0.0,0.0,-751.0,0.0,0.0,-0.0,0.0,0.0,1.8444822330000001,0.0,0.0,389.0,0.0,0.0,0.0,0.0,0.0,4.843749504,0.0,0.0012207029999995456,-695.0,0.0,0.0,-0.0,0.0,0.0,2.969970399,0.0,0.0,0.9100000262260437,-0.019999999552965164,0.0,0.049072265625,0.0164794921875,1.05938720703125,28.149999618530273,0.0,49.0,0.3848876953125,-0.443389892578125,Closing,-10.45,61.0,-20151.0,-123.0,-1155.0,-1600.0,0.0,0.0,
1.0846609999999928,67.25,0.0,654.0,0.0,0.0,0.0,0.0,0.0,3.872069916,0.0,0.0,-751.0,0.0,0.0,-0.0,0.0,0.0,1.8444822330000001,0.0,0.0,389.0,0.0,0.0,0.0,0.0,0.0,4.842528801,0.0,0.0,-695.0,0.0,0.0,-0.0,0.0,0.0,2.968749696,0.0,0.0,0.9100000262260437,-0.009999999776482582,0.0,0.00225830078125,-0.02252197265625,1.07965087890625,28.149999618530273,0.0,2.0,0.385040283203125,-0.4433441162109375,Closing,-8.461681329423264,56.125,-20367.0,-171.0,-1275.0,-1600.0,0.0,0.0,
1.1139330000000045,67.25,0.0,654.0,0.0,0.0,0.0,0.0,0.0,3.870849213,0.0,0.0,-751.0,0.0,0.0,-0.0,0.0,0.0,1.8432615300000001,0.0,0.0,389.0,0.0,0.0,0.0,0.0,0.0,4.847411613,0.0,0.0,-695.0,0.0,0.0,-0.0,0.0,0.0,2.969970399,0.0,0.0,0.8999999761581421,-0.019999999552965164,0.0,0.03228759765625,0.0301513671875,1.021240234375,28.149999618530273,0.0,32.0,0.3852996826171875,-0.44329833984375,Closing,-7.593548387096774,51.75,-20367.0,-171.0,-1335.0,-1600.0,0.0,0.0,
1.144877999999997,57.875,0.0,654.0,0.0,0.0,0.0,0.0,0.0,3.872069916,0.0,0.0012207029999999897,-751.0,0.0,0.0,-0.0,0.0,0.0,1.8444822330000001,0.0,0.0,389.0,0.0,0.0,0.0,0.0,0.0,4.844970207,0.0,-0.0012207029999995456,-695.0,0.0,0.0,-0.0,0.0,0.0,2.968749696,0.0,0.0,0.8999999761581421,-0.019999999552965164,0.0,3.662109375E-4,0.02685546875,1.044921875,28.149999618530273,0.0,0.0,0.385467529296875,-0.4432525634765625,Closing,-8.48260019550342,38.25,-20367.0,-171.0,-1447.5,-1600.0,0.0,0.0,
1.1749470000000002,57.875,0.0,654.0,0.0,0.0,0.0,0.0,0.0,3.862304292,0.0,-0.0012207029999999897,-751.0,0.0,0.0,-0.0,0.0,0.0,1.8432615300000001,0.0,0.0,389.0,0.0,0.0,0.0,0.0,0.0,4.844970207,0.0,0.0012207029999995456,-695.0,0.0,0.0,-0.0,0.0,0.0,2.969970399,0.0,-0.0012207029999999897,0.9100000262260437,-0.019999999552965164,0.0,-0.00958251953125,0.00128173828125,0.96624755859375,28.149999618530273,0.0,-9.0,0.385467529296875,-0.4432525634765625,Closing,-7.007820136852394,23.5,-20367.0,-171.0,-1545.0,-1600.0,0.0,0.0,
1.2177430000000022,37.375,0.0,654.0,0.0,0.0,0.0,0.0,0.0,3.870849213,0.0,-0.0012207029999999897,-751.0,0.0,0.0,-0.0,0.0,0.0,1.849365045,0.0,0.0,389.0,0.0,0.0,0.0,0.0,0.0,4.843749504,0.0,0.0012207029999995456,-695.0,0.0,0.0,-0.0,0.0,0.0,2.969970399,0.0,-0.0012207029999999897,0.8999999761581421,-0.009999999776482582,0.0,-0.01287841796875,0.02105712890625,1.06951904296875,28.149999618530273,0.0,-12.0,0.3854827880859375,-0.443389892578125,Closing,-4.640273704789834,17.5,-20625.0,-210.0,-1582.5,-1600.0,0.0,0.0,
1.2510420000000013,37.375,0.0,654.0,0.0,0.0,0.0,0.0,0.0,3.870849213,0.0,0.0,-751.0,0.0,0.0,-0.0,0.0,0.0,1.8444822330000001,0.0,0.0,389.0,0.0,0.0,0.0,0.0,0.0,4.843749504,0.0,0.0,-695.0,0.0,0.0,-0.0,0.0,0.0,2.968749696,0.0,0.0012207029999999897,0.9100000262260437,0.0,0.0,0.005859375,-0.0225830078125,0.9248046875,28.149999618530273,0.0,5.0,0.3854827880859375,-0.44342041015625,Closing,-6.1678885630498534,11.125,-20625.0,-210.0,-1642.5,-1600.0,0.0,0.0,
1.2758289999999979,16.75,0.0,654.0,0.0,0.0,0.0,0.0,0.0,3.8903804610000003,0.0,0.0,-751.0,0.0,0.0,-0.0,0.0,0.0,1.8444822330000001,0.0,0.0,389.0,0.0,0.0,0.0,0.0,0.0,4.844970207,0.0,0.0,-695.0,0.0,0.0,-0.0,0.0,0.0,2.969970399,0.0,0.0,0.9100000262260437,-0.019999999552965164,0.0,-0.0029296875,-0.006103515625,0.9989013671875,28.149999618530273,0.0,-2.0,0.3854827880859375,-0.4436492919921875,Closing,-5.628054740957967,8.875,-20625.0,-210.0,-1657.5,-1600.0,0.0,0.0,
1.3079049999999988,8.0,0.0,654.0,0.0,0.0,0.0,0.0,0.0,3.872069916,0.0,0.0,-751.0,0.0,0.0,-0.0,0.0,0.0,1.8444822330000001,0.0,0.0,389.0,0.0,0.0,0.0,0.0,0.0,4.843749504,0.0,0.0,-695.0,0.0,0.0,-0.0,0.0,0.0,2.968749696,0.0,0.0,0.8899999856948853,-0.019999999552965164,0.0,0.0177001953125,-0.00823974609375,0.94293212890625,28.149999618530273,0.0,18.0,0.3854827880859375,-0.4438018798828125,Closing,-5.352394916911046,7.625,-20625.0,-210.0,-1672.5,-1600.0,0.0,0.0,
1.3318040000000038,8.0,0.0,654.0,0.0,0.0,0.0,0.0,0.0,3.873290619,0.0,0.0012207029999999897,-751.0,0.0,0.0,-0.0,0.0,0.0,1.850585748,0.0,0.0,389.0,0.0,0.0,0.0,0.0,0.0,4.843749504,0.0,0.0,-695.0,0.0,0.0,-0.0,0.0,0.0,2.9614254780000002,0.0,0.0,0.8799999952316284,-0.009999999776482582,0.0,-0.0089111328125,0.00433349609375,0.94500732421875,28.149999618530273,0.0,-8.0,0.3854827880859375,-0.444000244140625,Closing,-5.334408602150537,5.875,-20897.0,-225.0,-1687.5,-1600.0,0.0,0.0,
1.3656760000000068,8.0,0.0,654.0,0.0,0.0,0.0,0.0,0.0,3.873290619,0.0,0.0012207029999999897,-751.0,0.0,0.0,-0.0,0.0,0.0,1.8457029360000001,0.0,0.0,389.0,0.0,0.0,0.0,0.0,0.0,4.844970207,0.0,0.0,-695.0,0.0,0.0,-0.0,0.0,0.0,2.969970399,0.0,0.0,0.8700000047683716,-0.03999999910593033,0.0,-1.220703125E-4,-0.0203857421875,0.99505615234375,28.149999618530273,0.0,0.0,0.3854827880859375,-0.444122314453125,Closing,-5.168817204301075,5.375,-20897.0,-225.0,-1695.0,-1600.0,0.0,0.0,
1.3918110000000015,5.75,0.0,654.0,0.0,0.0,0.0,0.0,0.0,3.872069916,0.0,-0.0012207029999999897,-751.0,0.0,0.0,-0.0,0.0,0.0,1.8432615300000001,0.0,0.0,389.0,0.0,0.0,0.0,0.0,0.0,4.843749504,0.0,-0.0012207029999995456,-695.0,0.0,0.0,-0.0,0.0,0.0,2.968749696,0.0,0.0,0.8600000143051147,-0.03999999910593033,0.0,3.0517578125E-4,-0.00970458984375,1.02496337890625,28.149999618530273,0.0,1.0,0.3854827880859375,-0.4444122314453125,Closing,-5.133333333333333,5.0,-20897.0,-225.0,-1695.0,-1600.0,0.0,0.0,
1.4177259999999952,5.75,0.0,654.0,0.0,0.0,0.0,0.0,0.0,3.870849213,0.0,-0.0012207029999999897,-751.0,0.0,0.0,-0.0,0.0,0.0,1.8432615300000001,0.0,0.0,389.0,0.0,0.0,0.0,0.0,0.0,4.843749504,0.0,-0.0012207029999995456,-695.0,0.0,0.0,-0.0,0.0,0.0,2.972411805,0.0,0.0,0.8700000047683716,-0.03999999910593033,0.0,0.0225830078125,0.0078125,1.02032470703125,28.149999618530273,0.0,23.0,0.38555908203125,-0.4447479248046875,Closing,-5.097849462365591,4.75,-20897.0,-225.0,-1695.0,-1600.0,0.0,0.0,
1.4491330000000016,5.75,0.0,654.0,0.0,0.0,0.0,0.0,0.0,3.873290619,0.0,0.0012207029999999897,-751.0,0.0,0.0,-0.0,0.0,0.0,1.8432615300000001,0.0,0.0,389.0,0.0,0.0,0.0,0.0,0.0,4.844970207,0.0,0.0,-695.0,0.0,0.0,-0.0,0.0,0.0,2.968749696,0.0,-0.0012207029999999897,0.8899999856948853,-0.029999999329447746,0.0,0.0040283203125,0.04754638671875,1.01397705078125,28.149999618530273,0.0,4.0,0.3856353759765625,-0.4450225830078125,Closing,-5.1042033235581625,4.625,-21169.0,-226.0,-1695.0,-1600.0,0.0,0.0,
1.4741549999999988,5.375,0.0,654.0,0.0,0.0,0.0,0.0,0.0,3.872069916,0.0,0.0012207029999999897,-751.0,0.0,0.0,-0.0,0.0,0.0,1.8457029360000001,0.0,0.0,389.0,0.0,0.0,0.0,0.0,0.0,4.843749504,0.0,0.0,-695.0,0.0,0.0,-0.0,0.0,0.0,2.985839538,0.0,0.0012207029999999897,0.9100000262260437,-0.03999999910593033,0.0,0.0196533203125,0.0115966796875,1.00909423828125,28.149999618530273,0.0,20.0,0.385711669921875,-0.44512939453125,Closing,-5.056500488758553,4.5,-21169.0,-226.0,-1695.0,-1600.0,0.0,0.0,
1.507154999999999,4.5,0.0,654.0,0.0,0.0,0.0,0.0,0.0,3.870849213,0.0,-0.0012207029999999897,-751.0,0.0,0.0,-0.0,0.0,0.0,1.8432615300000001,0.0,0.0,389.0,0.0,0.0,0.0,0.0,0.0,4.842528801,0.0,0.0,-695.0,0.0,0.0,-0.0,0.0,0.0,2.969970399,0.0,0.0012207029999999897,0.8999999761581421,-0.03999999910593033,0.0,0.03338623046875,0.01263427734375,0.99285888671875,28.149999618530273,0.0,34.0,0.385894775390625,-0.44512939453125,Closing,-5.151906158357772,4.625,-21169.0,-226.0,-1687.5,-1600.0,0.0,0.0,
1.5316919999999954,4.5,0.0,654.0,0.0,0.0,0.0,0.0,0.0,3.872069916,0.0,0.0,-751.0,0.0,0.0,-0.0,0.0,0.0,1.8444822330000001,0.0,0.0,389.0,0.0,0.0,0.0,0.0,0.0,4.842528801,0.0,0.0,-695.0,0.0,0.0,-0.0,0.0,0.0,2.977294617,0.0,-0.0012207029999999897,0.8899999856948853,-0.029999999329447746,0.0,0.00567626953125,0.02593994140625,1.03564453125,28.149999618530273,0.0,6.0,0.3861846923828125,-0.44512939453125,Closing,-5.116129032258065,4.75,-21169.0,-226.0,-1687.5,-1600.0,0.0,0.0,
1.5641089999999966,4.5,0.0,654.0,0.0,0.0,0.0,0.0,0.0,3.870849213,0.0,0.0,-751.0,0.0,0.0,-0.0,0.0,0.0,1.8444822330000001,0.0,0.0,389.0,0.0,0.0,0.0,0.0,0.0,4.852294425,0.0,0.0,-695.0,0.0,0.0,-0.0,0.0,0.0,2.969970399,0.0,-0.0012207029999999897,0.8799999952316284,-0.029999999329447746,0.0,0.0196533203125,0.05804443359375,1.07354736328125,28.15999984741211,0.0,20.0,0.386199951171875,-0.4450836181640625,Closing,-5.199608993157381,4.625,-21443.0,-224.0,-1680.0,-1600.0,0.0,0.0,
1.5902060000000056,5.25,0.0,654.0,0.0,0.0,0.0,0.0,0.0,3.870849213,0.0,0.0012207029999999897,-751.0,0.0,0.0,-0.0,0.0,0.0,1.8444822330000001,0.0,0.0,389.0,0.0,0.0,0.0,0.0,0.0,4.843749504,0.0,0.0012207029999995456,-695.0,0.0,0.0,-0.0,0.0,0.0,2.969970399,0.0,0.0012207029999999897,0.8799999952316284,-0.009999999776482582,0.0,0.02001953125,0.0340576171875,1.04534912109375,28.15999984741211,0.0,20.0,0.386322021484375,-0.4449005126953125,Closing,-5.175757575757576,4.75,-21443.0,-224.0,-1680.0,-1600.0,0.0,0.0,
1.6198329999999987,5.25,0.0,654.0,0.0,0.0,0.0,0.0,0.0,3.872069916,0.0,0.0012207029999999897,-751.0,0.0,0.0,-0.0,0.0,0.0,1.8444822330000001,0.0,0.0,389.0,0.0,0.0,0.0,0.0,0.0,4.846190910000001,0.0,0.0012207029999995456,-695.0,0.0,0.0,-0.0,0.0,0.0,2.969970399,0.0,0.0012207029999999897,0.8899999856948853,-0.009999999776482582,0.0,0.01080322265625,0.04522705078125,1.02447509765625,28.15999984741211,0.0,11.0,0.38641357421875,-0.44476318359375,Closing,-5.13998044965787,4.875,-21443.0,-224.0,-1680.0,-1600.0,0.7,0.0,
1.650070000000007,5.5,0.0,654.0,0.0,0.0,0.0,0.0,0.0,3.873290619,0.0,-0.0012207029999999897,-751.0,0.0,0.0,-0.0,0.0,0.0,1.8444822330000001,0.0,0.0,389.0,0.0,0.0,0.0,0.0,0.0,4.840087395,0.0,0.0,-695.0,0.0,0.0,-0.0,0.0,0.0,2.968749696,0.0,0.0,0.8799999952316284,-0.009999999776482582,0.0,0.009033203125,0.025634765625,0.9691162109375,28.15999984741211,0.0,9.0,0.3865203857421875,-0.4444122314453125,Closing,-5.0922776148582605,4.625,-21443.0,-224.0,-1680.0,-1600.0,0.7,2.625,
1.675392000000007,5.5,0.0,654.0,0.0,0.0,0.0,0.0,0.0,3.872069916,0.0,0.0,-751.0,0.0,0.0,-0.0,0.0,0.0,1.8408201240000002,0.0,0.0,389.0,0.0,0.0,0.0,0.0,0.0,4.843749504,0.0,0.0,-695.0,0.0,0.0,-0.0,0.0,0.0,2.969970399,0.0,0.0,0.8700000047683716,-0.009999999776482582,0.0,-0.01239013671875,0.025390625,1.03912353515625,28.15999984741211,0.0,-12.0,0.3865203857421875,-0.4444122314453125,Closing,-5.211534701857283,4.75,-21443.0,-223.0,-1672.5,-1600.0,0.7,2.75,
1.7082939999999944,5.5,0.0,654.0,0.0,0.0,0.0,0.0,0.0,3.873290619,0.0,0.0,-751.0,0.0,0.0,-0.0,0.0,0.0,1.85546856,0.0,0.0,389.0,0.0,0.0,0.0,0.0,0.0,4.848632316000001,0.0,0.0,-695.0,0.0,0.0,-0.0,0.0,0.0,2.968749696,0.0,0.0,0.8899999856948853,-0.029999999329447746,0.0,-0.00244140625,0.03631591796875,1.04071044921875,28.15999984741211,0.0,-1.0,0.3865203857421875,-0.4443817138671875,Closing,-5.154545454545455,4.875,-21706.0,-223.0,-1672.5,-1600.0,0.7,0.375,
1.7335069999999977,5.5,0.0,654.0,0.0,0.0,0.0,0.0,0.0,3.872069916,0.0,0.0,-751.0,0.0,0.0,-0.0,0.0,0.0,1.8444822330000001,0.0,0.0,389.0,0.0,0.0,0.0,0.0,0.0,4.843749504,0.0,0.0,-695.0,0.0,0.0,-0.0,0.0,0.0,2.968749696,0.0,0.0,0.8899999856948853,-0.019999999552965164,0.0,0.0081787109375,0.04364013671875,0.96966552734375,28.15999984741211,0.0,8.0,0.3865203857421875,-0.4443511962890625,Closing,-5.14266862170088,4.875,-21706.0,-223.0,-1672.5,-1600.0,0.7,0.5,
1.7669400000000024,5.25,0.0,654.0,0.0,0.0,0.0,0.0,0.0,3.873290619,0.0,0.0,-751.0,0.0,0.0,-0.0,0.0,0.0,1.8444822330000001,0.0,0.0,389.0,0.0,0.0,0.0,0.0,0.0,4.844970207,0.0,0.0,-695.0,0.0,0.0,-0.0,0.0,0.0,2.969970399,0.0,0.0,0.8999999761581421,-0.019999999552965164,0.0,-0.001953125,0.005615234375,1.05230712890625,28.15999984741211,0.0,-1.0,0.3865203857421875,-0.4442901611328125,Closing,-5.2376832844574785,5.75,-21706.0,-223.0,-1665.0,-1600.0,0.7,0.5,
1.7943659999999946,5.0,0.0,654.0,0.0,0.0,0.0,0.0,0.0,3.86962851,0.0,0.0,-751.0,0.0,0.0,-0.0,0.0,0.0,1.8444822330000001,0.0,0.0,389.0,0.0,0.0,0.0,0.0,0.0,4.842528801,0.0,0.0,-695.0,0.0,0.0,-0.0,0.0,0.0,2.968749696,0.0,0.0,0.8999999761581421,-0.009999999776482582,0.0,0.00408935546875,0.02685546875,1.02459716796875,28.15999984741211,0.0,4.0,0.3865203857421875,-0.4442901611328125,Closing,-5.202052785923754,5.25,-21706.0,-223.0,-1665.0,-1600.0,0.7,0.375,
1.819903999999995,5.0,0.0,654.0,0.0,0.0,0.0,0.0,0.0,3.873290619,0.0,0.0,-751.0,0.0,0.0,-0.0,0.0,0.0,1.8444822330000001,0.0,0.0,389.0,0.0,0.0,0.0,0.0,0.0,4.843749504,0.0,0.0,-695.0,0.0,0.0,-0.0,0.0,0.0,2.968749696,0.0,0.0,0.8999999761581421,-0.009999999776482582,0.0,0.0023193359375,0.02423095703125,0.9107666015625,28.15999984741211,0.0,2.0,0.3865203857421875,-0.4442901611328125,Closing,-5.199608993157381,5.25,-21973.0,-222.0,-1665.0,-1600.0,0.7,0.375,
1.8519030000000056,5.0,0.0,654.0,0.0,0.0,0.0,0.0,0.0,3.867187104,0.0,0.0,-751.0,0.0,0.0,-0.0,0.0,0.0,1.8432615300000001,0.0,0.0012207029999995456,389.0,0.0,0.0,0.0,0.0,0.0,4.843749504,0.0,0.0,-695.0,0.0,0.0,-0.0,0.0,0.0,2.968749696,0.0,0.0,0.8899999856948853,-0.019999999552965164,0.0,0.00421142578125,0.0081787109375,0.9803466796875,28.15999984741211,0.0,4.0,0.3865203857421875,-0.4442901611328125,Closing,-5.175757575757576,4.875,-21973.0,-222.0,-1665.0,-1600.0,0.7,0.25,
1.8774149999999936,5.5,0.0,654.0,0.0,0.0,0.0,0.0,0.0,3.872069916,0.0,0.0,-751.0,0.0,0.0,-0.0,0.0,0.0,1.8444822330000001,0.0,-0.0012207029999995456,389.0,0.0,0.0,0.0,0.0,0.0,4.853515128000001,0.0,-0.0012207029999995456,-695.0,0.0,0.0,-0.0,0.0,0.0,2.969970399,0.0,0.0,0.8999999761581421,-0.019999999552965164,0.0,-0.0032958984375,0.02923583984375,0.99102783203125,28.15999984741211,0.0,-2.0,0.3865203857421875,-0.444244384765625,Closing,-5.271163245356794,5.0,-21973.0,-222.0,-1657.5,-1600.0,0.7,0.25,
1.9095629999999946,5.5,0.0,654.0,0.0,0.0,0.0,0.0,0.0,3.872069916,0.0,0.0,-751.0,0.0,0.0,-0.0,0.0,0.0,1.8444822330000001,0.0,-0.0012207029999995456,389.0,0.0,0.0,0.0,0.0,0.0,4.843749504,0.0,-0.0012207029999995456,-695.0,0.0,0.0,-0.0,0.0,0.0,2.969970399,0.0,0.0,0.8999999761581421,-0.019999999552965164,0.0,6.7138671875E-4,0.0374755859375,0.99078369140625,28.15999984741211,0.0,1.0,0.3865203857421875,-0.44415283203125,Closing,-5.24731182795699,5.25,-21973.0,-222.0,-1657.5,-1600.0,0.7,0.125,
1.933797000000006,5.5,0.0,654.0,0.0,0.0,0.0,0.0,0.0,3.872069916,0.0,0.0,-751.0,0.0,0.0,-0.0,0.0,0.0,1.8432615300000001,0.0,0.0012207029999995456,389.0,0.0,0.0,0.0,0.0,0.0,4.842528801,0.0,0.0012207029999995456,-695.0,0.0,0.0,-0.0,0.0,0.0,2.968749696,0.0,-0.0012207029999999897,0.8799999952316284,-0.009999999776482582,0.0,0.02313232421875,0.029296875,0.9990234375,28.15999984741211,0.0,23.0,0.3865966796875,-0.44403076171875,Closing,-5.202052785923754,5.25,-22239.0,-221.0,-1657.5,-1600.0,0.7,0.125,
1.9671820000000007,5.625,0.0,654.0,0.0,0.0,0.0,0.0,0.0,3.872069916,0.0,0.0,-751.0,0.0,0.0,-0.0,0.0,0.0,1.8444822330000001,0.0,0.0012207029999995456,389.0,0.0,0.0,0.0,0.0,0.0,4.843749504,0.0,0.0012207029999995456,-695.0,0.0,0.0,-0.0,0.0,0.0,2.971191102,0.0,-0.0012207029999999897,0.8799999952316284,-0.019999999552965164,0.0,0.0018310546875,0.033447265625,0.99261474609375,28.15999984741211,0.0,2.0,0.386688232421875,-0.443939208984375,Closing,-5.1782991202346045,5.0,-22239.0,-221.0,-1657.5,-1600.0,0.7,0.375,
1.9911410000000032,5.25,0.0,654.0,0.0,0.0,0.0,0.0,0.0,3.872069916,0.0,0.0,-751.0,0.0,0.0,-0.0,0.0,0.0,1.8444822330000001,0.0,-0.0012207029999995456,389.0,0.0,0.0,0.0,0.0,0.0,4.843749504,0.0,0.0012207030000004337,-695.0,0.0,0.0,-0.0,0.0,0.0,2.969970399,0.0,0.0012207029999999897,0.8799999952316284,-0.019999999552965164,0.0,-5.4931640625E-4,-0.01507568359375,1.042724609375,28.15999984741211,0.0,0.0,0.386688232421875,-0.443939208984375,Closing,-5.154545454545455,5.0,-22239.0,-221.0,-1657.5,-1600.0,0.7,0.375,
2.020372000000003,5.25,0.0,654.0,0.0,0.0,0.0,0.0,0.0,3.873290619,0.0,0.0,-751.0,0.0,0.0,-0.0,0.0,0.0,1.8432615300000001,0.0,-0.0012207029999995456,389.0,0.0,0.0,0.0,0.0,0.0,4.843749504,0.0,0.0012207030000004337,-695.0,0.0,0.0,-0.0,0.0,0.0,2.968749696,0.0,0.0012207029999999897,0.8799999952316284,-0.019999999552965164,0.0,-6.103515625E-5,0.0247802734375,1.0009765625,28.15999984741211,0.0,0.0,0.386688232421875,-0.4439697265625,Closing,-5.130791788856305,5.0,-22239.0,-221.0,-1657.5,-1600.0,0.7,0.5,
2.050858999999997,5.25,0.0,654.0,0.0,0.0,0.0,0.0,0.0,3.872069916,0.0,0.0012207029999999897,-751.0,0.0,0.0,-0.0,0.0,0.0,1.8444822330000001,0.0,0.0,389.0,0.0,0.0,0.0,0.0,0.0,4.848632316000001,0.0,-0.0012207030000004337,-695.0,0.0,0.0,-0.0,0.0,0.0,2.972411805,0.0,0.0,0.8799999952316284,-0.019999999552965164,0.0,0.03118896484375,-8.544921875E-4,0.99896240234375,28.15999984741211,0.0,31.0,0.3868560791015625,-0.4439697265625,Closing,-5.107038123167156,4.875,-22504.0,-221.0,-1657.5,-1600.0,0.7,0.5,
2.075323999999993,4.875,0.0,654.0,0.0,0.0,0.0,0.0,0.0,3.870849213,0.0,0.0012207029999999897,-751.0,0.0,0.0,-0.0,0.0,0.0,1.8444822330000001,0.0,0.0,389.0,0.0,0.0,0.0,0.0,0.0,4.848632316000001,0.0,0.0012207030000004337,-695.0,0.0,0.0,-0.0,0.0,0.0,2.968749696,0.0,0.0,0.8799999952316284,-0.009999999776482582,0.0,0.0074462890625,0.02789306640625,1.08905029296875,28.149999618530273,0.0,7.0,0.3869781494140625,-0.4439697265625,Closing,-5.213929618768328,4.75,-22504.0,-221.0,-1657.5,-1600.0,0.7,0.5,
2.1085139999999956,4.875,0.0,654.0,0.0,0.0,0.0,0.0,0.0,3.873290619,0.0,0.0,-751.0,0.0,0.0,-0.0,0.0,0.0,1.8444822330000001,0.0,0.0,389.0,0.0,0.0,0.0,0.0,0.0,4.842528801,0.0,0.0012207030000004337,-695.0,0.0,0.0,-0.0,0.0,0.0,2.967528993,0.0,0.0,0.8700000047683716,-0.009999999776482582,0.0,-0.0177001953125,0.03900146484375,0.99896240234375,28.149999618530273,0.0,-17.0,0.387359619140625,-0.444000244140625,Closing,-5.190175953079179,5.0,-22504.0,-221.0,-1650.0,-1600.0,0.7,0.375,
2.1332290000000067,5.25,0.0,654.0,0.0,0.0,0.0,0.0,0.0,3.872069916,0.0,0.0,-751.0,0.0,0.0,-0.0,0.0,0.0,1.8432615300000001,0.0,0.0,389.0,0.0,0.0,0.0,0.0,0.0,4.846190910000001,0.0,-0.0012207030000004337,-695.0,0.0,0.0,-0.0,0.0,0.0,2.969970399,0.0,0.0,0.8600000143051147,-0.019999999552965164,0.0,-0.0172119140625,0.00177001953125,1.04443359375,28.149999618530273,0.0,-16.0,0.3874359130859375,-0.444000244140625,Closing,-5.166422287390029,5.125,-22504.0,-221.0,-1650.0,-1600.0,0.7,0.25,
2.164254000000001,5.25,0.0,654.0,0.0,0.0,0.0,0.0,0.0,3.870849213,0.0,0.0,-751.0,0.0,0.0,-0.0,0.0,0.0,1.8444822330000001,0.0,0.0,389.0,0.0,0.0,0.0,0.0,0.0,4.843749504,0.0,-0.0012207030000004337,-695.0,0.0,0.0,-0.0,0.0,0.0,2.968749696,0.0,0.0,0.8600000143051147,-0.019999999552965164,0.0,-0.01934814453125,0.0506591796875,1.0023193359375,28.149999618530273,0.0,-18.0,0.3874359130859375,-0.444000244140625,Closing,-5.196969696969697,5.0,-22766.0,-220.0,-1650.0,-1600.0,0.7,0.25,
2.1907719999999973,5.625,0.0,654.0,0.0,0.0,0.0,0.0,0.0,3.870849213,0.0,0.0,-751.0,0.0,0.0,-0.0,0.0,0.0,1.8444822330000001,0.0,0.0012207029999995456,389.0,0.0,0.0,0.0,0.0,0.0,4.844970207,0.0,0.0012207030000004337,-695.0,0.0,0.0,-0.0,0.0,0.0,2.967528993,0.0,0.0,0.8899999856948853,0.0,0.0,-0.02044677734375,-0.05084228515625,0.94384765625,28.149999618530273,0.0,-20.0,0.38751220703125,-0.4438934326171875,Closing,-5.580156402737048,6.625,-22766.0,-220.0,-1627.5,-1600.0,0.7,0.125,
2.218254000000001,5.625,0.0,654.0,0.0,0.0,0.0,0.0,0.0,3.872069916,0.0,0.0,-751.0,0.0,0.0,-0.0,0.0,0.0,1.8444822330000001,0.0,0.0012207029999995456,389.0,0.0,0.0,0.0,0.0,0.0,4.843749504,0.0,0.0012207030000004337,-695.0,0.0,0.0,-0.0,0.0,0.0,2.969970399,0.0,0.0,0.8999999761581421,-0.05000000074505806,0.0,0.0753173828125,0.13946533203125,1.00445556640625,28.149999618530273,0.0,76.0,0.3874359130859375,-0.443634033203125,Closing,-6.107038123167156,9.375,-22766.0,-220.0,-1590.0,-1600.0,0.7,0.125,
2.249971000000005,8.5,0.0,654.0,0.0,0.0,0.0,0.0,0.0,3.872069916,0.0,-0.0012207029999999897,-751.0,0.0,0.0,-0.0,0.0,0.0,1.8432615300000001,0.0,-0.0012207029999995456,389.0,0.0,0.0,0.0,0.0,0.0,4.843749504,0.0,-0.0012207030000004337,-695.0,0.0,0.0,-0.0,0.0,0.0,2.968749696,0.0,0.0,0.8899999856948853,-0.029999999329447746,-0.009999999776482582,-0.0042724609375,-0.03057861328125,0.80780029296875,28.149999618530273,0.0,-3.0,0.387451171875,-0.44305419921875,Closing,-7.316471163245357,11.875,-22766.0,-220.0,-1545.0,-1600.0,0.7,0.125,
2.2741589999999996,8.5,0.0,654.0,0.0,0.0,0.0,0.0,0.0,3.872069916,0.0,0.0,-751.0,0.0,0.0,-0.0,0.0,0.0,1.8469236390000001,0.0,0.0,389.0,0.0,0.0,0.0,0.0,0.0,4.843749504,0.0,-0.0012207029999995456,-695.0,0.0,0.0,-0.0,0.0,0.0,2.979736023,0.0,0.0,0.9300000071525574,-0.03999999910593033,0.0,0.00787353515625,-0.009765625,1.11688232421875,28.149999618530273,0.0,8.0,0.3875579833984375,-0.442230224609375,Closing,-10.476246334310849,20.625,-22998.0,-194.0,-1462.5,-1600.0,0.7,0.125,
2.311627999999997,21.75,0.0,654.0,0.0,0.0,0.0,0.0,0.0,3.870849213,0.0,0.0,-751.0,0.0,0.0,-0.0,0.0,0.0,1.8432615300000001,0.0,0.0,389.0,0.0,0.0,0.0,0.0,0.0,4.843749504,0.0,-0.0012207029999995456,-695.0,0.0,0.0,-0.0,0.0,0.0,2.968749696,0.0,0.0,0.9300000071525574,-0.03999999910593033,0.0,0.00787353515625,-0.009765625,1.11688232421875,28.149999618530273,0.0,8.0,0.3875579833984375,-0.442230224609375,Closing,-8.509090909090908,24.0,-22998.0,-194.0,-1447.5,-1600.0,0.7,0.125,
2.3355979999999983,21.75,0.0,654.0,0.0,0.0,0.0,0.0,0.0,3.86962851,0.0,0.0,-751.0,0.0,0.0,-0.0,0.0,0.0,1.8432615300000001,0.0,0.0,389.0,0.0,0.0,0.0,0.0,0.0,4.848632316000001,0.0,0.0012207029999995456,-695.0,0.0,0.0,-0.0,0.0,0.0,2.969970399,0.0,0.0,0.8899999856948853,0.019999999552965164,0.0,-0.05120849609375,0.0079345703125,0.849853515625,28.149999618530273,0.0,-51.0,0.3876953125,-0.441619873046875,Closing,-8.303225806451612,24.125,-22998.0,-194.0,-1477.5,-1600.0,0.7,0.125,
2.369118000000002,24.0,0.0,654.0,0.0,0.0,0.0,0.0,0.0,3.872069916,0.0,0.0,-751.0,0.0,0.0,-0.0,0.0,0.0,1.8444822330000001,0.0,0.0,389.0,0.0,0.0,0.0,0.0,0.0,4.846190910000001,0.0,0.0012207029999995456,-695.0,0.0,0.0,-0.0,0.0,0.0,2.968749696,0.0,0.0,0.9200000166893005,-0.07000000029802322,0.0,0.0091552734375,0.020263671875,1.11566162109375,28.149999618530273,0.0,10.0,0.38763427734375,-0.441619873046875,Closing,-7.582697947214076,22.25,-22998.0,-194.0,-1500.0,-1600.0,0.7,0.25,
2.3969689999999972,24.0,0.0,654.0,0.0,0.0,0.0,0.0,0.0,3.870849213,0.0,0.0,-751.0,0.0,0.0,-0.0,0.0,0.0,1.8444822330000001,0.0,0.0,389.0,0.0,0.0,0.0,0.0,0.0,4.844970207,0.0,0.0012207030000004337,-695.0,0.0,0.0,-0.0,0.0,0.0,2.967528993,0.0,0.0,0.8899999856948853,-0.019999999552965164,0.0,-0.00384521484375,0.0263671875,0.95294189453125,28.149999618530273,0.0,-3.0,0.3876190185546875,-0.441619873046875,Closing,-7.090909090909091,18.875,-22998.0,-194.0,-1530.0,-1600.0,0.7,0.25,
2.427846999999994,24.0,0.0,654.0,0.0,0.0,0.0,0.0,0.0,3.870849213,0.0,0.0,-751.0,0.0,0.0,-0.0,0.0,0.0,1.8457029360000001,0.0,0.0,389.0,0.0,0.0,0.0,0.0,0.0,4.848632316000001,0.0,0.0012207030000004337,-695.0,0.0,0.0,-0.0,0.0,0.0,2.968749696,0.0,0.0,0.9100000262260437,-0.03999999910593033,0.0,0.0623779296875,0.033935546875,1.096923828125,28.149999618530273,0.0,63.0,0.387664794921875,-0.441619873046875,Closing,-6.556304985337244,13.0,-23254.0,-208.0,-1582.5,-1600.0,0.7,0.25,
2.4536410000000033,18.0,0.0,654.0,0.0,0.0,0.0,0.0,0.0,3.872069916,0.0,0.0012207029999999897,-751.0,0.0,0.0,-0.0,0.0,0.0,1.8444822330000001,0.0,0.0,389.0,0.0,0.0,0.0,0.0,0.0,4.846190910000001,0.0,-0.0012207030000004337,-695.0,0.0,0.0,-0.0,0.0,0.0,2.968749696,0.0,0.0,0.9300000071525574,-0.009999999776482582,0.0,-0.06988525390625,-0.01910400390625,0.95013427734375,28.149999618530273,0.0,-69.0,0.3881683349609375,-0.4414825439453125,Closing,-5.919208211143696,10.75,-23254.0,-208.0,-1605.0,-1600.0,0.7,0.25,
2.481324999999997,18.0,0.0,654.0,0.0,0.0,0.0,0.0,0.0,3.872069916,0.0,0.0,-751.0,0.0,0.0,-0.0,0.0,0.0,1.8444822330000001,0.0,0.0,389.0,0.0,0.0,0.0,0.0,0.0,4.846190910000001,0.0,0.0,-695.0,0.0,0.0,-0.0,0.0,0.0,2.968749696,0.0,0.0,0.9300000071525574,-0.05000000074505806,0.0,0.04833984375,-0.03436279296875,0.9986572265625,28.149999618530273,0.0,49.0,0.38848876953125,-0.44134521484375,Closing,-5.525366568914957,9.0,-23254.0,-208.0,-1635.0,-1600.0,0.7,0.25,
2.512130999999994,9.5,0.0,654.0,0.0,0.0,0.0,0.0,0.0,3.875732025,0.0,0.0,-751.0,0.0,0.0,-0.0,0.0,0.0,1.8371580150000002,0.0,0.0,389.0,0.0,0.0,0.0,0.0,0.0,4.842528801,0.0,0.0,-695.0,0.0,0.0,-0.0,0.0,0.0,2.969970399,0.0,0.0,0.9300000071525574,-0.03999999910593033,0.0,-0.0316162109375,0.02056884765625,1.08154296875,28.149999618530273,0.0,-30.0,0.38873291015625,-0.4413299560546875,Closing,-5.374780058651027,6.625,-23254.0,-208.0,-1642.5,-1600.0,0.0,0.125,
2.5362320000000036,9.5,0.0,654.0,0.0,0.0,0.0,0.0,0.0,3.870849213,0.0,0.0,-751.0,0.0,0.0,-0.0,0.0,0.0,1.8444822330000001,0.0,0.0,389.0,0.0,0.0,0.0,0.0,0.0,4.842528801,0.0,0.0,-695.0,0.0,0.0,-0.0,0.0,0.0,2.965087587,0.0,0.0,0.9200000166893005,-0.019999999552965164,0.0,0.03619384765625,-0.0048828125,0.898681640625,28.149999618530273,0.0,36.0,0.388885498046875,-0.4413299560546875,Closing,-5.171016617790812,6.0,-23518.0,-220.0,-1657.5,-1600.0,0.0,0.0,
2.5693110000000017,5.875,0.0,654.0,0.0,0.0,0.0,0.0,0.0,3.872069916,0.0,0.0,-751.0,0.0,0.0,-0.0,0.0,0.0,1.8432615300000001,0.0,0.0,389.0,0.0,0.0,0.0,0.0,0.0,4.847411613,0.0,0.0,-695.0,0.0,0.0,-0.0,0.0,0.0,2.968749696,0.0,0.0,0.9100000262260437,-0.019999999552965164,0.0,-0.01202392578125,0.0142822265625,1.026611328125,28.149999618530273,0.0,-11.0,0.3890838623046875,-0.44140625,Closing,-5.159237536656892,5.25,-23518.0,-220.0,-1657.5,-1600.0,0.0,0.0,
2.597107000000004,5.875,0.0,654.0,0.0,0.0,0.0,0.0,0.0,3.872069916,0.0,-0.0012207029999999897,-751.0,0.0,0.0,-0.0,0.0,0.0,1.8444822330000001,0.0,0.0,389.0,0.0,0.0,0.0,0.0,0.0,4.844970207,0.0,-0.0012207029999995456,-695.0,0.0,0.0,-0.0,0.0,0.0,2.968749696,0.0,0.0,0.9100000262260437,-0.029999999329447746,0.0,-0.02117919921875,0.01776123046875,0.972412109375,28.18000030517578,0.0,-20.0,0.389068603515625,-0.441436767578125,Closing,-4.994330400782014,4.75,-23518.0,-220.0,-1665.0,-1600.0,0.0,0.0,
2.6268080000000045,5.875,0.0,654.0,0.0,0.0,0.0,0.0,0.0,3.872069916,0.0,-0.0012207029999999897,-751.0,0.0,0.0,-0.0,0.0,0.0,1.8444822330000001,0.0,0.0,389.0,0.0,0.0,0.0,0.0,0.0,4.843749504,0.0,-0.0012207029999995456,-695.0,0.0,0.0,-0.0,0.0,0.0,2.969970399,0.0,0.0,0.9300000071525574,-0.03999999910593033,0.0,-0.04058837890625,0.03021240234375,1.0194091796875,28.18000030517578,0.0,-39.0,0.388946533203125,-0.441436767578125,Closing,-5.1003421309872925,4.875,-23518.0,-220.0,-1657.5,-1600.0,0.0,0.0,
2.653857999999993,5.25,0.0,654.0,0.0,0.0,0.0,0.0,0.0,3.872069916,0.0,0.0,-751.0,0.0,0.0,-0.0,0.0,0.0,1.8432615300000001,0.0,0.0,389.0,0.0,0.0,0.0,0.0,0.0,4.843749504,0.0,0.0024414059999999793,-695.0,0.0,0.0,-0.0,0.0,0.0,2.969970399,0.0,0.0,0.9200000166893005,-0.03999999910593033,0.0,-0.01971435546875,0.02996826171875,1.063720703125,28.18000030517578,0.0,-18.0,0.3888397216796875,-0.441436767578125,Closing,-5.11891495601173,4.875,-23784.0,-221.0,-1657.5,-1600.0,0.0,0.0,
2.6834600000000064,5.25,0.0,654.0,0.0,0.0,0.0,0.0,0.0,3.872069916,0.0,0.0012207029999999897,-751.0,0.0,0.0,-0.0,0.0,0.0,1.8444822330000001,0.0,0.0,389.0,0.0,0.0,0.0,0.0,0.0,4.851073722000001,0.0,-0.0012207030000004337,-695.0,0.0,0.0,-0.0,0.0,0.0,2.968749696,0.0,0.0,0.9200000166893005,-0.029999999329447746,0.0,-0.001220703125,-0.005615234375,1.019775390625,28.18000030517578,0.0,0.0,0.3887176513671875,-0.4414520263671875,Closing,-5.095161290322581,4.875,-23784.0,-221.0,-1657.5,-1600.0,0.0,0.0,
2.712148000000001,5.5,0.0,654.0,0.0,0.0,0.0,0.0,0.0,3.870849213,0.0,0.0012207029999999897,-751.0,0.0,0.0,-0.0,0.0,0.0,1.8408201240000002,0.0,0.0,389.0,0.0,0.0,0.0,0.0,0.0,4.842528801,0.0,-0.0012207030000004337,-695.0,0.0,0.0,-0.0,0.0,0.0,2.968749696,0.0,0.0,0.9100000262260437,-0.029999999329447746,0.0,0.02227783203125,0.03302001953125,0.94793701171875,28.18000030517578,0.0,22.0,0.38873291015625,-0.44146728515625,Closing,-5.071407624633431,4.75,-23784.0,-221.0,-1657.5,-1600.0,0.0,0.0,
2.7362649999999995,5.5,0.0,654.0,0.0,0.0,0.0,0.0,0.0,3.912353115,0.0,-0.0012207029999999897,-751.0,0.0,0.0,-0.0,0.0,0.0,1.8457029360000001,0.0,0.0,389.0,0.0,0.0,0.0,0.0,0.0,4.847411613,0.0,0.0,-695.0,0.0,0.0,-0.0,0.0,0.0,2.968749696,0.0,-0.0012207029999999897,0.9100000262260437,-0.029999999329447746,0.0,-0.00732421875,-0.0054931640625,1.04498291015625,28.18000030517578,0.0,-6.0,0.38885498046875,-0.4416046142578125,Closing,-5.1782991202346045,4.875,-23784.0,-221.0,-1650.0,-1600.0,0.0,0.0,
2.7684660000000005,5.125,0.0,654.0,0.0,0.0,0.0,0.0,0.0,3.873290619,0.0,-0.0012207029999999897,-751.0,0.0,0.0,-0.0,0.0,0.0,1.8432615300000001,0.0,0.0,389.0,0.0,0.0,0.0,0.0,0.0,4.849853019,0.0,0.0,-695.0,0.0,0.0,-0.0,0.0,0.0,2.968749696,0.0,-0.0012207029999999897,0.9300000071525574,-0.029999999329447746,0.0,0.04962158203125,0.01165771484375,0.9228515625,28.18000030517578,0.0,50.0,0.38909912109375,-0.4419097900390625,Closing,-5.145161290322581,5.125,-24049.0,-220.0,-1650.0,-1600.0,0.0,0.0,
2.7925489999999993,5.125,0.0,654.0,0.0,0.0,0.0,0.0,0.0,3.873290619,0.0,0.0,-751.0,0.0,0.0,-0.0,0.0,0.0,1.8432615300000001,0.0,0.0,389.0,0.0,0.0,0.0,0.0,0.0,4.842528801,0.0,-0.0012207029999995456,-695.0,0.0,0.0,-0.0,0.0,0.0,2.967528993,0.0,0.0,0.9300000071525574,-0.03999999910593033,0.0,0.0206298828125,8.544921875E-4,1.10943603515625,28.18000030517578,0.0,21.0,0.38946533203125,-0.44207763671875,Closing,-5.1215053763440865,5.125,-24049.0,-220.0,-1650.0,-1600.0,0.0,0.0,
2.823422000000006,4.875,0.0,654.0,0.0,0.0,0.0,0.0,0.0,3.872069916,0.0,0.0,-751.0,0.0,0.0,-0.0,0.0,0.0,1.8444822330000001,0.0,0.0,389.0,0.0,0.0,0.0,0.0,0.0,4.843749504,0.0,-0.0012207029999995456,-695.0,0.0,0.0,-0.0,0.0,0.0,2.969970399,0.0,0.0,0.9100000262260437,-0.03999999910593033,0.0,0.0306396484375,0.03350830078125,0.96490478515625,28.18000030517578,0.0,31.0,0.3899383544921875,-0.44207763671875,Closing,-5.097849462365591,4.875,-24049.0,-220.0,-1650.0,-1600.0,0.0,0.0,
2.851824999999997,4.875,0.0,654.0,0.0,0.0,0.0,0.0,0.0,3.870849213,0.0,0.0,-751.0,0.0,0.0,-0.0,0.0,0.0,1.8432615300000001,0.0,0.0,389.0,0.0,0.0,0.0,0.0,0.0,4.843749504,0.0,0.0,-695.0,0.0,0.0,-0.0,0.0,0.0,2.968749696,0.0,0.0012207029999999897,0.8999999761581421,-0.03999999910593033,0.0,0.0079345703125,0.01397705078125,1.11309814453125,28.18000030517578,0.0,8.0,0.3904571533203125,-0.44207763671875,Closing,-5.204301075268817,4.875,-24049.0,-220.0,-1642.5,-1600.0,0.0,0.0,
2.876627999999997,4.875,0.0,654.0,0.0,0.0,0.0,0.0,0.0,3.86962851,0.0,0.0,-751.0,0.0,0.0,-0.0,0.0,0.0,1.8444822330000001,0.0,0.0,389.0,0.0,0.0,0.0,0.0,0.0,4.843749504,0.0,0.0012207029999995456,-695.0,0.0,0.0,-0.0,0.0,0.0,2.969970399,0.0,0.0,0.8999999761581421,-0.029999999329447746,0.0,-0.04144287109375,0.118896484375,1.01348876953125,28.18000030517578,0.0,-40.0,0.3904266357421875,-0.44195556640625,Closing,-5.180645161290323,5.125,-24314.0,-219.0,-1642.5,-1600.0,0.0,0.0,
2.912013000000006,5.25,0.0,654.0,0.0,0.0,0.0,0.0,0.0,3.86962851,0.0,0.0012207029999999897,-751.0,0.0,0.0,-0.0,0.0,0.0,1.8444822330000001,0.0,0.0,389.0,0.0,0.0,0.0,0.0,0.0,4.843749504,0.0,0.0012207029999995456,-695.0,0.0,0.0,-0.0,0.0,0.0,2.969970399,0.0,0.0,0.9399999976158142,-0.029999999329447746,0.0,0.021484375,-0.0443115234375,1.07171630859375,28.18000030517578,0.0,22.0,0.3903045654296875,-0.4414825439453125,Closing,-5.211534701857283,5.375,-24314.0,-219.0,-1642.5,-1600.0,0.0,0.0,
2.937020000000004,5.375,0.0,654.0,0.0,0.0,0.0,0.0,0.0,3.872069916,0.0,-0.0012207029999999897,-751.0,0.0,0.0,-0.0,0.0,0.0,1.8444822330000001,0.0,0.0,389.0,0.0,0.0,0.0,0.0,0.0,4.843749504,0.0,-0.0012207029999995456,-695.0,0.0,0.0,-0.0,0.0,0.0,2.968749696,0.0,0.0,0.9100000262260437,-0.019999999552965164,0.0,0.0113525390625,-0.01171875,0.94146728515625,28.18000030517578,0.0,11.0,0.39019775390625,-0.44097900390625,Closing,-5.187683284457479,5.25,-24314.0,-219.0,-1642.5,-1600.0,0.0,0.0,
2.968850000000006,5.375,0.0,654.0,0.0,0.0,0.0,0.0,0.0,3.873290619,0.0,-0.0012207029999999897,-751.0,0.0,0.0,-0.0,0.0,0.0,1.8432615300000001,0.0,0.0,389.0,0.0,0.0,0.0,0.0,0.0,4.842528801,0.0,-0.0012207029999995456,-695.0,0.0,0.0,-0.0,0.0,0.0,2.9614254780000002,0.0,0.0,0.9100000262260437,-0.019999999552965164,-0.009999999776482582,0.014892578125,-0.0018310546875,0.93597412109375,28.18000030517578,0.0,15.0,0.39019775390625,-0.44073486328125,Closing,-5.175757575757576,5.125,-24314.0,-219.0,-1642.5,-1600.0,0.0,0.0,
2.994248999999996,5.375,0.0,654.0,0.0,0.0,0.0,0.0,0.0,3.870849213,0.0,0.0,-751.0,0.0,0.0,-0.0,0.0,0.0,1.8444822330000001,0.0,0.0,389.0,0.0,0.0,0.0,0.0,0.0,4.843749504,0.0,0.0,-695.0,0.0,0.0,-0.0,0.0,0.0,2.967528993,0.0,0.0,0.9300000071525574,-0.029999999329447746,0.0,0.00225830078125,0.02874755859375,0.97503662109375,28.18000030517578,0.0,2.0,0.39019775390625,-0.44073486328125,Closing,-5.151906158357772,5.0,-24314.0,-219.0,-1642.5,-1600.0,0.0,0.0,
3.0282250000000057,5.75,0.0,654.0,0.0,0.0,0.0,0.0,0.0,3.872069916,0.0,0.0,-751.0,0.0,0.0,-0.0,0.0,0.0,1.8444822330000001,0.0,0.0,389.0,0.0,0.0,0.0,0.0,0.0,4.842528801,0.0,0.0,-695.0,0.0,0.0,-0.0,0.0,0.0,2.969970399,0.0,0.0,0.9200000166893005,-0.029999999329447746,0.0,0.007080078125,0.0191650390625,1.0357666015625,28.18000030517578,0.0,7.0,0.3901519775390625,-0.44073486328125,Closing,-5.283088954056696,5.0,-24574.0,-219.0,-1642.5,-1600.0,0.0,0.0,
3.0546140000000013,5.75,0.0,654.0,0.0,0.0,0.0,0.0,0.0,3.870849213,0.0,0.0,-751.0,0.0,0.0,-0.0,0.0,0.0,1.8444822330000001,0.0,0.0,389.0,0.0,0.0,0.0,0.0,0.0,4.843749504,0.0,0.0012207029999995456,-695.0,0.0,0.0,-0.0,0.0,0.0,2.968749696,0.0,0.0,0.9200000166893005,-0.029999999329447746,0.0,-0.0126953125,-0.00238037109375,0.986328125,28.18000030517578,0.0,-12.0,0.39013671875,-0.4407958984375,Closing,-5.271163245356794,5.25,-24574.0,-219.0,-1635.0,-1600.0,0.0,0.0,
3.083028999999995,5.75,0.0,654.0,0.0,0.0,0.0,0.0,0.0,3.872069916,0.0,0.0012207029999999897,-751.0,0.0,0.0,-0.0,0.0,0.0,1.8444822330000001,0.0,0.0,389.0,0.0,0.0,0.0,0.0,0.0,4.843749504,0.0,0.0,-695.0,0.0,0.0,-0.0,0.0,0.0,2.968749696,0.0,0.0,0.9100000262260437,-0.029999999329447746,0.0,0.00323486328125,0.01983642578125,1.01092529296875,28.1299991607666,0.0,3.0,0.39013671875,-0.4409637451171875,Closing,-5.24731182795699,5.375,-24574.0,-219.0,-1635.0,-1600.0,0.0,0.0,
3.113281000000003,4.75,0.0,654.0,0.0,0.0,0.0,0.0,0.0,3.86962851,0.0,0.0012207029999999897,-751.0,0.0,0.0,-0.0,0.0,0.0,1.8444822330000001,0.0,0.0,389.0,0.0,0.0,0.0,0.0,0.0,4.842528801,0.0,0.0,-695.0,0.0,0.0,-0.0,0.0,0.0,2.968749696,0.0,0.0,0.9200000166893005,-0.029999999329447746,0.0,0.02044677734375,0.0296630859375,1.019775390625,28.1299991607666,0.0,21.0,0.3901519775390625,-0.4410552978515625,Closing,-5.235386119257087,5.375,-24574.0,-219.0,-1635.0,-1600.0,0.7,0.0,
3.1379410000000063,5.625,0.0,654.0,0.0,0.0,0.0,0.0,0.0,3.870849213,0.0,0.0,-751.0,0.0,0.0,-0.0,0.0,0.0,1.8444822330000001,0.0,0.0,389.0,0.0,0.0,0.0,0.0,0.0,4.853515128000001,0.0,-0.0012207029999995456,-695.0,0.0,0.0,-0.0,0.0,0.0,2.968749696,0.0,0.0,0.9300000071525574,-0.009999999776482582,0.0,0.0174560546875,0.0382080078125,1.06256103515625,28.1299991607666,0.0,17.0,0.3902435302734375,-0.4410400390625,Closing,-5.180645161290323,5.125,-24837.0,-218.0,-1635.0,-1600.0,0.7,2.5,
3.172195000000007,5.625,0.0,654.0,0.0,0.0,0.0,0.0,0.0,3.872069916,0.0,0.0,-751.0,0.0,0.0,-0.0,0.0,0.0,1.8444822330000001,0.0,0.0,389.0,0.0,0.0,0.0,0.0,0.0,4.843749504,0.0,-0.0012207029999995456,-695.0,0.0,0.0,-0.0,0.0,0.0,2.968749696,0.0,0.0,0.9300000071525574,-0.019999999552965164,0.0,0.00738525390625,0.01690673828125,1.02728271484375,28.1299991607666,0.0,7.0,0.3902435302734375,-0.44097900390625,Closing,-5.156989247311827,5.0,-24837.0,-218.0,-1635.0,-1600.0,0.7,2.625,
3.206053,5.625,0.0,654.0,0.0,0.0,0.0,0.0,0.0,3.870849213,0.0,-0.0012207029999999897,-751.0,0.0,0.0,-0.0,0.0,0.0,1.8444822330000001,0.0,0.0,389.0,0.0,0.0,0.0,0.0,0.0,4.842528801,0.0,0.0012207029999995456,-695.0,0.0,0.0,-0.0,0.0,0.0,2.967528993,0.0,0.0,0.9200000166893005,-0.009999999776482582,0.0,-0.02734375,0.04949951171875,1.03399658203125,28.1299991607666,0.0,-27.0,0.390167236328125,-0.4409637451171875,Closing,-5.145161290322581,5.0,-24837.0,-218.0,-1635.0,-1600.0,0.7,0.375,
3.2334070000000064,5.625,0.0,654.0,0.0,0.0,0.0,0.0,0.0,3.870849213,0.0,0.0,-751.0,0.0,0.0,-0.0,0.0,0.0,1.8444822330000001,0.0,0.0,389.0,0.0,0.0,0.0,0.0,0.0,4.848632316000001,0.0,0.0,-695.0,0.0,0.0,-0.0,0.0,0.0,2.969970399,0.0,0.0,0.9200000166893005,-0.009999999776482582,0.0,-0.00482177734375,0.0240478515625,1.00933837890625,28.1299991607666,0.0,-4.0,0.3900909423828125,-0.44085693359375,Closing,-5.1215053763440865,5.0,-24837.0,-218.0,-1635.0,-1600.0,0.7,0.375,
3.267539000000004,5.625,0.0,654.0,0.0,0.0,0.0,0.0,0.0,3.870849213,0.0,0.0,-751.0,0.0,0.0,-0.0,0.0,0.0,1.8432615300000001,0.0,0.0,389.0,0.0,0.0,0.0,0.0,0.0,4.840087395,0.0,0.0,-695.0,0.0,0.0,-0.0,0.0,0.0,2.968749696,0.0,0.0,0.9300000071525574,-0.019999999552965164,0.0,-0.01123046875,-0.002685546875,1.02471923828125,28.1299991607666,0.0,-10.0,0.3900909423828125,-0.44085693359375,Closing,-5.151906158357772,5.0,-25102.0,-218.0,-1635.0,-1600.0,0.7,0.5,
3.2922390000000012,5.625,0.0,654.0,0.0,0.0,0.0,0.0,0.0,3.872069916,0.0,0.0,-751.0,0.0,0.0,-0.0,0.0,0.0,1.8444822330000001,0.0,0.0,389.0,0.0,0.0,0.0,0.0,0.0,4.844970207,0.0,0.0012207030000004337,-695.0,0.0,0.0,-0.0,0.0,0.0,2.968749696,0.0,-0.0012207029999999897,0.9300000071525574,-0.009999999776482582,0.0,-0.07275390625,-0.0185546875,1.056396484375,28.1299991607666,0.0,-72.0,0.39007568359375,-0.440826416015625,Closing,-5.13998044965787,4.875,-25102.0,-218.0,-1635.0,-1600.0,0.7,0.5,
3.323020000000004,5.625,0.0,654.0,0.0,0.0,0.0,0.0,0.0,3.870849213,0.0,0.0,-751.0,0.0,0.0,-0.0,0.0,0.0,1.8444822330000001,0.0,0.0,389.0,0.0,0.0,0.0,0.0,0.0,4.843749504,0.0,0.0012207030000004337,-695.0,0.0,0.0,-0.0,0.0,0.0,2.968749696,0.0,-0.0012207029999999897,0.9200000166893005,-0.009999999776482582,0.0,-0.0220947265625,0.0697021484375,1.01739501953125,28.1299991607666,0.0,-21.0,0.389984130859375,-0.4407958984375,Closing,-5.116129032258065,4.75,-25102.0,-218.0,-1635.0,-1600.0,0.7,0.375,
3.3530139999999955,4.5,0.0,654.0,0.0,0.0,0.0,0.0,0.0,3.870849213,0.0,0.0012207029999999897,-751.0,0.0,0.0,-0.0,0.0,0.0,1.8444822330000001,0.0,0.0,389.0,0.0,0.0,0.0,0.0,0.0,4.848632316000001,0.0,-0.0012207030000004337,-695.0,0.0,0.0,-0.0,0.0,0.0,2.968749696,0.0,0.0012207029999999897,0.9300000071525574,-0.009999999776482582,0.0,-0.0120849609375,0.0023193359375,0.98944091796875,28.1299991607666,0.0,-11.0,0.3897705078125,-0.4407501220703125,Closing,-5.235386119257087,5.0,-25102.0,-218.0,-1627.5,-1600.0,0.7,0.375,
3.387529999999999,4.5,0.0,654.0,0.0,0.0,0.0,0.0,0.0,3.875732025,0.0,0.0,-751.0,0.0,0.0,-0.0,0.0,0.0,1.8432615300000001,0.0,0.0,389.0,0.0,0.0,0.0,0.0,0.0,4.846190910000001,0.0,0.0,-695.0,0.0,0.0,-0.0,0.0,0.0,2.971191102,0.0,0.0,0.9300000071525574,-0.009999999776482582,0.0,0.0103759765625,-0.01068115234375,0.90972900390625,28.1299991607666,0.0,10.0,0.3897705078125,-0.4407501220703125,Closing,-5.223460410557185,5.125,-25361.0,-217.0,-1627.5,-1600.0,0.7,0.375,
3.414009999999995,5.25,0.0,654.0,0.0,0.0,0.0,0.0,0.0,3.872069916,0.0,0.0,-751.0,0.0,0.0,-0.0,0.0,0.0,1.8444822330000001,0.0,0.0,389.0,0.0,0.0,0.0,0.0,0.0,4.842528801,0.0,0.0,-695.0,0.0,0.0,-0.0,0.0,0.0,2.968749696,0.0,0.0,0.9300000071525574,-0.019999999552965164,0.0,-0.00860595703125,-0.02001953125,1.03668212890625,28.1299991607666,0.0,-8.0,0.3897705078125,-0.4407958984375,Closing,-5.211534701857283,5.25,-25361.0,-217.0,-1627.5,-1600.0,0.7,0.375,
3.441525999999998,5.25,0.0,654.0,0.0,0.0,0.0,0.0,0.0,3.861083589,0.0,0.0,-751.0,0.0,0.0,-0.0,0.0,0.0,1.8444822330000001,0.0,0.0,389.0,0.0,0.0,0.0,0.0,0.0,4.848632316000001,0.0,0.0,-695.0,0.0,0.0,-0.0,0.0,0.0,2.969970399,0.0,0.0,0.9399999976158142,-0.029999999329447746,0.0,0.0201416015625,-0.02069091796875,0.9833984375,28.1299991607666,0.0,20.0,0.3897857666015625,-0.440887451171875,Closing,-5.199608993157381,5.125,-25361.0,-217.0,-1627.5,-1600.0,0.7,0.375,
3.4711389999999955,5.75,0.0,654.0,0.0,0.0,0.0,0.0,0.0,3.872069916,0.0,0.0,-751.0,0.0,0.0,-0.0,0.0,0.0,1.8444822330000001,0.0,0.0,389.0,0.0,0.0,0.0,0.0,0.0,4.847411613,0.0,0.0,-695.0,0.0,0.0,-0.0,0.0,0.0,2.968749696,0.0,0.0,0.9300000071525574,-0.009999999776482582,0.0,0.00921630859375,0.045654296875,1.019287109375,28.1299991607666,0.0,9.0,0.3899078369140625,-0.44097900390625,Closing,-5.187683284457479,5.125,-25361.0,-217.0,-1627.5,-1600.0,0.7,0.25,
3.501600000000006,5.75,0.0,654.0,0.0,0.0,0.0,0.0,0.0,3.872069916,0.0,-0.0012207029999999897,-751.0,0.0,0.0,-0.0,0.0,0.0,1.848144342,0.0,0.0,389.0,0.0,0.0,0.0,0.0,0.0,4.843749504,0.0,-0.0012207029999995456,-695.0,0.0,0.0,-0.0,0.0,0.0,2.968749696,0.0,0.0,0.9300000071525574,0.0,0.0,-0.01788330078125,0.03363037109375,1.03228759765625,28.1299991607666,0.0,-17.0,0.3899078369140625,-0.4409942626953125,Closing,-5.154545454545455,5.125,-25621.0,-217.0,-1627.5,-1600.0,0.7,0.25,
3.5289909999999947,5.75,0.0,654.0,0.0,0.0,0.0,0.0,0.0,3.868407807,0.0,-0.0012207029999999897,-751.0,0.0,0.0,-0.0,0.0,0.0,1.8444822330000001,0.0,0.0,389.0,0.0,0.0,0.0,0.0,0.0,4.848632316000001,0.0,0.0012207029999995456,-695.0,0.0,0.0,-0.0,0.0,0.0,2.968749696,0.0,0.0,0.9200000166893005,-0.009999999776482582,0.0,0.0501708984375,0.04840087890625,0.9757080078125,28.1299991607666,0.0,50.0,0.38995361328125,-0.4409637451171875,Closing,-5.14266862170088,5.0,-25621.0,-217.0,-1627.5,-1600.0,0.7,0.25,
3.5574030000000056,5.375,0.0,654.0,0.0,0.0,0.0,0.0,0.0,3.870849213,0.0,0.0012207029999999897,-751.0,0.0,0.0,-0.0,0.0,0.0,1.8444822330000001,0.0,0.0,389.0,0.0,0.0,0.0,0.0,0.0,4.843749504,0.0,0.0012207029999995456,-695.0,0.0,0.0,-0.0,0.0,0.0,2.968749696,0.0,0.0,0.9300000071525574,-0.029999999329447746,0.0,0.01470947265625,-0.022705078125,1.02850341796875,28.1299991607666,0.0,15.0,0.3900299072265625,-0.4409332275390625,Closing,-5.130791788856305,5.125,-25621.0,-217.0,-1627.5,-1600.0,0.7,0.125,
3.587661999999997,4.75,0.0,654.0,0.0,0.0,0.0,0.0,0.0,3.870849213,0.0,-0.0012207029999999897,-751.0,0.0,0.0,-0.0,0.0,0.0,1.8457029360000001,0.0,0.0,389.0,0.0,0.0,0.0,0.0,0.0,4.842528801,0.0,0.0,-695.0,0.0,0.0,-0.0,0.0,0.0,2.968749696,0.0,0.0,0.9300000071525574,-0.009999999776482582,0.0,0.04449462890625,-0.0440673828125,0.941162109375,28.1299991607666,0.0,44.0,0.3901519775390625,-0.44097900390625,Closing,-5.510850439882699,5.875,-25621.0,-217.0,-1612.5,-1600.0,0.7,0.25,
3.6151330000000015,4.75,0.0,654.0,0.0,0.0,0.0,0.0,0.0,3.870849213,0.0,-0.0012207029999999897,-751.0,0.0,0.0,-0.0,0.0,0.0,1.8444822330000001,0.0,0.0,389.0,0.0,0.0,0.0,0.0,0.0,4.843749504,0.0,0.0,-695.0,0.0,0.0,-0.0,0.0,0.0,2.968749696,0.0,0.0,0.9399999976158142,0.0,0.0,-0.09307861328125,0.013916015625,0.96746826171875,28.149999618530273,0.0,-92.0,0.3901519775390625,-0.441070556640625,Closing,-5.958944281524927,7.375,-25867.0,-211.0,-1590.0,-1600.0,0.7,0.25,
3.645555999999997,4.75,0.0,654.0,0.0,0.0,0.0,0.0,0.0,3.870849213,0.0,0.0012207029999999897,-751.0,0.0,0.0,-0.0,0.0,0.0,1.8444822330000001,0.0,0.0,389.0,0.0,0.0,0.0,0.0,0.0,4.846190910000001,0.0,0.0012207030000004337,-695.0,0.0,0.0,-0.0,0.0,0.0,2.968749696,0.0,0.0,0.8899999856948853,0.0,-0.009999999776482582,0.09814453125,0.06390380859375,0.75640869140625,28.149999618530273,0.0,98.0,0.3897857666015625,-0.4407501220703125,Closing,-9.653958944281525,14.625,-25867.0,-211.0,-1500.0,-1600.0,0.7,0.25,
3.6732280000000026,10.0,0.0,654.0,0.0,0.0,0.0,0.0,0.0,3.8391109350000003,0.0,0.0012207029999999897,-751.0,0.0,0.0,-0.0,0.0,0.0,1.8444822330000001,0.0,0.0,389.0,0.0,0.0,0.0,0.0,0.0,4.849853019,0.0,0.0012207030000004337,-695.0,0.0,0.0,-0.0,0.0,0.0,2.979736023,0.0,0.0,0.9100000262260437,0.05000000074505806,-0.019999999552965164,0.04974365234375,-0.0208740234375,0.889892578125,28.149999618530273,0.0,48.0,0.3897705078125,-0.4405975341796875,Closing,-10.47507331378299,18.625,-25867.0,-211.0,-1455.0,-1600.0,0.7,0.25,
3.7014459999999962,10.0,0.0,654.0,0.0,0.0,0.0,0.0,0.0,3.86962851,0.0,0.0,-751.0,0.0,0.0,-0.0,0.0,0.0,1.8432615300000001,0.0,0.0,389.0,0.0,0.0,0.0,0.0,0.0,4.846190910000001,0.0,-0.0024414059999999793,-695.0,0.0,0.0,-0.0,0.0,0.0,2.968749696,0.0,0.0,0.949999988079071,0.0,0.0,0.0169677734375,0.02569580078125,1.03643798828125,28.149999618530273,0.0,17.0,0.38970947265625,-0.4404296875,Closing,-8.59824046920821,25.125,-25867.0,-211.0,-1432.5,-1600.0,0.7,0.25,
3.729176999999996,24.25,0.0,654.0,0.0,0.0,0.0,0.0,0.0,3.872069916,0.0,0.0,-751.0,0.0,0.0,-0.0,0.0,0.0,1.8432615300000001,0.0,0.0,389.0,0.0,0.0,0.0,0.0,0.0,4.8657221580000005,0.0,-0.0024414059999999793,-695.0,0.0,0.0,-0.0,0.0,0.0,2.969970399,0.0,0.0,0.9100000262260437,0.03999999910593033,0.0,0.02880859375,0.010009765625,0.9007568359375,28.149999618530273,0.0,28.0,0.389617919921875,-0.4403228759765625,Closing,-8.083870967741937,25.0,-26103.0,-192.0,-1447.5,-1600.0,0.7,0.25,
