Time,ClimberA1,ClimberA2,FRpos,FRCurrent,FRspeed,FRsetpoint,FRApos,FRACurrent,FREncpos,FREncSetpoint,FREncSpeed,FLpos,FLCurrent,FLspeed,FLsetpoint,FLApos,FLACurrent,FLEncpos,FLEncSetpoint,FLEncSpeed,BRpos,BRCurrent,BRspeed,BRsetpoint,BRApos,BRACurrent,BREncpos,BREncSetpoint,BREncSpeed,BLpos,BLCurrent,BLspeed,BLsetpoint,BLApos,BLACurrent,BLEncpos,BLEncSetpoint,BLEncSpeed,navx_Pitch,navx_Roll,navx_Yaw,navx_XAcc,navx_YAcc,navx_ZAcc,navx_Temp,navx_Bar,navx_Alt,navx_XDis,navx_YDis,GearPlacerState,ShootOutputV,ShootOutputCurrent,ShootEncPos,ShootEncVelocity,ShootSpeed,ShootSetpoint,CarouselSetpoint,CarouselCurrent,
0.12081600000010803,0.0,0.0,8501.0,0.0,0.0,0.0,0.0,0.125,3.7988277360000002,0.0,0.0,-8552.0,0.0,0.0,-0.0,0.0,0.0,1.8920896500000002,0.0,0.0,8432.0,0.0,0.0,0.0,0.0,0.0,4.857177237,0.0,0.0,-8400.0,0.0,0.0,-0.0,0.0,0.0,2.810058306,0.0,0.0,1.0399999618530273,0.23000000417232513,0.0,0.002685546875,0.01824951171875,0.9996337890625,36.25,0.0,-1.0,0.256500244140625,-0.021697998046875,Opening,0.0,0.0,0.0,0.0,0.0,0.0,0.0,0.0,
0.14916800000006333,0.0,0.0,8501.0,0.0,0.0,0.0,0.0,0.125,3.7976070330000002,0.0,0.0,-8552.0,0.0,0.0,-0.0,0.0,0.0,1.8920896500000002,0.0,-0.0012207029999995456,8432.0,0.0,0.0,0.0,0.0,0.0,4.858397940000001,0.0,0.0,-8400.0,0.0,0.0,-0.0,0.0,0.0,2.810058306,0.0,-0.004882811999999959,1.0299999713897705,0.23999999463558197,0.0,0.003662109375,0.01788330078125,0.993896484375,36.25,0.0,0.0,0.256500244140625,-0.021697998046875,Closing,0.0,0.0,0.0,0.0,0.0,0.0,0.0,0.0,
0.17632800000021234,0.0,0.0,8501.0,0.0,0.0,0.0,0.0,0.125,3.7988277360000002,0.0,0.0,-8552.0,0.0,0.0,-0.0,0.0,0.0,1.8920896500000002,0.0,-0.0012207029999995456,8432.0,0.0,0.0,0.0,0.0,0.0,4.857177237,0.0,0.0,-8400.0,0.0,0.0,-0.0,0.0,0.0,2.810058306,0.0,-0.004882811999999959,1.0399999618530273,0.23000000417232513,0.0,4.8828125E-4,0.0216064453125,1.00360107421875,36.25,0.0,-3.0,0.256500244140625,-0.021697998046875,Closing,0.0,0.0,0.0,0.0,0.0,0.0,0.0,0.0,
0.2077980000001844,0.0,0.0,8501.0,0.0,0.0,0.0,0.0,0.125,3.7988277360000002,0.0,0.0,-8552.0,0.0,0.0,-0.0,0.0,0.0,1.8920896500000002,0.0,0.0,8432.0,0.0,0.0,0.0,0.0,0.0,4.857177237,0.0,0.0,-8400.0,0.0,0.0,-0.0,0.0,0.0,2.811279009,0.0,0.0,1.0299999713897705,0.23000000417232513,0.0,-0.00250244140625,0.0179443359375,0.99822998046875,36.25,0.0,-6.0,0.256500244140625,-0.021697998046875,Closing,0.0,0.0,0.0,0.0,0.0,0.0,0.0,0.0,
0.23561100000003352,0.0,0.0,8501.0,0.0,0.0,0.0,0.0,0.125,3.7988277360000002,0.0,0.0,-8552.0,0.0,0.0,-0.0,0.0,0.0,1.8920896500000002,0.0,0.0,8432.0,0.0,0.0,0.0,0.0,0.0,4.858397940000001,0.0,0.0,-8400.0,0.0,0.0,-0.0,0.0,0.0,2.810058306,0.0,0.0,1.0399999618530273,0.2199999988079071,0.0,0.00634765625,0.02313232421875,0.99273681640625,36.25,0.0,2.0,0.256500244140625,-0.021697998046875,Closing,0.0,0.0,0.0,0.0,0.0,0.0,0.0,0.0,
0.2692890000001062,0.0,0.0,8501.0,0.0,0.0,0.0,0.0,0.125,3.7976070330000002,0.0,0.0,-8552.0,0.0,0.0,-0.0,0.0,0.0,1.8908689470000002,0.0,0.0,8432.0,0.0,0.0,0.0,0.0,0.0,4.857177237,0.0,0.0,-8400.0,0.0,0.0,-0.0,0.0,0.0,2.811279009,0.0,0.0,1.0399999618530273,0.2199999988079071,0.0,-0.0023193359375,0.0184326171875,0.9970703125,36.25,0.0,-6.0,0.256500244140625,-0.021697998046875,Closing,0.0,0.0,0.0,0.0,0.0,0.0,0.0,0.0,
0.2949770000001881,0.0,0.0,8501.0,0.0,0.0,0.0,0.0,0.125,3.7988277360000002,0.0,0.0,-8552.0,0.0,0.0,-0.0,0.0,0.0,1.8920896500000002,0.0,0.0,8432.0,0.0,0.0,0.0,0.0,0.0,4.857177237,0.0,0.0,-8400.0,0.0,0.0,-0.0,0.0,0.0,2.810058306,0.0,0.0,1.0399999618530273,0.2199999988079071,0.0,0.0040283203125,0.01983642578125,0.9908447265625,36.25,0.0,0.0,0.256500244140625,-0.021697998046875,Closing,0.0,0.0,0.0,0.0,0.0,0.0,0.0,0.0,
0.3285950000002049,0.0,0.0,8501.0,0.0,0.0,0.0,0.0,0.125,3.7976070330000002,0.0,0.0012207029999999897,-8552.0,0.0,0.0,-0.0,0.0,0.0,1.8920896500000002,0.0,0.0,8432.0,0.0,0.0,0.0,0.0,0.0,4.855956534000001,0.0,0.0,-8400.0,0.0,0.0,-0.0,0.0,0.0,2.810058306,0.0,0.0,1.0399999618530273,0.2199999988079071,0.0,0.00189208984375,0.0074462890625,0.9891357421875,36.25,0.0,-1.0,0.256500244140625,-0.021697998046875,Closing,0.0,0.0,0.0,0.0,0.0,0.0,0.0,0.0,
0.3535950000002049,0.0,0.0,8501.0,0.0,0.0,0.0,0.0,0.125,3.7976070330000002,0.0,-0.0012207029999999897,-8552.0,0.0,0.0,-0.0,0.0,0.0,1.8920896500000002,0.0,0.0,8432.0,0.0,0.0,0.0,0.0,0.0,4.858397940000001,0.0,0.0,-8400.0,0.0,0.0,-0.0,0.0,0.0,2.7929684640000003,0.0,0.0,1.0399999618530273,0.20999999344348907,0.0,-0.0057373046875,0.0213623046875,1.001220703125,36.25,0.0,-9.0,0.256500244140625,-0.021697998046875,Closing,0.0,0.0,0.0,0.0,0.0,0.0,0.0,0.0,
0.3867980000001844,0.0,0.0,8501.0,0.0,0.0,0.0,0.0,0.125,3.7988277360000002,0.0,-0.0012207029999999897,-8552.0,0.0,0.0,-0.0,0.0,0.0,1.8981931650000001,0.0,0.0,8432.0,0.0,0.0,0.0,0.0,0.0,4.857177237,0.0,0.0,-8400.0,0.0,0.0,-0.0,0.0,0.0,2.810058306,0.0,0.0,1.0399999618530273,0.20999999344348907,0.0,-0.00347900390625,0.01678466796875,0.99737548828125,36.25,0.0,-7.0,0.256500244140625,-0.021697998046875,Closing,0.0,0.0,0.0,0.0,0.0,0.0,0.0,0.0,
0.4122939999999944,0.0,0.0,8501.0,0.0,0.0,0.0,0.0,0.125,3.7988277360000002,0.0,0.0,-8552.0,0.0,0.0,-0.0,0.0,0.0,1.8920896500000002,0.0,0.0,8432.0,0.0,0.0,0.0,0.0,0.0,4.853515128000001,0.0,0.0,-8400.0,0.0,0.0,-0.0,0.0,0.0,2.810058306,0.0,0.0,1.0299999713897705,0.20000000298023224,-0.009999999776482582,0.00390625,0.016357421875,1.00250244140625,36.25,0.0,0.0,0.256500244140625,-0.021697998046875,Closing,0.0,0.0,0.0,0.0,0.0,0.0,0.0,0.0,
0.4460720000001602,0.0,0.0,8501.0,0.0,0.0,0.0,0.0,0.125,3.7988277360000002,0.0,0.0,-8552.0,0.0,0.0,-0.0,0.0,0.0,1.8920896500000002,0.0,0.0,8432.0,0.0,0.0,0.0,0.0,0.0,4.8632807520000005,0.0,0.0,-8400.0,0.0,0.0,-0.0,0.0,0.0,2.810058306,0.0,0.0,1.0399999618530273,0.20999999344348907,0.0,-0.00347900390625,0.01953125,1.0008544921875,36.25,0.0,-7.0,0.256500244140625,-0.021697998046875,Closing,0.0,0.0,0.0,0.0,0.0,0.0,0.0,0.0,
0.47498200000007634,0.0,0.0,8501.0,0.0,0.0,0.0,0.0,0.125,3.7988277360000002,0.0,0.0,-8552.0,0.0,0.0,-0.0,0.0,0.0,1.8920896500000002,0.0,0.0012207029999995456,8432.0,0.0,0.0,0.0,0.0,0.0,4.858397940000001,0.0,0.0,-8400.0,0.0,0.0,-0.0,0.0,0.0,2.810058306,0.0,0.0,1.0399999618530273,0.20000000298023224,0.0,0.0040283203125,0.00750732421875,1.004150390625,36.22999954223633,0.0,0.0,0.256500244140625,-0.021697998046875,Closing,0.0,0.0,0.0,0.0,0.0,0.0,0.0,0.0,
0.5070930000001099,0.0,0.0,8501.0,0.0,0.0,0.0,0.0,0.125,3.7988277360000002,0.0,0.0,-8552.0,0.0,0.0,-0.0,0.0,0.0,1.8920896500000002,0.0,-0.0012207029999995456,8432.0,0.0,0.0,0.0,0.0,0.0,4.858397940000001,0.0,0.0,-8400.0,0.0,0.0,-0.0,0.0,0.0,2.811279009,0.0,0.0,1.0399999618530273,0.20999999344348907,0.0,-9.1552734375E-4,0.02203369140625,1.00225830078125,36.22999954223633,0.0,-4.0,0.256500244140625,-0.021697998046875,Closing,0.0,0.0,0.0,0.0,0.0,0.0,0.0,0.0,
0.5372480000001378,0.0,0.0,8501.0,0.0,0.0,0.0,0.0,0.125,3.7988277360000002,0.0,0.0,-8552.0,0.0,0.0,-0.0,0.0,0.0,1.8920896500000002,0.0,-0.0012207029999995456,8432.0,0.0,0.0,0.0,0.0,0.0,4.858397940000001,0.0,0.0,-8400.0,0.0,0.0,-0.0,0.0,0.0,2.810058306,0.0,0.0,1.0399999618530273,0.20000000298023224,0.0,0.00830078125,0.01641845703125,1.00885009765625,36.22999954223633,0.0,4.0,0.256500244140625,-0.021697998046875,Closing,0.0,0.0,0.0,0.0,0.0,0.0,0.0,0.0,
0.57137900000019,0.0,0.0,8501.0,0.0,0.0,0.0,0.0,0.125,3.8000484390000002,0.0,-0.0012207029999999897,-8552.0,0.0,0.0,-0.0,0.0,0.0,1.8920896500000002,0.0,0.0,8432.0,0.0,0.0,0.0,0.0,0.0,4.857177237,0.0,0.0,-8400.0,0.0,0.0,-0.0,0.0,0.0,2.810058306,0.0,0.0,1.0399999618530273,0.1899999976158142,0.0,0.0047607421875,0.02532958984375,1.00439453125,36.22999954223633,0.0,1.0,0.256500244140625,-0.021697998046875,Closing,0.0,0.0,0.0,0.0,0.0,0.0,0.0,0.0,
0.597689000000013,0.0,0.0,8501.0,0.0,0.0,0.0,0.0,0.125,3.7988277360000002,0.0,-0.0012207029999999897,-8552.0,0.0,0.0,-0.0,0.0,0.0,1.8920896500000002,0.0,0.0012207029999995456,8432.0,0.0,0.0,0.0,0.0,0.0,4.855956534000001,0.0,0.0,-8400.0,0.0,0.0,-0.0,0.0,0.0,2.810058306,0.0,0.0,1.0399999618530273,0.1899999976158142,0.0,9.765625E-4,0.01470947265625,0.99835205078125,36.22999954223633,0.0,-2.0,0.256500244140625,-0.021697998046875,Closing,0.0,0.0,0.0,0.0,0.0,0.0,0.0,0.0,
0.6325920000001788,0.0,0.0,8501.0,0.0,0.0,0.0,0.0,0.125,3.8000484390000002,0.0,0.0012207029999999897,-8552.0,0.0,0.0,-0.0,0.0,0.0,1.8920896500000002,0.0,0.0012207029999995456,8432.0,0.0,0.0,0.0,0.0,0.0,4.858397940000001,0.0,0.0,-8400.0,0.0,0.0,-0.0,0.0,0.0,2.8027340880000002,0.0,0.0,1.0399999618530273,0.1899999976158142,0.0,0.00225830078125,0.0120849609375,1.00396728515625,36.22999954223633,0.0,-1.0,0.256500244140625,-0.021697998046875,Closing,0.0,0.0,0.0,0.0,0.0,0.0,0.0,0.0,
0.6626090000001713,0.0,0.0,8501.0,0.0,0.0,0.0,0.0,0.125,3.7976070330000002,0.0,0.0,-8552.0,0.0,0.0,-0.0,0.0,0.0,1.8920896500000002,0.0,0.0,8432.0,0.0,0.0,0.0,0.0,0.0,4.855956534000001,0.0,0.0,-8400.0,0.0,0.0,-0.0,0.0,0.0,2.811279009,0.0,-0.0012207030000004337,1.0399999618530273,0.1899999976158142,0.0,0.00238037109375,0.0146484375,1.00238037109375,36.22999954223633,0.0,-1.0,0.256500244140625,-0.021697998046875,Closing,0.0,0.0,0.0,0.0,0.0,0.0,0.0,0.0,
0.6951350000000093,0.0,0.0,8501.0,0.0,0.0,0.0,0.0,0.125,3.7988277360000002,0.0,0.0,-8552.0,0.0,0.0,-0.0,0.0,0.0,1.8920896500000002,0.0,0.0,8432.0,0.0,0.0,0.0,0.0,0.0,4.857177237,0.0,0.0,-8400.0,0.0,0.0,-0.0,0.0,0.0,2.810058306,0.0,0.0012207030000004337,1.0399999618530273,0.1899999976158142,0.0,0.003662109375,0.0194091796875,0.99993896484375,36.22999954223633,0.0,0.0,0.256500244140625,-0.021697998046875,Closing,0.0,0.0,0.0,0.0,0.0,0.0,0.0,0.0,
0.7309320000000298,0.0,0.0,8501.0,0.0,0.0,0.0,0.0,0.125,3.7976070330000002,0.0,0.0012207029999999897,-8552.0,0.0,0.0,-0.0,0.0,0.0,1.8920896500000002,0.0,-0.0012207029999995456,8432.0,0.0,0.0,0.0,0.0,0.0,4.857177237,0.0,0.0,-8400.0,0.0,0.0,-0.0,0.0,0.0,2.8002926820000003,0.0,0.0012207030000004337,1.0399999618530273,0.1899999976158142,0.0,0.00244140625,0.02459716796875,0.9903564453125,36.22999954223633,0.0,0.0,0.256500244140625,-0.021697998046875,Closing,0.0,0.0,0.0,0.0,0.0,0.0,0.0,0.0,
0.7572300000002142,0.0,0.0,8501.0,0.0,0.0,0.0,0.0,0.125,3.7988277360000002,0.0,-0.0012207029999999897,-8552.0,0.0,0.0,-0.0,0.0,0.0,1.8969724620000001,0.0,0.0012207029999995456,8432.0,0.0,0.0,0.0,0.0,0.0,4.857177237,0.0,0.0,-8400.0,0.0,0.0,-0.0,0.0,0.0,2.810058306,0.0,0.0,1.0399999618530273,0.18000000715255737,0.0,0.002685546875,0.01922607421875,0.99005126953125,36.22999954223633,0.0,0.0,0.256500244140625,-0.021697998046875,Closing,0.0,0.0,0.0,0.0,0.0,0.0,0.0,0.0,
0.7925550000001677,0.0,0.0,8501.0,0.0,0.0,0.0,0.0,0.125,3.7988277360000002,0.0,-0.0012207029999999897,-8552.0,0.0,0.0,-0.0,0.0,0.0,1.8920896500000002,0.0,0.0012207029999995456,8432.0,0.0,0.0,0.0,0.0,0.0,4.855956534000001,0.0,0.0,-8400.0,0.0,0.0,-0.0,0.0,0.0,2.810058306,0.0,0.0,1.0399999618530273,0.18000000715255737,0.0,-0.0050048828125,0.0247802734375,0.98956298828125,36.22999954223633,0.0,-8.0,0.256500244140625,-0.021697998046875,Closing,0.0,0.0,0.0,0.0,0.0,0.0,0.0,0.0,
0.8285979999999982,0.0,0.0,8501.0,0.0,0.0,0.0,0.0,0.125,3.7988277360000002,0.0,0.0,-8552.0,0.0,0.0,-0.0,0.0,0.0,1.8933103530000002,0.0,-0.0012207029999995456,8432.0,0.0,0.0,0.0,0.0,0.0,4.858397940000001,0.0,0.0,-8400.0,0.0,0.0,-0.0,0.0,0.0,2.811279009,0.0,-0.0012207030000004337,1.0399999618530273,0.18000000715255737,0.0,0.0067138671875,0.01123046875,0.9989013671875,36.22999954223633,0.0,3.0,0.256500244140625,-0.021697998046875,Closing,0.0,0.0,0.0,0.0,0.0,0.0,0.0,0.0,
0.8548950000000186,0.0,0.0,8501.0,0.0,0.0,0.0,0.0,0.125,3.7976070330000002,0.0,0.0,-8552.0,0.0,0.0,-0.0,0.0,0.0,1.8920896500000002,0.0,0.0,8432.0,0.0,0.0,0.0,0.0,0.0,4.855956534000001,0.0,0.0,-8400.0,0.0,0.0,-0.0,0.0,0.0,2.810058306,0.0,0.0012207030000004337,1.0399999618530273,0.18000000715255737,0.0,0.00115966796875,0.00775146484375,0.99725341796875,36.22999954223633,0.0,-2.0,0.256500244140625,-0.021697998046875,Closing,0.0,0.0,0.0,0.0,0.0,0.0,0.0,0.0,
0.8889910000001546,0.0,0.0,8501.0,0.0,0.0,0.0,0.0,0.125,3.8000484390000002,0.0,0.0,-8552.0,0.0,0.0,-0.0,0.0,0.0,1.8920896500000002,0.0,0.0,8432.0,0.0,0.0,0.0,0.0,0.0,4.857177237,0.0,0.0,-8400.0,0.0,0.0,-0.0,0.0,0.0,2.810058306,0.0,0.0012207030000004337,1.0399999618530273,0.18000000715255737,0.0,0.00579833984375,0.02325439453125,1.00537109375,36.22999954223633,0.0,2.0,0.256500244140625,-0.021697998046875,Closing,0.0,0.0,0.0,0.0,0.0,0.0,0.0,0.0,
0.9144330000001937,0.0,0.0,8501.0,0.0,0.0,0.0,0.0,0.125,3.7988277360000002,0.0,0.0,-8552.0,0.0,0.0,-0.0,0.0,0.0,1.8920896500000002,0.0,0.0,8432.0,0.0,0.0,0.0,0.0,0.0,4.858397940000001,0.0,0.0,-8400.0,0.0,0.0,-0.0,0.0,0.0,2.810058306,0.0,0.0,1.0399999618530273,0.18000000715255737,0.0,0.00872802734375,0.0308837890625,0.98614501953125,36.22999954223633,0.0,5.0,0.256500244140625,-0.021697998046875,Closing,0.0,0.0,0.0,0.0,0.0,0.0,0.0,0.0,
0.9504600000001956,0.0,0.0,8501.0,0.0,0.0,0.0,0.0,0.125,3.7988277360000002,0.0,0.0,-8552.0,0.0,0.0,-0.0,0.0,0.0,1.8908689470000002,0.0,0.0,8432.0,0.0,0.0,0.0,0.0,0.0,4.857177237,0.0,-0.0012207029999995456,-8400.0,0.0,0.0,-0.0,0.0,0.0,2.810058306,0.0,-0.0012207030000004337,1.0399999618530273,0.17000000178813934,0.0,-1.8310546875E-4,0.00262451171875,1.0028076171875,36.22999954223633,0.0,-3.0,0.256500244140625,-0.021697998046875,Closing,0.0,0.0,0.0,0.0,0.0,0.0,0.0,0.0,
0.9853580000000075,0.0,0.0,8501.0,0.0,0.0,0.0,0.0,0.125,3.7988277360000002,0.0,0.0,-8552.0,0.0,0.0,-0.0,0.0,0.0,1.8920896500000002,0.0,0.0,8432.0,0.0,0.0,0.0,0.0,0.0,4.857177237,0.0,-0.0012207029999995456,-8400.0,0.0,0.0,-0.0,0.0,0.0,2.810058306,0.0,-0.0012207030000004337,1.0399999618530273,0.17000000178813934,0.0,-0.0062255859375,0.01318359375,0.9940185546875,36.25,0.0,-9.0,0.256500244140625,-0.021697998046875,Closing,0.0,0.0,0.0,0.0,0.0,0.0,0.0,0.0,
1.0126090000001713,0.0,0.0,8501.0,0.0,0.0,0.0,0.0,0.125,3.7976070330000002,0.0,0.0,-8552.0,0.0,0.0,-0.0,0.0,0.0,1.8920896500000002,0.0,0.0,8432.0,0.0,0.0,0.0,0.0,0.0,4.857177237,0.0,0.0012207029999995456,-8400.0,0.0,0.0,-0.0,0.0,0.0,2.810058306,0.0,0.0012207030000004337,1.0399999618530273,0.17000000178813934,0.0,0.001953125,0.01434326171875,1.0067138671875,36.25,0.0,-1.0,0.256500244140625,-0.021697998046875,Closing,0.0,0.0,0.0,0.0,0.0,0.0,0.0,0.0,
1.0482070000001695,0.0,0.0,8501.0,0.0,0.0,0.0,0.0,0.125,3.7988277360000002,0.0,0.0,-8552.0,0.0,0.0,-0.0,0.0,0.0,1.8920896500000002,0.0,0.0,8432.0,0.0,0.0,0.0,0.0,0.0,4.857177237,0.0,0.0012207029999995456,-8400.0,0.0,0.0,-0.0,0.0,0.0,2.810058306,0.0,0.0,1.0399999618530273,0.17000000178813934,0.0,0.00201416015625,0.01654052734375,0.9959716796875,36.25,0.0,0.0,0.256500244140625,-0.021697998046875,Closing,0.0,0.0,0.0,0.0,0.0,0.0,0.0,0.0,
1.0768290000001435,0.0,0.0,8501.0,0.0,0.0,0.0,0.0,0.125,3.811034766,0.0,0.0,-8552.0,0.0,0.0,-0.0,0.0,0.0,1.8920896500000002,0.0,0.0012207029999995456,8432.0,0.0,0.0,0.0,0.0,0.0,4.857177237,0.0,0.0,-8400.0,0.0,0.0,-0.0,0.0,0.0,2.811279009,0.0,0.0,1.0399999618530273,0.17000000178813934,0.0,-2.44140625E-4,0.02691650390625,0.9984130859375,36.25,0.0,-3.0,0.256500244140625,-0.021697998046875,Closing,0.0,0.0,0.0,0.0,0.0,0.0,0.0,0.0,
1.1081149999999906,0.0,0.0,8501.0,0.0,0.0,0.0,0.0,0.125,3.7988277360000002,0.0,0.0,-8552.0,0.0,0.0,-0.0,0.0,0.0,1.8920896500000002,0.0,-0.0012207029999995456,8432.0,0.0,0.0,0.0,0.0,0.0,4.860839346000001,0.0,0.0,-8400.0,0.0,0.0,-0.0,0.0,0.0,2.810058306,0.0,0.0,1.0499999523162842,0.1599999964237213,0.0,-0.004638671875,0.01654052734375,0.99481201171875,36.25,0.0,-7.0,0.256500244140625,-0.021697998046875,Closing,0.0,0.0,0.0,0.0,0.0,0.0,0.0,0.0,
1.1365270000000018,0.0,0.0,8501.0,0.0,0.0,0.0,0.0,0.125,3.7988277360000002,0.0,0.0,-8552.0,0.0,0.0,-0.0,0.0,0.0,1.8920896500000002,0.0,-0.0012207029999995456,8432.0,0.0,0.0,0.0,0.0,0.0,4.857177237,0.0,0.0,-8400.0,0.0,0.0,-0.0,0.0,0.0,2.810058306,0.0,0.0,1.0399999618530273,0.1599999964237213,0.0,0.0028076171875,0.0186767578125,0.99591064453125,36.25,0.0,0.0,0.256500244140625,-0.021697998046875,Closing,0.0,0.0,0.0,0.0,0.0,0.0,0.0,0.0,
1.1723479999999982,0.0,0.0,8501.0,0.0,0.0,0.0,0.0,0.125,3.7988277360000002,0.0,0.0012207029999999897,-8552.0,0.0,0.0,-0.0,0.0,0.0,1.8920896500000002,0.0,0.0,8432.0,0.0,0.0,0.0,0.0,0.0,4.858397940000001,0.0,-0.0012207029999995456,-8400.0,0.0,0.0,-0.0,0.0,0.0,2.811279009,0.0,0.0,1.0399999618530273,0.1599999964237213,0.0,0.005126953125,0.02392578125,1.00518798828125,36.25,0.0,2.0,0.256500244140625,-0.021697998046875,Closing,0.0,0.0,0.0,0.0,0.0,0.0,0.0,0.0,
1.199660000000149,0.0,0.0,8501.0,0.0,0.0,0.0,0.0,0.125,3.8000484390000002,0.0,0.0012207029999999897,-8552.0,0.0,0.0,-0.0,0.0,0.0,1.8920896500000002,0.0,0.0,8432.0,0.0,0.0,0.0,0.0,0.0,4.857177237,0.0,0.0,-8400.0,0.0,0.0,-0.0,0.0,0.0,2.810058306,0.0,0.0,1.0499999523162842,0.1599999964237213,-0.009999999776482582,0.00714111328125,0.01715087890625,0.9937744140625,36.25,0.0,4.0,0.256500244140625,-0.021697998046875,Closing,0.0,0.0,0.0,0.0,0.0,0.0,0.0,0.0,
1.2332990000001154,0.0,0.0,8501.0,0.0,0.0,0.0,0.0,0.125,3.7988277360000002,0.0,0.0,-8552.0,0.0,0.0,-0.0,0.0,0.0,1.8920896500000002,0.0,0.0,8432.0,0.0,0.0,0.0,0.0,0.0,4.857177237,0.0,0.0,-8400.0,0.0,0.0,-0.0,0.0,0.0,2.811279009,0.0,0.0,1.0499999523162842,0.1599999964237213,-0.009999999776482582,0.003662109375,0.011962890625,0.990966796875,36.25,0.0,0.0,0.256500244140625,-0.021697998046875,Closing,0.0,0.0,0.0,0.0,0.0,0.0,0.0,0.0,
1.262597999999998,0.0,0.0,8501.0,0.0,0.0,0.0,0.0,0.125,3.7976070330000002,0.0,-0.0012207029999999897,-8552.0,0.0,0.0,-0.0,0.0,0.0,1.8908689470000002,0.0,0.0,8432.0,0.0,0.0,0.0,0.0,0.0,4.857177237,0.0,0.0,-8400.0,0.0,0.0,-0.0,0.0,0.0,2.811279009,0.0,-0.0012207030000004337,1.0399999618530273,0.15000000596046448,-0.009999999776482582,0.005615234375,0.01312255859375,0.98406982421875,36.25,0.0,2.0,0.256500244140625,-0.021697998046875,Closing,0.0,0.0,0.0,0.0,0.0,0.0,0.0,0.0,
1.2946550000000279,0.0,0.0,8501.0,0.0,0.0,0.0,0.0,0.125,3.7988277360000002,0.0,-0.0012207029999999897,-8552.0,0.0,0.0,-0.0,0.0,0.0,1.8920896500000002,0.0,0.0,8432.0,0.0,0.0,0.0,0.0,0.0,4.857177237,0.0,0.0,-8400.0,0.0,0.0,-0.0,0.0,0.0,2.8076169,0.0,-0.0012207030000004337,1.0399999618530273,0.15000000596046448,-0.009999999776482582,-2.44140625E-4,0.02618408203125,1.002197265625,36.25,0.0,-2.0,0.256500244140625,-0.021697998046875,Closing,0.0,0.0,0.0,0.0,0.0,0.0,0.0,0.0,
1.3298980000000447,0.0,0.0,8501.0,0.0,0.0,0.0,0.0,0.125,3.7976070330000002,0.0,0.0,-8552.0,0.0,0.0,-0.0,0.0,0.0,1.8920896500000002,0.0,0.0,8432.0,0.0,0.0,0.0,0.0,0.0,4.858397940000001,0.0,0.0012207029999995456,-8400.0,0.0,0.0,-0.0,0.0,0.0,2.810058306,0.0,0.0,1.0399999618530273,0.15000000596046448,-0.009999999776482582,0.00152587890625,0.01312255859375,1.00006103515625,36.25,0.0,-1.0,0.256500244140625,-0.021697998046875,Closing,0.0,0.0,0.0,0.0,0.0,0.0,0.0,0.0,
1.3557720000001137,0.0,0.0,8501.0,0.0,0.0,0.0,0.0,0.125,3.7988277360000002,0.0,0.0,-8552.0,0.0,0.0,-0.0,0.0,0.0,1.8920896500000002,0.0,0.0012207029999995456,8432.0,0.0,0.0,0.0,0.0,0.0,4.858397940000001,0.0,0.0,-8400.0,0.0,0.0,-0.0,0.0,0.0,2.810058306,0.0,0.0012207030000004337,1.0399999618530273,0.15000000596046448,-0.009999999776482582,0.00433349609375,0.02496337890625,0.9974365234375,36.25,0.0,1.0,0.256500244140625,-0.021697998046875,Closing,0.0,0.0,0.0,0.0,0.0,0.0,0.0,0.0,
1.3904820000000764,0.0,0.0,8501.0,0.0,0.0,0.0,0.0,0.125,3.7988277360000002,0.0,0.0,-8552.0,0.0,0.0,-0.0,0.0,0.0,1.8920896500000002,0.0,0.0012207029999995456,8432.0,0.0,0.0,0.0,0.0,0.0,4.855956534000001,0.0,0.0,-8400.0,0.0,0.0,-0.0,0.0,0.0,2.810058306,0.0,0.0012207030000004337,1.0399999618530273,0.14000000059604645,-0.009999999776482582,0.00872802734375,0.02215576171875,1.00201416015625,36.25,0.0,6.0,0.256500244140625,-0.021697998046875,Closing,0.0,0.0,0.0,0.0,0.0,0.0,0.0,0.0,
1.4211710000000894,0.0,0.0,8501.0,0.0,0.0,0.0,0.0,0.125,3.8000484390000002,0.0,0.0,-8552.0,0.0,0.0,-0.0,0.0,0.0,1.8920896500000002,0.0,-0.0012207029999995456,8432.0,0.0,0.0,0.0,0.0,0.0,4.857177237,0.0,0.0,-8400.0,0.0,0.0,-0.0,0.0,0.0,2.810058306,0.0,0.0,1.0499999523162842,0.15000000596046448,-0.009999999776482582,6.103515625E-5,0.0118408203125,0.99945068359375,36.25,0.0,-2.0,0.256500244140625,-0.021697998046875,Closing,0.0,0.0,0.0,0.0,0.0,0.0,0.0,0.0,
1.4514940000001806,0.0,0.0,8501.0,0.0,0.0,0.0,0.0,0.125,3.7976070330000002,0.0,0.0,-8552.0,0.0,0.0,-0.0,0.0,0.0,1.8920896500000002,0.0,0.0,8432.0,0.0,0.0,0.0,0.0,0.0,4.857177237,0.0,0.0,-8400.0,0.0,0.0,-0.0,0.0,0.0,2.810058306,0.0,-0.0012207030000004337,1.0499999523162842,0.14000000059604645,-0.009999999776482582,-9.765625E-4,0.01763916015625,1.0035400390625,36.25,0.0,-3.0,0.256500244140625,-0.021697998046875,Closing,0.0,0.0,0.0,0.0,0.0,0.0,0.0,0.0,
1.4843730000001378,0.0,0.0,8501.0,0.0,0.0,0.0,0.0,0.125,3.7927242210000003,0.0,0.0,-8552.0,0.0,0.0,-0.0,0.0,0.0,1.8920896500000002,0.0,0.0,8432.0,0.0,0.0,0.0,0.0,0.0,4.860839346000001,0.0,0.0,-8400.0,0.0,0.0,-0.0,0.0,0.0,2.810058306,0.0,-0.0012207030000004337,1.0499999523162842,0.15000000596046448,-0.009999999776482582,0.00628662109375,0.018798828125,0.99993896484375,36.2400016784668,0.0,3.0,0.256500244140625,-0.021697998046875,Closing,0.0,0.0,0.0,0.0,0.0,0.0,0.0,0.0,
1.512279000000097,0.0,0.0,8501.0,0.0,0.0,0.0,0.0,0.125,3.7988277360000002,0.0,0.0,-8552.0,0.0,0.0,-0.0,0.0,0.0,1.8920896500000002,0.0,0.0012207029999995456,8432.0,0.0,0.0,0.0,0.0,0.0,4.858397940000001,0.0,0.0,-8400.0,0.0,0.0,-0.0,0.0,0.0,2.811279009,0.0,0.0012207030000004337,1.0499999523162842,0.15000000596046448,-0.009999999776482582,0.00128173828125,0.01702880859375,0.9949951171875,36.2400016784668,0.0,-1.0,0.256500244140625,-0.021697998046875,Closing,0.0,0.0,0.0,0.0,0.0,0.0,0.0,0.0,
1.5471380000000354,0.0,0.0,8501.0,0.0,0.0,0.0,0.0,0.125,3.7976070330000002,0.0,0.0,-8552.0,0.0,0.0,-0.0,0.0,0.0,1.8920896500000002,0.0,0.0012207029999995456,8432.0,0.0,0.0,0.0,0.0,0.0,4.857177237,0.0,0.0,-8400.0,0.0,0.0,-0.0,0.0,0.0,2.810058306,0.0,0.0012207030000004337,1.0499999523162842,0.14000000059604645,-0.009999999776482582,-6.7138671875E-4,0.02191162109375,0.9964599609375,36.2400016784668,0.0,-3.0,0.256500244140625,-0.021697998046875,Closing,0.0,0.0,0.0,0.0,0.0,0.0,0.0,0.0,
1.5759570000001695,0.0,0.0,8501.0,0.0,0.0,0.0,0.0,0.125,3.801269142,0.0,0.0012207029999999897,-8552.0,0.0,0.0,-0.0,0.0,0.0,1.8920896500000002,0.0,-0.0012207029999995456,8432.0,0.0,0.0,0.0,0.0,0.0,4.858397940000001,0.0,0.0,-8400.0,0.0,0.0,-0.0,0.0,0.0,2.810058306,0.0,0.0,1.0499999523162842,0.14000000059604645,-0.009999999776482582,0.0015869140625,0.0185546875,1.00555419921875,36.2400016784668,0.0,0.0,0.256500244140625,-0.021697998046875,Closing,0.0,0.0,0.0,0.0,0.0,0.0,0.0,0.0,
1.6080510000002104,0.0,0.0,8501.0,0.0,0.0,0.0,0.0,0.125,3.7988277360000002,0.0,-0.0024414059999999793,-8552.0,0.0,0.0,-0.0,0.0,0.0,1.8920896500000002,0.0,0.0,8432.0,0.0,0.0,0.0,0.0,0.0,4.858397940000001,0.0,0.0,-8400.0,0.0,0.0,-0.0,0.0,0.0,2.810058306,0.0,0.0,1.0499999523162842,0.14000000059604645,-0.009999999776482582,0.00335693359375,0.01495361328125,1.00238037109375,36.2400016784668,0.0,0.0,0.256500244140625,-0.021697998046875,Closing,0.0,0.0,0.0,0.0,0.0,0.0,0.0,0.0,
1.638439000000013,0.0,0.0,8501.0,0.0,0.0,0.0,0.0,0.125,3.8000484390000002,0.0,-0.0024414059999999793,-8552.0,0.0,0.0,-0.0,0.0,0.0,1.8920896500000002,0.0,0.0,8432.0,0.0,0.0,0.0,0.0,0.0,4.857177237,0.0,0.0,-8400.0,0.0,0.0,-0.0,0.0,0.0,2.808837603,0.0,0.0,1.0499999523162842,0.14000000059604645,-0.009999999776482582,4.2724609375E-4,0.01373291015625,0.9931640625,36.2400016784668,0.0,-2.0,0.256500244140625,-0.021697998046875,Closing,0.0,0.0,0.0,0.0,0.0,0.0,0.0,0.0,
1.673632000000216,0.0,0.0,8501.0,0.0,0.0,442.96875,0.0,0.125,3.801269142,0.5533560492066917,0.0,-8552.0,0.125,0.0,442.96875,0.0,0.0,1.8920896500000002,4.397316058113637,0.0,8432.0,0.0,0.0,442.96875,0.0,0.0,4.857177237,4.40175868900686,0.0,-8400.0,0.0,0.0,442.96875,0.0,0.0,2.810058306,0.5515167311543303,0.0,1.0499999523162842,0.14000000059604645,-0.009999999776482582,0.003662109375,0.01898193359375,1.0,36.2400016784668,0.0,1.0,0.256500244140625,-0.021697998046875,Closing,0.0,0.0,0.0,0.0,0.0,0.0,0.0,0.0,
1.7027140000001528,0.0,0.0,8501.0,3.375,0.0,1755.46875,0.0,0.125,3.8000484390000002,0.5533560492066917,0.0,-8552.0,2.125,0.0,1755.46875,0.0,0.0,1.8920896500000002,4.397316058113637,0.0012207029999995456,8432.0,0.375,0.0,1755.46875,0.0,0.0,4.857177237,4.40175868900686,0.0,-8400.0,4.75,37.5,1755.46875,0.0,0.0,2.812499712,0.5515167311543303,0.0,1.0499999523162842,0.12999999523162842,-0.009999999776482582,-3.0517578125E-4,0.01226806640625,0.99151611328125,36.2400016784668,0.0,-2.0,0.256500244140625,-0.021697998046875,Closing,0.0,0.0,0.0,0.0,0.0,0.0,0.0,0.0,
1.734535000000149,0.0,0.0,8501.0,6.375,52.5,2100.0,0.0,0.125,3.824462499,0.5533560492066917,0.0012207029999999897,-8552.0,9.625,7.5,2100.0,0.0,1.0,1.8420408270000002,4.397316058113637,0.0,8432.0,11.0,52.5,2100.0,0.0,1.125,4.832763177,4.40175868900686,-0.0012207029999995456,-8400.0,11.125,127.5,2100.0,0.0,3.25,2.875976268,0.5515167311543303,0.0012207030000004337,1.1200000047683716,0.07999999821186066,-0.05000000074505806,-0.40496826171875,0.2635498046875,1.040283203125,36.2400016784668,0.0,-406.0,0.2562103271484375,-0.021514892578125,Closing,0.0,0.0,0.0,0.0,0.0,0.0,0.0,0.0,
1.7671810000000987,0.0,0.0,8563.0,16.5,292.5,2100.0,0.0,1.875,3.911132412,0.5533560492066917,0.0,-8532.0,29.875,75.0,2100.0,0.0,1.125,1.7846677860000002,4.397316058113637,0.0,8458.0,19.5,112.5,2100.0,0.0,1.125,4.719237798,4.40175868900686,0.0,-8353.0,28.625,330.0,2100.0,0.0,3.75,2.968749696,0.5515167311543303,0.0,1.1799999475479126,0.12999999523162842,-1.0,0.2598876953125,-0.10906982421875,0.33416748046875,36.2400016784668,0.0,261.0,0.2545928955078125,-0.021026611328125,Closing,0.0,0.0,0.0,0.0,0.0,0.0,0.0,0.0,
1.798409000000218,0.0,0.0,8563.0,21.375,427.5,2100.0,0.0,2.25,3.9916988100000004,0.5533560492066917,0.10131834899999959,-8532.0,40.25,202.5,2100.0,0.0,0.125,1.7370603690000002,4.397316058113637,-0.04150390199999965,8458.0,30.75,255.0,2100.0,0.0,0.375,4.639892103,4.40175868900686,-0.10864256699999952,-8353.0,32.0,390.0,2100.0,0.0,1.375,3.0517575000000003,0.5515167311543303,0.0,1.2400000095367432,0.009999999776482582,-2.109999895095825,-0.0106201171875,-0.0172119140625,1.56658935546875,36.2400016784668,0.0,-9.0,0.2538909912109375,-0.0205535888671875,Closing,0.0,0.0,0.0,0.0,0.0,0.0,0.0,0.0,
1.8381170000000857,0.0,0.0,8563.0,21.75,637.5,2100.0,0.0,1.0,4.091796456,0.5533560492066917,0.104980458,-8532.0,44.125,262.5,2100.0,0.0,0.375,1.6613767830000001,4.397316058113637,-0.08422850700000062,8458.0,34.0,382.5,2100.0,0.0,0.375,4.549560081,4.40175868900686,-0.10864256700000041,-8353.0,32.25,435.0,2100.0,0.0,1.125,3.128661789,0.5515167311543303,0.10131834900000003,1.1399999856948853,0.14000000059604645,-3.359999895095825,-0.04107666015625,-0.10040283203125,0.46539306640625,36.2400016784668,0.0,-35.0,0.253173828125,-0.0198516845703125,Closing,0.0,0.0,0.0,0.0,0.0,0.0,0.0,0.0,
1.8728910000000614,0.0,0.0,8563.0,20.125,757.5,2100.0,0.0,0.5,4.16259723,0.5533560492066917,0.0,-8449.0,49.125,397.5,2100.0,0.0,0.625,1.585693197,4.397316058113637,0.0,8549.0,35.375,435.0,2100.0,0.0,0.375,4.481200713000001,4.40175868900686,0.0,-8259.0,35.125,540.0,2100.0,0.0,1.125,3.195800454,0.5515167311543303,0.0,1.1100000143051147,0.05000000074505806,-4.949999809265137,-0.1474609375,-0.0400390625,1.4429931640625,36.2400016784668,0.0,-142.0,0.252410888671875,-0.01971435546875,Closing,0.0,0.0,0.0,0.0,0.0,0.0,0.0,0.0,
1.9006070000000763,0.0,0.0,8701.0,21.0,840.0,2100.0,0.0,0.375,4.189452696,0.5533560492066917,0.06347655599999946,-8449.0,50.5,472.5,2100.0,0.0,0.375,1.57470687,4.397316058113637,-0.053710931999999545,8549.0,37.5,607.5,2100.0,0.0,0.125,4.45556595,4.40175868900686,-0.06225585299999992,-8259.0,38.625,645.0,2100.0,0.0,0.875,3.2043453750000004,0.5515167311543303,0.0,0.9300000071525574,0.07000000029802322,-8.09000015258789,-0.0728759765625,0.16357421875,1.19195556640625,36.2400016784668,0.0,-94.0,0.250396728515625,-0.0199737548828125,Closing,0.0,0.0,0.0,0.0,0.0,0.0,0.0,0.0,
1.934624000000069,0.0,0.0,8701.0,21.5,975.0,2100.0,0.0,0.25,4.210204647,0.5533560492066917,0.030517575000000186,-8449.0,51.25,660.0,2100.0,0.0,0.125,1.5283201560000002,4.397316058113637,-0.03906249599999967,8549.0,37.875,705.0,2100.0,0.0,0.0,4.431151890000001,4.40175868900686,-0.03173827800000062,-8259.0,38.375,757.5,2100.0,0.0,0.5,3.229980138,0.5515167311543303,0.025634763000000227,0.8500000238418579,0.05999999865889549,-10.760000228881836,0.031494140625,-0.18341064453125,0.72357177734375,36.2400016784668,0.0,66.0,0.24859619140625,-0.0198822021484375,Closing,0.0,0.0,0.0,0.0,0.0,0.0,0.0,0.0,
1.9669899999999907,0.0,0.0,8701.0,22.125,1035.0,2100.0,0.0,0.375,4.219970271,0.5533560492066917,0.0,-8449.0,49.875,900.0,2100.0,0.0,0.0,1.491699066,4.397316058113637,0.0,8549.0,37.375,922.5,2100.0,0.0,0.0,4.414062048,4.40175868900686,0.0,-8259.0,34.875,997.5,2100.0,0.0,0.5,3.228759435,0.5515167311543303,0.0,0.8700000047683716,0.07999999821186066,-14.029999732971191,-0.0828857421875,0.12078857421875,1.02130126953125,36.2400016784668,0.0,-107.0,0.2464752197265625,-0.0199737548828125,Closing,0.0,0.0,0.0,0.0,0.0,0.0,0.0,0.0,
1.9953220000001601,0.0,0.0,8908.0,21.375,1177.5,1998.981366808306,0.0,0.375,4.221190974000001,0.36767592354820344,0.004882811999999959,-8260.0,46.625,1027.5,1120.9877114525857,0.0,0.0,1.459960788,4.218271056843254,-0.032958981000000165,8736.0,36.75,1035.0,2138.4487290528896,0.0,0.0,4.384765176,4.495120997120958,-0.024414059999999793,-8059.0,33.375,1117.5,1354.123299839724,0.0,0.5,3.240966465,0.8278383547056205,0.0,0.9800000190734863,0.05999999865889549,-17.780000686645508,0.0574951171875,0.06396484375,0.97607421875,36.290000915527344,0.0,39.0,0.243560791015625,-0.0196990966796875,Closing,0.0,0.0,0.0,0.0,0.0,0.0,0.0,0.0,
2.0301670000001324,0.0,0.0,8908.0,20.375,1275.0,1894.9170475455564,0.0,0.25,4.219970271,0.15409479764708423,0.003662108999999525,-8260.0,23.75,1275.0,419.72245147089046,0.0,0.0,1.417236183,3.3136952187815285,-0.030517574999999297,8736.0,36.5,1267.5,2124.5622382872825,0.0,0.0,4.387206582,4.55554306200115,-0.009765623999999917,-8059.0,20.75,1335.0,1048.4374199475296,0.0,1.375,3.253173495,1.3904575969699726,0.0012207029999999897,0.8600000143051147,0.25,-22.010000228881836,0.0390625,0.02252197265625,0.86346435546875,36.290000915527344,0.0,29.0,0.2407073974609375,-0.0192108154296875,Closing,0.0,0.0,0.0,0.0,0.0,0.0,0.0,0.0,
2.0569160000002014,0.0,0.0,8908.0,18.125,1492.5,2100.0,0.0,0.125,4.26025347,4.6605065523995295,0.0,-8260.0,11.625,1365.0,-2100.0,0.0,0.0,1.358642439,4.6464236357424,0.0,8736.0,36.75,1387.5,2100.0,0.0,0.0,4.353026898,4.651117941294776,0.0,-8059.0,10.625,1417.5,-2100.0,0.0,1.75,3.3642574680000004,4.645015344076686,0.0,1.0199999809265137,0.46000000834465027,-28.940000534057617,0.14593505859375,0.00146484375,0.77587890625,36.290000915527344,0.0,128.0,0.236358642578125,-0.0178070068359375,Closing,0.0,0.0,0.0,0.0,0.0,0.0,0.0,0.0,
2.0937930000000633,0.0,0.0,8908.0,17.375,1590.0,2472.2098854993023,0.0,2.875,4.210204647,4.79338245036699,-0.0012207029999995456,-8260.0,6.375,1297.5,-1367.5272200754214,0.0,0.25,1.36718736,4.63567696967106,-0.06225585299999992,8736.0,35.125,1590.0,2844.112470994298,0.0,0.125,4.373778849,4.51513214273983,-0.03173827800000062,-8059.0,11.25,1312.5,-1961.4496494562452,0.0,7.5,3.3605953590000004,4.260323044309721,0.10620116100000043,0.8700000047683716,0.6200000047683716,-31.360000610351562,0.63983154296875,-0.0721435546875,0.6455078125,36.290000915527344,0.0,583.0,0.2353973388671875,-0.0170135498046875,Closing,0.0,0.0,0.0,0.0,0.0,0.0,0.0,0.0,
2.125443000000203,0.0,0.0,9205.0,20.25,1777.5,2973.9862629101267,0.0,3.125,4.08935505,4.937727544065687,0.0,-8127.0,6.375,1087.5,-622.0078072287719,0.0,0.25,1.364745954,4.823253530949798,0.0,9008.0,37.25,1665.0,3631.775166231929,0.0,0.125,4.392089394,4.471365027687417,0.0,-7898.0,15.375,982.5,2175.3368195142475,0.0,7.875,3.254394198,1.4622272826524378,0.0,1.2799999713897705,1.5299999713897705,-37.95000076293945,0.33734130859375,0.23382568359375,1.65948486328125,36.290000915527344,0.0,109.0,0.2342529296875,-0.0113525390625,Closing,0.0,0.0,0.0,0.0,0.0,0.0,0.0,0.0,
2.1540140000001995,0.0,0.0,9205.0,24.375,1860.0,3161.2924930569216,0.0,2.25,3.975829671,4.958371265760137,-0.1513671719999996,-8127.0,1.5,540.0,-152.3620103054427,0.0,0.625,1.40380845,4.832137479989058,0.0,9008.0,42.5,1725.0,4068.0141276568447,0.0,0.125,4.392089394,4.417246300316001,0.0,-7898.0,15.0,952.5,2564.7968532306704,0.0,8.125,3.341064111,1.2831644656025054,0.0,0.6000000238418579,1.809999942779541,-42.099998474121094,-0.20849609375,0.064208984375,-0.0889892578125,36.290000915527344,0.0,-196.0,0.2347869873046875,-0.0067596435546875,Closing,0.0,0.0,0.0,0.0,0.0,0.0,0.0,0.0,
2.1880510000002107,0.0,0.0,9205.0,30.875,2017.5,3164.2294792943085,0.0,0.125,3.907470303,4.950421924012322,-0.10131834900000003,-8127.0,0.0,390.0,72.1795617141251,0.0,0.75,1.4648436,0.6720290117673365,0.05371093200000043,9008.0,40.75,1747.5,4199.379729301788,0.0,0.0,4.387206582,4.388207966113436,0.0,-7898.0,18.125,1035.0,2761.8203783672952,0.0,8.25,3.510741828,1.2233420566178392,0.10009764600000004,0.6600000262260437,1.440000057220459,-46.400001525878906,-0.17523193359375,0.07403564453125,1.99993896484375,36.290000915527344,0.0,-192.0,0.2357330322265625,-0.0032196044921875,Closing,0.0,0.0,0.0,0.0,0.0,0.0,0.0,0.0,
2.213594000000041,0.0,0.0,9205.0,30.5,2077.5,3058.390070836642,0.0,0.125,3.8500972620000002,4.920775791861036,0.0,-8127.0,0.0,405.0,229.6718389870642,0.0,1.5,1.546630701,0.6424724630129623,0.0,9008.0,37.875,1800.0,4193.715637281133,0.0,0.0,4.381103067000001,4.358621556226757,0.0,-7898.0,33.875,1410.0,2878.584752027955,0.0,2.875,3.665771109,1.193794466203157,0.0,-0.15000000596046448,1.6799999475479126,-50.939998626708984,0.047607421875,-0.40277099609375,-0.36566162109375,36.290000915527344,0.0,350.0,0.236541748046875,-6.561279296875E-4,Closing,0.0,0.0,0.0,0.0,0.0,0.0,0.0,0.0,
2.2467800000000278,0.0,0.0,9560.0,28.125,2182.5,2941.9733985433313,0.0,0.125,3.819579687,4.889475034071425,-0.04150390200000009,-8019.0,0.125,660.0,395.59875059032663,0.0,3.625,1.690673655,0.6112662884962845,0.06469725900000078,9307.0,36.5,1845.0,4181.327735125695,0.0,0.0,4.367675334,4.327383853952435,-0.003662108999999525,-7635.0,34.875,1567.5,2997.46434878939,0.0,1.375,3.801269142,1.1625977500137725,0.156249984,-0.4300000071525574,1.3700000047683716,-55.720001220703125,0.04736328125,-0.30987548828125,1.4345703125,36.290000915527344,0.0,254.0,0.23870849609375,7.476806640625E-4,Closing,0.0,0.0,0.0,0.0,0.0,0.0,0.0,0.0,
2.2748270000000486,0.0,0.0,9560.0,27.75,2220.0,2814.416094728015,0.0,0.125,3.7988277360000002,4.856519571742831,0.0,-8019.0,0.125,750.0,569.6214132354637,0.0,4.5,1.877441214,0.5784104095550665,0.1757812319999994,9307.0,34.25,1897.5,4161.1935121529295,0.0,0.0,4.356689007,4.294494780548759,0.0,-7635.0,36.875,1672.5,3117.5410255096735,0.0,0.875,3.8830562430000004,1.1297518294112918,0.0,-1.1100000143051147,1.8200000524520874,-60.68000030517578,0.297119140625,-0.36578369140625,0.67724609375,36.290000915527344,0.0,442.0,0.242919921875,0.0017242431640625,Closing,0.0,0.0,0.0,0.0,0.0,0.0,0.0,0.0,
2.3073880000000355,0.0,0.0,9560.0,27.5,2257.5,2410.233735275141,0.0,0.125,3.7939449240000003,4.7058710877727705,-0.014648435999999876,-8019.0,0.125,802.5,805.9017450964659,0.0,2.375,2.0703122880000002,1.0133200351417384,0.0,9307.0,29.0,2070.0,3681.5517324221414,0.0,0.0,4.339599165,4.242817709751289,0.0,-7635.0,39.125,1725.0,2897.2528578968804,0.0,0.25,3.912353115,1.175378324131976,0.0,-1.600000023841858,1.9500000476837158,-65.63999938964844,0.3509521484375,-0.27392578125,1.33087158203125,36.290000915527344,0.0,341.0,0.2496185302734375,0.00299072265625,Closing,0.0,0.0,0.0,0.0,0.0,0.0,0.0,0.0,
2.335431000000099,0.0,0.0,9560.0,24.375,2332.5,2035.463303931285,0.0,0.125,3.775634379,4.181958810369813,-0.008544920999999928,-8019.0,0.75,787.5,-1809.3889216908344,0.0,2.0,2.254638441,3.9850549157850117,0.20874021299999956,9307.0,26.75,2190.0,2400.30076476105,0.0,0.0,4.324950729,4.097165256790146,-0.0183105449999994,-7635.0,36.75,1890.0,2211.8366055382885,0.0,0.25,3.916015224,1.4588542612747701,0.024414059999999793,-2.2699999809265137,2.180000066757202,-70.58000183105469,0.4459228515625,-0.18280029296875,0.56573486328125,36.290000915527344,0.0,291.0,0.25872802734375,0.0045928955078125,Closing,0.0,0.0,0.0,0.0,0.0,0.0,0.0,0.0,
2.367408000000054,0.0,0.0,9927.0,22.125,2340.0,2100.0,0.0,0.25,3.7255855560000004,3.990780196974013,0.0,-7932.0,10.0,637.5,2100.0,0.0,2.125,2.464599357,1.5042210303836399,0.0,9705.0,24.5,2452.5,2100.0,0.0,0.0,4.281005421000001,3.9827407525804306,0.0,-7320.0,29.75,1950.0,2100.0,0.0,0.25,3.93066366,1.5037651137246026,0.0,-2.5999999046325684,2.319999933242798,-75.4000015258789,0.23736572265625,0.095947265625,1.76531982421875,36.290000915527344,0.0,-128.0,0.269439697265625,0.0074615478515625,Closing,0.0,0.0,0.0,0.0,0.0,0.0,0.0,0.0,
2.395569000000134,0.0,0.0,9927.0,18.75,2272.5,2326.276662469785,0.0,3.625,3.603515256,4.27566854532879,-0.056152337999999524,-7932.0,13.5,547.5,2326.276662469785,0.0,2.25,2.6306149650000004,1.7882485154778767,0.2136230250000004,9705.0,24.5,2557.5,2326.276662469785,0.0,0.125,4.212646053,4.267055192094848,-0.046386714000000495,-7320.0,22.125,2002.5,2326.276662469785,0.0,1.125,3.984374592,1.7877065124927853,0.013427732999999886,-3.0799999237060547,2.690000057220459,-80.05000305175781,0.258056640625,-0.259765625,-0.0655517578125,36.290000915527344,0.0,303.0,0.2811431884765625,0.0113677978515625,Closing,0.0,0.0,0.0,0.0,0.0,0.0,0.0,0.0,
2.4284640000001527,0.0,0.0,9927.0,20.25,2220.0,2635.489296697638,0.0,4.125,3.4118648850000004,4.449392424127481,0.0,-7932.0,20.625,540.0,2635.489296697638,0.0,2.25,2.817382524,1.961447442990915,0.0,9705.0,21.625,2707.5,2635.489296697638,0.0,0.125,4.094237862,4.4404291033697705,0.0,-7320.0,17.0,2070.0,2635.489296697638,0.0,1.75,4.0808101290000005,1.9608529448772585,0.0,-3.5199999809265137,2.3299999237060547,-84.55999755859375,0.27557373046875,0.01922607421875,1.6629638671875,36.290000915527344,0.0,-101.0,0.2947235107421875,0.0162811279296875,Closing,0.0,0.0,0.0,0.0,0.0,0.0,0.0,0.0,
2.4547950000001584,0.0,0.0,9927.0,24.625,2145.0,2576.6171016424933,0.0,0.75,3.2958981,4.550740852231535,-0.1916503710000006,-7932.0,44.75,667.5,2576.6171016424933,0.0,2.625,2.974853211,2.0624896208085954,0.0,9705.0,19.875,2745.0,2576.6171016424933,0.0,0.0,4.029540603,4.541573364616242,-0.1269531119999998,-7320.0,18.875,2100.0,2576.6171016424933,0.0,1.375,4.177245666,2.0618644976663014,0.09887694300000005,-4.03000020980835,2.569999933242798,-88.80000305175781,0.11602783203125,-0.67608642578125,0.4991455078125,36.290000915527344,0.0,640.0,0.309295654296875,0.022186279296875,Closing,0.0,0.0,0.0,0.0,0.0,0.0,0.0,0.0,
2.4901500000001398,0.0,0.0,10272.0,26.625,2145.0,2417.5153553109153,0.0,0.125,3.2031246720000004,4.571062782372047,-0.1232910029999994,-7808.0,53.125,712.5,2417.5153553109153,0.0,2.875,3.14941374,2.0827501430216064,0.18310545000000067,10148.0,19.125,2775.0,2417.5153553109153,0.0,1.375,3.9892574040000004,4.5618543561384195,-0.08300780400000018,-6974.0,21.5,2145.0,2417.5153553109153,0.0,2.0,4.326171432000001,2.0821188790865626,0.11474608199999992,-4.53000020980835,2.430000066757202,-92.51000213623047,0.25634765625,-0.1026611328125,1.13275146484375,36.290000915527344,0.0,3.0,0.3257293701171875,0.029083251953125,Closing,0.0,0.0,0.0,0.0,0.0,0.0,0.0,0.0,
2.515967000000179,0.0,0.0,10272.0,28.375,2152.5,2285.656195311111,0.0,0.125,3.131103195,4.608762449554832,0.0,-7808.0,51.375,675.0,2285.656195311111,0.0,2.75,3.3264156750000002,2.12033589098446,0.0,10148.0,19.875,2760.0,2285.656195311111,0.0,1.625,4.047851148,4.599478077174584,0.0,-6974.0,20.75,2152.5,2285.656195311111,0.0,2.625,4.466552277,2.1196932351274227,0.0,-4.860000133514404,2.6700000762939453,-95.62000274658203,0.42718505859375,-0.1368408203125,0.68939208984375,36.279998779296875,0.0,38.0,0.342803955078125,0.0372772216796875,Closing,0.0,0.0,0.0,0.0,0.0,0.0,0.0,0.0,
2.5488020000001415,0.0,0.0,10272.0,27.875,2145.0,2272.902240468464,0.0,0.375,3.121337571,4.5763582802751115,-0.056152337999999524,-7808.0,47.0,667.5,2272.902240468464,0.0,2.125,3.496093392,2.088029639218679,0.18188474700000024,10148.0,22.0,2715.0,2272.902240468464,0.0,1.875,4.145507388,4.5671391862374895,0.07446288299999981,-6974.0,20.125,2100.0,2272.902240468464,0.0,2.0,4.583739765000001,2.087396775113036,0.15991209299999998,-4.869999885559082,2.809999942779541,-98.04000091552734,0.32684326171875,-0.04949951171875,1.6461181640625,36.279998779296875,0.0,-124.0,0.3603515625,0.0472869873046875,Closing,0.0,0.0,0.0,0.0,0.0,0.0,0.0,0.0,
2.5757010000001173,0.0,0.0,10272.0,27.375,2115.0,2220.6088164341327,0.0,0.5,3.121337571,4.591556475261099,0.0,-7808.0,39.25,1065.0,2220.6088164341327,0.0,1.125,3.656005485,2.1031819089579322,0.16113279599999997,10148.0,24.625,2602.5,2220.6088164341327,0.0,0.625,4.2407222220000005,4.582306764392321,0.0,-6974.0,21.125,2047.5,2220.6088164341327,0.0,0.875,4.683837411,2.1025444523276158,0.0,-4.940000057220459,3.25,-99.8499984741211,0.73980712890625,-0.02423095703125,0.16461181640625,36.279998779296875,0.0,-114.0,0.3769073486328125,0.059234619140625,Closing,0.0,0.0,0.0,0.0,0.0,0.0,0.0,0.0,
2.6081500000001396,0.0,0.0,10615.0,26.0,2122.5,2168.6679615697426,0.0,0.25,3.131103195,4.62883687157942,-0.004882811999999959,-7567.0,36.25,1327.5,2168.6679615697426,0.0,0.875,3.7780757850000004,2.140349652990843,0.0,10553.0,24.75,2557.5,2168.6679615697426,0.0,0.375,4.312743699,4.619512059187036,0.09399413099999965,-6664.0,22.5,1987.5,2168.6679615697426,0.0,0.875,4.741210452000001,2.1397009311319852,0.0,-4.670000076293945,3.930000066757202,-101.16999816894531,0.52923583984375,0.357421875,1.46624755859375,36.279998779296875,0.0,-550.0,0.3921661376953125,0.0742340087890625,Closing,0.0,0.0,0.0,0.0,0.0,0.0,0.0,0.0,
2.63987900000019,0.0,0.0,10615.0,24.25,2152.5,2106.3989422486543,0.0,0.25,3.1616207700000003,4.748380976412833,0.003662109000000413,-7567.0,33.0,1590.0,2106.3989422486543,0.0,0.375,3.867187104,2.2595325246307634,0.1452636570000001,10553.0,27.125,2452.5,2106.3989422486543,0.0,0.375,4.359130413,4.738815341891453,0.07202147699999983,-6664.0,25.125,1882.5,2106.3989422486543,0.0,0.5,4.793700681000001,2.2588476794525567,0.05493163499999998,-4.199999809265137,4.289999961853027,-101.95999908447266,0.61956787109375,0.330810546875,1.0926513671875,36.279998779296875,0.0,-512.0,0.4049072265625,0.09088134765625,Closing,0.0,0.0,0.0,0.0,0.0,0.0,0.0,0.0,
2.6683310000000056,0.0,0.0,10615.0,21.375,2250.0,2099.9999999999995,0.0,0.375,3.2055660780000004,4.7990849015129955,0.0,-7567.0,22.625,1987.5,2099.9999999999995,0.0,0.375,3.961181235,2.3100832348081815,0.0,10553.0,28.0,2400.0,2099.9999999999995,0.0,0.375,4.401855018,4.789417123709786,0.0,-6664.0,25.75,1867.5,2099.9999999999995,0.0,0.5,4.829101068,2.3093830681377003,0.0,-4.099999904632568,5.159999847412109,-102.47000122070312,0.3310546875,0.15203857421875,0.550048828125,36.279998779296875,0.0,-247.0,0.4154815673828125,0.109954833984375,Closing,0.0,0.0,0.0,0.0,0.0,0.0,0.0,0.0,
2.6961120000001975,0.0,0.0,10615.0,20.125,2295.0,2301.813053947077,0.0,0.625,3.276366852,0.15928153929357192,0.05615233800000041,-7567.0,18.875,2070.0,2301.813053947077,0.0,0.125,4.006347246,2.633300229243329,0.07202147699999983,10553.0,29.0,2355.0,2301.813053947077,0.0,0.625,4.444579623,0.1589606659267436,0.04272460500000008,-6664.0,26.875,1912.5,2301.813053947077,0.0,0.5,4.8730463760000005,2.6325020982383047,0.035400387000000144,-3.6600000858306885,5.269999980926514,-102.62000274658203,0.490234375,0.15240478515625,1.6185302734375,36.279998779296875,0.0,-324.0,0.4201812744140625,0.1201171875,Closing,0.0,0.0,0.0,0.0,0.0,0.0,0.0,0.0,
2.7291390000001994,0.0,0.0,10992.0,19.875,2340.0,2202.530050736642,0.0,1.125,3.3752437950000003,0.35746789013239105,0.0,-7223.0,15.25,2137.5,2202.530050736642,0.0,0.625,4.0783687230000005,2.830887709158985,0.0,10915.0,29.875,2272.5,2202.530050736642,0.0,0.75,4.509276882,0.3567477694834539,0.0,-6349.0,28.375,1957.5,2202.530050736642,0.0,2.25,0.025634763,2.8300296910616445,0.0,-3.450000047683716,5.739999771118164,-102.81999969482422,0.45916748046875,0.53326416015625,0.5247802734375,36.279998779296875,0.0,-640.0,0.427703857421875,0.1409149169921875,Closing,0.0,0.0,0.0,0.0,0.0,0.0,0.0,0.0,
2.7549899999999905,0.0,0.0,10992.0,18.125,2347.5,576.8353192510812,0.0,1.375,3.4790035500000003,0.7406729485698017,0.10742186399999909,-7223.0,12.5,2130.0,576.8353192510812,0.0,1.125,4.171142151000001,3.2129348151635675,0.0,10915.0,29.25,2257.5,576.8353192510812,0.0,3.125,4.642333509,0.7391808596323122,0.07324218000000027,-6349.0,23.125,2040.0,576.8353192510812,0.0,3.5,0.17089842,3.211961001822944,0.10130908999999955,-2.990000009536743,6.119999885559082,-102.91000366210938,0.43048095703125,0.3331298828125,1.4464111328125,36.279998779296875,0.0,-460.0,0.432647705078125,0.1634674072265625,Closing,0.0,0.0,0.0,0.0,0.0,0.0,0.0,0.0,
2.789603000000119,0.0,0.0,10992.0,12.375,2287.5,0.0,0.0,2.875,3.652343376,0.7406729485698017,0.0,-7223.0,3.25,2085.0,0.0,0.0,3.25,4.35790971,3.2129348151635675,0.0,10915.0,17.375,2227.5,0.0,0.0,4.75,4.847411613,0.7391808596323122,0.0,-6349.0,14.375,2032.5,0.0,0.0,2.875,0.399169881,3.211961001822944,0.0,-2.440000057220459,6.739999771118164,-102.93000030517578,0.2855224609375,0.4285888671875,0.4346923828125,36.279998779296875,0.0,-488.0,0.4351959228515625,0.186920166015625,Closing,0.0,0.0,0.0,0.0,0.0,0.0,0.0,0.0,
2.817060000000056,0.0,0.0,10992.0,2.0,2160.0,574.21875,0.0,3.0,3.864745698,4.785571744113501,0.0,-7223.0,0.0,2002.5,574.21875,0.0,3.75,4.56542922,2.2966109108818915,0.0,10915.0,10.375,2160.0,574.21875,0.0,3.125,0.136718736,4.775931188625761,0.0,-6349.0,4.375,1785.0,574.21875,0.0,1.75,0.624999936,2.295914827558731,0.0,-1.0399999618530273,6.400000095367432,-102.88999938964844,-0.215087890625,1.03497314453125,0.8555908203125,36.279998779296875,0.0,-954.0,0.4324493408203125,0.2213287353515625,Closing,0.0,0.0,0.0,0.0,0.0,0.0,0.0,0.0,
2.8503330000001004,0.0,0.0,11233.0,6.25,1920.0,1870.3125,0.0,2.25,3.9013667880000003,4.786261230638294,-4.778453144,-6985.0,4.75,1545.0,1870.3125,0.0,1.875,4.578856953,2.2972983139461958,0.1940917769999997,11167.0,7.875,1672.5,1870.3125,0.0,1.625,0.23193357,4.776619286176895,-4.681396005,-6111.0,5.875,1522.5,1870.3125,0.0,2.0,0.6579589170000001,2.2966020222769856,0.2319335699999998,-0.3499999940395355,5.570000171661377,-102.94000244140625,-0.83953857421875,0.517333984375,0.7611083984375,36.279998779296875,0.0,-304.0,0.4261627197265625,0.2400054931640625,Closing,0.0,0.0,0.0,0.0,0.0,0.0,0.0,0.0,
2.8805540000000036,0.0,0.0,11233.0,7.25,1230.0,2099.9999999999995,0.0,0.75,3.9404292840000004,4.785571744113501,0.003662108999999969,-6985.0,5.125,1230.0,2099.9999999999995,0.0,1.0,4.578856953,2.2966109108818915,-0.004882811999999959,11167.0,7.375,1237.5,2099.9999999999995,0.0,1.25,0.21118161900000001,4.775931188625761,0.0,-6111.0,5.75,1185.0,2099.9999999999995,0.0,1.875,0.642089778,2.295914827558731,0.0,0.36000001430511475,4.420000076293945,-103.06999969482422,-0.38385009765625,0.6209716796875,1.0738525390625,36.279998779296875,0.0,-492.0,0.4178466796875,0.2541656494140625,Closing,0.0,0.0,0.0,0.0,0.0,0.0,0.0,0.0,
2.9085709999999962,0.0,0.0,11233.0,3.625,975.0,1739.0625,0.0,0.25,3.9025874910000002,4.783779226430259,-0.004882811999999959,-6985.0,2.75,945.0,1739.0625,0.0,0.5,4.559325705,2.294823809750876,0.0,11167.0,4.5,442.5,1739.0625,0.0,1.5,0.136718736,4.774142281977337,-0.035400387000000144,-6111.0,1.375,652.5,1739.0625,0.0,0.75,0.58593744,2.2941282680829382,0.0,0.8299999833106995,4.300000190734863,-103.2300033569336,-0.2958984375,0.73016357421875,0.58233642578125,36.279998779296875,0.0,-624.0,0.412628173828125,0.2600860595703125,Closing,0.0,0.0,0.0,0.0,0.0,0.0,0.0,0.0,
2.9362750000001396,0.0,0.0,11233.0,0.875,862.5,164.0625,0.0,0.25,3.875732025,4.7789531363593225,0.0012207029999999897,-6985.0,1.125,720.0,164.0625,0.0,0.25,4.473876495,2.290012302949695,-0.042724604999999194,11167.0,1.125,322.5,164.0625,0.0,1.25,0.03662109,4.769325914086237,-0.08178710099999975,-6111.0,2.0,570.0,164.0625,0.0,0.375,0.505371042,2.2893182196087323,-0.06591796199999989,1.8600000143051147,3.5399999618530273,-103.5199966430664,-0.14288330078125,0.71160888671875,1.74237060546875,36.279998779296875,0.0,-577.0,0.3999481201171875,0.269561767578125,Closing,0.0,0.0,0.0,0.0,0.0,0.0,0.0,0.0,
2.96921800000011,0.0,0.0,11374.0,1.375,907.5,0.0,0.0,0.25,3.80859336,4.7789531363593225,-0.031738278000000175,-6867.0,1.0,750.0,0.0,0.0,0.0,4.396972206,2.290012302949695,-0.07080077400000029,11252.0,0.125,585.0,0.0,0.0,0.375,4.843749504,4.769325914086237,-0.08789061600000014,-6017.0,1.25,652.5,0.0,0.0,0.375,0.38818355400000004,2.2893182196087323,-0.08056639799999976,2.5899999141693115,2.950000047683716,-103.63999938964844,-0.6121826171875,0.028564453125,0.44122314453125,36.279998779296875,0.0,141.0,0.3762969970703125,0.2786712646484375,Closing,0.0,0.0,0.0,0.0,0.0,0.0,0.0,0.0,
2.997966000000015,0.0,0.0,11374.0,1.25,937.5,0.0,0.0,0.25,3.751220319,4.7789531363593225,-0.031738278000000175,-6867.0,0.25,787.5,0.0,0.0,0.0,4.349364789,2.290012302949695,-0.07080077400000029,11252.0,0.0,742.5,0.0,0.0,0.125,4.7656245120000005,4.769325914086237,-0.08789061600000014,-6017.0,0.25,750.0,0.0,0.0,0.0,0.34179684,2.2893182196087323,-0.08056639799999976,2.690000057220459,2.369999885559082,-103.66999816894531,-0.163330078125,0.03948974609375,1.322021484375,36.279998779296875,0.0,73.0,0.368316650390625,0.280426025390625,Closing,0.0,0.0,0.0,0.0,0.0,0.0,0.0,0.0,
3.0326350000000093,0.0,0.0,11374.0,0.5,892.5,-281.1023533344269,0.0,0.25,3.6755367330000004,0.5533560492066895,0.0,-6867.0,0.0,697.5,281.1023533344269,0.0,0.0,4.299315966,1.9228160581136347,-0.048828120000000474,11252.0,0.0,765.0,-281.1023533344269,0.0,0.0,4.691161629000001,4.401758689006861,0.0,-6017.0,0.125,832.5,281.1023533344269,0.0,0.0,0.29296872,3.0252667311543324,0.0,2.140000104904175,2.299999952316284,-103.62000274658203,-0.16595458984375,-0.3065185546875,1.08673095703125,36.16999816894531,0.0,386.0,0.34600830078125,0.284820556640625,Closing,0.0,0.0,0.0,0.0,0.0,0.0,0.0,0.0,
3.0587110000001267,0.0,0.0,11374.0,3.125,832.5,-1603.9369940757751,0.0,0.125,3.6877437630000003,0.5533560492066895,0.0,-6867.0,1.375,390.0,1603.9369940757751,0.0,0.0,4.276122609000001,1.9228160581136347,0.0,11252.0,5.875,645.0,-1603.9369940757751,0.0,0.0,4.67529249,4.401758689006861,0.0,-6017.0,0.75,810.0,1603.9369940757751,0.0,0.0,0.27832028400000003,3.0252667311543324,0.0,1.7699999809265137,1.899999976158142,-103.55000305175781,-0.3560791015625,-0.30657958984375,0.75396728515625,36.16999816894531,0.0,409.0,0.3336334228515625,0.2869873046875,Closing,0.0,0.0,0.0,0.0,0.0,0.0,0.0,0.0,
3.0922290000000503,0.0,0.0,11455.0,26.75,607.5,-2100.0,0.0,1.75,3.6828609510000003,0.5533560492066895,-0.006103515000000392,-6821.0,3.25,277.5,2100.0,0.0,0.5,4.208983944,1.9228160581136347,-0.03662108999999969,11310.0,14.0,487.5,-2100.0,0.0,0.0,4.644774915,4.401758689006861,-0.010986326999999463,-5908.0,1.625,675.0,2100.0,0.0,2.625,0.27832028400000003,3.0252667311543324,-0.01586913900000031,1.5399999618530273,1.1399999856948853,-103.19999694824219,-0.425537109375,0.07659912109375,1.12939453125,36.16999816894531,0.0,57.0,0.3228302001953125,0.2869415283203125,Closing,0.0,0.0,0.0,0.0,0.0,0.0,0.0,0.0,
3.116902000000002,0.0,0.0,11455.0,44.25,420.0,-2100.0,0.0,2.125,3.7243648530000004,0.5533560492066895,0.0,-6821.0,5.5,255.0,2100.0,0.0,0.75,4.127196843,1.9228160581136347,0.0,11310.0,22.625,-75.0,-2100.0,0.0,0.375,4.578856953,4.401758689006861,0.0,-5908.0,2.5,615.0,2100.0,0.0,3.25,0.37475582100000004,3.0252667311543324,0.0,1.7899999618530273,0.6399999856948853,-102.54000091552734,-0.40814208984375,0.18475341796875,0.90960693359375,36.16999816894531,0.0,-61.0,0.3119659423828125,0.284332275390625,Closing,0.0,0.0,0.0,0.0,0.0,0.0,0.0,0.0,
3.1501510000000708,0.0,0.0,11455.0,64.375,60.0,-1835.4330718517301,0.0,1.375,3.870849213,0.5533560492066895,0.08056639799999932,-6821.0,10.0,562.5,1835.4330718517301,0.0,0.25,4.05273396,1.9228160581136347,-0.08911131899999969,11310.0,17.25,-532.5,-1835.4330718517301,0.0,0.375,4.5166011,4.401758689006861,-0.07446288299999981,-5908.0,6.125,600.0,1835.4330718517301,0.0,1.375,0.465087843,3.0252667311543324,0.10375975500000001,1.8600000143051147,0.41999998688697815,-101.7300033569336,-0.0517578125,-0.03570556640625,0.65478515625,36.16999816894531,0.0,67.0,0.3003997802734375,0.280242919921875,Closing,0.0,0.0,0.0,0.0,0.0,0.0,0.0,0.0,
3.177224000000162,0.0,0.0,11455.0,64.25,-7.5,-1306.299215555191,0.0,1.375,3.9477535020000003,0.5533560492066895,-4.859019542,-6821.0,12.25,765.0,1306.299215555191,0.0,0.0,3.9904781070000004,1.9228160581136347,-0.0646972589999999,11310.0,12.875,-1005.0,-1306.299215555191,0.0,0.125,4.459228059,4.401758689006861,0.0,-5908.0,11.125,607.5,1306.299215555191,0.0,2.25,0.545654241,3.0252667311543324,0.0,2.059999942779541,0.10000000149011612,-100.83999633789062,-0.1572265625,-0.010498046875,1.73907470703125,36.16999816894531,0.0,102.0,0.2889404296875,0.2754974365234375,Closing,0.0,0.0,0.0,0.0,0.0,0.0,0.0,0.0,
3.209905000000028,0.0,0.0,11446.0,57.125,-22.5,-512.5984311103821,0.0,1.625,4.05273396,0.5533560492066895,0.0,-6691.0,8.75,840.0,512.5984311103821,0.0,0.0,3.927001551,1.9228160581136347,0.0,11088.0,5.875,-1447.5,-512.5984311103821,0.0,0.0,4.420165563,4.401758689006861,0.0,-5820.0,8.875,562.5,512.5984311103821,0.0,2.625,0.6091307970000001,3.0252667311543324,0.0,1.7999999523162842,0.029999999329447746,-100.04000091552734,-0.126708984375,-0.2335205078125,0.3360595703125,36.16999816894531,0.0,262.0,0.2776641845703125,0.2696990966796875,Closing,0.0,0.0,0.0,0.0,0.0,0.0,0.0,0.0,
3.241539000000106,0.0,0.0,11446.0,33.5,-75.0,0.0,0.0,1.375,4.125976140000001,0.5533560492066895,0.0,-6691.0,4.625,705.0,0.0,0.0,0.0,3.8830562430000004,1.9228160581136347,0.0,11088.0,2.625,-1297.5,0.0,0.0,0.0,4.3933100970000005,4.401758689006861,0.0,-5820.0,5.25,307.5,0.0,0.0,2.25,0.651855402,3.0252667311543324,0.0,1.7899999618530273,-0.30000001192092896,-99.44999694824219,-0.08013916015625,0.03277587890625,1.52789306640625,36.16999816894531,0.0,26.0,0.2668609619140625,0.263580322265625,Closing,0.0,0.0,0.0,0.0,0.0,0.0,0.0,0.0,
3.268793000000063,0.0,0.0,11446.0,8.125,-112.5,0.0,0.0,1.625,4.157714418,0.5533560492066895,0.1623534990000004,-6691.0,0.25,345.0,0.0,0.0,0.0,3.865966401,1.9228160581136347,-0.09765623999999962,11088.0,0.0,-577.5,0.0,0.0,0.0,4.364013225,4.401758689006861,-0.07080077400000029,-5820.0,0.875,180.0,0.0,0.0,2.0,0.6994628190000001,3.0252667311543324,0.10620116099999954,1.8700000047683716,-0.18000000715255737,-99.16000366210938,-0.0697021484375,-0.05816650390625,0.77191162109375,36.16999816894531,0.0,92.0,0.255859375,0.257415771484375,Closing,0.0,0.0,0.0,0.0,0.0,0.0,0.0,0.0,
3.2973940000000876,0.0,0.0,11446.0,0.0,-97.5,0.0,0.0,1.625,4.158935121,0.5533560492066895,0.1623534990000004,-6691.0,0.0,225.0,0.0,0.0,0.0,3.861083589,1.9228160581136347,-0.09765623999999962,11088.0,0.0,-270.0,0.0,0.0,0.0,4.353026898,4.401758689006861,-0.07080077400000029,-5820.0,0.25,97.5,0.0,0.0,1.375,0.7226561760000001,3.0252667311543324,0.10620116099999954,1.8700000047683716,-0.3700000047683716,-99.19000244140625,-0.0404052734375,0.1829833984375,1.1085205078125,36.16999816894531,0.0,-139.0,0.2448883056640625,0.251068115234375,Closing,0.0,0.0,0.0,0.0,0.0,0.0,0.0,0.0,
3.3308300000000743,0.0,0.0,11438.0,0.0,-75.0,0.0,0.0,1.375,4.161376527,0.5533560492066895,0.029296871999999752,-6680.0,0.0,60.0,0.0,0.0,0.0,3.861083589,1.9228160581136347,-0.024414060000000237,11087.0,0.0,-7.5,0.0,0.0,0.0,4.353026898,4.401758689006861,-0.03417968399999971,-5818.0,0.0,7.5,0.0,0.0,1.125,0.74462883,3.0252667311543324,0.07080077400000029,1.9299999475479126,-0.3799999952316284,-99.41000366210938,-0.010498046875,-0.01629638671875,1.087646484375,36.16999816894531,0.0,52.0,0.23370361328125,0.2445068359375,Closing,0.0,0.0,0.0,0.0,0.0,0.0,0.0,0.0,
3.356725000000093,0.0,0.0,11438.0,0.0,-7.5,0.0,0.0,0.875,4.16259723,0.5533560492066895,0.0,-6680.0,0.0,0.0,0.0,0.0,0.0,3.861083589,1.9228160581136347,0.0,11087.0,0.0,0.0,0.0,0.0,0.0,4.35790971,4.401758689006861,-0.03417968399999971,-5818.0,0.0,0.0,0.0,0.0,1.125,0.747070236,3.0252667311543324,0.07080077400000029,1.9199999570846558,-0.47999998927116394,-99.68000030517578,-0.006591796875,0.01666259765625,1.01800537109375,36.16999816894531,0.0,16.0,0.2227783203125,0.2376556396484375,Closing,0.0,0.0,0.0,0.0,0.0,0.0,0.0,0.0,
3.389600000000093,0.0,0.0,11438.0,0.0,0.0,0.0,0.0,0.625,4.167480042,0.5533560492066895,0.0,-6680.0,0.0,-45.0,0.0,0.0,0.0,3.861083589,1.9228160581136347,0.0,11087.0,0.0,0.0,0.0,0.0,0.0,4.35790971,4.401758689006861,0.0,-5818.0,0.0,0.0,0.0,0.0,1.125,0.7495116420000001,3.0252667311543324,0.019531247999999835,1.8799999952316284,-0.4399999976158142,-99.9000015258789,0.07183837890625,-0.03997802734375,0.8936767578125,36.16999816894531,0.0,54.0,0.2120819091796875,0.2308197021484375,Closing,0.0,0.0,0.0,0.0,0.0,0.0,0.0,0.0,
3.415474000000162,0.0,0.0,11438.0,0.0,15.0,0.0,0.0,0.625,4.152831606,0.5533560492066895,0.004882811999999959,-6680.0,0.0,-105.0,0.0,0.0,0.0,3.861083589,1.9228160581136347,0.0,11087.0,0.0,0.0,0.0,0.0,0.0,4.350585492,4.401758689006861,0.0,-5818.0,0.0,0.0,0.0,0.0,1.125,0.7495116420000001,3.0252667311543324,0.004882811999999959,1.840000033378601,-0.3700000047683716,-100.08000183105469,0.18157958984375,-0.00457763671875,1.119140625,36.16999816894531,0.0,7.0,0.2068023681640625,0.224639892578125,Closing,0.0,0.0,0.0,0.0,0.0,0.0,0.0,0.0,
3.45005700000003,0.0,0.0,11441.0,0.0,15.0,0.0,0.0,0.5,4.176024963000001,0.5533560492066895,0.004882811999999959,-6698.0,0.0,-112.5,0.0,0.0,0.0,3.861083589,1.9228160581136347,0.0,11088.0,0.0,0.0,0.0,0.0,0.0,4.344481977,4.401758689006861,0.0,-5819.0,0.0,0.0,0.0,0.0,0.875,0.7495116420000001,3.0252667311543324,0.004882811999999959,1.8300000429153442,-0.20000000298023224,-100.1500015258789,0.088623046875,0.0545654296875,0.97723388671875,36.16999816894531,0.0,-39.0,0.206787109375,0.2192840576171875,Closing,0.0,0.0,0.0,0.0,0.0,0.0,0.0,0.0,
3.486627000000095,0.0,0.0,11441.0,0.0,7.5,0.0,0.0,0.5,4.1809077750000005,0.5533560492066895,0.012207029999999897,-6698.0,0.0,-82.5,0.0,0.0,0.0,3.861083589,1.9228160581136347,0.0,11088.0,0.0,7.5,0.0,0.0,0.0,4.354247601,4.401758689006861,0.0,-5819.0,0.0,-7.5,0.0,0.0,0.875,0.7507323450000001,3.0252667311543324,0.0,1.7899999618530273,-0.10000000149011612,-100.12000274658203,0.042724609375,0.05218505859375,0.84686279296875,36.16999816894531,0.0,-32.0,0.2067108154296875,0.214324951171875,Closing,0.0,0.0,0.0,0.0,0.0,0.0,0.0,0.0,
3.514873000000138,0.0,0.0,11441.0,0.0,0.0,0.0,0.0,0.5,4.1809077750000005,0.5533560492066895,0.0,-6698.0,0.0,-52.5,0.0,0.0,0.0,3.859862886,1.9228160581136347,0.0,11088.0,0.0,0.0,0.0,0.0,0.0,4.354247601,4.401758689006861,0.0,-5819.0,0.0,-15.0,0.0,0.0,0.875,0.759277266,3.0252667311543324,0.0,1.7799999713897705,-0.10000000149011612,-100.04000091552734,-0.08148193359375,0.036865234375,1.02752685546875,36.16999816894531,0.0,9.0,0.2066497802734375,0.2094268798828125,Closing,0.0,0.0,0.0,0.0,0.0,0.0,0.0,0.0,
3.5478420000001787,0.0,0.0,11441.0,0.0,0.0,0.0,0.0,0.5,4.1809077750000005,0.5533560492066895,0.0,-6698.0,0.0,-15.0,0.0,0.0,0.0,3.861083589,1.9228160581136347,0.0,11088.0,0.0,0.0,0.0,0.0,0.0,4.354247601,4.401758689006861,0.0,-5820.0,0.0,-7.5,0.0,0.0,0.875,0.7641600780000001,3.0252667311543324,0.0,1.809999942779541,-0.10999999940395355,-99.97000122070312,-0.0623779296875,0.03106689453125,1.0843505859375,36.09000015258789,0.0,13.0,0.2064666748046875,0.2040557861328125,Closing,0.0,0.0,0.0,0.0,0.0,0.0,0.0,0.0,
3.572803000000073,0.0,0.0,11441.0,0.0,0.0,0.0,0.0,0.5,4.1809077750000005,0.5533560492066895,0.0012207030000004337,-6699.0,0.0,0.0,0.0,0.0,0.0,3.861083589,1.9228160581136347,0.0,11088.0,0.0,0.0,0.0,0.0,0.0,4.354247601,4.401758689006861,0.0,-5820.0,0.0,-7.5,0.0,0.0,0.5,0.773925702,3.0252667311543324,0.01464843600000032,1.809999942779541,-0.14000000059604645,-99.94000244140625,-0.068115234375,-0.041259765625,0.84149169921875,36.09000015258789,0.0,78.0,0.2064208984375,0.198333740234375,Closing,0.0,0.0,0.0,0.0,0.0,0.0,0.0,0.0,
