Time,ClimberA1,ClimberA2,FRpos,FRCurrent,FRspeed,FRsetpoint,FRApos,FRACurrent,FREncpos,FREncSetpoint,FREncSpeed,FLpos,FLCurrent,FLspeed,FLsetpoint,FLApos,FLACurrent,FLEncpos,FLEncSetpoint,FLEncSpeed,BRpos,BRCurrent,BRspeed,BRsetpoint,BRApos,BRACurrent,BREncpos,BREncSetpoint,BREncSpeed,BLpos,BLCurrent,BLspeed,BLsetpoint,BLApos,BLACurrent,BLEncpos,BLEncSetpoint,BLEncSpeed,navx_Pitch,navx_Roll,navx_Yaw,navx_XAcc,navx_YAcc,navx_ZAcc,navx_Temp,navx_Bar,navx_Alt,navx_XDis,navx_YDis,GearPlacerState,ShootOutputV,ShootOutputCurrent,ShootEncPos,ShootEncVelocity,ShootSpeed,ShootSetpoint,CarouselSetpoint,CarouselCurrent,
0.13696100000001024,0.0,0.0,8220.0,0.0,0.0,0.0,0.0,0.0,3.770751567,0.0,0.0,-8233.0,0.0,0.0,0.0,0.0,0.0,1.8920896500000002,0.0,0.0,8172.0,0.0,0.0,0.0,0.0,0.0,4.879149891,0.0,0.0,-8190.0,0.0,0.0,0.0,0.0,0.0,2.877196971,0.0,0.0,1.1399999856948853,0.7200000286102295,-0.30000001192092896,0.0045166015625,0.01861572265625,0.9820556640625,35.040000915527344,0.0,-7.0,-0.79345703125,-1.326171875,Closing,0.0,0.0,16.0,0.0,0.0,0.0,0.0,0.0,
0.20488199999998324,0.0,0.0,8222.0,1.0,0.0,840.0,0.0,0.0,3.765868755,0.0,0.0,-8234.0,1.125,0.0,-840.0,0.0,0.0,1.901855274,0.0,0.0,8173.0,1.0,0.0,840.0,0.0,0.0,4.877929188,-0.0,0.0,-8190.0,1.25,-22.5,-840.0,0.0,0.0,2.877196971,-0.0,0.0,1.149999976158142,0.7099999785423279,-0.28999999165534973,0.02191162109375,0.0238037109375,0.99609375,35.040000915527344,0.0,9.0,-0.79345703125,-1.326171875,Closing,0.0,0.0,16.0,0.0,0.0,0.0,0.0,0.0,
0.2658589999999385,0.0,0.0,8222.0,1.375,225.0,840.0,0.0,0.125,3.760985943,1.378891683287091E-4,-0.009765623999999917,-8234.0,1.25,-255.0,-840.0,0.0,0.0,1.9201658190000002,1.374725008176433E-4,0.0183105449999994,8173.0,1.125,307.5,840.0,0.0,0.0,4.876708485,1.3761138998799857E-4,0.0,-8190.0,1.125,-292.5,-840.0,0.0,0.0,2.877196971,1.3743083406653672E-4,0.0,1.159999966621399,0.7099999785423279,-0.30000001192092896,0.0037841796875,0.00518798828125,1.00927734375,35.040000915527344,0.0,-8.0,-0.7933807373046875,-1.3260040283203125,Closing,0.0,0.0,16.0,0.0,0.0,0.0,0.0,0.0,
0.32828799999994224,0.0,0.0,8330.0,0.375,660.0,840.0,0.0,0.125,3.760985943,0.0,0.0,-8349.0,0.125,-697.5,-840.0,0.0,0.0,1.9213865220000002,0.0,0.010986327000000351,8268.0,0.5,667.5,840.0,0.0,0.0,4.876708485,-0.0,-0.0012207030000004337,-8276.0,0.5,-577.5,-840.0,0.0,0.0,2.875976268,-0.0,0.0,1.149999976158142,0.7300000190734863,-0.28999999165534973,0.0081787109375,0.0255126953125,0.97674560546875,35.040000915527344,0.0,-4.0,-0.7933807373046875,-1.3260040283203125,Closing,0.0,0.0,16.0,0.0,0.0,0.0,0.0,0.0,
0.3926359999999404,0.0,0.0,8330.0,0.25,780.0,840.0,0.0,0.125,3.762206646,1.378891683287091E-4,0.0,-8349.0,0.0,-675.0,-840.0,0.0,0.0,1.9201658190000002,1.374725008176433E-4,0.0,8268.0,0.125,712.5,840.0,0.0,0.0,4.880370594,1.3761138998799857E-4,0.0,-8276.0,0.5,-592.5,-840.0,0.0,0.0,2.875976268,1.3743083406653672E-4,0.0012207029999999897,1.149999976158142,0.7200000286102295,-0.30000001192092896,0.0164794921875,-0.0028076171875,0.98870849609375,35.040000915527344,0.0,4.0,-0.7933807373046875,-1.326263427734375,Closing,0.0,0.0,16.0,0.0,0.0,0.0,0.0,0.0,
0.4543769999999786,0.0,0.0,8437.0,0.25,660.0,840.0,0.0,0.125,3.767089458,0.0,-0.0012207029999995456,-8440.0,0.125,-525.0,-840.0,0.0,0.0,1.9201658190000002,0.0,0.0,8371.0,0.375,600.0,840.0,0.0,0.0,4.877929188,-0.0,0.0,-8366.0,0.875,-547.5,-840.0,0.0,0.0,2.86865205,-0.0,0.0,1.1399999856948853,0.699999988079071,-0.30000001192092896,0.013671875,0.022705078125,1.01043701171875,35.040000915527344,0.0,1.0,-0.7933807373046875,-1.3264312744140625,Closing,0.0,0.0,16.0,0.0,0.0,0.0,0.0,0.0,
0.5180520000000252,0.0,0.0,8437.0,0.5,592.5,840.0,0.0,0.125,3.760985943,0.0,0.0012207029999995456,-8440.0,0.625,-555.0,-840.0,0.0,0.0,1.9213865220000002,0.0,0.0,8371.0,0.5,592.5,840.0,0.0,0.0,4.877929188,-0.0,0.0,-8366.0,1.0,-600.0,-840.0,0.0,0.0,2.875976268,-0.0,-0.0012207029999999897,1.149999976158142,0.7300000190734863,-0.3199999928474426,0.01873779296875,0.0302734375,1.008544921875,35.040000915527344,0.0,5.0,-0.7933807373046875,-1.3264617919921875,Closing,0.0,0.0,16.0,0.0,0.0,0.0,0.0,0.0,
0.5811139999999432,0.0,0.0,8542.0,0.625,660.0,840.0,0.0,0.125,3.760985943,4.963724222485225,0.0,-8552.0,0.25,-712.5,-840.0,0.0,0.0,1.936034958,4.9487250558177625,0.0,8474.0,0.5,660.0,840.0,0.0,0.0,4.877929188,4.95372477804025,0.0,-8469.0,0.875,-682.5,-840.0,0.0,0.0,2.877196971,4.9472251391510165,0.0,1.149999976158142,0.7599999904632568,-0.3199999928474426,0.0113525390625,0.03607177734375,0.984619140625,35.0099983215332,0.0,-1.0,-0.7932586669921875,-1.3264617919921875,Closing,0.0,0.0,16.0,0.0,0.0,0.0,0.0,0.0,
0.6460799999999581,0.0,0.0,8542.0,0.375,750.0,840.0,0.0,0.125,3.762206646,4.963724222485225,-0.0012207029999995456,-8552.0,0.125,-795.0,-840.0,0.0,0.0,1.9250486310000001,4.9487250558177625,0.0012207029999995456,8474.0,0.375,765.0,840.0,0.0,0.0,4.875487782,4.95372477804025,0.0,-8469.0,0.625,-735.0,-840.0,0.0,0.0,2.878417674,4.9472251391510165,0.0012207029999999897,1.1699999570846558,0.7300000190734863,-0.3100000023841858,0.00244140625,0.0283203125,0.9759521484375,35.0099983215332,0.0,-10.0,-0.7932586669921875,-1.3264617919921875,Closing,0.0,0.0,16.0,0.0,0.0,0.0,0.0,0.0,
0.707826000000001,0.0,0.0,8668.0,0.25,795.0,840.0,0.0,0.125,3.760985943,4.963862111242613,0.0012207029999995456,-8675.0,0.125,-757.5,-840.0,0.0,0.0,1.9250486310000001,4.948862527908881,0.003662109000000413,8598.0,0.375,757.5,840.0,0.0,0.0,4.879149891,4.953862389020125,0.0012207030000004337,-8588.0,0.875,-735.0,-840.0,0.0,0.0,2.875976268,4.947362569575509,-0.0012207029999999897,1.159999966621399,0.699999988079071,-0.3199999928474426,0.01416015625,0.03875732421875,0.9959716796875,35.0099983215332,0.0,1.0,-0.7934417724609375,-1.3264617919921875,Closing,0.0,0.0,16.0,0.0,0.0,0.0,0.0,0.0,
0.7687210000000195,0.0,0.0,8668.0,0.375,787.5,840.0,0.0,0.125,3.762206646,4.963724222485225,0.0,-8675.0,0.25,-720.0,-840.0,0.0,0.0,1.9250486310000001,4.9487250558177625,0.0,8598.0,0.375,742.5,840.0,0.0,0.0,4.879149891,4.95372477804025,-0.0012207030000004337,-8707.0,1.0,-735.0,-840.0,0.0,0.0,2.871093456,4.9472251391510165,0.0012207029999999897,1.159999966621399,0.7300000190734863,-0.33000001311302185,0.01190185546875,0.02667236328125,1.00079345703125,35.0099983215332,0.0,0.0,-0.7934112548828125,-1.3264617919921875,Closing,0.0,0.0,16.0,0.0,0.0,0.0,0.0,0.0,
0.8308530000000028,0.0,0.0,8793.0,0.375,772.5,840.0000000000001,0.0,0.125,3.760985943,4.963586333316896,0.0,-8795.0,0.25,-780.0,-840.0000000000001,0.0,0.0,1.926269334,4.948587583316945,0.0,8717.0,0.5,757.5,840.0000000000001,0.0,0.0,4.882812,4.953587166650262,0.0,-8707.0,0.875,-765.0,-840.0000000000001,0.0,0.0,2.86865205,4.947087708316951,0.0,1.159999966621399,0.7699999809265137,-0.3499999940395355,0.0068359375,0.018798828125,0.99493408203125,35.0099983215332,0.0,-6.0,-0.7933807373046875,-1.326416015625,Closing,0.0,0.0,16.0,0.0,0.0,0.0,0.0,0.0,
0.8985929999999935,0.0,0.0,8922.0,0.375,802.5,840.0,0.0,0.125,3.760985943,4.963310555802121,0.0,-8926.0,0.125,-817.5,-840.0,0.0,0.0,1.926269334,4.948312639134708,0.0,8846.0,0.5,795.0,840.0,0.0,0.0,4.876708485,4.953311944690513,-0.0012207030000004337,-8836.0,0.875,-795.0,-840.0,0.0,0.0,2.878417674,4.946812847467967,-0.0012207029999999897,1.159999966621399,0.7799999713897705,-0.3400000035762787,-0.00433349609375,0.0419921875,1.00030517578125,35.0099983215332,0.0,-18.0,-0.7933807373046875,-1.326446533203125,Closing,0.0,0.0,16.0,0.0,0.0,0.0,0.0,0.0,
0.9640200000000186,0.0,0.0,8922.0,0.375,810.0,840.0,0.0,0.125,3.758544537,4.963448444559509,-0.0012207029999995456,-8926.0,0.25,-810.0,-840.0,0.0,0.0,1.9250486310000001,4.948450111225827,0.0,8846.0,0.375,810.0,840.0,0.0,0.0,4.876708485,4.953449555670387,0.0,-8836.0,0.875,-802.5,-840.0,0.0,0.0,2.875976268,4.946950277892459,0.0012207029999999897,1.1699999570846558,0.7699999809265137,-0.3400000035762787,0.0242919921875,0.02825927734375,1.00439453125,35.0099983215332,0.0,10.0,-0.7933807373046875,-1.326446533203125,Closing,0.0,0.0,16.0,0.0,0.0,0.0,0.0,0.0,
1.0253040000000038,0.0,0.0,9052.0,0.375,810.0,840.0,0.0,0.125,3.760985943,4.963448444559509,0.0,-9055.0,0.25,-802.5,-840.0,0.0,0.0,1.926269334,4.948450111225827,0.0,8975.0,0.375,802.5,840.0,0.0,0.0,4.877929188,4.953449555670387,0.0,-8964.0,0.875,-795.0,-840.0,0.0,0.0,2.877196971,4.946950277892459,-0.0012207029999999897,1.1799999475479126,0.7799999713897705,-0.33000001311302185,0.02978515625,0.01263427734375,1.0074462890625,35.0099983215332,0.0,16.0,-0.7934417724609375,-1.326446533203125,Closing,0.0,0.0,16.0,0.0,0.0,0.0,0.0,0.0,
1.08848199999996,0.0,0.0,9052.0,0.375,810.0,840.0000000000001,0.0,0.125,3.762206646,4.963586333316896,0.0,-9055.0,0.25,-802.5,-840.0000000000001,0.0,0.0,1.912841601,4.948587583316945,0.0,8975.0,0.375,795.0,840.0000000000001,0.0,0.0,4.877929188,4.953587166650262,0.0,-8964.0,1.0,-802.5,-840.0000000000001,0.0,0.0,2.877196971,4.947087708316951,0.0,1.1699999570846558,0.7699999809265137,-0.33000001311302185,-0.00335693359375,0.0096435546875,0.98822021484375,35.0,0.0,-16.0,-0.7935028076171875,-1.326446533203125,Closing,0.0,0.0,16.0,0.0,0.0,0.0,0.0,0.0,
1.1486300000000047,0.0,0.0,9184.0,0.375,817.5,840.0000000000001,0.0,0.125,3.760985943,4.963586333316896,0.0,-9189.0,0.25,-825.0,-840.0000000000001,0.0,0.0,1.926269334,4.948587583316945,0.0,9105.0,0.5,810.0,840.0000000000001,0.0,0.0,4.877929188,4.953587166650262,0.0012207030000004337,-9096.0,0.875,-825.0,-840.0000000000001,0.0,0.0,2.877196971,4.947087708316951,0.0,1.159999966621399,0.7799999713897705,-0.3499999940395355,0.02520751953125,0.01727294921875,1.00335693359375,35.0,0.0,11.0,-0.7935333251953125,-1.326446533203125,Closing,0.0,0.0,16.0,0.0,0.0,0.0,0.0,0.0,
1.2087219999999506,0.0,0.0,9184.0,0.375,825.0,840.0,0.0,0.125,3.75976524,4.963310555802121,0.0,-9189.0,0.125,-847.5,-840.0,0.0,0.0,1.926269334,4.948312639134708,0.0,9105.0,0.375,817.5,840.0,0.0,0.0,4.876708485,4.953311944690513,-0.0012207030000004337,-9096.0,0.75,-825.0,-840.0,0.0,0.0,2.877196971,4.946812847467967,-0.0012207029999999897,1.159999966621399,0.7900000214576721,-0.3499999940395355,0.01837158203125,0.0157470703125,0.99176025390625,35.0,0.0,4.0,-0.7935333251953125,-1.326446533203125,Closing,0.0,0.0,16.0,0.0,0.0,0.0,0.0,0.0,
1.269564000000013,0.0,0.0,9319.0,0.375,840.0,840.0,0.0,0.125,3.7390132890000003,4.963310555802121,-0.0012207029999995456,-9323.0,0.125,-832.5,-840.0,0.0,0.0,1.926269334,4.948312639134708,0.0,9238.0,0.375,825.0,840.0,0.0,0.0,4.877929188,4.953311944690513,0.0,-9228.0,0.875,-825.0,-840.0,0.0,0.0,2.878417674,4.946812847467967,0.0012207029999999897,1.149999976158142,0.7900000214576721,-0.3499999940395355,0.0284423828125,0.0418701171875,1.0098876953125,35.0,0.0,14.0,-0.7935333251953125,-1.32647705078125,Closing,0.0,0.0,16.0,0.0,0.0,0.0,0.0,0.0,
1.3365200000000186,0.0,0.0,9319.0,0.375,840.0,840.0,0.0,0.125,3.760985943,4.963310555802121,0.0,-9323.0,0.25,-825.0,-840.0,0.0,0.0,1.926269334,4.948312639134708,0.0,9238.0,0.5,817.5,840.0,0.0,0.0,4.8730463760000005,4.953311944690513,0.0,-9228.0,0.875,-832.5,-840.0,0.0,0.0,2.875976268,4.946812847467967,0.0,1.1699999570846558,0.7699999809265137,-0.3400000035762787,0.00213623046875,0.0064697265625,1.01519775390625,35.0,0.0,-11.0,-0.7935333251953125,-1.32647705078125,Closing,0.0,0.0,16.0,0.0,0.0,0.0,0.0,0.0,
1.4028710000000428,0.0,0.0,9452.0,0.375,832.5,840.0,0.0,0.125,3.7951656270000003,4.963448444559509,0.0012207029999995456,-9457.0,0.25,-832.5,-840.0,0.0,0.0,1.926269334,4.948450111225827,0.0,9370.0,0.5,825.0,840.0,0.0,0.0,4.871825673,4.953449555670387,-0.0024414059999999793,-9363.0,0.875,-840.0,-840.0,0.0,0.0,2.878417674,4.946950277892459,0.0,1.1699999570846558,0.7699999809265137,-0.3499999940395355,0.00909423828125,0.0308837890625,0.9644775390625,35.0,0.0,-4.0,-0.7935333251953125,-1.32647705078125,Closing,0.0,0.0,16.0,0.0,0.0,0.0,0.0,0.0,
1.4659790000000503,0.0,0.0,9452.0,0.375,832.5,840.0,0.0,0.125,3.75976524,4.963310555802121,0.0,-9457.0,0.125,-840.0,-840.0,0.0,0.0,1.926269334,4.948312639134708,0.0,9370.0,0.5,832.5,840.0,0.0,0.0,4.871825673,4.953311944690513,-0.0024414059999999793,-9363.0,0.875,-832.5,-840.0,0.0,0.0,2.877196971,4.946812847467967,0.0,1.149999976158142,0.7699999809265137,-0.3499999940395355,0.024169921875,0.03594970703125,1.00164794921875,35.0,0.0,10.0,-0.7935333251953125,-1.32647705078125,Closing,0.0,0.0,16.0,0.0,0.0,0.0,0.0,0.0,
1.526545000000042,0.0,0.0,9586.0,0.375,832.5,840.0,0.0,0.125,3.760985943,4.963310555802121,-0.0012207029999995456,-9593.0,0.25,-840.0,-840.0,0.0,0.0,1.9250486310000001,4.948312639134708,0.0,9504.0,0.5,832.5,840.0,0.0,0.0,4.8730463760000005,4.953311944690513,0.0,-9497.0,0.875,-832.5,-840.0,0.0,0.0,2.877196971,4.946812847467967,0.0,1.149999976158142,0.7900000214576721,-0.3499999940395355,0.00274658203125,0.01763916015625,1.01580810546875,35.0,0.0,-11.0,-0.7935333251953125,-1.32647705078125,Closing,0.0,0.0,16.0,0.0,0.0,0.0,0.0,0.0,
1.5909810000000288,0.0,0.0,9586.0,0.375,825.0,840.0,0.0,0.125,3.760985943,4.963310555802121,0.0,-9593.0,0.25,-840.0,-840.0,0.0,0.0,1.926269334,4.948312639134708,0.0,9504.0,0.5,832.5,840.0,0.0,0.0,4.871825673,4.953311944690513,0.0,-9497.0,0.875,-840.0,-840.0,0.0,0.0,2.878417674,4.946812847467967,0.0,1.149999976158142,0.800000011920929,-0.3499999940395355,0.020263671875,0.013427734375,0.97503662109375,34.9900016784668,0.0,6.0,-0.7935333251953125,-1.32647705078125,Closing,0.0,0.0,16.0,0.0,0.0,0.0,0.0,0.0,
1.651131000000052,0.0,0.0,9719.0,0.375,825.0,840.0,0.0,0.125,3.760985943,4.963310555802121,0.0,-9727.0,0.25,-832.5,-840.0,0.0,0.0,1.926269334,4.948312639134708,0.0,9638.0,0.5,832.5,840.0,0.0,0.0,4.875487782,4.953311944690513,0.0,-9633.0,0.875,-847.5,-840.0,0.0,0.0,2.877196971,4.946812847467967,-0.0012207029999999897,1.1399999856948853,0.7699999809265137,-0.3499999940395355,0.00823974609375,0.02880859375,0.98431396484375,34.9900016784668,0.0,-5.0,-0.793609619140625,-1.3265380859375,Closing,0.0,0.0,16.0,0.0,0.0,0.0,0.0,0.0,
1.712466999999946,0.0,0.0,9719.0,0.375,840.0,840.0,0.0,0.125,3.762206646,4.963310555802121,0.0,-9727.0,0.25,-832.5,-840.0,0.0,0.0,1.9238279280000001,4.948312639134708,0.0,9638.0,0.5,840.0,840.0,0.0,0.0,4.8730463760000005,4.953311944690513,0.0,-9633.0,0.875,-832.5,-840.0,0.0,0.0,2.877196971,4.946812847467967,0.0012207029999999897,1.149999976158142,0.7599999904632568,-0.3499999940395355,0.0142822265625,0.02593994140625,0.96026611328125,34.9900016784668,0.0,1.0,-0.793609619140625,-1.326446533203125,Closing,0.0,0.0,16.0,0.0,0.0,0.0,0.0,0.0,
1.774173999999999,0.0,0.0,9855.0,0.375,840.0,840.0,0.0,0.125,3.762206646,4.963310555802121,-0.0012207029999995456,-9861.0,0.25,-832.5,-840.0,0.0,0.0,1.9238279280000001,4.948312639134708,0.0,9772.0,0.5,832.5,840.0,0.0,0.0,4.8730463760000005,4.953311944690513,0.0,-9766.0,0.875,-825.0,-840.0,0.0,0.0,2.877196971,4.946812847467967,0.0,1.159999966621399,0.7599999904632568,-0.3499999940395355,0.001220703125,0.0213623046875,1.02685546875,34.9900016784668,0.0,-12.0,-0.793609619140625,-1.3263702392578125,Closing,0.0,0.0,16.0,0.0,0.0,0.0,0.0,0.0,
1.8429020000000018,0.0,0.0,9855.0,0.375,832.5,840.0,0.0,0.125,3.75976524,4.963310555802121,0.0,-9861.0,0.25,-840.0,-840.0,0.0,0.0,1.926269334,4.948312639134708,0.0,9772.0,0.5,832.5,840.0,0.0,0.0,4.871825673,4.953311944690513,0.0,-9766.0,0.875,-840.0,-840.0,0.0,0.0,2.883300486,4.946812847467967,0.0,1.159999966621399,0.7799999713897705,-0.3499999940395355,0.01336669921875,0.02020263671875,0.98358154296875,34.9900016784668,0.0,0.0,-0.793609619140625,-1.3263702392578125,Closing,0.0,0.0,16.0,0.0,0.0,0.0,0.0,0.0,
1.9061139999999432,0.0,0.0,9988.0,0.375,832.5,840.0,0.0,0.125,3.760985943,4.963172666633792,0.0012207029999995456,-9997.0,0.25,-840.0,-840.0,0.0,0.0,1.926269334,4.948175166633891,0.0,9906.0,0.5,840.0,840.0,0.0,0.0,4.866942861,4.953174333300525,0.0,-9902.0,0.875,-862.5,-840.0,0.0,0.0,2.878417674,4.946675416633901,-0.0012207029999999897,1.1399999856948853,0.7799999713897705,-0.36000001430511475,0.028564453125,0.00372314453125,1.01776123046875,34.9900016784668,0.0,14.0,-0.793609619140625,-1.326446533203125,Closing,0.0,0.0,16.0,0.0,0.0,0.0,0.0,0.0,
1.9665599999999395,0.0,0.0,9988.0,0.375,832.5,840.0,0.0,0.125,3.760985943,4.963172666633792,0.0,-9997.0,0.125,-840.0,-840.0,0.0,0.0,1.926269334,4.948175166633891,0.0,9906.0,0.5,847.5,840.0,0.0,0.0,4.8681635640000005,4.953174333300525,-0.004882811999999959,-10039.0,0.875,-855.0,-840.0,0.0,0.0,2.877196971,4.946675416633901,0.0012207029999999897,1.1299999952316284,0.800000011920929,-0.36000001430511475,0.010498046875,0.0111083984375,0.9627685546875,34.9900016784668,0.0,-2.0,-0.793609619140625,-1.326446533203125,Closing,0.0,0.0,16.0,0.0,0.0,0.0,0.0,0.0,
2.02983600000001,0.0,0.0,10122.0,0.375,840.0,840.0,0.0,0.125,3.762206646,4.963172666633792,0.0,-10131.0,0.25,-840.0,-840.0,0.0,0.0,1.926269334,4.948175166633891,0.0,10042.0,0.5,832.5,840.0,0.0,0.0,4.866942861,4.953174333300525,0.0,-10039.0,0.75,-847.5,-840.0,0.0,0.0,2.879638377,4.946675416633901,0.0,1.149999976158142,0.7799999713897705,-0.3700000047683716,0.0147705078125,0.03271484375,0.959716796875,34.9900016784668,0.0,1.0,-0.793609619140625,-1.3264007568359375,Closing,0.0,0.0,16.0,0.0,0.0,0.0,0.0,0.0,
2.103841999999946,0.0,0.0,10258.0,0.375,840.0,839.9999999999999,0.0,0.125,3.75976524,4.963034777876405,0.0,-10267.0,0.25,-840.0,-839.9999999999999,0.0,0.0,1.926269334,4.948037694542772,0.0,10176.0,0.5,832.5,839.9999999999999,0.0,0.0,4.869384267,4.9530367223206495,0.0,-10175.0,0.75,-847.5,-839.9999999999999,0.0,0.0,2.886962595,4.946537986209409,0.0,1.149999976158142,0.7900000214576721,-0.3499999940395355,0.0274658203125,0.02490234375,0.99212646484375,34.97999954223633,0.0,13.0,-0.7936248779296875,-1.3263702392578125,Closing,0.0,0.0,16.0,0.0,0.0,0.0,0.0,0.0,
2.1675879999999887,0.0,0.0,10258.0,0.375,847.5,840.0,0.0,0.125,3.762206646,4.963310555802121,0.0,-10267.0,0.25,-840.0,-840.0,0.0,0.0,1.926269334,4.948312639134708,0.0012207029999995456,10176.0,0.5,840.0,840.0,0.0,0.0,4.8681635640000005,4.953311944690513,0.0012207030000004337,-10175.0,0.875,-840.0,-840.0,0.0,0.0,2.877196971,4.946812847467967,0.0,1.1399999856948853,0.7699999809265137,-0.36000001430511475,0.0145263671875,0.01519775390625,0.97662353515625,34.97999954223633,0.0,1.0,-0.7936248779296875,-1.326416015625,Closing,0.0,0.0,16.0,0.0,0.0,0.0,0.0,0.0,
2.2323390000000365,0.0,0.0,10393.0,0.375,847.5,840.0,0.0,0.125,3.760985943,4.963172666633792,0.0,-10402.0,0.25,-840.0,-840.0,0.0,0.0,1.926269334,4.948175166633891,0.0,10311.0,0.5,847.5,840.0,0.0,0.0,4.866942861,4.953174333300525,0.0,-10309.0,0.875,-832.5,-840.0,0.0,0.0,2.877196971,4.946675416633901,0.0,1.1299999952316284,0.75,-0.3700000047683716,0.0052490234375,0.022216796875,1.0333251953125,34.97999954223633,0.0,-8.0,-0.7936859130859375,-1.3264617919921875,Closing,0.0,0.0,16.0,0.0,0.0,0.0,0.0,0.0,
2.3059799999999813,0.0,0.0,10393.0,0.375,840.0,840.0,0.0,0.125,3.75976524,4.963172666633792,0.0,-10402.0,0.125,-847.5,-840.0,0.0,0.0,1.926269334,4.948175166633891,0.0,10311.0,0.5,832.5,840.0,0.0,0.0,4.8681635640000005,4.953174333300525,0.0,-10309.0,0.875,-840.0,-840.0,0.0,0.0,2.875976268,4.946675416633901,0.0012207029999999897,1.1299999952316284,0.7799999713897705,-0.3700000047683716,0.0172119140625,0.02960205078125,1.01788330078125,34.97999954223633,0.0,3.0,-0.7935638427734375,-1.3264617919921875,Closing,0.0,0.0,16.0,0.0,0.0,0.0,0.0,0.0,
2.371097999999998,0.0,0.0,10528.0,0.375,840.0,839.9999999999999,0.0,0.125,3.760985943,4.963034777876405,0.0012207029999995456,-10537.0,0.25,-840.0,-839.9999999999999,0.0,0.0,1.926269334,4.948037694542772,0.0,10446.0,0.5,840.0,839.9999999999999,0.0,0.0,4.8681635640000005,4.9530367223206495,0.0,-10445.0,0.875,-847.5,-839.9999999999999,0.0,0.0,2.877196971,4.946537986209409,0.0,1.1399999856948853,0.7699999809265137,-0.3700000047683716,0.01275634765625,0.02294921875,1.01849365234375,34.97999954223633,0.0,-16.0,-0.7936553955078125,-1.3263397216796875,Closing,0.0,0.0,16.0,0.0,0.0,0.0,0.0,0.0,
2.4363209999999964,0.0,0.0,10528.0,0.125,817.5,0.0,0.0,0.125,3.770751567,0.0,0.0,-10537.0,0.125,-802.5,-0.0,0.0,0.0,1.9213865220000002,0.0,0.0,10446.0,0.0,810.0,0.0,0.0,0.0,4.866942861,0.0,0.0,-10445.0,0.25,-825.0,-0.0,0.0,0.0,2.877196971,0.0,0.0,1.149999976158142,0.7300000190734863,-0.3700000047683716,0.01678466796875,0.0289306640625,1.011474609375,34.97999954223633,0.0,3.0,-0.7936553955078125,-1.3262786865234375,Closing,0.0,0.0,16.0,0.0,0.0,0.0,0.0,0.0,
2.5064780000000026,0.0,0.0,10629.0,0.0,495.0,0.0,0.0,0.0,3.775634379,0.0,0.010986326999999463,-10632.0,0.0,-292.5,-0.0,0.0,0.0,1.9152830070000002,0.0,-0.004882811999999959,10540.0,0.0,270.0,0.0,0.0,0.0,4.866942861,0.0,0.0,-10547.0,0.0,-330.0,-0.0,0.0,0.0,2.877196971,0.0,0.0,1.159999966621399,0.7599999904632568,-0.3799999952316284,0.02728271484375,0.01904296875,1.0118408203125,34.97999954223633,0.0,13.0,-0.7936553955078125,-1.3262786865234375,Closing,0.0,0.0,16.0,0.0,0.0,0.0,0.0,0.0,
2.574648999999976,0.0,0.0,10633.0,0.125,37.5,0.0,0.0,0.0,3.770751567,0.0,0.004882811999999959,-10638.0,0.0,-22.5,-0.0,0.0,0.0,1.9165037100000002,0.0,-0.004882811999999959,10541.0,0.375,15.0,0.0,0.0,0.0,4.8681635640000005,0.0,0.0,-10553.0,0.375,-37.5,-0.0,0.0,0.0,2.877196971,0.0,-0.0012207029999999897,1.149999976158142,0.7699999809265137,-0.3700000047683716,0.0220947265625,0.0262451171875,0.9991455078125,34.97999954223633,0.0,8.0,-0.7936553955078125,-1.3262786865234375,Closing,0.0,0.0,16.0,0.0,0.0,0.0,0.0,0.0,
2.6485640000000132,0.0,0.0,10633.0,0.25,52.5,0.0,0.0,0.0,3.77197227,0.0,-0.004882811999999959,-10638.0,0.0,-105.0,-0.0,0.0,0.0,1.9201658190000002,0.0,0.0,10541.0,0.375,67.5,0.0,0.0,0.0,4.8681635640000005,0.0,0.0,-10553.0,0.125,-105.0,-0.0,0.0,0.0,2.877196971,0.0,0.0012207029999999897,1.1399999856948853,0.7699999809265137,-0.3700000047683716,0.00482177734375,0.0074462890625,0.98760986328125,34.97999954223633,0.0,-8.0,-0.7936553955078125,-1.3262786865234375,Closing,0.0,0.0,16.0,0.0,0.0,0.0,0.0,0.0,
2.7124379999999655,0.0,0.0,10651.0,0.125,112.5,0.0,0.0,0.0,3.770751567,0.0,0.0,-10666.0,0.0,-172.5,-0.0,0.0,0.0,1.9213865220000002,0.0,0.004882811999999959,10571.0,0.125,172.5,0.0,0.0,0.0,4.8681635640000005,0.0,0.0,-10566.0,0.125,-82.5,-0.0,0.0,0.0,2.877196971,0.0,-0.0012207029999999897,1.1299999952316284,0.75,-0.3700000047683716,0.0067138671875,0.02203369140625,1.01214599609375,34.97999954223633,0.0,-6.0,-0.7936553955078125,-1.3262786865234375,Closing,0.0,0.0,16.0,0.0,0.0,0.0,0.0,0.0,
2.778378999999957,0.0,0.0,10651.0,0.125,90.0,0.0,0.0,0.0,3.769530864,0.0,-0.0012207029999995456,-10666.0,0.0,-97.5,-0.0,0.0,0.0,1.9152830070000002,0.0,0.0,10571.0,0.125,127.5,0.0,0.0,0.0,4.866942861,0.0,0.0,-10566.0,0.25,0.0,-0.0,0.0,0.0,2.877196971,0.0,0.0,1.1299999952316284,0.75,-0.3799999952316284,0.0162353515625,0.0184326171875,0.9827880859375,34.97999954223633,0.0,3.0,-0.7936553955078125,-1.3262786865234375,Closing,0.0,0.0,16.0,0.0,0.0,0.0,0.0,0.0,
2.8493349999999626,0.0,0.0,10658.0,0.125,45.0,0.0,0.0,0.0,3.77197227,0.0,0.0012207029999995456,-10670.0,0.0,-22.5,-0.0,0.0,0.0,1.9201658190000002,0.0,-0.0012207029999995456,10574.0,0.375,0.0,0.0,0.0,0.0,4.866942861,0.0,0.0,-10566.0,0.375,0.0,-0.0,0.0,0.0,2.877196971,0.0,0.0012207029999999897,1.149999976158142,0.7599999904632568,-0.3700000047683716,0.020751953125,0.02044677734375,1.01141357421875,34.97999954223633,0.0,7.0,-0.7936553955078125,-1.3262786865234375,Closing,0.0,0.0,16.0,0.0,0.0,0.0,0.0,0.0,
2.912334999999963,0.0,0.0,10658.0,0.25,0.0,0.0,0.0,0.0,3.770751567,0.0,0.0,-10670.0,0.0,-60.0,-0.0,0.0,0.0,1.9201658190000002,0.0,0.0,10574.0,0.5,0.0,0.0,0.0,0.0,4.866942861,0.0,0.0,-10566.0,0.5,0.0,-0.0,0.0,0.0,2.867431347,0.0,-0.0012207029999999897,1.149999976158142,0.7599999904632568,-0.3700000047683716,0.0048828125,0.01953125,1.00506591796875,34.97999954223633,0.0,-8.0,-0.7936553955078125,-1.3262786865234375,Closing,0.0,0.0,16.0,0.0,0.0,0.0,0.0,0.0,
2.985930999999982,0.0,0.0,10660.0,0.125,15.0,0.0,0.0,0.0,3.77197227,0.0,0.0,-10680.0,0.0,-45.0,-0.0,0.0,0.0,1.9226072250000001,0.0,0.0,10574.0,0.5,0.0,0.0,0.0,0.0,4.869384267,0.0,0.0,-10566.0,0.5,0.0,-0.0,0.0,0.0,2.874755565,0.0,0.0,1.1399999856948853,0.7400000095367432,-0.3700000047683716,0.00762939453125,0.017578125,0.9937744140625,34.97999954223633,0.0,-5.0,-0.7936553955078125,-1.3262786865234375,Closing,0.0,0.0,16.0,0.0,0.0,0.0,0.0,0.0,
3.0520379999999423,0.0,0.0,10681.0,0.625,60.0,420.0,0.0,0.0,3.7780757850000004,0.5533560492066917,0.0,-10700.0,0.75,-37.5,-420.0,0.0,0.0,1.929931443,1.9228160581136373,0.0,10591.0,1.5,7.5,420.0,0.0,0.0,4.857177237,4.40175868900686,-0.0012207030000004337,-10580.0,1.75,-37.5,-420.0,0.0,0.0,2.823486039,3.0252667311543298,0.0,1.149999976158142,0.75,-0.3700000047683716,0.00250244140625,0.0159912109375,1.02789306640625,34.97999954223633,0.0,-11.0,-0.7936553955078125,-1.32623291015625,Closing,0.0,0.0,16.0,0.0,0.0,0.0,0.0,0.0,
3.1202600000000094,0.0,0.0,10681.0,0.5,210.0,420.0,0.0,2.125,4.027099197,0.5533560492066917,-4.95179297,-10700.0,0.25,-247.5,-420.0,0.0,6.0,2.3779294440000003,1.9228160581136373,0.010986326999999463,10591.0,0.75,225.0,420.0,0.0,1.5,4.591063983000001,4.40175868900686,-0.0183105449999994,-10580.0,0.75,-360.0,-420.0,0.0,10.5,2.347411869,3.0252667311543298,4.892568365000001,1.149999976158142,0.7599999904632568,-0.3799999952316284,0.043212890625,0.00335693359375,0.96148681640625,35.02000045776367,0.0,30.0,-0.793365478515625,-1.326385498046875,Closing,0.0,0.0,16.0,0.0,0.0,0.0,0.0,0.0,
3.1857339999999383,0.0,0.0,10754.0,0.25,427.5,420.0,0.0,0.25,4.316405808,0.5533560492066917,0.2905273140000002,-10779.0,0.0,-495.0,-420.0,0.0,0.375,2.9455563390000004,1.9228160581136373,0.49316401200000115,10674.0,0.125,517.5,420.0,0.0,0.0,4.329833541,4.40175868900686,0.0,-10675.0,0.0,-592.5,-420.0,0.0,0.375,1.74560529,3.0252667311543298,0.0,1.1399999856948853,0.7599999904632568,-0.3700000047683716,0.01593017578125,0.0428466796875,0.99267578125,35.02000045776367,0.0,2.0,-0.7930755615234375,-1.3265228271484375,Closing,0.0,0.0,16.0,0.0,0.0,0.0,0.0,0.0,
3.2532249999999765,0.0,0.0,10754.0,0.125,420.0,420.0,0.0,0.25,4.475097198,0.5533560492066917,0.2685546599999995,-10779.0,0.0,-382.5,-420.0,0.0,0.25,3.5290523730000003,1.9228160581136373,0.5920409549999994,10674.0,0.125,412.5,420.0,0.0,0.0,4.207763241,4.40175868900686,-0.24902341199999967,-10675.0,0.25,-442.5,-420.0,0.0,0.375,1.20849597,3.0252667311543298,-0.5627440830000001,1.1399999856948853,0.75,-0.3799999952316284,-0.0118408203125,0.044677734375,0.99908447265625,35.02000045776367,0.0,-25.0,-0.7930908203125,-1.3262939453125,Closing,0.0,0.0,16.0,0.0,0.0,0.0,0.0,0.0,
3.3255810000000054,0.0,0.0,10811.0,0.25,345.0,420.0,0.0,0.25,4.5483393780000005,0.5533560492066917,0.1513671720000005,-10829.0,0.125,-307.5,-420.0,0.0,0.125,4.019774979,1.9228160581136373,0.570068301,10720.0,0.5,277.5,420.0,0.0,0.0,4.1357417640000005,4.40175868900686,-0.1269531119999998,-10723.0,0.5,-292.5,-420.0,0.0,0.0,0.821533119,3.0252667311543298,-0.574951113,1.149999976158142,0.75,-0.3799999952316284,0.03326416015625,0.0401611328125,0.99664306640625,35.02000045776367,0.0,20.0,-0.7931671142578125,-1.3261566162109375,Closing,0.0,0.0,16.0,0.0,0.0,0.0,0.0,0.0,
3.3896480000000446,0.0,0.0,10811.0,0.25,345.0,420.0,0.0,0.125,4.460448762,0.5533560492066917,0.0,-10829.0,0.125,-375.0,-420.0,0.0,0.5,4.073485911000001,1.9228160581136373,0.0,10720.0,0.375,382.5,420.0,0.0,0.0,4.226073786000001,4.40175868900686,0.0,-10723.0,0.75,-352.5,-420.0,0.0,0.25,0.832519446,3.0252667311543298,0.0,1.1299999952316284,0.7699999809265137,-0.4000000059604645,0.01983642578125,0.01544189453125,0.989990234375,35.02000045776367,0.0,6.0,-0.7931671142578125,-1.326171875,Closing,0.0,0.0,16.0,0.0,0.0,0.0,0.0,0.0,
3.459201000000001,0.0,0.0,10872.0,0.25,390.0,420.0,0.0,0.125,4.328612838000001,0.5533560492066917,-0.10253905200000002,-10899.0,0.0,-442.5,-420.0,0.0,0.0,3.9489742050000003,1.9228160581136373,-0.012207029999999897,10791.0,0.125,457.5,420.0,0.0,0.0,4.328612838000001,4.40175868900686,0.09155272499999967,-10790.0,0.5,-465.0,-420.0,0.0,0.0,0.911865141,3.0252667311543298,0.018310544999999845,1.1200000047683716,0.7699999809265137,-0.38999998569488525,0.0072021484375,0.02679443359375,1.0338134765625,35.02000045776367,0.0,-6.0,-0.793121337890625,-1.326385498046875,Closing,0.0,0.0,16.0,0.0,0.0,0.0,0.0,0.0,
3.5246260000000476,0.0,0.0,10872.0,0.25,412.5,420.0,0.0,0.0,4.24804644,0.5533560492066917,-0.1171874879999999,-10899.0,0.125,-397.5,-420.0,0.0,0.0,3.8464351530000003,1.9228160581136373,-0.1171874879999999,10791.0,0.125,412.5,420.0,0.0,0.0,4.384765176,4.40175868900686,0.10131834900000047,-10790.0,0.375,-442.5,-420.0,0.0,0.0,0.966796776,3.0252667311543298,0.08544921000000016,1.1200000047683716,0.7599999904632568,-0.38999998569488525,0.0111083984375,0.02679443359375,1.0072021484375,35.02000045776367,0.0,-2.0,-0.7931060791015625,-1.326385498046875,Closing,0.0,0.0,16.0,0.0,0.0,0.0,0.0,0.0,
3.587636999999988,0.0,0.0,10938.0,0.25,397.5,420.0,0.0,0.125,4.254149955,0.5533560492066917,-0.07080077400000029,-10962.0,0.125,-390.0,-420.0,0.0,0.0,3.7878414090000003,1.9228160581136373,-0.10986326999999996,10854.0,0.5,367.5,420.0,0.0,0.0,4.387206582,4.40175868900686,0.0,-10854.0,0.75,-360.0,-420.0,0.0,0.0,0.9741209940000001,3.0252667311543298,0.0,1.1299999952316284,0.7599999904632568,-0.3799999952316284,0.0137939453125,0.0198974609375,0.9913330078125,35.0099983215332,0.0,0.0,-0.7931060791015625,-1.326385498046875,Closing,0.0,0.0,16.0,0.0,0.0,0.0,0.0,0.0,
3.6547759999999543,0.0,0.0,11002.0,0.25,397.5,420.0,0.0,0.125,4.283446827000001,0.5533560492066917,-0.0012207030000004337,-11030.0,0.125,-420.0,-420.0,0.0,0.0,3.7841793000000004,1.9228160581136373,-0.04882812000000003,10919.0,0.375,382.5,420.0,0.0,0.0,4.374999552,4.40175868900686,0.004882811999999959,-10921.0,0.625,-382.5,-420.0,0.0,0.0,0.9765624,3.0252667311543298,0.010986326999999907,1.1299999952316284,0.7599999904632568,-0.38999998569488525,0.011474609375,0.013916015625,0.98504638671875,35.0099983215332,0.0,-1.0,-0.7931060791015625,-1.326385498046875,Closing,0.0,0.0,16.0,0.0,0.0,0.0,0.0,0.0,
3.7162909999999685,0.0,0.0,11002.0,0.25,405.0,420.0,0.0,0.125,4.307860887,0.5533560492066917,0.028076169000000206,-11030.0,0.0,-427.5,-420.0,0.0,0.0,3.7963863300000003,1.9228160581136373,0.0,10919.0,0.375,435.0,420.0,0.0,0.0,4.361571819,4.40175868900686,-0.007324217999999938,-10921.0,0.5,-435.0,-420.0,0.0,0.0,0.9838866180000001,3.0252667311543298,-0.0012207029999999897,1.1200000047683716,0.7699999809265137,-0.3799999952316284,0.011474609375,0.0225830078125,0.992919921875,35.0099983215332,0.0,-2.0,-0.7931060791015625,-1.326385498046875,Closing,0.0,0.0,16.0,0.0,0.0,0.0,0.0,0.0,
3.777947999999975,0.0,0.0,11069.0,0.25,420.0,420.0,0.0,0.125,4.323730026000001,0.5533560492066917,0.024414059999999793,-11097.0,0.0,-420.0,-420.0,0.0,0.0,3.82080039,1.9228160581136373,0.014648435999999876,10988.0,0.375,427.5,420.0,0.0,0.0,4.362792522,4.40175868900686,-0.012207029999999897,-10988.0,0.5,-435.0,-420.0,0.0,0.0,0.977783103,3.0252667311543298,0.0012207029999999897,1.1299999952316284,0.7699999809265137,-0.4000000059604645,0.01751708984375,0.02484130859375,0.9951171875,35.0099983215332,0.0,4.0,-0.7931060791015625,-1.326385498046875,Closing,0.0,0.0,16.0,0.0,0.0,0.0,0.0,0.0,
3.84760699999996,0.0,0.0,11069.0,0.25,412.5,420.0,0.0,0.125,4.320067917,0.5533560492066917,0.010986327000000351,-11097.0,0.0,-412.5,-420.0,0.0,0.0,3.8415523410000003,1.9228160581136373,0.029296871999999752,10988.0,0.375,412.5,420.0,0.0,0.0,4.349364789,4.40175868900686,-0.003662109000000413,-10988.0,0.5,-412.5,-420.0,0.0,0.0,0.980224509,3.0252667311543298,-0.0012207029999999897,1.1299999952316284,0.75,-0.4000000059604645,0.01055908203125,0.022216796875,1.0157470703125,35.0099983215332,0.0,-2.0,-0.7931060791015625,-1.326385498046875,Closing,0.0,0.0,16.0,0.0,0.0,0.0,0.0,0.0,
3.909744999999995,0.0,0.0,11136.0,0.25,412.5,420.0,0.0,0.0,4.322509323,0.5533560492066917,-0.003662109000000413,-11165.0,0.0,-420.0,-420.0,0.0,0.0,3.8464351530000003,1.9228160581136373,0.01586913900000031,11053.0,0.375,397.5,420.0,0.0,0.0,4.364013225,4.40175868900686,0.0,-11057.0,0.5,-420.0,-420.0,0.0,0.0,0.9838866180000001,3.0252667311543298,0.0,1.1399999856948853,0.7599999904632568,-0.4000000059604645,0.0159912109375,0.022216796875,1.00701904296875,35.0099983215332,0.0,2.0,-0.7931060791015625,-1.326385498046875,Closing,0.0,0.0,16.0,0.0,0.0,0.0,0.0,0.0,
3.971219000000041,0.0,0.0,11136.0,0.25,412.5,420.0,0.0,0.125,4.326171432000001,0.5533560492066917,0.0024414059999999793,-11165.0,0.0,-405.0,-420.0,0.0,0.0,3.8464351530000003,1.9228160581136373,0.003662108999999969,11053.0,0.375,420.0,420.0,0.0,0.0,4.364013225,4.40175868900686,-0.0012207029999995456,-11057.0,0.5,-435.0,-420.0,0.0,0.0,0.9765624,3.0252667311543298,0.0012207029999999897,1.1399999856948853,0.7799999713897705,-0.4099999964237213,0.0186767578125,0.014892578125,1.00347900390625,35.0099983215332,0.0,5.0,-0.7931060791015625,-1.326385498046875,Closing,0.0,0.0,16.0,0.0,0.0,0.0,0.0,0.0,
4.033005000000005,0.0,0.0,11203.0,0.25,412.5,420.0,0.0,0.125,4.318847214,0.5533560492066917,-0.0012207029999995456,-11226.0,0.125,-375.0,-420.0,0.0,0.0,3.8452144500000003,1.9228160581136373,0.0,11120.0,0.375,420.0,420.0,0.0,0.0,4.362792522,4.40175868900686,0.0012207029999995456,-11125.0,0.5,-420.0,-420.0,0.0,0.0,0.9765624,3.0252667311543298,-0.0012207029999999897,1.1299999952316284,0.7900000214576721,-0.4000000059604645,0.0263671875,0.01446533203125,1.0008544921875,35.0099983215332,0.0,12.0,-0.7931060791015625,-1.326385498046875,Closing,0.0,0.0,16.0,0.0,0.0,0.0,0.0,0.0,
4.10306799999997,0.0,0.0,11203.0,0.25,420.0,420.0,0.0,0.125,4.317626511,0.5533560492066917,0.0,-11226.0,0.125,-390.0,-420.0,0.0,0.0,3.8464351530000003,1.9228160581136373,0.0,11120.0,0.375,412.5,420.0,0.0,0.0,4.364013225,4.40175868900686,-0.0012207029999995456,-11125.0,0.5,-427.5,-420.0,0.0,0.0,0.9765624,3.0252667311543298,0.0,1.1299999952316284,0.7799999713897705,-0.4099999964237213,0.0120849609375,0.026611328125,0.9949951171875,35.0,0.0,-1.0,-0.7931060791015625,-1.326385498046875,Closing,0.0,0.0,16.0,0.0,0.0,0.0,0.0,0.0,
4.166037999999943,0.0,0.0,11270.0,0.25,420.0,420.0,0.0,0.125,4.32128862,0.5533560492066917,-0.0012207030000004337,-11293.0,0.125,-412.5,-420.0,0.0,0.0,3.8439937470000003,1.9228160581136373,0.0,11187.0,0.375,412.5,420.0,0.0,0.0,4.364013225,4.40175868900686,0.0,-11195.0,0.5,-435.0,-420.0,0.0,0.0,0.9765624,3.0252667311543298,0.0012207029999999897,1.1399999856948853,0.7699999809265137,-0.4099999964237213,0.015380859375,0.0230712890625,1.0018310546875,35.0,0.0,1.0,-0.7931060791015625,-1.326385498046875,Closing,0.0,0.0,16.0,0.0,0.0,0.0,0.0,0.0,
4.227008999999962,0.0,0.0,11270.0,0.25,412.5,420.0,0.0,0.125,4.316405808,0.5533560492066917,0.0,-11293.0,0.125,-412.5,-420.0,0.0,0.0,3.8452144500000003,1.9228160581136373,0.0,11187.0,0.375,420.0,420.0,0.0,0.0,4.364013225,4.40175868900686,0.0012207029999995456,-11195.0,0.5,-420.0,-420.0,0.0,0.0,0.9765624,3.0252667311543298,-0.0012207029999999897,1.149999976158142,0.800000011920929,-0.41999998688697815,0.02471923828125,0.01422119140625,0.98260498046875,35.0,0.0,10.0,-0.7931060791015625,-1.326385498046875,Closing,0.0,0.0,16.0,0.0,0.0,0.0,0.0,0.0,
4.286138999999967,0.0,0.0,11337.0,0.25,420.0,420.0,0.0,0.125,4.316405808,0.5533560492066917,-0.0012207029999995456,-11358.0,0.125,-405.0,-420.0,0.0,0.0,3.8464351530000003,1.9228160581136373,0.0,11255.0,0.375,427.5,420.0,0.0,0.0,4.362792522,4.40175868900686,-0.0012207029999995456,-11260.0,0.5,-405.0,-420.0,0.0,0.0,0.9851073210000001,3.0252667311543298,0.0012207029999999897,1.1299999952316284,0.800000011920929,-0.4099999964237213,0.025146484375,0.01556396484375,0.97491455078125,35.0,0.0,11.0,-0.7931060791015625,-1.326385498046875,Closing,0.0,0.0,16.0,0.0,0.0,0.0,0.0,0.0,
4.349033000000054,0.0,0.0,11337.0,0.25,420.0,420.0,0.0,0.125,4.322509323,0.5533560492066917,0.0024414059999999793,-11358.0,0.125,-405.0,-420.0,0.0,0.0,3.8452144500000003,1.9228160581136373,0.0,11255.0,0.375,412.5,420.0,0.0,0.0,4.360351116,4.40175868900686,0.0012207029999995456,-11260.0,0.5,-420.0,-420.0,0.0,0.0,0.9753416970000001,3.0252667311543298,-0.0012207029999999897,1.1299999952316284,0.7799999713897705,-0.41999998688697815,0.00787353515625,0.011962890625,1.00543212890625,35.0,0.0,-5.0,-0.7931060791015625,-1.326385498046875,Closing,0.0,0.0,16.0,0.0,0.0,0.0,0.0,0.0,
4.409515000000014,0.0,0.0,11405.0,0.25,420.0,420.0,0.0,0.125,4.317626511,0.5533560492066917,-0.0024414059999999793,-11424.0,0.125,-412.5,-420.0,0.0,0.0,3.8476558560000003,1.9228160581136373,0.0,11323.0,0.375,420.0,420.0,0.0,0.0,4.360351116,4.40175868900686,0.0,-11330.0,0.5,-427.5,-420.0,0.0,0.0,0.9753416970000001,3.0252667311543298,0.0,1.1299999952316284,0.7699999809265137,-0.41999998688697815,0.027587890625,0.02490234375,1.0042724609375,35.0,0.0,13.0,-0.7931060791015625,-1.326385498046875,Closing,0.0,0.0,16.0,0.0,0.0,0.0,0.0,0.0,
4.471900000000023,0.0,0.0,11405.0,0.0,405.0,0.0,0.0,1.375,4.307860887,0.0,0.0012207029999995456,-11424.0,0.0,-405.0,-0.0,0.0,3.25,3.7976070330000002,0.0,0.0,11323.0,0.125,405.0,0.0,0.0,1.375,4.415282751,0.0,-0.0012207029999995456,-11330.0,0.125,-405.0,-0.0,0.0,7.375,1.0302733320000002,0.0,0.0012207029999999897,1.1299999952316284,0.7900000214576721,-0.4300000071525574,0.0205078125,0.01507568359375,1.00360107421875,35.0,0.0,6.0,-0.7931060791015625,-1.326385498046875,Closing,0.0,0.0,16.0,0.0,0.0,0.0,0.0,0.0,
4.53305700000003,0.0,0.0,11461.0,0.0,307.5,0.0,0.0,0.625,4.050292554,0.0,-0.02319335699999936,-11475.0,0.0,-262.5,-0.0,0.0,3.0,3.345946923,0.0,-0.05737304099999996,11370.0,0.0,232.5,0.0,0.0,0.375,4.682616708,0.0,0.05493163499999998,-11380.0,0.0,-262.5,-0.0,0.0,1.75,1.510009611,0.0,0.0476074169999996,1.1299999952316284,0.7900000214576721,-0.4300000071525574,0.0263671875,0.0081787109375,0.9742431640625,35.0,0.0,12.0,-0.7931060791015625,-1.3265838623046875,Closing,0.0,0.0,16.0,0.0,0.0,0.0,0.0,0.0,
4.597201000000001,0.0,0.0,11461.0,0.125,105.0,0.0,0.0,0.125,3.80859336,0.0,0.0,-11475.0,0.0,-52.5,-0.0,0.0,0.375,2.824706742,0.0,0.0,11370.0,0.125,30.0,0.0,0.0,0.125,4.8681635640000005,0.0,0.0,-11380.0,0.0,-105.0,-0.0,0.0,0.25,2.0642087730000003,0.0,0.0,1.1200000047683716,0.7699999809265137,-0.4300000071525574,-0.00225830078125,-0.00189208984375,1.00640869140625,35.0,0.0,-15.0,-0.793212890625,-1.326812744140625,Closing,0.0,0.0,16.0,0.0,0.0,0.0,0.0,0.0,
4.661930000000051,0.0,0.0,11466.0,0.125,0.0,0.0,0.0,0.125,3.6877437630000003,0.0,-0.24169919400000017,-11476.0,0.0,0.0,-0.0,0.0,0.25,2.3193357000000003,0.0,-0.5212401809999996,11370.0,0.375,0.0,0.0,0.0,0.0,0.029296872,0.0,0.18432615300000066,-11396.0,0.0,-97.5,-0.0,0.0,0.25,2.5793454390000004,0.0,0.5444335379999998,1.1200000047683716,0.7699999809265137,-0.41999998688697815,0.02386474609375,0.03729248046875,1.01080322265625,35.0,0.0,10.0,-0.79327392578125,-1.3270111083984375,Closing,0.0,0.0,16.0,0.0,0.0,0.0,0.0,0.0,
4.726969999999972,0.0,0.0,11466.0,0.125,0.0,0.0,0.0,0.125,3.5864254140000003,0.0,4.830943373,-11476.0,0.0,-30.0,-0.0,0.0,0.0,1.8151853610000002,0.0,-0.5688475980000005,11370.0,0.375,0.0,0.0,0.0,0.0,0.086669913,0.0,-4.830321771,-11396.0,0.0,-37.5,-0.0,0.0,0.0,3.068847342,0.0,0.5871581429999999,1.1299999952316284,0.800000011920929,-0.44999998807907104,0.01470947265625,0.03167724609375,1.022705078125,35.0,0.0,0.0,-0.79327392578125,-1.3270263671875,Closing,0.0,0.0,16.0,0.0,0.0,0.0,0.0,0.0,
4.786902000000002,0.0,0.0,11466.0,0.125,0.0,8.4,0.0,0.25,3.6340328310000003,4.963586333316896,-0.0805663980000002,-11484.0,0.0,-60.0,-8.4,0.0,0.125,1.671142407,4.948587583316945,-0.46874995200000047,11370.0,0.375,0.0,8.4,0.0,0.0,0.037841793,4.953587166650262,0.04150390199999965,-11399.0,0.0,-22.5,-8.4,0.0,0.375,3.040771173,4.947087708316951,-4.533681682999999,1.1299999952316284,0.800000011920929,-0.44999998807907104,0.02362060546875,0.02557373046875,1.0223388671875,35.0,0.0,9.0,-0.7933197021484375,-1.327117919921875,Closing,0.0,0.0,16.0,0.0,0.0,0.0,0.0,0.0,
4.85068200000003,0.0,0.0,11466.0,0.125,0.0,8.4,0.0,0.125,3.7268062590000004,4.963724222074284,0.0,-11484.0,0.0,-52.5,-8.4,0.0,0.25,1.7395017750000001,4.9487250554080635,0.0,11370.0,0.375,0.0,8.4,0.0,0.0,4.912108872,4.953724777630137,-0.05004882300000002,-11403.0,0.125,-30.0,-8.4,0.0,0.0,2.983398132,4.947225138741442,-0.032958981000000165,1.1200000047683716,0.7900000214576721,-0.4300000071525574,0.02947998046875,0.02423095703125,1.000244140625,35.0,0.0,15.0,-0.7933349609375,-1.327117919921875,Closing,0.0,0.0,16.0,0.0,0.0,0.0,0.0,0.0,
4.908603000000003,0.0,0.0,11466.0,0.125,0.0,8.4,0.0,0.25,3.813476172,4.963724222074284,0.09643553700000052,-11489.0,0.0,-22.5,-8.4,0.0,0.0,1.8432615300000001,4.9487250554080635,0.06958007099999985,11370.0,0.375,0.0,8.4,0.0,0.0,4.852294425,4.953724777630137,-0.07973292099999885,-11403.0,0.125,0.0,-8.4,0.0,0.0,2.91748017,4.947225138741442,-0.05004882300000002,1.1200000047683716,0.7900000214576721,-0.44999998807907104,0.01025390625,0.01214599609375,0.98980712890625,35.0,0.0,-3.0,-0.7933349609375,-1.327117919921875,Closing,0.0,0.0,16.0,0.0,0.0,0.0,0.0,0.0,
4.968744999999996,0.0,0.0,11466.0,0.125,0.0,8.4,0.0,0.125,3.858642183,4.963586333316896,-4.890757820000001,-11489.0,0.0,-15.0,-8.4,0.0,0.125,1.9506833940000001,4.948587583316945,0.10253905200000002,11370.0,0.375,0.0,8.4,0.0,0.0,4.837645989,4.953587166650262,4.899068365,-11403.0,0.125,0.0,-8.4,0.0,0.0,2.861327832,4.947087708316951,-0.06835936799999986,1.1200000047683716,0.7900000214576721,-0.4399999976158142,0.0146484375,0.01904296875,0.98748779296875,35.0,0.0,0.0,-0.7933349609375,-1.327117919921875,Closing,0.0,0.0,16.0,0.0,0.0,0.0,0.0,0.0,
5.034162000000011,0.0,0.0,11466.0,0.125,0.0,0.0,0.0,0.125,3.8476558560000003,0.0,0.04394530800000007,-11493.0,0.0,-45.0,-0.0,0.0,0.0,2.0080564350000003,0.0,0.10131834900000047,11370.0,0.375,0.0,0.0,0.0,0.0,4.842528801,0.0,-0.01342773300000033,-11403.0,0.25,0.0,-0.0,0.0,0.0,2.857665723,0.0,4.896230473999999,1.1200000047683716,0.800000011920929,-0.4399999976158142,0.0135498046875,0.0198974609375,1.004638671875,35.0,0.0,0.0,-0.7933349609375,-1.327117919921875,Closing,0.0,0.0,16.0,0.0,0.0,0.0,0.0,0.0,
5.101054000000004,0.0,0.0,11496.0,2.25,82.5,840.0,0.0,0.125,3.807372657,0.0,0.0,-11527.0,2.75,-105.0,-840.0,0.0,0.0,2.003173623,0.0,0.0,11389.0,3.375,37.5,840.0,0.0,0.0,4.847411613,-0.0,0.0,-11417.0,2.875,-22.5,-840.0,0.0,0.0,2.8527829110000003,-0.0,0.0,1.1299999952316284,0.8100000023841858,-0.4300000071525574,0.014892578125,0.07501220703125,1.00439453125,35.0,0.0,0.0,-0.7933349609375,-1.3271331787109375,Closing,0.0,0.0,16.0,0.0,0.0,0.0,0.0,0.0,
5.165405999999959,0.0,0.0,11496.0,1.875,390.0,840.0,0.0,0.125,3.7854000030000003,1.3788875738779706E-4,-0.04516601100000006,-11527.0,0.625,-622.5,-840.0,0.0,0.0,1.9689939390000002,1.3747209111849467E-4,-0.009765623999999917,11389.0,1.75,532.5,840.0,0.0,0.0,4.8632807520000005,1.376109798749288E-4,0.009765623999999917,-11417.0,2.0,-480.0,-840.0,0.0,0.0,2.858886426,1.3743042449156442E-4,0.0,1.1299999952316284,0.8100000023841858,-0.4300000071525574,-0.00128173828125,0.01922607421875,0.9869384765625,35.0,0.0,-15.0,-0.793243408203125,-1.326934814453125,Closing,0.0,0.0,16.0,0.0,0.0,0.0,0.0,0.0,
5.226451000000001,0.0,0.0,11659.0,0.375,937.5,840.0,0.0,0.125,3.7939449240000003,1.3788875738779706E-4,-0.012207029999999897,-11685.0,0.0,-952.5,-840.0,0.0,0.0,1.9409177700000002,1.3747209111849467E-4,-0.03662109000000058,11559.0,0.125,1042.5,840.0,0.0,0.0,4.8706049700000005,1.376109798749288E-4,0.014648435999999876,-11583.0,0.125,-1012.5,-840.0,0.0,0.0,2.8564450200000002,1.3743042449156442E-4,0.0,1.149999976158142,0.7799999713897705,-0.4300000071525574,0.00787353515625,0.0614013671875,0.9820556640625,35.0,0.0,-5.0,-0.7932891845703125,-1.326507568359375,Closing,0.0,0.0,16.0,0.0,0.0,0.0,0.0,0.0,
5.287898000000045,0.0,0.0,11659.0,0.25,952.5,840.0,0.0,0.125,3.7951656270000003,1.3788875738779706E-4,0.0,-11685.0,0.0,-870.0,-840.0,0.0,0.0,1.931152146,1.3747209111849467E-4,-0.026855465999999772,11559.0,0.125,877.5,840.0,0.0,0.0,4.8730463760000005,1.376109798749288E-4,0.004882811999999959,-11583.0,0.0,-862.5,-840.0,0.0,0.0,2.857665723,1.3743042449156442E-4,0.0,1.149999976158142,0.7799999713897705,-0.4399999976158142,0.03228759765625,0.04449462890625,0.97039794921875,35.0,0.0,18.0,-0.7933502197265625,-1.3263397216796875,Closing,0.0,0.0,16.0,0.0,0.0,0.0,0.0,0.0,
5.352493000000017,0.0,0.0,11761.0,0.25,712.5,840.0,0.0,0.125,3.7902828150000003,0.0,0.003662108999999969,-11772.0,0.625,-540.0,-840.0,0.0,0.0,1.936034958,0.0,-0.004882811999999959,11652.0,0.75,585.0,840.0,0.0,0.0,4.8730463760000005,-0.0,0.0,-11669.0,1.125,-540.0,-840.0,0.0,0.0,2.857665723,-0.0,0.0,1.1299999952316284,0.8100000023841858,-0.4399999976158142,0.01629638671875,0.0101318359375,0.96929931640625,35.0,0.0,2.0,-0.7933502197265625,-1.32635498046875,Closing,0.0,0.0,16.0,0.0,0.0,0.0,0.0,0.0,
5.412415999999968,0.0,0.0,11761.0,0.625,592.5,840.0,0.0,0.125,3.7927242210000003,0.0,-0.0024414059999999793,-11772.0,0.5,-660.0,-840.0,0.0,0.0,1.934814255,0.0,0.004882811999999959,11652.0,1.375,622.5,840.0,0.0,0.0,4.871825673,-0.0,0.0,-11669.0,1.5,-600.0,-840.0,0.0,0.0,2.858886426,-0.0,0.0,1.1200000047683716,0.8100000023841858,-0.44999998807907104,0.01434326171875,0.01873779296875,0.9913330078125,35.0,0.0,0.0,-0.7932281494140625,-1.32635498046875,Closing,0.0,0.0,16.0,0.0,0.0,0.0,0.0,0.0,
5.472224000000046,0.0,0.0,11880.0,0.625,690.0,840.0,0.0,0.125,3.7841793000000004,4.963862111242613,-0.0012207029999999897,-11906.0,0.125,-795.0,-840.0,0.0,0.0,1.931152146,4.948862527908881,0.0,11785.0,0.5,840.0,840.0,0.0,0.0,4.874267079,4.953862389020125,0.0,-11804.0,0.5,-847.5,-840.0,0.0,0.0,2.8564450200000002,4.947362569575509,0.0,1.1299999952316284,0.7799999713897705,-0.4300000071525574,0.00726318359375,-0.00115966796875,1.00811767578125,35.0,0.0,-6.0,-0.7933197021484375,-1.3265533447265625,Closing,0.0,0.0,16.0,0.0,0.0,0.0,0.0,0.0,
5.533638000000035,0.0,0.0,11880.0,0.375,825.0,840.0,0.0,0.125,3.7902828150000003,1.3788875738779706E-4,-0.0012207029999999897,-11906.0,0.125,-840.0,-840.0,0.0,0.0,1.931152146,1.3747209111849467E-4,-0.0024414059999999793,11785.0,0.375,885.0,840.0,0.0,0.0,4.8730463760000005,1.376109798749288E-4,0.0,-11804.0,0.375,-855.0,-840.0,0.0,0.0,2.857665723,1.3743042449156442E-4,0.0012207030000004337,1.1399999856948853,0.7699999809265137,-0.4300000071525574,-0.004638671875,0.02606201171875,1.0008544921875,35.0,0.0,-18.0,-0.7933197021484375,-1.32672119140625,Closing,0.0,0.0,16.0,0.0,0.0,0.0,0.0,0.0,
5.599677999999956,0.0,0.0,12013.0,0.25,840.0,840.0,0.0,0.125,3.7902828150000003,1.3788875738779706E-4,0.0,-12024.0,0.125,-750.0,-840.0,0.0,0.0,1.931152146,1.3747209111849467E-4,0.0,11909.0,0.5,765.0,840.0,0.0,0.0,4.871825673,1.376109798749288E-4,0.0,-11924.0,0.875,-727.5,-840.0,0.0,0.0,2.8552243170000002,1.3743042449156442E-4,0.0,1.1399999856948853,0.7799999713897705,-0.4300000071525574,0.0218505859375,0.0306396484375,1.01153564453125,35.0,0.0,7.0,-0.7933197021484375,-1.32672119140625,Closing,0.0,0.0,16.0,0.0,0.0,0.0,0.0,0.0,
5.665207999999984,0.0,0.0,12013.0,0.375,780.0,840.0,0.0,0.125,3.7902828150000003,1.3788875738779706E-4,0.0,-12024.0,0.25,-727.5,-840.0,0.0,0.0,1.931152146,1.3747209111849467E-4,0.0012207030000004337,11909.0,0.75,735.0,840.0,0.0,0.0,4.8730463760000005,1.376109798749288E-4,0.0,-11924.0,1.0,-735.0,-840.0,0.0,0.0,2.858886426,1.3743042449156442E-4,0.0012207030000004337,1.149999976158142,0.7900000214576721,-0.4300000071525574,0.00592041015625,0.01416015625,1.00469970703125,34.970001220703125,0.0,-8.0,-0.793212890625,-1.32666015625,Closing,0.0,0.0,16.0,0.0,0.0,0.0,0.0,0.0,
5.726515999999945,0.0,0.0,12136.0,0.5,765.0,840.0,0.0,0.125,3.7902828150000003,1.3788875738779706E-4,0.0,-12153.0,0.25,-795.0,-840.0,0.0,0.0,1.931152146,1.3747209111849467E-4,-0.0012207030000004337,12037.0,0.5,810.0,840.0,0.0,0.0,4.8730463760000005,1.376109798749288E-4,0.0,-12052.0,0.75,-817.5,-840.0,0.0,0.0,2.858886426,1.3743042449156442E-4,0.0,1.1399999856948853,0.7799999713897705,-0.4300000071525574,0.00836181640625,0.01641845703125,0.9921875,34.970001220703125,0.0,-5.0,-0.793212890625,-1.3267669677734375,Closing,0.0,0.0,16.0,0.0,0.0,0.0,0.0,0.0,
5.788905000000028,0.0,0.0,12136.0,0.375,802.5,840.0,0.0,0.125,3.7915035180000003,1.3788875738779706E-4,-0.0012207029999999897,-12153.0,0.125,-832.5,-840.0,0.0,0.0,1.929931443,1.3747209111849467E-4,-0.0012207029999995456,12037.0,0.375,847.5,840.0,0.0,0.0,4.874267079,1.376109798749288E-4,0.0,-12052.0,0.75,-840.0,-840.0,0.0,0.0,2.857665723,1.3743042449156442E-4,0.0,1.1399999856948853,0.7699999809265137,-0.4300000071525574,0.0074462890625,0.029541015625,0.99371337890625,34.970001220703125,0.0,-6.0,-0.793212890625,-1.3267974853515625,Closing,0.0,0.0,16.0,0.0,0.0,0.0,0.0,0.0,
5.8540100000000095,0.0,0.0,12272.0,0.375,847.5,840.0,0.0,0.125,3.819579687,1.3788875738779706E-4,0.0012207029999999897,-12284.0,0.125,-802.5,-840.0,0.0,0.0,1.931152146,1.3747209111849467E-4,0.0,12170.0,0.5,817.5,840.0,0.0,0.0,4.871825673,1.376109798749288E-4,0.0,-12183.0,0.75,-802.5,-840.0,0.0,0.0,2.857665723,1.3743042449156442E-4,0.0,1.159999966621399,0.7900000214576721,-0.4300000071525574,0.0301513671875,0.00274658203125,1.02447509765625,34.970001220703125,0.0,16.0,-0.793212890625,-1.326812744140625,Closing,0.0,0.0,16.0,0.0,0.0,0.0,0.0,0.0,
5.921260000000009,0.0,0.0,12272.0,0.375,825.0,840.0,0.0,0.125,3.7902828150000003,1.3788875738779706E-4,0.0,-12284.0,0.25,-795.0,-840.0,0.0,0.0,1.9177244130000002,1.3747209111849467E-4,0.0,12170.0,0.75,795.0,840.0,0.0,0.0,4.8730463760000005,1.376109798749288E-4,0.0012207030000004337,-12183.0,1.0,-795.0,-840.0,0.0,0.0,2.8564450200000002,1.3743042449156442E-4,0.0,1.159999966621399,0.7900000214576721,-0.4399999976158142,0.01885986328125,-0.0025634765625,1.0029296875,34.970001220703125,0.0,5.0,-0.79327392578125,-1.3268280029296875,Closing,0.0,0.0,16.0,0.0,0.0,0.0,0.0,0.0,
5.985868999999948,0.0,0.0,12402.0,0.375,802.5,840.0,0.0,0.125,3.7890621120000003,0.0,0.0,-12414.0,0.25,-825.0,-840.0,0.0,0.0,1.931152146,0.0,0.0024414059999999793,12300.0,0.5,817.5,840.0,0.0,0.0,4.866942861,-0.0,0.0,-12313.0,0.875,-825.0,-840.0,0.0,0.0,2.857665723,-0.0,-0.0012207030000004337,1.1399999856948853,0.7799999713897705,-0.4300000071525574,0.0059814453125,0.02880859375,0.97705078125,34.970001220703125,0.0,-7.0,-0.79327392578125,-1.3269195556640625,Closing,0.0,0.0,16.0,0.0,0.0,0.0,0.0,0.0,
6.047113000000012,0.0,0.0,12402.0,0.375,810.0,840.0,0.0,0.125,3.7902828150000003,1.3788875738779706E-4,-0.0012207029999999897,-12414.0,0.125,-840.0,-840.0,0.0,0.0,1.931152146,1.3747209111849467E-4,-0.0024414059999999793,12300.0,0.5,847.5,840.0,0.0,0.0,4.8730463760000005,1.376109798749288E-4,0.0,-12447.0,0.875,-832.5,-840.0,0.0,0.0,2.857665723,1.3743042449156442E-4,0.0,1.149999976158142,0.7900000214576721,-0.44999998807907104,0.02606201171875,0.02166748046875,1.00762939453125,34.970001220703125,0.0,12.0,-0.793121337890625,-1.3269195556640625,Closing,0.0,0.0,16.0,0.0,0.0,0.0,0.0,0.0,
6.111993000000017,0.0,0.0,12536.0,0.375,847.5,840.0,0.0,0.125,3.7902828150000003,4.963862111242613,0.0,-12549.0,0.125,-832.5,-840.0,0.0,0.0,1.936034958,4.948862527908881,0.0012207029999995456,12436.0,0.5,832.5,840.0,0.0,0.0,4.876708485,4.953862389020125,0.0,-12447.0,0.75,-832.5,-840.0,0.0,0.0,2.8564450200000002,4.947362569575509,-0.0012207030000004337,1.149999976158142,0.7900000214576721,-0.44999998807907104,0.02587890625,0.0216064453125,1.00067138671875,34.970001220703125,0.0,11.0,-0.792999267578125,-1.32696533203125,Closing,0.0,0.0,16.0,0.0,0.0,0.0,0.0,0.0,
6.177719999999972,0.0,0.0,12671.0,0.375,840.0,840.0,0.0,0.125,3.7902828150000003,4.963862111242613,0.0,-12681.0,0.25,-825.0,-840.0,0.0,0.0,1.931152146,4.948862527908881,0.0,12567.0,0.5,817.5,840.0,0.0,0.0,4.8730463760000005,4.953862389020125,0.0,-12581.0,0.75,-832.5,-840.0,0.0,0.0,2.861327832,4.947362569575509,0.0012207030000004337,1.149999976158142,0.7900000214576721,-0.44999998807907104,0.00421142578125,0.0040283203125,1.02044677734375,35.0099983215332,0.0,-9.0,-0.792999267578125,-1.326995849609375,Closing,0.0,0.0,16.0,0.0,0.0,0.0,0.0,0.0,
6.244385000000009,0.0,0.0,12671.0,0.375,825.0,840.0,0.0,0.125,3.7902828150000003,4.963862111242613,0.0,-12681.0,0.25,-825.0,-840.0,0.0,0.0,1.931152146,4.948862527908881,0.0,12567.0,0.5,832.5,840.0,0.0,0.0,4.871825673,4.953862389020125,0.0,-12581.0,0.875,-840.0,-840.0,0.0,0.0,2.857665723,4.947362569575509,0.0,1.1299999952316284,0.7900000214576721,-0.44999998807907104,-0.00970458984375,0.030029296875,0.9976806640625,35.0099983215332,0.0,-23.0,-0.792999267578125,-1.326995849609375,Closing,0.0,0.0,16.0,0.0,0.0,0.0,0.0,0.0,
6.30919299999997,0.0,0.0,12803.0,0.375,817.5,840.0,0.0,0.125,3.7780757850000004,4.963862111242613,0.0,-12815.0,0.25,-832.5,-840.0,0.0,0.0,1.931152146,4.948862527908881,0.0024414060000008675,12703.0,0.5,840.0,840.0,0.0,0.0,4.869384267,4.953862389020125,0.0,-12716.0,0.875,-832.5,-840.0,0.0,0.0,2.857665723,4.947362569575509,0.0,1.149999976158142,0.800000011920929,-0.44999998807907104,0.01702880859375,0.01666259765625,0.984619140625,35.0099983215332,0.0,3.0,-0.79302978515625,-1.326995849609375,Closing,0.0,0.0,16.0,0.0,0.0,0.0,0.0,0.0,
6.369072000000044,0.0,0.0,12803.0,0.375,832.5,840.0,0.0,0.125,3.7915035180000003,4.963862111242613,0.0,-12815.0,0.25,-840.0,-840.0,0.0,0.0,1.929931443,4.948862527908881,-0.0024414060000008675,12703.0,0.5,832.5,840.0,0.0,0.0,4.871825673,4.953862389020125,0.0,-12716.0,0.75,-840.0,-840.0,0.0,0.0,2.857665723,4.947362569575509,-0.0012207030000004337,1.149999976158142,0.7900000214576721,-0.44999998807907104,0.02532958984375,0.034912109375,0.99591064453125,35.0099983215332,0.0,11.0,-0.7930450439453125,-1.326995849609375,Closing,0.0,0.0,16.0,0.0,0.0,0.0,0.0,0.0,
6.429709000000032,0.0,0.0,12939.0,0.375,847.5,840.0,0.0,0.125,3.7902828150000003,4.963862111242613,0.0,-12949.0,0.25,-832.5,-840.0,0.0,0.0,1.934814255,4.948862527908881,0.0,12836.0,0.5,832.5,840.0,0.0,0.0,4.8730463760000005,4.953862389020125,0.0,-12851.0,0.75,-840.0,-840.0,0.0,0.0,2.858886426,4.947362569575509,0.0,1.149999976158142,0.7799999713897705,-0.44999998807907104,0.0162353515625,0.0302734375,0.98699951171875,35.0099983215332,0.0,2.0,-0.793060302734375,-1.326995849609375,Closing,0.0,0.0,16.0,0.0,0.0,0.0,0.0,0.0,
6.490844999999972,0.0,0.0,12939.0,0.375,840.0,840.0,0.0,0.125,3.7915035180000003,4.963862111242613,0.0,-12949.0,0.25,-832.5,-840.0,0.0,0.0,1.931152146,4.948862527908881,-0.0012207029999995456,12836.0,0.5,840.0,840.0,0.0,0.0,4.871825673,4.953862389020125,0.0,-12851.0,0.75,-840.0,-840.0,0.0,0.0,2.857665723,4.947362569575509,0.0012207030000004337,1.1399999856948853,0.7699999809265137,-0.44999998807907104,0.0185546875,0.02642822265625,0.98822021484375,35.0099983215332,0.0,5.0,-0.793060302734375,-1.3270111083984375,Closing,0.0,0.0,16.0,0.0,0.0,0.0,0.0,0.0,
6.554003999999957,0.0,0.0,13071.0,0.375,825.0,840.0,0.0,0.125,3.811034766,4.963862111242613,0.0,-13084.0,0.25,-840.0,-840.0,0.0,0.0,1.934814255,4.948862527908881,0.0,12972.0,0.5,847.5,840.0,0.0,0.0,4.8730463760000005,4.953862389020125,0.0,-12985.0,0.875,-832.5,-840.0,0.0,0.0,2.858886426,4.947362569575509,-0.0012207030000004337,1.1399999856948853,0.7799999713897705,-0.46000000834465027,0.01763916015625,0.02032470703125,0.98907470703125,35.0099983215332,0.0,4.0,-0.793060302734375,-1.3270263671875,Closing,0.0,0.0,16.0,0.0,0.0,0.0,0.0,0.0,
6.614398000000045,0.0,0.0,13071.0,0.375,832.5,840.0,0.0,0.125,3.7854000030000003,4.963724222074284,0.0,-13084.0,0.25,-847.5,-840.0,0.0,0.0,1.929931443,4.9487250554080635,0.0012207029999995456,12972.0,0.5,840.0,840.0,0.0,0.0,4.8706049700000005,4.953724777630137,0.0,-12985.0,0.875,-832.5,-840.0,0.0,0.0,2.857665723,4.947225138741442,0.0012207030000004337,1.1399999856948853,0.7699999809265137,-0.44999998807907104,0.005859375,0.0181884765625,1.00750732421875,35.0099983215332,0.0,-7.0,-0.793060302734375,-1.3270263671875,Closing,0.0,0.0,16.0,0.0,0.0,0.0,0.0,0.0,
6.675765999999945,0.0,0.0,13206.0,0.375,840.0,840.0,0.0,0.125,3.7988277360000002,4.963862111242613,0.0,-13219.0,0.25,-840.0,-840.0,0.0,0.0,1.937255661,4.948862527908881,0.0024414060000008675,13106.0,0.5,832.5,840.0,0.0,0.0,4.871825673,4.953862389020125,0.0,-13121.0,0.75,-840.0,-840.0,0.0,0.0,2.857665723,4.947362569575509,-0.0012207030000004337,1.149999976158142,0.7799999713897705,-0.44999998807907104,0.03546142578125,-0.00299072265625,1.02117919921875,35.02000045776367,0.0,21.0,-0.7930450439453125,-1.3270263671875,Closing,0.0,0.0,16.0,0.0,0.0,0.0,0.0,0.0,
6.742064000000013,0.0,0.0,13206.0,0.375,847.5,840.0,0.0,0.125,3.7902828150000003,4.963862111242613,0.0012207029999999897,-13219.0,0.25,-840.0,-840.0,0.0,0.0,1.9226072250000001,4.948862527908881,-0.0012207030000004337,13106.0,0.5,840.0,840.0,0.0,0.0,4.874267079,4.953862389020125,0.0,-13121.0,0.75,-840.0,-840.0,0.0,0.0,2.866210644,4.947362569575509,0.0012207030000004337,1.1299999952316284,0.7900000214576721,-0.44999998807907104,0.0211181640625,0.04180908203125,0.98822021484375,35.02000045776367,0.0,7.0,-0.792938232421875,-1.3270416259765625,Closing,0.0,0.0,16.0,0.0,0.0,0.0,0.0,0.0,
6.807599999999977,0.0,0.0,13342.0,0.375,840.0,840.0,0.0,0.125,3.7902828150000003,4.963862111242613,-0.0012207029999999897,-13354.0,0.25,-840.0,-840.0,0.0,0.0,1.931152146,4.948862527908881,0.0,13242.0,0.5,840.0,840.0,0.0,0.0,4.876708485,4.953862389020125,0.0,-13255.0,0.875,-840.0,-840.0,0.0,0.0,2.857665723,4.947362569575509,0.0,1.1299999952316284,0.7900000214576721,-0.44999998807907104,0.021484375,0.030517578125,0.9749755859375,35.02000045776367,0.0,7.0,-0.792938232421875,-1.327056884765625,Closing,0.0,0.0,16.0,0.0,0.0,0.0,0.0,0.0,
6.867991000000038,0.0,0.0,13342.0,0.375,832.5,840.0,0.0,0.125,3.7915035180000003,4.963862111242613,0.0,-13354.0,0.125,-847.5,-840.0,0.0,0.0,1.936034958,4.948862527908881,-0.0012207030000004337,13242.0,0.5,840.0,840.0,0.0,0.0,4.8706049700000005,4.953862389020125,0.0,-13255.0,0.75,-840.0,-840.0,0.0,0.0,2.857665723,4.947362569575509,0.0,1.1299999952316284,0.7799999713897705,-0.46000000834465027,0.01873779296875,0.02813720703125,1.011962890625,35.02000045776367,0.0,4.0,-0.79302978515625,-1.327056884765625,Closing,0.0,0.0,16.0,0.0,0.0,0.0,0.0,0.0,
6.93055700000003,0.0,0.0,13476.0,0.375,840.0,840.0,0.0,0.125,3.7890621120000003,4.963724222074284,0.0,-13489.0,0.25,-840.0,-840.0,0.0,0.0,1.929931443,4.9487250554080635,0.0012207030000004337,13376.0,0.5,832.5,840.0,0.0,0.0,4.874267079,4.953724777630137,0.0,-13389.0,0.75,-832.5,-840.0,0.0,0.0,2.858886426,4.947225138741442,-0.0012207030000004337,1.1299999952316284,0.7900000214576721,-0.46000000834465027,0.0096435546875,0.012939453125,1.00213623046875,35.02000045776367,0.0,-4.0,-0.79302978515625,-1.327056884765625,Closing,0.0,0.0,16.0,0.0,0.0,0.0,0.0,0.0,
6.992145999999949,0.0,0.0,13476.0,0.375,840.0,840.0,0.0,0.125,3.7902828150000003,4.963724222074284,0.0,-13489.0,0.25,-832.5,-840.0,0.0,0.0,1.937255661,4.9487250554080635,-0.0012207030000004337,13376.0,0.5,840.0,840.0,0.0,0.0,4.8730463760000005,4.953724777630137,0.0,-13389.0,0.875,-832.5,-840.0,0.0,0.0,2.857665723,4.947225138741442,0.0,1.1399999856948853,0.800000011920929,-0.46000000834465027,0.0347900390625,0.03045654296875,0.97149658203125,35.02000045776367,0.0,21.0,-0.7930145263671875,-1.3271331787109375,Closing,0.0,0.0,16.0,0.0,0.0,0.0,0.0,0.0,
7.057579000000027,0.0,0.0,13611.0,0.375,832.5,840.0,0.0,0.125,3.7902828150000003,4.963724222074284,0.0,-13623.0,0.25,-840.0,-840.0,0.0,0.0,1.939697067,4.9487250554080635,0.003662109000000413,13511.0,0.5,840.0,840.0,0.0,0.0,4.871825673,4.953724777630137,0.0,-13524.0,0.75,-840.0,-840.0,0.0,0.0,2.858886426,4.947225138741442,0.0012207030000004337,1.1299999952316284,0.800000011920929,-0.46000000834465027,0.02288818359375,0.00933837890625,1.01800537109375,35.02000045776367,0.0,8.0,-0.79296875,-1.3272247314453125,Closing,0.0,0.0,16.0,0.0,0.0,0.0,0.0,0.0,
