Time,ClimberA1,ClimberA2,FRpos,FRCurrent,FRspeed,FRsetpoint,FRApos,FRACurrent,FREncpos,FREncSetpoint,FREncSpeed,FLpos,FLCurrent,FLspeed,FLsetpoint,FLApos,FLACurrent,FLEncpos,FLEncSetpoint,FLEncSpeed,BRpos,BRCurrent,BRspeed,BRsetpoint,BRApos,BRACurrent,BREncpos,BREncSetpoint,BREncSpeed,BLpos,BLCurrent,BLspeed,BLsetpoint,BLApos,BLACurrent,BLEncpos,BLEncSetpoint,BLEncSpeed,navx_Pitch,navx_Roll,navx_Yaw,navx_XAcc,navx_YAcc,navx_ZAcc,navx_Temp,navx_Bar,navx_Alt,navx_XDis,navx_YDis,GearPlacerState,ShootOutputV,ShootOutputCurrent,ShootEncPos,ShootEncVelocity,ShootSpeed,ShootSetpoint,CarouselSetpoint,CarouselCurrent,
0.5268559999999998,0.0,0.0,0.0,0.0,0.0,0.0,0.0,0.0,3.7829585970000004,0.0,0.0,0.0,0.0,0.0,0.0,0.0,0.0,1.9213865220000002,0.0,0.0,0.0,0.0,0.0,0.0,0.0,0.0,4.912108872,0.0,0.0,0.0,0.0,0.0,0.0,0.0,0.0,2.916259467,0.0,0.0,1.149999976158142,0.1599999964237213,-0.3499999940395355,0.0028076171875,0.01788330078125,1.01483154296875,28.510000228881836,0.0,0.0,0.0,0.0,Waiting,0.0,0.0,0.0,0.0,0.0,0.0,0.0,0.0,
0.5880399999999936,0.0,0.0,0.0,0.0,0.0,840.0,0.0,0.0,3.7805171910000004,0.0,0.0,0.0,0.0,0.0,-840.0,0.0,0.0,1.9213865220000002,0.0,0.0,0.0,0.0,0.0,840.0,0.0,0.0,4.932860823,0.0,0.0,0.0,0.25,0.0,-840.0,0.0,0.0,2.915038764,0.0,0.0,1.149999976158142,0.1599999964237213,-0.3499999940395355,0.005615234375,0.02191162109375,1.009521484375,28.530000686645508,0.0,2.0,0.0,0.0,Waiting,0.0,0.0,0.0,0.0,0.0,0.0,0.0,0.0,
0.6272960000000021,0.0,0.0,0.0,1.375,15.0,840.0,0.0,0.0,3.7890621120000003,0.0,0.0,0.0,1.125,-15.0,-840.0,0.0,0.0,1.9213865220000002,0.0,0.0,0.0,2.0,22.5,840.0,0.0,0.0,4.935302229,0.0,-4.809957045999999,0.0,1.125,-7.5,-840.0,0.0,0.0,2.910155952,0.0,-0.05859374399999995,1.149999976158142,0.17000000178813934,-0.3499999940395355,-0.00128173828125,0.03643798828125,1.01104736328125,28.530000686645508,0.0,-4.0,0.0,0.0,Waiting,0.0,0.0,0.0,0.0,0.0,0.0,0.0,0.0,
0.655622000000003,0.0,0.0,0.0,2.25,67.5,840.0,0.0,0.0,3.7805171910000004,0.0,0.0,0.0,1.875,-60.0,-840.0,0.0,0.0,1.926269334,0.0,0.0,0.0,3.125,60.0,840.0,0.0,0.0,4.936522932,0.0,-4.809957045999999,0.0,2.875,-105.0,-840.0,0.0,0.0,2.9089352490000002,0.0,-0.05859374399999995,1.1699999570846558,0.3799999952316284,-0.4099999964237213,0.52239990234375,-0.14398193359375,1.19549560546875,28.530000686645508,0.0,515.0,6.866455078125E-4,1.52587890625E-5,Waiting,0.0,0.0,0.0,0.0,0.0,0.0,0.0,0.0,
0.6847799999999988,0.0,0.0,24.0,3.0,120.0,840.0,0.0,0.0,3.7817378940000004,4.963172666633792,0.0,-30.0,2.875,-187.5,-840.0,0.0,0.0,1.926269334,4.948175166633891,0.004882811999999959,20.0,4.75,127.5,840.0,0.0,0.0,4.930419417,4.953174333300525,0.009765623999999917,-25.0,3.75,-157.5,-840.0,0.0,0.0,2.912597358,4.946675416633901,-0.004882811999999959,1.2100000381469727,0.6200000047683716,-0.4300000071525574,0.02056884765625,0.02447509765625,0.854736328125,28.530000686645508,0.0,11.0,0.0016326904296875,-9.1552734375E-5,Waiting,0.0,0.0,0.0,0.0,0.0,0.0,0.0,0.0,
0.7066889999999985,0.0,0.0,24.0,4.125,180.0,839.9999999999999,0.0,0.0,3.7792964880000004,4.962896888708076,0.0,-30.0,3.75,-225.0,-839.9999999999999,0.0,0.0,1.932372849,4.947900222041954,0.004882811999999959,20.0,5.25,142.5,839.9999999999999,0.0,0.0,4.921874496,4.9528991109306615,0.009765623999999917,-25.0,4.625,-195.0,-839.9999999999999,0.0,0.0,2.9028317340000003,4.946400555375343,0.0,1.1699999570846558,0.7400000095367432,-0.38999998569488525,0.112060546875,0.0926513671875,1.164306640625,28.530000686645508,0.0,96.0,0.0053863525390625,-0.00115966796875,Waiting,0.0,0.0,0.0,0.0,0.0,0.0,0.0,0.0,
0.7515920000000041,0.0,0.0,24.0,4.75,165.0,840.0000000000001,0.0,0.0,3.7805171910000004,4.963586333316896,0.0,-30.0,4.875,-225.0,-840.0000000000001,0.0,0.0,1.927490037,4.948587583316945,0.0,20.0,6.125,142.5,840.0000000000001,0.0,0.0,4.909667466,4.953587166650262,-0.009765623999999917,-25.0,5.0,-187.5,-840.0000000000001,0.0,0.0,2.911376655,4.947087708316951,0.0,1.0700000524520874,0.8899999856948853,-0.36000001430511475,0.0992431640625,0.06268310546875,0.9322509765625,28.530000686645508,0.0,84.0,0.0085906982421875,-0.001556396484375,Waiting,0.0,0.0,0.0,0.0,0.0,0.0,0.0,0.0,
0.7755610000000015,0.0,0.0,24.0,5.25,157.5,840.0,0.0,0.0,3.7780757850000004,4.963862110831672,0.0,-30.0,5.5,-202.5,-840.0,0.0,0.0,1.926269334,4.948862527499182,0.0,20.0,6.5,150.0,840.0,0.0,0.0,4.910888169000001,4.953862388610012,-0.009765623999999917,-25.0,5.875,-172.5,-840.0,0.0,0.0,2.910155952,4.947362569165933,0.0,1.1399999856948853,1.0700000524520874,-0.3700000047683716,0.21026611328125,0.03021240234375,1.19427490234375,28.530000686645508,0.0,187.0,0.01263427734375,-0.0023193359375,Waiting,0.0,0.0,0.0,0.0,0.0,0.0,0.0,0.0,
0.8002390000000014,0.0,0.0,63.0,5.875,180.0,840.0,0.0,0.0,3.7780757850000004,4.963724222074284,0.0,-69.0,5.625,-202.5,-840.0,0.0,0.0,1.9213865220000002,4.9487250554080635,0.0,59.0,7.0,187.5,840.0,0.0,0.0,4.912108872,4.953724777630137,-0.009765623999999917,-64.0,7.125,-187.5,-840.0,0.0,0.0,2.911376655,4.947225138741442,0.0,1.149999976158142,1.2000000476837158,-0.3799999952316284,0.170654296875,0.08984375,1.0972900390625,28.530000686645508,0.0,147.0,0.015045166015625,-0.002655029296875,Waiting,0.0,0.0,0.0,0.0,0.0,0.0,0.0,0.0,
0.8259419999999955,0.0,0.0,63.0,6.25,232.5,840.0000000000001,0.0,0.0,3.7329097740000003,4.963586333316896,0.0012207029999999897,-69.0,6.125,-232.5,-840.0000000000001,0.0,0.0,1.9250486310000001,4.948587583316945,0.0,59.0,7.75,232.5,840.0000000000001,0.0,0.0,4.910888169000001,4.953587166650262,-0.003662109000000413,-64.0,7.875,-225.0,-840.0000000000001,0.0,0.0,2.910155952,4.947087708316951,0.0,1.1200000047683716,1.4500000476837158,-0.4000000059604645,0.2083740234375,0.02972412109375,0.9600830078125,28.530000686645508,0.0,183.0,0.020599365234375,-0.003387451171875,Waiting,0.0,0.0,0.0,0.0,0.0,0.0,0.0,0.0,
0.8467939999999944,0.0,0.0,63.0,6.375,277.5,840.0,0.0,0.0,3.7854000030000003,4.96331055539118,0.0012207029999999897,-69.0,6.375,-285.0,-840.0,0.0,0.0,1.926269334,4.948312638725009,0.0,59.0,7.875,277.5,840.0,0.0,0.0,4.914550278,4.953311944280399,-0.003662109000000413,-64.0,8.125,-277.5,-840.0,0.0,0.0,2.911376655,4.946812847058392,0.0,1.1399999856948853,1.5700000524520874,-0.41999998688697815,0.251708984375,0.01953125,1.06292724609375,28.530000686645508,0.0,222.0,0.0237884521484375,-0.003387451171875,Waiting,0.0,0.0,0.0,0.0,0.0,0.0,0.0,0.0,
0.8715359999999928,0.0,0.0,63.0,6.375,330.0,839.9999999999999,0.0,0.0,3.7805171910000004,4.962896888708076,-0.0012207029999999897,-69.0,6.75,-375.0,-839.9999999999999,0.0,0.0,1.926269334,4.947900222041954,0.0,59.0,7.625,382.5,839.9999999999999,0.0,0.0,4.912108872,4.9528991109306615,-0.0012207029999995456,-64.0,8.25,-375.0,-839.9999999999999,0.0,0.0,2.911376655,4.946400555375343,0.0,1.149999976158142,1.7999999523162842,-0.4399999976158142,0.17376708984375,0.033447265625,1.04718017578125,28.530000686645508,0.0,140.0,0.0309295654296875,-0.0032806396484375,Waiting,0.0,0.0,0.0,0.0,0.0,0.0,0.0,0.0,
0.8949639999999927,0.0,0.0,63.0,6.125,382.5,840.0,0.0,0.0,3.7854000030000003,4.962758999950688,-0.0012207029999999897,-69.0,6.625,-435.0,-840.0,0.0,0.0,1.926269334,4.947762749950836,0.0,59.0,7.5,442.5,840.0,0.0,0.0,4.910888169000001,4.952761499950786,-0.0012207029999995456,-64.0,8.0,-420.0,-840.0,0.0,0.0,2.911376655,4.946263124950851,0.0,1.1200000047683716,1.9600000381469727,-0.4399999976158142,0.22430419921875,0.03564453125,0.82177734375,28.530000686645508,0.0,195.0,0.034820556640625,-0.0031890869140625,Waiting,0.0,0.0,0.0,0.0,0.0,0.0,0.0,0.0,
0.9233699999999954,0.0,0.0,149.0,5.75,495.0,840.0,0.0,0.0,3.7817378940000004,4.9626211111933,0.0,-156.0,6.25,-487.5,-840.0,0.0,0.0,1.926269334,4.947625277859717,0.0,145.0,7.375,495.0,840.0,0.0,0.0,4.916991684,4.952623888970911,0.0012207029999995456,-148.0,7.625,-472.5,-840.0,0.0,0.0,2.912597358,4.946125694526359,0.0012207029999999897,1.2000000476837158,2.2300000190734863,-0.46000000834465027,0.1763916015625,0.02984619140625,1.25421142578125,28.530000686645508,0.0,127.0,0.0479888916015625,-0.0029296875,Waiting,0.0,0.0,0.0,0.0,0.0,0.0,0.0,0.0,
0.9488790000000008,0.0,0.0,149.0,5.375,540.0,840.0,0.0,0.0,3.7829585970000004,4.9624832220249715,0.0,-156.0,5.875,-540.0,-840.0,0.0,0.0,1.9250486310000001,4.947487805358899,0.0,145.0,6.75,540.0,840.0,0.0,0.0,4.910888169000001,4.952486277580923,0.0012207029999995456,-148.0,7.375,-525.0,-840.0,0.0,0.0,2.910155952,4.945988263692293,0.0012207029999999897,1.0700000524520874,2.490000009536743,-0.44999998807907104,0.17657470703125,0.0418701171875,0.6201171875,28.530000686645508,0.0,149.0,0.057708740234375,-0.002655029296875,Waiting,0.0,0.0,0.0,0.0,0.0,0.0,0.0,0.0,
0.9685709999999963,0.0,0.0,149.0,5.125,592.5,840.0,0.0,0.0,3.7817378940000004,4.9626211111933,0.0,-156.0,5.375,-592.5,-840.0,0.0,0.0,1.926269334,4.947625277859717,0.0,145.0,6.25,592.5,840.0,0.0,0.0,4.909667466,4.952623888970911,-0.0012207029999995456,-148.0,6.625,-630.0,-840.0,0.0,0.0,2.9089352490000002,4.946125694526359,0.0,1.1200000047683716,2.569999933242798,-0.46000000834465027,0.11328125,0.02850341796875,0.94561767578125,28.530000686645508,0.0,70.0,0.06280517578125,-0.0024871826171875,Waiting,0.0,0.0,0.0,0.0,0.0,0.0,0.0,0.0,
0.9927170000000042,0.0,0.0,149.0,4.875,637.5,840.0,0.0,0.0,3.7829585970000004,4.9626211111933,0.0,-156.0,5.0,-637.5,-840.0,0.0,0.0,1.926269334,4.947625277859717,0.0,145.0,5.875,637.5,840.0,0.0,0.0,4.913329575000001,4.952623888970911,-0.0012207029999995456,-148.0,6.125,-675.0,-840.0,0.0,0.0,2.910155952,4.946125694526359,0.0,1.2000000476837158,2.559999942779541,-0.44999998807907104,0.0299072265625,0.11981201171875,1.21844482421875,28.530000686645508,0.0,-25.0,0.0732574462890625,-0.001953125,Waiting,0.0,0.0,0.0,0.0,0.0,0.0,0.0,0.0,
1.0139590000000025,0.0,0.0,149.0,4.5,682.5,840.0,0.0,0.0,3.7817378940000004,4.9626211111933,0.0,-156.0,4.625,-682.5,-840.0,0.0,0.0,1.926269334,4.947625277859717,0.0012207029999995456,145.0,5.0,720.0,840.0,0.0,0.0,4.912108872,4.952623888970911,0.0012207029999995456,-148.0,5.5,-712.5,-840.0,0.0,0.0,2.910155952,4.946125694526359,-0.0012207029999999897,1.0700000524520874,2.819999933242798,-0.4300000071525574,0.26092529296875,-0.01348876953125,0.72796630859375,28.530000686645508,0.0,224.0,0.08416748046875,-0.0014495849609375,Waiting,0.0,0.0,0.0,0.0,0.0,0.0,0.0,0.0,
1.0440840000000025,0.0,0.0,273.0,3.875,750.0,839.9999999999999,0.0,0.0,3.7805171910000004,4.962896888708076,0.0,-280.0,3.75,-750.0,-839.9999999999999,0.0,0.0,1.926269334,4.947900222041954,0.0012207029999995456,271.0,4.625,765.0,839.9999999999999,0.0,0.0,4.912108872,4.9528991109306615,0.0012207029999995456,-271.0,4.75,-750.0,-839.9999999999999,0.0,0.0,2.911376655,4.946400555375343,-0.0012207029999999897,1.2100000381469727,2.7200000286102295,-0.4300000071525574,0.0330810546875,0.1805419921875,1.640625,28.530000686645508,0.0,-46.0,0.0898590087890625,-0.00115966796875,Waiting,0.0,0.0,0.0,0.0,0.0,0.0,0.0,0.0,
1.082755999999994,0.0,0.0,273.0,3.5,780.0,839.9999999999999,0.0,0.0,3.7805171910000004,4.962896888708076,0.0,-280.0,3.25,-780.0,-839.9999999999999,0.0,0.0,1.926269334,4.947900222041954,0.0,271.0,4.125,795.0,839.9999999999999,0.0,0.0,4.910888169000001,4.9528991109306615,0.0,-271.0,3.875,-802.5,-839.9999999999999,0.0,0.0,2.911376655,4.946400555375343,0.0,1.1299999952316284,2.8299999237060547,-0.4300000071525574,0.05462646484375,0.0357666015625,1.06219482421875,28.540000915527344,0.0,1.0,0.106842041015625,-1.220703125E-4,Waiting,0.0,0.0,0.0,0.0,0.0,0.0,0.0,0.0,
1.1102299999999958,0.0,0.0,273.0,3.0,840.0,839.9999999999999,0.0,0.0,3.7817378940000004,4.962896888708076,0.0,-280.0,2.75,-832.5,-839.9999999999999,0.0,0.0,1.926269334,4.947900222041954,0.0,271.0,3.25,862.5,839.9999999999999,0.0,0.0,4.909667466,4.9528991109306615,0.0,-271.0,3.375,-825.0,-839.9999999999999,0.0,0.0,2.910155952,4.946400555375343,0.0012207029999999897,1.1299999952316284,2.9100000858306885,-0.41999998688697815,0.09649658203125,-0.00177001953125,0.70050048828125,28.540000915527344,0.0,60.0,0.1182403564453125,5.79833984375E-4,Waiting,0.0,0.0,0.0,0.0,0.0,0.0,0.0,0.0,
1.1341759999999923,0.0,0.0,273.0,2.875,862.5,839.9999999999999,0.0,0.0,3.806151954,4.963034777876405,0.0,-280.0,2.625,-855.0,-839.9999999999999,0.0,0.0,1.9250486310000001,4.948037694542772,-0.0012207029999995456,271.0,3.0,885.0,839.9999999999999,0.0,0.0,4.912108872,4.9530367223206495,0.0,-271.0,3.125,-847.5,-839.9999999999999,0.0,0.0,2.911376655,4.946537986209409,0.0012207029999999897,1.1399999856948853,2.859999895095825,-0.41999998688697815,0.12152099609375,-0.0732421875,1.0631103515625,28.540000915527344,0.0,68.0,0.1240234375,8.697509765625E-4,Waiting,0.0,0.0,0.0,0.0,0.0,0.0,0.0,0.0,
1.1597019999999902,0.0,0.0,418.0,2.625,885.0,839.9999999999999,0.0,0.0,3.7817378940000004,4.963034777876405,0.0,-421.0,2.5,-862.5,-839.9999999999999,0.0,0.0,1.926269334,4.948037694542772,-0.0012207029999995456,417.0,2.75,900.0,839.9999999999999,0.0,0.0,4.914550278,4.9530367223206495,0.0,-413.0,2.625,-885.0,-839.9999999999999,0.0,0.0,2.9064938430000002,4.946537986209409,-0.0012207029999999897,1.149999976158142,2.809999942779541,-0.4099999964237213,0.00787353515625,0.00140380859375,0.93048095703125,28.540000915527344,0.0,-37.0,0.1353607177734375,0.001556396484375,Waiting,0.0,0.0,0.0,0.0,0.0,0.0,0.0,0.0,
1.187398000000001,0.0,0.0,418.0,2.375,900.0,840.0,0.0,0.0,3.7829585970000004,4.963448444559509,0.0012207029999999897,-421.0,2.25,-877.5,-840.0,0.0,0.0,1.926269334,4.948450111225827,0.0012207029999995456,417.0,2.375,915.0,840.0,0.0,0.0,4.912108872,4.953449555670387,0.0,-413.0,2.5,-900.0,-840.0,0.0,0.0,2.916259467,4.946950277892459,-0.0012207029999999897,1.0800000429153442,2.890000104904175,-0.3799999952316284,-0.02783203125,0.028076171875,0.7882080078125,28.540000915527344,0.0,-67.0,0.1465606689453125,0.00213623046875,Waiting,0.0,0.0,0.0,0.0,0.0,0.0,0.0,0.0,
1.2124389999999985,0.0,0.0,418.0,2.0,922.5,840.0,0.0,0.0,3.7817378940000004,4.963448444559509,0.0012207029999999897,-421.0,1.875,-907.5,-840.0,0.0,0.0,1.926269334,4.948450111225827,0.0,417.0,2.375,915.0,840.0,0.0,0.0,4.913329575000001,4.953449555670387,-0.0012207029999995456,-413.0,2.375,-907.5,-840.0,0.0,0.0,2.9064938430000002,4.946950277892459,-0.004882811999999959,1.2000000476837158,2.6600000858306885,-0.3799999952316284,-0.05322265625,0.0311279296875,1.58465576171875,28.540000915527344,0.0,-126.0,0.1575164794921875,0.00262451171875,Waiting,0.0,0.0,0.0,0.0,0.0,0.0,0.0,0.0,
1.2397709999999933,0.0,0.0,418.0,2.0,930.0,840.0000000000001,0.0,0.0,3.7817378940000004,4.963586333316896,-0.0012207029999999897,-421.0,1.625,-915.0,-840.0000000000001,0.0,0.0,1.926269334,4.948587583316945,0.0,417.0,2.25,922.5,840.0000000000001,0.0,0.0,4.913329575000001,4.953587166650262,-0.0012207029999995456,-413.0,2.25,-915.0,-840.0000000000001,0.0,0.0,2.9064938430000002,4.947087708316951,-0.004882811999999959,1.0399999618530273,2.759999990463257,-0.3499999940395355,0.02398681640625,-0.0228271484375,0.63250732421875,28.540000915527344,0.0,-6.0,0.1628570556640625,0.002838134765625,Waiting,0.0,0.0,0.0,0.0,0.0,0.0,0.0,0.0,
1.2650739999999931,0.0,0.0,418.0,1.875,937.5,840.0,0.0,0.0,3.7817378940000004,1.3788875738779706E-4,-0.0012207029999999897,-421.0,1.5,-922.5,-840.0,0.0,0.0,1.9250486310000001,1.3747209111849467E-4,0.0,570.0,1.75,937.5,840.0,0.0,0.0,4.913329575000001,1.376109798749288E-4,0.0012207029999995456,-562.0,1.75,-922.5,-840.0,0.0,0.0,2.9064938430000002,1.3743042449156442E-4,0.0012207029999999897,1.190000057220459,2.6500000953674316,-0.3199999928474426,0.0045166015625,-5.4931640625E-4,1.2987060546875,28.540000915527344,0.0,-55.0,0.1788482666015625,0.003509521484375,Waiting,0.0,0.0,0.0,0.0,0.0,0.0,0.0,0.0,
1.2962409999999944,0.0,0.0,571.0,1.625,945.0,840.0000000000001,0.0,0.0,3.7817378940000004,4.1366668310430314E-4,0.0012207029999999897,-572.0,1.125,-937.5,-840.0000000000001,0.0,0.0,1.926269334,4.124166830546325E-4,0.0,570.0,1.5,945.0,840.0000000000001,0.0,0.0,4.910888169000001,4.1283334973785606E-4,0.0012207029999995456,-562.0,1.75,-930.0,-840.0000000000001,0.0,0.0,2.9064938430000002,4.122916830496655E-4,0.0012207029999999897,1.190000057220459,2.6500000953674316,-0.3199999928474426,0.0045166015625,-5.4931640625E-4,1.2987060546875,28.540000915527344,0.0,-55.0,0.1788482666015625,0.003509521484375,Waiting,0.0,0.0,0.0,0.0,0.0,0.0,0.0,0.0,
1.3163879999999917,0.0,0.0,571.0,1.625,945.0,840.0,0.0,0.0,3.7817378940000004,5.515554404921003E-4,0.0,-572.0,1.125,-937.5,-840.0,0.0,0.0,1.926269334,5.498887741731273E-4,-0.0012207029999995456,570.0,1.5,945.0,840.0,0.0,0.0,4.912108872,5.50444329612785E-4,0.0,-562.0,1.625,-930.0,-840.0,0.0,0.0,2.9077145460000002,5.497221075412299E-4,0.0,1.0800000429153442,2.5999999046325684,-0.2800000011920929,0.022216796875,0.04461669921875,0.7459716796875,28.540000915527344,0.0,-11.0,0.1890106201171875,0.0040130615234375,Waiting,0.0,0.0,0.0,0.0,0.0,0.0,0.0,0.0,
1.338474000000002,0.0,0.0,571.0,1.375,945.0,839.9999999999999,0.0,0.0,3.7817378940000004,9.652221235964037E-4,0.0,-572.0,1.0,-937.5,-839.9999999999999,0.0,0.0,1.9238279280000001,9.6230545722776E-4,-0.0012207029999995456,570.0,1.375,945.0,839.9999999999999,0.0,0.0,4.912108872,9.632776793506412E-4,0.0,-562.0,1.5,-930.0,-839.9999999999999,0.0,0.0,2.9064938430000002,9.620137905908958E-4,0.0,1.0099999904632568,2.6700000762939453,-0.27000001072883606,0.095703125,-0.108642578125,0.42913818359375,28.540000915527344,0.0,76.0,0.194091796875,0.0042266845703125,Waiting,0.0,0.0,0.0,0.0,0.0,0.0,0.0,0.0,
1.358798999999999,0.0,0.0,571.0,1.375,945.0,840.0,0.0,0.0,3.7841793000000004,0.0011031108809842005,0.0,-572.0,1.0,-930.0,-840.0,0.0,0.0,1.926269334,0.0010997775483462546,-0.0012207029999995456,570.0,1.375,945.0,840.0,0.0,0.0,4.912108872,0.00110088865922557,0.0,-562.0,1.5,-937.5,-840.0,0.0,0.0,2.9064938430000002,0.0010994442150824599,0.0,1.1399999856948853,2.4600000381469727,-0.2800000011920929,-0.03875732421875,0.033203125,1.4381103515625,28.540000915527344,0.0,-100.0,0.2041168212890625,0.0046539306640625,Waiting,0.0,0.0,0.0,0.0,0.0,0.0,0.0,0.0,
1.380720000000001,0.0,0.0,571.0,1.25,945.0,839.9999999999999,0.0,0.0,3.7438961010000003,9.652221235964037E-4,-0.0012207029999999897,-572.0,0.75,-930.0,-839.9999999999999,0.0,0.0,1.926269334,9.6230545722776E-4,0.0,570.0,1.375,937.5,839.9999999999999,0.0,0.0,4.912108872,9.632776793506412E-4,0.0,-562.0,1.375,-937.5,-839.9999999999999,0.0,0.0,2.9064938430000002,9.620137905908958E-4,0.0,1.0800000429153442,2.490000009536743,-0.27000001072883606,-0.046630859375,0.0411376953125,1.1934814453125,28.540000915527344,0.0,-98.0,0.2089385986328125,0.004913330078125,Waiting,0.0,0.0,0.0,0.0,0.0,0.0,0.0,0.0,
1.3964349999999977,0.0,0.0,721.0,1.25,945.0,840.0,0.0,0.0,3.7805171910000004,0.0011031108809842005,-0.0012207029999999897,-721.0,0.75,-922.5,-840.0,0.0,0.0,1.926269334,0.0010997775483462546,0.0,716.0,1.375,922.5,840.0,0.0,0.0,4.910888169000001,0.00110088865922557,0.0,-712.0,1.375,-930.0,-840.0,0.0,0.0,2.9064938430000002,0.0010994442150824599,0.0,1.0199999809265137,2.490000009536743,-0.25999999046325684,-0.00128173828125,0.08831787109375,0.64520263671875,28.540000915527344,0.0,-29.0,0.2136688232421875,0.0052337646484375,Waiting,0.0,0.0,0.0,0.0,0.0,0.0,0.0,0.0,
1.4169609999999957,0.0,0.0,721.0,1.25,937.5,840.0,0.0,0.0,3.7817378940000004,0.0012410000493129098,0.0,-721.0,0.75,-922.5,-840.0,0.0,0.0,1.9250486310000001,0.0012372500491638978,0.0012207029999995456,716.0,1.375,915.0,840.0,0.0,0.0,4.912108872,0.0012385000492135686,0.0,-712.0,1.25,-930.0,-840.0,0.0,0.0,2.9064938430000002,0.0012368750491489968,-0.0012207029999999897,1.090000033378601,2.4200000762939453,-0.25,-0.0606689453125,0.10833740234375,1.22479248046875,28.540000915527344,0.0,-112.0,0.2230224609375,0.00592041015625,Waiting,0.0,0.0,0.0,0.0,0.0,0.0,0.0,0.0,
1.4448359999999958,0.0,0.0,721.0,1.25,922.5,840.0,0.0,0.0,3.7817378940000004,0.001378888806700707,0.0,-721.0,0.75,-922.5,-840.0,0.0,0.0,1.9238279280000001,0.0013747221402823928,0.0012207029999995456,716.0,1.375,907.5,840.0,0.0,0.0,4.913329575000001,0.0013761110290884976,0.0,-712.0,1.125,-922.5,-840.0,0.0,0.0,2.9064938430000002,0.0013743054736405614,-0.0012207029999999897,1.1799999475479126,2.319999933242798,-0.25,-0.02557373046875,-0.02923583984375,1.33306884765625,28.540000915527344,0.0,-79.0,0.2275390625,0.00628662109375,Waiting,0.0,0.0,0.0,0.0,0.0,0.0,0.0,0.0,
1.4651419999999926,0.0,0.0,721.0,1.25,922.5,840.0,0.0,0.0,3.7805171910000004,0.0015167777695589597,0.0,-721.0,0.625,-922.5,-840.0,0.0,0.0,1.926269334,0.0015121944362504614,0.0012207029999995456,716.0,1.375,900.0,840.0,0.0,0.0,4.913329575000001,0.0015137222140199607,0.0,-712.0,1.125,-915.0,-840.0,0.0,0.0,2.910155952,0.0015117361029196117,0.0,0.9900000095367432,2.369999885559082,-0.23999999463558197,0.0086669921875,0.003173828125,0.49456787109375,28.540000915527344,0.0,-11.0,0.236328125,0.00701904296875,Waiting,0.0,0.0,0.0,0.0,0.0,0.0,0.0,0.0,
1.4878359999999957,0.0,0.0,721.0,1.25,915.0,840.0,0.0,0.0,3.7817378940000004,0.0015167777695589597,0.0,-721.0,0.625,-915.0,-840.0,0.0,0.0,1.926269334,0.0015121944362504614,-0.0012207029999995456,716.0,1.125,900.0,840.0,0.0,0.0,4.913329575000001,0.0015137222140199607,0.0,-712.0,1.125,-915.0,-840.0,0.0,0.0,2.8991696250000003,0.0015117361029196117,0.0,1.0499999523162842,2.309999942779541,-0.23000000417232513,0.07000732421875,-0.05316162109375,0.8065185546875,28.540000915527344,0.0,37.0,0.24072265625,0.0073394775390625,Waiting,0.0,0.0,0.0,0.0,0.0,0.0,0.0,0.0,
1.5052379999999976,0.0,0.0,721.0,1.25,915.0,840.0,0.0,0.0,3.7805171910000004,0.001654666526946757,0.0,-721.0,0.625,-915.0,-840.0,0.0,0.0,1.9250486310000001,0.0016496665273689562,-0.0012207029999995456,716.0,1.125,900.0,840.0,0.0,0.0,4.913329575000001,0.0016513331938948898,0.0,-712.0,1.125,-915.0,-840.0,0.0,0.0,2.9040524370000003,0.0016491665274111762,0.0,1.1100000143051147,2.1600000858306885,-0.23999999463558197,-0.083251953125,0.04486083984375,1.52496337890625,28.540000915527344,0.0,-140.0,0.2450408935546875,0.00762939453125,Waiting,0.0,0.0,0.0,0.0,0.0,0.0,0.0,0.0,
1.5294079999999959,0.0,0.0,867.0,1.125,907.5,840.0,0.0,0.0,3.769530864,0.0015167777695589597,0.0,-866.0,0.625,-907.5,-840.0,0.0,0.0,1.9226072250000001,0.0015121944362504614,0.0012207029999995456,862.0,1.125,907.5,840.0,0.0,0.0,4.912108872,0.0015137222140199607,0.0,-857.0,1.125,-907.5,-840.0,0.0,0.0,2.9064938430000002,0.0015117361029196117,0.0,1.0199999809265137,2.2200000286102295,-0.2199999988079071,0.00238037109375,-0.0240478515625,0.60888671875,28.540000915527344,0.0,-21.0,0.25335693359375,0.0082550048828125,Waiting,0.0,0.0,0.0,0.0,0.0,0.0,0.0,0.0,
1.559351999999999,0.0,0.0,867.0,1.125,907.5,840.0000000000001,0.0,0.0,3.7817378940000004,0.0017925554898050094,0.0,-866.0,0.625,-900.0,-840.0000000000001,0.0,0.0,1.926269334,0.0017871388233370246,0.0012207029999995456,862.0,1.125,907.5,840.0000000000001,0.0,0.0,4.909667466,0.0017889443788263529,0.0,-857.0,1.125,-900.0,-840.0000000000001,0.0,0.0,2.9052731400000003,0.0017865971566902263,0.0,1.090000033378601,2.059999942779541,-0.2199999988079071,-0.01702880859375,-0.0047607421875,1.21661376953125,28.540000915527344,0.0,-60.0,0.2614898681640625,0.008941650390625,Waiting,0.0,0.0,0.0,0.0,0.0,0.0,0.0,0.0,
1.5807749999999943,0.0,0.0,867.0,1.125,907.5,840.0000000000001,0.0,0.0,3.7805171910000004,0.0017925554898050094,0.0012207029999999897,-866.0,0.625,-900.0,-840.0000000000001,0.0,0.0,1.9250486310000001,0.0017871388233370246,-0.0012207029999995456,862.0,1.125,907.5,840.0000000000001,0.0,0.0,4.913329575000001,0.0017889443788263529,0.0,-857.0,1.125,-892.5,-840.0000000000001,0.0,0.0,2.9052731400000003,0.0017865971566902263,0.0,1.159999966621399,2.049999952316284,-0.23000000417232513,0.06207275390625,-0.0733642578125,1.30157470703125,28.5,0.0,15.0,0.2655029296875,0.00921630859375,Waiting,0.0,0.0,0.0,0.0,0.0,0.0,0.0,0.0,
1.5996919999999955,0.0,0.0,867.0,1.125,900.0,840.0,0.0,0.0,3.7817378940000004,0.001654666526946757,0.0012207029999999897,-866.0,0.625,-892.5,-840.0,0.0,0.0,1.926269334,0.0016496665273689562,-0.0012207029999995456,862.0,1.0,907.5,840.0,0.0,0.0,4.912108872,0.0016513331938948898,0.0,-857.0,1.25,-892.5,-840.0,0.0,0.0,2.9064938430000002,0.0016491665274111762,0.0,1.0800000429153442,2.109999895095825,-0.23000000417232513,-0.11492919921875,0.13348388671875,0.96563720703125,28.5,0.0,-150.0,0.2694091796875,0.0095062255859375,Waiting,0.0,0.0,0.0,0.0,0.0,0.0,0.0,0.0,
1.6208629999999975,0.0,0.0,867.0,1.125,900.0,840.0,0.0,0.0,3.7817378940000004,0.001654666526946757,0.0,-866.0,0.625,-892.5,-840.0,0.0,0.0,1.926269334,0.0016496665273689562,0.0012207029999995456,862.0,1.0,900.0,840.0,0.0,0.0,4.913329575000001,0.0016513331938948898,0.0,-857.0,1.25,-885.0,-840.0,0.0,0.0,2.9064938430000002,0.0016491665274111762,0.0,1.0700000524520874,2.0,-0.23000000417232513,0.06817626953125,-0.070556640625,1.01177978515625,28.5,0.0,33.0,0.277069091796875,0.010101318359375,Waiting,0.0,0.0,0.0,0.0,0.0,0.0,0.0,0.0,
1.6419809999999997,0.0,0.0,1009.0,1.125,892.5,840.0,0.0,0.0,3.774413676,0.001654666526946757,0.0,-1009.0,0.625,-892.5,-840.0,0.0,0.0,1.926269334,0.0016496665273689562,0.0012207029999995456,1005.0,1.0,900.0,840.0,0.0,0.0,4.912108872,0.0016513331938948898,0.0,-998.0,1.25,-885.0,-840.0,0.0,0.0,2.9064938430000002,0.0016491665274111762,0.0,1.090000033378601,1.9900000095367432,-0.23000000417232513,-0.03802490234375,-0.002197265625,1.15081787109375,28.5,0.0,-78.0,0.2808685302734375,0.010284423828125,Waiting,0.0,0.0,0.0,0.0,0.0,0.0,0.0,0.0,
1.660747000000003,0.0,0.0,1009.0,1.125,892.5,840.0,0.0,0.0,3.7817378940000004,0.001654666526946757,0.0,-1009.0,0.625,-885.0,-840.0,0.0,0.0,1.926269334,0.0016496665273689562,0.0012207029999995456,1005.0,1.0,892.5,840.0,0.0,0.0,4.914550278,0.0016513331938948898,0.0,-998.0,1.25,-885.0,-840.0,0.0,0.0,2.9064938430000002,0.0016491665274111762,0.0,1.090000033378601,1.9900000095367432,-0.23000000417232513,-0.10809326171875,-0.00103759765625,1.00872802734375,28.5,0.0,-143.0,0.2845306396484375,0.0104522705078125,Waiting,0.0,0.0,0.0,0.0,0.0,0.0,0.0,0.0,
1.6798439999999972,0.0,0.0,1009.0,1.125,885.0,840.0,0.0,0.0,3.775634379,0.001930444452663263,-0.0012207029999999897,-1009.0,0.625,-885.0,-840.0,0.0,0.0,1.9250486310000001,0.001924611119305094,0.0,1005.0,1.125,885.0,840.0,0.0,0.0,4.913329575000001,0.001926555563757817,0.0,-998.0,1.25,-877.5,-840.0,0.0,0.0,2.9064938430000002,0.001924027785969277,0.0012207029999999897,1.0800000429153442,1.840000033378601,-0.20000000298023224,-0.00323486328125,0.05950927734375,1.0777587890625,28.5,0.0,-38.0,0.2916412353515625,0.01080322265625,Waiting,0.0,0.0,0.0,0.0,0.0,0.0,0.0,0.0,
1.7005910000000004,0.0,0.0,1009.0,1.125,885.0,840.0,0.0,0.0,3.7817378940000004,0.0020683332100510598,-0.0012207029999999897,-1009.0,0.625,-877.5,-840.0,0.0,0.0,1.926269334,0.0020620832104235884,0.0,1005.0,1.125,877.5,840.0,0.0,0.0,4.912108872,0.0020641665436327457,0.0,-998.0,1.25,-877.5,-840.0,0.0,0.0,2.9064938430000002,0.0020614582104608414,0.0012207029999999897,1.0299999713897705,1.8700000047683716,-0.18000000715255737,-0.0133056640625,-0.02935791015625,0.75250244140625,28.5,0.0,-37.0,0.295135498046875,0.0110015869140625,Waiting,0.0,0.0,0.0,0.0,0.0,0.0,0.0,0.0,
1.721429999999993,0.0,0.0,1009.0,1.125,885.0,840.0,0.0,0.0,3.77197227,0.0023441109302971106,0.0,-1009.0,0.625,-870.0,-840.0,0.0,0.0,1.926269334,0.0023370275975101527,-0.0012207029999995456,1005.0,1.0,877.5,840.0,0.0,0.0,4.912108872,0.0023393887084391385,0.0,-998.0,1.125,-877.5,-840.0,0.0,0.0,2.9064938430000002,0.002336319264231457,-0.0012207029999999897,1.090000033378601,1.850000023841858,-0.18000000715255737,-0.06219482421875,0.06097412109375,1.1156005859375,28.5,0.0,-98.0,0.302001953125,0.0113983154296875,Waiting,0.0,0.0,0.0,0.0,0.0,0.0,0.0,0.0,
1.7403169999999955,0.0,0.0,1009.0,1.125,877.5,840.0,0.0,0.0,3.773192973,0.0023441109302971106,0.0,-1009.0,0.625,-870.0,-840.0,0.0,0.0,1.926269334,0.0023370275975101527,-0.0012207029999995456,1005.0,1.125,870.0,840.0,0.0,0.0,4.912108872,0.0023393887084391385,0.0,-998.0,1.25,-877.5,-840.0,0.0,0.0,2.9028317340000003,0.002336319264231457,-0.0012207029999999897,1.1200000047683716,1.7699999809265137,-0.18000000715255737,-0.0087890625,0.00347900390625,1.12811279296875,28.5,0.0,-43.0,0.3053131103515625,0.011627197265625,Waiting,0.0,0.0,0.0,0.0,0.0,0.0,0.0,0.0,
1.7598629999999975,0.0,0.0,1151.0,1.125,877.5,840.0,0.0,0.0,3.7817378940000004,0.0023441109302971106,0.0,-1147.0,0.625,-870.0,-840.0,0.0,0.0,1.926269334,0.0023370275975101527,-0.0012207029999995456,1145.0,1.125,870.0,840.0,0.0,0.0,4.912108872,0.0023393887084391385,0.0,-1137.0,1.25,-870.0,-840.0,0.0,0.0,2.9064938430000002,0.002336319264231457,-0.0012207029999999897,1.059999942779541,1.7000000476837158,-0.1599999964237213,0.0394287109375,-0.002197265625,1.16668701171875,28.5,0.0,4.0,0.30859375,0.0118408203125,Waiting,0.0,0.0,0.0,0.0,0.0,0.0,0.0,0.0,
1.7795920000000043,0.0,0.0,1151.0,1.125,877.5,840.0,0.0,0.0,3.7817378940000004,0.0026198888560136167,4.962779297000001,-1147.0,0.75,-870.0,-840.0,0.0,0.0,1.926269334,0.0026119721894462904,0.0,1145.0,1.125,870.0,840.0,0.0,0.0,4.910888169000001,0.002614611078302066,-0.0012207029999995456,-1137.0,1.25,-862.5,-840.0,0.0,0.0,2.9028317340000003,0.002611180522789558,0.0,0.9599999785423279,1.75,-0.14000000059604645,0.035888671875,-0.0050048828125,0.77313232421875,28.5,0.0,12.0,0.30859375,0.0120086669921875,Waiting,0.0,0.0,0.0,0.0,0.0,0.0,0.0,0.0,
1.8007979999999952,0.0,0.0,1151.0,1.125,870.0,840.0,0.0,0.0,3.7792964880000004,0.002895666576259666,4.962779297000001,-1147.0,0.75,-862.5,-840.0,0.0,0.0,1.926269334,0.002886916576532854,0.0,1145.0,1.125,870.0,840.0,0.0,0.0,4.914550278,0.002889833243108458,-0.0012207029999995456,-1137.0,1.25,-862.5,-840.0,0.0,0.0,2.9064938430000002,0.0028860415765601726,0.0,1.0700000524520874,1.649999976158142,-0.12999999523162842,8.544921875E-4,0.01177978515625,1.2904052734375,28.5,0.0,-36.0,0.308502197265625,0.01239013671875,Waiting,0.0,0.0,0.0,0.0,0.0,0.0,0.0,0.0,
1.82087999999999,0.0,0.0,1151.0,1.125,870.0,840.0,0.0,0.0,3.7780757850000004,0.0030335555391179194,-4.961558594,-1147.0,0.75,-862.5,-840.0,0.0,0.0,1.926269334,0.003024388872500923,0.0,1145.0,1.125,862.5,840.0,0.0,0.0,4.913329575000001,0.0030274444280399214,0.0,-1137.0,1.375,-855.0,-840.0,0.0,0.0,2.9064938430000002,0.0030234722058392234,0.0,1.0800000429153442,1.6100000143051147,-0.11999999731779099,-0.02984619140625,0.1014404296875,1.25860595703125,28.5,0.0,-65.0,0.3083648681640625,0.01263427734375,Waiting,0.0,0.0,0.0,0.0,0.0,0.0,0.0,0.0,
1.8397139999999927,0.0,0.0,1151.0,1.125,870.0,840.0,0.0,0.0,3.7817378940000004,0.0034472221194869947,-4.961558594,-1147.0,0.75,-862.5,-840.0,0.0,0.0,1.932372849,0.0034368054531307684,0.0,1145.0,1.125,855.0,840.0,0.0,0.0,4.912108872,0.0034402776752495102,0.0,-1137.0,1.5,-855.0,-840.0,0.0,0.0,2.9064938430000002,0.0034357637864951456,0.0,0.9800000190734863,1.659999966621399,-0.10000000149011612,-0.01171875,-0.019287109375,0.73858642578125,28.5,0.0,-33.0,0.30816650390625,0.012908935546875,Waiting,0.0,0.0,0.0,0.0,0.0,0.0,0.0,0.0,
1.8608989999999903,0.0,0.0,1151.0,1.125,862.5,840.0,0.0,0.0,3.7817378940000004,0.0035851109796100206,-4.961558594,-1147.0,0.75,-847.5,-840.0,0.0,0.0,1.9250486310000001,0.003574277646674051,0.0,1145.0,1.375,847.5,840.0,0.0,0.0,4.913329575000001,0.0035778887576527075,0.0,-1137.0,1.5,-847.5,-840.0,0.0,0.0,2.910155952,0.003573194313380454,0.0,1.059999942779541,1.559999942779541,-0.07999999821186066,-0.0169677734375,0.0574951171875,1.31207275390625,28.5,0.0,-52.0,0.3076171875,0.0133819580078125,Waiting,0.0,0.0,0.0,0.0,0.0,0.0,0.0,0.0,
1.8809349999999976,0.0,0.0,1288.0,1.125,855.0,840.0000000000001,0.0,0.0,3.7817378940000004,0.0037229999424682725,0.0,-1284.0,0.75,-847.5,-840.0000000000001,0.0,0.0,1.927490037,0.003711749942642119,0.0,1278.0,1.375,847.5,840.0000000000001,0.0,0.0,4.914550278,0.00371549994258417,0.0,-1274.0,1.5,-847.5,-840.0000000000001,0.0,0.0,2.9064938430000002,0.003710624942659504,0.0,1.0399999618530273,1.5800000429153442,-0.07000000029802322,0.02203369140625,0.009033203125,1.04876708984375,28.5,0.0,-7.0,0.3072662353515625,0.013641357421875,Waiting,0.0,0.0,0.0,0.0,0.0,0.0,0.0,0.0,
1.8996209999999991,0.0,0.0,1288.0,1.125,855.0,839.9999999999999,0.0,0.0,3.7817378940000004,0.0038608888025912984,0.0,-1284.0,0.75,-847.5,-839.9999999999999,0.0,0.0,1.9165037100000002,0.0038492221361854017,0.0,1278.0,1.375,840.0,839.9999999999999,0.0,0.0,4.914550278,0.0038531110249873674,0.0,-1274.0,1.5,-847.5,-839.9999999999999,0.0,0.0,2.9089352490000002,0.003848055469544812,0.0,1.0299999713897705,1.6299999952316284,-0.07999999821186066,-0.02056884765625,-0.01959228515625,0.87646484375,28.5,0.0,-45.0,0.306884765625,0.0138702392578125,Waiting,0.0,0.0,0.0,0.0,0.0,0.0,0.0,0.0,
1.9211889999999985,0.0,0.0,1288.0,1.125,855.0,839.9999999999999,0.0,0.0,3.7854000030000003,0.0038608888025912984,-0.0012207029999999897,-1284.0,0.75,-847.5,-839.9999999999999,0.0,0.0,1.9250486310000001,0.0038492221361854017,0.0,1278.0,1.5,832.5,839.9999999999999,0.0,0.0,4.910888169000001,0.0038531110249873674,0.0012207029999995456,-1274.0,1.5,-840.0,-839.9999999999999,0.0,0.0,2.9077145460000002,0.003848055469544812,0.0012207029999999897,1.0,1.5199999809265137,-0.07000000029802322,0.080810546875,0.03729248046875,0.97406005859375,28.5,0.0,54.0,0.3060302734375,0.0143280029296875,Waiting,0.0,0.0,0.0,0.0,0.0,0.0,0.0,0.0,
1.9522829999999958,0.0,0.0,1288.0,1.125,855.0,839.9999999999999,0.0,0.0,3.7817378940000004,0.0038608888025912984,-0.0012207029999999897,-1284.0,0.75,-847.5,-839.9999999999999,0.0,0.0,1.926269334,0.0038492221361854017,0.0,1278.0,1.375,832.5,839.9999999999999,0.0,0.0,4.924315902,0.0038531110249873674,0.0012207029999995456,-1274.0,1.625,-840.0,-839.9999999999999,0.0,0.0,2.9064938430000002,0.003848055469544812,0.0012207029999999897,1.0,1.5700000524520874,-0.07000000029802322,-0.010986328125,0.0137939453125,0.83978271484375,28.5,0.0,-34.0,0.3056182861328125,0.0145721435546875,Waiting,0.0,0.0,0.0,0.0,0.0,0.0,0.0,0.0,
1.9702419999999983,0.0,0.0,1288.0,1.125,855.0,840.0,0.0,0.0,3.7817378940000004,0.003998777714081937,-0.0012207029999999897,-1284.0,1.0,-840.0,-840.0,0.0,0.0,1.926269334,0.003986694380941076,0.0,1278.0,1.375,840.0,840.0,0.0,0.0,4.912108872,0.0039907221586546965,-0.0012207029999995456,-1274.0,1.75,-840.0,-840.0,0.0,0.0,2.9040524370000003,0.00398548604762699,-0.0012207029999999897,1.0199999809265137,1.4299999475479126,-0.03999999910593033,0.03936767578125,0.03033447265625,0.97674560546875,28.5,0.0,14.0,0.30401611328125,0.015228271484375,Waiting,0.0,0.0,0.0,0.0,0.0,0.0,0.0,0.0,
1.9891560000000026,0.0,0.0,1288.0,1.125,855.0,840.0000000000001,0.0,0.0,3.7805171910000004,0.0042745554856956,0.0,-1284.0,1.0,-840.0,-840.0000000000001,0.0,0.0,1.926269334,0.0042616388192400325,0.0,1278.0,1.375,840.0,840.0000000000001,0.0,0.0,4.913329575000001,0.004265944374725222,-0.0012207029999995456,-1274.0,1.75,-840.0,-840.0000000000001,0.0,0.0,2.915038764,0.004260347152594476,-0.0012207029999999897,0.9800000190734863,1.5199999809265137,-0.029999999329447746,0.0111083984375,-0.01885986328125,0.5992431640625,28.5,0.0,-4.0,0.30401611328125,0.0154266357421875,Waiting,0.0,0.0,0.0,0.0,0.0,0.0,0.0,0.0,
2.0076429999999963,0.0,0.0,1425.0,1.125,855.0,840.0,0.0,0.0,3.7890621120000003,0.004412444371502434,0.0,-1420.0,1.0,-840.0,-840.0,0.0,0.0,1.926269334,0.004399111038389513,0.0,1416.0,1.375,847.5,840.0,0.0,0.0,4.913329575000001,0.004403555482760486,-0.0012207029999995456,-1408.0,1.75,-840.0,-840.0,0.0,0.0,2.9064938430000002,0.004397777705078221,-0.0012207029999999897,1.0,1.5199999809265137,-0.019999999552965164,-0.0772705078125,0.06573486328125,0.77740478515625,28.5,0.0,-97.0,0.3039398193359375,0.0156402587890625,Waiting,0.0,0.0,0.0,0.0,0.0,0.0,0.0,0.0,
2.028646999999997,0.0,0.0,1425.0,1.125,847.5,840.0,0.0,0.0,3.7817378940000004,0.004550333257309264,0.0,-1420.0,0.75,-840.0,-840.0,0.0,0.0,1.933593552,0.0045365832575389895,0.0,1416.0,1.375,855.0,840.0,0.0,0.0,4.910888169000001,0.004541166590795748,0.0012207029999995456,-1408.0,1.75,-832.5,-840.0,0.0,0.0,2.9064938430000002,0.004535208257561963,0.0,1.100000023841858,1.4199999570846558,-0.019999999552965164,0.0189208984375,-0.01654052734375,1.209716796875,28.5,0.0,-11.0,0.303802490234375,0.015869140625,Waiting,0.0,0.0,0.0,0.0,0.0,0.0,0.0,0.0,
2.045800000000003,0.0,0.0,1425.0,1.125,847.5,840.0,0.0,0.0,3.7805171910000004,0.004826111028922928,0.0,-1420.0,1.0,-840.0,-840.0,0.0,0.0,1.926269334,0.004811527695837947,0.0,1416.0,1.375,855.0,840.0,0.0,0.0,4.910888169000001,0.004816388806866274,0.0012207029999995456,-1408.0,1.75,-832.5,-840.0,0.0,0.0,2.9064938430000002,0.004810069362529449,0.0,1.1399999856948853,1.340000033378601,0.0,0.0078125,6.103515625E-4,1.46173095703125,28.5,0.0,-26.0,0.3036346435546875,0.016265869140625,Waiting,0.0,0.0,0.0,0.0,0.0,0.0,0.0,0.0,
2.0631070000000036,0.0,0.0,1425.0,1.25,840.0,840.0,0.0,0.0,3.7817378940000004,0.004826111028922928,0.0,-1420.0,1.0,-840.0,-840.0,0.0,0.0,1.9421384730000002,0.004811527695837947,0.0,1416.0,1.375,847.5,840.0,0.0,0.0,4.913329575000001,0.004816388806866274,0.0012207029999995456,-1408.0,1.75,-832.5,-840.0,0.0,0.0,2.9064938430000002,0.004810069362529449,0.0,1.0,1.440000057220459,0.009999999776482582,-0.06689453125,-0.00482177734375,0.63037109375,28.5,0.0,-82.0,0.3031768798828125,0.0165557861328125,Waiting,0.0,0.0,0.0,0.0,0.0,0.0,0.0,0.0,
2.0832249999999912,0.0,0.0,1425.0,1.25,840.0,840.0,0.0,0.0,3.7817378940000004,0.004963999914729761,0.0012207029999999897,-1420.0,1.0,-840.0,-840.0,0.0,0.0,1.9238279280000001,0.004948999914987426,0.0,1416.0,1.375,847.5,840.0,0.0,0.0,4.912108872,0.004953999914901537,0.0,-1408.0,1.75,-832.5,-840.0,0.0,0.0,2.9052731400000003,0.004947499915013192,0.0,0.9700000286102295,1.4600000381469727,0.019999999552965164,0.03350830078125,-0.1090087890625,0.47802734375,28.540000915527344,0.0,21.0,0.3028717041015625,0.0167388916015625,Waiting,0.0,0.0,0.0,0.0,0.0,0.0,0.0,0.0,
2.1000109999999985,0.0,0.0,1425.0,1.25,840.0,840.0,0.0,0.0,3.7805171910000004,0.005101888800536593,0.0012207029999999897,-1420.0,1.0,-840.0,-840.0,0.0,0.0,1.926269334,0.005086472134136905,0.0,1416.0,1.5,840.0,840.0,0.0,0.0,4.910888169000001,0.005091611022936801,0.0,-1408.0,1.75,-832.5,-840.0,0.0,0.0,2.9064938430000002,0.005084930467496937,0.0,1.0299999713897705,1.340000033378601,0.019999999552965164,0.03399658203125,0.02313232421875,1.17071533203125,28.540000915527344,0.0,6.0,0.3025970458984375,0.016845703125,Waiting,0.0,0.0,0.0,0.0,0.0,0.0,0.0,0.0,
2.121099000000002,0.0,0.0,1560.0,1.25,840.0,840.0,0.0,0.0,3.769530864,0.005101888800536593,0.0,-1553.0,1.0,-840.0,-840.0,0.0,0.0,1.926269334,0.005086472134136905,0.0,1548.0,1.5,832.5,840.0,0.0,0.0,4.912108872,0.005091611022936801,0.0,-1542.0,1.75,-832.5,-840.0,0.0,0.0,2.9064938430000002,0.005084930467496937,0.0,1.100000023841858,1.2899999618530273,0.029999999329447746,0.0029296875,-0.058837890625,1.06195068359375,28.540000915527344,0.0,-21.0,0.30181884765625,0.0172271728515625,Waiting,0.0,0.0,0.0,0.0,0.0,0.0,0.0,0.0,
2.1397069999999947,0.0,0.0,1560.0,1.25,840.0,840.0,0.0,0.0,3.7805171910000004,0.005239777686343426,0.0,-1553.0,1.0,-832.5,-840.0,0.0,0.0,1.926269334,0.005223944353286384,0.0,1548.0,1.5,825.0,840.0,0.0,0.0,4.913329575000001,0.005229222130972065,0.0,-1542.0,1.75,-832.5,-840.0,0.0,0.0,2.9064938430000002,0.00522236101998068,0.0,0.9800000190734863,1.350000023841858,0.03999999910593033,0.046875,-0.04248046875,0.5924072265625,28.540000915527344,0.0,32.0,0.3013916015625,0.0173187255859375,Waiting,0.0,0.0,0.0,0.0,0.0,0.0,0.0,0.0,
2.1626529999999913,0.0,0.0,1560.0,1.25,840.0,840.0,0.0,0.0,3.7792964880000004,0.005377666572150257,0.0,-1553.0,1.0,-832.5,-840.0,0.0,0.0,1.926269334,0.0053614165724358625,0.0,1548.0,1.5,825.0,840.0,0.0,0.0,4.914550278,0.0053668332390073275,0.0,-1542.0,1.75,-832.5,-840.0,0.0,0.0,2.9064938430000002,0.005359791572464423,0.0,0.9300000071525574,1.3200000524520874,0.05000000074505806,0.05169677734375,0.04351806640625,0.77032470703125,28.540000915527344,0.0,33.0,0.301025390625,0.0174102783203125,Waiting,0.0,0.0,0.0,0.0,0.0,0.0,0.0,0.0,
2.182107000000004,0.0,0.0,1560.0,1.25,847.5,840.0,0.0,0.0,3.7805171910000004,0.005515555483640897,-0.0012207029999999897,-1553.0,1.0,-832.5,-840.0,0.0,0.0,1.926269334,0.005498888817191538,0.0,1548.0,1.5,825.0,840.0,0.0,0.0,4.913329575000001,0.005504444372674658,0.0,-1542.0,1.75,-840.0,-840.0,0.0,0.0,2.9052731400000003,0.0054972221505466025,0.0,1.1100000143051147,1.2100000381469727,0.05000000074505806,-0.050048828125,-0.01470947265625,1.29510498046875,28.540000915527344,0.0,-77.0,0.30023193359375,0.0176544189453125,Waiting,0.0,0.0,0.0,0.0,0.0,0.0,0.0,0.0,
2.199824999999997,0.0,0.0,1560.0,1.25,847.5,840.0,0.0,0.0,3.7817378940000004,0.005515555483640897,-0.0012207029999999897,-1553.0,1.0,-825.0,-840.0,0.0,0.0,1.9250486310000001,0.005498888817191538,0.0,1548.0,1.5,832.5,840.0,0.0,0.0,4.913329575000001,0.005504444372674658,0.0,-1542.0,1.75,-832.5,-840.0,0.0,0.0,2.9064938430000002,0.0054972221505466025,0.0,1.059999942779541,1.1799999475479126,0.05999999865889549,-0.03570556640625,0.013427734375,1.1304931640625,28.540000915527344,0.0,-59.0,0.299713134765625,0.0177459716796875,Waiting,0.0,0.0,0.0,0.0,0.0,0.0,0.0,0.0,
2.2205310000000025,0.0,0.0,1560.0,1.25,847.5,840.0,0.0,0.0,3.7817378940000004,0.0056534443437639215,-0.0012207029999999897,-1553.0,1.0,-825.0,-840.0,0.0,0.0,1.926269334,0.00563636101073482,0.0,1548.0,1.5,832.5,840.0,0.0,0.0,4.912108872,0.005642055455077854,0.0,-1542.0,1.75,-832.5,-840.0,0.0,0.0,2.913818061,0.00563465267743191,0.0,0.9700000286102295,1.2100000381469727,0.07000000029802322,0.10009765625,0.0264892578125,0.83135986328125,28.540000915527344,0.0,82.0,0.2992095947265625,0.0177459716796875,Waiting,0.0,0.0,0.0,0.0,0.0,0.0,0.0,0.0,
2.2392850000000033,0.0,0.0,1696.0,1.25,847.5,840.0,0.0,0.0,3.77197227,0.0056534443437639215,0.0,-1686.0,1.0,-825.0,-840.0,0.0,0.0,1.926269334,0.00563636101073482,0.0,1682.0,1.75,832.5,840.0,0.0,0.0,4.913329575000001,0.005642055455077854,0.0,-1676.0,1.75,-832.5,-840.0,0.0,0.0,2.8991696250000003,0.00563465267743191,0.0,1.0,1.25,0.05000000074505806,-0.04144287109375,-0.00213623046875,0.879638671875,28.540000915527344,0.0,-60.0,0.2982940673828125,0.0177459716796875,Waiting,0.0,0.0,0.0,0.0,0.0,0.0,0.0,0.0,
2.260375,0.0,0.0,1696.0,1.125,847.5,840.0,0.0,0.0,3.7805171910000004,0.005515555483640897,0.0,-1686.0,1.125,-832.5,-840.0,0.0,0.0,1.931152146,0.005498888817191538,0.0,1682.0,1.5,840.0,840.0,0.0,0.0,4.912108872,0.005504444372674658,0.0,-1676.0,1.75,-832.5,-840.0,0.0,0.0,2.9077145460000002,0.0054972221505466025,0.0,1.0399999618530273,1.1699999570846558,0.05000000074505806,0.010009765625,0.08636474609375,1.226318359375,28.540000915527344,0.0,-15.0,0.2977752685546875,0.0177764892578125,Waiting,0.0,0.0,0.0,0.0,0.0,0.0,0.0,0.0,
2.280558999999994,0.0,0.0,1696.0,1.125,847.5,840.0,0.0,0.0,3.77197227,0.005515555483640897,0.0,-1686.0,1.125,-832.5,-840.0,0.0,0.0,1.926269334,0.005498888817191538,0.0,1682.0,1.5,832.5,840.0,0.0,0.0,4.913329575000001,0.005504444372674658,-0.0012207029999995456,-1676.0,1.75,-832.5,-840.0,0.0,0.0,2.9064938430000002,0.0054972221505466025,0.0012207029999999897,1.0800000429153442,1.100000023841858,0.05000000074505806,0.00933837890625,0.10345458984375,1.456298828125,28.540000915527344,0.0,-18.0,0.2972259521484375,0.017913818359375,Waiting,0.0,0.0,0.0,0.0,0.0,0.0,0.0,0.0,
2.2995219999999974,0.0,0.0,1696.0,1.125,847.5,840.0,0.0,0.0,3.7854000030000003,0.005515555483640897,0.0,-1686.0,1.125,-825.0,-840.0,0.0,0.0,1.926269334,0.005498888817191538,0.0,1682.0,1.75,832.5,840.0,0.0,0.0,4.912108872,0.005504444372674658,-0.0012207029999995456,-1676.0,1.75,-832.5,-840.0,0.0,0.0,2.9040524370000003,0.0054972221505466025,0.0012207029999999897,0.9700000286102295,1.2599999904632568,0.05999999865889549,0.03118896484375,-0.08770751953125,0.393310546875,28.540000915527344,0.0,22.0,0.2960662841796875,0.0182647705078125,Waiting,0.0,0.0,0.0,0.0,0.0,0.0,0.0,0.0,
2.3205789999999977,0.0,0.0,1696.0,1.125,847.5,840.0,0.0,0.0,3.7890621120000003,0.0056534443437639215,0.0,-1686.0,1.125,-825.0,-840.0,0.0,0.0,1.9250486310000001,0.00563636101073482,0.0,1682.0,2.0,825.0,840.0,0.0,0.0,4.910888169000001,0.005642055455077854,0.0,-1676.0,1.75,-832.5,-840.0,0.0,0.0,2.9089352490000002,0.00563465267743191,0.0,1.0199999809265137,1.090000033378601,0.05999999865889549,0.03759765625,0.05712890625,1.1719970703125,28.540000915527344,0.0,15.0,0.2955169677734375,0.01837158203125,Waiting,0.0,0.0,0.0,0.0,0.0,0.0,0.0,0.0,
2.3399909999999946,0.0,0.0,1696.0,1.25,847.5,840.0,0.0,0.0,3.7805171910000004,0.0056534443437639215,0.0,-1686.0,1.125,-825.0,-840.0,0.0,0.0,1.926269334,0.00563636101073482,0.0,1682.0,2.0,825.0,840.0,0.0,0.0,4.912108872,0.005642055455077854,0.0,-1676.0,1.75,-832.5,-840.0,0.0,0.0,2.9064938430000002,0.00563465267743191,0.0,1.100000023841858,1.0,0.07999999821186066,-0.03717041015625,0.1087646484375,1.64581298828125,28.540000915527344,0.0,-65.0,0.294921875,0.0185699462890625,Waiting,0.0,0.0,0.0,0.0,0.0,0.0,0.0,0.0,
2.3644360000000013,0.0,0.0,1830.0,1.25,840.0,840.0,0.0,0.0,3.7805171910000004,0.005929222115377586,0.0,-1820.0,1.125,-825.0,-840.0,0.0,0.0,1.926269334,0.005911305449033777,0.0,1815.0,2.0,817.5,840.0,0.0,0.0,4.912108872,0.005917277671148379,0.0,-1809.0,1.75,-825.0,-840.0,0.0,0.0,2.9064938430000002,0.005909513782399396,0.0,1.0199999809265137,1.1699999570846558,0.10000000149011612,-0.02899169921875,-0.0213623046875,0.6617431640625,28.540000915527344,0.0,-42.0,0.2936553955078125,0.019195556640625,Waiting,0.0,0.0,0.0,0.0,0.0,0.0,0.0,0.0,
2.384001999999993,0.0,0.0,1830.0,1.25,832.5,840.0,0.0,0.0,3.7463375070000002,0.006067111078235839,0.0012207029999999897,-1820.0,1.125,-825.0,-840.0,0.0,0.0,1.9250486310000001,0.006048777745001846,0.0,1815.0,2.0,817.5,840.0,0.0,0.0,4.912108872,0.006054888856079843,0.0,-1809.0,1.75,-832.5,-840.0,0.0,0.0,2.9064938430000002,0.006046944411678447,-0.0012207029999999897,0.9700000286102295,1.1699999570846558,0.09000000357627869,0.00714111328125,-0.07891845703125,0.55316162109375,28.540000915527344,0.0,-4.0,0.2929840087890625,0.0194244384765625,Waiting,0.0,0.0,0.0,0.0,0.0,0.0,0.0,0.0,
2.403205999999991,0.0,0.0,1830.0,1.25,832.5,840.0,0.0,0.0,3.7854000030000003,0.006067111078235839,0.0012207029999999897,-1820.0,1.125,-825.0,-840.0,0.0,0.0,1.926269334,0.006048777745001846,0.0,1815.0,2.0,817.5,840.0,0.0,0.0,4.910888169000001,0.006054888856079843,0.0,-1809.0,1.75,-832.5,-840.0,0.0,0.0,2.9064938430000002,0.006046944411678447,-0.0012207029999999897,1.0299999713897705,1.149999976158142,0.09000000357627869,0.111572265625,0.02520751953125,0.99932861328125,28.540000915527344,0.0,91.0,0.2923583984375,0.0196075439453125,Waiting,0.0,0.0,0.0,0.0,0.0,0.0,0.0,0.0,
2.420777999999991,0.0,0.0,1830.0,1.25,832.5,840.0,0.0,0.0,3.7902828150000003,0.006067111078235839,0.0012207029999999897,-1820.0,1.125,-825.0,-840.0,0.0,0.0,1.926269334,0.006048777745001846,0.0,1815.0,2.0,817.5,840.0,0.0,0.0,4.912108872,0.006054888856079843,0.0012207029999995456,-1809.0,1.875,-832.5,-840.0,0.0,0.0,2.9064938430000002,0.006046944411678447,0.0012207029999999897,1.1100000143051147,1.0299999713897705,0.07999999821186066,-0.04217529296875,0.07891845703125,1.54412841796875,28.540000915527344,0.0,-70.0,0.2917633056640625,0.01983642578125,Waiting,0.0,0.0,0.0,0.0,0.0,0.0,0.0,0.0,
2.4410420000000013,0.0,0.0,1830.0,1.375,832.5,840.0,0.0,0.0,3.7805171910000004,0.005929222115377586,-0.0012207029999999897,-1820.0,1.125,-825.0,-840.0,0.0,0.0,1.926269334,0.005911305449033777,0.0,1815.0,2.0,825.0,840.0,0.0,0.0,4.910888169000001,0.005917277671148379,0.0012207029999995456,-1809.0,1.875,-832.5,-840.0,0.0,0.0,2.9064938430000002,0.005909513782399396,0.0012207029999999897,1.100000023841858,1.0199999809265137,0.09000000357627869,-0.01715087890625,0.0791015625,1.22113037109375,28.540000915527344,0.0,-38.0,0.2910919189453125,0.0201263427734375,Waiting,0.0,0.0,0.0,0.0,0.0,0.0,0.0,0.0,
2.460224000000002,0.0,0.0,1830.0,1.25,840.0,840.0,0.0,0.0,3.7768550820000004,0.006067111078235839,-0.0012207029999999897,-1820.0,1.125,-832.5,-840.0,0.0,0.0,1.926269334,0.006048777745001846,0.0,1815.0,2.0,825.0,840.0,0.0,0.0,4.910888169000001,0.006054888856079843,0.0012207029999995456,-1809.0,1.875,-832.5,-840.0,0.0,0.0,2.9064938430000002,0.006046944411678447,0.0012207029999999897,1.0399999618530273,1.090000033378601,0.10000000149011612,0.02679443359375,0.00714111328125,0.80950927734375,28.540000915527344,0.0,11.0,0.289764404296875,0.020721435546875,Waiting,0.0,0.0,0.0,0.0,0.0,0.0,0.0,0.0,
2.4809569999999947,0.0,0.0,1965.0,1.25,840.0,840.0,0.0,0.0,3.7817378940000004,0.006204999938358865,0.0012207029999999897,-1952.0,1.125,-825.0,-840.0,0.0,0.0,1.9250486310000001,0.006186249938545128,0.0,1949.0,1.75,832.5,840.0,0.0,0.0,4.910888169000001,0.00619249993848304,0.0,-1943.0,2.0,-832.5,-840.0,0.0,0.0,2.9064938430000002,0.006184374938563755,-0.0012207029999999897,1.0399999618530273,1.100000023841858,0.10000000149011612,-0.0054931640625,-0.04241943359375,0.72540283203125,28.540000915527344,0.0,-19.0,0.289764404296875,0.0209503173828125,Waiting,0.0,0.0,0.0,0.0,0.0,0.0,0.0,0.0,
2.4998389999999926,0.0,0.0,1965.0,1.25,840.0,840.0,0.0,0.0,3.7805171910000004,0.006204999938358865,0.0012207029999999897,-1952.0,1.125,-825.0,-840.0,0.0,0.0,1.926269334,0.006186249938545128,0.0,1949.0,1.75,832.5,840.0,0.0,0.0,4.913329575000001,0.00619249993848304,0.0,-1943.0,1.875,-825.0,-840.0,0.0,0.0,2.9052731400000003,0.006184374938563755,-0.0012207029999999897,1.0299999713897705,1.0800000429153442,0.10999999940395355,-0.04638671875,-0.011962890625,1.05230712890625,28.540000915527344,0.0,-66.0,0.2897186279296875,0.0211334228515625,Waiting,0.0,0.0,0.0,0.0,0.0,0.0,0.0,0.0,
2.520001999999993,0.0,0.0,1965.0,1.25,832.5,840.0000000000001,0.0,0.0,3.7817378940000004,0.006342888798481889,0.0012207029999999897,-1952.0,1.125,-825.0,-840.0000000000001,0.0,0.0,1.926269334,0.006323722132088409,0.0,1949.0,1.75,840.0,840.0000000000001,0.0,0.0,4.910888169000001,0.006330111020886236,0.0,-1943.0,2.0,-825.0,-840.0000000000001,0.0,0.0,2.9064938430000002,0.006321805465449062,0.0012207029999999897,1.1100000143051147,0.9800000190734863,0.14000000059604645,0.0335693359375,0.0205078125,1.236572265625,28.540000915527344,0.0,12.0,0.2896270751953125,0.0217437744140625,Waiting,0.0,0.0,0.0,0.0,0.0,0.0,0.0,0.0,
2.5398169999999953,0.0,0.0,1965.0,1.25,832.5,840.0,0.0,0.0,3.7805171910000004,0.00675655548158619,-0.0012207029999999897,-1952.0,1.25,-825.0,-840.0,0.0,0.0,1.9250486310000001,0.00673613881514304,0.0,1949.0,2.0,840.0,840.0,0.0,0.0,4.912108872,0.00674294437062409,0.0,-1943.0,1.875,-825.0,-840.0,0.0,0.0,2.9064938430000002,0.006734097148498725,0.0012207029999999897,0.9800000190734863,1.1200000047683716,0.1599999964237213,-0.06524658203125,-0.03759765625,0.57861328125,28.540000915527344,0.0,-76.0,0.28955078125,0.022064208984375,Waiting,0.0,0.0,0.0,0.0,0.0,0.0,0.0,0.0,
2.560097999999998,0.0,0.0,1965.0,1.375,832.5,840.0,0.0,0.0,3.7805171910000004,0.007032333201832242,-0.0012207029999999897,-1952.0,1.25,-825.0,-840.0,0.0,0.0,1.926269334,0.007011083202229605,0.0,1949.0,2.0,840.0,840.0,0.0,0.0,4.912108872,0.007018166535430484,0.0,-1943.0,2.0,-825.0,-840.0,0.0,0.0,2.9064938430000002,0.007008958202269342,0.0012207029999999897,0.949999988079071,1.1200000047683716,0.17000000178813934,0.0372314453125,-0.02545166015625,0.53338623046875,28.540000915527344,0.0,26.0,0.289459228515625,0.0223388671875,Waiting,0.0,0.0,0.0,0.0,0.0,0.0,0.0,0.0,
2.580428,0.0,0.0,1965.0,1.375,832.5,839.9999999999999,0.0,0.0,3.762206646,0.007170222164690495,0.0,-1952.0,1.25,-832.5,-839.9999999999999,0.0,0.0,1.926269334,0.007148555498197674,0.0012207029999995456,1949.0,1.75,832.5,839.9999999999999,0.0,0.0,4.912108872,0.007155777720361948,0.0,-1943.0,2.0,-825.0,-839.9999999999999,0.0,0.0,2.9064938430000002,0.007146388831548393,-0.0012207029999999897,1.1100000143051147,0.9300000071525574,0.17000000178813934,-0.03875732421875,0.0723876953125,1.47625732421875,28.540000915527344,0.0,-62.0,0.2893524169921875,0.022918701171875,Waiting,0.0,0.0,0.0,0.0,0.0,0.0,0.0,0.0,
2.6000339999999995,0.0,0.0,2099.0,1.375,832.5,839.9999999999999,0.0,0.0,3.7805171910000004,0.007170222164690495,0.0,-2086.0,1.125,-832.5,-839.9999999999999,0.0,0.0,1.9250486310000001,0.007148555498197674,0.0012207029999995456,2081.0,2.0,832.5,839.9999999999999,0.0,0.0,4.910888169000001,0.007155777720361948,0.0,-2076.0,2.0,-832.5,-839.9999999999999,0.0,0.0,2.9040524370000003,0.007146388831548393,-0.0012207029999999897,1.0499999523162842,1.0299999713897705,0.17000000178813934,0.0081787109375,0.0419921875,1.031005859375,28.559999465942383,0.0,-10.0,0.28924560546875,0.0233001708984375,Waiting,0.0,0.0,0.0,0.0,0.0,0.0,0.0,0.0,
2.621884999999995,0.0,0.0,2099.0,1.375,832.5,839.9999999999999,0.0,0.0,3.7817378940000004,0.007170222164690495,0.0,-2086.0,1.125,-832.5,-839.9999999999999,0.0,0.0,1.9250486310000001,0.007148555498197674,-0.0012207029999995456,2081.0,2.0,825.0,839.9999999999999,0.0,0.0,4.910888169000001,0.007155777720361948,0.0,-2076.0,2.0,-832.5,-839.9999999999999,0.0,0.0,2.9064938430000002,0.007146388831548393,0.0012207029999999897,0.9399999976158142,1.0299999713897705,0.17000000178813934,-0.00543212890625,-0.01983642578125,0.598388671875,28.559999465942383,0.0,-16.0,0.2889251708984375,0.0241546630859375,Waiting,0.0,0.0,0.0,0.0,0.0,0.0,0.0,0.0,
2.640050000000003,0.0,0.0,2099.0,1.375,832.5,839.9999999999999,0.0,0.0,3.7805171910000004,0.007170222164690495,0.0,-2086.0,1.25,-832.5,-839.9999999999999,0.0,0.0,1.926269334,0.007148555498197674,-0.0012207029999995456,2081.0,2.0,825.0,839.9999999999999,0.0,0.0,4.912108872,0.007155777720361948,0.0,-2076.0,2.0,-832.5,-839.9999999999999,0.0,0.0,2.9077145460000002,0.007146388831548393,0.0012207029999999897,0.9900000095367432,1.0199999809265137,0.17000000178813934,0.09063720703125,-0.0186767578125,0.99639892578125,28.559999465942383,0.0,72.0,0.2887725830078125,0.024566650390625,Waiting,0.0,0.0,0.0,0.0,0.0,0.0,0.0,0.0,
2.6609459999999965,0.0,0.0,2099.0,1.375,832.5,839.9999999999999,0.0,0.0,3.7805171910000004,0.007170222164690495,0.0,-2086.0,1.25,-840.0,-839.9999999999999,0.0,0.0,1.926269334,0.007148555498197674,-0.0012207029999995456,2081.0,2.0,832.5,839.9999999999999,0.0,0.0,4.910888169000001,0.007155777720361948,0.0,-2076.0,2.0,-832.5,-839.9999999999999,0.0,0.0,2.9064938430000002,0.007146388831548393,0.0012207029999999897,1.100000023841858,0.9399999976158142,0.1599999964237213,0.01397705078125,0.072998046875,1.5531005859375,28.559999465942383,0.0,-11.0,0.2886810302734375,0.02496337890625,Waiting,0.0,0.0,0.0,0.0,0.0,0.0,0.0,0.0,
2.6806830000000046,0.0,0.0,2099.0,1.25,832.5,840.0,0.0,0.0,3.7829585970000004,0.007032333201832242,0.0,-2086.0,1.125,-840.0,-840.0,0.0,0.0,1.933593552,0.007011083202229605,0.0,2081.0,1.75,840.0,840.0,0.0,0.0,4.909667466,0.007018166535430484,0.0,-2076.0,1.875,-832.5,-840.0,0.0,0.0,2.9064938430000002,0.007008958202269342,0.0,1.059999942779541,0.9599999785423279,0.1599999964237213,-0.06072998046875,0.0631103515625,1.23883056640625,28.559999465942383,0.0,-81.0,0.28851318359375,0.025421142578125,Waiting,0.0,0.0,0.0,0.0,0.0,0.0,0.0,0.0,
2.700095000000001,0.0,0.0,2099.0,1.25,840.0,840.0,0.0,0.0,3.7780757850000004,0.007032333201832242,0.0,-2086.0,1.125,-840.0,-840.0,0.0,0.0,1.926269334,0.007011083202229605,0.0,2081.0,1.75,840.0,840.0,0.0,0.0,4.910888169000001,0.007018166535430484,0.0,-2076.0,1.875,-832.5,-840.0,0.0,0.0,2.8967282190000003,0.007008958202269342,0.0,0.9900000095367432,1.0,0.15000000596046448,0.06695556640625,-0.0377197265625,0.76153564453125,28.559999465942383,0.0,53.0,0.2880706787109375,0.0263671875,Waiting,0.0,0.0,0.0,0.0,0.0,0.0,0.0,0.0,
2.720206999999995,0.0,0.0,2234.0,1.25,840.0,840.0,0.0,0.0,3.7817378940000004,0.006894444444444445,0.0,-2222.0,1.125,-840.0,-840.0,0.0,0.0,1.9250486310000001,0.006873611111111111,0.0012207029999995456,2219.0,1.5,847.5,840.0,0.0,0.0,4.912108872,0.0068805555555555556,-0.0012207029999995456,-2210.0,2.0,-832.5,-840.0,0.0,0.0,2.9064938430000002,0.006871527777777778,-0.0012207029999999897,1.0700000524520874,0.8700000047683716,0.15000000596046448,-0.0130615234375,0.03076171875,1.3863525390625,28.559999465942383,0.0,-34.0,0.2878875732421875,0.0267791748046875,Waiting,0.0,0.0,0.0,0.0,0.0,0.0,0.0,0.0,
2.740275999999998,0.0,0.0,2234.0,1.25,847.5,840.0,0.0,0.0,3.7817378940000004,0.006894444444444445,0.0012207029999999897,-2222.0,1.125,-840.0,-840.0,0.0,0.0,1.926269334,0.006873611111111111,0.0012207029999995456,2219.0,1.5,847.5,840.0,0.0,0.0,4.909667466,0.0068805555555555556,-0.0012207029999995456,-2210.0,1.875,-840.0,-840.0,0.0,0.0,2.9052731400000003,0.006871527777777778,-0.0012207029999999897,1.059999942779541,0.9200000166893005,0.14000000059604645,-0.0484619140625,0.00946044921875,1.12213134765625,28.559999465942383,0.0,-66.0,0.287628173828125,0.027191162109375,Waiting,0.0,0.0,0.0,0.0,0.0,0.0,0.0,0.0,
2.759773000000001,0.0,0.0,2234.0,1.25,847.5,840.0,0.0,0.0,3.7805171910000004,0.00675655548158619,0.0012207029999999897,-2222.0,1.125,-840.0,-840.0,0.0,0.0,1.926269334,0.00673613881514304,0.0012207029999995456,2219.0,1.5,855.0,840.0,0.0,0.0,4.910888169000001,0.00674294437062409,-0.0012207029999995456,-2210.0,1.875,-840.0,-840.0,0.0,0.0,2.9064938430000002,0.006734097148498725,-0.0012207029999999897,0.9900000095367432,0.9700000286102295,0.14000000059604645,0.07891845703125,0.00811767578125,0.88983154296875,28.559999465942383,0.0,63.0,0.287078857421875,0.028045654296875,Waiting,0.0,0.0,0.0,0.0,0.0,0.0,0.0,0.0,
2.7803589999999967,0.0,0.0,2234.0,1.25,847.5,840.0,0.0,0.0,3.7426753980000003,0.00675655548158619,-0.0012207029999999897,-2222.0,1.125,-840.0,-840.0,0.0,0.0,1.927490037,0.00673613881514304,-0.0012207029999995456,2219.0,1.5,862.5,840.0,0.0,0.0,4.912108872,0.00674294437062409,0.0012207029999995456,-2210.0,2.0,-840.0,-840.0,0.0,0.0,2.9064938430000002,0.006734097148498725,0.0,1.0299999713897705,0.9700000286102295,0.12999999523162842,-0.0821533203125,0.01605224609375,0.93768310546875,28.559999465942383,0.0,-98.0,0.28680419921875,0.0284881591796875,Waiting,0.0,0.0,0.0,0.0,0.0,0.0,0.0,0.0,
2.799959999999992,0.0,0.0,2234.0,1.25,840.0,840.0,0.0,0.0,3.7805171910000004,0.0066186665187279396,-0.0012207029999999897,-2222.0,1.125,-840.0,-840.0,0.0,0.0,1.926269334,0.006598666519174973,-0.0012207029999995456,2219.0,1.5,862.5,840.0,0.0,0.0,4.914550278,0.006605333185692629,0.0012207029999995456,-2210.0,1.875,-840.0,-840.0,0.0,0.0,2.9064938430000002,0.006596666519219677,0.0,1.0299999713897705,0.8700000047683716,0.12999999523162842,0.08294677734375,0.030517578125,1.261474609375,28.559999465942383,0.0,63.0,0.2860870361328125,0.0292510986328125,Waiting,0.0,0.0,0.0,0.0,0.0,0.0,0.0,0.0,
2.8195149999999995,0.0,0.0,2234.0,1.25,840.0,840.0,0.0,0.0,3.7817378940000004,0.0066186665187279396,-0.0012207029999999897,-2222.0,1.125,-840.0,-840.0,0.0,0.0,1.9250486310000001,0.006598666519174973,0.0,2219.0,1.5,855.0,840.0,0.0,0.0,4.910888169000001,0.006605333185692629,0.0,-2210.0,1.875,-840.0,-840.0,0.0,0.0,2.9077145460000002,0.006596666519219677,0.0,0.9599999785423279,0.9200000166893005,0.12999999523162842,-0.02001953125,0.09716796875,0.88848876953125,28.559999465942383,0.0,-34.0,0.2857513427734375,0.0296783447265625,Waiting,0.0,0.0,0.0,0.0,0.0,0.0,0.0,0.0,
2.840380999999994,0.0,0.0,2368.0,1.25,840.0,840.0,0.0,0.0,3.7805171910000004,0.0066186665187279396,0.0,-2355.0,1.25,-840.0,-840.0,0.0,0.0,1.926269334,0.006598666519174973,0.0,2355.0,1.5,847.5,840.0,0.0,0.0,4.912108872,0.006605333185692629,0.0,-2346.0,2.0,-840.0,-840.0,0.0,0.0,2.9064938430000002,0.006596666519219677,0.0,1.0199999809265137,0.9300000071525574,0.12999999523162842,-0.02056884765625,-0.001708984375,0.8128662109375,28.559999465942383,0.0,-33.0,0.2853851318359375,0.0301666259765625,Waiting,0.0,0.0,0.0,0.0,0.0,0.0,0.0,0.0,
2.859629000000001,0.0,0.0,2368.0,1.25,840.0,840.0,0.0,0.0,3.769530864,0.0066186665187279396,0.0,-2355.0,1.25,-840.0,-840.0,0.0,0.0,1.9250486310000001,0.006598666519174973,0.0,2355.0,1.5,847.5,840.0,0.0,0.0,4.912108872,0.006605333185692629,0.0,-2346.0,1.875,-840.0,-840.0,0.0,0.0,2.9064938430000002,0.006596666519219677,0.0,1.0299999713897705,0.8100000023841858,0.12999999523162842,0.1148681640625,-0.0283203125,1.07623291015625,28.559999465942383,0.0,99.0,0.2846221923828125,0.031005859375,Waiting,0.0,0.0,0.0,0.0,0.0,0.0,0.0,0.0,
