Time,ClimberA1,ClimberA2,FRpos,FRCurrent,FRspeed,FRsetpoint,FRApos,FRACurrent,FREncpos,FREncSetpoint,FREncSpeed,FLpos,FLCurrent,FLspeed,FLsetpoint,FLApos,FLACurrent,FLEncpos,FLEncSetpoint,FLEncSpeed,BRpos,BRCurrent,BRspeed,BRsetpoint,BRApos,BRACurrent,BREncpos,BREncSetpoint,BREncSpeed,BLpos,BLCurrent,BLspeed,BLsetpoint,BLApos,BLACurrent,BLEncpos,BLEncSetpoint,BLEncSpeed,navx_Pitch,navx_Roll,navx_Yaw,navx_XAcc,navx_YAcc,navx_ZAcc,navx_Temp,navx_Bar,navx_Alt,navx_XDis,navx_YDis,GearPlacerState,ShootOutputV,ShootOutputCurrent,ShootEncPos,ShootEncVelocity,ShootSpeed,ShootSetpoint,CarouselSetpoint,CarouselCurrent,
0.47349599999998465,0.0,0.0,4.0,0.0,0.0,0.0,0.0,0.375,3.758544537,0.0,0.0,0.0,0.0,0.0,0.0,0.0,0.0,1.9213865220000002,0.0,0.0,0.0,0.0,0.0,0.0,0.0,0.0,4.9157709810000005,0.0,0.0,-1.0,0.0,0.0,0.0,0.0,0.0,2.857665723,0.0,0.0,1.2300000190734863,0.10000000149011612,-1.350000023841858,0.0030517578125,0.0218505859375,1.005859375,31.459999084472656,0.0,1.0,0.019073486328125,-0.0072021484375,Waiting,0.0,0.0,0.0,0.0,0.0,0.0,0.0,0.0,
0.5297189999999827,0.0,0.0,4.0,0.0,0.0,840.0,0.0,0.375,3.765868755,0.0,0.13671873599999973,0.0,0.0,0.0,-840.0,0.0,0.0,1.9213865220000002,0.0,0.0,0.0,0.0,0.0,840.0,0.0,0.0,4.914550278,0.0,0.0,-1.0,0.0,0.0,-840.0,0.0,0.0,2.857665723,0.0,0.0,1.2300000190734863,0.10999999940395355,-1.350000023841858,0.00274658203125,0.0206298828125,1.010009765625,31.459999084472656,0.0,0.0,0.019073486328125,-0.0072021484375,Waiting,0.0,0.0,0.0,0.0,0.0,0.0,0.0,0.0,
0.5504510000000009,0.0,0.0,4.0,0.625,0.0,840.0,0.0,0.125,3.768310161,0.0,0.13671873599999973,0.0,0.5,0.0,-840.0,0.0,0.0,1.9226072250000001,0.0,0.0,0.0,0.125,0.0,840.0,0.0,0.0,4.916991684,0.0,0.0,-1.0,0.125,0.0,-840.0,0.0,0.0,2.857665723,0.0,0.0,1.2300000190734863,0.10999999940395355,-1.350000023841858,0.004150390625,0.02264404296875,1.00115966796875,31.459999084472656,0.0,2.0,0.019073486328125,-0.0072021484375,Waiting,0.0,0.0,0.0,0.0,0.0,0.0,0.0,0.0,
0.572070000000007,0.0,0.0,4.0,1.375,22.5,840.0,0.0,0.125,3.762206646,0.0,0.003662109000000413,0.0,1.125,-7.5,-840.0,0.0,0.0,1.9177244130000002,0.0,0.0,0.0,1.375,0.0,840.0,0.0,0.0,4.916991684,0.0,0.0,-1.0,0.5,-7.5,-840.0,0.0,0.0,2.860107129,0.0,0.0,1.2300000190734863,0.11999999731779099,-1.350000023841858,0.00433349609375,0.0142822265625,0.99267578125,31.459999084472656,0.0,2.0,0.019073486328125,-0.0072021484375,Waiting,0.0,0.0,0.0,0.0,0.0,0.0,0.0,0.0,
0.5945430000000052,0.0,0.0,4.0,2.125,82.5,840.0,0.0,0.125,3.758544537,0.0,0.003662109000000413,0.0,1.875,-60.0,-840.0,0.0,0.0,1.9213865220000002,0.0,0.0,0.0,2.0,37.5,840.0,0.0,0.0,4.9206537930000005,0.0,0.0,-1.0,1.25,-75.0,-840.0,0.0,0.0,2.858886426,0.0,0.0,1.2300000190734863,0.14000000059604645,-1.3600000143051147,0.1068115234375,-0.008544921875,1.10833740234375,31.459999084472656,0.0,159.0,0.0194091796875,-0.007232666015625,Waiting,0.0,0.0,0.0,0.0,0.0,0.0,0.0,0.0,
0.616377999999997,0.0,0.0,4.0,2.75,165.0,840.0,0.0,0.125,3.756103131,4.963586333727837,-0.008544921000000372,0.0,2.875,-135.0,-840.0,0.0,0.0,1.9226072250000001,4.948587583726645,0.0,0.0,3.25,165.0,840.0,0.0,0.0,4.9157709810000005,4.953587167060375,0.0,-1.0,1.75,-120.0,-840.0,0.0,0.0,2.857665723,4.947087708726525,0.0,1.2000000476837158,0.4699999988079071,-1.4199999570846558,0.04852294921875,0.06072998046875,1.10919189453125,31.459999084472656,0.0,38.0,0.0197906494140625,-0.0072479248046875,Waiting,0.0,0.0,0.0,0.0,0.0,0.0,0.0,0.0,
0.6663649999999907,0.0,0.0,41.0,3.875,247.5,840.0000000000001,0.0,0.125,3.763427349,4.962207444510195,-0.008544921000000372,-33.0,4.875,-210.0,-840.0000000000001,0.0,0.0,1.9213865220000002,4.947212861176663,0.0,32.0,4.125,225.0,840.0000000000001,0.0,0.0,4.916991684,4.952211055621174,0.0,-25.0,2.75,-165.0,-840.0000000000001,0.0,0.0,2.858886426,4.945713402843309,0.0,1.1699999570846558,0.6600000262260437,-1.5,0.1571044921875,-0.02532958984375,0.97930908203125,31.459999084472656,0.0,146.0,0.02197265625,-0.0075836181640625,Waiting,0.0,0.0,0.0,0.0,0.0,0.0,0.0,0.0,
0.6894379999999947,0.0,0.0,41.0,4.125,202.5,840.0,0.0,0.125,3.756103131,4.961793778238032,0.0,-33.0,5.125,-172.5,-840.0,0.0,0.0,1.9213865220000002,4.946800444903308,0.0,32.0,4.125,217.5,840.0,0.0,0.0,4.916991684,4.951798222681549,0.0,-25.0,3.0,-165.0,-840.0,0.0,0.0,2.857665723,4.945301111569835,0.0,1.1699999570846558,0.699999988079071,-1.5199999809265137,0.02764892578125,0.01007080078125,1.1572265625,31.459999084472656,0.0,13.0,0.0241241455078125,-0.0078887939453125,Waiting,0.0,0.0,0.0,0.0,0.0,0.0,0.0,0.0,
0.7093010000000067,0.0,0.0,41.0,4.5,202.5,840.0,0.0,0.125,3.757323834,4.961655889480644,0.0,-33.0,6.0,-127.5,-840.0,0.0,0.0,1.9213865220000002,4.946662972812189,0.0,32.0,4.5,187.5,840.0,0.0,0.0,4.916991684,4.951660611701674,0.0,-25.0,3.5,-157.5,-840.0,0.0,0.0,2.858886426,4.945163681145344,0.0,1.090000033378601,0.8700000047683716,-1.5099999904632568,0.178466796875,-0.03466796875,0.517822265625,31.459999084472656,0.0,171.0,0.0253753662109375,-0.008087158203125,Waiting,0.0,0.0,0.0,0.0,0.0,0.0,0.0,0.0,
0.7317789999999804,0.0,0.0,41.0,5.125,157.5,840.0,0.0,0.125,3.757323834,4.961655889480644,0.0,-33.0,6.75,-120.0,-840.0,0.0,0.0,1.9213865220000002,4.946662972812189,0.0012207029999995456,32.0,5.125,165.0,840.0,0.0,0.0,4.9157709810000005,4.951660611701674,0.0,-25.0,3.875,-150.0,-840.0,0.0,0.0,2.857665723,4.945163681145344,0.0,1.2200000286102295,0.8899999856948853,-1.5299999713897705,0.091796875,0.03900146484375,1.396728515625,31.459999084472656,0.0,69.0,0.0283660888671875,-0.0085906982421875,Waiting,0.0,0.0,0.0,0.0,0.0,0.0,0.0,0.0,
0.7530089999999909,0.0,0.0,41.0,5.875,157.5,840.0,0.0,0.125,3.756103131,4.961518000723257,0.0,-33.0,7.625,-142.5,-840.0,0.0,0.0,1.9201658190000002,4.94652550072107,0.0012207029999995456,32.0,5.875,180.0,840.0,0.0,0.0,4.9157709810000005,4.951523000721799,0.0,-60.0,4.125,-165.0,-840.0,0.0,0.0,2.857665723,4.945026250720852,0.0,1.149999976158142,1.0399999618530273,-1.5399999618530273,0.2344970703125,0.00897216796875,0.86029052734375,31.459999084472656,0.0,218.0,0.0301361083984375,-0.0085906982421875,Waiting,0.0,0.0,0.0,0.0,0.0,0.0,0.0,0.0,
0.7776110000000044,0.0,0.0,80.0,7.125,225.0,840.0,0.0,0.125,3.756103131,4.961104334451093,0.0,-56.0,8.25,-165.0,-840.0,0.0,0.0,1.9213865220000002,4.946113084447715,-0.0012207029999995456,70.0,6.5,217.5,840.0,0.0,0.0,4.916991684,4.951110167782174,0.0,-60.0,4.625,-195.0,-840.0,0.0,0.0,2.858886426,4.944613959447377,0.0,1.1699999570846558,1.2699999809265137,-1.5800000429153442,0.200439453125,0.03521728515625,1.027587890625,31.459999084472656,0.0,177.0,0.034423828125,-0.0085906982421875,Waiting,0.0,0.0,0.0,0.0,0.0,0.0,0.0,0.0,
0.7977399999999907,0.0,0.0,80.0,7.125,262.5,840.0,0.0,0.125,3.757323834,4.9608285552925535,0.0,-56.0,8.875,-172.5,-840.0,0.0,0.0,1.936034958,4.945838138626681,-0.0012207029999995456,70.0,7.0,255.0,840.0,0.0,0.0,4.9157709810000005,4.950834944181972,0.0,-60.0,5.375,-232.5,-840.0,0.0,0.0,2.857665723,4.944339096960094,0.0,1.149999976158142,1.5099999904632568,-1.6200000047683716,0.171142578125,0.02532958984375,0.9041748046875,31.459999084472656,0.0,146.0,0.0397186279296875,-0.0085906982421875,Waiting,0.0,0.0,0.0,0.0,0.0,0.0,0.0,0.0,
0.8294100000000035,0.0,0.0,80.0,7.375,307.5,840.0,0.0,0.125,3.754882428,4.9602770002630026,0.0,-56.0,9.5,-187.5,-840.0,0.0,0.0,1.9213865220000002,4.945288250262207,0.0012207029999995456,70.0,7.0,300.0,840.0,0.0,0.0,4.9157709810000005,4.950284500262472,0.0,-60.0,5.5,-270.0,-840.0,0.0,0.0,2.857665723,4.943789375262128,0.0,1.1299999952316284,1.590000033378601,-1.6200000047683716,0.20184326171875,0.06866455078125,0.96942138671875,31.459999084472656,0.0,173.0,0.042694091796875,-0.008544921875,Waiting,0.0,0.0,0.0,0.0,0.0,0.0,0.0,0.0,
0.8502639999999956,0.0,0.0,80.0,7.375,360.0,840.0,0.0,0.125,3.758544537,4.960139111505615,0.0,-56.0,10.0,-225.0,-840.0,0.0,0.0,1.9213865220000002,4.945150778171088,0.0012207029999995456,70.0,6.875,345.0,840.0,0.0,0.0,4.914550278,4.950146889282597,0.0,-60.0,5.25,-360.0,-840.0,0.0,0.0,2.857665723,4.943651944837637,0.0,1.1399999856948853,1.8200000524520874,-1.6299999952316284,0.24285888671875,0.0255126953125,0.96905517578125,31.459999084472656,0.0,211.0,0.049407958984375,-0.0084075927734375,Waiting,0.0,0.0,0.0,0.0,0.0,0.0,0.0,0.0,
0.8743399999999965,0.0,0.0,80.0,7.25,405.0,840.0,0.0,0.125,3.756103131,4.960139111505615,0.0012207029999995456,-56.0,10.25,-292.5,-840.0,0.0,0.0,1.9189451160000002,4.945150778171088,0.0,148.0,6.375,442.5,840.0,0.0,0.0,4.9182123870000005,4.950146889282597,0.0,-133.0,5.25,-412.5,-840.0,0.0,0.0,2.8564450200000002,4.943651944837637,0.0,1.1100000143051147,1.9800000190734863,-1.6399999856948853,0.1361083984375,-0.03466796875,0.86505126953125,31.43000030517578,0.0,107.0,0.0531005859375,-0.00836181640625,Waiting,0.0,0.0,0.0,0.0,0.0,0.0,0.0,0.0,
0.8962090000000026,0.0,0.0,163.0,7.0,457.5,840.0,0.0,0.125,3.756103131,4.960001222748227,0.0012207029999995456,-120.0,9.25,-427.5,-840.0,0.0,0.0,1.9213865220000002,4.945013306079971,0.0,148.0,6.0,487.5,840.0,0.0,0.0,4.9182123870000005,4.950009278302723,0.0,-133.0,5.375,-457.5,-840.0,0.0,0.0,2.860107129,4.9435145144131445,0.0,1.0800000429153442,2.0899999141693115,-1.649999976158142,0.28509521484375,0.006103515625,0.9796142578125,31.43000030517578,0.0,249.0,0.061065673828125,-0.0083465576171875,Waiting,0.0,0.0,0.0,0.0,0.0,0.0,0.0,0.0,
0.9247449999999954,0.0,0.0,163.0,6.375,555.0,840.0,0.0,0.125,3.758544537,4.95986333399084,-0.0012207029999995456,-120.0,9.0,-480.0,-840.0,0.0,0.0,1.9213865220000002,4.944875833988852,-0.0012207029999995456,148.0,5.875,532.5,840.0,0.0,0.0,4.9182123870000005,4.949871667322848,0.0,-133.0,5.0,-510.0,-840.0,0.0,0.0,2.857665723,4.943377083988653,0.0012207030000004337,1.1200000047683716,2.200000047683716,-1.6699999570846558,0.146728515625,0.0010986328125,1.183837890625,31.43000030517578,0.0,101.0,0.069915771484375,-0.0084686279296875,Waiting,0.0,0.0,0.0,0.0,0.0,0.0,0.0,0.0,
0.9471030000000028,0.0,0.0,163.0,6.125,607.5,840.0,0.0,0.125,3.757323834,4.959587556476063,-0.0012207029999995456,-120.0,8.5,-510.0,-840.0,0.0,0.0,1.9213865220000002,4.9446008898066145,-0.0012207029999995456,148.0,5.5,577.5,840.0,0.0,0.0,4.916991684,4.949596445363098,0.0,-133.0,5.0,-555.0,-840.0,0.0,0.0,2.857665723,4.94310222313967,0.0012207030000004337,1.0299999713897705,2.2799999713897705,-1.6799999475479126,0.171875,-0.0113525390625,0.8134765625,31.43000030517578,0.0,140.0,0.0745697021484375,-0.0085906982421875,Waiting,0.0,0.0,0.0,0.0,0.0,0.0,0.0,0.0,
0.9835369999999821,0.0,0.0,163.0,5.75,645.0,840.0,0.0,0.125,3.757323834,4.959173888560136,0.0,-120.0,7.625,-622.5,-840.0,0.0,0.0,1.9213865220000002,4.944188471894463,0.0012207029999995456,148.0,5.0,660.0,840.0,0.0,0.0,4.9157709810000005,4.94918361078302,0.0,-133.0,4.625,-637.5,-840.0,0.0,0.0,2.857665723,4.942689930227895,-0.0024414060000008675,1.100000023841858,2.4700000286102295,-1.7300000190734863,0.0870361328125,-0.0125732421875,1.126220703125,31.43000030517578,0.0,39.0,0.0843048095703125,-0.009002685546875,Waiting,0.0,0.0,0.0,0.0,0.0,0.0,0.0,0.0,
1.0058910000000032,0.0,0.0,283.0,5.5,727.5,839.9999999999999,0.0,0.125,3.756103131,4.9586223335305855,0.0,-244.0,7.25,-705.0,-839.9999999999999,0.0,0.0,1.9213865220000002,4.943638583529989,0.0012207029999995456,266.0,4.75,705.0,839.9999999999999,0.0,0.0,4.9182123870000005,4.948633166863521,0.0,-247.0,4.25,-675.0,-839.9999999999999,0.0,0.0,2.857665723,4.9421402085299295,-0.0024414060000008675,1.090000033378601,2.4700000286102295,-1.75,0.13275146484375,0.007568359375,0.9183349609375,31.43000030517578,0.0,93.0,0.0943145751953125,-0.00933837890625,Waiting,0.0,0.0,0.0,0.0,0.0,0.0,0.0,0.0,
1.0333459999999905,0.0,0.0,283.0,4.875,765.0,840.0,0.0,0.125,3.7463375070000002,4.958484444773198,0.0012207029999995456,-244.0,6.5,-772.5,-840.0,0.0,0.0,1.9213865220000002,4.94350111143887,-0.0012207029999995456,266.0,4.25,742.5,840.0,0.0,0.0,4.914550278,4.948495555883646,0.0,-247.0,4.25,-705.0,-840.0,0.0,0.0,2.857665723,4.942002778105437,0.0012207030000004337,1.0299999713897705,2.6700000762939453,-1.7699999809265137,0.07867431640625,-0.03118896484375,0.936279296875,31.43000030517578,0.0,36.0,0.1049041748046875,-0.009765625,Waiting,0.0,0.0,0.0,0.0,0.0,0.0,0.0,0.0,
1.0564229999999806,0.0,0.0,283.0,4.375,795.0,840.0,0.0,0.125,3.757323834,4.957932889743646,0.0012207029999995456,-244.0,5.75,-817.5,-840.0,0.0,0.0,1.9213865220000002,4.942951223074396,-0.0012207029999995456,266.0,4.0,772.5,840.0,0.0,0.0,4.9182123870000005,4.947945111964146,0.0,-247.0,3.625,-742.5,-840.0,0.0,0.0,2.857665723,4.941453056407472,0.0012207030000004337,1.1100000143051147,2.640000104904175,-1.7899999618530273,0.09759521484375,0.07208251953125,1.10430908203125,31.43000030517578,0.0,44.0,0.11572265625,-0.0100250244140625,Waiting,0.0,0.0,0.0,0.0,0.0,0.0,0.0,0.0,
1.082856999999989,0.0,0.0,283.0,4.0,817.5,840.0,0.0,0.125,3.757323834,4.957932889743646,0.0,-244.0,5.125,-847.5,-840.0,0.0,0.0,1.9213865220000002,4.942951223074396,0.0012207029999995456,266.0,3.375,832.5,840.0,0.0,0.0,4.9157709810000005,4.947945111964146,0.0,-247.0,3.375,-795.0,-840.0,0.0,0.0,2.857665723,4.941453056407472,0.0,1.059999942779541,2.690000057220459,-1.7899999618530273,0.04583740234375,-0.04534912109375,0.9971923828125,31.43000030517578,0.0,0.0,0.1267242431640625,-0.0101776123046875,Waiting,0.0,0.0,0.0,0.0,0.0,0.0,0.0,0.0,
1.108478999999992,0.0,0.0,283.0,3.875,840.0,840.0,0.0,0.125,3.757323834,4.957932889743646,0.0,-244.0,4.25,-877.5,-840.0,0.0,0.0,1.9177244130000002,4.942951223074396,0.0012207029999995456,266.0,3.125,855.0,840.0,0.0,0.0,4.914550278,4.947945111964146,0.0,-384.0,3.25,-825.0,-840.0,0.0,0.0,2.8466793960000003,4.941453056407472,0.0,1.0199999809265137,2.7100000381469727,-1.7799999713897705,0.080078125,0.07330322265625,0.77734375,31.43000030517578,0.0,41.0,0.137664794921875,-0.0105133056640625,Waiting,0.0,0.0,0.0,0.0,0.0,0.0,0.0,0.0,
1.136070000000007,0.0,0.0,424.0,3.375,870.0,840.0,0.0,0.125,3.757323834,4.9580707785010345,0.0,-387.0,4.0,-885.0,-840.0,0.0,0.0,1.9226072250000001,4.943088695165515,-0.0012207029999995456,407.0,2.875,877.5,840.0,0.0,0.0,4.916991684,4.948082722944021,0.0,-384.0,2.875,-847.5,-840.0,0.0,0.0,2.858886426,4.941590486831963,0.0,0.9200000166893005,2.799999952316284,-1.7699999809265137,0.1588134765625,-0.01971435546875,0.47174072265625,31.43000030517578,0.0,136.0,0.14324951171875,-0.010650634765625,Waiting,0.0,0.0,0.0,0.0,0.0,0.0,0.0,0.0,
1.1621729999999806,0.0,0.0,424.0,3.125,892.5,840.0,0.0,0.125,3.757323834,4.958208667258422,0.0,-387.0,3.75,-900.0,-840.0,0.0,0.0,1.9213865220000002,4.9432261672566336,-0.0012207029999995456,407.0,2.75,885.0,840.0,0.0,0.0,4.916991684,4.948220333923897,0.0,-384.0,2.625,-885.0,-840.0,0.0,0.0,2.858886426,4.941727917256454,0.0,1.1200000047683716,2.6700000762939453,-1.7699999809265137,-0.044921875,-0.02874755859375,1.41864013671875,31.43000030517578,0.0,-109.0,0.1543426513671875,-0.0107269287109375,Waiting,0.0,0.0,0.0,0.0,0.0,0.0,0.0,0.0,
1.188755999999994,0.0,0.0,424.0,2.875,900.0,840.0000000000001,0.0,0.125,3.757323834,4.95834655601581,0.0,-387.0,3.625,-907.5,-840.0000000000001,0.0,0.0,1.9213865220000002,4.943363639347751,0.0,407.0,2.625,900.0,840.0000000000001,0.0,0.0,4.9157709810000005,4.948357944903771,0.0,-384.0,2.375,-892.5,-840.0000000000001,0.0,0.0,2.858886426,4.941865347680946,0.0,1.0399999618530273,2.75,-1.7599999904632568,0.01953125,-0.04412841796875,1.019287109375,31.43000030517578,0.0,-27.0,0.15972900390625,-0.010833740234375,Waiting,0.0,0.0,0.0,0.0,0.0,0.0,0.0,0.0,
1.2061809999999824,0.0,0.0,424.0,2.75,915.0,839.9999999999999,0.0,0.125,3.757323834,4.9586223335305855,0.0,-387.0,3.375,-922.5,-839.9999999999999,0.0,0.0,1.9226072250000001,4.943638583529989,0.0,407.0,2.625,907.5,839.9999999999999,0.0,0.0,4.9157709810000005,4.948633166863521,0.0,-384.0,2.375,-892.5,-839.9999999999999,0.0,0.0,2.857665723,4.9421402085299295,0.0,0.9300000071525574,2.799999952316284,-1.7400000095367432,0.05853271484375,0.033935546875,0.5673828125,31.43000030517578,0.0,29.0,0.1651153564453125,-0.010955810546875,Waiting,0.0,0.0,0.0,0.0,0.0,0.0,0.0,0.0,
1.225331999999995,0.0,0.0,424.0,2.5,930.0,840.0,0.0,0.125,3.767089458,4.958760222287974,-0.0012207029999995456,-387.0,3.125,-930.0,-840.0,0.0,0.0,1.9213865220000002,4.9437760556211074,0.0012207029999995456,407.0,2.5,915.0,840.0,0.0,0.0,4.914550278,4.948770777843396,0.0,-384.0,2.25,-900.0,-840.0,0.0,0.0,2.8564450200000002,4.942277638954421,0.0,1.0700000524520874,2.680000066757202,-1.7400000095367432,0.044189453125,0.0107421875,1.316162109375,31.43000030517578,0.0,-17.0,0.175933837890625,-0.0110626220703125,Waiting,0.0,0.0,0.0,0.0,0.0,0.0,0.0,0.0,
1.2443779999999969,0.0,0.0,578.0,2.375,945.0,839.9999999999999,0.0,0.125,3.753661725,4.9586223335305855,-0.0012207029999995456,-539.0,3.0,-945.0,-839.9999999999999,0.0,0.0,1.9213865220000002,4.943638583529989,0.0012207029999995456,556.0,2.375,922.5,839.9999999999999,0.0,0.0,4.914550278,4.948633166863521,0.0,-532.0,2.125,-915.0,-839.9999999999999,0.0,0.0,2.857665723,4.9421402085299295,0.0,1.0700000524520874,2.680000066757202,-1.7400000095367432,-0.0269775390625,-0.043701171875,1.18914794921875,31.43000030517578,0.0,-80.0,0.1812896728515625,-0.0111236572265625,Waiting,0.0,0.0,0.0,0.0,0.0,0.0,0.0,0.0,
1.2628420000000042,0.0,0.0,578.0,2.25,952.5,839.9999999999999,0.0,0.125,3.758544537,4.9586223335305855,-0.0012207029999995456,-539.0,2.875,-952.5,-839.9999999999999,0.0,0.0,1.9213865220000002,4.943638583529989,0.0012207029999995456,556.0,2.125,930.0,839.9999999999999,0.0,0.0,4.916991684,4.948633166863521,0.0,-532.0,1.875,-922.5,-839.9999999999999,0.0,0.0,2.858886426,4.9421402085299295,0.0,1.0299999713897705,2.640000104904175,-1.7200000286102295,0.0606689453125,0.0037841796875,1.06201171875,31.43000030517578,0.0,11.0,0.18658447265625,-0.01123046875,Waiting,0.0,0.0,0.0,0.0,0.0,0.0,0.0,0.0,
1.2862220000000089,0.0,0.0,578.0,2.125,952.5,840.0,0.0,0.0,3.757323834,4.959035999802749,0.0012207029999995456,-539.0,2.625,-952.5,-840.0,0.0,0.0,1.9201658190000002,4.944050999803344,-0.0012207029999995456,556.0,2.0,930.0,840.0,0.0,0.0,4.9157709810000005,4.949045999803146,0.0,-532.0,1.875,-930.0,-840.0,0.0,0.0,2.857665723,4.942552499803404,0.0,0.9599999785423279,2.630000114440918,-1.7100000381469727,0.0478515625,-0.023193359375,0.680908203125,31.43000030517578,0.0,17.0,0.19708251953125,-0.011322021484375,Waiting,0.0,0.0,0.0,0.0,0.0,0.0,0.0,0.0,
1.305423999999999,0.0,0.0,578.0,2.0,952.5,840.0,0.0,0.0,3.75976524,4.959035999802749,0.0012207029999995456,-539.0,2.5,-952.5,-840.0,0.0,0.0,1.9213865220000002,4.944050999803344,-0.0012207029999995456,556.0,1.75,937.5,840.0,0.0,0.0,4.916991684,4.949045999803146,0.0,-532.0,1.75,-937.5,-840.0,0.0,0.0,2.8564450200000002,4.942552499803404,0.0,1.0199999809265137,2.549999952316284,-1.7100000381469727,0.0362548828125,-0.017822265625,1.0858154296875,31.43000030517578,0.0,-10.0,0.20233154296875,-0.0113983154296875,Waiting,0.0,0.0,0.0,0.0,0.0,0.0,0.0,0.0,
1.3278809999999939,0.0,0.0,578.0,2.0,945.0,840.0,0.0,0.0,3.762206646,4.959035999802749,0.003662109000000413,-539.0,2.625,-900.0,-840.0,0.0,0.0,1.9213865220000002,4.944050999803344,0.0,556.0,1.75,937.5,840.0,0.0,0.0,4.9182123870000005,4.949045999803146,0.0,-532.0,1.625,-945.0,-840.0,0.0,0.0,2.858886426,4.942552499803404,-0.0012207030000004337,1.0700000524520874,2.5399999618530273,-1.7000000476837158,-0.02880859375,0.03948974609375,1.176513671875,31.43000030517578,0.0,-81.0,0.212646484375,-0.011627197265625,Waiting,0.0,0.0,0.0,0.0,0.0,0.0,0.0,0.0,
1.346231999999989,0.0,0.0,578.0,1.875,945.0,840.0,0.0,0.125,3.763427349,4.959173888560136,0.003662109000000413,-539.0,2.75,-817.5,-840.0,0.0,0.0,1.9213865220000002,4.944188471894463,0.0,556.0,1.5,945.0,840.0,0.0,0.0,4.9182123870000005,4.94918361078302,0.0,-532.0,1.5,-945.0,-840.0,0.0,0.0,2.857665723,4.942689930227895,-0.0012207030000004337,0.9800000190734863,2.569999933242798,-1.690000057220459,-0.03399658203125,0.03082275390625,0.70660400390625,31.43000030517578,0.0,-66.0,0.2176666259765625,-0.011627197265625,Waiting,0.0,0.0,0.0,0.0,0.0,0.0,0.0,0.0,
1.3724109999999927,0.0,0.0,730.0,1.75,945.0,840.0,0.0,0.125,3.762206646,4.959311777317525,0.003662109000000413,-661.0,3.0,-735.0,-840.0,0.0,0.0,1.9213865220000002,4.944325943985581,0.0012207029999995456,707.0,1.5,945.0,840.0,0.0,0.0,4.9157709810000005,4.9493212217628955,0.0,-685.0,1.375,-945.0,-840.0,0.0,0.0,2.8564450200000002,4.942827360652387,0.0012207030000004337,1.0199999809265137,2.5,-1.690000057220459,0.0257568359375,0.04815673828125,1.224609375,31.440000534057617,0.0,-28.0,0.2277069091796875,-0.011627197265625,Waiting,0.0,0.0,0.0,0.0,0.0,0.0,0.0,0.0,
1.3923759999999894,0.0,0.0,730.0,1.75,945.0,840.0,0.0,0.125,3.762206646,4.959311777317525,-0.0012207029999995456,-661.0,3.5,-705.0,-840.0,0.0,0.0,1.9213865220000002,4.944325943985581,0.0012207029999995456,707.0,1.375,937.5,840.0,0.0,0.0,4.9157709810000005,4.9493212217628955,0.0,-685.0,1.25,-952.5,-840.0,0.0,0.0,2.858886426,4.942827360652387,0.0012207030000004337,1.149999976158142,2.369999885559082,-1.690000057220459,-0.0029296875,0.00140380859375,1.62969970703125,31.440000534057617,0.0,-69.0,0.2326812744140625,-0.011627197265625,Waiting,0.0,0.0,0.0,0.0,0.0,0.0,0.0,0.0,
1.4113439999999828,0.0,0.0,730.0,1.75,952.5,840.0000000000001,0.0,0.125,3.760985943,4.959725445233452,-0.0012207029999995456,-661.0,4.0,-690.0,-840.0000000000001,0.0,0.0,1.9213865220000002,4.944738361897733,0.0012207029999995456,707.0,1.375,937.5,840.0000000000001,0.0,0.0,4.914550278,4.949734056342972,0.0,-685.0,1.25,-952.5,-840.0000000000001,0.0,0.0,2.857665723,4.943239653564161,-0.0012207030000004337,1.0499999523162842,2.4200000762939453,-1.659999966621399,-0.05291748046875,-0.03717041015625,0.99920654296875,31.440000534057617,0.0,-93.0,0.2375335693359375,-0.0117034912109375,Waiting,0.0,0.0,0.0,0.0,0.0,0.0,0.0,0.0,
1.4322129999999889,0.0,0.0,730.0,1.625,952.5,840.0,0.0,0.125,3.760985943,4.960001222748227,0.0012207029999995456,-661.0,4.5,-712.5,-840.0,0.0,0.0,1.9213865220000002,4.945013306079971,0.0012207030000004337,707.0,1.375,930.0,840.0,0.0,0.0,4.916991684,4.950009278302723,0.0,-685.0,1.125,-952.5,-840.0,0.0,0.0,2.857665723,4.9435145144131445,-0.0012207030000004337,0.9300000071525574,2.4100000858306885,-1.6200000047683716,0.026611328125,0.019287109375,0.9007568359375,31.440000534057617,0.0,-11.0,0.247344970703125,-0.0118408203125,Waiting,0.0,0.0,0.0,0.0,0.0,0.0,0.0,0.0,
1.4518679999999877,0.0,0.0,730.0,1.375,960.0,840.0,0.0,0.125,3.760985943,4.9602770002630026,0.0012207029999995456,-661.0,4.625,-712.5,-840.0,0.0,0.0,1.9213865220000002,4.945288250262207,0.0012207030000004337,707.0,1.125,930.0,840.0,0.0,0.0,4.916991684,4.950284500262472,0.0,-685.0,1.125,-960.0,-840.0,0.0,0.0,2.858886426,4.943789375262128,-0.0012207030000004337,1.0700000524520874,2.3399999141693115,-1.600000023841858,-0.012939453125,-0.02020263671875,1.5025634765625,31.440000534057617,0.0,-72.0,0.252227783203125,-0.0119171142578125,Waiting,0.0,0.0,0.0,0.0,0.0,0.0,0.0,0.0,
1.4697330000000075,0.0,0.0,730.0,1.25,960.0,840.0,0.0,0.125,3.77197227,4.960552777777778,0.0012207029999995456,-661.0,4.625,-735.0,-840.0,0.0,0.0,1.9213865220000002,4.9455631944444445,-0.0012207030000004337,707.0,1.0,930.0,840.0,0.0,0.0,4.916991684,4.950559722222223,0.0,-685.0,1.125,-960.0,-840.0,0.0,0.0,2.858886426,4.944064236111111,0.0,1.0399999618530273,2.380000114440918,-1.5700000524520874,4.2724609375E-4,-0.01971435546875,1.2489013671875,31.440000534057617,0.0,-50.0,0.25701904296875,-0.0120697021484375,Waiting,0.0,0.0,0.0,0.0,0.0,0.0,0.0,0.0,
1.4913399999999966,0.0,0.0,883.0,1.125,960.0,840.0,0.0,0.125,3.762206646,4.961518000723257,0.0,-785.0,4.75,-735.0,-840.0,0.0,0.0,1.926269334,4.94652550072107,-0.0012207030000004337,859.0,1.0,937.5,840.0,0.0,0.0,4.9157709810000005,4.951523000721799,0.0,-840.0,1.0,-960.0,-840.0,0.0,0.0,2.858886426,4.945026250720852,0.0,0.8899999856948853,2.369999885559082,-1.4800000190734863,-0.0255126953125,0.04241943359375,0.6317138671875,31.440000534057617,0.0,-52.0,0.2664031982421875,-0.01239013671875,Waiting,0.0,0.0,0.0,0.0,0.0,0.0,0.0,0.0,
1.5084229999999808,0.0,0.0,883.0,1.125,960.0,840.0000000000001,0.0,0.125,3.767089458,4.962207444510195,0.0,-785.0,4.75,-772.5,-840.0000000000001,0.0,0.0,1.9201658190000002,4.947212861176663,-0.0012207030000004337,859.0,1.0,945.0,840.0000000000001,0.0,0.0,4.916991684,4.952211055621174,0.0,-840.0,0.875,-967.5,-840.0000000000001,0.0,0.0,2.858886426,4.945713402843309,0.0,0.9800000190734863,2.319999933242798,-1.4500000476837158,0.08984375,-0.00341796875,0.99554443359375,31.440000534057617,0.0,49.0,0.27105712890625,-0.012542724609375,Waiting,0.0,0.0,0.0,0.0,0.0,0.0,0.0,0.0,
1.5286089999999968,0.0,0.0,883.0,1.125,952.5,839.9999999999999,0.0,0.125,3.760985943,4.962621110782359,0.0,-785.0,4.625,-772.5,-839.9999999999999,0.0,0.0,1.9226072250000001,4.947625277450018,0.0,859.0,0.75,945.0,839.9999999999999,0.0,0.0,4.9182123870000005,4.952623888560798,0.0,-840.0,0.875,-967.5,-839.9999999999999,0.0,0.0,2.857665723,4.946125694116784,0.0012207030000004337,1.0499999523162842,2.180000066757202,-1.4199999570846558,0.0013427734375,0.10089111328125,1.6795654296875,31.440000534057617,0.0,-64.0,0.2757110595703125,-0.0126495361328125,Waiting,0.0,0.0,0.0,0.0,0.0,0.0,0.0,0.0,
1.546790000000008,0.0,0.0,883.0,1.125,952.5,840.0,0.0,0.125,3.762206646,4.963034778698286,0.0,-785.0,4.375,-855.0,-840.0,0.0,0.0,1.9213865220000002,4.94803769536217,0.0,859.0,0.75,945.0,840.0,0.0,0.0,4.916991684,4.953036723140875,0.0,-840.0,0.75,-967.5,-840.0,0.0,0.0,2.857665723,4.946537987028559,0.0012207030000004337,0.9599999785423279,2.2699999809265137,-1.3799999952316284,-0.02923583984375,0.00531005859375,0.7781982421875,31.440000534057617,0.0,-59.0,0.2802734375,-0.012725830078125,Waiting,0.0,0.0,0.0,0.0,0.0,0.0,0.0,0.0,
1.5650469999999914,0.0,0.0,883.0,1.125,952.5,840.0,0.0,0.125,3.770751567,1.3788875738779706E-4,0.0,-785.0,4.0,-945.0,-840.0,0.0,0.0,1.9213865220000002,1.3747209111849467E-4,0.0,859.0,0.75,945.0,840.0,0.0,0.0,4.914550278,1.376109798749288E-4,0.0,-840.0,0.75,-967.5,-840.0,0.0,0.0,2.858886426,1.3743042449156442E-4,0.0,0.9900000095367432,2.130000114440918,-1.3200000524520874,-0.03997802734375,0.009765625,1.3729248046875,31.440000534057617,0.0,-90.0,0.2892913818359375,-0.01300048828125,Waiting,0.0,0.0,0.0,0.0,0.0,0.0,0.0,0.0,
1.5857170000000043,0.0,0.0,883.0,1.0,945.0,840.0,0.0,0.125,3.760985943,4.136662721633911E-4,-0.0012207029999995456,-785.0,3.375,-1005.0,-840.0,0.0,0.0,1.9201658190000002,4.1241627335548395E-4,-0.0012207029999995456,859.0,0.5,945.0,840.0,0.0,0.0,4.9182123870000005,4.128329396247863E-4,0.0,-840.0,0.625,-967.5,-840.0,0.0,0.0,2.857665723,4.1229127347469326E-4,0.0,1.0099999904632568,2.119999885559082,-1.2899999618530273,-0.0616455078125,0.09564208984375,1.177978515625,31.440000534057617,0.0,-106.0,0.29364013671875,-0.01312255859375,Waiting,0.0,0.0,0.0,0.0,0.0,0.0,0.0,0.0,
1.6039070000000064,0.0,0.0,1035.0,1.0,945.0,840.0,0.0,0.125,3.760985943,8.273341880904306E-4,-0.0012207029999995456,-948.0,2.75,-1027.5,-840.0,0.0,0.0,1.9226072250000001,8.248341855075624E-4,-0.0012207029999995456,1010.0,0.5,945.0,840.0,0.0,0.0,4.916991684,8.256675197018518E-4,0.0,-995.0,0.625,-967.5,-840.0,0.0,0.0,2.858886426,8.245841852492757E-4,0.0,0.9399999976158142,2.299999952316284,-1.2599999904632568,-0.01177978515625,-0.08758544921875,0.44573974609375,31.440000534057617,0.0,-27.0,0.29791259765625,-0.0132598876953125,Waiting,0.0,0.0,0.0,0.0,0.0,0.0,0.0,0.0,
1.6239469999999856,0.0,0.0,1035.0,0.875,945.0,840.0000000000001,0.0,0.125,3.77197227,0.0012410004602538215,-0.0012207029999995456,-948.0,2.5,-1005.0,-840.0000000000001,0.0,0.0,1.9226072250000001,0.0012372504588630462,0.0,1010.0,0.5,945.0,840.0000000000001,0.0,0.0,4.914550278,0.001238500459326638,0.0,-995.0,0.625,-967.5,-840.0000000000001,0.0,0.0,2.857665723,0.0012368754587239687,0.0,0.9800000190734863,2.069999933242798,-1.2400000095367432,-0.010498046875,0.143798828125,1.56622314453125,31.440000534057617,0.0,-146.0,0.3061676025390625,-0.013427734375,Waiting,0.0,0.0,0.0,0.0,0.0,0.0,0.0,0.0,
1.642997000000003,0.0,0.0,1035.0,0.875,945.0,840.0000000000001,0.0,0.125,3.760985943,0.0016546667324172132,0.0012207029999995456,-948.0,2.375,-922.5,-840.0000000000001,0.0,0.0,1.9213865220000002,0.0016496667322185308,0.0,1010.0,0.5,937.5,840.0000000000001,0.0,0.0,4.9157709810000005,0.001651333398951425,0.0,-995.0,0.5,-967.5,-840.0000000000001,0.0,0.0,2.858886426,0.0016491667321986625,0.0,0.8899999856948853,2.119999885559082,-1.2100000381469727,0.06439208984375,-0.01373291015625,0.34906005859375,31.440000534057617,0.0,51.0,0.3101654052734375,-0.01348876953125,Waiting,0.0,0.0,0.0,0.0,0.0,0.0,0.0,0.0,
1.6602520000000076,0.0,0.0,1035.0,0.875,945.0,840.0,0.0,0.125,3.760985943,0.001930444247192807,0.0012207029999995456,-948.0,2.625,-802.5,-840.0,0.0,0.0,1.9213865220000002,0.0019246109144555198,0.0,1010.0,0.5,930.0,840.0,0.0,0.0,4.9157709810000005,0.0019265553587012822,0.0,-995.0,0.5,-960.0,-840.0,0.0,0.0,2.858886426,0.001924027581181791,0.0,0.8500000238418579,2.190000057220459,-1.2000000476837158,-0.0369873046875,-0.05096435546875,0.40576171875,31.440000534057617,0.0,-51.0,0.3141632080078125,-0.01361083984375,Waiting,0.0,0.0,0.0,0.0,0.0,0.0,0.0,0.0,
1.6871469999999973,0.0,0.0,1035.0,0.875,937.5,840.0,0.0,0.125,3.762206646,0.0020683330045806036,0.0,-948.0,3.25,-682.5,-840.0,0.0,0.0,1.9177244130000002,0.002062083005574014,0.0012207029999995456,1010.0,0.5,922.5,840.0,0.0,0.0,4.9182123870000005,0.0020641663385762106,0.0,-995.0,0.5,-960.0,-840.0,0.0,0.0,2.857665723,0.002061458005673355,-0.0012207030000004337,1.059999942779541,1.7599999904632568,-1.190000057220459,-0.00250244140625,0.05126953125,1.51116943359375,31.440000534057617,0.0,-49.0,0.32171630859375,-0.0138092041015625,Waiting,0.0,0.0,0.0,0.0,0.0,0.0,0.0,0.0,
1.7046579999999958,0.0,0.0,1035.0,0.875,937.5,840.0,0.0,0.125,3.760985943,0.0022062217619684007,0.0,-948.0,4.375,-555.0,-840.0,0.0,0.0,1.9250486310000001,0.0021995550966925088,0.0012207029999995456,1010.0,0.5,915.0,840.0,0.0,0.0,4.916991684,0.0022017773184511394,0.0,-995.0,0.5,-952.5,-840.0,0.0,0.0,2.857665723,0.0021988884301649197,-0.0012207030000004337,1.059999942779541,1.7599999904632568,-1.190000057220459,-0.00250244140625,0.05126953125,1.51116943359375,31.440000534057617,0.0,-49.0,0.32171630859375,-0.0138092041015625,Waiting,0.0,0.0,0.0,0.0,0.0,0.0,0.0,0.0,
1.7272189999999827,0.0,0.0,1183.0,0.625,930.0,840.0,0.0,0.125,3.760985943,0.0022062217619684007,0.0,-988.0,5.875,-427.5,-840.0,0.0,0.0,1.926269334,0.0021995550966925088,0.003662109000000413,1156.0,0.5,915.0,840.0,0.0,0.0,4.91943309,0.0022017773184511394,0.0,-1144.0,0.5,-937.5,-840.0,0.0,0.0,2.858886426,0.0021988884301649197,0.0012207030000004337,0.9399999976158142,1.8600000143051147,-1.159999966621399,0.002197265625,-0.00250244140625,0.893310546875,31.440000534057617,0.0,-26.0,0.3253631591796875,-0.0138702392578125,Waiting,0.0,0.0,0.0,0.0,0.0,0.0,0.0,0.0,
1.744918000000005,0.0,0.0,1183.0,0.625,922.5,840.0,0.0,0.125,3.760985943,0.0031714447074466293,0.0,-988.0,7.625,-315.0,-840.0,0.0,0.0,1.926269334,0.003161861373318567,0.003662109000000413,1156.0,0.5,907.5,840.0,0.0,0.0,4.916991684,0.003165055818027921,0.0,-1144.0,0.5,-930.0,-840.0,0.0,0.0,2.863769238,0.0031609030399057606,0.0012207030000004337,0.8999999761581421,1.8899999856948853,-1.100000023841858,0.016845703125,0.04022216796875,0.95452880859375,31.440000534057617,0.0,-15.0,0.33270263671875,-0.0140380859375,Waiting,0.0,0.0,0.0,0.0,0.0,0.0,0.0,0.0,
1.7634649999999965,0.0,0.0,1183.0,0.625,915.0,840.0,0.0,0.125,3.762206646,0.0034472222222222226,0.0,-988.0,9.75,-270.0,-840.0,0.0,0.0,1.926269334,0.0034368055555555554,0.003662109000000413,1156.0,0.5,907.5,840.0,0.0,0.0,4.916991684,0.0034402777777777778,0.0,-1144.0,0.5,-922.5,-840.0,0.0,0.0,2.862548535,0.003435763888888889,0.0012207030000004337,0.9300000071525574,1.8700000047683716,-1.059999942779541,0.01458740234375,-0.00726318359375,1.02117919921875,31.440000534057617,0.0,-18.0,0.3363494873046875,-0.0141143798828125,Waiting,0.0,0.0,0.0,0.0,0.0,0.0,0.0,0.0,
1.783261999999988,0.0,0.0,1183.0,0.625,915.0,840.0,0.0,0.125,3.760985943,0.003998778895537059,-0.0012207029999995456,-988.0,11.375,-315.0,-840.0,0.0,0.0,1.926269334,0.003986695558826129,0.0,1156.0,0.5,900.0,840.0,0.0,0.0,4.916991684,0.003990723337729772,0.0,-1144.0,0.5,-915.0,-840.0,0.0,0.0,2.857665723,0.0039854872251550355,0.0,0.9700000286102295,1.8799999952316284,-1.0099999904632568,0.04376220703125,-0.016357421875,1.09368896484375,31.440000534057617,0.0,8.0,0.3363494873046875,-0.0142364501953125,Waiting,0.0,0.0,0.0,0.0,0.0,0.0,0.0,0.0,
1.799149000000005,0.0,0.0,1183.0,0.625,915.0,840.0,0.0,0.125,3.760985943,0.004688222682476044,-0.0012207029999995456,-988.0,11.375,-315.0,-840.0,0.0,0.0,1.9201658190000002,0.004674056014418602,0.0,1156.0,0.5,900.0,840.0,0.0,0.0,4.914550278,0.004678778237104416,0.0,-1144.0,0.5,-907.5,-840.0,0.0,0.0,2.857665723,0.004672639347612858,0.0,1.0099999904632568,1.8200000524520874,-0.9599999785423279,0.0263671875,0.033935546875,1.2703857421875,31.440000534057617,0.0,-14.0,0.3363494873046875,-0.014373779296875,Waiting,0.0,0.0,0.0,0.0,0.0,0.0,0.0,0.0,
1.8193409999999859,0.0,0.0,1183.0,0.625,915.0,839.9999999999999,0.0,0.125,3.760985943,0.005377667291296855,-0.0012207029999995456,-988.0,12.25,-442.5,-839.9999999999999,0.0,0.0,1.926269334,0.0053614172894093735,0.0,1156.0,0.5,892.5,839.9999999999999,0.0,0.0,4.9182123870000005,0.005366833956705201,0.0,-1144.0,0.5,-900.0,-839.9999999999999,0.0,0.0,2.858886426,0.005359792289220626,0.0,0.8600000143051147,1.9199999570846558,-0.800000011920929,0.0482177734375,-0.00714111328125,0.6239013671875,31.440000534057617,0.0,27.0,0.3364410400390625,-0.0145111083984375,Waiting,0.0,0.0,0.0,0.0,0.0,0.0,0.0,0.0,
1.8397719999999973,0.0,0.0,1331.0,0.5,907.5,840.0,0.0,0.125,3.762206646,0.007583889053265255,0.0012207029999995456,-1148.0,11.5,-645.0,-840.0,0.0,0.0,1.926269334,0.007560972386101881,0.0,1297.0,0.5,892.5,840.0,0.0,0.0,4.914550278,0.007568611275156339,0.0,-1291.0,0.5,-900.0,-840.0,0.0,0.0,2.858886426,0.007558680719385544,0.0,0.8899999856948853,1.9700000286102295,-0.7300000190734863,0.065185546875,0.018310546875,0.6373291015625,31.440000534057617,0.0,43.0,0.3365478515625,-0.014556884765625,Waiting,0.0,0.0,0.0,0.0,0.0,0.0,0.0,0.0,
1.8630289999999805,0.0,0.0,1331.0,0.5,915.0,840.0,0.0,0.125,3.760985943,0.008549111176861657,0.0012207029999995456,-1148.0,9.75,-885.0,-840.0,0.0,0.0,1.926269334,0.00852327784332964,0.0,1297.0,0.5,877.5,840.0,0.0,0.0,4.9157709810000005,0.008531888954506978,0.0,-1291.0,0.5,-915.0,-840.0,0.0,0.0,2.858886426,0.008520694509976438,0.0,0.9900000095367432,1.7999999523162842,-0.5899999737739563,-0.1043701171875,0.0823974609375,1.4345703125,31.440000534057617,0.0,-149.0,0.3365631103515625,-0.01483154296875,Waiting,0.0,0.0,0.0,0.0,0.0,0.0,0.0,0.0,
1.8882140000000072,0.0,0.0,1331.0,0.375,930.0,840.0,0.0,0.125,3.760985943,0.01047955624593629,-0.0012207029999995456,-1148.0,5.875,-1042.5,-840.0,0.0,0.0,1.926269334,0.010447889577183457,0.0012207029999995456,1297.0,0.5,877.5,840.0,0.0,0.0,4.91943309,0.010458445133434401,0.0,-1291.0,0.375,-937.5,-840.0,0.0,0.0,2.8515622080000003,0.010444722910308176,0.0,0.8799999952316284,1.840000033378601,-0.5299999713897705,0.05987548828125,-0.00482177734375,0.76116943359375,31.440000534057617,0.0,35.0,0.336395263671875,-0.0149383544921875,Waiting,0.0,0.0,0.0,0.0,0.0,0.0,0.0,0.0,
1.9052509999999894,0.0,0.0,1331.0,0.375,930.0,840.0,0.0,0.125,3.762206646,0.012134222567412587,-0.0012207029999995456,-1148.0,5.875,-1042.5,-840.0,0.0,0.0,1.926269334,0.012097555899702838,0.0012207029999995456,1297.0,0.5,870.0,840.0,0.0,0.0,4.9157709810000005,0.012109778122272754,0.0,-1291.0,0.25,-960.0,-840.0,0.0,0.0,2.858886426,0.012093889232931863,0.0,0.8999999761581421,1.75,-0.4699999988079071,0.04058837890625,0.095458984375,0.9693603515625,31.420000076293945,0.0,10.0,0.336273193359375,-0.0150146484375,Waiting,0.0,0.0,0.0,0.0,0.0,0.0,0.0,0.0,
1.9214899999999906,0.0,0.0,1331.0,0.375,937.5,840.0,0.0,0.125,3.760985943,0.01268577800790469,-0.0012207029999995456,-1148.0,4.875,-952.5,-840.0,0.0,0.0,1.926269334,0.012647444673875966,-0.0012207029999995456,1297.0,0.5,870.0,840.0,0.0,0.0,4.9157709810000005,0.012660222451885542,0.0,-1291.0,0.25,-975.0,-840.0,0.0,0.0,2.860107129,0.012643611340473095,0.0,0.8999999761581421,1.7300000190734863,-0.38999998569488525,-0.0279541015625,-0.02587890625,0.689208984375,31.420000076293945,0.0,-48.0,0.335784912109375,-0.0151824951171875,Waiting,0.0,0.0,0.0,0.0,0.0,0.0,0.0,0.0,
1.9398230000000038,0.0,0.0,1331.0,0.375,937.5,840.0,0.0,0.125,3.760985943,0.0132373338593377,0.002441405999999091,-1148.0,4.625,-825.0,-840.0,0.0,0.0,1.926269334,0.01319733385774824,-0.0012207029999995456,1297.0,0.5,877.5,840.0,0.0,0.0,4.914550278,0.013210667191611394,0.0,-1291.0,0.25,-975.0,-840.0,0.0,0.0,2.858886426,0.013193333857589296,0.0,0.8399999737739563,1.7200000286102295,-0.36000001430511475,0.0457763671875,-0.01263427734375,0.74835205078125,31.420000076293945,0.0,23.0,0.3354644775390625,-0.0153350830078125,Waiting,0.0,0.0,0.0,0.0,0.0,0.0,0.0,0.0,
1.9593059999999822,0.0,0.0,1331.0,0.375,937.5,840.0,0.0,0.125,3.762206646,0.013651000131501091,0.002441405999999091,-1148.0,5.5,-742.5,-840.0,0.0,0.0,1.9165037100000002,0.013609750131103724,-0.0012207029999995456,1440.0,0.375,877.5,840.0,0.0,0.0,4.91943309,0.01362350013123618,0.0,-1448.0,0.25,-982.5,-840.0,0.0,0.0,2.857665723,0.013605625131063987,0.0,0.9300000071525574,1.590000033378601,-0.3400000035762787,-0.0484619140625,0.0096435546875,1.24908447265625,31.420000076293945,0.0,-83.0,0.335113525390625,-0.0155181884765625,Waiting,0.0,0.0,0.0,0.0,0.0,0.0,0.0,0.0,
1.986597999999998,0.0,0.0,1481.0,0.25,937.5,840.0,0.0,0.125,3.762206646,0.0139267780572176,0.0,-1266.0,6.625,-705.0,-840.0,0.0,0.0,1.926269334,0.013884694723039865,0.0,1440.0,0.375,885.0,840.0,0.0,0.0,4.916991684,0.013898722501099109,0.0,-1448.0,0.125,-967.5,-840.0,0.0,0.0,2.858886426,0.013880486389622092,0.0,0.9599999785423279,1.6399999856948853,-0.2800000011920929,-0.00970458984375,-0.05023193359375,0.89691162109375,31.420000076293945,0.0,-35.0,0.3341522216796875,-0.0155487060546875,Waiting,0.0,0.0,0.0,0.0,0.0,0.0,0.0,0.0,
2.0055080000000016,0.0,0.0,1481.0,0.25,930.0,840.0,0.0,0.125,3.762206646,0.014754111423426206,0.0,-1266.0,7.5,-705.0,-840.0,0.0,0.0,1.926269334,0.01470952808914913,0.0,1440.0,0.375,900.0,840.0,0.0,0.0,4.916991684,0.014724389200574822,0.0,-1448.0,0.125,-967.5,-840.0,0.0,0.0,2.857665723,0.014705069755721422,0.0,0.8899999856948853,1.659999966621399,-0.23999999463558197,0.059326171875,0.05633544921875,0.71954345703125,31.420000076293945,0.0,38.0,0.3336334228515625,-0.015594482421875,Waiting,0.0,0.0,0.0,0.0,0.0,0.0,0.0,0.0,
2.021267999999982,0.0,0.0,1481.0,0.25,922.5,840.0,0.0,0.125,3.758544537,0.015305667069388759,0.0,-1266.0,7.875,-742.5,-840.0,0.0,0.0,1.926269334,0.015259417068171828,0.0,1440.0,0.125,915.0,840.0,0.0,0.0,4.916991684,0.015274833735244138,0.0,-1448.0,0.125,-952.5,-840.0,0.0,0.0,2.858886426,0.015254792068050136,0.0,0.9399999976158142,1.659999966621399,-0.20999999344348907,0.0538330078125,0.02093505859375,0.9969482421875,31.420000076293945,0.0,24.0,0.333160400390625,-0.0156097412109375,Waiting,0.0,0.0,0.0,0.0,0.0,0.0,0.0,0.0,
2.039073999999993,0.0,0.0,1481.0,0.25,922.5,840.0,0.0,0.125,3.760985943,0.016133000230126912,-0.0012207029999995456,-1266.0,8.125,-780.0,-840.0,0.0,0.0,1.9250486310000001,0.016084250229431524,0.0,1440.0,0.125,922.5,840.0,0.0,0.0,4.913329575000001,0.01610050022966332,0.0,-1448.0,0.125,-945.0,-840.0,0.0,0.0,2.857665723,0.016079375229361984,0.0,1.0499999523162842,1.6399999856948853,-0.18000000715255737,-0.0177001953125,0.03436279296875,1.2401123046875,31.420000076293945,0.0,-53.0,0.332672119140625,-0.0156097412109375,Waiting,0.0,0.0,0.0,0.0,0.0,0.0,0.0,0.0,
2.0596449999999895,0.0,0.0,1481.0,0.25,915.0,840.0,0.0,0.125,3.7792964880000004,0.016546666913231214,-0.0012207029999995456,-1266.0,8.125,-825.0,-840.0,0.0,0.0,1.926269334,0.016496666912486153,0.0,1440.0,0.125,930.0,840.0,0.0,0.0,4.9182123870000005,0.01651333357940117,0.0,-1448.0,0.0,-945.0,-840.0,0.0,0.0,2.857665723,0.01649166691241165,0.0,0.9800000190734863,1.6200000047683716,-0.10000000149011612,-0.0167236328125,-0.0177001953125,0.73968505859375,31.420000076293945,0.0,-37.0,0.331451416015625,-0.015533447265625,Waiting,0.0,0.0,0.0,0.0,0.0,0.0,0.0,0.0,
2.0811479999999865,0.0,0.0,1625.0,0.25,907.5,840.0,0.0,0.125,3.768310161,0.0172361114193168,-0.0012207029999995456,-1407.0,7.625,-870.0,-840.0,0.0,0.0,1.9250486310000001,0.01718402808505214,0.0,1587.0,0.125,922.5,840.0,0.0,0.0,4.909667466,0.017201389196473692,0.0,-1601.0,0.0,-952.5,-840.0,0.0,0.0,2.857665723,0.017178819751625673,0.0,0.949999988079071,1.590000033378601,-0.07000000029802322,0.0372314453125,0.026611328125,0.8271484375,31.420000076293945,0.0,14.0,0.330780029296875,-0.0154876708984375,Waiting,0.0,0.0,0.0,0.0,0.0,0.0,0.0,0.0,
2.1002269999999843,0.0,0.0,1625.0,0.25,900.0,840.0,0.0,0.0,3.760985943,0.0176497781024211,-0.0012207029999995456,-1407.0,7.0,-937.5,-840.0,0.0,0.0,1.932372849,0.017596444768106772,0.0,1587.0,0.125,915.0,840.0,0.0,0.0,4.914550278,0.017614222546211547,0.0,-1601.0,0.0,-960.0,-840.0,0.0,0.0,2.858886426,0.01759111143467534,0.0,1.0399999618530273,1.4500000476837158,-0.009999999776482582,0.01171875,-0.02496337890625,1.123291015625,31.420000076293945,0.0,-16.0,0.3292083740234375,-0.015533447265625,Waiting,0.0,0.0,0.0,0.0,0.0,0.0,0.0,0.0,
2.12793299999999,0.0,0.0,1625.0,0.25,892.5,840.0,0.0,0.0,3.762206646,0.018477111442945896,-0.0012207029999995456,-1407.0,6.25,-982.5,-840.0,0.0,0.0,1.926269334,0.018421278108609836,0.0,1587.0,0.125,907.5,840.0,0.0,0.0,4.921874496,0.01843988922005519,0.0,-1601.0,0.0,-960.0,-840.0,0.0,0.0,2.857665723,0.018415694775176232,0.0,0.9200000166893005,1.409999966621399,0.05999999865889549,0.0440673828125,-0.03070068359375,1.08111572265625,31.420000076293945,0.0,-57.0,0.3275146484375,-0.0157470703125,Waiting,0.0,0.0,0.0,0.0,0.0,0.0,0.0,0.0,
2.1450449999999837,0.0,0.0,1625.0,0.25,885.0,840.0,0.0,0.0,3.758544537,0.019442333643593723,0.0,-1407.0,5.625,-1020.0,-840.0,0.0,0.0,1.926269334,0.019383583642656188,0.0,1587.0,0.125,900.0,840.0,0.0,0.0,4.916991684,0.019403166976302035,0.0,-1601.0,0.0,-960.0,-840.0,0.0,0.0,2.861327832,0.019377708642562438,0.0,0.8799999952316284,1.4700000286102295,0.10999999940395355,0.0595703125,-0.00482177734375,0.7462158203125,31.420000076293945,0.0,40.0,0.3266448974609375,-0.0157470703125,Waiting,0.0,0.0,0.0,0.0,0.0,0.0,0.0,0.0,
2.160494000000006,0.0,0.0,1625.0,0.25,885.0,840.0,0.0,0.0,3.762206646,0.020131778098311695,0.0,-1407.0,5.0,-1005.0,-840.0,0.0,0.0,1.926269334,0.020070944764009783,0.0,1587.0,0.125,892.5,840.0,0.0,0.0,4.9157709810000005,0.02009122254211042,0.0,-1601.0,0.0,-952.5,-840.0,0.0,0.0,2.858886426,0.020064861430579593,0.0,0.949999988079071,1.3799999952316284,0.15000000596046448,-0.112060546875,0.04296875,1.21820068359375,31.420000076293945,0.0,-141.0,0.3256988525390625,-0.0157318115234375,Waiting,0.0,0.0,0.0,0.0,0.0,0.0,0.0,0.0,
2.182253999999986,0.0,0.0,1625.0,0.25,877.5,840.0,0.0,0.0,3.760985943,0.020683333744274248,0.0012207029999995456,-1407.0,4.75,-922.5,-840.0,0.0,0.0,1.926269334,0.02062083374303248,0.0,1587.0,0.125,892.5,840.0,0.0,0.0,4.916991684,0.020641667076779738,0.0,-1601.0,0.0,-945.0,-840.0,0.0,0.0,2.8540036140000002,0.020614583742908307,0.0,0.9900000095367432,1.2899999618530273,0.18000000715255737,-0.068359375,0.0711669921875,1.259521484375,31.420000076293945,0.0,-96.0,0.3246002197265625,-0.01568603515625,Waiting,0.0,0.0,0.0,0.0,0.0,0.0,0.0,0.0,
2.200386999999988,0.0,0.0,1766.0,0.25,877.5,840.0,0.0,0.0,3.763427349,0.021097000427378554,0.0012207029999995456,-1501.0,4.75,-922.5,-840.0,0.0,0.0,1.926269334,0.021033250426087117,0.0,1731.0,0.125,892.5,840.0,0.0,0.0,4.916991684,0.021054500426517596,0.0,-1751.0,0.0,-937.5,-840.0,0.0,0.0,2.857665723,0.021026875425957974,0.0,0.8799999952316284,1.399999976158142,0.2199999988079071,-0.005615234375,-0.0260009765625,0.54595947265625,31.420000076293945,0.0,-19.0,0.32342529296875,-0.015625,Waiting,0.0,0.0,0.0,0.0,0.0,0.0,0.0,0.0,
2.2224590000000024,0.0,0.0,1766.0,0.25,877.5,840.0,0.0,0.0,3.756103131,0.022062222550974956,0.0012207029999995456,-1501.0,5.125,-555.0,-840.0,0.0,0.0,1.9250486310000001,0.021995555883314876,0.0,1731.0,0.125,892.5,840.0,0.0,0.0,4.914550278,0.022017778105868236,0.0,-1751.0,0.0,-930.0,-840.0,0.0,0.0,2.857665723,0.02198888921654887,0.0,1.0,1.1699999570846558,0.2800000011920929,-0.05987548828125,0.0574951171875,1.532958984375,31.420000076293945,0.0,-91.0,0.3233642578125,-0.0155181884765625,Waiting,0.0,0.0,0.0,0.0,0.0,0.0,0.0,0.0,
2.2404679999999937,0.0,0.0,1766.0,0.25,877.5,840.0000000000001,0.0,0.0,3.762206646,0.022475889234079255,0.0,-1501.0,6.5,-555.0,-840.0000000000001,0.0,0.0,1.927490037,0.0224079725663695,0.0,1731.0,0.125,892.5,840.0000000000001,0.0,0.0,4.9182123870000005,0.022430611455606087,0.0,-1751.0,0.0,-930.0,-840.0000000000001,0.0,0.0,2.857665723,0.022401180899598527,0.0,0.9599999785423279,1.2300000190734863,0.33000001311302185,-0.05657958984375,0.012451171875,0.95953369140625,31.420000076293945,0.0,-77.0,0.3231964111328125,-0.01544189453125,Waiting,0.0,0.0,0.0,0.0,0.0,0.0,0.0,0.0,
2.2598010000000066,0.0,0.0,1766.0,0.25,877.5,840.0,0.0,0.0,3.764648052,0.023165333842900065,0.0,-1501.0,8.375,-382.5,-840.0,0.0,0.0,1.927490037,0.023095333841360272,0.0,1731.0,0.125,892.5,840.0,0.0,0.0,4.9157709810000005,0.02311866717520687,0.0,-1751.0,0.0,-930.0,-840.0,0.0,0.0,2.860107129,0.023088333841206295,0.0,0.8600000143051147,1.3200000524520874,0.38999998569488525,0.0750732421875,-0.02630615234375,0.4844970703125,31.420000076293945,0.0,63.0,0.3230133056640625,-0.0153961181640625,Waiting,0.0,0.0,0.0,0.0,0.0,0.0,0.0,0.0,
2.2802179999999934,0.0,0.0,1766.0,0.25,877.5,840.0,0.0,0.0,3.75976524,0.023992666798167757,0.0,-1501.0,11.375,-300.0,-840.0,0.0,0.0,1.9165037100000002,0.02392016679777039,0.0,1731.0,0.125,885.0,840.0,0.0,0.0,4.916991684,0.023944333464569513,0.0,-1751.0,0.0,-930.0,-840.0,0.0,0.0,2.8564450200000002,0.023912916797730655,0.0,0.9100000262260437,1.2699999809265137,0.4399999976158142,-0.0390625,-0.021728515625,0.8565673828125,31.420000076293945,0.0,-58.0,0.322845458984375,-0.0153961181640625,Waiting,0.0,0.0,0.0,0.0,0.0,0.0,0.0,0.0,
2.3441600000000036,0.0,0.0,1905.0,0.25,870.0,840.0,0.0,0.0,3.760985943,0.025509444773197176,-0.0012207029999995456,-1632.0,13.75,-772.5,-840.0,0.0,0.0,1.926269334,0.02543236143887043,0.0012207029999995456,1870.0,0.125,862.5,840.0,0.0,0.0,4.9157709810000005,0.02545805588364601,0.0,-1902.0,0.0,-945.0,-840.0,0.0,0.0,2.860107129,0.025424653105437754,0.0,0.9599999785423279,1.2599999904632568,0.8399999737739563,-0.0496826171875,0.0855712890625,1.2591552734375,31.420000076293945,0.0,-76.0,0.32183837890625,-0.015228271484375,Waiting,0.0,0.0,0.0,0.0,0.0,0.0,0.0,0.0,
2.3596440000000003,0.0,0.0,1905.0,0.25,862.5,840.0,0.0,0.0,3.764648052,0.030197666633791396,-0.0012207029999995456,-1632.0,11.375,-937.5,-840.0,0.0,0.0,1.926269334,0.030106416633890732,0.0012207029999995456,1870.0,0.125,862.5,840.0,0.0,0.0,4.9157709810000005,0.030136833300524288,0.0,-1902.0,0.0,-945.0,-840.0,0.0,0.0,2.858886426,0.03009729163390067,0.0,0.9800000190734863,1.2100000381469727,0.9300000071525574,0.04486083984375,-0.0047607421875,1.2723388671875,31.420000076293945,0.0,17.0,0.32159423828125,-0.0151824951171875,Waiting,0.0,0.0,0.0,0.0,0.0,0.0,0.0,0.0,
2.3835629999999948,0.0,0.0,1905.0,0.25,855.0,840.0,0.0,0.0,3.764648052,0.03143866709404521,0.0012207029999995456,-1632.0,9.25,-1012.5,-840.0,0.0,0.0,1.926269334,0.031343667092753776,-0.0012207029999995456,1870.0,0.125,862.5,840.0,0.0,0.0,4.9157709810000005,0.03137533375985092,0.0,-1902.0,0.0,-952.5,-840.0,0.0,0.0,2.857665723,0.03133416709262463,0.0,0.9100000262260437,1.25,1.0,-0.03350830078125,0.0455322265625,0.7933349609375,31.420000076293945,0.0,-50.0,0.3213348388671875,-0.0151214599609375,Waiting,0.0,0.0,0.0,0.0,0.0,0.0,0.0,0.0,
2.400385999999999,0.0,0.0,1905.0,0.25,855.0,840.0,0.0,0.0,3.760985943,0.03336911216311985,0.0012207029999995456,-1632.0,7.5,-1012.5,-840.0,0.0,0.0,1.926269334,0.03326827882660759,-0.0012207029999995456,1870.0,0.125,870.0,840.0,0.0,0.0,4.9157709810000005,0.03330188993877835,0.0,-1902.0,0.0,-960.0,-840.0,0.0,0.0,2.858886426,0.033258195492956374,0.0,0.9300000071525574,1.190000057220459,1.1200000047683716,0.02911376953125,0.00469970703125,1.17889404296875,31.420000076293945,0.0,4.0,0.3207550048828125,-0.01507568359375,Waiting,0.0,0.0,0.0,0.0,0.0,0.0,0.0,0.0,
2.420146000000008,0.0,0.0,1905.0,0.25,855.0,839.9999999999999,0.0,0.0,3.762206646,0.03405855595005884,0.0012207029999995456,-1632.0,6.875,-982.5,-839.9999999999999,0.0,0.0,1.926269334,0.03395563928220008,0.0,1870.0,0.125,877.5,839.9999999999999,0.0,0.0,4.916991684,0.033989944838153,0.0,-1902.0,0.0,-960.0,-839.9999999999999,0.0,0.0,2.858886426,0.0339453476154142,0.0,1.0199999809265137,1.100000023841858,1.1699999570846558,-0.07171630859375,0.0986328125,1.65533447265625,31.420000076293945,0.0,-102.0,0.320404052734375,-0.0150299072265625,Waiting,0.0,0.0,0.0,0.0,0.0,0.0,0.0,0.0,
2.4392390000000015,0.0,0.0,1905.0,0.25,862.5,840.0,0.0,0.0,3.760985943,0.03474799973699782,0.0,-1783.0,6.5,-975.0,-840.0,0.0,0.0,1.9250486310000001,0.03464299973779254,0.0,2012.0,0.0,885.0,840.0,0.0,0.0,4.916991684,0.03467799973752764,0.0,-2053.0,0.0,-952.5,-840.0,0.0,0.0,2.857665723,0.03463249973787202,0.0,0.9599999785423279,1.159999966621399,1.2100000381469727,-0.06365966796875,-0.03375244140625,0.9608154296875,31.420000076293945,0.0,-84.0,0.3199310302734375,-0.0149688720703125,Waiting,0.0,0.0,0.0,0.0,0.0,0.0,0.0,0.0,
2.459231999999989,0.0,0.0,2046.0,0.25,870.0,840.0,0.0,0.0,3.760985943,0.03529955641031266,0.0,-1783.0,6.625,-952.5,-840.0,0.0,0.0,1.926269334,0.03519288974106312,0.0,2012.0,0.0,885.0,840.0,0.0,0.0,4.914550278,0.035228445297479635,0.0,-2053.0,0.0,-937.5,-840.0,0.0,0.0,2.8564450200000002,0.035182223074138166,0.0,0.8100000023841858,1.1299999952316284,1.309999942779541,0.04150390625,0.0423583984375,0.8798828125,31.420000076293945,0.0,24.0,0.318939208984375,-0.0149688720703125,Waiting,0.0,0.0,0.0,0.0,0.0,0.0,0.0,0.0,
2.48074099999998,0.0,0.0,2046.0,0.25,877.5,840.0,0.0,0.0,3.760985943,0.03667844398419063,0.0012207029999995456,-1783.0,6.625,-937.5,-840.0,0.0,0.0,1.927490037,0.03656761065224806,0.0,2012.0,0.0,885.0,840.0,0.0,0.0,4.916991684,0.03660455509622892,0.0,-2053.0,0.0,-930.0,-840.0,0.0,0.0,2.862548535,0.03655652731905381,0.0,1.0199999809265137,1.0299999713897705,1.340000033378601,-0.0072021484375,0.04052734375,1.5997314453125,31.420000076293945,0.0,-35.0,0.3184661865234375,-0.0149383544921875,Waiting,0.0,0.0,0.0,0.0,0.0,0.0,0.0,0.0,
2.499823999999993,0.0,0.0,2046.0,0.25,885.0,840.0,0.0,0.0,3.72314415,0.037092111900117665,0.0012207029999995456,-1783.0,6.875,-885.0,-840.0,0.0,0.0,1.926269334,0.03698002856440014,0.0,2012.0,0.0,877.5,840.0,0.0,0.0,4.9157709810000005,0.03701738967630598,0.0,-2053.0,0.0,-922.5,-840.0,0.0,0.0,2.860107129,0.03696882023082839,0.0,1.0199999809265137,1.059999942779541,1.3799999952316284,-0.0704345703125,0.04779052734375,1.3297119140625,31.420000076293945,0.0,-94.0,0.317901611328125,-0.014892578125,Waiting,0.0,0.0,0.0,0.0,0.0,0.0,0.0,0.0,
2.5204679999999935,0.0,0.0,2046.0,0.25,885.0,839.9999999999999,0.0,0.0,3.762206646,0.03805733320183224,0.0012207029999995456,-1783.0,7.125,-832.5,-839.9999999999999,0.0,0.0,1.926269334,0.037942333202229596,0.0,2012.0,0.0,877.5,839.9999999999999,0.0,0.0,4.9157709810000005,0.03798066653543048,0.0,-2053.0,0.0,-922.5,-839.9999999999999,0.0,0.0,2.858886426,0.03793083320226934,0.0,0.8100000023841858,1.100000023841858,1.4500000476837158,-0.00396728515625,0.1158447265625,0.61407470703125,31.420000076293945,0.0,-13.0,0.3166961669921875,-0.0147552490234375,Waiting,0.0,0.0,0.0,0.0,0.0,0.0,0.0,0.0,
2.541555999999982,0.0,0.0,2046.0,0.25,877.5,840.0,0.0,0.0,3.773192973,0.038608889875147094,-0.0012207029999995456,-1783.0,7.625,-765.0,-840.0,0.0,0.0,1.9238279280000001,0.03849222320550019,0.0,2012.0,0.125,870.0,840.0,0.0,0.0,4.913329575000001,0.03853111209538249,0.0,-2053.0,0.0,-915.0,-840.0,0.0,0.0,2.8564450200000002,0.0384805565385355,0.0,0.9100000262260437,1.0800000429153442,1.4900000095367432,-0.02166748046875,-0.06231689453125,0.98431396484375,31.420000076293945,0.0,-42.0,0.316070556640625,-0.0146636962890625,Waiting,0.0,0.0,0.0,0.0,0.0,0.0,0.0,0.0,
2.5597309999999998,0.0,0.0,2046.0,0.25,870.0,840.0,0.0,0.0,3.7854000030000003,0.03916044490469827,-0.0012207029999995456,-1889.0,8.25,-697.5,-840.0,0.0,0.0,1.926269334,0.039042111569974156,0.0,2150.0,0.125,862.5,840.0,0.0,0.0,4.9182123870000005,0.039081556014882196,0.0,-2198.0,0.0,-907.5,-840.0,0.0,0.0,2.857665723,0.03903027823650174,0.0,1.0099999904632568,1.0099999904632568,1.5299999713897705,-0.005859375,0.01904296875,1.28192138671875,31.420000076293945,0.0,-28.0,0.315399169921875,-0.0146026611328125,Waiting,0.0,0.0,0.0,0.0,0.0,0.0,0.0,0.0,
2.5805169999999924,0.0,0.0,2185.0,0.25,870.0,840.0,0.0,0.0,3.7768550820000004,0.04040144536495209,0.006103514999999504,-1889.0,9.0,-652.5,-840.0,0.0,0.0,1.9152830070000002,0.0402793620288372,0.0012207029999995456,2150.0,0.125,855.0,840.0,0.0,0.0,4.9182123870000005,0.04032005647420883,0.0,-2198.0,0.0,-907.5,-840.0,0.0,0.0,2.858886426,0.04026715369522572,0.0,0.8600000143051147,0.9700000286102295,1.649999976158142,0.0760498046875,0.0601806640625,0.95989990234375,31.420000076293945,0.0,60.0,0.31396484375,-0.0145416259765625,Waiting,0.0,0.0,0.0,0.0,0.0,0.0,0.0,0.0,
2.601036999999982,0.0,0.0,2185.0,0.25,870.0,840.0,0.0,0.0,3.763427349,0.041366666666666684,0.006103514999999504,-1889.0,10.125,-637.5,-840.0,0.0,0.0,1.927490037,0.041241666666666676,0.0012207029999995456,2150.0,0.125,855.0,840.0,0.0,0.0,4.9157709810000005,0.041283333333333345,0.0,-2198.0,0.0,-900.0,-840.0,0.0,0.0,2.858886426,0.04122916666666668,0.0,0.8700000047683716,1.0499999523162842,1.7200000286102295,0.0474853515625,0.01483154296875,0.78179931640625,31.420000076293945,0.0,33.0,0.313323974609375,-0.0144805908203125,Waiting,0.0,0.0,0.0,0.0,0.0,0.0,0.0,0.0,
2.6205989999999875,0.0,0.0,2185.0,0.25,870.0,840.0,0.0,0.0,3.773192973,0.0423318896121449,0.006103514999999504,-1889.0,10.75,-645.0,-840.0,0.0,0.0,1.9250486310000001,0.04220397294329273,-0.0012207029999995456,2150.0,0.125,847.5,840.0,0.0,0.0,4.914550278,0.04224661183291012,0.0,-2198.0,0.0,-900.0,-840.0,0.0,0.0,2.857665723,0.04219118127640751,0.0,0.8600000143051147,1.0,1.8600000143051147,0.0194091796875,0.08612060546875,0.9307861328125,31.420000076293945,0.0,5.0,0.3119354248046875,-0.014404296875,Waiting,0.0,0.0,0.0,0.0,0.0,0.0,0.0,0.0,
2.639676000000007,0.0,0.0,2185.0,0.25,862.5,840.0,0.0,0.0,3.75976524,0.044262333859337706,-0.0012207029999995456,-1889.0,10.75,-645.0,-840.0,0.0,0.0,1.926269334,0.04412858385774824,-0.0012207029999995456,2150.0,0.125,847.5,840.0,0.0,0.0,4.9157709810000005,0.04417316719161139,0.0,-2198.0,0.0,-892.5,-840.0,0.0,0.0,2.871093456,0.044115208857589294,0.0,0.9300000071525574,0.9200000166893005,1.9299999475479126,0.07659912109375,0.0289306640625,1.2900390625,31.420000076293945,0.0,55.0,0.3112640380859375,-0.014312744140625,Waiting,0.0,0.0,0.0,0.0,0.0,0.0,0.0,0.0,
2.668744000000006,0.0,0.0,2185.0,0.25,855.0,840.0,0.0,0.0,3.763427349,0.045227555161052285,-0.0012207029999995456,-1889.0,11.25,-712.5,-840.0,0.0,0.0,1.910400195,0.045090888495577706,0.0,2150.0,0.125,840.0,840.0,0.0,0.0,4.9206537930000005,0.0451364440507359,0.0,-2198.0,0.0,-892.5,-840.0,0.0,0.0,2.857665723,0.04507722182903025,0.0,0.8299999833106995,1.059999942779541,2.069999933242798,-0.00103759765625,-0.011962890625,0.61907958984375,31.420000076293945,0.0,-13.0,0.3099212646484375,-0.0142822265625,Waiting,0.0,0.0,0.0,0.0,0.0,0.0,0.0,0.0,
2.688823999999993,0.0,0.0,2321.0,0.25,847.5,0.0,0.0,0.0,3.773192973,0.0,0.0,-1996.0,11.375,-690.0,-0.0,0.0,0.0,1.926269334,0.0,0.0,2286.0,0.125,840.0,0.0,0.0,0.0,4.9182123870000005,0.0,0.0,-2344.0,0.0,-900.0,-0.0,0.0,0.0,2.862548535,0.0,0.0,0.7900000214576721,1.1200000047683716,2.140000104904175,0.051513671875,0.0406494140625,0.6162109375,31.420000076293945,0.0,40.0,0.3092498779296875,-0.0142974853515625,Waiting,0.0,0.0,0.0,0.0,0.0,0.0,0.0,0.0,
2.706149000000005,0.0,0.0,2321.0,0.25,847.5,0.0,0.0,0.0,3.768310161,0.0,0.0,-1996.0,11.375,-690.0,-0.0,0.0,0.0,1.926269334,0.0,0.0,2286.0,0.0,840.0,0.0,0.0,0.0,4.914550278,0.0,0.0,-2344.0,0.0,-900.0,-0.0,0.0,0.0,2.862548535,0.0,0.0,0.8799999952316284,0.9300000071525574,2.200000047683716,-0.02569580078125,0.11627197265625,1.3162841796875,31.420000076293945,0.0,-43.0,0.308563232421875,-0.01422119140625,Waiting,0.0,0.0,0.0,0.0,0.0,0.0,0.0,0.0,
2.7240559999999823,0.0,0.0,2321.0,0.125,840.0,0.0,0.0,0.0,3.770751567,0.0,0.0,-1996.0,9.25,-652.5,-0.0,0.0,0.0,1.927490037,0.0,0.0,2286.0,0.0,832.5,0.0,0.0,0.0,4.9157709810000005,0.0,0.0,-2344.0,0.375,-892.5,-0.0,0.0,0.0,2.862548535,0.0,0.004882811999999959,0.9300000071525574,0.8399999737739563,2.3299999237060547,-0.11199951171875,-0.04925537109375,0.8424072265625,31.420000076293945,0.0,-126.0,0.3067779541015625,-0.0140380859375,Waiting,0.0,0.0,0.0,0.0,0.0,0.0,0.0,0.0,
2.7432360000000044,0.0,0.0,2321.0,0.25,817.5,0.0,0.0,0.0,3.770751567,0.0,0.004882811999999959,-1996.0,6.75,-547.5,-0.0,0.0,0.0,1.926269334,0.0,0.0,2286.0,0.0,832.5,0.0,0.0,0.0,4.9182123870000005,0.0,0.0,-2344.0,0.875,-877.5,-0.0,0.0,0.0,2.862548535,0.0,0.004882811999999959,0.8700000047683716,0.5699999928474426,2.380000114440918,-0.269775390625,0.03326416015625,1.045166015625,31.420000076293945,0.0,-279.0,0.305511474609375,-0.0139923095703125,Waiting,0.0,0.0,0.0,0.0,0.0,0.0,0.0,0.0,
2.7602880000000005,0.0,0.0,2321.0,0.375,780.0,0.0,0.0,0.0,3.77197227,0.0,0.004882811999999959,-1996.0,4.5,-472.5,-0.0,0.0,0.0,1.9250486310000001,0.0,0.0,2286.0,0.0,795.0,0.0,0.0,0.0,4.916991684,0.0,0.0,-2344.0,0.875,-877.5,-0.0,0.0,0.0,2.862548535,0.0,0.004882811999999959,0.8299999833106995,0.3799999952316284,2.450000047683716,-0.26141357421875,0.0830078125,0.9434814453125,31.420000076293945,0.0,-264.0,0.303863525390625,-0.0138702392578125,Waiting,0.0,0.0,0.0,0.0,0.0,0.0,0.0,0.0,
2.7798580000000075,0.0,0.0,2321.0,0.625,727.5,0.0,0.0,0.0,3.770751567,0.0,-0.0012207029999995456,-1996.0,3.0,-450.0,-0.0,0.0,0.0,1.926269334,0.0,0.0,2286.0,0.125,742.5,0.0,0.0,0.0,4.916991684,0.0,0.0,-2344.0,1.5,-855.0,-0.0,0.0,0.0,2.862548535,0.0,0.0,0.8500000238418579,0.33000001311302185,2.5399999618530273,-0.35406494140625,0.0572509765625,0.6644287109375,31.420000076293945,0.0,-355.0,0.3018035888671875,-0.0136566162109375,Waiting,0.0,0.0,0.0,0.0,0.0,0.0,0.0,0.0,
2.798978999999992,0.0,0.0,2321.0,0.875,675.0,0.0,0.0,0.0,3.77197227,0.0,-0.0012207029999995456,-2093.0,2.875,-502.5,-0.0,0.0,0.0,1.926269334,0.0,0.0,2376.0,0.125,667.5,0.0,0.0,0.0,4.9182123870000005,0.0,0.0,-2466.0,1.75,-817.5,-0.0,0.0,0.0,2.862548535,0.0,0.0,0.9900000095367432,-0.25999999046325684,2.7699999809265137,-0.31573486328125,0.0318603515625,1.3883056640625,31.420000076293945,0.0,-308.0,0.29638671875,-0.013031005859375,Waiting,0.0,0.0,0.0,0.0,0.0,0.0,0.0,0.0,
2.8189649999999964,0.0,0.0,2419.0,0.875,622.5,0.0,0.0,0.0,3.77197227,0.0,-0.0012207029999995456,-2093.0,2.5,-600.0,-0.0,0.0,0.0,1.926269334,0.0,0.0012207029999995456,2376.0,0.125,585.0,0.0,0.0,0.0,4.916991684,0.0,0.0,-2466.0,2.25,-780.0,-0.0,0.0,0.0,2.862548535,0.0,0.0,0.8600000143051147,-0.3100000023841858,2.890000104904175,-0.25537109375,-0.012451171875,0.57818603515625,31.420000076293945,0.0,-252.0,0.2930908203125,-0.0126953125,Waiting,0.0,0.0,0.0,0.0,0.0,0.0,0.0,0.0,
2.8389169999999866,0.0,0.0,2419.0,0.875,570.0,0.0,0.0,0.0,3.773192973,0.0,0.0012207029999995456,-2093.0,2.125,-667.5,-0.0,0.0,0.0,1.926269334,0.0,0.0012207029999995456,2376.0,0.125,510.0,0.0,0.0,0.0,4.916991684,0.0,0.0,-2466.0,2.5,-727.5,-0.0,0.0,0.0,2.863769238,0.0,0.0,0.8299999833106995,-0.49000000953674316,2.9800000190734863,-0.27471923828125,0.00128173828125,0.64825439453125,31.420000076293945,0.0,-269.0,0.2894287109375,-0.012359619140625,Waiting,0.0,0.0,0.0,0.0,0.0,0.0,0.0,0.0,
