Time,ClimberA1,ClimberA2,FRpos,FRCurrent,FRspeed,FRsetpoint,FRApos,FRACurrent,FREncpos,FREncSetpoint,FREncSpeed,FLpos,FLCurrent,FLspeed,FLsetpoint,FLApos,FLACurrent,FLEncpos,FLEncSetpoint,FLEncSpeed,BRpos,BRCurrent,BRspeed,BRsetpoint,BRApos,BRACurrent,BREncpos,BREncSetpoint,BREncSpeed,BLpos,BLCurrent,BLspeed,BLsetpoint,BLApos,BLACurrent,BLEncpos,BLEncSetpoint,BLEncSpeed,navx_Pitch,navx_Roll,navx_Yaw,navx_XAcc,navx_YAcc,navx_ZAcc,navx_Temp,navx_Bar,navx_Alt,navx_XDis,navx_YDis,GearPlacerState,ShootOutputV,ShootOutputCurrent,ShootEncPos,ShootEncVelocity,ShootSpeed,ShootSetpoint,CarouselSetpoint,CarouselCurrent,
0.13396000000007915,0.0,0.0,16629.0,0.0,0.0,0.0,0.0,0.0,3.7866207060000003,0.0,0.0,-16665.0,0.0,0.0,-0.0,0.0,0.0,1.901855274,0.0,0.0,16526.0,0.0,0.0,0.0,0.0,0.0,4.866942861,0.0,0.0,-16563.0,0.0,0.0,-0.0,0.0,0.0,2.8967282190000003,0.0,0.0,1.1399999856948853,0.8100000023841858,0.0,0.0106201171875,0.0142822265625,0.9697265625,34.970001220703125,0.0,-3.0,-0.879547119140625,-1.364227294921875,Opening,0.0,0.0,16.0,0.0,0.0,0.0,0.0,0.0,
0.20840200000000186,0.0,0.0,16629.0,0.0,0.0,0.0,0.0,0.0,3.7854000030000003,0.0,0.0,-16665.0,0.0,0.0,-0.0,0.0,0.0,1.900634571,0.0,0.0,16526.0,0.0,0.0,0.0,0.0,0.0,4.871825673,0.0,0.0,-16563.0,0.0,0.0,-0.0,0.0,0.0,2.8967282190000003,0.0,-0.0012207029999999897,1.149999976158142,0.800000011920929,0.0,0.01177978515625,0.0257568359375,1.00732421875,34.970001220703125,0.0,-2.0,-0.879547119140625,-1.364227294921875,Closing,0.0,0.0,16.0,0.0,0.0,0.0,0.0,0.0,
0.2825920000000624,0.0,0.0,16629.0,0.0,0.0,0.0,0.0,0.0,3.7866207060000003,0.0,0.0,-16665.0,0.0,0.0,-0.0,0.0,0.0,1.901855274,0.0,0.0,16526.0,0.0,0.0,0.0,0.0,0.0,4.866942861,0.0,0.0,-16563.0,0.0,0.0,-0.0,0.0,0.0,2.8967282190000003,0.0,0.0,1.159999966621399,0.8199999928474426,0.0,0.02099609375,0.02642822265625,0.989501953125,34.970001220703125,0.0,6.0,-0.879547119140625,-1.364227294921875,Closing,0.0,0.0,16.0,0.0,0.0,0.0,0.0,0.0,
0.3547020000000484,0.0,0.0,16629.0,0.0,0.0,0.0,0.0,0.0,3.7854000030000003,0.0,0.0012207029999999897,-16665.0,0.0,0.0,-0.0,0.0,0.0,1.901855274,0.0,-0.0012207029999995456,16526.0,0.0,0.0,0.0,0.0,0.0,4.866942861,0.0,-0.0024414059999999793,-16563.0,0.0,0.0,-0.0,0.0,0.0,2.8955075160000003,0.0,0.0,1.149999976158142,0.8100000023841858,0.0,0.0029296875,0.02679443359375,1.00726318359375,35.0099983215332,0.0,-11.0,-0.879547119140625,-1.364227294921875,Closing,0.0,0.0,16.0,0.0,0.0,0.0,0.0,0.0,
0.4276240000000689,0.0,0.0,16629.0,0.0,0.0,0.0,0.0,0.0,3.7805171910000004,0.0,0.0,-16665.0,0.0,0.0,-0.0,0.0,0.0,1.901855274,0.0,0.0,16526.0,0.0,0.0,0.0,0.0,0.0,4.8730463760000005,0.0,0.0,-16563.0,0.0,0.0,-0.0,0.0,0.0,2.8979489220000003,0.0,0.0,1.149999976158142,0.8100000023841858,0.0,0.0140380859375,0.02447509765625,1.01568603515625,35.0099983215332,0.0,0.0,-0.879547119140625,-1.364227294921875,Closing,0.0,0.0,16.0,0.0,0.0,0.0,0.0,0.0,
0.5017580000000307,0.0,0.0,16629.0,0.0,0.0,0.0,0.0,0.0,3.7866207060000003,0.0,0.0012207029999999897,-16665.0,0.0,0.0,-0.0,0.0,0.0,1.901855274,0.0,0.0012207029999995456,16526.0,0.0,0.0,0.0,0.0,0.0,4.8730463760000005,0.0,-0.0012207029999995456,-16563.0,0.0,0.0,-0.0,0.0,0.0,2.8967282190000003,0.0,0.0012207029999999897,1.159999966621399,0.8199999928474426,0.0,0.02166748046875,0.0118408203125,0.98150634765625,35.0099983215332,0.0,7.0,-0.879547119140625,-1.364227294921875,Closing,0.0,0.0,16.0,0.0,0.0,0.0,0.0,0.0,
0.5724420000000391,0.0,0.0,16629.0,0.0,0.0,0.0,0.0,0.0,3.7854000030000003,0.0,0.0,-16665.0,0.0,0.0,-0.0,0.0,0.0,1.901855274,0.0,0.0,16526.0,0.0,0.0,0.0,0.0,0.0,4.866942861,0.0,0.0,-16563.0,0.0,0.0,-0.0,0.0,0.0,2.8967282190000003,0.0,0.0,1.149999976158142,0.8199999928474426,0.0,0.01470947265625,0.02056884765625,1.00396728515625,35.0099983215332,0.0,0.0,-0.879547119140625,-1.364227294921875,Closing,0.0,0.0,16.0,0.0,0.0,0.0,0.0,0.0,
0.6520770000000484,0.0,0.0,16629.0,0.0,0.0,0.0,0.0,0.0,3.7854000030000003,0.0,0.0,-16665.0,0.0,0.0,-0.0,0.0,0.0,1.901855274,0.0,0.0,16526.0,0.0,0.0,0.0,0.0,0.0,4.8730463760000005,0.0,-0.0012207029999995456,-16563.0,0.0,0.0,-0.0,0.0,0.0,2.8967282190000003,0.0,0.0,1.149999976158142,0.8100000023841858,0.0,0.01171875,0.02252197265625,1.01397705078125,35.0099983215332,0.0,-2.0,-0.879547119140625,-1.364227294921875,Closing,0.0,0.0,16.0,0.0,0.0,0.0,0.0,0.0,
0.7246830000000773,0.0,0.0,16629.0,0.0,0.0,0.0,0.0,0.0,3.7866207060000003,0.0,0.0,-16665.0,0.0,0.0,-0.0,0.0,0.0,1.900634571,0.0,0.0,16526.0,0.0,0.0,0.0,0.0,0.0,4.869384267,0.0,0.0,-16563.0,0.0,0.0,-0.0,0.0,0.0,2.8967282190000003,0.0,0.0,1.159999966621399,0.8199999928474426,0.0,0.0167236328125,0.01580810546875,0.99542236328125,35.0099983215332,0.0,2.0,-0.879547119140625,-1.364227294921875,Closing,0.0,0.0,16.0,0.0,0.0,0.0,0.0,0.0,
0.7994990000000689,0.0,0.0,16629.0,0.0,0.0,0.0,0.0,0.0,3.7854000030000003,0.0,0.0,-16665.0,0.0,0.0,-0.0,0.0,0.0,1.901855274,0.0,0.0012207029999995456,16526.0,0.0,0.0,0.0,0.0,0.0,4.8681635640000005,0.0,0.003662109000000413,-16563.0,0.0,0.0,-0.0,0.0,0.0,2.8967282190000003,0.0,0.0012207029999999897,1.1399999856948853,0.8299999833106995,0.0,0.0118408203125,0.0111083984375,0.990234375,34.9900016784668,0.0,-2.0,-0.879547119140625,-1.364227294921875,Closing,0.0,0.0,16.0,0.0,0.0,0.0,0.0,0.0,
0.8730200000000187,0.0,0.0,16629.0,0.0,0.0,0.0,0.0,0.0,3.7866207060000003,0.0,0.0,-16665.0,0.0,0.0,-0.0,0.0,0.0,1.901855274,0.0,0.0,16526.0,0.0,0.0,0.0,0.0,0.0,4.8730463760000005,0.0,0.0,-16563.0,0.0,0.0,-0.0,0.0,0.0,2.8967282190000003,0.0,0.0,1.1399999856948853,0.8100000023841858,0.0,0.0098876953125,0.02667236328125,1.00225830078125,34.9900016784668,0.0,-4.0,-0.879547119140625,-1.364227294921875,Closing,0.0,0.0,16.0,0.0,0.0,0.0,0.0,0.0,
0.9496589999999852,0.0,0.0,16629.0,0.0,0.0,0.0,0.0,0.0,3.7854000030000003,0.0,0.0,-16665.0,0.0,0.0,-0.0,0.0,0.0,1.901855274,0.0,0.0,16526.0,0.0,0.0,0.0,0.0,0.0,4.866942861,0.0,-0.0024414059999999793,-16563.0,0.0,0.0,-0.0,0.0,0.0,2.8967282190000003,0.0,0.0,1.1399999856948853,0.8199999928474426,0.0,0.02166748046875,0.0191650390625,0.9775390625,34.9900016784668,0.0,7.0,-0.879547119140625,-1.364227294921875,Closing,0.0,0.0,16.0,0.0,0.0,0.0,0.0,0.0,
1.0199340000000083,0.0,0.0,16629.0,0.0,0.0,0.0,0.0,0.0,3.7854000030000003,0.0,0.0,-16665.0,0.0,0.0,-0.0,0.0,0.0,1.900634571,0.0,0.0,16526.0,0.0,0.0,0.0,0.0,0.0,4.871825673,0.0,0.0,-16563.0,0.0,0.0,-0.0,0.0,0.0,2.8967282190000003,0.0,0.0,1.149999976158142,0.8199999928474426,0.0,0.014892578125,0.020263671875,0.99005126953125,34.9900016784668,0.0,0.0,-0.879547119140625,-1.364227294921875,Closing,0.0,0.0,16.0,0.0,0.0,0.0,0.0,0.0,
1.0924899999999906,0.0,0.0,16629.0,0.0,0.0,0.0,0.0,0.0,3.7866207060000003,0.0,0.0,-16665.0,0.0,0.0,-0.0,0.0,0.0,1.901855274,0.0,0.0012207029999995456,16526.0,0.0,0.0,0.0,0.0,0.0,4.866942861,0.0,0.0024414059999999793,-16563.0,0.0,0.0,-0.0,0.0,0.0,2.8955075160000003,0.0,0.0,1.149999976158142,0.8299999833106995,0.0,0.0169677734375,0.01177978515625,0.9906005859375,34.9900016784668,0.0,2.0,-0.879547119140625,-1.364227294921875,Closing,0.0,0.0,16.0,0.0,0.0,0.0,0.0,0.0,
1.1662449999999953,0.0,0.0,16629.0,0.0,0.0,0.0,0.0,0.0,3.7866207060000003,0.0,0.0,-16665.0,0.0,0.0,-0.0,0.0,0.0,1.901855274,0.0,0.0,16526.0,0.0,0.0,0.0,0.0,0.0,4.8657221580000005,0.0,0.0,-16563.0,0.0,0.0,-0.0,0.0,0.0,2.8979489220000003,0.0,0.0,1.1399999856948853,0.8299999833106995,0.0,0.01141357421875,0.01910400390625,1.0050048828125,34.9900016784668,0.0,-3.0,-0.879547119140625,-1.364227294921875,Closing,0.0,0.0,16.0,0.0,0.0,0.0,0.0,0.0,
1.2512510000000474,0.0,0.0,16629.0,0.0,0.0,0.0,0.0,0.0,3.7854000030000003,0.0,-0.0012207029999999897,-16665.0,0.0,0.0,-0.0,0.0,0.0,1.901855274,0.0,-0.0012207029999995456,16526.0,0.0,0.0,0.0,0.0,0.0,4.869384267,0.0,0.0,-16563.0,0.0,0.0,-0.0,0.0,0.0,2.8967282190000003,0.0,0.0,1.1299999952316284,0.8199999928474426,0.0,0.01312255859375,0.02081298828125,0.99981689453125,34.9900016784668,0.0,-1.0,-0.879547119140625,-1.364227294921875,Closing,0.0,0.0,16.0,0.0,0.0,0.0,0.0,0.0,
1.3257810000000754,0.0,0.0,16629.0,0.0,0.0,0.0,0.0,0.0,3.7854000030000003,0.0,0.0,-16665.0,0.0,0.0,-0.0,0.0,0.0,1.901855274,0.0,0.0,16526.0,0.0,0.0,0.0,0.0,0.0,4.8657221580000005,0.0,0.0,-16563.0,0.0,0.0,-0.0,0.0,0.0,2.8967282190000003,0.0,0.0,1.1299999952316284,0.8199999928474426,0.0,0.017333984375,0.014892578125,0.9947509765625,34.9900016784668,0.0,3.0,-0.879547119140625,-1.364227294921875,Closing,0.0,0.0,16.0,0.0,0.0,0.0,0.0,0.0,
1.400173000000068,0.0,0.0,16629.0,0.0,0.0,0.0,0.0,0.0,3.7854000030000003,0.0,0.0012207029999999897,-16665.0,0.0,0.0,-0.0,0.0,0.0,1.901855274,0.0,0.0012207029999995456,16526.0,0.0,0.0,0.0,0.0,0.0,4.8681635640000005,0.0,0.0012207029999995456,-16563.0,0.0,0.0,-0.0,0.0,0.0,2.8979489220000003,0.0,0.0,1.1399999856948853,0.8299999833106995,0.0,0.0140380859375,0.02215576171875,0.99249267578125,34.9900016784668,0.0,0.0,-0.879547119140625,-1.364227294921875,Closing,0.0,0.0,16.0,0.0,0.0,0.0,0.0,0.0,
1.4730010000000475,0.0,0.0,16629.0,0.0,0.0,0.0,0.0,0.0,3.7854000030000003,0.0,0.0,-16665.0,0.0,0.0,-0.0,0.0,0.0,1.901855274,0.0,0.0,16526.0,0.0,0.0,0.0,0.0,0.0,4.871825673,0.0,0.0,-16563.0,0.0,0.0,-0.0,0.0,0.0,2.8967282190000003,0.0,0.0,1.1399999856948853,0.8199999928474426,0.0,0.01019287109375,0.02227783203125,1.00555419921875,34.9900016784668,0.0,-4.0,-0.879547119140625,-1.364227294921875,Closing,0.0,0.0,16.0,0.0,0.0,0.0,0.0,0.0,
1.5475550000000513,0.0,0.0,16629.0,0.0,0.0,0.0,0.0,0.0,3.7854000030000003,0.0,0.0012207029999999897,-16665.0,0.0,0.0,-0.0,0.0,0.0,1.901855274,0.0,-0.0012207029999995456,16526.0,0.0,0.0,0.0,0.0,0.0,4.871825673,0.0,0.0,-16563.0,0.0,0.0,-0.0,0.0,0.0,2.8967282190000003,0.0,-0.0024414059999999793,1.1399999856948853,0.8100000023841858,0.0,0.0142822265625,0.0206298828125,1.00933837890625,34.9900016784668,0.0,0.0,-0.879547119140625,-1.364227294921875,Closing,0.0,0.0,16.0,0.0,0.0,0.0,0.0,0.0,
1.6169770000000716,0.0,0.0,16629.0,0.0,0.0,0.0,0.0,0.0,3.802489845,0.0,0.0,-16665.0,0.0,0.0,-0.0,0.0,0.0,1.901855274,0.0,0.0,16526.0,0.0,0.0,0.0,0.0,0.0,4.8681635640000005,0.0,0.0012207030000004337,-16563.0,0.0,0.0,-0.0,0.0,0.0,2.8967282190000003,0.0,0.0,1.1399999856948853,0.8199999928474426,0.0,0.0186767578125,0.022216796875,0.99517822265625,34.9900016784668,0.0,4.0,-0.879547119140625,-1.364227294921875,Closing,0.0,0.0,16.0,0.0,0.0,0.0,0.0,0.0,
1.692646000000066,0.0,0.0,16629.0,0.0,0.0,0.0,0.0,0.0,3.7854000030000003,0.0,-0.0012207029999999897,-16665.0,0.0,0.0,-0.0,0.0,0.0,1.901855274,0.0,0.0012207029999995456,16526.0,0.0,0.0,0.0,0.0,0.0,4.8730463760000005,0.0,0.0,-16563.0,0.0,0.0,-0.0,0.0,0.0,2.8967282190000003,0.0,-0.0012207029999999897,1.1399999856948853,0.8199999928474426,0.0,0.0137939453125,0.0252685546875,1.00067138671875,34.9900016784668,0.0,0.0,-0.879547119140625,-1.364227294921875,Closing,0.0,0.0,16.0,0.0,0.0,0.0,0.0,0.0,
1.7656600000000326,0.0,0.0,16629.0,0.0,0.0,0.0,0.0,0.0,3.7866207060000003,0.0,-0.0012207029999999897,-16665.0,0.0,0.0,-0.0,0.0,0.0,1.901855274,0.0,-0.0012207029999995456,16526.0,0.0,0.0,0.0,0.0,0.0,4.8681635640000005,0.0,-0.0012207030000004337,-16563.0,0.0,0.0,-0.0,0.0,0.0,2.8967282190000003,0.0,0.0,1.149999976158142,0.8100000023841858,0.0,0.01324462890625,0.02618408203125,0.99566650390625,34.9900016784668,0.0,0.0,-0.879547119140625,-1.364227294921875,Closing,0.0,0.0,16.0,0.0,0.0,0.0,0.0,0.0,
1.8381010000000242,0.0,0.0,16629.0,0.0,0.0,0.0,0.0,0.0,3.7854000030000003,0.0,0.0,-16665.0,0.0,0.0,-0.0,0.0,0.0,1.901855274,0.0,0.0,16526.0,0.0,0.0,0.0,0.0,0.0,4.8681635640000005,0.0,0.0,-16563.0,0.0,0.0,-0.0,0.0,0.0,2.8967282190000003,0.0,0.0,1.149999976158142,0.8199999928474426,0.0,0.01434326171875,0.01861572265625,0.99871826171875,35.0,0.0,0.0,-0.879547119140625,-1.364227294921875,Closing,0.0,0.0,16.0,0.0,0.0,0.0,0.0,0.0,
1.911423000000068,0.0,0.0,16629.0,0.0,0.0,0.0,0.0,0.0,3.7854000030000003,0.0,0.0012207029999999897,-16665.0,0.0,0.0,-0.0,0.0,0.0,1.901855274,0.0,-0.0012207029999995456,16526.0,0.0,0.0,0.0,0.0,0.0,4.866942861,0.0,0.0012207029999995456,-16563.0,0.0,0.0,-0.0,0.0,0.0,2.8967282190000003,0.0,-0.0012207029999999897,1.1399999856948853,0.8199999928474426,0.0,0.0115966796875,0.00250244140625,0.9932861328125,35.0,0.0,-2.0,-0.879547119140625,-1.364227294921875,Closing,0.0,0.0,16.0,0.0,0.0,0.0,0.0,0.0,
1.9887460000000428,0.0,0.0,16629.0,0.0,0.0,0.0,0.0,0.0,3.7866207060000003,0.0,0.0,-16665.0,0.0,0.0,-0.0,0.0,0.0,1.907958789,0.0,0.0,16526.0,0.0,0.0,0.0,0.0,0.0,4.866942861,0.0,0.0,-16563.0,0.0,0.0,-0.0,0.0,0.0,2.8955075160000003,0.0,0.0,1.149999976158142,0.8199999928474426,0.0,0.010498046875,0.01416015625,1.01409912109375,35.0,0.0,-4.0,-0.879547119140625,-1.364227294921875,Closing,0.0,0.0,16.0,0.0,0.0,0.0,0.0,0.0,
2.0646269999999785,0.0,0.0,16629.0,0.0,0.0,0.0,0.0,0.0,3.7854000030000003,0.0,0.0012207029999999897,-16665.0,0.0,0.0,-0.0,0.0,0.0,1.901855274,0.0,0.0,16526.0,0.0,0.0,0.0,0.0,0.0,4.8730463760000005,0.0,0.0012207030000004337,-16563.0,0.0,0.0,-0.0,0.0,0.0,2.8967282190000003,0.0,0.0,1.149999976158142,0.8199999928474426,0.0,0.01202392578125,0.016845703125,0.99969482421875,35.0,0.0,-2.0,-0.879547119140625,-1.364227294921875,Closing,0.0,0.0,16.0,0.0,0.0,0.0,0.0,0.0,
2.1387320000000765,0.0,0.0,16629.0,0.0,0.0,0.0,0.0,0.0,3.7854000030000003,0.0,0.0,-16665.0,0.0,0.0,-0.0,0.0,0.0,1.900634571,0.0,0.0,16526.0,0.0,0.0,0.0,0.0,0.0,4.866942861,0.0,0.0,-16563.0,0.0,0.0,-0.0,0.0,0.0,2.8967282190000003,0.0,0.0,1.149999976158142,0.8199999928474426,0.0,0.01580810546875,0.0198974609375,0.9779052734375,35.0,0.0,1.0,-0.879547119140625,-1.364227294921875,Closing,0.0,0.0,16.0,0.0,0.0,0.0,0.0,0.0,
2.2123270000000486,0.0,0.0,16629.0,0.0,0.0,0.0,0.0,0.0,3.7866207060000003,0.0,0.0012207029999999897,-16665.0,0.0,0.0,-0.0,0.0,0.0,1.900634571,0.0,0.0,16526.0,0.0,0.0,0.0,0.0,0.0,4.869384267,0.0,-0.0012207029999995456,-16563.0,0.0,0.0,-0.0,0.0,0.0,2.8967282190000003,0.0,0.0,1.1399999856948853,0.8299999833106995,0.0,0.01776123046875,0.0159912109375,0.99365234375,35.0,0.0,3.0,-0.879547119140625,-1.364227294921875,Closing,0.0,0.0,16.0,0.0,0.0,0.0,0.0,0.0,
2.2898599999999862,0.0,0.0,16629.0,0.0,0.0,0.0,0.0,0.0,3.7854000030000003,0.0,0.0,-16665.0,0.0,0.0,-0.0,0.0,0.0,1.901855274,0.0,0.0,16526.0,0.0,0.0,0.0,0.0,0.0,4.8706049700000005,0.0,0.0,-16563.0,0.0,0.0,-0.0,0.0,0.0,2.8967282190000003,0.0,0.0,1.1299999952316284,0.8199999928474426,0.0,0.0242919921875,0.01898193359375,0.98516845703125,35.0,0.0,10.0,-0.879547119140625,-1.364227294921875,Closing,0.0,0.0,16.0,0.0,0.0,0.0,0.0,0.0,
2.3681589999999852,0.0,0.0,16629.0,0.0,0.0,0.0,0.0,0.0,3.7854000030000003,0.0,0.0012207029999999897,-16665.0,0.0,0.0,-0.0,0.0,0.0,1.901855274,0.0,0.0,16526.0,0.0,0.0,0.0,0.0,0.0,4.8681635640000005,0.0,-0.0012207029999995456,-16563.0,0.0,0.0,-0.0,0.0,0.0,2.8967282190000003,0.0,0.0,1.1399999856948853,0.8199999928474426,0.0,0.01446533203125,0.01611328125,1.0035400390625,35.0,0.0,0.0,-0.879547119140625,-1.364227294921875,Closing,0.0,0.0,16.0,0.0,0.0,0.0,0.0,0.0,
2.447008000000031,0.0,0.0,16629.0,0.0,0.0,0.0,0.0,0.0,3.7854000030000003,0.0,0.0,-16665.0,0.0,0.0,-0.0,0.0,0.0,1.900634571,0.0,0.0,16526.0,0.0,0.0,0.0,0.0,0.0,4.8681635640000005,0.0,-0.0012207030000004337,-16563.0,0.0,0.0,-0.0,0.0,0.0,2.8967282190000003,0.0,0.0,1.1399999856948853,0.8199999928474426,-0.009999999776482582,0.009765625,0.02313232421875,1.0111083984375,35.0,0.0,-4.0,-0.879547119140625,-1.364227294921875,Closing,0.0,0.0,16.0,0.0,0.0,0.0,0.0,0.0,
2.514756999999983,0.0,0.0,16629.0,0.0,0.0,0.0,0.0,0.0,3.7854000030000003,0.0,-0.0012207029999999897,-16665.0,0.0,0.0,-0.0,0.0,0.0,1.901855274,0.0,0.0,16526.0,0.0,0.0,0.0,0.0,0.0,4.864501455,0.0,0.0,-16563.0,0.0,0.0,-0.0,0.0,0.0,2.8955075160000003,0.0,0.0,1.1399999856948853,0.8199999928474426,-0.009999999776482582,0.005615234375,0.0260009765625,1.00537109375,35.0,0.0,-8.0,-0.879547119140625,-1.364227294921875,Closing,0.0,0.0,16.0,0.0,0.0,0.0,0.0,0.0,
2.5906260000000474,0.0,0.0,16629.0,0.0,0.0,0.0,0.0,0.0,3.7866207060000003,0.0,0.0,-16665.0,0.0,0.0,-0.0,0.0,0.0,1.901855274,0.0,0.0,16526.0,0.0,0.0,0.0,0.0,0.0,4.8730463760000005,0.0,0.004882811999999959,-16563.0,0.0,0.0,-0.0,0.0,0.0,2.8967282190000003,0.0,0.0012207029999999897,1.1299999952316284,0.8199999928474426,-0.009999999776482582,0.0126953125,0.0167236328125,0.995361328125,35.0,0.0,-1.0,-0.879547119140625,-1.364227294921875,Closing,0.0,0.0,16.0,0.0,0.0,0.0,0.0,0.0,
2.6656900000000605,0.0,0.0,16629.0,0.0,0.0,0.0,0.0,0.0,3.7878414090000003,0.0,0.0,-16665.0,0.0,0.0,-0.0,0.0,0.0,1.901855274,0.0,0.0,16526.0,0.0,0.0,0.0,0.0,0.0,4.866942861,0.0,-0.0024414059999999793,-16563.0,0.0,0.0,-0.0,0.0,0.0,2.8967282190000003,0.0,-0.0012207029999999897,1.1299999952316284,0.8199999928474426,-0.009999999776482582,0.00982666015625,0.01708984375,0.9921875,35.0,0.0,-4.0,-0.879547119140625,-1.364227294921875,Closing,0.0,0.0,16.0,0.0,0.0,0.0,0.0,0.0,
2.7391350000000094,0.0,0.0,16629.0,0.0,0.0,0.0,0.0,0.0,3.7854000030000003,0.0,0.0,-16665.0,0.0,0.0,-0.0,0.0,0.0,1.901855274,0.0,0.0,16526.0,0.0,0.0,0.0,0.0,0.0,4.8681635640000005,0.0,0.0,-16563.0,0.0,0.0,-0.0,0.0,0.0,2.8967282190000003,0.0,0.0,1.1399999856948853,0.8199999928474426,0.0,0.014892578125,0.01171875,0.9794921875,35.0,0.0,0.0,-0.879547119140625,-1.364227294921875,Closing,0.0,0.0,16.0,0.0,0.0,0.0,0.0,0.0,
2.812996999999974,0.0,0.0,16629.0,0.0,0.0,0.0,0.0,0.0,3.7866207060000003,0.0,-0.0012207029999999897,-16665.0,0.0,0.0,-0.0,0.0,0.0,1.900634571,0.0,0.0,16526.0,0.0,0.0,0.0,0.0,0.0,4.8681635640000005,0.0,-0.003662109000000413,-16563.0,0.0,0.0,-0.0,0.0,0.0,2.8967282190000003,0.0,0.0,1.1399999856948853,0.8100000023841858,-0.009999999776482582,0.00592041015625,0.02435302734375,1.00555419921875,35.0,0.0,-8.0,-0.879547119140625,-1.364227294921875,Closing,0.0,0.0,16.0,0.0,0.0,0.0,0.0,0.0,
2.8905130000000354,0.0,0.0,16629.0,0.0,0.0,0.0,0.0,0.0,3.7854000030000003,0.0,0.0,-16665.0,0.0,0.0,-0.0,0.0,0.0,1.901855274,0.0,0.0,16526.0,0.0,0.0,0.0,0.0,0.0,4.8681635640000005,0.0,0.0,-16563.0,0.0,0.0,-0.0,0.0,0.0,2.8967282190000003,0.0,0.0,1.1399999856948853,0.8100000023841858,0.0,0.01605224609375,0.02093505859375,0.99639892578125,34.970001220703125,0.0,1.0,-0.879547119140625,-1.364227294921875,Closing,0.0,0.0,16.0,0.0,0.0,0.0,0.0,0.0,
2.9656909999999916,0.0,0.0,16629.0,0.0,0.0,0.0,0.0,0.0,3.7841793000000004,0.0,0.0,-16665.0,0.0,0.0,-0.0,0.0,0.0,1.900634571,0.0,-0.0012207029999995456,16526.0,0.0,0.0,0.0,0.0,0.0,4.8730463760000005,0.0,0.003662109000000413,-16563.0,0.0,0.0,-0.0,0.0,0.0,2.8967282190000003,0.0,0.0,1.1399999856948853,0.8100000023841858,-0.009999999776482582,0.0146484375,0.02447509765625,1.00518798828125,34.970001220703125,0.0,0.0,-0.879547119140625,-1.364227294921875,Closing,0.0,0.0,16.0,0.0,0.0,0.0,0.0,0.0,
3.032613000000012,0.0,0.0,16629.0,0.0,0.0,0.0,0.0,0.0,3.7866207060000003,0.0,0.0,-16665.0,0.0,0.0,-0.0,0.0,0.0,1.900634571,0.0,0.0,16526.0,0.0,0.0,0.0,0.0,0.0,4.8681635640000005,0.0,0.0,-16563.0,0.0,0.0,-0.0,0.0,0.0,2.8967282190000003,0.0,0.0,1.1399999856948853,0.8100000023841858,0.0,0.0137939453125,0.020263671875,1.001708984375,34.970001220703125,0.0,0.0,-0.879547119140625,-1.364227294921875,Closing,0.0,0.0,16.0,0.0,0.0,0.0,0.0,0.0,
3.109603000000003,0.0,0.0,16629.0,0.0,0.0,0.0,0.0,0.0,3.7866207060000003,0.0,0.0012207029999999897,-16665.0,0.0,0.0,-0.0,0.0,0.0,1.901855274,0.0,0.0,16526.0,0.0,0.0,0.0,0.0,0.0,4.866942861,0.0,0.0,-16563.0,0.0,0.0,-0.0,0.0,0.0,2.8955075160000003,0.0,0.0,1.1399999856948853,0.8100000023841858,0.0,0.0146484375,0.0184326171875,1.00787353515625,34.970001220703125,0.0,0.0,-0.879547119140625,-1.364227294921875,Closing,0.0,0.0,16.0,0.0,0.0,0.0,0.0,0.0,
3.182124000000069,0.0,0.0,16629.0,0.0,0.0,0.0,0.0,0.0,3.7854000030000003,0.0,0.0,-16665.0,0.0,0.0,-0.0,0.0,0.0,1.901855274,0.0,0.0,16526.0,0.0,0.0,0.0,0.0,0.0,4.8681635640000005,0.0,0.0,-16563.0,0.0,0.0,-0.0,0.0,0.0,2.8967282190000003,0.0,0.0,1.1299999952316284,0.800000011920929,0.0,0.0093994140625,0.01568603515625,1.00177001953125,34.970001220703125,0.0,-4.0,-0.879547119140625,-1.364227294921875,Closing,0.0,0.0,16.0,0.0,0.0,0.0,0.0,0.0,
3.2561410000000617,0.0,0.0,16629.0,0.0,0.0,0.0,0.0,0.0,3.7854000030000003,0.0,0.0,-16665.0,0.0,0.0,-0.0,0.0,0.0,1.901855274,0.0,0.0,16526.0,0.0,0.0,0.0,0.0,0.0,4.871825673,0.0,0.0012207029999995456,-16563.0,0.0,0.0,-0.0,0.0,0.0,2.8967282190000003,0.0,0.0,1.1299999952316284,0.7900000214576721,0.0,0.0157470703125,0.0216064453125,0.99932861328125,34.970001220703125,0.0,1.0,-0.879547119140625,-1.364227294921875,Closing,0.0,0.0,16.0,0.0,0.0,0.0,0.0,0.0,
3.330695999999996,0.0,0.0,16629.0,0.0,0.0,0.0,0.0,0.0,3.7854000030000003,0.0,0.0,-16665.0,0.0,0.0,-0.0,0.0,0.0,1.901855274,0.0,0.0,16526.0,0.0,0.0,0.0,0.0,0.0,4.8681635640000005,0.0,0.0,-16563.0,0.0,0.0,-0.0,0.0,0.0,2.8979489220000003,0.0,0.0,1.1299999952316284,0.800000011920929,0.0,0.015380859375,0.0184326171875,0.9976806640625,34.970001220703125,0.0,1.0,-0.879547119140625,-1.364227294921875,Closing,0.0,0.0,16.0,0.0,0.0,0.0,0.0,0.0,
3.4091070000000765,0.0,0.0,16629.0,0.0,0.0,0.0,0.0,0.0,3.7854000030000003,0.0,0.0,-16665.0,0.0,0.0,-0.0,0.0,0.0,1.901855274,0.0,-0.0012207029999995456,16526.0,0.0,0.0,0.0,0.0,0.0,4.8681635640000005,0.0,0.0,-16563.0,0.0,0.0,-0.0,0.0,0.0,2.8967282190000003,0.0,0.0,1.1200000047683716,0.7900000214576721,0.0,0.01312255859375,0.0185546875,0.99920654296875,34.97999954223633,0.0,0.0,-0.879547119140625,-1.364227294921875,Closing,0.0,0.0,16.0,0.0,0.0,0.0,0.0,0.0,
3.4885169999999928,0.0,0.0,16629.0,0.0,0.0,0.0,0.0,0.0,3.7854000030000003,0.0,0.0,-16665.0,0.0,0.0,-0.0,0.0,0.0,1.901855274,0.0,0.0,16526.0,0.0,0.0,0.0,0.0,0.0,4.869384267,0.0,0.0,-16563.0,0.0,0.0,-0.0,0.0,0.0,2.8967282190000003,0.0,0.0,1.1299999952316284,0.7900000214576721,0.0,0.01275634765625,0.0220947265625,1.0023193359375,34.97999954223633,0.0,-1.0,-0.879547119140625,-1.364227294921875,Closing,0.0,0.0,16.0,0.0,0.0,0.0,0.0,0.0,
3.5594180000000635,0.0,0.0,16629.0,0.0,0.0,0.0,0.0,0.0,3.7854000030000003,0.0,0.0012207029999999897,-16665.0,0.0,0.0,-0.0,0.0,0.0,1.901855274,0.0,0.0,16526.0,0.0,0.0,0.0,0.0,0.0,4.866942861,0.0,0.0024414059999999793,-16563.0,0.0,0.0,-0.0,0.0,0.0,2.8967282190000003,0.0,0.0,1.1299999952316284,0.7799999713897705,0.0,0.01251220703125,0.0213623046875,0.9945068359375,34.97999954223633,0.0,-1.0,-0.879547119140625,-1.364227294921875,Closing,0.0,0.0,16.0,0.0,0.0,0.0,0.0,0.0,
3.6320420000000158,0.0,0.0,16629.0,0.0,0.0,0.0,0.0,0.0,3.7841793000000004,0.0,0.0,-16665.0,0.0,0.0,-0.0,0.0,0.0,1.901855274,0.0,0.0,16526.0,0.0,0.0,0.0,0.0,0.0,4.8681635640000005,0.0,0.0,-16563.0,0.0,0.0,-0.0,0.0,0.0,2.8967282190000003,0.0,0.0,1.1299999952316284,0.7799999713897705,0.0,0.0150146484375,0.01806640625,1.00445556640625,34.97999954223633,0.0,1.0,-0.879547119140625,-1.364227294921875,Closing,0.0,0.0,16.0,0.0,0.0,0.0,0.0,0.0,
3.7079089999999852,0.0,0.0,16629.0,0.0,0.0,0.0,0.0,0.0,3.7854000030000003,0.0,0.0,-16665.0,0.0,0.0,-0.0,0.0,0.0,1.901855274,0.0,0.0,16526.0,0.0,0.0,0.0,0.0,0.0,4.866942861,0.0,0.0,-16563.0,0.0,0.0,-0.0,0.0,0.0,2.8967282190000003,0.0,0.0,1.1299999952316284,0.7900000214576721,0.0,0.01373291015625,0.0196533203125,1.007080078125,34.97999954223633,0.0,0.0,-0.879547119140625,-1.364227294921875,Closing,0.0,0.0,16.0,0.0,0.0,0.0,0.0,0.0,
3.7806600000000326,0.0,0.0,16629.0,0.0,0.0,0.0,0.0,0.0,3.7854000030000003,0.0,0.0,-16665.0,0.0,0.0,-0.0,0.0,0.0,1.901855274,0.0,0.0,16526.0,0.0,0.0,0.0,0.0,0.0,4.8681635640000005,0.0,0.0,-16563.0,0.0,0.0,-0.0,0.0,0.0,2.8967282190000003,0.0,0.0,1.1299999952316284,0.7799999713897705,0.0,0.01531982421875,0.02105712890625,1.00103759765625,34.97999954223633,0.0,1.0,-0.879547119140625,-1.364227294921875,Closing,0.0,0.0,16.0,0.0,0.0,0.0,0.0,0.0,
3.852930999999982,0.0,0.0,16629.0,0.0,0.0,0.0,0.0,0.0,3.7866207060000003,0.0,0.0,-16665.0,0.0,0.0,-0.0,0.0,0.0,1.901855274,0.0,0.0,16526.0,0.0,0.0,0.0,0.0,0.0,4.874267079,0.0,0.0024414059999999793,-16563.0,0.0,0.0,-0.0,0.0,0.0,2.8967282190000003,0.0,0.0,1.1299999952316284,0.7799999713897705,0.0,0.01226806640625,0.01904296875,0.98876953125,34.97999954223633,0.0,-1.0,-0.879547119140625,-1.364227294921875,Closing,0.0,0.0,16.0,0.0,0.0,0.0,0.0,0.0,
3.9175960000000196,0.0,0.0,16629.0,0.0,0.0,0.0,0.0,0.0,3.7854000030000003,0.0,0.0,-16665.0,0.0,0.0,-0.0,0.0,0.0,1.901855274,0.0,0.0012207029999995456,16526.0,0.0,0.0,0.0,0.0,0.0,4.8681635640000005,0.0,-0.0012207030000004337,-16563.0,0.0,0.0,-0.0,0.0,0.0,2.8967282190000003,0.0,0.0,1.1299999952316284,0.7799999713897705,0.0,0.01226806640625,0.0201416015625,0.9986572265625,34.9900016784668,0.0,-1.0,-0.879547119140625,-1.364227294921875,Closing,0.0,0.0,16.0,0.0,0.0,0.0,0.0,0.0,
3.992530000000028,0.0,0.0,16629.0,0.0,0.0,0.0,0.0,0.0,3.7854000030000003,0.0,0.0,-16665.0,0.0,0.0,-0.0,0.0,0.0,1.901855274,0.0,0.0,16526.0,0.0,0.0,0.0,0.0,0.0,4.866942861,0.0,0.0,-16563.0,0.0,0.0,-0.0,0.0,0.0,2.8967282190000003,0.0,0.0,1.1299999952316284,0.7799999713897705,0.0,0.01531982421875,0.017822265625,0.99139404296875,34.9900016784668,0.0,1.0,-0.879547119140625,-1.364227294921875,Closing,0.0,0.0,16.0,0.0,0.0,0.0,0.0,0.0,
4.069327000000048,0.0,0.0,16629.0,0.0,0.0,0.0,0.0,0.0,3.7841793000000004,0.0,0.0,-16665.0,0.0,0.0,-0.0,0.0,0.0,1.900634571,0.0,0.0,16526.0,0.0,0.0,0.0,0.0,0.0,4.871825673,0.0,0.0,-16563.0,0.0,0.0,-0.0,0.0,0.0,2.8955075160000003,0.0,-0.0012207029999999897,1.1299999952316284,0.7799999713897705,0.0,0.013916015625,0.01806640625,0.99615478515625,34.9900016784668,0.0,0.0,-0.879547119140625,-1.364227294921875,Closing,0.0,0.0,16.0,0.0,0.0,0.0,0.0,0.0,
4.1378059999999826,0.0,0.0,16629.0,0.0,0.0,0.0,0.0,0.0,3.7854000030000003,0.0,0.0,-16665.0,0.0,0.0,-0.0,0.0,0.0,1.901855274,0.0,0.0,16526.0,0.0,0.0,0.0,0.0,0.0,4.871825673,0.0,0.0,-16563.0,0.0,0.0,-0.0,0.0,0.0,2.8967282190000003,0.0,0.0,1.1399999856948853,0.7799999713897705,0.0,0.0142822265625,0.0186767578125,1.00140380859375,34.9900016784668,0.0,0.0,-0.879547119140625,-1.364227294921875,Closing,0.0,0.0,16.0,0.0,0.0,0.0,0.0,0.0,
4.212094999999972,0.0,0.0,16629.0,0.0,0.0,0.0,0.0,0.0,3.7854000030000003,0.0,0.0,-16665.0,0.0,0.0,-0.0,0.0,0.0,1.901855274,0.0,0.0,16526.0,0.0,0.0,0.0,0.0,0.0,4.8681635640000005,0.0,0.0,-16563.0,0.0,0.0,-0.0,0.0,0.0,2.8967282190000003,0.0,0.0,1.1399999856948853,0.7699999809265137,0.0,0.0078125,0.0233154296875,0.99853515625,34.9900016784668,0.0,-5.0,-0.879547119140625,-1.364227294921875,Closing,0.0,0.0,16.0,0.0,0.0,0.0,0.0,0.0,
4.282625,0.0,0.0,16629.0,0.0,0.0,0.0,0.0,0.0,3.7854000030000003,0.0,0.0,-16665.0,0.0,0.0,-0.0,0.0,0.0,1.901855274,0.0,0.0,16526.0,0.0,0.0,0.0,0.0,0.0,4.871825673,0.0,0.0,-16563.0,0.0,0.0,-0.0,0.0,0.0,2.8967282190000003,0.0,0.0,1.149999976158142,0.7599999904632568,0.0,0.01495361328125,0.01947021484375,0.99591064453125,34.9900016784668,0.0,1.0,-0.879547119140625,-1.364227294921875,Closing,0.0,0.0,16.0,0.0,0.0,0.0,0.0,0.0,
4.365165999999968,0.0,0.0,16629.0,0.0,0.0,0.0,0.0,0.0,3.7854000030000003,0.0,0.0,-16665.0,0.0,0.0,-0.0,0.0,0.0,1.900634571,0.0,0.0,16526.0,0.0,0.0,0.0,0.0,0.0,4.8681635640000005,0.0,0.0,-16563.0,0.0,0.0,-0.0,0.0,0.0,2.8967282190000003,0.0,0.0,1.1399999856948853,0.7799999713897705,0.0,0.0146484375,0.01947021484375,0.99835205078125,34.9900016784668,0.0,1.0,-0.879547119140625,-1.364227294921875,Closing,0.0,0.0,16.0,0.0,0.0,0.0,0.0,0.0,
4.437103000000003,0.0,0.0,16629.0,0.0,0.0,0.0,0.0,0.0,3.7866207060000003,0.0,0.0,-16665.0,0.0,0.0,-0.0,0.0,0.0,1.901855274,0.0,0.0,16526.0,0.0,0.0,0.0,0.0,0.0,4.869384267,0.0,0.0,-16563.0,0.0,0.0,-0.0,0.0,0.0,2.8967282190000003,0.0,0.0,1.1399999856948853,0.7699999809265137,0.0,0.00714111328125,0.0203857421875,0.99835205078125,34.9900016784668,0.0,-6.0,-0.879547119140625,-1.364227294921875,Closing,0.0,0.0,16.0,0.0,0.0,0.0,0.0,0.0,
4.512540999999969,0.0,0.0,16629.0,0.0,0.0,0.0,0.0,0.0,3.7854000030000003,0.0,0.0,-16665.0,0.0,0.0,-0.0,0.0,0.0,1.901855274,0.0,0.0,16526.0,0.0,0.0,0.0,0.0,0.0,4.8681635640000005,0.0,0.0012207030000004337,-16563.0,0.0,0.0,-0.0,0.0,0.0,2.8967282190000003,0.0,0.0,1.1399999856948853,0.7599999904632568,0.0,0.01605224609375,0.02288818359375,0.9921875,34.9900016784668,0.0,2.0,-0.879547119140625,-1.364227294921875,Closing,0.0,0.0,16.0,0.0,0.0,0.0,0.0,0.0,
4.590624000000069,0.0,0.0,16629.0,0.0,0.0,0.0,0.0,0.0,3.7866207060000003,0.0,0.0,-16665.0,0.0,0.0,-0.0,0.0,0.0,1.901855274,0.0,0.0,16526.0,0.0,0.0,0.0,0.0,0.0,4.8681635640000005,0.0,0.0,-16563.0,0.0,0.0,-0.0,0.0,0.0,2.8967282190000003,0.0,0.0,1.149999976158142,0.7699999809265137,0.0,0.01580810546875,0.021728515625,0.9906005859375,34.9900016784668,0.0,2.0,-0.879547119140625,-1.364227294921875,Closing,0.0,0.0,16.0,0.0,0.0,0.0,0.0,0.0,
4.665023999999976,0.0,0.0,16629.0,0.0,0.0,0.0,0.0,0.0,3.7854000030000003,0.0,-0.0012207029999999897,-16665.0,0.0,0.0,-0.0,0.0,0.0,1.901855274,0.0,0.0,16526.0,0.0,0.0,0.0,0.0,0.0,4.871825673,0.0,0.0,-16563.0,0.0,0.0,-0.0,0.0,0.0,2.8967282190000003,0.0,0.0,1.1399999856948853,0.7799999713897705,0.0,0.01580810546875,0.01678466796875,0.98974609375,34.9900016784668,0.0,2.0,-0.879547119140625,-1.364227294921875,Closing,0.0,0.0,16.0,0.0,0.0,0.0,0.0,0.0,
4.734123000000022,0.0,0.0,16629.0,0.0,0.0,0.0,0.0,0.0,3.7854000030000003,0.0,0.0,-16665.0,0.0,0.0,-0.0,0.0,0.0,1.901855274,0.0,0.0,16526.0,0.0,0.0,0.0,0.0,0.0,4.866942861,0.0,0.0,-16563.0,0.0,0.0,-0.0,0.0,0.0,2.8955075160000003,0.0,0.0,1.1299999952316284,0.7699999809265137,0.0,0.00994873046875,0.01593017578125,1.0025634765625,34.9900016784668,0.0,-3.0,-0.879547119140625,-1.364227294921875,Closing,0.0,0.0,16.0,0.0,0.0,0.0,0.0,0.0,
4.809775000000023,0.0,0.0,16629.0,0.0,0.0,0.0,0.0,0.0,3.7854000030000003,0.0,0.0,-16665.0,0.0,0.0,-0.0,0.0,0.0,1.901855274,0.0,0.0,16526.0,0.0,0.0,0.0,0.0,0.0,4.8681635640000005,0.0,0.0012207030000004337,-16563.0,0.0,0.0,-0.0,0.0,0.0,2.8967282190000003,0.0,0.0,1.1399999856948853,0.7599999904632568,0.0,0.01214599609375,0.0235595703125,1.0010986328125,34.9900016784668,0.0,-1.0,-0.879547119140625,-1.364227294921875,Closing,0.0,0.0,16.0,0.0,0.0,0.0,0.0,0.0,
4.886016000000062,0.0,0.0,16629.0,0.0,0.0,0.0,0.0,0.0,3.7854000030000003,0.0,0.0,-16665.0,0.0,0.0,-0.0,0.0,0.0,1.901855274,0.0,0.0,16526.0,0.0,0.0,0.0,0.0,0.0,4.874267079,0.0,0.0,-16563.0,0.0,0.0,-0.0,0.0,0.0,2.8967282190000003,0.0,0.0,1.1399999856948853,0.7699999809265137,-0.009999999776482582,0.017333984375,0.01837158203125,0.99676513671875,34.97999954223633,0.0,3.0,-0.879547119140625,-1.364227294921875,Closing,0.0,0.0,16.0,0.0,0.0,0.0,0.0,0.0,
4.960125,0.0,0.0,16629.0,0.0,0.0,0.0,0.0,0.0,3.7854000030000003,0.0,0.0,-16665.0,0.0,0.0,-0.0,0.0,0.0,1.901855274,0.0,0.0,16526.0,0.0,0.0,0.0,0.0,0.0,4.8681635640000005,0.0,0.0,-16563.0,0.0,0.0,-0.0,0.0,0.0,2.8967282190000003,0.0,0.0,1.1399999856948853,0.7699999809265137,-0.009999999776482582,0.01397705078125,0.0155029296875,0.998291015625,34.97999954223633,0.0,0.0,-0.879547119140625,-1.364227294921875,Closing,0.0,0.0,16.0,0.0,0.0,0.0,0.0,0.0,
5.03097100000002,0.0,0.0,16629.0,0.0,0.0,0.0,0.0,0.0,3.7854000030000003,0.0,0.0012207029999999897,-16665.0,0.0,0.0,-0.0,0.0,0.0,1.901855274,0.0,0.0,16526.0,0.0,0.0,0.0,0.0,0.0,4.8730463760000005,0.0,0.0,-16563.0,0.0,0.0,-0.0,0.0,0.0,2.8967282190000003,0.0,0.0,1.1299999952316284,0.7599999904632568,-0.009999999776482582,0.0078125,0.01824951171875,0.99920654296875,34.97999954223633,0.0,-5.0,-0.879547119140625,-1.364227294921875,Closing,0.0,0.0,16.0,0.0,0.0,0.0,0.0,0.0,
5.105826000000001,0.0,0.0,16629.0,0.0,0.0,0.0,0.0,0.0,3.7854000030000003,0.0,-0.0012207029999999897,-16665.0,0.0,0.0,-0.0,0.0,0.0,1.901855274,0.0,0.0,16526.0,0.0,0.0,0.0,0.0,0.0,4.866942861,0.0,0.0,-16563.0,0.0,0.0,-0.0,0.0,0.0,2.8967282190000003,0.0,0.0,1.1399999856948853,0.75,-0.009999999776482582,0.01580810546875,0.02996826171875,0.999267578125,34.97999954223633,0.0,2.0,-0.879547119140625,-1.364227294921875,Closing,0.0,0.0,16.0,0.0,0.0,0.0,0.0,0.0,
5.173505000000005,0.0,0.0,16629.0,0.0,0.0,0.0,0.0,0.0,3.7854000030000003,0.0,0.0012207029999999897,-16665.0,0.0,0.0,-0.0,0.0,0.0,1.901855274,0.0,0.0,16526.0,0.0,0.0,0.0,0.0,0.0,4.8681635640000005,0.0,0.0012207030000004337,-16563.0,0.0,0.0,-0.0,0.0,0.0,2.8967282190000003,0.0,0.0,1.149999976158142,0.7599999904632568,-0.009999999776482582,0.01397705078125,0.02142333984375,0.99456787109375,34.97999954223633,0.0,0.0,-0.879547119140625,-1.364227294921875,Closing,0.0,0.0,16.0,0.0,0.0,0.0,0.0,0.0,
5.250670999999973,0.0,0.0,16629.0,0.0,0.0,0.0,0.0,0.0,3.7854000030000003,0.0,0.0,-16665.0,0.0,0.0,-0.0,0.0,0.0,1.900634571,0.0,0.0,16526.0,0.0,0.0,0.0,0.0,0.0,4.8681635640000005,0.0,0.0,-16563.0,0.0,0.0,-0.0,0.0,0.0,2.8967282190000003,0.0,0.0,1.1299999952316284,0.75,-0.009999999776482582,0.0123291015625,0.01654052734375,0.99871826171875,34.97999954223633,0.0,0.0,-0.879547119140625,-1.364227294921875,Closing,0.0,0.0,16.0,0.0,0.0,0.0,0.0,0.0,
5.326199000000022,0.0,0.0,16629.0,0.0,0.0,0.0,0.0,0.0,3.7866207060000003,0.0,0.0,-16665.0,0.0,0.0,-0.0,0.0,0.0,1.901855274,0.0,0.0,16526.0,0.0,0.0,0.0,0.0,0.0,4.866942861,0.0,-0.0012207030000004337,-16563.0,0.0,0.0,-0.0,0.0,0.0,2.8967282190000003,0.0,0.0,1.1200000047683716,0.7599999904632568,-0.009999999776482582,0.01470947265625,0.01885986328125,0.9822998046875,34.97999954223633,0.0,1.0,-0.879547119140625,-1.364227294921875,Closing,0.0,0.0,16.0,0.0,0.0,0.0,0.0,0.0,
5.406901000000071,0.0,0.0,16629.0,0.0,0.0,0.0,0.0,0.0,3.7866207060000003,0.0,0.0,-16665.0,0.0,0.0,-0.0,0.0,0.0,1.901855274,0.0,0.0,16526.0,0.0,0.0,0.0,0.0,0.0,4.8730463760000005,0.0,0.0012207030000004337,-16563.0,0.0,0.0,-0.0,0.0,0.0,2.8967282190000003,0.0,0.0,1.1399999856948853,0.75,-0.009999999776482582,0.00762939453125,0.02587890625,1.01141357421875,34.970001220703125,0.0,-5.0,-0.879547119140625,-1.364227294921875,Closing,0.0,0.0,16.0,0.0,0.0,0.0,0.0,0.0,
5.4753420000000625,0.0,0.0,16629.0,0.0,0.0,0.0,0.0,0.0,3.7854000030000003,0.0,0.0,-16665.0,0.0,0.0,-0.0,0.0,0.0,1.901855274,0.0,0.0,16526.0,0.0,0.0,0.0,0.0,0.0,4.8681635640000005,0.0,0.0012207029999995456,-16563.0,0.0,0.0,-0.0,0.0,0.0,2.8979489220000003,0.0,0.0,1.1299999952316284,0.75,-0.009999999776482582,0.01226806640625,0.0140380859375,0.9677734375,34.970001220703125,0.0,0.0,-0.879547119140625,-1.364227294921875,Closing,0.0,0.0,16.0,0.0,0.0,0.0,0.0,0.0,
5.551768999999971,0.0,0.0,16629.0,0.0,0.0,0.0,0.0,0.0,3.7866207060000003,0.0,0.0,-16665.0,0.0,0.0,-0.0,0.0,0.0,1.901855274,0.0,0.0,16526.0,0.0,0.0,0.0,0.0,0.0,4.866942861,0.0,-0.0024414059999999793,-16563.0,0.0,0.0,-0.0,0.0,0.0,2.8967282190000003,0.0,-0.0012207029999999897,1.1299999952316284,0.7599999904632568,-0.009999999776482582,0.0146484375,0.01904296875,1.0028076171875,34.970001220703125,0.0,1.0,-0.879547119140625,-1.364227294921875,Closing,0.0,0.0,16.0,0.0,0.0,0.0,0.0,0.0,
5.624222000000067,0.0,0.0,16629.0,0.0,0.0,0.0,0.0,0.0,3.7854000030000003,0.0,-0.0012207029999999897,-16665.0,0.0,0.0,-0.0,0.0,0.0,1.900634571,0.0,0.0,16526.0,0.0,0.0,0.0,0.0,0.0,4.871825673,0.0,0.0,-16563.0,0.0,0.0,-0.0,0.0,0.0,2.8967282190000003,0.0,0.0,1.1399999856948853,0.7599999904632568,-0.009999999776482582,0.014404296875,0.02313232421875,1.00262451171875,34.970001220703125,0.0,0.0,-0.879547119140625,-1.364227294921875,Closing,0.0,0.0,16.0,0.0,0.0,0.0,0.0,0.0,
5.706560000000056,0.0,0.0,16629.0,0.0,0.0,0.0,0.0,0.0,3.7866207060000003,0.0,0.0,-16665.0,0.0,0.0,-0.0,0.0,0.0,1.900634571,0.0,0.0,16526.0,0.0,0.0,0.0,0.0,0.0,4.8681635640000005,0.0,-0.0024414059999999793,-16563.0,0.0,0.0,-0.0,0.0,0.0,2.8967282190000003,0.0,0.0,1.1399999856948853,0.75,-0.009999999776482582,0.01092529296875,0.0172119140625,0.9970703125,34.970001220703125,0.0,-2.0,-0.879547119140625,-1.364227294921875,Closing,0.0,0.0,16.0,0.0,0.0,0.0,0.0,0.0,
5.7752199999999725,0.0,0.0,16629.0,0.0,0.0,0.0,0.0,0.0,3.7854000030000003,0.0,0.0012207029999999897,-16665.0,0.0,0.0,-0.0,0.0,0.0,1.901855274,0.0,0.0,16526.0,0.0,0.0,0.0,0.0,0.0,4.866942861,0.0,0.0012207030000004337,-16563.0,0.0,0.0,-0.0,0.0,0.0,2.8967282190000003,0.0,0.0,1.1399999856948853,0.75,-0.009999999776482582,0.01446533203125,0.018310546875,0.9998779296875,34.970001220703125,0.0,1.0,-0.879547119140625,-1.364227294921875,Closing,0.0,0.0,16.0,0.0,0.0,0.0,0.0,0.0,
5.852665000000037,0.0,0.0,16629.0,0.0,0.0,0.0,0.0,0.0,3.7841793000000004,0.0,0.0,-16665.0,0.0,0.0,-0.0,0.0,0.0,1.901855274,0.0,0.0,16526.0,0.0,0.0,0.0,0.0,0.0,4.8730463760000005,0.0,-0.0012207030000004337,-16563.0,0.0,0.0,-0.0,0.0,0.0,2.8967282190000003,0.0,0.0,1.1399999856948853,0.7599999904632568,-0.009999999776482582,0.01373291015625,0.02069091796875,0.999267578125,34.970001220703125,0.0,0.0,-0.879547119140625,-1.364227294921875,Closing,0.0,0.0,16.0,0.0,0.0,0.0,0.0,0.0,
5.927881000000053,0.0,0.0,16629.0,0.0,0.0,0.0,0.0,0.0,3.7854000030000003,0.0,0.0,-16665.0,0.0,0.0,-0.0,0.0,0.0,1.901855274,0.0,0.0,16526.0,0.0,0.0,0.0,0.0,0.0,4.866942861,0.0,0.0,-16563.0,0.0,0.0,-0.0,0.0,0.0,2.8967282190000003,0.0,0.0,1.1399999856948853,0.75,-0.009999999776482582,0.01446533203125,0.01934814453125,1.0040283203125,34.959999084472656,0.0,1.0,-0.879547119140625,-1.364227294921875,Closing,0.0,0.0,16.0,0.0,0.0,0.0,0.0,0.0,
6.007305999999982,0.0,0.0,16629.0,0.0,0.0,0.0,0.0,0.0,3.7866207060000003,0.0,-0.0012207029999999897,-16665.0,0.0,0.0,-0.0,0.0,0.0,1.903075977,0.0,0.0,16526.0,0.0,0.0,0.0,0.0,0.0,4.8730463760000005,0.0,0.0,-16563.0,0.0,0.0,-0.0,0.0,0.0,2.8967282190000003,0.0,0.0,1.149999976158142,0.7599999904632568,-0.009999999776482582,0.01507568359375,0.01898193359375,1.00018310546875,34.959999084472656,0.0,1.0,-0.879547119140625,-1.364227294921875,Closing,0.0,0.0,16.0,0.0,0.0,0.0,0.0,0.0,
6.0820729999999745,0.0,0.0,16629.0,0.0,0.0,0.0,0.0,0.0,3.7866207060000003,0.0,0.0,-16665.0,0.0,0.0,-0.0,0.0,0.0,1.901855274,0.0,0.0,16526.0,0.0,0.0,0.0,0.0,0.0,4.866942861,0.0,0.0,-16563.0,0.0,0.0,-0.0,0.0,0.0,2.8955075160000003,0.0,0.0,1.1399999856948853,0.75,-0.009999999776482582,0.01019287109375,0.02325439453125,0.9923095703125,34.959999084472656,0.0,-2.0,-0.879547119140625,-1.364227294921875,Closing,0.0,0.0,16.0,0.0,0.0,0.0,0.0,0.0,
6.162634000000078,0.0,0.0,16629.0,0.0,0.0,0.0,0.0,0.0,3.7866207060000003,0.0,0.0,-16665.0,0.0,0.0,-0.0,0.0,0.0,1.901855274,0.0,0.0,16526.0,0.0,0.0,0.0,0.0,0.0,4.866942861,0.0,0.0,-16563.0,0.0,0.0,-0.0,0.0,0.0,2.8967282190000003,0.0,0.0,1.149999976158142,0.75,-0.009999999776482582,0.018310546875,0.0211181640625,0.9976806640625,34.959999084472656,0.0,5.0,-0.879547119140625,-1.364227294921875,Closing,0.0,0.0,16.0,0.0,0.0,0.0,0.0,0.0,
6.234996999999974,0.0,0.0,16629.0,0.0,0.0,0.0,0.0,0.0,3.7854000030000003,0.0,0.0,-16665.0,0.0,0.0,-0.0,0.0,0.0,1.901855274,0.0,0.0,16526.0,0.0,0.0,0.0,0.0,0.0,4.869384267,0.0,0.0,-16563.0,0.0,0.0,-0.0,0.0,0.0,2.8967282190000003,0.0,0.0,1.149999976158142,0.7599999904632568,-0.009999999776482582,0.01580810546875,0.018310546875,1.0050048828125,34.959999084472656,0.0,2.0,-0.879547119140625,-1.364227294921875,Closing,0.0,0.0,16.0,0.0,0.0,0.0,0.0,0.0,
6.311864000000059,0.0,0.0,16629.0,0.0,0.0,0.0,0.0,0.0,3.7854000030000003,0.0,0.0,-16665.0,0.0,0.0,-0.0,0.0,0.0,1.901855274,0.0,0.0,16526.0,0.0,0.0,0.0,0.0,0.0,4.866942861,0.0,-0.0012207030000004337,-16563.0,0.0,0.0,-0.0,0.0,0.0,2.8967282190000003,0.0,0.0,1.1399999856948853,0.75,-0.009999999776482582,0.00958251953125,0.016845703125,0.997314453125,34.959999084472656,0.0,-3.0,-0.879547119140625,-1.364227294921875,Closing,0.0,0.0,16.0,0.0,0.0,0.0,0.0,0.0,
6.388954000000027,0.0,0.0,16629.0,0.0,0.0,0.0,0.0,0.0,3.7854000030000003,0.0,0.0,-16665.0,0.0,0.0,-0.0,0.0,0.0,1.901855274,0.0,0.0,16526.0,0.0,0.0,0.0,0.0,0.0,4.8681635640000005,0.0,0.0,-16563.0,0.0,0.0,-0.0,0.0,0.0,2.8979489220000003,0.0,0.0,1.1399999856948853,0.75,-0.009999999776482582,0.0145263671875,0.02227783203125,1.000732421875,34.959999084472656,0.0,1.0,-0.879547119140625,-1.364227294921875,Closing,0.0,0.0,16.0,0.0,0.0,0.0,0.0,0.0,
6.469626999999979,0.0,0.0,16629.0,0.0,0.0,0.0,0.0,0.0,3.7854000030000003,0.0,0.0,-16665.0,0.0,0.0,-0.0,0.0,0.0,1.903075977,0.0,-0.0012207029999995456,16526.0,0.0,0.0,0.0,0.0,0.0,4.8657221580000005,0.0,0.003662109000000413,-16563.0,0.0,0.0,-0.0,0.0,0.0,2.8967282190000003,0.0,0.0,1.149999976158142,0.75,-0.009999999776482582,0.0150146484375,0.02117919921875,0.9906005859375,34.970001220703125,0.0,1.0,-0.879547119140625,-1.364227294921875,Closing,0.0,0.0,16.0,0.0,0.0,0.0,0.0,0.0,
6.549902000000002,0.0,0.0,16629.0,0.0,0.0,0.0,0.0,0.0,3.7854000030000003,0.0,0.0,-16665.0,0.0,0.0,-0.0,0.0,0.0,1.901855274,0.0,0.0,16526.0,0.0,0.0,0.0,0.0,0.0,4.8657221580000005,0.0,0.0,-16563.0,0.0,0.0,-0.0,0.0,0.0,2.8979489220000003,0.0,0.0,1.149999976158142,0.7599999904632568,-0.009999999776482582,0.013916015625,0.01702880859375,1.00860595703125,34.970001220703125,0.0,0.0,-0.879547119140625,-1.364227294921875,Closing,0.0,0.0,16.0,0.0,0.0,0.0,0.0,0.0,
6.626805999999982,0.0,0.0,16629.0,0.0,0.0,0.0,0.0,0.0,3.7841793000000004,0.0,0.0,-16665.0,0.0,0.0,-0.0,0.0,0.0,1.901855274,0.0,0.0,16526.0,0.0,0.0,0.0,0.0,0.0,4.8657221580000005,0.0,-0.0012207029999995456,-16563.0,0.0,0.0,-0.0,0.0,0.0,2.8955075160000003,0.0,0.0,1.1299999952316284,0.75,-0.009999999776482582,0.0111083984375,0.01959228515625,0.98822021484375,34.970001220703125,0.0,-1.0,-0.879547119140625,-1.364227294921875,Closing,0.0,0.0,16.0,0.0,0.0,0.0,0.0,0.0,
6.707832000000053,0.0,0.0,16629.0,0.0,0.0,0.0,0.0,0.0,3.7829585970000004,0.0,0.0,-16665.0,0.0,0.0,-0.0,0.0,0.0,1.901855274,0.0,0.0,16526.0,0.0,0.0,0.0,0.0,0.0,4.866942861,0.0,-0.0012207030000004337,-16563.0,0.0,0.0,-0.0,0.0,0.0,2.8967282190000003,0.0,0.0,1.1399999856948853,0.75,-0.009999999776482582,0.01416015625,0.0233154296875,0.99481201171875,34.970001220703125,0.0,0.0,-0.879547119140625,-1.364227294921875,Closing,0.0,0.0,16.0,0.0,0.0,0.0,0.0,0.0,
6.78961699999997,0.0,0.0,16629.0,0.0,0.0,0.0,0.0,0.0,3.7854000030000003,0.0,0.0,-16665.0,0.0,0.0,-0.0,0.0,0.0,1.901855274,0.0,0.0,16526.0,0.0,0.0,0.0,0.0,0.0,4.866942861,0.0,0.0,-16563.0,0.0,0.0,-0.0,0.0,0.0,2.8967282190000003,0.0,0.0,1.1399999856948853,0.75,-0.009999999776482582,0.01287841796875,0.02081298828125,0.991943359375,34.970001220703125,0.0,0.0,-0.879547119140625,-1.364227294921875,Closing,0.0,0.0,16.0,0.0,0.0,0.0,0.0,0.0,
6.867565999999991,0.0,0.0,16629.0,0.0,0.0,0.0,0.0,0.0,3.7854000030000003,0.0,0.0,-16665.0,0.0,0.0,-0.0,0.0,0.0,1.901855274,0.0,0.0,16526.0,0.0,0.0,0.0,0.0,0.0,4.866942861,0.0,0.0012207030000004337,-16563.0,0.0,0.0,-0.0,0.0,0.0,2.8967282190000003,0.0,0.0,1.1299999952316284,0.7599999904632568,-0.009999999776482582,0.01300048828125,0.0179443359375,0.991943359375,34.970001220703125,0.0,0.0,-0.879547119140625,-1.364227294921875,Closing,0.0,0.0,16.0,0.0,0.0,0.0,0.0,0.0,
6.946158000000054,0.0,0.0,16629.0,0.0,0.0,0.0,0.0,0.0,3.7854000030000003,0.0,0.0,-16665.0,0.0,0.0,-0.0,0.0,0.0,1.901855274,0.0,0.0,16526.0,0.0,0.0,0.0,0.0,0.0,4.8681635640000005,0.0,0.0,-16563.0,0.0,0.0,-0.0,0.0,0.0,2.8967282190000003,0.0,0.0,1.1299999952316284,0.75,-0.009999999776482582,0.0150146484375,0.01983642578125,0.992919921875,34.970001220703125,0.0,1.0,-0.879547119140625,-1.364227294921875,Closing,0.0,0.0,16.0,0.0,0.0,0.0,0.0,0.0,
7.023945999999996,0.0,0.0,16629.0,0.0,0.0,0.0,0.0,0.0,3.7866207060000003,0.0,0.0,-16665.0,0.0,0.0,-0.0,0.0,0.0,1.901855274,0.0,0.0,16526.0,0.0,0.0,0.0,0.0,0.0,4.866942861,0.0,0.0024414059999999793,-16563.0,0.0,0.0,-0.0,0.0,0.0,2.8967282190000003,0.0,0.0,1.1399999856948853,0.75,-0.009999999776482582,0.011474609375,0.02117919921875,1.00030517578125,34.970001220703125,0.0,-1.0,-0.879547119140625,-1.364227294921875,Closing,0.0,0.0,16.0,0.0,0.0,0.0,0.0,0.0,
7.107986000000033,0.0,0.0,16629.0,0.0,0.0,0.0,0.0,0.0,3.7866207060000003,0.0,0.0,-16665.0,0.0,0.0,-0.0,0.0,0.0,1.901855274,0.0,0.0,16526.0,0.0,0.0,0.0,0.0,0.0,4.866942861,0.0,-0.0012207029999995456,-16563.0,0.0,0.0,-0.0,0.0,0.0,2.8955075160000003,0.0,0.0,1.1299999952316284,0.75,-0.019999999552965164,0.015869140625,0.022705078125,0.98724365234375,34.970001220703125,0.0,2.0,-0.879547119140625,-1.364227294921875,Closing,0.0,0.0,16.0,0.0,0.0,0.0,0.0,0.0,
7.184537000000011,0.0,0.0,16629.0,0.0,0.0,0.0,0.0,0.0,3.7854000030000003,0.0,0.0,-16665.0,0.0,0.0,-0.0,0.0,0.0,1.901855274,0.0,0.0,16526.0,0.0,0.0,0.0,0.0,0.0,4.866942861,0.0,0.0,-16563.0,0.0,0.0,-0.0,0.0,0.0,2.8967282190000003,0.0,0.0,1.1399999856948853,0.7699999809265137,-0.019999999552965164,0.01666259765625,0.018310546875,1.0010986328125,34.970001220703125,0.0,3.0,-0.879547119140625,-1.364227294921875,Closing,0.0,0.0,16.0,0.0,0.0,0.0,0.0,0.0,
7.268790000000037,0.0,0.0,16629.0,0.0,0.0,0.0,0.0,0.0,3.7854000030000003,0.0,0.0,-16665.0,0.0,0.0,-0.0,0.0,0.0,1.900634571,0.0,0.0,16526.0,0.0,0.0,0.0,0.0,0.0,4.866942861,0.0,0.0,-16563.0,0.0,0.0,-0.0,0.0,0.0,2.8955075160000003,0.0,0.0,1.1399999856948853,0.7699999809265137,-0.019999999552965164,0.011474609375,0.02044677734375,1.00042724609375,34.970001220703125,0.0,-2.0,-0.879547119140625,-1.364227294921875,Closing,0.0,0.0,16.0,0.0,0.0,0.0,0.0,0.0,
7.344521000000066,0.0,0.0,16629.0,0.0,0.0,0.0,0.0,0.0,3.7854000030000003,0.0,0.0,-16665.0,0.0,0.0,-0.0,0.0,0.0,1.900634571,0.0,0.0,16526.0,0.0,0.0,0.0,0.0,0.0,4.866942861,0.0,0.0,-16563.0,0.0,0.0,-0.0,0.0,0.0,2.8967282190000003,0.0,0.0,1.1399999856948853,0.7599999904632568,-0.019999999552965164,0.0120849609375,0.020263671875,1.00775146484375,34.970001220703125,0.0,-1.0,-0.879547119140625,-1.364227294921875,Closing,0.0,0.0,16.0,0.0,0.0,0.0,0.0,0.0,
7.4276419999999925,0.0,0.0,16629.0,0.0,0.0,0.0,0.0,0.0,3.7854000030000003,0.0,0.0012207029999999897,-16665.0,0.0,0.0,-0.0,0.0,0.0,1.901855274,0.0,0.0,16526.0,0.0,0.0,0.0,0.0,0.0,4.8730463760000005,0.0,0.0012207030000004337,-16563.0,0.0,0.0,-0.0,0.0,0.0,2.8967282190000003,0.0,0.0,1.1399999856948853,0.7599999904632568,-0.019999999552965164,0.01165771484375,0.0208740234375,0.99200439453125,34.95000076293945,0.0,-1.0,-0.879547119140625,-1.364227294921875,Closing,0.0,0.0,16.0,0.0,0.0,0.0,0.0,0.0,
7.509026000000071,0.0,0.0,16629.0,0.0,0.0,0.0,0.0,0.0,3.7854000030000003,0.0,0.0,-16665.0,0.0,0.0,-0.0,0.0,0.0,1.901855274,0.0,0.0,16526.0,0.0,0.0,0.0,0.0,0.0,4.866942861,0.0,-0.0012207030000004337,-16563.0,0.0,0.0,-0.0,0.0,0.0,2.8955075160000003,0.0,0.0,1.1399999856948853,0.7699999809265137,-0.019999999552965164,0.01690673828125,0.0155029296875,1.00640869140625,34.95000076293945,0.0,3.0,-0.879547119140625,-1.364227294921875,Closing,0.0,0.0,16.0,0.0,0.0,0.0,0.0,0.0,
7.5848009999999775,0.0,0.0,16629.0,0.0,0.0,0.0,0.0,0.0,3.7854000030000003,0.0,0.0,-16665.0,0.0,0.0,-0.0,0.0,0.0,1.901855274,0.0,0.0,16526.0,0.0,0.0,0.0,0.0,0.0,4.8681635640000005,0.0,0.0,-16563.0,0.0,0.0,-0.0,0.0,0.0,2.8955075160000003,0.0,0.0,1.1399999856948853,0.7799999713897705,-0.019999999552965164,0.01593017578125,0.01739501953125,0.97943115234375,34.95000076293945,0.0,2.0,-0.879547119140625,-1.364227294921875,Closing,0.0,0.0,16.0,0.0,0.0,0.0,0.0,0.0,
7.656143999999971,0.0,0.0,16629.0,0.0,0.0,0.0,0.0,0.0,3.7866207060000003,0.0,0.0,-16665.0,0.0,0.0,-0.0,0.0,0.0,1.900634571,0.0,0.0,16526.0,0.0,0.0,0.0,0.0,0.0,4.8681635640000005,0.0,0.0,-16563.0,0.0,0.0,-0.0,0.0,0.0,2.8967282190000003,0.0,0.0,1.1399999856948853,0.7699999809265137,-0.019999999552965164,0.0169677734375,0.01885986328125,0.9873046875,34.95000076293945,0.0,3.0,-0.879547119140625,-1.364227294921875,Closing,0.0,0.0,16.0,0.0,0.0,0.0,0.0,0.0,
7.730062000000035,0.0,0.0,16629.0,0.0,0.0,0.0,0.0,0.0,3.7854000030000003,0.0,0.0,-16665.0,0.0,0.0,-0.0,0.0,0.0,1.901855274,0.0,0.0,16526.0,0.0,0.0,0.0,0.0,0.0,4.8681635640000005,0.0,0.0012207030000004337,-16563.0,0.0,0.0,-0.0,0.0,0.0,2.8967282190000003,0.0,0.0,1.1399999856948853,0.7599999904632568,-0.009999999776482582,0.01483154296875,0.0206298828125,0.99066162109375,34.95000076293945,0.0,1.0,-0.879547119140625,-1.364227294921875,Closing,0.0,0.0,16.0,0.0,0.0,0.0,0.0,0.0,
7.807607000000076,0.0,0.0,16629.0,0.0,0.0,0.0,0.0,0.0,3.7854000030000003,0.0,0.0,-16665.0,0.0,0.0,-0.0,0.0,0.0,1.903075977,0.0,0.0,16526.0,0.0,0.0,0.0,0.0,0.0,4.869384267,0.0,0.0,-16563.0,0.0,0.0,-0.0,0.0,0.0,2.8967282190000003,0.0,0.0,1.1399999856948853,0.7599999904632568,-0.019999999552965164,0.01507568359375,0.01898193359375,1.0010986328125,34.95000076293945,0.0,1.0,-0.879547119140625,-1.364227294921875,Closing,0.0,0.0,16.0,0.0,0.0,0.0,0.0,0.0,
7.879356000000029,0.0,0.0,16629.0,0.0,0.0,0.0,0.0,0.0,3.7854000030000003,0.0,0.0,-16665.0,0.0,0.0,-0.0,0.0,0.0,1.901855274,0.0,0.0,16526.0,0.0,0.0,0.0,0.0,0.0,4.8730463760000005,0.0,0.0,-16563.0,0.0,0.0,-0.0,0.0,0.0,2.8967282190000003,0.0,0.0,1.1399999856948853,0.7699999809265137,-0.019999999552965164,0.01715087890625,0.0196533203125,0.996826171875,34.95000076293945,0.0,3.0,-0.879547119140625,-1.364227294921875,Closing,0.0,0.0,16.0,0.0,0.0,0.0,0.0,0.0,
7.963322999999975,0.0,0.0,16629.0,0.0,0.0,0.0,0.0,0.0,3.7854000030000003,0.0,0.0,-16665.0,0.0,0.0,-0.0,0.0,0.0,1.901855274,0.0,0.0,16526.0,0.0,0.0,0.0,0.0,0.0,4.8730463760000005,0.0,0.0,-16563.0,0.0,0.0,-0.0,0.0,0.0,2.8967282190000003,0.0,0.0,1.1399999856948853,0.7699999809265137,-0.019999999552965164,0.012939453125,0.01922607421875,1.001708984375,34.970001220703125,0.0,0.0,-0.879547119140625,-1.364227294921875,Closing,0.0,0.0,16.0,0.0,0.0,0.0,0.0,0.0,
8.032587999999988,0.0,0.0,16629.0,0.0,0.0,0.0,0.0,0.0,3.7854000030000003,0.0,0.0,-16665.0,0.0,0.0,-0.0,0.0,0.0,1.900634571,0.0,0.0,16526.0,0.0,0.0,0.0,0.0,0.0,4.871825673,0.0,0.0012207029999995456,-16563.0,0.0,0.0,-0.0,0.0,0.0,2.8967282190000003,0.0,0.0,1.1399999856948853,0.7799999713897705,-0.019999999552965164,0.01409912109375,0.0186767578125,1.005859375,34.970001220703125,0.0,0.0,-0.879547119140625,-1.364227294921875,Closing,0.0,0.0,16.0,0.0,0.0,0.0,0.0,0.0,
8.108802000000026,0.0,0.0,16629.0,0.0,0.0,0.0,0.0,0.0,3.7854000030000003,0.0,0.0,-16665.0,0.0,0.0,-0.0,0.0,0.0,1.901855274,0.0,0.0,16526.0,0.0,0.0,0.0,0.0,0.0,4.8681635640000005,0.0,0.0,-16563.0,0.0,0.0,-0.0,0.0,0.0,2.8967282190000003,0.0,0.0012207029999999897,1.1399999856948853,0.7799999713897705,-0.019999999552965164,0.0093994140625,0.024658203125,0.9984130859375,34.970001220703125,0.0,-4.0,-0.879547119140625,-1.364227294921875,Closing,0.0,0.0,16.0,0.0,0.0,0.0,0.0,0.0,
8.176915000000037,0.0,0.0,16629.0,0.0,0.0,0.0,0.0,0.0,3.7854000030000003,0.0,0.0,-16665.0,0.0,0.0,-0.0,0.0,0.0,1.901855274,0.0,0.0,16526.0,0.0,0.0,0.0,0.0,0.0,4.8681635640000005,0.0,-0.0012207029999995456,-16563.0,0.0,0.0,-0.0,0.0,0.0,2.8955075160000003,0.0,-0.0012207029999999897,1.1399999856948853,0.7799999713897705,-0.019999999552965164,0.0118408203125,0.01959228515625,0.98876953125,34.970001220703125,0.0,-1.0,-0.879547119140625,-1.364227294921875,Closing,0.0,0.0,16.0,0.0,0.0,0.0,0.0,0.0,
8.252912000000011,0.0,0.0,16629.0,0.0,0.0,0.0,0.0,0.0,3.7854000030000003,0.0,0.0,-16665.0,0.0,0.0,-0.0,0.0,0.0,1.901855274,0.0,0.0,16526.0,0.0,0.0,0.0,0.0,0.0,4.8681635640000005,0.0,0.0,-16563.0,0.0,0.0,-0.0,0.0,0.0,2.8967282190000003,0.0,0.0,1.1399999856948853,0.7799999713897705,-0.019999999552965164,0.01470947265625,0.021728515625,1.00555419921875,34.970001220703125,0.0,0.0,-0.879547119140625,-1.364227294921875,Closing,0.0,0.0,16.0,0.0,0.0,0.0,0.0,0.0,
8.327006999999984,0.0,0.0,16629.0,0.0,0.0,0.0,0.0,0.0,3.7866207060000003,0.0,0.0,-16665.0,0.0,0.0,-0.0,0.0,0.0,1.901855274,0.0,0.0,16526.0,0.0,0.0,0.0,0.0,0.0,4.869384267,0.0,-0.0012207030000004337,-16563.0,0.0,0.0,-0.0,0.0,0.0,2.8967282190000003,0.0,0.0,1.1299999952316284,0.7799999713897705,-0.019999999552965164,0.01220703125,0.0185546875,0.99371337890625,34.970001220703125,0.0,-1.0,-0.879547119140625,-1.364227294921875,Closing,0.0,0.0,16.0,0.0,0.0,0.0,0.0,0.0,
8.39428899999999,0.0,0.0,16629.0,0.0,0.0,0.0,0.0,0.0,3.7854000030000003,0.0,0.0,-16665.0,0.0,0.0,-0.0,0.0,0.0,1.901855274,0.0,0.0,16526.0,0.0,0.0,0.0,0.0,0.0,4.866942861,0.0,0.0,-16563.0,0.0,0.0,-0.0,0.0,0.0,2.8955075160000003,0.0,0.0,1.1399999856948853,0.7799999713897705,-0.019999999552965164,0.0142822265625,0.02484130859375,0.9974365234375,34.970001220703125,0.0,0.0,-0.879547119140625,-1.364227294921875,Closing,0.0,0.0,16.0,0.0,0.0,0.0,0.0,0.0,
8.472271999999997,0.0,0.0,16629.0,0.0,0.0,0.0,0.0,0.0,3.7854000030000003,0.0,0.0,-16665.0,0.0,0.0,-0.0,0.0,0.0,1.901855274,0.0,0.0,16526.0,0.0,0.0,0.0,0.0,0.0,4.8681635640000005,0.0,0.0012207030000004337,-16563.0,0.0,0.0,-0.0,0.0,0.0,2.8955075160000003,0.0,0.0,1.159999966621399,0.7699999809265137,-0.019999999552965164,0.01141357421875,0.02685546875,1.01324462890625,34.970001220703125,0.0,-2.0,-0.879547119140625,-1.364227294921875,Closing,0.0,0.0,16.0,0.0,0.0,0.0,0.0,0.0,
8.546091000000015,0.0,0.0,16629.0,0.0,0.0,0.0,0.0,0.0,3.7854000030000003,0.0,0.0,-16665.0,0.0,0.0,-0.0,0.0,0.0,1.900634571,0.0,0.0,16526.0,0.0,0.0,0.0,0.0,0.0,4.866942861,0.0,0.0,-16563.0,0.0,0.0,-0.0,0.0,0.0,2.8955075160000003,0.0,0.0,1.159999966621399,0.7799999713897705,-0.019999999552965164,0.01708984375,0.0140380859375,0.99798583984375,34.970001220703125,0.0,3.0,-0.879547119140625,-1.364227294921875,Closing,0.0,0.0,16.0,0.0,0.0,0.0,0.0,0.0,
8.620579000000028,0.0,0.0,16629.0,0.0,0.0,0.0,0.0,0.0,3.7854000030000003,0.0,0.0,-16665.0,0.0,0.0,-0.0,0.0,0.0,1.901855274,0.0,0.0,16526.0,0.0,0.0,0.0,0.0,0.0,4.874267079,0.0,-0.0012207029999995456,-16563.0,0.0,0.0,-0.0,0.0,0.0,2.8967282190000003,0.0,0.0,1.1399999856948853,0.800000011920929,-0.019999999552965164,0.0211181640625,0.0167236328125,0.988525390625,34.970001220703125,0.0,7.0,-0.879547119140625,-1.364227294921875,Closing,0.0,0.0,16.0,0.0,0.0,0.0,0.0,0.0,
8.691724999999977,0.0,0.0,16629.0,0.0,0.0,0.0,0.0,0.0,3.7854000030000003,0.0,0.0,-16665.0,0.0,0.0,-0.0,0.0,0.0,1.901855274,0.0,0.0,16526.0,0.0,0.0,0.0,0.0,0.0,4.8657221580000005,0.0,0.0,-16563.0,0.0,0.0,-0.0,0.0,0.0,2.8967282190000003,0.0,0.0,1.149999976158142,0.7799999713897705,-0.019999999552965164,0.00592041015625,0.0234375,1.00238037109375,34.970001220703125,0.0,-7.0,-0.879547119140625,-1.364227294921875,Closing,0.0,0.0,16.0,0.0,0.0,0.0,0.0,0.0,
8.827339000000036,0.0,0.0,16629.0,0.0,0.0,0.0,0.0,0.0,3.7854000030000003,0.0,0.0,-16665.0,0.0,0.0,-0.0,0.0,0.0,1.901855274,0.0,0.0,16526.0,0.0,0.0,0.0,0.0,0.0,4.8681635640000005,0.0,0.0,-16563.0,0.0,0.0,-0.0,0.0,0.0,2.8967282190000003,0.0,0.0,1.149999976158142,0.800000011920929,-0.019999999552965164,0.012939453125,0.02020263671875,0.9921875,34.970001220703125,0.0,0.0,-0.879547119140625,-1.364227294921875,Closing,0.0,0.0,16.0,0.0,0.0,0.0,0.0,0.0,
9.025525000000023,0.0,0.0,16629.0,0.0,0.0,0.0,0.0,0.0,3.7854000030000003,0.0,0.0,-16665.0,0.0,0.0,-0.0,0.0,0.0,1.900634571,0.0,0.0,16526.0,0.0,0.0,0.0,0.0,0.0,4.866942861,0.0,0.0,-16563.0,0.0,0.0,-0.0,0.0,0.0,2.8967282190000003,0.0,0.0,1.159999966621399,0.7799999713897705,-0.019999999552965164,0.010986328125,0.00909423828125,1.03863525390625,35.0099983215332,0.0,-3.0,-0.879547119140625,-1.364227294921875,Closing,0.0,0.0,16.0,0.0,0.0,0.0,0.0,0.0,
9.20206500000006,0.0,0.0,16629.0,0.0,0.0,0.0,0.0,0.0,3.7854000030000003,0.0,0.0,-16665.0,0.0,0.0,-0.0,0.0,0.0,1.901855274,0.0,0.0,16526.0,0.0,0.0,0.0,0.0,0.0,4.8681635640000005,0.0,0.0,-16563.0,0.0,0.0,-0.0,0.0,0.0,2.8967282190000003,0.0,0.0,1.1299999952316284,0.7900000214576721,-0.019999999552965164,0.02288818359375,0.022216796875,0.9720458984375,35.0099983215332,0.0,9.0,-0.879547119140625,-1.364227294921875,Closing,0.0,0.0,16.0,0.0,0.0,0.0,0.0,0.0,
9.274189000000012,0.0,0.0,16629.0,0.0,0.0,0.0,0.0,0.0,3.7854000030000003,0.0,0.0012207029999999897,-16665.0,0.0,0.0,-0.0,0.0,0.0,1.901855274,0.0,0.0,16526.0,0.0,0.0,0.0,0.0,0.0,4.866942861,0.0,0.0024414059999999793,-16563.0,0.0,0.0,-0.0,0.0,0.0,2.8967282190000003,0.0,0.0,1.149999976158142,0.7900000214576721,-0.019999999552965164,0.0166015625,0.02197265625,1.03363037109375,35.0099983215332,0.0,2.0,-0.879547119140625,-1.364227294921875,Closing,0.0,0.0,16.0,0.0,0.0,0.0,0.0,0.0,
9.352648999999976,0.0,0.0,16629.0,0.0,0.0,0.0,0.0,0.0,3.7866207060000003,0.0,0.0,-16665.0,0.0,0.0,-0.0,0.0,0.0,1.901855274,0.0,0.0,16526.0,0.0,0.0,0.0,0.0,0.0,4.8681635640000005,0.0,0.0,-16563.0,0.0,0.0,-0.0,0.0,0.0,2.8967282190000003,0.0,0.0,1.149999976158142,0.7799999713897705,-0.019999999552965164,0.00640869140625,0.024658203125,1.01611328125,35.0099983215332,0.0,-7.0,-0.879547119140625,-1.364227294921875,Closing,0.0,0.0,16.0,0.0,0.0,0.0,0.0,0.0,
9.42645200000005,0.0,0.0,16629.0,0.0,0.0,0.0,0.0,0.0,3.7866207060000003,0.0,0.0,-16665.0,0.0,0.0,-0.0,0.0,0.0,1.901855274,0.0,0.0,16526.0,0.0,0.0,0.0,0.0,0.0,4.866942861,0.0,0.0,-16563.0,0.0,0.0,-0.0,0.0,0.0,2.8967282190000003,0.0,0.0,1.149999976158142,0.7599999904632568,-0.019999999552965164,0.01031494140625,0.01397705078125,0.97918701171875,35.0099983215332,0.0,-2.0,-0.879547119140625,-1.364227294921875,Closing,0.0,0.0,16.0,0.0,0.0,0.0,0.0,0.0,
9.494540999999968,0.0,0.0,16629.0,0.0,0.0,0.0,0.0,0.0,3.7854000030000003,0.0,0.0,-16665.0,0.0,0.0,-0.0,0.0,0.0,1.903075977,0.0,0.0,16526.0,0.0,0.0,0.0,0.0,0.0,4.869384267,0.0,0.0,-16563.0,0.0,0.0,-0.0,0.0,0.0,2.8967282190000003,0.0,0.0,1.1399999856948853,0.7799999713897705,-0.019999999552965164,0.0205078125,0.018798828125,1.0126953125,34.9900016784668,0.0,6.0,-0.879547119140625,-1.364227294921875,Closing,0.0,0.0,16.0,0.0,0.0,0.0,0.0,0.0,
9.571829000000028,0.0,0.0,16629.0,0.0,0.0,0.0,0.0,0.0,3.7854000030000003,0.0,0.0,-16665.0,0.0,0.0,-0.0,0.0,0.0,1.901855274,0.0,0.0,16526.0,0.0,0.0,0.0,0.0,0.0,4.866942861,0.0,0.0,-16563.0,0.0,0.0,-0.0,0.0,0.0,2.8967282190000003,0.0,0.0,1.149999976158142,0.7799999713897705,-0.019999999552965164,0.01397705078125,0.02374267578125,1.0084228515625,34.9900016784668,0.0,0.0,-0.879547119140625,-1.364227294921875,Closing,0.0,0.0,16.0,0.0,0.0,0.0,0.0,0.0,
9.64677600000007,0.0,0.0,16629.0,0.0,0.0,0.0,0.0,0.0,3.7866207060000003,0.0,0.0,-16665.0,0.0,0.0,-0.0,0.0,0.0,1.900634571,0.0,0.0,16526.0,0.0,0.0,0.0,0.0,0.0,4.866942861,0.0,0.0,-16563.0,0.0,0.0,-0.0,0.0,0.0,2.8955075160000003,0.0,0.0,1.149999976158142,0.7599999904632568,-0.019999999552965164,0.0072021484375,0.0179443359375,0.9910888671875,34.9900016784668,0.0,-6.0,-0.879547119140625,-1.364227294921875,Closing,0.0,0.0,16.0,0.0,0.0,0.0,0.0,0.0,
9.724465000000084,0.0,0.0,16629.0,0.0,0.0,0.0,0.0,0.0,3.7854000030000003,0.0,0.0,-16665.0,0.0,0.0,-0.0,0.0,0.0,1.901855274,0.0,0.0,16526.0,0.0,0.0,0.0,0.0,0.0,4.8681635640000005,0.0,0.0024414059999999793,-16563.0,0.0,0.0,-0.0,0.0,0.0,2.8967282190000003,0.0,0.0,1.149999976158142,0.7599999904632568,-0.019999999552965164,0.01751708984375,0.01617431640625,0.99993896484375,34.9900016784668,0.0,4.0,-0.879547119140625,-1.364227294921875,Closing,0.0,0.0,16.0,0.0,0.0,0.0,0.0,0.0,
9.793701,0.0,0.0,16629.0,0.0,0.0,0.0,0.0,0.0,3.7854000030000003,0.0,-0.0012207029999999897,-16665.0,0.0,0.0,-0.0,0.0,0.0,1.901855274,0.0,0.0,16526.0,0.0,0.0,0.0,0.0,0.0,4.866942861,0.0,0.0,-16563.0,0.0,0.0,-0.0,0.0,0.0,2.8967282190000003,0.0,0.0,1.1399999856948853,0.7799999713897705,-0.019999999552965164,0.01837158203125,0.02227783203125,1.00250244140625,34.9900016784668,0.0,4.0,-0.879547119140625,-1.364227294921875,Closing,0.0,0.0,16.0,0.0,0.0,0.0,0.0,0.0,
9.869884000000079,0.0,0.0,16629.0,0.0,0.0,0.0,0.0,0.0,3.7866207060000003,0.0,0.0012207029999999897,-16665.0,0.0,0.0,-0.0,0.0,0.0,1.900634571,0.0,0.0,16526.0,0.0,0.0,0.0,0.0,0.0,4.8681635640000005,0.0,-0.0012207030000004337,-16563.0,0.0,0.0,-0.0,0.0,0.0,2.8967282190000003,0.0,0.0,1.149999976158142,0.7699999809265137,-0.019999999552965164,0.0059814453125,0.0216064453125,1.00775146484375,34.9900016784668,0.0,-7.0,-0.879547119140625,-1.364227294921875,Closing,0.0,0.0,16.0,0.0,0.0,0.0,0.0,0.0,
9.941930999999983,0.0,0.0,16629.0,0.0,0.0,0.0,0.0,0.0,3.7866207060000003,0.0,0.0,-16665.0,0.0,0.0,-0.0,0.0,0.0,1.901855274,0.0,0.0,16526.0,0.0,0.0,0.0,0.0,0.0,4.866942861,0.0,0.0,-16563.0,0.0,0.0,-0.0,0.0,0.0,2.8967282190000003,0.0,0.0,1.149999976158142,0.7599999904632568,-0.019999999552965164,0.013671875,0.0146484375,0.98016357421875,34.9900016784668,0.0,0.0,-0.879547119140625,-1.364227294921875,Closing,0.0,0.0,16.0,0.0,0.0,0.0,0.0,0.0,
10.018082999999985,0.0,0.0,16629.0,0.0,0.0,0.0,0.0,0.0,3.7854000030000003,0.0,0.0,-16665.0,0.0,0.0,-0.0,0.0,0.0,1.901855274,0.0,0.0,16526.0,0.0,0.0,0.0,0.0,0.0,4.8681635640000005,0.0,0.0,-16563.0,0.0,0.0,-0.0,0.0,0.0,2.8967282190000003,0.0,0.0,1.149999976158142,0.7699999809265137,-0.019999999552965164,0.02215576171875,0.0220947265625,0.99737548828125,35.0,0.0,8.0,-0.879547119140625,-1.364227294921875,Closing,0.0,0.0,16.0,0.0,0.0,0.0,0.0,0.0,
10.093295999999974,0.0,0.0,16629.0,0.0,0.0,0.0,0.0,0.0,3.7854000030000003,0.0,0.0,-16665.0,0.0,0.0,-0.0,0.0,0.0,1.901855274,0.0,0.0,16526.0,0.0,0.0,0.0,0.0,0.0,4.8681635640000005,0.0,0.0,-16563.0,0.0,0.0,-0.0,0.0,0.0,2.8955075160000003,0.0,0.0,1.159999966621399,0.7799999713897705,-0.019999999552965164,0.01123046875,0.0179443359375,0.996337890625,35.0,0.0,-2.0,-0.879547119140625,-1.364227294921875,Closing,0.0,0.0,16.0,0.0,0.0,0.0,0.0,0.0,
