Time,ClimberA1,ClimberA2,FRpos,FRCurrent,FRspeed,FRsetpoint,FRApos,FRACurrent,FREncpos,FREncSetpoint,FREncSpeed,FLpos,FLCurrent,FLspeed,FLsetpoint,FLApos,FLACurrent,FLEncpos,FLEncSetpoint,FLEncSpeed,BRpos,BRCurrent,BRspeed,BRsetpoint,BRApos,BRACurrent,BREncpos,BREncSetpoint,BREncSpeed,BLpos,BLCurrent,BLspeed,BLsetpoint,BLApos,BLACurrent,BLEncpos,BLEncSetpoint,BLEncSpeed,navx_Pitch,navx_Roll,navx_Yaw,navx_XAcc,navx_YAcc,navx_ZAcc,navx_Temp,navx_Bar,navx_Alt,navx_XDis,navx_YDis,GearPlacerState,ShootOutputV,ShootOutputCurrent,ShootEncPos,ShootEncVelocity,ShootSpeed,ShootSetpoint,CarouselSetpoint,CarouselCurrent,
0.12454299999999056,0.0,0.0,4253.0,0.0,0.0,0.0,0.0,0.0,3.809814063,0.0,0.0,-4093.0,0.0,0.0,-0.0,0.0,0.0,1.979980266,0.0,0.0,4185.0,0.0,0.0,0.0,0.0,0.0,4.858397940000001,0.0,0.0,-4238.0,0.0,0.0,-0.0,0.0,0.0,2.916259467,0.0,0.0,0.9599999785423279,0.10000000149011612,0.9300000071525574,-8.544921875E-4,0.0218505859375,1.00653076171875,28.670000076293945,0.0,-2.0,-0.023590087890625,0.05987548828125,Opening,0.0,0.0,0.0,0.0,0.0,0.0,0.0,0.0,
0.1547039999999979,0.0,0.0,4253.0,0.0,0.0,0.0,0.0,0.0,3.80859336,0.0,0.0,-4093.0,0.0,0.0,-0.0,0.0,0.0,1.979980266,0.0,0.0,4185.0,0.0,0.0,0.0,0.0,0.0,4.858397940000001,0.0,-0.0012207030000004337,-4238.0,0.0,0.0,-0.0,0.0,0.0,2.910155952,0.0,0.0,0.9599999785423279,0.09000000357627869,0.9300000071525574,-0.00616455078125,0.0181884765625,1.018798828125,28.670000076293945,0.0,-7.0,-0.023590087890625,0.05987548828125,Closing,0.0,0.0,0.0,0.0,0.0,0.0,0.0,0.0,
0.18819099999999161,0.0,0.0,4253.0,0.0,0.0,0.0,0.0,0.0,3.809814063,0.0,0.0,-4093.0,0.0,0.0,-0.0,0.0,0.0,1.978759563,0.0,0.0,4185.0,0.0,0.0,0.0,0.0,0.0,4.858397940000001,0.0,-0.0012207030000004337,-4238.0,0.0,0.0,-0.0,0.0,0.0,2.915038764,0.0,0.0,0.9599999785423279,0.09000000357627869,0.9300000071525574,0.0025634765625,0.0150146484375,0.99822998046875,28.670000076293945,0.0,0.0,-0.023590087890625,0.05987548828125,Closing,0.0,0.0,0.0,0.0,0.0,0.0,0.0,0.0,
0.21299199999999838,0.0,0.0,4253.0,0.0,0.0,0.0,0.0,0.0,3.80859336,0.0,0.0,-4093.0,0.0,0.0,-0.0,0.0,0.0,1.978759563,0.0,0.0,4185.0,0.0,0.0,0.0,0.0,0.0,4.858397940000001,0.0,0.0,-4238.0,0.0,0.0,-0.0,0.0,0.0,2.916259467,0.0,0.0012207029999999897,0.9599999785423279,0.09000000357627869,0.9300000071525574,0.00518798828125,0.02587890625,1.01885986328125,28.670000076293945,0.0,3.0,-0.023590087890625,0.05987548828125,Closing,0.0,0.0,0.0,0.0,0.0,0.0,0.0,0.0,
0.24668499999999768,0.0,0.0,4253.0,0.0,0.0,0.0,0.0,0.0,3.80859336,0.0,0.0,-4093.0,0.0,0.0,-0.0,0.0,0.0,1.979980266,0.0,0.0,4185.0,0.0,0.0,0.0,0.0,0.0,4.858397940000001,0.0,0.0,-4238.0,0.0,0.0,-0.0,0.0,0.0,2.916259467,0.0,0.0,0.9599999785423279,0.10000000149011612,0.9300000071525574,0.00872802734375,0.0179443359375,0.99932861328125,28.670000076293945,0.0,6.0,-0.023590087890625,0.05987548828125,Closing,0.0,0.0,0.0,0.0,0.0,0.0,0.0,0.0,
0.27377999999999886,0.0,0.0,4253.0,0.0,0.0,0.0,0.0,0.0,3.80859336,0.0,0.0,-4093.0,0.0,0.0,-0.0,0.0,0.0,1.981200969,0.0,0.0,4185.0,0.0,0.0,0.0,0.0,0.0,4.858397940000001,0.0,0.0012207030000004337,-4238.0,0.0,0.0,-0.0,0.0,0.0,2.915038764,0.0,0.0,0.9599999785423279,0.10000000149011612,0.9300000071525574,0.00787353515625,0.0150146484375,1.002685546875,28.690000534057617,0.0,6.0,-0.023590087890625,0.05987548828125,Closing,0.0,0.0,0.0,0.0,0.0,0.0,0.0,0.0,
0.30151299999999176,0.0,0.0,4253.0,0.0,0.0,0.0,0.0,0.0,3.819579687,0.0,0.0,-4093.0,0.0,0.0,-0.0,0.0,0.0,1.979980266,0.0,0.0012207030000004337,4185.0,0.0,0.0,0.0,0.0,0.0,4.859618643,0.0,-0.0012207030000004337,-4238.0,0.0,0.0,-0.0,0.0,0.0,2.916259467,0.0,-0.0012207029999999897,0.9599999785423279,0.10000000149011612,0.9300000071525574,0.0025634765625,0.01361083984375,0.99798583984375,28.690000534057617,0.0,0.0,-0.023590087890625,0.05987548828125,Closing,0.0,0.0,0.0,0.0,0.0,0.0,0.0,0.0,
0.3323979999999865,0.0,0.0,4253.0,0.0,0.0,0.0,0.0,0.0,3.809814063,0.0,0.0,-4093.0,0.0,0.0,-0.0,0.0,0.0,1.978759563,0.0,0.0012207030000004337,4185.0,0.0,0.0,0.0,0.0,0.0,4.857177237,0.0,-0.0012207030000004337,-4238.0,0.0,0.0,-0.0,0.0,0.0,2.916259467,0.0,-0.0012207029999999897,0.9599999785423279,0.09000000357627869,0.9300000071525574,-0.00335693359375,0.013427734375,1.01556396484375,28.690000534057617,0.0,-5.0,-0.023590087890625,0.05987548828125,Closing,0.0,0.0,0.0,0.0,0.0,0.0,0.0,0.0,
0.3577939999999944,0.0,0.0,4253.0,0.0,0.0,0.0,0.0,0.125,3.809814063,0.0,-0.0012207029999999897,-4093.0,0.0,0.0,-0.0,0.0,0.0,1.979980266,0.0,-0.0012207030000004337,4185.0,0.0,0.0,0.0,0.0,0.0,4.857177237,0.0,0.0012207030000004337,-4238.0,0.0,0.0,-0.0,0.0,0.0,2.916259467,0.0,0.0,0.9599999785423279,0.09000000357627869,0.9300000071525574,0.0123291015625,0.0145263671875,0.98291015625,28.690000534057617,0.0,10.0,-0.023590087890625,0.05987548828125,Closing,0.0,0.0,0.0,0.0,0.0,0.0,0.0,0.0,
0.39104999999998835,0.0,0.0,4253.0,0.0,0.0,0.0,0.0,0.125,3.807372657,0.0,-0.0012207029999999897,-4093.0,0.0,0.0,-0.0,0.0,0.0,1.979980266,0.0,-0.0012207030000004337,4185.0,0.0,0.0,0.0,0.0,0.0,4.858397940000001,0.0,0.0012207030000004337,-4238.0,0.0,0.0,-0.0,0.0,0.0,2.916259467,0.0,0.0,0.9599999785423279,0.09000000357627869,0.9300000071525574,-0.00555419921875,0.0228271484375,1.01544189453125,28.690000534057617,0.0,-7.0,-0.023590087890625,0.05987548828125,Closing,0.0,0.0,0.0,0.0,0.0,0.0,0.0,0.0,
0.4228389999999927,0.0,0.0,4253.0,0.0,0.0,0.0,0.0,0.125,3.80859336,0.0,0.0012207029999999897,-4093.0,0.0,0.0,-0.0,0.0,0.0,1.978759563,0.0,0.0,4185.0,0.0,0.0,0.0,0.0,0.0,4.858397940000001,0.0,-0.0012207030000004337,-4238.0,0.0,0.0,-0.0,0.0,0.0,2.916259467,0.0,0.0,0.9599999785423279,0.09000000357627869,0.9300000071525574,0.00189208984375,0.0074462890625,0.99993896484375,28.690000534057617,0.0,0.0,-0.023590087890625,0.05987548828125,Closing,0.0,0.0,0.0,0.0,0.0,0.0,0.0,0.0,
0.4500799999999872,0.0,0.0,4253.0,0.0,0.0,0.0,0.0,0.0,3.807372657,0.0,0.0,-4093.0,0.0,0.0,-0.0,0.0,0.0,1.978759563,0.0,0.0,4185.0,0.0,0.0,0.0,0.0,0.0,4.858397940000001,0.0,0.0,-4238.0,0.0,0.0,-0.0,0.0,0.0,2.911376655,0.0,-0.0012207029999999897,0.9599999785423279,0.09000000357627869,0.9300000071525574,0.00689697265625,0.0177001953125,1.00494384765625,28.690000534057617,0.0,5.0,-0.023590087890625,0.05987548828125,Closing,0.0,0.0,0.0,0.0,0.0,0.0,0.0,0.0,
0.4815799999999872,0.0,0.0,4253.0,0.0,0.0,0.0,0.0,0.0,3.80859336,0.0,0.0,-4093.0,0.0,0.0,-0.0,0.0,0.0,1.979980266,0.0,0.0,4185.0,0.0,0.0,0.0,0.0,0.0,4.858397940000001,0.0,0.0,-4238.0,0.0,0.0,-0.0,0.0,0.0,2.916259467,0.0,-0.0012207029999999897,0.9599999785423279,0.09000000357627869,0.9300000071525574,0.004150390625,0.019287109375,0.9970703125,28.690000534057617,0.0,2.0,-0.023590087890625,0.05987548828125,Closing,0.0,0.0,0.0,0.0,0.0,0.0,0.0,0.0,
0.5096149999999907,0.0,0.0,4253.0,0.0,0.0,0.0,0.0,0.0,3.80859336,0.0,0.0,-4093.0,0.0,0.0,-0.0,0.0,0.0,1.978759563,0.0,0.0,4185.0,0.0,0.0,0.0,0.0,0.0,4.857177237,0.0,0.0,-4238.0,0.0,0.0,-0.0,0.0,0.0,2.915038764,0.0,0.0024414059999999793,0.9599999785423279,0.09000000357627869,0.9300000071525574,0.0086669921875,0.01287841796875,1.0059814453125,28.690000534057617,0.0,6.0,-0.023590087890625,0.05987548828125,Closing,0.0,0.0,0.0,0.0,0.0,0.0,0.0,0.0,
0.5373809999999939,0.0,0.0,4253.0,0.0,0.0,0.0,0.0,0.0,3.809814063,0.0,0.0,-4093.0,0.0,0.0,-0.0,0.0,0.0,1.978759563,0.0,0.0,4185.0,0.0,0.0,0.0,0.0,0.0,4.857177237,0.0,0.0,-4238.0,0.0,0.0,-0.0,0.0,0.0,2.911376655,0.0,0.0024414059999999793,0.9599999785423279,0.07999999821186066,0.9300000071525574,-1.8310546875E-4,0.013427734375,1.01416015625,28.690000534057617,0.0,-1.0,-0.023590087890625,0.05987548828125,Closing,0.0,0.0,0.0,0.0,0.0,0.0,0.0,0.0,
0.5701399999999994,0.0,0.0,4253.0,0.0,0.0,0.0,0.0,0.0,3.809814063,0.0,0.0,-4093.0,0.0,0.0,-0.0,0.0,0.0,1.978759563,0.0,0.0,4185.0,0.0,0.0,0.0,0.0,0.0,4.858397940000001,0.0,0.0,-4238.0,0.0,0.0,-0.0,0.0,0.0,2.915038764,0.0,-0.0024414059999999793,0.9599999785423279,0.07999999821186066,0.9300000071525574,-6.103515625E-5,0.02166748046875,1.02398681640625,28.690000534057617,0.0,-1.0,-0.023590087890625,0.05987548828125,Closing,0.0,0.0,0.0,0.0,0.0,0.0,0.0,0.0,
0.5957689999999857,0.0,0.0,4253.0,0.0,0.0,0.0,0.0,0.0,3.80859336,0.0,0.0,-4093.0,0.0,0.0,-0.0,0.0,0.0,1.978759563,0.0,0.0,4185.0,0.0,0.0,0.0,0.0,0.0,4.862060049,0.0,0.0,-4238.0,0.0,0.0,-0.0,0.0,0.0,2.916259467,0.0,0.0012207029999999897,0.9599999785423279,0.09000000357627869,0.9300000071525574,2.44140625E-4,0.01690673828125,0.9959716796875,28.690000534057617,0.0,-1.0,-0.023590087890625,0.05987548828125,Closing,0.0,0.0,0.0,0.0,0.0,0.0,0.0,0.0,
0.6285419999999867,0.0,0.0,4253.0,0.0,0.0,0.0,0.0,0.0,3.80859336,0.0,0.0,-4093.0,0.0,0.0,-0.0,0.0,0.0,1.979980266,0.0,0.0,4185.0,0.0,0.0,0.0,0.0,0.0,4.857177237,0.0,0.0,-4238.0,0.0,0.0,-0.0,0.0,0.0,2.915038764,0.0,0.0012207029999999897,0.9599999785423279,0.07999999821186066,0.9300000071525574,0.00604248046875,0.02276611328125,1.0001220703125,28.690000534057617,0.0,4.0,-0.023590087890625,0.05987548828125,Closing,0.0,0.0,0.0,0.0,0.0,0.0,0.0,0.0,
0.6538879999999917,0.0,0.0,4253.0,0.0,0.0,0.0,0.0,0.0,3.80859336,0.0,0.0012207029999999897,-4093.0,0.0,0.0,-0.0,0.0,0.0,1.978759563,0.0,0.0,4185.0,0.0,0.0,0.0,0.0,0.0,4.857177237,0.0,0.0,-4238.0,0.0,0.0,-0.0,0.0,0.0,2.916259467,0.0,0.0,0.9599999785423279,0.07999999821186066,0.9300000071525574,-0.003662109375,0.01007080078125,1.0084228515625,28.690000534057617,0.0,-5.0,-0.023590087890625,0.05987548828125,Closing,0.0,0.0,0.0,0.0,0.0,0.0,0.0,0.0,
0.6865499999999883,0.0,0.0,4253.0,0.0,0.0,0.0,0.0,0.0,3.80859336,0.0,0.0012207029999999897,-4093.0,0.0,0.0,-0.0,0.0,0.0,1.978759563,0.0,0.0,4185.0,0.0,0.0,0.0,0.0,0.0,4.858397940000001,0.0,0.0,-4238.0,0.0,0.0,-0.0,0.0,0.0,2.911376655,0.0,0.0,0.9599999785423279,0.07999999821186066,0.9300000071525574,0.003662109375,0.0103759765625,1.016845703125,28.690000534057617,0.0,1.0,-0.023590087890625,0.05987548828125,Closing,0.0,0.0,0.0,0.0,0.0,0.0,0.0,0.0,
0.7108639999999868,0.0,0.0,4253.0,0.0,0.0,0.0,0.0,0.0,3.809814063,0.0,-0.0012207029999999897,-4093.0,0.0,0.0,-0.0,0.0,0.0,1.978759563,0.0,0.0,4185.0,0.0,0.0,0.0,0.0,0.0,4.857177237,0.0,0.0012207030000004337,-4238.0,0.0,0.0,-0.0,0.0,0.0,2.915038764,0.0,0.0024414059999999793,0.9599999785423279,0.09000000357627869,0.9300000071525574,7.9345703125E-4,0.0150146484375,1.012451171875,28.690000534057617,0.0,0.0,-0.023590087890625,0.05987548828125,Closing,0.0,0.0,0.0,0.0,0.0,0.0,0.0,0.0,
0.7447239999999874,0.0,0.0,4253.0,0.0,0.0,0.0,0.0,0.0,3.80859336,0.0,-0.0012207029999999897,-4093.0,0.0,0.0,-0.0,0.0,0.0,1.978759563,0.0,0.0,4185.0,0.0,0.0,0.0,0.0,0.0,4.858397940000001,0.0,0.0012207030000004337,-4238.0,0.0,0.0,-0.0,0.0,0.0,2.927245794,0.0,-0.0024414059999999793,0.9599999785423279,0.09000000357627869,0.9300000071525574,-0.00140380859375,0.0291748046875,1.01239013671875,28.690000534057617,0.0,-2.0,-0.023590087890625,0.05987548828125,Closing,0.0,0.0,0.0,0.0,0.0,0.0,0.0,0.0,
0.7755299999999988,0.0,0.0,4253.0,0.0,0.0,0.0,0.0,0.0,3.809814063,0.0,0.0,-4093.0,0.0,0.0,-0.0,0.0,0.0,1.979980266,0.0,0.0,4185.0,0.0,0.0,0.0,0.0,0.0,4.859618643,0.0,-0.0012207030000004337,-4238.0,0.0,0.0,-0.0,0.0,0.0,2.911376655,0.0,-0.0024414059999999793,0.9599999785423279,0.09000000357627869,0.9300000071525574,0.00775146484375,0.0179443359375,1.005615234375,28.690000534057617,0.0,6.0,-0.023590087890625,0.05987548828125,Closing,0.0,0.0,0.0,0.0,0.0,0.0,0.0,0.0,
0.8064829999999928,0.0,0.0,4253.0,0.0,0.0,0.0,0.0,0.0,3.80859336,0.0,0.0,-4093.0,0.0,0.0,-0.0,0.0,0.0,1.979980266,0.0,0.0,4185.0,0.0,0.0,0.0,0.0,0.0,4.858397940000001,0.0,0.0,-4238.0,0.0,0.0,-0.0,0.0,0.0,2.916259467,0.0,0.0,0.9599999785423279,0.09000000357627869,0.9300000071525574,0.0035400390625,0.0133056640625,0.99871826171875,28.68000030517578,0.0,1.0,-0.023590087890625,0.05987548828125,Closing,0.0,0.0,0.0,0.0,0.0,0.0,0.0,0.0,
0.8342639999999956,0.0,0.0,4253.0,0.0,0.0,0.0,0.0,0.0,3.82080039,0.0,0.0,-4093.0,0.0,0.0,-0.0,0.0,0.0,1.978759563,0.0,0.0,4185.0,0.0,0.0,0.0,0.0,0.0,4.858397940000001,0.0,0.0,-4238.0,0.0,0.0,-0.0,0.0,0.0,2.911376655,0.0,0.0,0.9599999785423279,0.07999999821186066,0.9300000071525574,-0.00469970703125,0.017333984375,1.0108642578125,28.68000030517578,0.0,-6.0,-0.023590087890625,0.05987548828125,Closing,0.0,0.0,0.0,0.0,0.0,0.0,0.0,0.0,
0.8635089999999909,0.0,0.0,4253.0,0.0,0.0,0.0,0.0,0.0,3.809814063,0.0,-0.0012207029999999897,-4093.0,0.0,0.0,-0.0,0.0,0.0,1.9763181570000001,0.0,0.0,4185.0,0.0,0.0,0.0,0.0,0.0,4.858397940000001,0.0,0.0012207030000004337,-4238.0,0.0,0.0,-0.0,0.0,0.0,2.916259467,0.0,0.0,0.9599999785423279,0.07999999821186066,0.9300000071525574,0.003173828125,0.01123046875,0.99725341796875,28.68000030517578,0.0,1.0,-0.023590087890625,0.05987548828125,Closing,0.0,0.0,0.0,0.0,0.0,0.0,0.0,0.0,
0.8935159999999887,0.0,0.0,4253.0,0.0,0.0,0.0,0.0,0.0,3.809814063,0.0,-0.0012207029999999897,-4093.0,0.0,0.0,-0.0,0.0,0.0,1.978759563,0.0,0.0,4185.0,0.0,0.0,0.0,0.0,0.0,4.857177237,0.0,0.0012207030000004337,-4238.0,0.0,0.0,-0.0,0.0,0.0,2.913818061,0.0,0.0,0.9599999785423279,0.07999999821186066,0.9300000071525574,0.00152587890625,0.01470947265625,1.00872802734375,28.68000030517578,0.0,0.0,-0.023590087890625,0.05987548828125,Closing,0.0,0.0,0.0,0.0,0.0,0.0,0.0,0.0,
0.9289639999999927,0.0,0.0,4253.0,0.0,0.0,0.0,0.0,0.0,3.809814063,0.0,0.0,-4093.0,0.0,0.0,-0.0,0.0,0.0,1.979980266,0.0,0.0,4185.0,0.0,0.0,0.0,0.0,0.0,4.857177237,0.0,0.0,-4238.0,0.0,0.0,-0.0,0.0,0.0,2.910155952,0.0,0.0,0.9599999785423279,0.07999999821186066,0.9300000071525574,0.00152587890625,0.01373291015625,1.00439453125,28.68000030517578,0.0,0.0,-0.023590087890625,0.05987548828125,Closing,0.0,0.0,0.0,0.0,0.0,0.0,0.0,0.0,
0.9534189999999945,0.0,0.0,4253.0,0.0,0.0,0.0,0.0,0.0,3.809814063,0.0,0.0012207029999999897,-4093.0,0.0,0.0,-0.0,0.0,0.0,1.978759563,0.0,0.0,4185.0,0.0,0.0,0.0,0.0,0.0,4.860839346000001,0.0,-0.0012207030000004337,-4238.0,0.0,0.0,-0.0,0.0,0.0,2.915038764,0.0,-0.0012207029999999897,0.9599999785423279,0.07999999821186066,0.9300000071525574,0.00341796875,0.01995849609375,1.01019287109375,28.68000030517578,0.0,1.0,-0.023590087890625,0.05987548828125,Closing,0.0,0.0,0.0,0.0,0.0,0.0,0.0,0.0,
0.9878729999999923,0.0,0.0,4253.0,0.0,0.0,0.0,0.0,0.0,3.809814063,0.0,0.0012207029999999897,-4093.0,0.0,0.0,-0.0,0.0,0.0,1.9970701080000002,0.0,0.0,4185.0,0.0,0.0,0.0,0.0,0.0,4.857177237,0.0,-0.0012207030000004337,-4238.0,0.0,0.0,-0.0,0.0,0.0,2.916259467,0.0,-0.0012207029999999897,0.9599999785423279,0.07999999821186066,0.9300000071525574,0.004150390625,0.017822265625,1.0015869140625,28.68000030517578,0.0,2.0,-0.023590087890625,0.05987548828125,Closing,0.0,0.0,0.0,0.0,0.0,0.0,0.0,0.0,
1.0126549999999988,0.0,0.0,4253.0,0.0,0.0,0.0,0.0,0.0,3.80859336,0.0,0.0,-4093.0,0.0,0.0,-0.0,0.0,0.0,1.978759563,0.0,0.0,4185.0,0.0,0.0,0.0,0.0,0.0,4.862060049,0.0,0.0,-4238.0,0.0,0.0,-0.0,0.0,0.0,2.916259467,0.0,0.0012207029999999897,0.9599999785423279,0.07999999821186066,0.9300000071525574,0.005615234375,0.016845703125,1.007080078125,28.68000030517578,0.0,4.0,-0.023590087890625,0.05987548828125,Closing,0.0,0.0,0.0,0.0,0.0,0.0,0.0,0.0,
1.0469439999999886,0.0,0.0,4253.0,0.0,0.0,0.0,0.0,0.0,3.80859336,0.0,0.0,-4093.0,0.0,0.0,-0.0,0.0,0.0,1.978759563,0.0,0.0,4185.0,0.0,0.0,0.0,0.0,0.0,4.858397940000001,0.0,0.0,-4238.0,0.0,0.0,-0.0,0.0,0.0,2.916259467,0.0,0.0012207029999999897,0.9599999785423279,0.07999999821186066,0.9300000071525574,0.00396728515625,0.0081787109375,1.0118408203125,28.68000030517578,0.0,2.0,-0.023590087890625,0.05987548828125,Closing,0.0,0.0,0.0,0.0,0.0,0.0,0.0,0.0,
1.0735179999999964,0.0,0.0,4253.0,0.0,0.0,0.0,0.0,0.0,3.809814063,0.0,0.0,-4093.0,0.0,0.0,-0.0,0.0,0.0,1.979980266,0.0,0.0,4185.0,0.0,0.0,0.0,0.0,0.0,4.858397940000001,0.0,0.0012207030000004337,-4238.0,0.0,0.0,-0.0,0.0,0.0,2.916259467,0.0,0.0012207029999999897,0.949999988079071,0.07999999821186066,0.9300000071525574,-0.0028076171875,0.01641845703125,1.0159912109375,28.68000030517578,0.0,-4.0,-0.023590087890625,0.05987548828125,Closing,0.0,0.0,0.0,0.0,0.0,0.0,0.0,0.0,
1.1020359999999927,0.0,0.0,4253.0,0.0,0.0,0.0,0.0,0.0,3.811034766,0.0,0.0,-4093.0,0.0,0.0,-0.0,0.0,0.0,1.979980266,0.0,-0.0012207029999995456,4185.0,0.0,0.0,0.0,0.0,0.0,4.858397940000001,0.0,-0.0012207030000004337,-4238.0,0.0,0.0,-0.0,0.0,0.0,2.916259467,0.0,-0.0012207029999999897,0.949999988079071,0.07999999821186066,0.9300000071525574,-6.103515625E-4,0.01953125,1.01080322265625,28.68000030517578,0.0,-1.0,-0.023590087890625,0.05987548828125,Closing,0.0,0.0,0.0,0.0,0.0,0.0,0.0,0.0,
1.1337949999999983,0.0,0.0,4253.0,0.0,0.0,0.0,0.0,0.0,3.80859336,0.0,0.0,-4093.0,0.0,0.0,-0.0,0.0,0.0,1.978759563,0.0,-0.0012207029999995456,4185.0,0.0,0.0,0.0,0.0,0.0,4.858397940000001,0.0,-0.0012207030000004337,-4238.0,0.0,0.0,-0.0,0.0,0.0,2.916259467,0.0,-0.0012207029999999897,0.949999988079071,0.07999999821186066,0.9300000071525574,0.0018310546875,0.018310546875,1.0126953125,28.68000030517578,0.0,0.0,-0.023590087890625,0.05987548828125,Closing,0.0,0.0,0.0,0.0,0.0,0.0,0.0,0.0,
1.1605699999999923,0.0,0.0,4253.0,0.0,0.0,0.0,0.0,0.0,3.811034766,0.0,0.0,-4093.0,0.0,0.0,-0.0,0.0,0.0,1.978759563,0.0,0.0012207029999995456,4185.0,0.0,0.0,0.0,0.0,0.0,4.858397940000001,0.0,0.0012207030000004337,-4238.0,0.0,0.0,-0.0,0.0,0.0,2.916259467,0.0,0.0,0.949999988079071,0.07999999821186066,0.9300000071525574,-0.00262451171875,0.0140380859375,0.99237060546875,28.68000030517578,0.0,-4.0,-0.023590087890625,0.05987548828125,Closing,0.0,0.0,0.0,0.0,0.0,0.0,0.0,0.0,
1.19150499999999,0.0,0.0,4253.0,0.0,0.0,0.0,0.0,0.0,3.811034766,0.0,0.0,-4093.0,0.0,0.0,-0.0,0.0,0.0,1.979980266,0.0,0.0012207029999995456,4185.0,0.0,0.0,0.0,0.0,0.0,4.858397940000001,0.0,0.0012207030000004337,-4238.0,0.0,0.0,-0.0,0.0,0.0,2.916259467,0.0,0.0,0.949999988079071,0.07999999821186066,0.9300000071525574,0.005126953125,0.017333984375,1.0111083984375,28.68000030517578,0.0,3.0,-0.023590087890625,0.05987548828125,Closing,0.0,0.0,0.0,0.0,0.0,0.0,0.0,0.0,
1.2214409999999916,0.0,0.0,4253.0,0.0,0.0,0.0,0.0,0.0,3.80859336,0.0,0.0,-4093.0,0.0,0.0,-0.0,0.0,0.0,1.979980266,0.0,0.0,4185.0,0.0,0.0,0.0,0.0,0.0,4.858397940000001,0.0,-0.0012207030000004337,-4238.0,0.0,0.0,-0.0,0.0,0.0,2.911376655,0.0,-0.0012207029999999897,0.949999988079071,0.07999999821186066,0.9300000071525574,0.00128173828125,0.01123046875,1.00311279296875,28.68000030517578,0.0,0.0,-0.023590087890625,0.05987548828125,Closing,0.0,0.0,0.0,0.0,0.0,0.0,0.0,0.0,
1.2495189999999856,0.0,0.0,4253.0,0.0,0.0,0.0,0.0,0.0,3.80859336,0.0,0.0,-4093.0,0.0,0.0,-0.0,0.0,0.0,1.979980266,0.0,0.0,4185.0,0.0,0.0,0.0,0.0,0.0,4.858397940000001,0.0,0.0012207030000004337,-4238.0,0.0,0.0,-0.0,0.0,0.0,2.916259467,0.0,0.0,0.949999988079071,0.07999999821186066,0.9300000071525574,0.00384521484375,0.01123046875,1.00909423828125,28.68000030517578,0.0,2.0,-0.023590087890625,0.05987548828125,Closing,0.0,0.0,0.0,0.0,0.0,0.0,0.0,0.0,
1.2867089999999881,0.0,0.0,4253.0,0.0,0.0,0.0,0.0,0.0,3.807372657,0.0,0.0,-4093.0,0.0,0.0,-0.0,0.0,0.0,1.979980266,0.0,0.0,4185.0,0.0,0.0,0.0,0.0,0.0,4.858397940000001,0.0,0.0012207030000004337,-4238.0,0.0,0.0,-0.0,0.0,0.0,2.915038764,0.0,0.0,0.949999988079071,0.07999999821186066,0.9300000071525574,0.0050048828125,0.01129150390625,1.00360107421875,28.709999084472656,0.0,3.0,-0.023590087890625,0.05987548828125,Closing,0.0,0.0,0.0,0.0,0.0,0.0,0.0,0.0,
1.3136719999999913,0.0,0.0,4253.0,0.0,0.0,1043.4375,0.0,0.0,3.80859336,1.253823666765294,0.0,-4093.0,0.125,0.0,-1043.4375,0.0,0.0,1.979980266,1.2500349167649958,0.0,4185.0,0.0,0.0,-1043.4375,0.0,0.0,4.858397940000001,3.7282978334317622,0.0,-4238.0,0.0,0.0,-1043.4375,0.0,0.0,2.916259467,1.249656041764966,0.0,0.949999988079071,0.07999999821186066,0.9300000071525574,0.00360107421875,0.01190185546875,0.9931640625,28.709999084472656,0.0,1.0,-0.023590087890625,0.05987548828125,Closing,0.0,0.0,0.0,0.0,0.0,0.0,0.0,0.0,
1.3471399999999993,0.0,0.0,4253.0,1.375,0.0,-1683.9485776402225,0.0,4.5,3.8354488260000004,3.885670269773297,-0.0024414059999999793,-4093.0,2.125,-7.5,1683.9485776402225,0.0,3.25,1.9982908110000002,3.873928719804199,0.0,4185.0,2.125,0.0,-1683.9485776402225,0.0,6.75,4.7631831060000005,3.8778425697938985,0.0,-4238.0,3.875,-37.5,1683.9485776402225,0.0,7.625,3.032226252,3.8727545648072894,-0.0012207029999999897,0.9399999976158142,0.12999999523162842,0.9300000071525574,-0.06884765625,0.03765869140625,1.1031494140625,28.709999084472656,0.0,-71.0,-0.0236358642578125,0.05987548828125,Closing,0.0,0.0,0.0,0.0,0.0,0.0,0.0,0.0,
1.3757439999999914,0.0,0.0,4253.0,8.375,-15.0,-2321.1409721216323,0.0,10.875,3.9929195130000004,4.3784512234844,0.1171874879999999,-4093.0,7.75,15.0,2321.1409721216323,0.0,8.125,2.150878686,4.365220609392485,0.09033202200000012,4185.0,13.625,-52.5,-2321.1409721216323,0.0,7.25,4.56542922,4.369630814089789,-0.12207029999999985,-4238.0,7.625,-67.5,2321.1409721216323,0.0,10.25,3.123778977,4.363897547983293,0.12573240899999982,0.9200000166893005,-0.07000000029802322,1.090000033378601,0.03021240234375,0.20135498046875,1.09619140625,28.709999084472656,0.0,35.0,-0.0235748291015625,0.0599822998046875,Closing,0.0,0.0,0.0,0.0,0.0,0.0,0.0,0.0,
1.4055599999999977,0.0,0.0,4253.0,15.75,-75.0,-2432.7201940226682,0.0,11.125,4.001464434,4.7185916679794015,0.07080077400000029,-4093.0,16.375,112.5,2432.7201940226682,0.0,10.0,2.122802517,4.704333232238125,0.0,4185.0,22.375,-105.0,-2432.7201940226682,0.0,3.375,4.388427285000001,4.709086044151884,0.0,-4238.0,15.25,-22.5,2432.7201940226682,0.0,10.25,3.017577816,4.702907388663998,0.0,1.0299999713897705,-0.8399999737739563,1.2999999523162842,-0.20172119140625,6.103515625E-4,0.95526123046875,28.709999084472656,0.0,-187.0,-0.025787353515625,0.0606536865234375,Closing,0.0,0.0,0.0,0.0,0.0,0.0,0.0,0.0,
1.4340479999999953,0.0,0.0,4210.0,31.75,-247.5,-2520.0,0.0,5.5,3.8452144500000003,0.017925554898047747,-0.07202147700000028,-4042.0,37.25,322.5,2520.0,0.0,6.375,1.959228315,0.017871388233367907,-0.07812499200000023,4095.0,29.5,-390.0,-2520.0,0.0,0.625,4.276122609000001,0.017889443788261187,-0.20751951000000002,-4192.0,37.875,232.5,2520.0,0.0,5.125,2.921142279,0.017865971566899924,-0.10620116099999999,0.800000011920929,-1.2300000190734863,1.340000033378601,-0.4088134765625,-0.15155029296875,0.35565185546875,28.709999084472656,0.0,-404.0,-0.0307159423828125,0.061187744140625,Closing,0.0,0.0,0.0,0.0,0.0,0.0,0.0,0.0,
1.4644579999999987,0.0,0.0,4210.0,35.875,-337.5,-2520.0,0.0,0.75,3.77197227,0.0184771115713618,0.0,-4042.0,41.125,405.0,2520.0,0.0,0.75,1.8640134810000002,0.0184212782366377,0.0,4095.0,29.375,-615.0,-2520.0,0.0,0.375,4.277343312,0.018439889348212397,0.0,-4192.0,46.5,390.0,2520.0,0.0,0.375,2.8442379900000003,0.01841569490316529,0.0,1.0,-2.009999990463257,1.3799999952316284,-0.4639892578125,0.131591796875,1.9169921875,28.709999084472656,0.0,-393.0,-0.037933349609375,0.0614471435546875,Closing,0.0,0.0,0.0,0.0,0.0,0.0,0.0,0.0,
1.4945459999999875,0.0,0.0,4210.0,38.625,-412.5,-2520.0,0.0,0.125,3.7329097740000003,0.01902866660091299,4.880992196000001,-4042.0,45.375,510.0,2520.0,0.0,0.0,1.771240053,0.018971166601111675,-0.10742186399999998,4095.0,31.0,-1057.5,-2520.0,0.0,1.375,4.32128862,0.018990333267712114,-0.0012207030000004337,-4192.0,45.75,652.5,2520.0,0.0,0.0,2.8393551780000004,0.018965416601131546,4.8644921960000005,0.949999988079071,-2.259999990463257,1.4800000190734863,-0.17755126953125,0.2027587890625,0.30780029296875,28.709999084472656,0.0,-160.0,-0.047088623046875,0.06219482421875,Closing,0.0,0.0,0.0,0.0,0.0,0.0,0.0,0.0,
1.528830999999991,0.0,0.0,4210.0,41.5,-570.0,-2520.0,0.0,0.125,3.7390132890000003,0.020407555818554607,0.0,-4042.0,48.75,570.0,2520.0,0.0,0.0,1.705322091,0.020345889151093217,0.0,4095.0,30.875,-1185.0,-2520.0,0.0,1.625,4.451903841,0.02036644470691368,0.0,-4192.0,43.25,735.0,2520.0,0.0,0.0,2.8442379900000003,0.02033972248434708,0.0,1.4900000095367432,-2.819999933242798,1.6100000143051147,-0.42156982421875,0.4200439453125,1.44866943359375,28.709999084472656,0.0,-338.0,-0.0577545166015625,0.064300537109375,Closing,0.0,0.0,0.0,0.0,0.0,0.0,0.0,0.0,
1.5554599999999918,0.0,0.0,4072.0,42.375,-817.5,-2520.0,0.0,0.0,3.7316890710000004,0.022889555095299385,0.0,-3902.0,51.625,825.0,2520.0,0.0,0.25,1.700439279,0.022820388430023496,0.0,3900.0,30.625,-1207.5,-2520.0,0.0,0.375,4.5507807840000005,0.02284344398511546,0.0,-4029.0,43.625,990.0,2520.0,0.0,0.0,2.8442379900000003,0.02281347176349591,0.0,1.8600000143051147,-3.0999999046325684,1.7000000476837158,-0.3782958984375,0.20489501953125,0.95611572265625,28.709999084472656,0.0,-320.0,-0.0701446533203125,0.068115234375,Closing,0.0,0.0,0.0,0.0,0.0,0.0,0.0,0.0,
1.5895399999999935,0.0,0.0,4072.0,41.375,-937.5,-2520.0000000000005,0.0,0.0,3.7316890710000004,0.023716889283389817,0.0,-3902.0,51.375,945.0,2520.0000000000005,0.0,0.25,1.700439279,0.02364522261553106,-0.0012207029999995456,3900.0,30.125,-1207.5,-2520.0000000000005,0.0,0.125,4.656981945,0.023669111504817313,0.11840819100000033,-4029.0,42.625,1117.5,2520.0000000000005,0.0,0.0,2.8442379900000003,0.023638055948745185,0.0,1.8899999856948853,-3.619999885559082,1.7400000095367432,-0.38385009765625,0.19287109375,1.0289306640625,28.709999084472656,0.0,-312.0,-0.08404541015625,0.0726318359375,Closing,0.0,0.0,0.0,0.0,0.0,0.0,0.0,0.0,
1.6152769999999874,0.0,0.0,4072.0,40.25,-1050.0,-2520.0,0.0,0.0,3.7365718830000003,0.024406333070328017,0.0,-3902.0,49.5,1162.5,2520.0,0.0,0.0,1.7102049030000002,0.02433258307112275,0.0,3900.0,29.5,-1410.0,-2520.0,0.0,0.0,4.753417482000001,0.024357166404191173,0.0,-4029.0,39.875,1327.5,2520.0,0.0,0.0,2.8515622080000003,0.024325208071202226,0.0,1.8600000143051147,-4.179999828338623,1.809999942779541,-0.419189453125,-0.12969970703125,0.81201171875,28.709999084472656,0.0,-363.0,-0.108734130859375,0.08001708984375,Closing,0.0,0.0,0.0,0.0,0.0,0.0,0.0,0.0,
1.6508259999999864,0.0,0.0,4072.0,38.125,-1267.5,-2520.0000000000005,0.0,0.0,3.7255855560000004,0.024957888099879207,0.0,-3902.0,44.75,1282.5,2520.0000000000005,0.0,0.125,1.7333982600000002,0.02488247143559673,0.01831054500000029,3900.0,29.0,-1582.5,-2520.0000000000005,0.0,0.0,4.852294425,0.024907610323690887,0.0,-4029.0,39.0,1425.0,2520.0000000000005,0.0,0.0,2.8430172870000003,0.024874929769168483,0.0,1.8799999952316284,-4.639999866485596,1.8600000143051147,-0.26947021484375,-0.01483154296875,1.424560546875,28.709999084472656,0.0,-155.0,-0.127471923828125,0.0850067138671875,Closing,0.0,0.0,0.0,0.0,0.0,0.0,0.0,0.0,
1.684028999999995,0.0,0.0,3834.0,36.25,-1365.0,-2520.0,0.0,0.0,3.7438961010000003,0.02564733353058184,0.004882811999999959,-3666.0,43.125,1380.0,2520.0,0.0,0.25,1.752929508,0.0255698335299858,0.01586913899999942,3594.0,28.0,-1740.0,-2520.0,0.0,0.0,4.908446763000001,0.025595666863517812,0.0805663980000002,-3770.0,37.375,1620.0,2520.0,0.0,0.0,2.8454586930000003,0.025562083529926196,0.0,1.7999999523162842,-4.860000133514404,1.850000023841858,-0.22406005859375,-0.10784912109375,0.48968505859375,28.709999084472656,0.0,-185.0,-0.1476287841796875,0.089813232421875,Closing,0.0,0.0,0.0,0.0,0.0,0.0,0.0,0.0,
1.7114739999999875,0.0,0.0,3834.0,34.375,-1575.0,-2520.0,0.0,0.0,3.7463375070000002,0.025509444773194827,0.0,-3666.0,40.125,1582.5,2520.0,0.0,0.375,1.779784974,0.025432361438868085,0.0,3594.0,24.625,-1972.5,-2520.0,0.0,0.0,4.934081526,0.025458055883643665,0.0,-3770.0,35.5,1717.5,2520.0,0.0,0.0,2.8491208020000003,0.025424653105435412,0.0,1.6699999570846558,-5.329999923706055,1.7599999904632568,-0.3516845703125,0.10601806640625,1.0595703125,28.709999084472656,0.0,-249.0,-0.1690521240234375,0.0941162109375,Closing,0.0,0.0,0.0,0.0,0.0,0.0,0.0,0.0,
1.7459459999999962,0.0,0.0,3834.0,34.0,-1672.5,-2520.0000000000005,0.0,0.0,3.764648052,0.02426844431294022,0.008544921000000372,-3666.0,38.75,1687.5,2520.0000000000005,0.0,0.375,1.7932127070000001,0.024195110980004257,0.019531248000000723,3594.0,24.0,-2025.0,-2520.0000000000005,0.0,0.0,0.019531248,0.024219555424316246,0.023193357000000248,-3770.0,33.625,1905.0,2520.0000000000005,0.0,0.0,2.8479000990000003,0.02418777764671066,0.0,1.7300000190734863,-5.570000171661377,1.5800000429153442,-0.23077392578125,-0.1141357421875,1.30206298828125,28.709999084472656,0.0,-107.0,-0.1916961669921875,0.0982208251953125,Closing,0.0,0.0,0.0,0.0,0.0,0.0,0.0,0.0,
1.773275999999998,0.0,0.0,3834.0,32.75,-1852.5,-2520.0,0.0,0.0,3.762206646,0.02178644503619701,0.0,-3666.0,35.25,1882.5,2520.0,0.0,0.125,1.8151853610000002,0.02172061170107554,0.0,3594.0,23.125,-2085.0,-2520.0,0.0,0.0,0.03662109,0.02174255614611603,0.0,-3770.0,30.625,2002.5,2520.0,0.0,0.0,2.8479000990000003,0.021714028367563393,0.0,1.4600000381469727,-5.659999847412109,1.350000023841858,-0.300537109375,-0.1036376953125,0.73095703125,28.709999084472656,0.0,-229.0,-0.215179443359375,0.101470947265625,Closing,0.0,0.0,0.0,0.0,0.0,0.0,0.0,0.0,
1.801755999999994,0.0,0.0,3514.0,31.75,-1935.0,-2520.0,0.0,0.0,3.765868755,0.018615000328749597,0.0024414060000008675,-3334.0,33.5,1987.5,2520.0,0.0,0.0,1.834716609,0.018558750327756193,0.023193357000000248,3257.0,23.0,-2115.0,-2520.0,0.0,0.0,0.045166011000000006,0.01857750032808733,0.01831054500000029,-3424.0,29.0,2092.5,2520.0,0.0,0.0,2.8491208020000003,0.018553125327656853,0.0,1.399999976158142,-5.949999809265137,1.090000033378601,-0.25616455078125,0.02105712890625,1.060791015625,28.68000030517578,0.0,-144.0,-0.2398834228515625,0.1045989990234375,Closing,0.0,0.0,0.0,0.0,0.0,0.0,0.0,0.0,
1.8316629999999858,0.0,0.0,3514.0,30.75,-2085.0,-2519.9999999999995,0.0,0.0,3.7841793000000004,0.015029889349139576,0.009765623999999917,-3334.0,32.5,2175.0,2519.9999999999995,0.0,0.0,1.849365045,0.014984472681082142,0.019531247999999835,3257.0,22.5,-2205.0,-2519.9999999999995,0.0,0.0,0.043945308,0.014999611570434621,0.008544920999999484,-3424.0,24.875,2250.0,2519.9999999999995,0.0,0.0,2.8479000990000003,0.0149799310142764,0.0,1.440000057220459,-6.039999961853027,0.8399999737739563,-0.11053466796875,-0.158447265625,1.19769287109375,28.68000030517578,0.0,13.0,-0.26544189453125,0.1073150634765625,Closing,0.0,0.0,0.0,0.0,0.0,0.0,0.0,0.0,
1.859531999999992,0.0,0.0,3514.0,29.375,-2152.5,-2083.4646248817444,0.0,0.0,3.774413676,0.011582666305036314,0.0,-3334.0,31.625,2257.5,2083.4646248817444,0.0,0.0,1.849365045,0.011547666306129072,0.0,3257.0,20.875,-2257.5,-2083.4646248817444,0.0,0.0,0.047607417,0.011559332972431485,0.0,-3424.0,22.875,2317.5,2083.4646248817444,0.0,0.0,2.8491208020000003,0.011544166306238347,0.0,1.2000000476837158,-6.269999980926514,0.5600000023841858,-0.15338134765625,-0.02288818359375,0.877197265625,28.68000030517578,0.0,-56.0,-0.2916259765625,0.109527587890625,Closing,0.0,0.0,0.0,0.0,0.0,0.0,0.0,0.0,
1.889912999999986,0.0,0.0,3514.0,27.625,-2220.0,-337.32282400131226,0.0,0.0,3.7817378940000004,0.007721777810649916,0.003662109000000413,-3334.0,27.625,2325.0,337.32282400131226,0.0,0.0,1.8640134810000002,0.0076984444772172506,0.009765623999999917,3257.0,18.25,-2295.0,-337.32282400131226,0.0,0.0,0.035400387000000005,0.007706222255028139,0.0012207029999995456,-3424.0,12.375,2407.5,337.32282400131226,0.0,0.0,2.8466793960000003,0.007696111143873984,0.0,1.2699999809265137,-6.269999980926514,0.4399999976158142,-0.1959228515625,0.04864501953125,1.10223388671875,28.68000030517578,0.0,-74.0,-0.3049163818359375,0.1106109619140625,Closing,0.0,0.0,0.0,0.0,0.0,0.0,0.0,0.0,
1.9166619999999965,0.0,0.0,3154.0,9.625,-2280.0,0.0,0.0,0.0,3.7780757850000004,0.007721777810649916,-4.960337891,-2958.0,10.0,2370.0,0.0,0.0,0.0,1.877441214,0.0076984444772172506,0.009765623999999917,2892.0,6.0,-2310.0,0.0,0.0,0.0,0.023193357,0.007706222255028139,-0.008544920999999484,-3046.0,5.25,2392.5,0.0,0.0,0.0,2.8491208020000003,0.007696111143873984,0.0,1.1299999952316284,-6.210000038146973,0.1899999976158142,0.175537109375,0.01080322265625,0.72625732421875,28.68000030517578,0.0,253.0,-0.33148193359375,0.1128692626953125,Closing,0.0,0.0,0.0,0.0,0.0,0.0,0.0,0.0,
1.9514479999999894,0.0,0.0,3154.0,2.0,-2235.0,1437.1874999999998,0.0,0.0,3.773192973,1.243619888856015,0.0024414059999999793,-2958.0,3.25,2280.0,1437.1874999999998,0.0,0.0,1.887206838,3.714361972189448,0.009765623999999917,2892.0,2.125,-2212.5,1437.1874999999998,0.0,0.0,4.941405744,1.2411146110783033,-0.017089841999999855,-3046.0,2.75,2197.5,1437.1874999999998,0.0,0.0,2.8527829110000003,3.713236180522791,0.0,1.2000000476837158,-5.940000057220459,-0.019999999552965164,0.4329833984375,-0.09320068359375,1.581787109375,28.68000030517578,0.0,594.0,-0.356781005859375,0.1147613525390625,Closing,0.0,0.0,0.0,0.0,0.0,0.0,0.0,0.0,
1.9816209999999992,0.0,0.0,3154.0,30.5,-1785.0,-2342.8124999999995,0.0,3.625,3.77197227,3.7227242222283885,4.946910158,-2958.0,2.5,1935.0,2342.8124999999995,0.0,2.875,1.882324026,3.7114750555617024,0.009765623999999917,2892.0,44.125,-1852.5,2342.8124999999995,0.0,4.125,4.940185041,1.2382247777839306,-0.03578761300000011,-3046.0,3.875,2047.5,2342.8124999999995,0.0,5.625,2.829589554,3.710350138895034,0.002441405999999091,0.9599999785423279,-5.150000095367432,-0.3199999928474426,0.91180419921875,0.20880126953125,0.70306396484375,28.68000030517578,0.0,970.0,-0.379425048828125,0.1161346435546875,Closing,0.0,0.0,0.0,0.0,0.0,0.0,0.0,0.0,
2.0092929999999907,0.0,0.0,3154.0,31.25,-1267.5,2520.0,0.0,4.875,3.925780848,1.236587555654183,0.0,-2958.0,2.625,1702.5,2520.0,0.0,4.25,1.7858884890000002,3.707350888987218,0.0,2892.0,73.0,-1545.0,2520.0,0.0,6.375,0.15869139000000002,1.234096444542873,0.0,-3046.0,3.75,1935.0,2520.0,0.0,6.75,2.651366916,3.7062272223205217,0.0,0.9800000190734863,-3.9000000953674316,-0.6800000071525574,0.4932861328125,-0.2779541015625,0.49468994140625,28.68000030517578,0.0,529.0,-0.39794921875,0.1170501708984375,Closing,0.0,0.0,0.0,0.0,0.0,0.0,0.0,0.0,
2.0383669999999983,0.0,0.0,3140.0,29.375,-682.5,2520.0,0.0,5.125,4.090575753,1.231623555456931,0.1696777169999999,-2736.0,1.625,1507.5,2520.0,0.0,5.0,1.638183426,3.7024018887905625,-0.10864256700000041,2790.0,84.25,-1140.0,2520.0,0.0,3.125,0.20751951000000002,1.2291424443460184,-1.2768553379999998,-2763.0,0.0,1792.5,2520.0,0.0,2.25,2.519530992,3.7012797221239255,-0.16235349899999996,1.190000057220459,-3.4600000381469727,-1.1699999570846558,0.730224609375,0.43280029296875,1.53515625,28.68000030517578,0.0,813.0,-0.412567138671875,0.1179351806640625,Closing,0.0,0.0,0.0,0.0,0.0,0.0,0.0,0.0,
2.0698999999999943,0.0,0.0,3140.0,41.5,472.5,2520.0,0.0,1.125,4.300536669,1.2248670005917561,0.0,-2736.0,0.0,1387.5,2520.0,0.0,1.5,1.431884619,3.695665750589968,0.0,2790.0,83.875,-352.5,2520.0,0.0,1.75,0.18798826200000002,1.222399500590564,0.0,-2763.0,0.0,1732.5,2520.0,0.0,1.875,2.352294681,3.6945456255897895,0.0,1.2400000095367432,-2.0799999237060547,-1.8600000143051147,0.7083740234375,-0.205810546875,0.4251708984375,28.68000030517578,0.0,729.0,-0.4223785400390625,0.1197357177734375,Closing,0.0,0.0,0.0,0.0,0.0,0.0,0.0,0.0,
2.0960339999999995,0.0,0.0,3140.0,29.125,945.0,2520.0,0.0,1.0,4.508056179,1.2153526664694168,0.1940917769999997,-2736.0,0.0,1432.5,2520.0,0.0,1.0,1.262206902,3.6861801664700122,-0.19042966800000016,2790.0,86.75,-75.0,2520.0,0.0,7.0,0.269775363,1.2129043331364806,-0.010986327000000351,-2763.0,0.0,1650.0,2520.0,0.0,1.875,2.208251727,3.685062916470072,0.0,1.659999966621399,-1.2899999618530273,-2.7300000190734863,0.68048095703125,0.26324462890625,0.96075439453125,28.68000030517578,0.0,690.0,-0.4290924072265625,0.1221771240234375,Closing,0.0,0.0,0.0,0.0,0.0,0.0,0.0,0.0,
2.1315729999999893,0.0,0.0,3140.0,16.875,1567.5,2519.9999999999995,0.0,0.5,4.650878430000001,1.2033563330703325,0.20507810400000004,-2736.0,0.25,1575.0,2519.9999999999995,0.0,0.5,1.0559080950000002,3.6742200830711274,-0.209960916,2790.0,87.125,112.5,2519.9999999999995,0.0,8.375,0.42846675300000003,1.2009321664041954,0.11108397300000039,-2763.0,1.875,1357.5,2519.9999999999995,0.0,1.875,2.055663852,3.673106458071207,-0.17333982599999942,1.850000023841858,-0.14000000059604645,-3.75,0.70184326171875,0.07562255859375,1.35430908203125,28.68000030517578,0.0,701.0,-0.4318695068359375,0.1254730224609375,Closing,0.0,0.0,0.0,0.0,0.0,0.0,0.0,0.0,
2.1598899999999994,0.0,0.0,3432.0,15.625,1755.0,2526.221567906555,0.0,0.5,4.799804196,1.1338328910035353,0.0,-2480.0,0.625,1605.0,2526.221567906555,0.0,0.25,0.8923338930000001,3.604906723927577,0.0,2810.0,86.125,112.5,2526.221567906555,0.0,5.0,0.54931635,1.1315487796195633,0.0,-2593.0,8.375,1042.5,2526.221567906555,0.0,1.5,1.9189451160000002,3.6038141072199816,0.0,2.0299999713897705,0.9399999976158142,-4.949999809265137,0.85296630859375,0.51806640625,0.94647216796875,28.68000030517578,0.0,792.0,-0.4308319091796875,0.129730224609375,Closing,0.0,0.0,0.0,0.0,0.0,0.0,0.0,0.0,
2.1926059999999996,0.0,0.0,3432.0,16.125,1762.5,2612.5097375715654,0.0,0.125,4.884032703,0.9527710235111154,0.14404295400000056,-2480.0,3.75,1522.5,2612.5097375715654,0.0,0.0,0.7653807810000001,3.4243919813369277,-0.18920896499999973,2810.0,82.125,150.0,2612.5097375715654,0.0,3.875,0.6738280560000001,0.9508516620616569,0.16235349899999996,-2593.0,12.75,937.5,2612.5097375715654,0.0,1.5,1.849365045,3.4233540771195092,-0.1403808449999997,2.1700000762939453,2.059999942779541,-6.320000171661377,0.7847900390625,0.17254638671875,1.32879638671875,28.68000030517578,0.0,718.0,-0.425201416015625,0.1353912353515625,Closing,0.0,0.0,0.0,0.0,0.0,0.0,0.0,0.0,
2.225905999999988,0.0,0.0,3432.0,18.0,1650.0,2664.7305797209597,0.0,0.125,4.910888169000001,0.8922733744070726,0.0,-2480.0,5.375,1462.5,2664.7305797209597,0.0,0.0,0.675048759,3.364077141406245,0.0,2810.0,78.125,217.5,2664.7305797209597,0.0,1.25,0.782470623,0.8904758857398544,0.0,-2593.0,27.875,847.5,2664.7305797209597,0.0,0.75,1.7358396660000002,3.3630575181061624,0.0,2.490000009536743,3.1700000762939453,-8.59000015258789,0.26025390625,0.43499755859375,0.90289306640625,28.68000030517578,0.0,148.0,-0.4102020263671875,0.1456298828125,Closing,0.0,0.0,0.0,0.0,0.0,0.0,0.0,0.0,
2.2540359999999926,0.0,0.0,3432.0,28.0,1440.0,2671.195472799819,0.0,0.125,4.903563951000001,0.8554659458369549,0.0,-2480.0,10.375,1357.5,2671.195472799819,0.0,0.0,0.5944823610000001,3.3273809359281,0.0,2810.0,63.75,472.5,2671.195472799819,0.0,0.75,0.795898356,0.8537426058977184,0.0,-2593.0,36.75,825.0,2671.195472799819,0.0,0.75,1.677245922,3.326372434937215,0.0,2.9800000190734863,3.259999990463257,-9.850000381469727,-0.379150390625,0.1357421875,1.4161376953125,28.68000030517578,0.0,-463.0,-0.3990936279296875,0.154693603515625,Closing,0.0,0.0,0.0,0.0,0.0,0.0,0.0,0.0,
2.2879949999999956,0.0,0.0,3646.0,34.375,1372.5,2612.5097375715654,0.0,0.125,4.899901842,0.8943061312031981,0.0,-2273.0,13.125,1312.5,2612.5097375715654,0.0,0.0,0.5419921320000001,3.3661037557060087,-0.07568358599999936,2929.0,57.625,645.0,2612.5097375715654,0.0,0.0,0.797119059,0.8925045475384051,0.017089841999999855,-2461.0,43.0,832.5,2612.5097375715654,0.0,0.0,1.535644374,3.3650835181562897,-0.10131834899999959,3.5299999713897705,3.259999990463257,-10.779999732971191,-0.2178955078125,0.2431640625,1.2264404296875,28.68000030517578,0.0,-313.0,-0.3907012939453125,0.1645355224609375,Closing,0.0,0.0,0.0,0.0,0.0,0.0,0.0,0.0,
2.314207999999999,0.0,0.0,3646.0,39.25,1320.0,2547.611185778994,0.0,0.125,4.897460436,0.9759335598697184,0.0,-2273.0,15.625,1335.0,2547.611185778994,0.0,0.0,0.468749952,3.4474845261473077,0.0,2929.0,50.625,982.5,2547.611185778994,0.0,0.0,0.8007811680000001,0.9739675373881114,0.0,-2461.0,47.625,877.5,2547.611185778994,0.0,0.0,1.4758299270000002,3.446439622775067,0.0,3.75,3.299999952316284,-11.430000305175781,0.14227294921875,0.30621337890625,0.5181884765625,28.690000534057617,0.0,56.0,-0.3839569091796875,0.176025390625,Closing,0.0,0.0,0.0,0.0,0.0,0.0,0.0,0.0,
2.347948999999993,0.0,0.0,3646.0,38.375,1342.5,2520.0,0.0,0.0,4.887694812,1.0833929957919664,0.0,-2273.0,16.25,1387.5,2520.0,0.0,0.0,0.444335892,3.554619245804682,-0.06347655600000035,2929.0,49.125,1117.5,2520.0,0.0,0.0,0.8020018710000001,1.0812104958004434,-0.0012207029999995456,-2461.0,49.0,960.0,2520.0,0.0,0.0,1.433105322,3.5535418708059536,-0.06103514999999948,4.199999809265137,3.369999885559082,-12.020000457763672,0.3192138671875,0.25738525390625,1.5224609375,28.690000534057617,0.0,193.0,-0.37701416015625,0.1892852783203125,Closing,0.0,0.0,0.0,0.0,0.0,0.0,0.0,0.0,
2.376928,0.0,0.0,3646.0,37.875,1387.5,2520.0000000000005,0.0,0.0,4.877929188,1.0752575492435046,-0.01586913900000031,-2273.0,17.25,1522.5,2520.0000000000005,0.0,0.0,0.44067378300000004,3.546508382595911,-0.014648435999999876,2929.0,46.375,1305.0,2520.0000000000005,0.0,0.0,0.806884683,1.073091438145109,0.003662108999999525,-2461.0,49.375,1200.0,2520.0000000000005,0.0,0.0,1.4270018070000001,3.545433465931152,-0.043945308000000516,4.340000152587891,3.6600000858306885,-12.510000228881836,0.380126953125,0.13671875,0.8485107421875,28.690000534057617,0.0,301.0,-0.369171142578125,0.2038726806640625,Closing,0.0,0.0,0.0,0.0,0.0,0.0,0.0,0.0,
2.4076049999999958,0.0,0.0,3902.0,34.5,1560.0,2519.9999999999995,0.0,0.0,4.877929188,1.0685009968439751,-0.003662108999999525,-2012.0,17.25,1597.5,2519.9999999999995,0.0,0.0,0.44067378300000004,3.539772246853512,0.0,3153.0,43.625,1380.0,2519.9999999999995,0.0,0.125,0.821533119,1.0663484968503327,0.0,-2242.0,48.75,1320.0,2519.9999999999995,0.0,0.0,1.4233396980000002,3.5386993718544657,0.0,4.46999979019165,3.9700000286102295,-13.079999923706055,0.13702392578125,0.1390380859375,0.5787353515625,28.690000534057617,0.0,72.0,-0.360015869140625,0.2196044921875,Closing,0.0,0.0,0.0,0.0,0.0,0.0,0.0,0.0,
2.4364129999999857,0.0,0.0,3902.0,32.625,1657.5,2520.0,0.0,0.0,4.871825673,1.0606413343853436,-0.006103515000000392,-2012.0,17.25,1657.5,2520.0,0.0,0.0,0.43945308000000005,3.5319363343821646,-0.0012207030000004337,3153.0,43.125,1455.0,2520.0,0.0,0.125,0.836181555,1.0585046677165575,0.017089841999999855,-2242.0,47.0,1507.5,2520.0,0.0,0.0,1.414794777,3.5308658343818466,-0.004882811999999959,4.949999809265137,4.070000171661377,-13.710000038146973,0.22589111328125,0.24822998046875,1.58148193359375,28.690000534057617,0.0,83.0,-0.3506622314453125,0.2365264892578125,Closing,0.0,0.0,0.0,0.0,0.0,0.0,0.0,0.0,
2.471549999999988,0.0,0.0,3902.0,30.625,1860.0,2520.0000000000005,0.0,0.0,4.8730463760000005,1.0519543328073304,0.0,-2012.0,16.875,1785.0,2520.0000000000005,0.0,0.0,0.435790971,3.5232755828089197,0.0,3153.0,40.625,1612.5,2520.0000000000005,0.0,0.125,0.8581542090000001,1.0498351661417233,0.0,-2242.0,45.25,1590.0,2520.0000000000005,0.0,0.0,1.414794777,3.5222077078090788,0.0,4.829999923706055,4.320000171661377,-14.270000457763672,-0.0010986328125,0.2786865234375,0.34478759765625,28.690000534057617,0.0,-87.0,-0.3416748046875,0.2545623779296875,Closing,0.0,0.0,0.0,0.0,0.0,0.0,0.0,0.0,
2.5036359999999984,0.0,0.0,3902.0,30.5,1950.0,2520.0000000000005,0.0,0.0,4.874267079,1.0442325492435045,0.0,-2012.0,16.5,1867.5,2520.0000000000005,0.0,0.0,0.44067378300000004,3.515577132595911,0.0,3153.0,38.0,1702.5,2520.0000000000005,0.0,0.0,0.8789061600000001,1.0421289381451089,0.02563476299999934,-1946.0,41.5,1762.5,2520.0000000000005,0.0,0.0,1.4001463410000001,3.5145115909311517,0.0,5.480000019073486,4.010000228881836,-14.770000457763672,0.078857421875,0.16259765625,1.6124267578125,28.690000534057617,0.0,-35.0,-0.3331756591796875,0.2738189697265625,Closing,0.0,0.0,0.0,0.0,0.0,0.0,0.0,0.0,
2.5343389999999926,0.0,0.0,4238.0,30.5,2077.5,2531.2243053847574,0.0,0.0,4.8730463760000005,1.1090092875046964,0.0,-1691.0,16.25,1987.5,2531.2243053847574,0.0,0.0,0.444335892,3.580158131317635,0.003662109000000413,3461.0,34.75,1905.0,2531.2243053847574,0.0,0.0,0.8972167050000001,1.106775183379989,0.01831054500000029,-1946.0,40.25,1845.0,2531.2243053847574,0.0,0.0,1.3989256380000001,3.579073015698929,-0.014648435999999876,5.550000190734863,4.150000095367432,-15.130000114440918,0.0650634765625,0.23004150390625,1.29388427734375,28.690000534057617,0.0,-55.0,-0.324798583984375,0.29364013671875,Closing,0.0,0.0,0.0,0.0,0.0,0.0,0.0,0.0,
2.563886999999988,0.0,0.0,4238.0,29.25,2137.5,2537.516159969187,0.0,0.0,4.866942861,1.125256222278723,0.0,-1691.0,15.0,2115.0,2537.516159969187,0.0,0.0,0.445556595,3.596355971808501,0.0,3461.0,32.75,2115.0,2537.516159969187,0.0,0.0,0.90332022,1.1229893886319084,0.0,-1946.0,37.625,2025.0,2537.516159969187,0.0,0.0,1.4001463410000001,3.595265946761479,0.0,5.909999847412109,4.199999809265137,-15.520000457763672,-0.03741455078125,0.20166015625,0.94659423828125,28.690000534057617,0.0,-131.0,-0.3131561279296875,0.324951171875,Closing,0.0,0.0,0.0,0.0,0.0,0.0,0.0,0.0,
2.5941479999999864,0.0,0.0,4238.0,27.875,2257.5,2537.5161599691864,0.0,0.0,4.871825673,1.119878550878017,-0.004882811999999959,-1691.0,14.25,2190.0,2537.5161599691864,0.0,0.0,0.444335892,3.5909945504220993,0.0,3461.0,31.75,2197.5,2537.5161599691864,0.0,0.0,0.9228514680000001,1.1176225505740722,0.013427732999999886,-1946.0,35.75,2107.5,2537.5161599691864,0.0,0.0,1.4001463410000001,3.5899061503765077,0.0,6.099999904632568,3.990000009536743,-15.630000114440918,-0.13983154296875,0.20904541015625,1.99127197265625,28.690000534057617,0.0,-267.0,-0.3095855712890625,0.3355560302734375,Closing,0.0,0.0,0.0,0.0,0.0,0.0,0.0,0.0,
2.6278689999999916,0.0,0.0,4238.0,27.625,2317.5,2537.516159969187,0.0,0.0,4.866942861,1.117534451865006,0.0,-1315.0,13.75,2265.0,2537.516159969187,0.0,0.0,0.45410151600000004,3.5886575347058645,0.0,3840.0,31.5,2272.5,2537.516159969187,0.0,0.0,0.926513577,1.1152831737589122,0.0,-1578.0,32.875,2257.5,2537.516159969187,0.0,0.0,1.4001463410000001,3.5875698429899505,0.0,6.300000190734863,4.070000171661377,-15.880000114440918,0.0400390625,0.13580322265625,1.4219970703125,28.690000534057617,0.0,-53.0,-0.2995452880859375,0.3690338134765625,Closing,0.0,0.0,0.0,0.0,0.0,0.0,0.0,0.0,
2.654232999999993,0.0,0.0,4624.0,26.375,2445.0,2520.0,0.0,0.0,4.8632807520000005,1.0220324428664327,0.0,-1315.0,11.875,2377.5,2520.0,0.0,0.0,0.465087843,3.4934441095378674,0.014648435999999876,3840.0,30.375,2400.0,2520.0,0.0,0.0,0.9619139640000001,1.0199735539807226,0.0,-1578.0,30.625,2325.0,2520.0,0.0,0.0,1.3977049350000001,3.492385276205011,0.0,6.25,4.099999904632568,-15.960000038146973,0.142578125,0.3792724609375,0.40423583984375,28.690000534057617,0.0,16.0,-0.29339599609375,0.3921661376953125,Closing,0.0,0.0,0.0,0.0,0.0,0.0,0.0,0.0,
2.6867369999999937,0.0,0.0,4624.0,26.375,2497.5,2520.0,0.0,0.0,4.857177237,1.0209293328073303,-0.004882811999999959,-1315.0,10.625,2430.0,2520.0,0.0,0.0,0.477294873,3.492344332808919,0.012207029999999897,3840.0,29.5,2460.0,2520.0,0.0,0.0,0.9704588850000001,1.0188726661417231,0.01953124800000028,-1578.0,28.25,2400.0,2520.0,0.0,0.0,1.4013670440000001,3.4912858328090786,0.0012207029999999897,6.619999885559082,3.859999895095825,-16.049999237060547,-0.24786376953125,0.0660400390625,1.6600341796875,28.690000534057617,0.0,-311.0,-0.2875823974609375,0.4163665771484375,Closing,0.0,0.0,0.0,0.0,0.0,0.0,0.0,0.0,
2.7120409999999975,0.0,0.0,4624.0,25.375,2610.0,2520.0,0.0,0.0,4.859618643,1.019688343853422,0.0,-1315.0,9.5,2475.0,2520.0,0.0,0.0,0.483398388,3.491107093821633,0.0,3840.0,28.5,2580.0,2520.0,0.0,0.0,0.9704588850000001,1.0176341771655626,0.0,-1578.0,24.5,2505.0,2520.0,0.0,0.0,1.4001463410000001,3.490048968818454,0.0,6.710000038146973,3.7200000286102295,-16.040000915527344,0.02032470703125,0.60430908203125,1.85858154296875,28.690000534057617,0.0,-203.0,-0.2851409912109375,0.4285430908203125,Closing,0.0,0.0,0.0,0.0,0.0,0.0,0.0,0.0,
2.745310999999987,0.0,0.0,4624.0,24.5,2662.5,2520.0,0.0,0.0,4.858397940000001,1.0198262095981188,-0.004882811999999959,-1315.0,9.125,2490.0,2520.0,0.0,0.0,0.477294873,3.4912445429695986,0.0012207029999995456,3840.0,28.0,2647.5,2520.0,0.0,0.0,0.9704588850000001,1.0177717651791054,0.0,-1154.0,22.5,2557.5,2520.0,0.0,0.0,1.4001463410000001,3.4901863763067467,0.0,6.670000076293945,3.8399999141693115,-16.049999237060547,-0.05999755859375,0.25244140625,0.74755859375,28.690000534057617,0.0,-151.0,-0.2782745361328125,0.4662933349609375,Closing,0.0,0.0,0.0,0.0,0.0,0.0,0.0,0.0,
2.773606999999989,0.0,0.0,5062.0,23.0,2707.5,2523.765497259254,0.0,0.0,4.849853019,0.9765257452532675,0.0,-906.0,8.5,2520.0,2523.765497259254,0.0,0.0,0.47851557600000005,3.448074922090737,0.0,4279.0,27.5,2707.5,2523.765497259254,0.0,0.0,0.9704588850000001,0.9745585298115806,0.0,-1154.0,18.75,2655.0,2523.765497259254,0.0,0.0,1.4001463410000001,3.4470298397744843,0.0,6.980000019073486,3.6600000858306885,-16.079999923706055,0.033203125,0.15472412109375,1.42510986328125,28.690000534057617,0.0,-50.0,-0.274139404296875,0.49176025390625,Closing,0.0,0.0,0.0,0.0,0.0,0.0,0.0,0.0,
2.8041969999999856,0.0,0.0,5062.0,20.125,2790.0,2553.689598679967,0.0,0.0,4.824218256,0.8908024031432807,-0.010986327000000351,-906.0,7.375,2602.5,2553.689598679967,0.0,0.0,0.47363276400000004,3.362610615059648,-0.0012207029999995456,4279.0,26.875,2827.5,2553.689598679967,0.0,0.0,0.9704588850000001,0.8890078777541927,0.0024414060000004234,-1154.0,17.375,2692.5,2553.689598679967,0.0,0.0,1.4001463410000001,3.3615914362512855,0.0,6.900000095367432,3.6500000953674316,-16.059999465942383,-0.1273193359375,0.10955810546875,1.35650634765625,28.690000534057617,0.0,-190.0,-0.2722625732421875,0.50439453125,Closing,0.0,0.0,0.0,0.0,0.0,0.0,0.0,0.0,
2.8337609999999986,0.0,0.0,5062.0,19.25,2820.0,2862.8224606856515,0.0,0.0,4.803466305000001,0.6290843908410164,-0.02563476299999934,-906.0,6.625,2662.5,2862.8224606856515,0.0,0.0,0.46752924900000004,3.1016834509009246,-0.004882812000000847,4279.0,26.25,2872.5,2862.8224606856515,0.0,0.0,0.9606932610000001,0.6278170975476218,-0.006103514999999948,-1154.0,16.5,2722.5,2862.8224606856515,0.0,0.0,1.4001463410000001,3.100743356906915,0.0,6.900000095367432,3.7100000381469727,-16.049999237060547,0.23480224609375,-0.08868408203125,1.16802978515625,28.639999389648438,0.0,215.0,-0.2668609619140625,0.5425262451171875,Closing,0.0,0.0,0.0,0.0,0.0,0.0,0.0,0.0,
2.859774999999994,0.0,0.0,5062.0,19.875,2902.5,3348.495931011414,0.0,0.0,4.777831542,0.3465964897494843,0.0,-906.0,8.125,2760.0,3348.495931011414,0.0,0.0,0.46020503100000004,2.8200491595024575,0.0,4763.0,25.0,2962.5,3348.495931011414,0.0,0.0,0.941162013,0.3458982695847996,0.0,-701.0,18.0,2790.0,3348.495931011414,0.0,0.0,1.389160014,2.819194426477755,0.0,6.96999979019165,3.690000057220459,-16.06999969482422,0.24755859375,0.30462646484375,1.25140380859375,28.639999389648438,0.0,117.0,-0.2632293701171875,0.5678558349609375,Closing,0.0,0.0,0.0,0.0,0.0,0.0,0.0,0.0,
2.8922469999999887,0.0,0.0,5535.0,20.375,2947.5,3003.4247541608643,0.0,1.125,4.71191358,0.23290658047488363,-0.035400387000000144,-456.0,10.625,2805.0,3003.4247541608643,0.0,1.375,0.358886682,2.706702793467002,-0.024414059999999793,4763.0,24.125,2992.5,3003.4247541608643,0.0,1.125,0.864257724,0.23243738913629602,-0.023193356999999803,-701.0,20.375,2835.0,3003.4247541608643,0.0,1.875,1.3232420520000001,2.7058824147662137,-0.003662108999999969,6.909999847412109,3.700000047683716,-16.079999923706055,0.024658203125,-0.0081787109375,1.12384033203125,28.639999389648438,0.0,212.0,-0.259307861328125,0.59332275390625,Closing,0.0,0.0,0.0,0.0,0.0,0.0,0.0,0.0,
2.9183469999999945,0.0,0.0,5535.0,19.75,3000.0,2872.21665541181,0.0,1.75,4.573974141,0.17350760671141435,0.0,-456.0,10.5,2865.0,2872.21665541181,0.0,2.25,0.234374976,2.647483308947379,0.0,4763.0,22.875,3037.5,2872.21665541181,0.0,2.0,0.715331958,0.17315807486872412,0.0,-701.0,21.5,2917.5,2872.21665541181,0.0,3.0,1.1889647220000001,2.6466808791709755,0.0,6.840000152587891,4.039999961853027,-16.15999984741211,0.36279296875,0.03839111328125,0.552734375,28.639999389648438,0.0,318.0,-0.256927490234375,0.6062164306640625,Closing,0.0,0.0,0.0,0.0,0.0,0.0,0.0,0.0,
2.9507659999999887,0.0,0.0,5535.0,16.25,3112.5,2758.5693366591763,0.0,1.25,4.409179236,0.10816015200750627,-0.17456052900000074,-456.0,6.875,2940.0,2758.5693366591763,0.0,1.0,0.086669913,2.5823333183491433,-0.1452636570000001,4763.0,23.375,3052.5,2758.5693366591763,0.0,0.875,0.570068301,0.10794226290193111,-0.157470687,-701.0,21.125,2932.5,2758.5693366591763,0.0,1.5,1.0583495010000001,2.5815506349833073,-0.13427733000000064,6.570000171661377,4.309999942779541,-16.389999389648438,0.0289306640625,-0.085693359375,1.72589111328125,28.639999389648438,0.0,-17.0,-0.250701904296875,0.6314849853515625,Closing,0.0,0.0,0.0,0.0,0.0,0.0,0.0,0.0,
2.980047999999995,0.0,0.0,5535.0,13.375,3165.0,2742.7874343733324,0.0,0.625,4.245605034,0.09462752940499529,-0.14038084499999925,-456.0,5.75,2925.0,2742.7874343733324,0.0,0.875,4.882812,2.5688415880389446,-0.14648435999999965,4763.0,23.25,3067.5,2742.7874343733324,0.0,0.375,0.405273396,0.09443690182762825,-0.157470687,-259.0,22.5,2902.5,2742.7874343733324,0.0,1.5,0.9350584980000001,2.56806299390234,-0.14404295399999967,5.900000095367432,4.909999847412109,-16.690000534057617,0.41558837890625,-0.519287109375,0.55572509765625,28.639999389648438,0.0,517.0,-0.24237060546875,0.655364990234375,Closing,0.0,0.0,0.0,0.0,0.0,0.0,0.0,0.0,
3.0108329999999985,0.0,0.0,6056.0,9.75,3240.0,2735.0749104229308,0.0,0.25,4.090575753,0.08526586487558088,0.0,-1.0,5.75,2812.5,2735.0749104229308,0.0,0.625,4.739989749,2.559508212181557,0.0,5254.0,25.375,3090.0,2735.0749104229308,0.0,0.0,0.209960916,0.08509409641289839,0.0,-259.0,21.75,2745.0,2735.0749104229308,0.0,1.875,0.8288573370000001,2.5587324469121544,0.0,5.050000190734863,5.570000171661377,-17.239999771118164,0.72943115234375,-0.90899658203125,1.0733642578125,28.639999389648438,0.0,891.0,-0.2305450439453125,0.67657470703125,Closing,0.0,0.0,0.0,0.0,0.0,0.0,0.0,0.0,
3.043054999999993,0.0,0.0,6056.0,9.5,3232.5,2735.07491042293,0.0,0.125,3.975829671,0.07768198650677934,-0.1330566270000002,-1.0,7.0,2752.5,2735.07491042293,0.0,0.5,4.661864757,2.5519472504476326,-0.12329100300000029,5254.0,25.375,3090.0,2735.07491042293,0.0,0.0,0.10375975500000001,0.07752549580068187,-0.1635742020000004,-259.0,22.25,2677.5,2735.07491042293,0.0,1.5,0.7653807810000001,2.5511737768417184,-0.09521483400000008,4.570000171661377,5.659999847412109,-17.520000457763672,0.40997314453125,-0.263916015625,1.3544921875,28.639999389648438,0.0,368.0,-0.215362548828125,0.69512939453125,Closing,0.0,0.0,0.0,0.0,0.0,0.0,0.0,0.0,
3.0713389999999925,0.0,0.0,6056.0,8.0,3157.5,2735.0749104229303,0.0,0.0,3.8964839760000003,0.0702359738826745,0.0,-1.0,9.375,2692.5,2735.0749104229303,0.0,0.125,4.594726092,2.544523737861675,0.0,5254.0,24.75,3082.5,2735.0749104229303,0.0,0.0,0.029296872,0.07009448320200834,0.0,-259.0,28.25,2610.0,2735.0749104229303,0.0,0.75,0.715331958,2.543752514259575,0.0,3.049999952316284,6.619999885559082,-18.350000381469727,0.89593505859375,-0.76556396484375,0.039794921875,28.639999389648438,0.0,1082.0,-0.1970367431640625,0.711639404296875,Closing,0.0,0.0,0.0,0.0,0.0,0.0,0.0,0.0,
3.102380999999994,0.0,0.0,6056.0,8.875,3090.0,2617.771296828659,0.0,0.0,3.868407807,4.927578545248941,-0.06958007099999985,-1.0,10.375,2670.0,2617.771296828659,0.0,0.0,4.583739765000001,2.4381886020219588,-0.053710931999999545,5254.0,26.25,3060.0,2617.771296828659,0.0,0.0,4.910888169000001,4.917651916430953,-0.07812499200000023,148.0,30.625,2587.5,2617.771296828659,0.0,0.75,0.6848143830000001,2.4374496076992607,0.0,2.180000066757202,6.690000057220459,-18.979999542236328,0.50567626953125,-0.62652587890625,1.99993896484375,28.639999389648438,0.0,482.0,-0.1746368408203125,0.724822998046875,Closing,0.0,0.0,0.0,0.0,0.0,0.0,0.0,0.0,
3.134162999999986,0.0,0.0,6527.0,9.125,2940.0,2563.914243885704,0.0,0.0,3.8500972620000002,4.848720141842148,-0.026855466000000217,412.0,11.25,2565.0,2563.914243885704,0.0,0.25,4.571532735,2.3595684895198996,-0.007324217999999938,5735.0,26.5,3000.0,2563.914243885704,0.0,0.0,4.896239733000001,4.838952373627316,-0.07973292099999885,148.0,30.125,2512.5,2563.914243885704,0.0,0.75,0.6347655600000001,2.358853324287675,-0.023193356999999803,1.1299999952316284,7.110000133514404,-19.420000076293945,0.46868896484375,-0.34405517578125,0.6337890625,28.639999389648438,0.0,482.0,-0.1498565673828125,0.7352142333984375,Closing,0.0,0.0,0.0,0.0,0.0,0.0,0.0,0.0,
3.1633419999999894,0.0,0.0,6527.0,9.0,2887.5,2520.0,0.0,0.0,3.8403316380000003,4.696219776725769,0.0,412.0,10.625,2520.0,2520.0,0.0,0.25,4.5507807840000005,2.2075289433956145,0.0,5735.0,27.5,2955.0,2520.0,0.0,0.0,4.885253406,4.686759221172332,0.0,148.0,28.75,2490.0,2520.0,0.0,0.75,0.5822753310000001,2.206859860062599,0.0,0.20999999344348907,7.429999828338623,-19.940000534057617,0.26177978515625,-0.825927734375,0.51220703125,28.639999389648438,0.0,462.0,-0.1224822998046875,0.7433624267578125,Closing,0.0,0.0,0.0,0.0,0.0,0.0,0.0,0.0,
3.193535999999993,0.0,0.0,6527.0,9.25,2827.5,2520.0,0.0,0.125,3.806151954,4.689049548191495,-0.015869138999999866,412.0,10.5,2452.5,2520.0,0.0,1.125,4.4958491490000005,2.20038038154708,-0.024414059999999793,5735.0,28.0,2910.0,2520.0,0.0,0.0,4.83398388,4.679603437095218,4.934468752,148.0,27.5,2497.5,2520.0,0.0,0.75,0.5163573690000001,2.1997134648826386,-0.05126952600000001,-0.09000000357627869,7.300000190734863,-20.3799991607666,0.10174560546875,-0.1588134765625,1.95819091796875,28.639999389648438,0.0,-85.0,-0.0934906005859375,0.7490386962890625,Closing,0.0,0.0,0.0,0.0,0.0,0.0,0.0,0.0,
3.2248979999999863,0.0,0.0,6527.0,9.375,2760.0,2520.0,0.0,0.375,3.7426753980000003,4.682982456016541,0.0,801.0,11.875,2362.5,2520.0,0.0,1.25,4.417724157,2.194331622648239,0.0,6192.0,27.125,2865.0,2520.0,0.0,0.0,4.78515576,4.67354856710434,0.0,557.0,26.875,2520.0,2520.0,0.0,0.75,0.417480426,2.1936665393114088,0.0,-1.0399999618530273,7.639999866485596,-20.739999771118164,0.2412109375,-0.990966796875,-0.032958984375,28.639999389648438,0.0,575.0,-0.0635833740234375,0.7531890869140625,Closing,0.0,0.0,0.0,0.0,0.0,0.0,0.0,0.0,
3.2538449999999868,0.0,0.0,6968.0,9.375,2745.0,2520.0,0.0,0.375,3.6901851690000003,4.678018447600471,4.89075782,801.0,12.5,2385.0,2520.0,0.0,0.75,4.353026898,2.1893826142576005,-0.08178710099999975,6192.0,27.125,2857.5,2520.0,0.0,0.0,4.709472174,4.668594558705224,-0.05737304099999996,557.0,26.375,2542.5,2520.0,0.0,0.75,0.351562464,2.1887190309233135,0.0,-1.590000033378601,7.5,-21.15999984741211,-0.0347900390625,-0.06396484375,1.98773193359375,28.639999389648438,0.0,-271.0,-0.0322113037109375,0.7545318603515625,Closing,0.0,0.0,0.0,0.0,0.0,0.0,0.0,0.0,
3.286928999999989,0.0,0.0,6968.0,9.25,2737.5,2520.0,0.0,0.125,3.651122673,4.672227113215129,-0.05493163499999998,801.0,13.125,2475.0,2520.0,0.0,0.25,4.299315966,2.183608779875437,-0.06225585299999992,6192.0,25.5,2902.5,2520.0,0.0,0.0,4.681396005,4.662814890988668,-0.07568358600000025,557.0,25.5,2565.0,2520.0,0.0,0.0,0.299072235,2.182946946541468,-0.07080077399999984,-2.180000066757202,7.550000190734863,-21.450000762939453,0.0709228515625,-0.6375732421875,0.5067138671875,28.639999389648438,0.0,227.0,-0.0012054443359375,0.7543487548828125,Closing,0.0,0.0,0.0,0.0,0.0,0.0,0.0,0.0,
3.3126359999999986,0.0,0.0,6968.0,8.75,2752.5,2520.0,0.0,0.125,3.593749632,4.668228322813246,0.0,801.0,12.375,2542.5,2520.0,0.0,0.25,4.267577688,2.179622072845035,0.0,6192.0,25.5,2940.0,2520.0,0.0,0.0,4.616698746,4.658824156167772,0.0,557.0,24.75,2580.0,2520.0,0.0,0.0,0.253906224,2.1789614478482138,0.0,-3.0399999618530273,7.429999828338623,-21.809999465942383,0.14801025390625,-0.36871337890625,1.3486328125,28.639999389648438,0.0,83.0,0.0313720703125,0.751312255859375,Closing,0.0,0.0,0.0,0.0,0.0,0.0,0.0,0.0,
3.345099999999991,0.0,0.0,6968.0,8.625,2760.0,2520.0,0.0,0.125,3.563232057,4.663264340697395,-0.037841793000000123,801.0,11.875,2587.5,2520.0,0.0,0.0,4.230956598000001,2.174673090675142,-0.037841793000000123,6192.0,25.375,3000.0,2520.0,0.0,0.0,4.584960468,4.653870174015893,-0.0646972589999999,978.0,23.625,2602.5,2520.0,0.0,0.0,0.214843728,2.1740139656729167,-0.04272460500000008,-3.359999895095825,7.21999979019165,-22.15999984741211,0.11932373046875,-0.57196044921875,0.99664306640625,28.610000610351562,0.0,185.0,0.063934326171875,0.74639892578125,Closing,0.0,0.0,0.0,0.0,0.0,0.0,0.0,0.0,
