Time,ClimberA1,ClimberA2,FRpos,FRCurrent,FRspeed,FRsetpoint,FRApos,FRACurrent,FREncpos,FREncSetpoint,FREncSpeed,FLpos,FLCurrent,FLspeed,FLsetpoint,FLApos,FLACurrent,FLEncpos,FLEncSetpoint,FLEncSpeed,BRpos,BRCurrent,BRspeed,BRsetpoint,BRApos,BRACurrent,BREncpos,BREncSetpoint,BREncSpeed,BLpos,BLCurrent,BLspeed,BLsetpoint,BLApos,BLACurrent,BLEncpos,BLEncSetpoint,BLEncSpeed,navx_Pitch,navx_Roll,navx_Yaw,navx_XAcc,navx_YAcc,navx_ZAcc,navx_Temp,navx_Bar,navx_Alt,navx_XDis,navx_YDis,GearPlacerState,ShootOutputV,ShootOutputCurrent,ShootEncPos,ShootEncVelocity,ShootSpeed,ShootSetpoint,CarouselSetpoint,CarouselCurrent,
0.17389500000001862,0.0,0.0,-15511.0,0.375,-1200.0,-1549.6532846070922,0.0,0.0,3.127441086,4.315662399086735,0.0,15749.0,0.75,1110.0,1549.6532846070922,0.0,0.0,1.276855338,4.302621517542354,0.0,-14872.0,0.625,-1095.0,-1549.6532846070922,0.0,0.0,4.222411677,4.306968478057148,0.0,9747.0,1.625,1057.5,1549.6532846070922,0.0,0.0,2.213134539,4.301317429387916,0.0,0.9399999976158142,0.6399999856948853,0.0,0.009765625,0.0313720703125,0.94439697265625,35.90999984741211,0.0,0.0,1.0185699462890625,-0.3819427490234375,Closing,0.0,0.0,-224615.0,0.0,0.0,0.0,0.0,0.0,
0.33709599999990314,0.0,0.0,-15679.0,0.0,-960.0,0.0,0.0,0.0,3.121337571,4.315662399086735,0.0,15909.0,0.0,870.0,0.0,0.0,0.0,1.28173815,4.302621517542354,0.0,-15050.0,0.0,-990.0,0.0,0.0,0.0,4.223632380000001,4.306968478057148,0.0,9900.0,0.0,637.5,0.0,0.0,0.0,2.213134539,4.301317429387916,0.0,0.9300000071525574,0.6200000047683716,0.0,0.0052490234375,0.00982666015625,0.98944091796875,35.90999984741211,0.0,-5.0,1.01849365234375,-0.382232666015625,Closing,0.0,0.0,-224615.0,0.0,0.0,0.0,0.0,0.0,
0.49561200000019745,0.0,0.0,-15775.0,0.0,-382.5,0.0,0.0,0.0,3.120116868,4.315662399086735,0.0,15975.0,0.0,157.5,0.0,0.0,0.0,1.276855338,4.302621517542354,0.0,-15109.0,0.0,-30.0,0.0,0.0,0.0,4.223632380000001,4.306968478057148,0.0,9922.0,0.0,0.0,0.0,0.0,0.0,2.213134539,4.301317429387916,0.0,0.9300000071525574,0.6200000047683716,0.019999999552965164,0.01397705078125,0.01531982421875,0.99920654296875,35.939998626708984,0.0,3.0,1.01849365234375,-0.382232666015625,Closing,0.0,0.0,-224615.0,0.0,0.0,0.0,0.0,0.0,
0.6521630000001751,0.0,0.0,-15801.0,0.0,0.0,0.0,0.0,0.0,3.121337571,4.315662399086735,0.0,15977.0,0.0,0.0,0.0,0.0,0.0,1.276855338,4.302621517542354,0.0,-15109.0,0.0,0.0,0.0,0.0,0.0,4.222411677,4.306968478057148,0.0,9922.0,0.0,0.0,0.0,0.0,0.0,2.213134539,4.301317429387916,0.0,0.949999988079071,0.6100000143051147,0.019999999552965164,0.01544189453125,0.0216064453125,0.99273681640625,35.939998626708984,0.0,4.0,1.01849365234375,-0.382232666015625,Closing,0.0,0.0,-224615.0,0.0,0.0,0.0,0.0,0.0,
0.808905999999959,0.0,0.0,-15801.0,0.0,0.0,0.0,0.0,0.0,3.121337571,4.315662399086735,0.0,15977.0,0.0,0.0,0.0,0.0,0.0,1.276855338,4.302621517542354,0.0,-15109.0,0.0,0.0,0.0,0.0,0.0,4.223632380000001,4.306968478057148,0.0,9922.0,0.0,0.0,0.0,0.0,0.0,2.211913836,4.301317429387916,0.0,0.9399999976158142,0.6000000238418579,0.009999999776482582,0.00439453125,0.00811767578125,0.9969482421875,35.939998626708984,0.0,-6.0,1.01849365234375,-0.382232666015625,Closing,0.0,0.0,-224615.0,0.0,0.0,0.0,0.0,0.0,
0.9652560000000522,0.0,0.0,-15801.0,0.0,0.0,0.0,0.0,0.0,3.121337571,4.315662399086735,0.0,15977.0,0.0,0.0,0.0,0.0,0.0,1.276855338,4.302621517542354,0.0,-15109.0,0.0,0.0,0.0,0.0,0.0,4.222411677,4.306968478057148,0.0,9922.0,0.0,0.0,0.0,0.0,0.0,2.213134539,4.301317429387916,0.0,0.9399999976158142,0.6200000047683716,0.0,0.010986328125,0.01727294921875,0.99676513671875,35.939998626708984,0.0,0.0,1.01849365234375,-0.382232666015625,Closing,0.0,0.0,-224615.0,0.0,0.0,0.0,0.0,0.0,
1.115532000000123,0.0,0.0,-15801.0,0.0,0.0,0.0,0.0,0.0,3.121337571,4.315662399086735,0.0,15977.0,0.0,0.0,0.0,0.0,0.0,1.276855338,4.302621517542354,0.0,-15109.0,0.0,0.0,0.0,0.0,0.0,4.223632380000001,4.306968478057148,0.0,9922.0,0.0,0.0,0.0,0.0,0.0,2.213134539,4.301317429387916,0.0,0.9599999785423279,0.6200000047683716,0.0,0.0179443359375,0.01934814453125,1.002197265625,35.93000030517578,0.0,2.0,1.01849365234375,-0.382232666015625,Closing,0.0,0.0,-224615.0,0.0,0.0,0.0,0.0,0.0,
1.2757489999998362,0.0,0.0,-15801.0,0.0,0.0,0.0,0.0,0.0,3.121337571,4.315662399086735,0.0,15977.0,0.0,0.0,0.0,0.0,0.0,1.276855338,4.302621517542354,0.0,-15109.0,0.0,0.0,0.0,0.0,0.0,4.221190974000001,4.306968478057148,0.0,9922.0,0.0,0.0,0.0,0.0,0.0,2.213134539,4.301317429387916,0.0,0.9300000071525574,0.6299999952316284,0.0,0.01373291015625,0.0224609375,1.00396728515625,35.93000030517578,0.0,2.0,1.01849365234375,-0.382232666015625,Closing,0.0,0.0,-224615.0,0.0,0.0,0.0,0.0,0.0,
1.4476329999999142,0.0,0.0,-15801.0,0.0,0.0,0.0,0.0,0.0,3.121337571,4.315662399086735,0.0,15977.0,0.0,0.0,0.0,0.0,0.0,1.276855338,4.302621517542354,0.0,-15109.0,0.0,0.0,0.0,0.0,0.0,4.224853083,4.306968478057148,0.0,9922.0,0.0,0.0,0.0,0.0,0.0,2.213134539,4.301317429387916,0.0,0.949999988079071,0.6299999952316284,0.0,0.013427734375,0.01446533203125,1.00201416015625,35.93000030517578,0.0,2.0,1.01849365234375,-0.382232666015625,Closing,0.0,0.0,-224615.0,0.0,0.0,0.0,0.0,0.0,
1.605285000000149,0.0,0.0,-15801.0,0.0,0.0,0.0,0.0,0.0,3.121337571,4.315662399086735,0.0,15977.0,0.0,0.0,0.0,0.0,0.0,1.276855338,4.302621517542354,0.0,-15109.0,0.0,0.0,0.0,0.0,0.0,4.223632380000001,4.306968478057148,0.0,9922.0,0.0,0.0,0.0,0.0,0.0,2.213134539,4.301317429387916,0.0,0.949999988079071,0.6499999761581421,0.0,0.01123046875,0.02337646484375,0.99664306640625,35.93000030517578,0.0,0.0,1.01849365234375,-0.382232666015625,Closing,0.0,0.0,-224615.0,0.0,0.0,0.0,0.0,0.0,
1.7643719999999739,0.0,0.0,-15801.0,0.0,0.0,0.0,0.0,0.0,3.122558274,4.315662399086735,0.0,15977.0,0.0,0.0,0.0,0.0,0.0,1.276855338,4.302621517542354,0.0,-15109.0,0.0,0.0,0.0,0.0,0.0,4.222411677,4.306968478057148,0.0,9922.0,0.0,0.0,0.0,0.0,0.0,2.213134539,4.301317429387916,0.0,0.9200000166893005,0.6899999976158142,0.0,0.0201416015625,0.0302734375,1.09130859375,35.93000030517578,0.0,6.0,1.0167999267578125,-0.3827972412109375,Closing,0.0,0.0,-224615.0,0.0,0.0,0.0,0.0,0.0,
1.917125,0.0,0.0,-15801.0,0.0,0.0,0.0,0.0,0.0,3.121337571,4.315662399086735,0.0,15977.0,0.0,0.0,0.0,0.0,0.0,1.276855338,4.302621517542354,0.0,-15109.0,0.0,0.0,0.0,0.0,0.0,4.222411677,4.306968478057148,0.0,9922.0,0.0,0.0,0.0,0.0,0.0,2.213134539,4.301317429387916,0.0,0.9100000262260437,0.7099999785423279,0.0,0.118896484375,-0.0396728515625,1.11749267578125,35.93000030517578,0.0,104.0,1.012420654296875,-0.383087158203125,Closing,0.0,0.0,-224615.0,0.0,0.0,0.0,0.0,0.0,
2.0759530000002124,0.0,0.0,-15801.0,0.0,0.0,0.0,0.0,0.0,3.121337571,4.315662399086735,0.0,15977.0,0.0,0.0,0.0,0.0,0.0,1.276855338,4.302621517542354,0.0,-15109.0,0.0,0.0,0.0,0.0,0.0,4.223632380000001,4.306968478057148,0.0,9922.0,0.0,0.0,0.0,0.0,0.0,2.211913836,4.301317429387916,0.0,0.8999999761581421,0.7300000190734863,0.0,-0.15570068359375,0.16876220703125,1.0162353515625,35.90999984741211,0.0,-168.0,1.00762939453125,-0.3855133056640625,Closing,0.0,0.0,-224615.0,0.0,0.0,0.0,0.0,0.0,
2.2353859999999406,0.0,0.0,-15801.0,0.0,0.0,0.0,0.0,0.0,3.121337571,4.315662399086735,0.0,15977.0,0.0,0.0,0.0,0.0,0.0,1.275634635,4.302621517542354,0.0,-15109.0,0.0,0.0,0.0,0.0,0.0,4.224853083,4.306968478057148,0.0,9922.0,0.0,0.0,0.0,0.0,0.0,2.213134539,4.301317429387916,0.0,0.8600000143051147,0.7400000095367432,0.0,-0.0601806640625,0.0787353515625,0.9918212890625,35.90999984741211,0.0,-73.0,1.0041961669921875,-0.38970947265625,Closing,0.0,0.0,-224615.0,0.0,0.0,0.0,0.0,0.0,
2.39512900000019,0.0,0.0,-15801.0,0.0,0.0,0.0,0.0,0.0,3.121337571,4.315662399086735,0.0,15977.0,0.0,0.0,0.0,0.0,0.0,1.276855338,4.302621517542354,0.0,-15109.0,0.0,0.0,0.0,0.0,0.0,4.223632380000001,4.306968478057148,0.0,9922.0,0.0,0.0,0.0,0.0,0.0,2.213134539,4.301317429387916,0.0,0.8600000143051147,0.6299999952316284,0.0,-0.03375244140625,0.02447509765625,0.94793701171875,35.90999984741211,0.0,-44.0,0.9986572265625,-0.3934173583984375,Closing,0.0,0.0,-224615.0,0.0,0.0,0.0,0.0,0.0,
2.5539799999999815,0.0,0.0,-15801.0,0.0,0.0,0.0,0.0,0.0,3.121337571,4.315662399086735,0.0,15977.0,0.0,0.0,0.0,0.0,0.0,1.275634635,4.302621517542354,0.0,-15109.0,0.0,0.0,0.0,0.0,0.0,4.222411677,4.306968478057148,0.0,9922.0,0.0,0.0,0.0,0.0,0.0,2.213134539,4.301317429387916,0.0,0.8700000047683716,0.6399999856948853,0.0,0.01483154296875,0.008544921875,0.95208740234375,35.900001525878906,0.0,4.0,0.997222900390625,-0.3934478759765625,Closing,0.0,0.0,-224615.0,0.0,0.0,0.0,0.0,0.0,
2.712717000000179,0.0,0.0,-15801.0,0.0,0.0,0.0,0.0,0.0,3.121337571,4.315662399086735,0.0,15977.0,0.0,0.0,0.0,0.0,0.0,1.276855338,4.302621517542354,0.0,-15109.0,0.0,0.0,0.0,0.0,0.0,4.222411677,4.306968478057148,0.0,9922.0,0.0,0.0,0.0,0.0,0.0,2.213134539,4.301317429387916,0.0,0.8999999761581421,0.6200000047683716,0.0,0.0174560546875,0.0145263671875,1.0167236328125,35.900001525878906,0.0,6.0,0.997222900390625,-0.393035888671875,Closing,-10.15,75.75,-224644.0,-15.0,-187.5,-1620.0,0.0,0.0,
2.868912000000011,69.75,0.0,-15801.0,0.0,0.0,0.0,0.0,0.0,3.121337571,4.315662399086735,0.0,15977.0,0.0,0.0,0.0,0.0,0.0,1.276855338,4.302621517542354,0.0,-15109.0,0.0,0.0,0.0,0.0,0.0,4.222411677,4.306968478057148,0.0,9922.0,0.0,0.0,0.0,0.0,0.0,2.213134539,4.301317429387916,0.0,0.8899999856948853,0.6399999856948853,0.0,0.0313720703125,-9.765625E-4,1.03973388671875,35.900001525878906,0.0,19.0,0.9971771240234375,-0.393218994140625,Closing,-10.25,66.625,-224743.0,-71.0,-780.0,-1620.0,0.0,0.0,
3.0269479999998583,69.75,0.0,-15801.0,0.0,0.0,0.0,0.0,0.0,3.121337571,4.315662399086735,0.0,15977.0,0.0,0.0,0.0,0.0,0.0,1.276855338,4.302621517542354,0.0,-15109.0,0.0,0.0,0.0,0.0,0.0,4.223632380000001,4.306968478057148,0.0,9922.0,0.0,0.0,0.0,0.0,0.0,2.211913836,4.301317429387916,0.0,0.9100000262260437,0.6499999761581421,0.0,0.05230712890625,-0.0166015625,1.05291748046875,35.90999984741211,0.0,40.0,0.9971466064453125,-0.3929443359375,Closing,-10.350000000000001,58.75,-224904.0,-125.0,-1237.5,-1620.0,0.0,0.0,
3.183345999999903,66.25,0.0,-15801.0,0.0,0.0,0.0,0.0,0.0,3.121337571,4.315662399086735,0.0,15977.0,0.0,0.0,0.0,0.0,0.0,1.276855338,4.302621517542354,0.0,-15109.0,0.0,0.0,0.0,0.0,0.0,4.223632380000001,4.306968478057148,0.0,9922.0,0.0,0.0,0.0,0.0,0.0,2.213134539,4.301317429387916,0.0,0.8999999761581421,0.6399999856948853,0.0,0.00201416015625,0.06378173828125,1.00604248046875,35.90999984741211,0.0,-9.0,0.9972686767578125,-0.3918609619140625,Closing,-6.792179863147606,15.75,-225383.0,-212.0,-1635.0,-1620.0,0.0,0.0,
3.343123999999836,32.625,0.0,-15801.0,0.0,0.0,0.0,0.0,0.0,3.121337571,4.315662399086735,0.0,15977.0,0.0,0.0,0.0,0.0,0.0,1.276855338,4.302621517542354,0.0,-15109.0,0.0,0.0,0.0,0.0,0.0,4.222411677,4.306968478057148,0.0,9922.0,0.0,0.0,0.0,0.0,0.0,2.213134539,4.301317429387916,0.0,0.9300000071525574,0.6299999952316284,0.0,0.012451171875,0.0452880859375,0.9661865234375,35.90999984741211,0.0,1.0,0.9972686767578125,-0.38525390625,Closing,-5.029667644183774,4.75,-225660.0,-229.0,-1732.5,-1620.0,0.0,0.0,
3.4960800000000747,5.375,0.0,-15801.0,0.0,0.0,0.0,0.0,0.0,3.121337571,4.315662399086735,0.0,15977.0,0.0,0.0,0.0,0.0,0.0,1.276855338,4.302621517542354,0.0,-15109.0,0.0,0.0,0.0,0.0,0.0,4.222411677,4.306968478057148,0.0,9922.0,0.0,0.0,0.0,0.0,0.0,2.213134539,4.301317429387916,0.0,0.9800000190734863,0.6600000262260437,0.0,0.03753662109375,0.03955078125,1.07708740234375,35.90999984741211,0.0,25.0,0.9984893798828125,-0.3733062744140625,Closing,-5.107038123167156,4.5,-225936.0,-231.0,-1717.5,-1620.0,0.0,0.0,
3.6574199999999255,4.5,0.0,-15801.0,0.0,0.0,0.0,0.0,0.0,3.121337571,4.315662399086735,0.0,15977.0,0.0,0.0,0.0,0.0,0.0,1.275634635,4.302621517542354,0.0,-15109.0,0.0,0.0,0.0,0.0,0.0,4.222411677,4.306968478057148,0.0,9922.0,0.0,0.0,0.0,0.0,0.0,2.213134539,4.301317429387916,0.0,0.9800000190734863,0.6700000166893005,0.0,0.0013427734375,0.02838134765625,0.98785400390625,35.880001068115234,0.0,-10.0,1.0019989013671875,-0.3713531494140625,Closing,-5.133333333333333,4.875,-226484.0,-227.0,-1702.5,-1620.0,0.0,0.0,
3.822836999999825,5.5,0.0,-15801.0,0.0,0.0,0.0,0.0,0.0,3.121337571,4.315662399086735,0.0,15977.0,0.0,0.0,0.0,0.0,0.0,1.275634635,4.302621517542354,0.0,-15109.0,0.0,0.0,0.0,0.0,0.0,4.222411677,4.306968478057148,0.0,9922.0,0.0,0.0,0.0,0.0,0.0,2.213134539,4.301317429387916,0.0,0.9700000286102295,0.6299999952316284,0.0,0.02630615234375,0.06781005859375,0.9619140625,35.880001068115234,0.0,15.0,1.0019989013671875,-0.3697052001953125,Closing,-5.13998044965787,4.75,-226756.0,-226.0,-1695.0,-1620.0,0.0,0.0,
3.989748999999836,5.25,0.0,-15801.0,0.0,0.0,0.0,0.0,0.0,3.121337571,4.315662399086735,0.0,15977.0,0.0,0.0,0.0,0.0,0.0,1.276855338,4.302621517542354,0.0,-15109.0,0.0,0.0,0.0,0.0,0.0,4.223632380000001,4.306968478057148,0.0,9922.0,0.0,0.0,0.0,0.0,0.0,2.213134539,4.301317429387916,0.0,0.9800000190734863,0.6100000143051147,0.0,0.02117919921875,0.03558349609375,0.993896484375,35.880001068115234,0.0,10.0,1.002197265625,-0.3633575439453125,Closing,-5.095161290322581,4.75,-227030.0,-226.0,-1687.5,-1620.0,0.0,0.0,
4.147589000000153,4.625,0.0,-15801.0,0.0,0.0,0.0,0.0,0.0,3.120116868,4.315662399086735,0.0,15977.0,0.0,0.0,0.0,0.0,0.0,1.275634635,4.302621517542354,0.0,-15109.0,0.0,0.0,0.0,0.0,0.0,4.223632380000001,4.306968478057148,0.0,9922.0,0.0,0.0,0.0,0.0,0.0,2.211913836,4.301317429387916,0.0,0.9599999785423279,0.6399999856948853,0.0,-0.0059814453125,0.01165771484375,0.89923095703125,35.900001525878906,0.0,-16.0,1.00225830078125,-0.3634490966796875,Closing,-5.0922776148582605,4.625,-227567.0,-224.0,-1680.0,-1620.0,0.0,0.0,
4.304964999999851,5.625,0.0,-15801.0,0.0,0.0,0.0,0.0,0.0,3.121337571,4.315662399086735,0.0,15977.0,0.0,0.0,0.0,0.0,0.0,1.276855338,4.302621517542354,0.0,-15109.0,0.0,0.0,0.0,0.0,0.0,4.221190974000001,4.306968478057148,0.0,9922.0,0.0,0.0,0.0,0.0,0.0,2.213134539,4.301317429387916,0.0,0.9900000095367432,0.6299999952316284,0.0,0.0018310546875,-0.01220703125,0.93157958984375,35.900001525878906,0.0,-8.0,1.002105712890625,-0.364013671875,Closing,-5.125122189638319,4.75,-227835.0,-223.0,-1672.5,-1620.0,0.0,0.0,
4.465424999999814,5.0,0.0,-15801.0,0.0,0.0,0.0,0.0,0.0,3.121337571,4.315662399086735,0.0,15977.0,0.0,0.0,0.0,0.0,0.0,1.276855338,4.302621517542354,0.0,-15109.0,0.0,0.0,0.0,0.0,0.0,4.222411677,4.306968478057148,0.0,9922.0,0.0,0.0,0.0,0.0,0.0,2.213134539,4.301317429387916,0.0,0.9800000190734863,0.6499999761581421,0.0,0.02294921875,0.02667236328125,1.06475830078125,35.900001525878906,0.0,10.0,1.002105712890625,-0.364593505859375,Closing,-5.116129032258065,4.875,-228103.0,-223.0,-1665.0,-1620.0,0.0,0.0,
4.62530299999984,4.625,0.0,-15801.0,0.0,0.0,0.0,0.0,0.0,3.120116868,4.315662399086735,0.0,15977.0,0.0,0.0,0.0,0.0,0.0,1.276855338,4.302621517542354,0.0,-15109.0,0.0,0.0,0.0,0.0,0.0,4.222411677,4.306968478057148,0.0,9922.0,0.0,0.0,0.0,0.0,0.0,2.213134539,4.301317429387916,0.0,0.9800000190734863,0.6499999761581421,0.0,0.0064697265625,0.0286865234375,1.01800537109375,35.900001525878906,0.0,-5.0,1.002227783203125,-0.36328125,Closing,-5.020723362658847,4.5,-228637.0,-222.0,-1665.0,-1620.0,0.0,0.0,
4.788541999999899,5.125,0.0,-15801.0,0.0,0.0,0.0,0.0,0.0,3.121337571,4.315662399086735,0.0,15977.0,0.0,0.0,0.0,0.0,0.0,1.276855338,4.302621517542354,0.0,-15109.0,0.0,0.0,0.0,0.0,0.0,4.223632380000001,4.306968478057148,0.0,9922.0,0.0,0.0,0.0,0.0,0.0,2.213134539,4.301317429387916,0.0,0.9900000095367432,0.6299999952316284,0.0,0.0079345703125,-0.0035400390625,1.0054931640625,35.900001525878906,0.0,-3.0,1.002044677734375,-0.3635711669921875,Closing,-5.0684261974584555,4.625,-228904.0,-221.0,-1657.5,-1620.0,0.0,0.0,
4.950535000000149,4.875,0.0,-15801.0,0.0,0.0,0.0,0.0,0.0,3.122558274,4.315662399086735,0.0,15977.0,0.0,0.0,0.0,0.0,0.0,1.276855338,4.302621517542354,0.0,-15109.0,0.0,0.0,0.0,0.0,0.0,4.223632380000001,4.306968478057148,0.0,9922.0,0.0,0.0,0.0,0.0,0.0,2.213134539,4.301317429387916,0.0,0.9800000190734863,0.6399999856948853,0.0,0.018310546875,0.0279541015625,1.06365966796875,35.900001525878906,0.0,6.0,1.002044677734375,-0.3648834228515625,Closing,-5.005376344086022,4.375,-229433.0,-221.0,-1657.5,-1620.0,0.0,0.0,
5.112762999999803,4.875,0.0,-15801.0,0.0,0.0,0.0,0.0,0.0,3.121337571,4.315662399086735,0.0,15977.0,0.0,0.0,0.0,0.0,0.0,1.276855338,4.302621517542354,0.0,-15109.0,0.0,0.0,0.0,0.0,0.0,4.223632380000001,4.306968478057148,0.0,9922.0,0.0,0.0,0.0,0.0,0.0,2.213134539,4.301317429387916,0.0,0.9800000190734863,0.6600000262260437,0.0,0.011474609375,0.00537109375,0.98590087890625,35.900001525878906,0.0,0.0,1.002044677734375,-0.3633270263671875,Closing,-5.044574780058651,4.625,-229698.0,-220.0,-1650.0,-1620.0,0.0,0.0,
5.2686389999999665,4.75,0.0,-15801.0,0.0,0.0,0.0,0.0,0.0,3.121337571,4.315662399086735,0.0,15977.0,0.0,0.0,0.0,0.0,0.0,1.278076041,4.302621517542354,0.0,-15109.0,0.0,0.0,0.0,0.0,0.0,4.223632380000001,4.306968478057148,0.0,9922.0,0.0,0.0,0.0,0.0,0.0,2.213134539,4.301317429387916,0.0,0.9800000190734863,0.6299999952316284,0.0,0.00421142578125,0.01068115234375,0.9830322265625,35.900001525878906,0.0,-6.0,1.0019378662109375,-0.363861083984375,Closing,-4.993401759530792,4.25,-229963.0,-220.0,-1650.0,-1620.0,0.0,0.0,
5.434683999999892,4.5,0.0,-15801.0,0.0,0.0,0.0,0.0,0.0,3.121337571,4.315662399086735,0.0,15977.0,0.0,0.0,0.0,0.0,0.0,1.28173815,4.302621517542354,0.0,-15109.0,0.0,0.0,0.0,0.0,0.0,4.222411677,4.306968478057148,0.0,9922.0,0.0,0.0,0.0,0.0,0.0,2.213134539,4.301317429387916,0.0,0.9900000095367432,0.6299999952316284,0.009999999776482582,0.02325439453125,0.02960205078125,1.01605224609375,35.900001525878906,0.0,12.0,1.0018463134765625,-0.3632049560546875,Closing,-5.06524926686217,4.625,-230490.0,-219.0,-1642.5,-1620.0,0.0,0.0,
5.606896000000183,5.25,0.0,-15801.0,0.0,0.0,0.0,0.0,0.0,3.121337571,4.315662399086735,0.0,15977.0,0.0,0.0,0.0,0.0,0.0,1.276855338,4.302621517542354,0.0,-15109.0,0.0,0.0,0.0,0.0,0.0,4.223632380000001,4.306968478057148,0.0,9922.0,0.0,0.0,0.0,0.0,0.0,2.213134539,4.301317429387916,0.0,0.9800000190734863,0.6499999761581421,0.009999999776482582,0.01190185546875,-0.006103515625,0.9390869140625,35.900001525878906,0.0,1.0,1.0018463134765625,-0.3636627197265625,Closing,-5.0378299120234615,4.5,-230757.0,-219.0,-1642.5,-1620.0,0.0,0.0,
5.771969000000041,5.0,0.0,-15801.0,0.0,0.0,0.0,0.0,0.0,3.1164547590000002,4.315662399086735,0.0,15977.0,0.0,0.0,0.0,0.0,0.0,1.276855338,4.302621517542354,0.0,-15109.0,0.0,0.0,0.0,0.0,0.0,4.223632380000001,4.306968478057148,0.0,9922.0,0.0,0.0,0.0,0.0,0.0,2.211913836,4.301317429387916,0.0,0.9900000095367432,0.6299999952316284,0.009999999776482582,0.03289794921875,0.04345703125,0.99627685546875,35.900001525878906,0.0,21.0,1.001861572265625,-0.36370849609375,Closing,-5.080351906158358,4.875,-231016.0,-219.0,-1635.0,-1620.0,0.0,0.0,
5.944655999999959,4.75,0.0,-15801.0,0.0,0.0,0.0,0.0,0.0,3.121337571,4.315662399086735,0.0,15977.0,0.0,0.0,0.0,0.0,0.0,1.276855338,4.302621517542354,0.0,-15109.0,0.0,0.0,0.0,0.0,0.0,4.222411677,4.306968478057148,0.0,9922.0,0.0,0.0,0.0,0.0,0.0,2.213134539,4.301317429387916,0.0,0.9800000190734863,0.6299999952316284,0.009999999776482582,0.0076904296875,-0.01239013671875,0.95697021484375,35.900001525878906,0.0,-2.0,1.001800537109375,-0.364166259765625,Closing,-5.044574780058651,4.625,-231541.0,-218.0,-1635.0,-1620.0,0.0,0.0,
6.11157899999991,5.125,0.0,-15801.0,0.0,0.0,0.0,0.0,0.0,3.120116868,4.315662399086735,0.0,15977.0,0.0,0.0,0.0,0.0,0.0,1.276855338,4.302621517542354,0.0,-15109.0,0.0,0.0,0.0,0.0,0.0,4.221190974000001,4.306968478057148,0.0,9922.0,0.0,0.0,0.0,0.0,0.0,2.213134539,4.301317429387916,0.0,0.9800000190734863,0.6399999856948853,0.0,0.01141357421875,0.0509033203125,1.006591796875,35.91999816894531,0.0,0.0,1.001922607421875,-0.367095947265625,Closing,-5.029325513196481,4.5,-231803.0,-218.0,-1635.0,-1620.0,0.0,0.0,
6.276007999999914,5.125,0.0,-15801.0,0.0,0.0,0.0,0.0,0.0,3.121337571,4.315662399086735,0.0,15977.0,0.0,0.0,0.0,0.0,0.0,1.276855338,4.302621517542354,0.0,-15109.0,0.0,0.0,0.0,0.0,0.0,4.223632380000001,4.306968478057148,0.0,9922.0,0.0,0.0,0.0,0.0,0.0,2.213134539,4.301317429387916,0.0,0.9700000286102295,0.6499999761581421,0.0,0.0216064453125,-0.0155029296875,0.9896240234375,35.91999816894531,0.0,10.0,1.0017852783203125,-0.36785888671875,Closing,-5.125122189638319,4.875,-232326.0,-217.0,-1627.5,-1620.0,0.0,0.0,
6.452820999999997,4.875,0.0,-15801.0,0.0,0.0,0.0,0.0,0.0,3.121337571,4.315662399086735,0.0,15977.0,0.0,0.0,0.0,0.0,0.0,1.276855338,4.302621517542354,0.0,-15109.0,0.0,0.0,0.0,0.0,0.0,4.222411677,4.306968478057148,0.0,9922.0,0.0,0.0,0.0,0.0,0.0,2.213134539,4.301317429387916,0.0,0.9700000286102295,0.6200000047683716,0.009999999776482582,0.02606201171875,0.035400390625,0.98388671875,35.91999816894531,0.0,15.0,1.0016632080078125,-0.3681640625,Closing,-4.949169110459433,4.25,-232590.0,-218.0,-1635.0,-1620.0,0.0,0.0,
6.6224899999997575,5.0,0.0,-15801.0,0.0,0.0,0.0,0.0,0.0,3.120116868,4.315662399086735,0.0,15977.0,0.0,0.0,0.0,0.0,0.0,1.276855338,4.302621517542354,0.0,-15109.0,0.0,0.0,0.0,0.0,0.0,4.222411677,4.306968478057148,0.0,9922.0,0.0,0.0,0.0,0.0,0.0,2.213134539,4.301317429387916,0.0,0.9900000095367432,0.6499999761581421,0.0,0.00787353515625,0.0020751953125,0.98590087890625,35.88999938964844,0.0,-3.0,1.0016632080078125,-0.367919921875,Closing,-5.0772238514174,4.75,-232850.0,-217.0,-1627.5,-1620.0,0.0,0.0,
6.790907999999821,4.5,0.0,-15801.0,0.0,0.0,0.0,0.0,0.0,3.121337571,4.315662399086735,0.0,15977.0,0.0,0.0,0.0,0.0,0.0,1.274413932,4.302621517542354,0.0,-15109.0,0.0,0.0,0.0,0.0,0.0,4.222411677,4.306968478057148,0.0,9922.0,0.0,0.0,0.0,0.0,0.0,2.213134539,4.301317429387916,0.0,0.9599999785423279,0.6399999856948853,0.009999999776482582,0.008056640625,0.02337646484375,0.93218994140625,35.88999938964844,0.0,-2.0,1.0016632080078125,-0.3680877685546875,Closing,-5.032649071358749,4.625,-233372.0,-217.0,-1627.5,-1620.0,0.0,0.0,
6.964555999999866,4.75,0.0,-15801.0,0.0,0.0,0.0,0.0,0.0,3.121337571,4.315662399086735,0.0,15977.0,0.0,0.0,0.0,0.0,0.0,1.276855338,4.302621517542354,0.0,-15109.0,0.0,0.0,0.0,0.0,0.0,4.229735895,4.306968478057148,0.0,9922.0,0.0,0.0,0.0,0.0,0.0,2.213134539,4.301317429387916,0.0,0.9900000095367432,0.6299999952316284,0.009999999776482582,0.02899169921875,0.01251220703125,1.0201416015625,35.88999938964844,0.0,17.0,1.0016632080078125,-0.3682861328125,Closing,-5.020723362658847,4.5,-233633.0,-217.0,-1627.5,-1620.0,0.0,0.0,
7.122813999999781,5.0,0.0,-15801.0,0.0,0.0,0.0,0.0,0.0,3.121337571,4.315662399086735,0.0,15977.0,0.0,0.0,0.0,0.0,0.0,1.276855338,4.302621517542354,0.0,-15109.0,0.0,0.0,0.0,0.0,0.0,4.223632380000001,4.306968478057148,0.0,9922.0,0.0,0.0,0.0,0.0,0.0,2.213134539,4.301317429387916,0.0,0.9800000190734863,0.6399999856948853,0.009999999776482582,0.00225830078125,1.8310546875E-4,0.97216796875,35.90999984741211,0.0,-8.0,1.0016632080078125,-0.367950439453125,Closing,-5.008797653958944,4.625,-234154.0,-217.0,-1627.5,-1620.0,0.0,0.0,
7.2820299999997955,4.5,0.0,-15801.0,0.0,0.0,0.0,0.0,0.0,3.120116868,4.315662399086735,0.0,15977.0,0.0,0.0,0.0,0.0,0.0,1.276855338,4.302621517542354,0.0,-15109.0,0.0,0.0,0.0,0.0,0.0,4.222411677,4.306968478057148,0.0,9922.0,0.0,0.0,0.0,0.0,0.0,2.213134539,4.301317429387916,0.0,1.0,0.6399999856948853,0.009999999776482582,0.01104736328125,0.0277099609375,1.0433349609375,35.90999984741211,0.0,0.0,1.0016632080078125,-0.368621826171875,Closing,-4.996871945259042,4.75,-234416.0,-216.0,-1627.5,-1620.0,0.0,0.0,
7.437506000000052,5.0,0.0,-15801.0,0.0,0.0,0.0,0.0,0.0,3.121337571,4.315662399086735,0.0,15977.0,0.0,0.0,0.0,0.0,0.0,1.276855338,4.302621517542354,0.0,-15109.0,0.0,0.0,0.0,0.0,0.0,4.222411677,4.306968478057148,0.0,9922.0,0.0,0.0,0.0,0.0,0.0,2.213134539,4.301317429387916,0.0,0.9900000095367432,0.6299999952316284,0.0,-7.32421875E-4,9.765625E-4,0.99493408203125,35.90999984741211,0.0,-11.0,1.0015411376953125,-0.36810302734375,Closing,-5.116129032258065,4.75,-234675.0,-217.0,-1620.0,-1620.0,0.0,0.0,
7.598808000000194,4.75,0.0,-15801.0,0.0,0.0,0.0,0.0,0.0,3.121337571,4.315662399086735,0.0,15977.0,0.0,0.0,0.0,0.0,0.0,1.276855338,4.302621517542354,0.0,-15109.0,0.0,0.0,0.0,0.0,0.0,4.222411677,4.306968478057148,0.0,9922.0,0.0,0.0,0.0,0.0,0.0,2.213134539,4.301317429387916,0.0,0.9800000190734863,0.6299999952316284,0.009999999776482582,-6.7138671875E-4,0.032470703125,0.999267578125,35.88999938964844,0.0,-11.0,1.0016326904296875,-0.3700408935546875,Closing,0.0,0.0,-235186.0,-211.0,-1582.5,0.0,0.0,0.0,
7.760300999999978,0.0,0.0,-15801.0,0.0,0.0,0.0,0.0,0.0,3.121337571,4.315662399086735,0.0,15977.0,0.0,0.0,0.0,0.0,0.0,1.276855338,4.302621517542354,0.0,-15109.0,0.0,0.0,0.0,0.0,0.0,4.223632380000001,4.306968478057148,0.0,9922.0,0.0,0.0,0.0,0.0,0.0,2.213134539,4.301317429387916,0.0,0.9800000190734863,0.6499999761581421,0.009999999776482582,0.0185546875,-3.0517578125E-4,0.96856689453125,35.88999938964844,0.0,7.0,1.00177001953125,-0.37158203125,Closing,0.0,0.0,-235426.0,-201.0,-1477.5,0.0,0.0,0.0,
7.91550699999975,0.0,0.0,-15801.0,0.0,0.0,0.0,0.0,0.0,3.121337571,4.315662399086735,0.0,15977.0,0.0,0.0,0.0,0.0,0.0,1.276855338,4.302621517542354,0.0,-15109.0,0.0,0.0,0.0,0.0,0.0,4.222411677,4.306968478057148,0.0,9922.0,0.0,0.0,0.0,0.0,0.0,2.213134539,4.301317429387916,0.0,0.9800000190734863,0.6499999761581421,0.009999999776482582,0.02313232421875,0.05780029296875,0.971435546875,35.88999938964844,0.0,11.0,1.001800537109375,-0.3738250732421875,Closing,0.0,0.0,-235653.0,-191.0,-1387.5,0.0,0.0,0.0,
8.075828000000213,0.0,0.0,-15801.0,0.0,0.0,0.0,0.0,0.0,3.121337571,4.315662399086735,0.0,15977.0,0.0,0.0,0.0,0.0,0.0,1.276855338,4.302621517542354,0.0,-15109.0,0.0,0.0,0.0,0.0,0.0,4.222411677,4.306968478057148,0.0,9922.0,0.0,0.0,0.0,0.0,0.0,2.213134539,4.301317429387916,0.0,0.9800000190734863,0.6299999952316284,0.009999999776482582,0.04803466796875,0.0032958984375,1.01556396484375,35.88999938964844,0.0,36.0,1.0016632080078125,-0.3751068115234375,Closing,0.0,0.0,-236071.0,-171.0,-1282.5,0.0,0.0,0.0,
8.235317999999971,0.0,0.0,-15801.0,0.0,0.0,0.0,0.0,0.0,3.121337571,4.315662399086735,0.0,15977.0,0.0,0.0,0.0,0.0,0.0,1.276855338,4.302621517542354,0.0,-15109.0,0.0,0.0,0.0,0.0,0.0,4.222411677,4.306968478057148,0.0,9922.0,0.0,0.0,0.0,0.0,0.0,2.213134539,4.301317429387916,0.0,0.9800000190734863,0.6399999856948853,0.009999999776482582,0.028076171875,-0.0157470703125,1.03466796875,35.900001525878906,0.0,16.0,1.00115966796875,-0.3756256103515625,Closing,0.0,0.0,-236262.0,-160.0,-1177.5,0.0,0.0,0.0,
8.3952080000001,0.0,0.0,-15801.0,0.0,0.0,0.0,0.0,0.375,3.703612902,0.0,0.0,15977.0,0.0,0.0,-0.0,0.0,0.5,1.724853339,0.0,0.0,-15109.0,0.0,0.0,0.0,0.0,0.625,4.641112806000001,0.0,0.0,9922.0,0.0,0.0,-0.0,0.0,0.5,2.6318356680000004,0.0,0.0,0.9700000286102295,0.6399999856948853,0.009999999776482582,0.04052734375,0.08160400390625,0.9749755859375,35.900001525878906,0.0,29.0,1.0012359619140625,-0.3796844482421875,Closing,0.0,0.0,-236441.0,-151.0,-1087.5,0.0,0.0,0.0,
8.551691999999806,0.0,0.0,-15801.0,0.0,0.0,0.0,0.0,0.0,4.517821803,0.0,0.0,15977.0,0.0,0.0,-0.0,0.0,0.0,2.2680661740000003,0.0,0.0,-15109.0,0.0,0.0,0.0,0.0,0.125,0.35034176100000003,0.0,0.0,9921.0,0.0,0.0,-0.0,0.0,0.0,3.225097326,0.0,0.0,0.9900000095367432,0.6399999856948853,0.019999999552965164,0.0028076171875,0.0196533203125,0.95721435546875,35.900001525878906,0.0,-7.0,1.00128173828125,-0.379974365234375,Closing,0.0,0.0,-236765.0,-131.0,-997.5,0.0,0.0,0.0,
8.710265999999828,0.0,0.0,-15801.0,0.0,0.0,0.0,0.0,3.125,4.287108936,0.0,0.0,15977.0,0.0,0.0,-0.0,0.0,0.0,2.084960724,0.0,0.0,-15109.0,0.0,0.0,0.0,0.0,0.125,0.156249984,0.0,0.0,9921.0,0.0,0.0,-0.0,0.0,0.0,3.089599293,0.0,0.0,0.9800000190734863,0.6800000071525574,0.019999999552965164,0.05291748046875,0.01885986328125,1.01019287109375,35.90999984741211,0.0,40.0,1.001434326171875,-0.3799285888671875,Closing,0.0,0.0,-236910.0,-122.0,-892.5,0.0,0.0,0.0,
8.869430999999866,0.0,0.0,-15801.0,0.0,0.0,0.0,0.0,0.125,3.441161757,0.0,0.0,15977.0,0.0,0.0,-0.0,0.0,0.0,1.796874816,0.0,0.0,-15109.0,0.0,0.0,0.0,0.0,0.0,4.681396005,0.0,0.0,9921.0,0.0,0.0,-0.0,0.0,0.0,2.7478024530000003,0.0,0.0,0.9599999785423279,0.699999988079071,0.009999999776482582,-0.009033203125,0.05517578125,0.95709228515625,35.90999984741211,0.0,-20.0,1.0017547607421875,-0.3798370361328125,Closing,0.0,0.0,-237043.0,-112.0,-795.0,0.0,0.0,0.0,
9.028725999999791,0.0,0.0,-15801.0,0.0,0.0,0.0,0.0,0.375,3.446044569,0.0,0.0,15977.0,0.0,0.0,-0.0,0.0,0.0,1.8432615300000001,0.0,0.0,-15109.0,0.0,0.0,0.0,0.0,0.0,4.776610839,0.0,0.0,9921.0,0.0,0.0,-0.0,0.0,0.0,2.731933314,0.0,0.0,0.9700000286102295,0.7099999785423279,0.019999999552965164,0.02789306640625,-0.0244140625,1.01422119140625,35.90999984741211,0.0,15.0,1.001678466796875,-0.3795166015625,Closing,0.0,0.0,-237166.0,-103.0,-720.0,0.0,0.0,0.0,
9.188962999999989,0.0,0.0,-15801.0,0.0,0.0,0.0,0.0,0.125,3.911132412,0.0,0.0,15977.0,0.0,0.0,-0.0,0.0,0.0,1.933593552,0.0,0.0,-15109.0,0.0,0.0,0.0,0.0,0.0,0.017089842,0.0,0.0,9921.0,0.0,0.0,-0.0,0.0,0.0,2.8967282190000003,0.0,0.0,0.9599999785423279,0.6899999976158142,0.019999999552965164,-0.02587890625,0.02099609375,1.02191162109375,35.91999816894531,0.0,-38.0,1.001312255859375,-0.37860107421875,Closing,0.0,0.0,-237379.0,-85.0,-622.5,0.0,0.0,0.0,
9.346464999999851,0.0,0.0,-15801.0,0.0,0.0,0.0,0.0,0.125,3.978271077,0.0,0.0,15977.0,0.0,0.0,-0.0,0.0,0.0,1.9689939390000002,0.0,0.0,-15109.0,0.0,0.0,0.0,0.0,0.0,4.934081526,0.0,0.0,9921.0,0.0,0.0,-0.0,0.0,0.0,2.9541012600000003,0.0,0.0,0.9599999785423279,0.6899999976158142,0.019999999552965164,0.02093505859375,-0.01025390625,0.964599609375,35.91999816894531,0.0,9.0,1.0012054443359375,-0.3784942626953125,Closing,0.0,0.0,-237469.0,-76.0,-540.0,0.0,0.0,0.0,
9.506962999999988,0.0,0.0,-15801.0,0.0,0.0,0.0,0.0,0.125,3.7463375070000002,0.0,0.0,15977.0,0.0,0.0,-0.0,0.0,0.0,1.96533183,0.0,0.0,-15109.0,0.0,0.0,0.0,0.0,0.0,4.8730463760000005,0.0,0.0,9921.0,0.0,0.0,-0.0,0.0,0.0,2.94189423,0.0,0.0,0.9800000190734863,0.6899999976158142,0.009999999776482582,0.02838134765625,1.220703125E-4,0.9952392578125,35.91999816894531,0.0,16.0,1.00115966796875,-0.378143310546875,Closing,0.0,0.0,-237549.0,-68.0,-450.0,0.0,0.0,0.0,
9.665736000000033,0.0,0.0,-15801.0,0.0,0.0,0.0,0.0,0.125,3.610839474,0.0,0.0,15977.0,0.0,0.0,-0.0,0.0,0.0,1.954345503,0.0,0.0,-15109.0,0.0,0.0,0.0,0.0,0.0,4.874267079,0.0,0.0,9921.0,0.0,0.0,-0.0,0.0,0.0,2.872314159,0.0,0.0,0.9800000190734863,0.6899999976158142,0.009999999776482582,0.01416015625,9.765625E-4,0.99383544921875,35.93000030517578,0.0,2.0,1.00115966796875,-0.3780975341796875,Closing,0.0,0.0,-237678.0,-51.0,-375.0,0.0,0.0,0.0,
9.816580000000075,0.0,0.0,-15801.0,0.0,0.0,0.0,0.0,0.125,3.712157823,0.0,0.0,15977.0,0.0,0.0,-0.0,0.0,0.0,1.9506833940000001,0.0,0.0,-15109.0,0.0,0.0,0.0,0.0,0.0,4.871825673,0.0,0.0,9921.0,0.0,0.0,-0.0,0.0,0.0,2.83203096,0.0,0.0,0.9800000190734863,0.6899999976158142,0.009999999776482582,0.02410888671875,0.01971435546875,1.00921630859375,35.93000030517578,0.0,11.0,1.00115966796875,-0.3780364990234375,Closing,0.0,0.0,-237728.0,-42.0,-285.0,0.0,0.0,0.0,
9.974015000000131,0.0,0.0,-15801.0,0.0,0.0,0.0,0.0,0.125,3.852538668,0.0,0.0,15977.0,0.0,0.0,-0.0,0.0,0.0,1.9470212850000002,0.0,0.0,-15109.0,0.0,0.0,0.0,0.0,0.0,4.8730463760000005,0.0,0.0,9921.0,0.0,0.0,-0.0,0.0,0.0,2.833251663,0.0,0.0,0.9800000190734863,0.6899999976158142,0.009999999776482582,0.01544189453125,0.00579833984375,1.01226806640625,35.93000030517578,0.0,3.0,1.00115966796875,-0.3779449462890625,Closing,0.0,0.0,-237766.0,-34.0,-202.5,0.0,0.0,0.0,
10.135404999999794,0.0,0.0,-15801.0,0.0,0.0,0.0,0.0,0.125,3.8342281230000004,0.0,0.0,15977.0,0.0,0.0,-0.0,0.0,0.0,1.9494626910000001,0.0,0.0,-15109.0,0.0,0.0,0.0,0.0,0.0,4.8730463760000005,0.0,0.0,9921.0,0.0,0.0,-0.0,0.0,0.0,2.833251663,0.0,0.0,0.9900000095367432,0.6800000071525574,0.009999999776482582,0.0177001953125,0.01702880859375,1.00653076171875,35.93000030517578,0.0,5.0,1.00115966796875,-0.3779449462890625,Closing,0.0,0.0,-237814.0,-17.0,-120.0,0.0,0.0,0.0,
10.297163999999873,0.0,0.0,-15801.0,0.0,0.0,0.0,0.0,0.125,3.7854000030000003,0.0,0.0,15977.0,0.0,0.0,-0.0,0.0,0.0,1.9494626910000001,0.0,0.0,-15109.0,0.0,0.0,0.0,0.0,0.0,4.871825673,0.0,0.0,9921.0,0.0,0.0,-0.0,0.0,0.0,2.834472366,0.0,0.0,0.9900000095367432,0.6899999976158142,0.009999999776482582,0.01080322265625,0.01873779296875,1.00848388671875,35.93000030517578,0.0,-1.0,1.00115966796875,-0.3779449462890625,Closing,0.0,0.0,-237824.0,-9.0,-30.0,0.0,0.0,0.0,
10.4592080000001,0.0,0.0,-15801.0,0.0,0.0,0.0,0.0,0.0,3.760985943,0.0,0.0,15977.0,0.0,0.0,-0.0,0.0,0.0,1.9506833940000001,0.0,0.0,-15109.0,0.0,0.0,0.0,0.0,0.0,4.871825673,0.0,0.0,9921.0,0.0,0.0,-0.0,0.0,0.0,2.834472366,0.0,0.0,0.9900000095367432,0.6800000071525574,0.009999999776482582,0.01025390625,0.01519775390625,0.9981689453125,35.93000030517578,0.0,-1.0,1.00115966796875,-0.3779449462890625,Closing,0.0,0.0,-237825.0,-1.0,0.0,0.0,0.0,0.0,
10.615700000000187,0.0,0.0,-15801.0,0.0,0.0,0.0,0.0,0.125,3.760985943,0.0,0.0,15977.0,0.0,0.0,-0.0,0.0,0.0,1.9494626910000001,0.0,0.0,-15109.0,0.0,0.0,0.0,0.0,0.0,4.871825673,0.0,0.0,9921.0,0.0,0.0,-0.0,0.0,0.0,2.833251663,0.0,0.0,1.0,0.6899999976158142,0.0,0.01300048828125,0.0225830078125,0.99444580078125,35.93000030517578,0.0,0.0,1.00115966796875,-0.37811279296875,Closing,0.0,0.0,-237825.0,0.0,0.0,0.0,0.0,0.0,
10.774220000000206,0.0,0.0,-15801.0,0.0,0.0,0.0,0.0,0.125,3.762206646,0.0,0.0,15977.0,0.0,0.0,-0.0,0.0,0.0,1.9494626910000001,0.0,0.0,-15109.0,0.0,0.0,0.0,0.0,0.0,4.8730463760000005,0.0,0.0,9921.0,0.0,0.0,-0.0,0.0,0.0,2.833251663,0.0,0.0,1.0,0.6600000262260437,0.0,0.00286865234375,0.01409912109375,0.99945068359375,35.91999816894531,0.0,-8.0,1.00115966796875,-0.3780364990234375,Closing,0.0,0.0,-237825.0,0.0,0.0,0.0,0.0,0.0,
10.931570999999996,0.0,0.0,-15801.0,0.0,0.0,0.0,0.0,0.125,3.762206646,0.0,0.0,15977.0,0.0,0.0,-0.0,0.0,0.0,1.9494626910000001,0.0,0.0,-15109.0,0.0,0.0,0.0,0.0,0.0,4.871825673,0.0,0.0,9921.0,0.0,0.0,-0.0,0.0,0.0,2.834472366,0.0,0.0,0.9900000095367432,0.6800000071525574,0.0,0.0087890625,0.010498046875,1.00885009765625,35.91999816894531,0.0,-3.0,1.00115966796875,-0.3780364990234375,Closing,0.0,0.0,-237825.0,0.0,0.0,0.0,0.0,0.0,
11.089370000000113,0.0,0.0,-15801.0,0.0,0.0,0.0,0.0,0.125,3.760985943,0.0,0.0,15977.0,0.0,0.0,-0.0,0.0,0.0,1.9506833940000001,0.0,0.0,-15109.0,0.0,0.0,0.0,0.0,0.0,4.8730463760000005,0.0,0.0,9921.0,0.0,0.0,-0.0,0.0,0.0,2.833251663,0.0,0.0,1.0099999904632568,0.6700000166893005,0.0,0.00787353515625,0.01318359375,1.0025634765625,35.91999816894531,0.0,-3.0,1.00115966796875,-0.3780364990234375,Closing,0.0,0.0,-237825.0,0.0,0.0,0.0,0.0,0.0,
11.245293000000064,0.0,0.0,-15801.0,0.0,0.0,0.0,0.0,0.125,3.762206646,0.0,0.0,15977.0,0.0,0.0,-0.0,0.0,0.0,1.9494626910000001,0.0,0.0,-15109.0,0.0,0.0,0.0,0.0,0.0,4.8730463760000005,0.0,0.0,9921.0,0.0,0.0,-0.0,0.0,0.0,2.834472366,0.0,0.0,1.0,0.6899999976158142,0.0,0.0150146484375,0.0147705078125,0.99737548828125,35.93000030517578,0.0,2.0,1.00115966796875,-0.3780364990234375,Closing,0.0,0.0,-237825.0,0.0,0.0,0.0,0.0,0.0,
11.4102089999998,0.0,0.0,-15801.0,0.0,0.0,0.0,0.0,0.125,3.762206646,0.0,0.0,15977.0,0.0,0.0,-0.0,0.0,0.0,1.9506833940000001,0.0,0.0,-15109.0,0.0,0.0,0.0,0.0,0.0,4.874267079,0.0,0.0,9921.0,0.0,0.0,-0.0,0.0,0.0,2.834472366,0.0,0.0,0.9900000095367432,0.6700000166893005,0.0,0.01422119140625,0.0208740234375,1.01513671875,35.93000030517578,0.0,2.0,1.00115966796875,-0.3780364990234375,Closing,0.0,0.0,-237825.0,0.0,0.0,0.0,0.0,0.0,
11.56802699999977,0.0,0.0,-15801.0,0.0,0.0,0.0,0.0,0.125,3.760985943,0.0,0.0,15977.0,0.0,0.0,-0.0,0.0,0.0,1.9506833940000001,0.0,0.0,-15109.0,0.0,0.0,0.0,0.0,0.0,4.871825673,0.0,0.0,9921.0,0.0,0.0,-0.0,0.0,0.0,2.834472366,0.0,0.0,0.9900000095367432,0.6800000071525574,0.0,0.0220947265625,0.00421142578125,1.00421142578125,35.93000030517578,0.0,10.0,1.00115966796875,-0.3780364990234375,Closing,0.0,0.0,-237825.0,0.0,0.0,0.0,0.0,0.0,
11.72444299999997,0.0,0.0,-15801.0,0.0,0.0,0.0,0.0,0.125,3.760985943,0.0,0.0,15977.0,0.0,0.0,-0.0,0.0,0.0,1.9506833940000001,0.0,0.0,-15109.0,0.0,0.0,0.0,0.0,0.0,4.8730463760000005,0.0,0.0,9921.0,0.0,0.0,-0.0,0.0,0.0,2.834472366,0.0,0.0,0.9800000190734863,0.6700000166893005,0.0,0.006591796875,0.0250244140625,1.01300048828125,35.900001525878906,0.0,-5.0,1.00115966796875,-0.3780364990234375,Closing,0.0,0.0,-237825.0,0.0,0.0,0.0,0.0,0.0,
11.877154999999796,0.0,0.0,-15801.0,0.0,0.0,0.0,0.0,0.125,3.760985943,0.0,0.0,15977.0,0.0,0.0,-0.0,0.0,0.0,1.9494626910000001,0.0,0.0,-15109.0,0.0,0.0,0.0,0.0,0.0,4.871825673,0.0,0.0,9921.0,0.0,0.0,-0.0,0.0,0.0,2.833251663,0.0,0.0,0.9900000095367432,0.6600000262260437,0.0,0.00604248046875,0.03179931640625,0.99163818359375,35.900001525878906,0.0,-5.0,1.00115966796875,-0.3780364990234375,Closing,0.0,0.0,-237825.0,0.0,0.0,0.0,0.0,0.0,
12.031783999999986,0.0,0.0,-15801.0,0.0,0.0,0.0,0.0,0.125,3.760985943,0.0,0.0,15977.0,0.0,0.0,-0.0,0.0,0.0,1.9506833940000001,0.0,0.0,-15109.0,0.0,0.0,0.0,0.0,0.0,4.8730463760000005,0.0,0.0,9921.0,0.0,0.0,-0.0,0.0,0.0,2.833251663,0.0,0.0,0.9700000286102295,0.6700000166893005,-0.009999999776482582,0.0211181640625,0.01947021484375,0.9964599609375,35.900001525878906,0.0,9.0,1.00115966796875,-0.378204345703125,Closing,0.0,0.0,-237825.0,0.0,0.0,0.0,0.0,0.0,
12.18950400000019,0.0,0.0,-15801.0,0.0,0.0,0.0,0.0,0.125,3.762206646,0.0,0.0,15977.0,0.0,0.0,-0.0,0.0,0.0,1.9506833940000001,0.0,0.0,-15109.0,0.0,0.0,0.0,0.0,0.0,4.8730463760000005,0.0,0.0,9921.0,0.0,0.0,-0.0,0.0,0.0,2.834472366,0.0,0.0,0.9599999785423279,0.6600000262260437,-0.009999999776482582,0.00604248046875,0.01318359375,1.00390625,35.939998626708984,0.0,-5.0,1.00115966796875,-0.378143310546875,Closing,0.0,0.0,-237825.0,0.0,0.0,0.0,0.0,0.0,
12.347222999999765,0.0,0.0,-15801.0,0.0,0.0,0.0,0.0,0.125,3.760985943,0.0,0.0,15977.0,0.0,0.0,-0.0,0.0,0.0,1.9494626910000001,0.0,0.0,-15109.0,0.0,0.0,0.0,0.0,0.0,4.874267079,0.0,0.0,9921.0,0.0,0.0,-0.0,0.0,0.0,2.833251663,0.0,0.0,0.9599999785423279,0.6600000262260437,-0.009999999776482582,0.01495361328125,0.01165771484375,0.99066162109375,35.939998626708984,0.0,3.0,1.00115966796875,-0.37811279296875,Closing,0.0,0.0,-237825.0,0.0,0.0,0.0,0.0,0.0,
12.510279999999796,0.0,0.0,-15801.0,0.0,0.0,0.0,0.0,0.125,3.760985943,0.0,0.0,15977.0,0.0,0.0,-0.0,0.0,0.0,1.9506833940000001,0.0,0.0,-15109.0,0.0,0.0,0.0,0.0,0.0,4.871825673,0.0,0.0,9921.0,0.0,0.0,-0.0,0.0,0.0,2.834472366,0.0,0.0,0.949999988079071,0.6600000262260437,-0.009999999776482582,0.0107421875,0.01507568359375,0.98944091796875,35.939998626708984,0.0,0.0,1.00115966796875,-0.37811279296875,Closing,0.0,0.0,-237825.0,0.0,0.0,0.0,0.0,0.0,
12.671703999999911,0.0,0.0,-15801.0,0.0,0.0,0.0,0.0,0.125,3.762206646,0.0,0.0,15977.0,0.0,0.0,-0.0,0.0,0.0,1.9506833940000001,0.0,0.0,-15109.0,0.0,0.0,0.0,0.0,0.0,4.8730463760000005,0.0,0.0,9921.0,0.0,0.0,-0.0,0.0,0.0,2.834472366,0.0,0.0,0.9599999785423279,0.6499999761581421,0.0,0.01275634765625,0.01678466796875,0.984619140625,35.939998626708984,0.0,1.0,1.00115966796875,-0.37811279296875,Closing,0.0,0.0,-237825.0,0.0,0.0,0.0,0.0,0.0,
12.834665000000037,0.0,0.0,-15801.0,0.0,0.0,0.0,0.0,0.125,3.762206646,0.0,0.0,15977.0,0.0,0.0,-0.0,0.0,0.0,1.9506833940000001,0.0,0.0,-15109.0,0.0,0.0,0.0,0.0,0.0,4.874267079,0.0,0.0,9921.0,0.0,0.0,-0.0,0.0,0.0,2.833251663,0.0,0.0,0.949999988079071,0.6499999761581421,-0.009999999776482582,0.0137939453125,0.0079345703125,0.99566650390625,35.900001525878906,0.0,2.0,1.00115966796875,-0.37811279296875,Closing,0.0,0.0,-237825.0,0.0,0.0,0.0,0.0,0.0,
13.005381000000051,0.0,0.0,-15801.0,0.0,0.0,0.0,0.0,0.125,3.760985943,0.0,0.0,15977.0,0.0,0.0,-0.0,0.0,0.0,1.9506833940000001,0.0,0.0,-15109.0,0.0,0.0,0.0,0.0,0.0,4.871825673,0.0,0.0,9921.0,0.0,0.0,-0.0,0.0,0.0,2.833251663,0.0,0.0,1.0,0.6600000262260437,0.0,0.01593017578125,0.02850341796875,0.98333740234375,35.900001525878906,0.0,4.0,1.00115966796875,-0.377960205078125,Closing,0.0,0.0,-237825.0,0.0,0.0,0.0,0.0,0.0,
13.1724169999999,0.0,0.0,-15801.0,0.0,0.0,0.0,0.0,0.125,3.760985943,0.0,0.0,15977.0,0.0,0.0,-0.0,0.0,0.0,1.9494626910000001,0.0,0.0,-15109.0,0.0,0.0,0.0,0.0,0.0,4.8730463760000005,0.0,0.0,9921.0,0.0,0.0,-0.0,0.0,0.0,2.834472366,0.0,0.0,0.9399999976158142,0.6499999761581421,0.0,0.0067138671875,0.010009765625,1.006591796875,35.900001525878906,0.0,-4.0,1.00115966796875,-0.378326416015625,Closing,0.0,0.0,-237825.0,0.0,0.0,0.0,0.0,0.0,
13.336708999999798,0.0,0.0,-15801.0,0.0,0.0,0.0,0.0,0.125,3.760985943,0.0,0.0,15977.0,0.0,0.0,-0.0,0.0,0.0,1.9506833940000001,0.0,0.0,-15109.0,0.0,0.0,0.0,0.0,0.0,4.871825673,0.0,0.0,9921.0,0.0,0.0,-0.0,0.0,0.0,2.833251663,0.0,0.0,0.9900000095367432,0.6499999761581421,0.0,0.00909423828125,0.02923583984375,0.9969482421875,35.93000030517578,0.0,-2.0,1.00115966796875,-0.3784637451171875,Closing,0.0,0.0,-237825.0,0.0,0.0,0.0,0.0,0.0,
13.511972999999765,0.0,0.0,-15801.0,0.0,0.0,0.0,0.0,0.125,3.762206646,0.0,0.0,15977.0,0.0,0.0,-0.0,0.0,0.0,1.9506833940000001,0.0,0.0,-15109.0,0.0,0.0,0.0,0.0,0.0,4.8730463760000005,0.0,0.0,9921.0,0.0,0.0,-0.0,0.0,0.0,2.834472366,0.0,0.0,0.9599999785423279,0.6600000262260437,-0.009999999776482582,0.011962890625,0.01287841796875,0.997802734375,35.93000030517578,0.0,0.0,1.00115966796875,-0.3784637451171875,Closing,0.0,0.0,-237825.0,0.0,0.0,0.0,0.0,0.0,
13.673364999999757,0.0,0.0,-15801.0,0.0,0.0,0.0,0.0,0.125,3.75976524,0.0,0.0,15977.0,0.0,0.0,-0.0,0.0,0.0,1.9506833940000001,0.0,0.0,-15109.0,0.0,0.0,0.0,0.0,0.0,4.8730463760000005,0.0,0.0,9921.0,0.0,0.0,-0.0,0.0,0.0,2.834472366,0.0,0.0,0.9900000095367432,0.6399999856948853,-0.009999999776482582,0.0113525390625,0.01898193359375,1.00018310546875,35.93000030517578,0.0,0.0,1.00115966796875,-0.3784637451171875,Closing,0.0,0.0,-237825.0,0.0,0.0,0.0,0.0,0.0,
13.833887999999803,0.0,0.0,-15801.0,0.0,0.0,0.0,0.0,0.125,3.760985943,0.0,0.0,15977.0,0.0,0.0,-0.0,0.0,0.0,1.9506833940000001,0.0,0.0,-15109.0,0.0,0.0,0.0,0.0,0.0,4.8730463760000005,0.0,0.0,9921.0,0.0,0.0,-0.0,0.0,0.0,2.833251663,0.0,0.0,0.9700000286102295,0.6499999761581421,-0.009999999776482582,0.01165771484375,0.01361083984375,0.9925537109375,35.91999816894531,0.0,0.0,1.00115966796875,-0.3784637451171875,Closing,0.0,0.0,-237825.0,0.0,0.0,0.0,0.0,0.0,
14.01206799999997,0.0,0.0,-15801.0,0.0,0.0,0.0,0.0,0.125,3.760985943,0.0,0.0,15977.0,0.0,0.0,-0.0,0.0,0.0,1.9506833940000001,0.0,0.0,-15109.0,0.0,0.0,0.0,0.0,0.0,4.871825673,0.0,0.0,9921.0,0.0,0.0,-0.0,0.0,0.0,2.833251663,0.0,0.0,0.9800000190734863,0.6600000262260437,-0.009999999776482582,0.01666259765625,0.021240234375,1.0003662109375,35.91999816894531,0.0,5.0,1.00115966796875,-0.3784637451171875,Closing,0.0,0.0,-237825.0,0.0,0.0,0.0,0.0,0.0,
14.175407999999821,0.0,0.0,-15801.0,0.0,0.0,0.0,0.0,0.125,3.762206646,0.0,0.0,15977.0,0.0,0.0,-0.0,0.0,0.0,1.9506833940000001,0.0,0.0,-15109.0,0.0,0.0,0.0,0.0,0.0,4.874267079,0.0,0.0,9921.0,0.0,0.0,-0.0,0.0,0.0,2.834472366,0.0,0.0,0.9700000286102295,0.6499999761581421,-0.009999999776482582,0.01239013671875,0.01690673828125,1.00762939453125,35.91999816894531,0.0,0.0,1.00115966796875,-0.3784637451171875,Closing,0.0,0.0,-237825.0,0.0,0.0,0.0,0.0,0.0,
14.346810999999754,0.0,0.0,-15801.0,0.0,0.0,0.0,0.0,0.125,3.762206646,0.0,0.0,15977.0,0.0,0.0,-0.0,0.0,0.0,1.9494626910000001,0.0,0.0,-15109.0,0.0,0.0,0.0,0.0,0.0,4.8730463760000005,0.0,0.0,9921.0,0.0,0.0,-0.0,0.0,0.0,2.833251663,0.0,0.0,0.9599999785423279,0.6700000166893005,0.0,0.012939453125,0.02325439453125,0.9881591796875,35.939998626708984,0.0,1.0,1.00115966796875,-0.3784637451171875,Closing,0.0,0.0,-237825.0,0.0,0.0,0.0,0.0,0.0,
14.50369299999997,0.0,0.0,-15801.0,0.0,0.0,0.0,0.0,0.125,3.760985943,0.0,0.0,15977.0,0.0,0.0,-0.0,0.0,0.0,1.9506833940000001,0.0,0.0,-15109.0,0.0,0.0,0.0,0.0,0.0,4.8730463760000005,0.0,0.0,9921.0,0.0,0.0,-0.0,0.0,0.0,2.833251663,0.0,0.0,0.9800000190734863,0.6800000071525574,-0.009999999776482582,0.016357421875,0.01214599609375,0.99383544921875,35.939998626708984,0.0,4.0,1.00115966796875,-0.3784637451171875,Closing,0.0,0.0,-237825.0,0.0,0.0,0.0,0.0,0.0,
14.665256000000053,0.0,0.0,-15801.0,0.0,0.0,0.0,0.0,0.125,3.760985943,0.0,0.0,15977.0,0.0,0.0,-0.0,0.0,0.0,1.9506833940000001,0.0,0.0,-15109.0,0.0,0.0,0.0,0.0,0.0,4.871825673,0.0,0.0,9921.0,0.0,0.0,-0.0,0.0,0.0,2.834472366,0.0,0.0,0.949999988079071,0.6700000166893005,-0.009999999776482582,0.00775146484375,0.0169677734375,0.998779296875,35.939998626708984,0.0,-3.0,1.00115966796875,-0.3784637451171875,Closing,0.0,0.0,-237825.0,0.0,0.0,0.0,0.0,0.0,
14.823625,0.0,0.0,-15801.0,0.0,0.0,0.0,0.0,0.125,3.760985943,0.0,0.0,15977.0,0.0,0.0,-0.0,0.0,0.0,1.9494626910000001,0.0,0.0,-15109.0,0.0,0.0,0.0,0.0,0.0,4.8730463760000005,0.0,0.0,9921.0,0.0,0.0,-0.0,0.0,0.0,2.834472366,0.0,0.0,0.9700000286102295,0.6899999976158142,-0.019999999552965164,0.0162353515625,0.0140380859375,0.993408203125,35.93000030517578,0.0,4.0,1.00115966796875,-0.3784637451171875,Closing,0.0,0.0,-237825.0,0.0,0.0,0.0,0.0,0.0,
14.97953299999982,0.0,0.0,-15801.0,0.0,0.0,0.0,0.0,0.125,3.760985943,0.0,0.0,15977.0,0.0,0.0,-0.0,0.0,0.0,1.9506833940000001,0.0,0.0,-15109.0,0.0,0.0,0.0,0.0,0.0,4.871825673,0.0,0.0,9921.0,0.0,0.0,-0.0,0.0,0.0,2.834472366,0.0,0.0,0.9599999785423279,0.6600000262260437,-0.029999999329447746,0.012939453125,0.0185546875,0.99560546875,35.93000030517578,0.0,1.0,1.00115966796875,-0.3784637451171875,Closing,0.0,0.0,-237825.0,0.0,0.0,0.0,0.0,0.0,
15.142040000000037,0.0,0.0,-15801.0,0.0,0.0,0.0,0.0,0.125,3.762206646,0.0,0.0,15977.0,0.0,0.0,-0.0,0.0,0.0,1.9506833940000001,0.0,0.0,-15109.0,0.0,0.0,0.0,0.0,0.0,4.8730463760000005,0.0,0.0,9921.0,0.0,0.0,-0.0,0.0,0.0,2.833251663,0.0,0.0,0.9599999785423279,0.6600000262260437,-0.019999999552965164,0.00762939453125,0.01702880859375,1.00482177734375,35.93000030517578,0.0,-4.0,1.00115966796875,-0.3784637451171875,Closing,0.0,0.0,-237825.0,0.0,0.0,0.0,0.0,0.0,
15.295799000000116,0.0,0.0,-15801.0,0.0,0.0,0.0,0.0,0.125,3.767089458,0.0,0.0,15977.0,0.0,0.0,-0.0,0.0,0.0,1.9494626910000001,0.0,0.0,-15109.0,0.0,0.0,0.0,0.0,0.0,4.8730463760000005,0.0,0.0,9921.0,0.0,0.0,-0.0,0.0,0.0,2.833251663,0.0,0.0,0.9700000286102295,0.6600000262260437,-0.019999999552965164,0.01171875,0.01904296875,0.99468994140625,35.90999984741211,0.0,0.0,1.00115966796875,-0.3784637451171875,Closing,0.0,0.0,-237825.0,0.0,0.0,0.0,0.0,0.0,
15.455924999999814,0.0,0.0,-15801.0,0.0,0.0,0.0,0.0,0.125,3.760985943,0.0,0.0,15977.0,0.0,0.0,-0.0,0.0,0.0,1.9506833940000001,0.0,0.0,-15109.0,0.0,0.0,0.0,0.0,0.0,4.871825673,0.0,0.0,9921.0,0.0,0.0,-0.0,0.0,0.0,2.834472366,0.0,0.0,0.9700000286102295,0.6800000071525574,-0.019999999552965164,0.0145263671875,0.010009765625,0.99639892578125,35.90999984741211,0.0,2.0,1.00115966796875,-0.3784637451171875,Closing,0.0,0.0,-237825.0,0.0,0.0,0.0,0.0,0.0,
15.619236000000033,0.0,0.0,-15801.0,0.0,0.0,0.0,0.0,0.125,3.762206646,0.0,0.0,15977.0,0.0,0.0,-0.0,0.0,0.0,1.9494626910000001,0.0,0.0,-15109.0,0.0,0.0,0.0,0.0,0.0,4.871825673,0.0,0.0,9921.0,0.0,0.0,-0.0,0.0,0.0,2.834472366,0.0,0.0,0.9599999785423279,0.6600000262260437,-0.019999999552965164,0.01080322265625,0.01934814453125,1.00067138671875,35.90999984741211,0.0,0.0,1.00115966796875,-0.3784637451171875,Closing,0.0,0.0,-237825.0,0.0,0.0,0.0,0.0,0.0,
15.77425,0.0,0.0,-15801.0,0.0,0.0,0.0,0.0,0.125,3.760985943,0.0,0.0,15977.0,0.0,0.0,-0.0,0.0,0.0,1.9506833940000001,0.0,0.0,-15109.0,0.0,0.0,0.0,0.0,0.0,4.871825673,0.0,0.0,9921.0,0.0,0.0,-0.0,0.0,0.0,2.834472366,0.0,0.0,0.9800000190734863,0.6700000166893005,-0.029999999329447746,0.01318359375,0.01666259765625,1.00677490234375,35.939998626708984,0.0,1.0,1.00115966796875,-0.3784637451171875,Closing,0.0,0.0,-237825.0,0.0,0.0,0.0,0.0,0.0,
15.93042100000009,0.0,0.0,-15801.0,0.0,0.0,0.0,0.0,0.125,3.760985943,0.0,0.0,15977.0,0.0,0.0,-0.0,0.0,0.0,1.9506833940000001,0.0,0.0,-15109.0,0.0,0.0,0.0,0.0,0.0,4.8730463760000005,0.0,0.0,9921.0,0.0,0.0,-0.0,0.0,0.0,2.834472366,0.0,0.0,0.9700000286102295,0.6600000262260437,-0.029999999329447746,0.0150146484375,0.01513671875,0.9918212890625,35.939998626708984,0.0,3.0,1.00115966796875,-0.3784637451171875,Closing,0.0,0.0,-237825.0,0.0,0.0,0.0,0.0,0.0,
16.08635399999982,0.0,0.0,-15801.0,0.0,0.0,0.0,0.0,0.125,3.762206646,0.0,0.0,15977.0,0.0,0.0,-0.0,0.0,0.0,1.9494626910000001,0.0,0.0,-15109.0,0.0,0.0,0.0,0.0,0.0,4.8706049700000005,0.0,0.0,9921.0,0.0,0.0,-0.0,0.0,0.0,2.834472366,0.0,0.0,0.9800000190734863,0.6600000262260437,-0.029999999329447746,0.00921630859375,0.0174560546875,0.9974365234375,35.939998626708984,0.0,-2.0,1.00115966796875,-0.3784637451171875,Closing,0.0,0.0,-237825.0,0.0,0.0,0.0,0.0,0.0,
16.238691999999805,0.0,0.0,-15801.0,0.0,0.0,0.0,0.0,0.125,3.760985943,0.0,0.0,15977.0,0.0,0.0,-0.0,0.0,0.0,1.9506833940000001,0.0,0.0,-15109.0,0.0,0.0,0.0,0.0,0.0,4.8730463760000005,0.0,0.0,9921.0,0.0,0.0,-0.0,0.0,0.0,2.833251663,0.0,0.0,0.9599999785423279,0.6600000262260437,-0.029999999329447746,0.01544189453125,0.017578125,0.99652099609375,35.939998626708984,0.0,3.0,1.00115966796875,-0.3784637451171875,Closing,0.0,0.0,-237825.0,0.0,0.0,0.0,0.0,0.0,
16.40873900000006,0.0,0.0,-15801.0,0.0,0.0,0.0,0.0,0.125,3.760985943,0.0,0.0,15977.0,0.0,0.0,-0.0,0.0,0.0,1.9494626910000001,0.0,0.0,-15109.0,0.0,0.0,0.0,0.0,0.0,4.871825673,0.0,0.0,9921.0,0.0,0.0,-0.0,0.0,0.0,2.834472366,0.0,0.0,0.9700000286102295,0.6600000262260437,-0.029999999329447746,0.00970458984375,0.017333984375,1.003662109375,35.959999084472656,0.0,-1.0,1.00115966796875,-0.3784637451171875,Closing,0.0,0.0,-237825.0,0.0,0.0,0.0,0.0,0.0,
16.567283999999987,0.0,0.0,-15801.0,0.0,0.0,0.0,0.0,0.125,3.762206646,0.0,0.0,15977.0,0.0,0.0,-0.0,0.0,0.0,1.9506833940000001,0.0,0.0,-15109.0,0.0,0.0,0.0,0.0,0.0,4.8730463760000005,0.0,0.0,9921.0,0.0,0.0,-0.0,0.0,0.0,2.833251663,0.0,0.0,0.9700000286102295,0.6499999761581421,-0.029999999329447746,0.0091552734375,0.0191650390625,0.99749755859375,35.959999084472656,0.0,-2.0,1.00115966796875,-0.3784637451171875,Closing,0.0,0.0,-237825.0,0.0,0.0,0.0,0.0,0.0,
16.724158999999986,0.0,0.0,-15801.0,0.0,0.0,0.0,0.0,0.125,3.760985943,0.0,0.0,15977.0,0.0,0.0,-0.0,0.0,0.0,1.9506833940000001,0.0,0.0,-15109.0,0.0,0.0,0.0,0.0,0.0,4.871825673,0.0,0.0,9921.0,0.0,0.0,-0.0,0.0,0.0,2.833251663,0.0,0.0,0.9700000286102295,0.6499999761581421,-0.019999999552965164,0.009033203125,0.012451171875,0.99615478515625,35.959999084472656,0.0,-2.0,1.00115966796875,-0.3784637451171875,Closing,0.0,0.0,-237825.0,0.0,0.0,0.0,0.0,0.0,
16.891032999999823,0.0,0.0,-15801.0,0.0,0.0,0.0,0.0,0.125,3.760985943,0.0,0.0,15977.0,0.0,0.0,-0.0,0.0,0.0,1.9506833940000001,0.0,0.0,-15109.0,0.0,0.0,0.0,0.0,0.0,4.871825673,0.0,0.0,9921.0,0.0,0.0,-0.0,0.0,0.0,2.833251663,0.0,0.0,0.9800000190734863,0.6499999761581421,-0.029999999329447746,0.01214599609375,0.01788330078125,0.99749755859375,36.0,0.0,0.0,1.00115966796875,-0.3784637451171875,Closing,0.0,0.0,-237825.0,0.0,0.0,0.0,0.0,0.0,
17.04901099999994,0.0,0.0,-15801.0,0.0,0.0,0.0,0.0,0.125,3.762206646,0.0,0.0,15977.0,0.0,0.0,-0.0,0.0,0.0,1.9506833940000001,0.0,0.0,-15109.0,0.0,0.0,0.0,0.0,0.0,4.871825673,0.0,0.0,9921.0,0.0,0.0,-0.0,0.0,0.0,2.834472366,0.0,0.0,0.9800000190734863,0.6399999856948853,-0.029999999329447746,0.01513671875,0.01336669921875,0.99285888671875,36.0,0.0,3.0,1.00115966796875,-0.3784637451171875,Closing,0.0,0.0,-237825.0,0.0,0.0,0.0,0.0,0.0,
17.203433000000192,0.0,0.0,-15801.0,0.0,0.0,0.0,0.0,0.125,3.760985943,0.0,0.0,15977.0,0.0,0.0,-0.0,0.0,0.0,1.9494626910000001,0.0,0.0,-15109.0,0.0,0.0,0.0,0.0,0.0,4.8730463760000005,0.0,0.0,9921.0,0.0,0.0,-0.0,0.0,0.0,2.833251663,0.0,0.0,0.9700000286102295,0.6499999761581421,-0.029999999329447746,0.0052490234375,0.01641845703125,0.99444580078125,36.0,0.0,-6.0,1.00115966796875,-0.3784637451171875,Closing,0.0,0.0,-237825.0,0.0,0.0,0.0,0.0,0.0,
17.35594499999983,0.0,0.0,-15801.0,0.0,0.0,0.0,0.0,0.125,3.757323834,0.0,0.0,15977.0,0.0,0.0,-0.0,0.0,0.0,1.9506833940000001,0.0,0.0,-15109.0,0.0,0.0,0.0,0.0,0.0,4.871825673,0.0,0.0,9921.0,0.0,0.0,-0.0,0.0,0.0,2.833251663,0.0,0.0,0.9900000095367432,0.6499999761581421,-0.029999999329447746,0.012939453125,0.0191650390625,0.9986572265625,35.939998626708984,0.0,1.0,1.00115966796875,-0.3784637451171875,Closing,0.0,0.0,-237825.0,0.0,0.0,0.0,0.0,0.0,
17.51373300000001,0.0,0.0,-15801.0,0.0,0.0,0.0,0.0,0.125,3.760985943,0.0,0.0,15977.0,0.0,0.0,-0.0,0.0,0.0,1.9506833940000001,0.0,0.0,-15109.0,0.0,0.0,0.0,0.0,0.0,4.871825673,0.0,0.0,9921.0,0.0,0.0,-0.0,0.0,0.0,2.833251663,0.0,0.0,0.9700000286102295,0.6299999952316284,-0.029999999329447746,0.00836181640625,0.017333984375,1.0032958984375,35.939998626708984,0.0,-2.0,1.00115966796875,-0.3784637451171875,Closing,0.0,0.0,-237825.0,0.0,0.0,0.0,0.0,0.0,
17.675459999999962,0.0,0.0,-15801.0,0.0,0.0,0.0,0.0,0.125,3.760985943,0.0,0.0,15977.0,0.0,0.0,-0.0,0.0,0.0,1.9506833940000001,0.0,0.0,-15109.0,0.0,0.0,0.0,0.0,0.0,4.8730463760000005,0.0,0.0,9921.0,0.0,0.0,-0.0,0.0,0.0,2.833251663,0.0,0.0,0.9800000190734863,0.6399999856948853,-0.029999999329447746,0.00872802734375,0.01629638671875,0.9888916015625,35.939998626708984,0.0,-2.0,1.00115966796875,-0.3784637451171875,Closing,0.0,0.0,-237825.0,0.0,0.0,0.0,0.0,0.0,
17.832779000000098,0.0,0.0,-15801.0,0.0,0.0,0.0,0.0,0.125,3.760985943,0.0,0.0,15977.0,0.0,0.0,-0.0,0.0,0.0,1.9506833940000001,0.0,0.0,-15109.0,0.0,0.0,0.0,0.0,0.0,4.874267079,0.0,0.0,9921.0,0.0,0.0,-0.0,0.0,0.0,2.833251663,0.0,0.0,0.9800000190734863,0.6399999856948853,-0.029999999329447746,0.01837158203125,0.00946044921875,0.976318359375,35.959999084472656,0.0,7.0,1.00115966796875,-0.3784637451171875,Closing,0.0,0.0,-237825.0,0.0,0.0,0.0,0.0,0.0,
17.98895399999991,0.0,0.0,-15801.0,0.0,0.0,0.0,0.0,0.125,3.758544537,0.0,0.0,15977.0,0.0,0.0,-0.0,0.0,0.0,1.9506833940000001,0.0,0.0,-15109.0,0.0,0.0,0.0,0.0,0.0,4.8730463760000005,0.0,0.0,9921.0,0.0,0.0,-0.0,0.0,0.0,2.833251663,0.0,0.0,0.9700000286102295,0.6399999856948853,-0.029999999329447746,0.006591796875,0.00921630859375,0.99676513671875,35.959999084472656,0.0,-4.0,1.00115966796875,-0.3784637451171875,Closing,0.0,0.0,-237825.0,0.0,0.0,0.0,0.0,0.0,
18.14686400000006,0.0,0.0,-15801.0,0.0,0.0,0.0,0.0,0.125,3.760985943,0.0,0.0,15977.0,0.0,0.0,-0.0,0.0,0.0,1.9506833940000001,0.0,0.0,-15109.0,0.0,0.0,0.0,0.0,0.0,4.874267079,0.0,0.0,9921.0,0.0,0.0,-0.0,0.0,0.0,2.834472366,0.0,0.0,0.9599999785423279,0.6700000166893005,-0.05000000074505806,0.0107421875,0.020263671875,1.00164794921875,35.959999084472656,0.0,-1.0,1.00115966796875,-0.3784637451171875,Closing,0.0,0.0,-237825.0,0.0,0.0,0.0,0.0,0.0,
18.298498000000137,0.0,0.0,-15801.0,0.0,0.0,0.0,0.0,0.125,3.760985943,0.0,0.0,15977.0,0.0,0.0,-0.0,0.0,0.0,1.9506833940000001,0.0,0.0,-15109.0,0.0,0.0,0.0,0.0,0.0,4.871825673,0.0,0.0,9921.0,0.0,0.0,-0.0,0.0,0.0,2.834472366,0.0,0.0,0.949999988079071,0.6600000262260437,-0.029999999329447746,0.0203857421875,0.01190185546875,1.013427734375,35.959999084472656,0.0,8.0,1.00115966796875,-0.3784637451171875,Closing,0.0,0.0,-237825.0,0.0,0.0,0.0,0.0,0.0,
18.455438000000083,0.0,0.0,-15801.0,0.0,0.0,0.0,0.0,0.125,3.760985943,0.0,0.0,15977.0,0.0,0.0,-0.0,0.0,0.0,1.9494626910000001,0.0,0.0,-15109.0,0.0,0.0,0.0,0.0,0.0,4.871825673,0.0,0.0,9921.0,0.0,0.0,-0.0,0.0,0.0,2.833251663,0.0,0.0,0.9900000095367432,0.6200000047683716,-0.029999999329447746,0.004638671875,0.01947021484375,0.98577880859375,35.959999084472656,0.0,-6.0,1.00115966796875,-0.3784637451171875,Closing,0.0,0.0,-237825.0,0.0,0.0,0.0,0.0,0.0,
18.61443800000008,0.0,0.0,-15801.0,0.0,0.0,0.0,0.0,0.125,3.760985943,0.0,0.0,15977.0,0.0,0.0,-0.0,0.0,0.0,1.9494626910000001,0.0,0.0,-15109.0,0.0,0.0,0.0,0.0,0.0,4.8730463760000005,0.0,0.0,9921.0,0.0,0.0,-0.0,0.0,0.0,2.833251663,0.0,0.0,0.9300000071525574,0.6700000166893005,-0.029999999329447746,1.220703125E-4,0.01593017578125,1.00897216796875,35.959999084472656,0.0,-11.0,1.00115966796875,-0.3784637451171875,Closing,0.0,0.0,-237825.0,0.0,0.0,0.0,0.0,0.0,
18.77310499999998,0.0,0.0,-15801.0,0.0,0.0,0.0,0.0,0.125,3.75976524,0.0,0.0,15977.0,0.0,0.0,-0.0,0.0,0.0,1.9494626910000001,0.0,0.0,-15109.0,0.0,0.0,0.0,0.0,0.0,4.871825673,0.0,0.0,9921.0,0.0,0.0,-0.0,0.0,0.0,2.833251663,0.0,0.0,0.9900000095367432,0.6700000166893005,-0.029999999329447746,0.028076171875,0.02264404296875,0.99652099609375,35.959999084472656,0.0,16.0,1.00115966796875,-0.3784637451171875,Closing,0.0,0.0,-237825.0,0.0,0.0,0.0,0.0,0.0,
18.93392100000009,0.0,0.0,-15801.0,0.0,0.0,0.0,0.0,0.125,3.760985943,0.0,0.0,15977.0,0.0,0.0,-0.0,0.0,0.0,1.9506833940000001,0.0,0.0,-15109.0,0.0,0.0,0.0,0.0,0.0,4.8730463760000005,0.0,0.0,9921.0,0.0,0.0,-0.0,0.0,0.0,2.834472366,0.0,0.0,0.9599999785423279,0.6200000047683716,-0.009999999776482582,1.8310546875E-4,0.00872802734375,1.00347900390625,35.97999954223633,0.0,-10.0,1.00115966796875,-0.3784637451171875,Closing,0.0,0.0,-237825.0,0.0,0.0,0.0,0.0,0.0,
19.09442199999979,0.0,0.0,-15801.0,0.0,0.0,0.0,0.0,0.125,3.758544537,0.0,0.0,15977.0,0.0,0.0,-0.0,0.0,0.0,1.9506833940000001,0.0,0.0,-15109.0,0.0,0.0,0.0,0.0,0.0,4.8730463760000005,0.0,0.0,9921.0,0.0,0.0,-0.0,0.0,0.0,2.836913772,0.0,0.0,0.9599999785423279,0.6600000262260437,-0.019999999552965164,0.00579833984375,0.01446533203125,1.00787353515625,35.97999954223633,0.0,-5.0,1.00115966796875,-0.3784637451171875,Closing,0.0,0.0,-237825.0,0.0,0.0,0.0,0.0,0.0,
19.249890999999828,0.0,0.0,-15801.0,0.0,0.0,0.0,0.0,0.125,3.762206646,0.0,0.0,15977.0,0.0,0.0,-0.0,0.0,0.0,1.9506833940000001,0.0,0.0,-15109.0,0.0,0.0,0.0,0.0,0.0,4.8730463760000005,0.0,0.0,9921.0,0.0,0.0,-0.0,0.0,0.0,2.834472366,0.0,0.0,0.9700000286102295,0.6600000262260437,-0.019999999552965164,0.01934814453125,0.01959228515625,1.01068115234375,35.97999954223633,0.0,7.0,1.00115966796875,-0.3784637451171875,Closing,0.0,0.0,-237825.0,0.0,0.0,0.0,0.0,0.0,
19.408782000000123,0.0,0.0,-15801.0,0.0,0.0,0.0,0.0,0.125,3.762206646,0.0,0.0,15977.0,0.0,0.0,-0.0,0.0,0.0,1.9494626910000001,0.0,0.0,-15109.0,0.0,0.0,0.0,0.0,0.0,4.8730463760000005,0.0,0.0,9921.0,0.0,0.0,-0.0,0.0,0.0,2.834472366,0.0,0.0,0.9700000286102295,0.6499999761581421,-0.019999999552965164,0.00604248046875,0.01373291015625,1.00311279296875,36.0,0.0,-5.0,1.00115966796875,-0.3784637451171875,Closing,0.0,0.0,-237825.0,0.0,0.0,0.0,0.0,0.0,
19.566694000000133,0.0,0.0,-15801.0,0.0,0.0,0.0,0.0,0.125,3.760985943,0.0,0.0,15977.0,0.0,0.0,-0.0,0.0,0.0,1.9506833940000001,0.0,0.0,-15109.0,0.0,0.0,0.0,0.0,0.0,4.8730463760000005,0.0,0.0,9921.0,0.0,0.0,-0.0,0.0,0.0,2.833251663,0.0,0.0,0.9700000286102295,0.6499999761581421,-0.019999999552965164,0.0126953125,0.014892578125,0.98968505859375,36.0,0.0,1.0,1.00115966796875,-0.3784637451171875,Closing,0.0,0.0,-237825.0,0.0,0.0,0.0,0.0,0.0,
19.719126000000163,0.0,0.0,-15801.0,0.0,0.0,0.0,0.0,0.125,3.760985943,0.0,0.0,15977.0,0.0,0.0,-0.0,0.0,0.0,1.9506833940000001,0.0,0.0,-15109.0,0.0,0.0,0.0,0.0,0.0,4.8730463760000005,0.0,0.0,9921.0,0.0,0.0,-0.0,0.0,0.0,2.834472366,0.0,0.0,0.949999988079071,0.6399999856948853,0.0,0.01312255859375,0.02008056640625,1.0001220703125,36.0,0.0,1.0,1.00115966796875,-0.3784637451171875,Closing,0.0,0.0,-237825.0,0.0,0.0,0.0,0.0,0.0,
19.875259999999777,0.0,0.0,-15801.0,0.0,0.0,0.0,0.0,0.125,3.760985943,0.0,0.0,15977.0,0.0,0.0,-0.0,0.0,0.0,1.9506833940000001,0.0,0.0,-15109.0,0.0,0.0,0.0,0.0,0.0,4.871825673,0.0,0.0,9921.0,0.0,0.0,-0.0,0.0,0.0,2.833251663,0.0,0.0,0.9599999785423279,0.6399999856948853,0.0,0.01214599609375,0.007080078125,0.998046875,35.939998626708984,0.0,0.0,1.00115966796875,-0.3784637451171875,Closing,0.0,0.0,-237825.0,0.0,0.0,0.0,0.0,0.0,
20.031603000000118,0.0,0.0,-15801.0,0.0,0.0,0.0,0.0,0.125,3.760985943,0.0,0.0,15977.0,0.0,0.0,-0.0,0.0,0.0,1.9506833940000001,0.0,0.0,-15109.0,0.0,0.0,0.0,0.0,0.0,4.8730463760000005,0.0,0.0,9921.0,0.0,0.0,-0.0,0.0,0.0,2.833251663,0.0,0.0,0.9599999785423279,0.6600000262260437,0.009999999776482582,0.02911376953125,0.01983642578125,0.992919921875,35.939998626708984,0.0,17.0,1.00115966796875,-0.3784637451171875,Closing,0.0,0.0,-237825.0,0.0,0.0,0.0,0.0,0.0,
20.198626999999863,0.0,0.0,-15801.0,0.0,0.0,0.0,0.0,0.125,3.760985943,0.0,0.0,15977.0,0.0,0.0,-0.0,0.0,0.0,1.9506833940000001,0.0,0.0,-15109.0,0.0,0.0,0.0,0.0,0.0,4.871825673,0.0,0.0,9921.0,0.0,0.0,-0.0,0.0,0.0,2.833251663,0.0,0.0,0.949999988079071,0.6299999952316284,0.0,0.00860595703125,0.0159912109375,0.9969482421875,35.939998626708984,0.0,-2.0,1.00115966796875,-0.3784637451171875,Closing,0.0,0.0,-237825.0,0.0,0.0,0.0,0.0,0.0,
