Time,ClimberA1,ClimberA2,FRpos,FRCurrent,FRspeed,FRsetpoint,FRApos,FRACurrent,FREncpos,FREncSetpoint,FREncSpeed,FLpos,FLCurrent,FLspeed,FLsetpoint,FLApos,FLACurrent,FLEncpos,FLEncSetpoint,FLEncSpeed,BRpos,BRCurrent,BRspeed,BRsetpoint,BRApos,BRACurrent,BREncpos,BREncSetpoint,BREncSpeed,BLpos,BLCurrent,BLspeed,BLsetpoint,BLApos,BLACurrent,BLEncpos,BLEncSetpoint,BLEncSpeed,navx_Pitch,navx_Roll,navx_Yaw,navx_XAcc,navx_YAcc,navx_ZAcc,navx_Temp,navx_Bar,navx_Alt,navx_XDis,navx_YDis,GearPlacerState,ShootOutputV,ShootOutputCurrent,ShootEncPos,ShootEncVelocity,ShootSpeed,ShootSetpoint,CarouselSetpoint,CarouselCurrent,
0.17694500000000063,0.0,0.0,0.0,0.0,0.0,0.0,0.0,0.0,3.804931251,0.01,0.0,0.0,0.0,0.0,0.0,0.0,0.0,1.887206838,0.01,0.0,0.0,0.0,0.0,0.0,0.0,0.0,4.913329575000001,0.01,0.0,0.0,0.0,0.0,0.0,0.0,0.0,2.8430172870000003,0.01,0.0,1.159999966621399,1.3700000047683716,-0.019999999552965164,0.02447509765625,0.0223388671875,1.006591796875,30.6299991607666,0.0,0.0,0.0,0.0,Waiting,0.0,0.0,0.0,0.0,0.0,0.0,0.0,0.0,
0.22786500000000068,0.0,0.0,0.0,0.0,0.0,0.0,0.0,0.0,3.803710548,0.0,0.023710548000000387,0.0,0.0,0.0,-0.0,0.0,0.0,1.887206838,0.0,-0.033793162000000265,0.0,0.0,0.0,0.0,0.0,0.0,4.912108872,0.0,0.022108872000000446,0.0,0.0,0.0,-0.0,0.0,0.0,2.8430172870000003,0.0,4.920517287,1.159999966621399,1.3700000047683716,-0.019999999552965164,0.024169921875,0.02020263671875,1.00469970703125,30.6299991607666,0.0,0.0,0.0,0.0,Closing,0.0,0.0,0.0,0.0,0.0,0.0,0.0,0.0,
0.25151000000000023,0.0,0.0,0.0,0.0,0.0,0.0,0.0,0.125,3.802489845,0.0,0.023710548000000387,0.0,0.0,0.0,-0.0,0.0,0.0,1.8884275410000002,0.0,-0.033793162000000265,0.0,0.0,0.0,0.0,0.0,0.0,4.912108872,0.0,0.022108872000000446,0.0,0.0,0.0,-0.0,0.0,0.0,2.8442379900000003,0.0,4.920517287,1.159999966621399,1.3700000047683716,-0.019999999552965164,0.02532958984375,0.01947021484375,1.00372314453125,30.6299991607666,0.0,1.0,0.0,0.0,Closing,0.0,0.0,0.0,0.0,0.0,0.0,0.0,0.0,
0.2838020000000006,0.0,0.0,0.0,0.0,0.0,0.0,0.0,0.125,3.803710548,0.0,0.0,0.0,0.0,0.0,-0.0,0.0,0.0,1.887206838,0.0,0.0,0.0,0.0,0.0,0.0,0.0,0.0,4.913329575000001,0.0,0.0,0.0,0.0,0.0,-0.0,0.0,0.0,2.8442379900000003,0.0,0.0,1.159999966621399,1.3600000143051147,-0.019999999552965164,0.02490234375,0.0223388671875,1.0042724609375,30.6299991607666,0.0,0.0,0.0,0.0,Closing,0.0,0.0,0.0,0.0,0.0,0.0,0.0,0.0,
0.3057490000000007,0.0,0.0,0.0,0.0,0.0,0.0,0.0,0.125,3.804931251,0.0,0.0,0.0,0.0,0.0,-0.0,0.0,0.0,1.887206838,0.0,0.0,0.0,0.0,0.0,0.0,0.0,0.0,4.912108872,0.0,0.0,0.0,0.0,0.0,-0.0,0.0,0.0,2.8442379900000003,0.0,0.0,1.159999966621399,1.3600000143051147,-0.019999999552965164,0.02581787109375,0.01849365234375,1.00103759765625,30.6299991607666,0.0,1.0,0.0,0.0,Closing,0.0,0.0,0.0,0.0,0.0,0.0,0.0,0.0,
0.33035300000000006,0.0,0.0,0.0,0.0,0.0,0.0,0.0,0.125,3.802489845,0.0,-0.0012207029999999897,0.0,0.0,0.0,-0.0,0.0,0.0,1.887206838,0.0,0.0,0.0,0.0,0.0,0.0,0.0,0.0,4.912108872,0.0,0.0,0.0,0.0,0.0,-0.0,0.0,0.0,2.8442379900000003,0.0,0.0,1.159999966621399,1.3700000047683716,-0.019999999552965164,0.0233154296875,0.02117919921875,1.00811767578125,30.649999618530273,0.0,0.0,0.0,0.0,Closing,0.0,0.0,0.0,0.0,0.0,0.0,0.0,0.0,
0.353933,0.0,0.0,0.0,0.0,0.0,0.0,0.0,0.125,3.803710548,0.0,-0.0012207029999999897,0.0,0.0,0.0,-0.0,0.0,0.0,1.887206838,0.0,0.0,0.0,0.0,0.0,0.0,0.0,0.0,4.913329575000001,0.0,0.0,0.0,0.0,0.0,-0.0,0.0,0.0,2.8430172870000003,0.0,0.0,1.159999966621399,1.3700000047683716,-0.019999999552965164,0.02532958984375,0.0186767578125,1.0037841796875,30.649999618530273,0.0,1.0,0.0,0.0,Closing,0.0,0.0,0.0,0.0,0.0,0.0,0.0,0.0,
0.40785600000000066,0.0,0.0,0.0,0.0,0.0,0.0,0.0,0.125,3.804931251,0.0,0.0012207029999999897,0.0,0.0,0.0,-0.0,0.0,0.0,1.887206838,0.0,0.0,0.0,0.0,0.0,0.0,0.0,0.0,4.913329575000001,0.0,0.0,0.0,0.0,0.0,-0.0,0.0,0.0,2.8442379900000003,0.0,0.0,1.159999966621399,1.3700000047683716,-0.019999999552965164,0.0203857421875,0.0235595703125,1.00567626953125,30.649999618530273,0.0,-3.0,0.0,0.0,Closing,0.0,0.0,0.0,0.0,0.0,0.0,0.0,0.0,
0.43428800000000045,0.0,0.0,0.0,0.0,0.0,0.0,0.0,0.125,3.803710548,0.0,0.0,0.0,0.0,0.0,-0.0,0.0,0.0,1.887206838,0.0,0.0,0.0,0.0,0.0,0.0,0.0,0.0,4.912108872,0.0,0.0,0.0,0.0,0.0,-0.0,0.0,0.0,2.8442379900000003,0.0,0.0,1.159999966621399,1.3700000047683716,-0.019999999552965164,0.024658203125,0.0224609375,1.00836181640625,30.649999618530273,0.0,0.0,0.0,0.0,Closing,0.0,0.0,0.0,0.0,0.0,0.0,0.0,0.0,
0.45515900000000054,0.0,0.0,0.0,0.0,0.0,0.0,0.0,0.125,3.803710548,0.0,0.0,0.0,0.0,0.0,-0.0,0.0,0.0,1.887206838,0.0,0.0,0.0,0.0,0.0,0.0,0.0,0.0,4.912108872,0.0,0.0,0.0,0.0,0.0,-0.0,0.0,0.0,2.8442379900000003,0.0,0.0,1.159999966621399,1.3600000143051147,-0.019999999552965164,0.02471923828125,0.02239990234375,0.99835205078125,30.649999618530273,0.0,0.0,0.0,0.0,Closing,0.0,0.0,0.0,0.0,0.0,0.0,0.0,0.0,
0.48468400000000017,0.0,0.0,0.0,0.0,0.0,0.0,0.0,0.125,3.803710548,0.0,0.0,0.0,0.0,0.0,-0.0,0.0,0.0,1.887206838,0.0,0.0,0.0,0.0,0.0,0.0,0.0,0.0,4.913329575000001,0.0,0.0,0.0,0.0,0.0,-0.0,0.0,0.0,2.8430172870000003,0.0,0.0,1.159999966621399,1.3600000143051147,-0.019999999552965164,0.02520751953125,0.02337646484375,1.0068359375,30.649999618530273,0.0,1.0,0.0,0.0,Closing,0.0,0.0,0.0,0.0,0.0,0.0,0.0,0.0,
0.5073600000000006,0.0,0.0,0.0,0.0,0.0,0.0,0.0,0.125,3.804931251,0.0,0.0,0.0,0.0,0.0,-0.0,0.0,0.0,1.887206838,0.0,0.0,0.0,0.0,0.0,0.0,0.0,0.0,4.913329575000001,0.0,0.0,0.0,0.0,0.0,-0.0,0.0,0.0,2.8430172870000003,0.0,0.0,1.159999966621399,1.3700000047683716,-0.019999999552965164,0.0252685546875,0.020751953125,1.005126953125,30.649999618530273,0.0,1.0,0.0,0.0,Closing,0.0,0.0,0.0,0.0,0.0,0.0,0.0,0.0,
0.5300039999999999,0.0,0.0,0.0,0.0,0.0,0.0,0.0,0.125,3.803710548,0.0,0.0,0.0,0.0,0.0,-0.0,0.0,0.0,1.887206838,0.0,0.0,0.0,0.0,0.0,0.0,0.0,0.0,4.910888169000001,0.0,0.0,0.0,0.0,0.0,-0.0,0.0,0.0,2.8442379900000003,0.0,0.0,1.159999966621399,1.3600000143051147,-0.019999999552965164,0.0235595703125,0.021728515625,1.00018310546875,30.649999618530273,0.0,0.0,0.0,0.0,Closing,0.0,0.0,0.0,0.0,0.0,0.0,0.0,0.0,
0.551594,0.0,0.0,0.0,0.0,0.0,0.0,0.0,0.125,3.803710548,0.0,0.0,0.0,0.0,0.0,-0.0,0.0,0.0,1.887206838,0.0,0.0,0.0,0.0,0.0,0.0,0.0,0.0,4.914550278,0.0,0.0,0.0,0.0,0.0,-0.0,0.0,0.0,2.8442379900000003,0.0,0.0,1.159999966621399,1.3600000143051147,-0.019999999552965164,0.02301025390625,0.01806640625,0.99896240234375,30.649999618530273,0.0,0.0,0.0,0.0,Closing,0.0,0.0,0.0,0.0,0.0,0.0,0.0,0.0,
0.5812740000000003,0.0,0.0,0.0,0.0,0.0,0.0,0.0,0.125,3.803710548,0.0,0.0,0.0,0.0,0.0,-0.0,0.0,0.0,1.887206838,0.0,0.0,0.0,0.0,0.0,0.0,0.0,0.0,4.913329575000001,0.0,0.0,0.0,0.0,0.0,-0.0,0.0,0.0,2.8442379900000003,0.0,0.0,1.159999966621399,1.3600000143051147,-0.019999999552965164,0.02301025390625,0.01806640625,0.99896240234375,30.649999618530273,0.0,0.0,0.0,0.0,Closing,0.0,0.0,0.0,0.0,0.0,0.0,0.0,0.0,
0.6093510000000005,0.0,0.0,0.0,0.0,0.0,0.0,0.0,0.125,3.803710548,0.0,0.0,0.0,0.0,0.0,-0.0,0.0,0.0,1.887206838,0.0,0.0,0.0,0.0,0.0,0.0,0.0,0.0,4.910888169000001,0.0,0.0,0.0,0.0,0.0,-0.0,0.0,0.0,2.8442379900000003,0.0,0.0,1.159999966621399,1.3600000143051147,-0.019999999552965164,0.02520751953125,0.0191650390625,1.00445556640625,30.649999618530273,0.0,1.0,0.0,0.0,Closing,0.0,0.0,0.0,0.0,0.0,0.0,0.0,0.0,
0.6337759999999999,0.0,0.0,0.0,0.0,0.0,0.0,0.0,0.125,3.802489845,0.0,0.0,0.0,0.0,0.0,-0.0,0.0,0.0,1.887206838,0.0,0.0,0.0,0.0,0.0,0.0,0.0,0.0,4.913329575000001,0.0,0.0,0.0,0.0,0.0,-0.0,0.0,0.0,2.8442379900000003,0.0,0.0,1.159999966621399,1.3600000143051147,-0.019999999552965164,0.0233154296875,0.01776123046875,1.00079345703125,30.649999618530273,0.0,0.0,0.0,0.0,Closing,0.0,0.0,0.0,0.0,0.0,0.0,0.0,0.0,
0.6558879999999999,0.0,0.0,0.0,0.0,0.0,0.0,0.0,0.125,3.802489845,0.0,0.0,0.0,0.0,0.0,-0.0,0.0,0.0,1.887206838,0.0,0.0,0.0,0.0,0.0,0.0,0.0,0.0,4.912108872,0.0,0.0,0.0,0.0,0.0,-0.0,0.0,0.0,2.8442379900000003,0.0,0.0,1.159999966621399,1.3600000143051147,-0.019999999552965164,0.02587890625,0.02093505859375,1.00836181640625,30.649999618530273,0.0,1.0,0.0,0.0,Closing,0.0,0.0,0.0,0.0,0.0,0.0,0.0,0.0,
0.691522,0.0,0.0,0.0,0.0,0.0,0.0,0.0,0.125,3.804931251,0.0,0.0,0.0,0.0,0.0,-0.0,0.0,0.0,1.887206838,0.0,0.0,0.0,0.0,0.0,0.0,0.0,0.0,4.913329575000001,0.0,0.0,0.0,0.0,0.0,-0.0,0.0,0.0,2.8430172870000003,0.0,0.0,1.159999966621399,1.3600000143051147,-0.019999999552965164,0.02655029296875,0.0196533203125,1.0076904296875,30.649999618530273,0.0,2.0,0.0,0.0,Closing,0.0,0.0,0.0,0.0,0.0,0.0,0.0,0.0,
0.7147669999999998,0.0,0.0,0.0,0.0,0.0,0.0,0.0,0.125,3.803710548,0.0,0.0,0.0,0.0,0.0,-0.0,0.0,0.0,1.8884275410000002,0.0,0.0,0.0,0.0,0.0,0.0,0.0,0.0,4.912108872,0.0,0.0,0.0,0.0,0.0,-0.0,0.0,0.0,2.8430172870000003,0.0,0.0,1.159999966621399,1.3600000143051147,-0.019999999552965164,0.0247802734375,0.02105712890625,1.00543212890625,30.649999618530273,0.0,0.0,0.0,0.0,Closing,0.0,0.0,0.0,0.0,0.0,0.0,0.0,0.0,
0.7659880000000003,0.0,0.0,0.0,0.0,0.0,0.0,0.0,0.125,3.804931251,0.0,0.0,0.0,0.0,0.0,-0.0,0.0,0.0,1.887206838,0.0,0.0,0.0,0.0,0.0,0.0,0.0,0.0,4.910888169000001,0.0,0.0,0.0,0.0,0.0,-0.0,0.0,0.0,2.8442379900000003,0.0,0.0,1.159999966621399,1.3600000143051147,-0.019999999552965164,0.02691650390625,0.018310546875,1.003662109375,30.649999618530273,0.0,2.0,0.0,0.0,Closing,0.0,0.0,0.0,0.0,0.0,0.0,0.0,0.0,
0.7902960000000003,0.0,0.0,0.0,0.0,0.0,0.0,0.0,0.125,3.803710548,0.0,0.0,0.0,0.0,0.0,-0.0,0.0,0.0,1.887206838,0.0,0.0,0.0,0.0,0.0,0.0,0.0,0.0,4.913329575000001,0.0,0.0,0.0,0.0,0.0,-0.0,0.0,0.0,2.8430172870000003,0.0,0.0,1.159999966621399,1.3600000143051147,-0.019999999552965164,0.0257568359375,0.019775390625,1.0054931640625,30.649999618530273,0.0,1.0,0.0,0.0,Closing,0.0,0.0,0.0,0.0,0.0,0.0,0.0,0.0,
0.809683,0.0,0.0,0.0,0.0,0.0,0.0,0.0,0.125,3.803710548,0.0,0.0,0.0,0.0,0.0,-0.0,0.0,0.0,1.887206838,0.0,0.0,0.0,0.0,0.0,0.0,0.0,0.0,4.913329575000001,0.0,0.0,0.0,0.0,0.0,-0.0,0.0,0.0,2.8430172870000003,0.0,0.0,1.159999966621399,1.3600000143051147,-0.029999999329447746,0.02349853515625,0.0233154296875,1.00177001953125,30.649999618530273,0.0,0.0,0.0,0.0,Closing,0.0,0.0,0.0,0.0,0.0,0.0,0.0,0.0,
0.8313789999999999,0.0,0.0,0.0,0.0,0.0,0.0,0.0,0.125,3.803710548,0.0,0.0,0.0,0.0,0.0,-0.0,0.0,0.0,1.887206838,0.0,0.0,0.0,0.0,0.0,0.0,0.0,0.0,4.910888169000001,0.0,0.0,0.0,0.0,0.0,-0.0,0.0,0.0,2.8430172870000003,0.0,0.0,1.159999966621399,1.3600000143051147,-0.029999999329447746,0.02484130859375,0.0206298828125,1.00335693359375,30.649999618530273,0.0,0.0,0.0,0.0,Closing,0.0,0.0,0.0,0.0,0.0,0.0,0.0,0.0,
0.8612359999999999,0.0,0.0,0.0,0.0,0.0,0.0,0.0,0.125,3.803710548,0.0,0.0,0.0,0.0,0.0,-0.0,0.0,0.0,1.887206838,0.0,0.0,0.0,0.0,0.0,0.0,0.0,0.0,4.913329575000001,0.0,0.0,0.0,0.0,0.0,-0.0,0.0,0.0,2.8442379900000003,0.0,0.0,1.159999966621399,1.3600000143051147,-0.029999999329447746,0.023681640625,0.02362060546875,0.9991455078125,30.649999618530273,0.0,0.0,0.0,0.0,Closing,0.0,0.0,0.0,0.0,0.0,0.0,0.0,0.0,
0.8895360000000001,0.0,0.0,0.0,0.0,0.0,0.0,0.0,0.125,3.803710548,0.0,0.0,0.0,0.0,0.0,-0.0,0.0,0.0,1.887206838,0.0,0.0,0.0,0.0,0.0,0.0,0.0,0.0,4.910888169000001,0.0,0.0,0.0,0.0,0.0,-0.0,0.0,0.0,2.8430172870000003,0.0,0.0,1.1699999570846558,1.3700000047683716,-0.029999999329447746,0.02532958984375,0.02117919921875,1.010009765625,30.649999618530273,0.0,1.0,0.0,0.0,Closing,0.0,0.0,0.0,0.0,0.0,0.0,0.0,0.0,
0.9247930000000005,0.0,0.0,0.0,0.0,0.0,0.0,0.0,0.125,3.804931251,0.0,0.0,0.0,0.0,0.0,-0.0,0.0,0.0,1.887206838,0.0,0.0,0.0,0.0,0.0,0.0,0.0,0.0,4.912108872,0.0,0.0,0.0,0.0,0.0,-0.0,0.0,0.0,2.8430172870000003,0.0,0.0,1.1699999570846558,1.3700000047683716,-0.029999999329447746,0.02325439453125,0.02423095703125,1.00067138671875,30.649999618530273,0.0,0.0,0.0,0.0,Closing,0.0,0.0,0.0,0.0,0.0,0.0,0.0,0.0,
0.9466570000000002,0.0,0.0,0.0,0.0,0.0,0.0,0.0,0.125,3.803710548,0.0,0.0,0.0,0.0,0.0,-0.0,0.0,0.0,1.887206838,0.0,0.0,0.0,0.0,0.0,0.0,0.0,0.0,4.913329575000001,0.0,0.0,0.0,0.0,0.0,-0.0,0.0,0.0,2.8454586930000003,0.0,0.0,1.1699999570846558,1.3600000143051147,-0.029999999329447746,0.0263671875,0.02008056640625,1.00384521484375,30.649999618530273,0.0,2.0,0.0,0.0,Closing,0.0,0.0,0.0,0.0,0.0,0.0,0.0,0.0,
0.9660280000000002,0.0,0.0,0.0,0.0,0.0,0.0,0.0,0.125,3.803710548,0.0,0.0,0.0,0.0,0.0,-0.0,0.0,0.0,1.887206838,0.0,0.0,0.0,0.0,0.0,0.0,0.0,0.0,4.912108872,0.0,0.0,0.0,0.0,0.0,-0.0,0.0,0.0,2.8442379900000003,0.0,0.0,1.1699999570846558,1.3700000047683716,-0.029999999329447746,0.02618408203125,0.02239990234375,1.0052490234375,30.649999618530273,0.0,2.0,0.0,0.0,Closing,0.0,0.0,0.0,0.0,0.0,0.0,0.0,0.0,
0.9872970000000005,0.0,0.0,0.0,0.0,0.0,0.0,0.0,0.125,3.804931251,0.0,0.0,0.0,0.0,0.0,-0.0,0.0,0.0,1.887206838,0.0,0.0,0.0,0.0,0.0,0.0,0.0,0.0,4.913329575000001,0.0,0.0,0.0,0.0,0.0,-0.0,0.0,0.0,2.8430172870000003,0.0,0.0,1.1699999570846558,1.3700000047683716,-0.03999999910593033,0.02276611328125,0.021484375,1.00537109375,30.649999618530273,0.0,-1.0,0.0,0.0,Closing,0.0,0.0,0.0,0.0,0.0,0.0,0.0,0.0,
1.005339,0.0,0.0,0.0,0.0,0.0,0.0,0.0,0.125,3.803710548,0.0,0.0,0.0,0.0,0.0,-0.0,0.0,0.0,1.887206838,0.0,0.0,0.0,0.0,0.0,0.0,0.0,0.0,4.913329575000001,0.0,0.0,0.0,0.0,0.0,-0.0,0.0,0.0,2.8430172870000003,0.0,0.0,1.1699999570846558,1.3700000047683716,-0.03999999910593033,0.0247802734375,0.0189208984375,1.001220703125,30.649999618530273,0.0,0.0,0.0,0.0,Closing,0.0,0.0,0.0,0.0,0.0,0.0,0.0,0.0,
1.0261689999999999,0.0,0.0,0.0,0.0,0.0,0.0,0.0,0.125,3.803710548,0.0,0.0,0.0,0.0,0.0,-0.0,0.0,0.0,1.887206838,0.0,0.0,0.0,0.0,0.0,0.0,0.0,0.0,4.913329575000001,0.0,0.0,0.0,0.0,0.0,-0.0,0.0,0.0,2.8442379900000003,0.0,0.0,1.1699999570846558,1.3700000047683716,-0.03999999910593033,0.0250244140625,0.0194091796875,1.0045166015625,30.649999618530273,0.0,0.0,0.0,0.0,Closing,0.0,0.0,0.0,0.0,0.0,0.0,0.0,0.0,
1.0448590000000004,0.0,0.0,0.0,0.0,0.0,0.0,0.0,0.125,3.804931251,0.0,0.0,0.0,0.0,0.0,-0.0,0.0,0.0,1.887206838,0.0,0.0,0.0,0.0,0.0,0.0,0.0,0.0,4.912108872,0.0,0.0,0.0,0.0,0.0,-0.0,0.0,0.0,2.8442379900000003,0.0,0.0,1.1699999570846558,1.3700000047683716,-0.03999999910593033,0.020751953125,0.02117919921875,0.99810791015625,30.649999618530273,0.0,-3.0,0.0,0.0,Closing,0.0,0.0,0.0,0.0,0.0,0.0,0.0,0.0,
1.0638510000000005,0.0,0.0,0.0,0.0,0.0,0.0,0.0,0.125,3.804931251,0.0,0.0,0.0,0.0,0.0,-0.0,0.0,0.0,1.8884275410000002,0.0,0.0,0.0,0.0,0.0,0.0,0.0,0.0,4.913329575000001,0.0,0.0,0.0,0.0,0.0,-0.0,0.0,0.0,2.8442379900000003,0.0,0.0,1.1699999570846558,1.3600000143051147,-0.03999999910593033,0.02227783203125,0.02398681640625,1.005615234375,30.649999618530273,0.0,-1.0,0.0,0.0,Closing,0.0,0.0,0.0,0.0,0.0,0.0,0.0,0.0,
1.086848,0.0,0.0,0.0,0.0,0.0,0.0,0.0,0.125,3.804931251,0.0,0.0,0.0,0.0,0.0,-0.0,0.0,0.0,1.887206838,0.0,0.0,0.0,0.0,0.0,0.0,0.0,0.0,4.913329575000001,0.0,0.0,0.0,0.0,0.0,-0.0,0.0,0.0,2.8442379900000003,0.0,0.0,1.1699999570846558,1.3600000143051147,-0.03999999910593033,0.03460693359375,0.0169677734375,0.99810791015625,30.649999618530273,0.0,10.0,0.0,0.0,Closing,0.0,0.0,0.0,0.0,0.0,0.0,0.0,0.0,
1.1059000000000005,0.0,0.0,0.0,0.0,0.0,0.0,0.0,0.125,3.803710548,0.0,0.0,0.0,0.0,0.0,-0.0,0.0,0.0,1.887206838,0.0,0.0,0.0,0.0,0.0,0.0,0.0,0.0,4.913329575000001,0.0,0.0,0.0,0.0,0.0,-0.0,0.0,0.0,2.8442379900000003,0.0,0.0,1.1699999570846558,1.3700000047683716,-0.03999999910593033,0.0177001953125,0.01983642578125,1.0052490234375,30.649999618530273,0.0,-6.0,0.0,0.0,Closing,0.0,0.0,0.0,0.0,0.0,0.0,0.0,0.0,
1.1269000000000005,0.0,0.0,0.0,0.0,0.0,0.0,0.0,0.125,3.804931251,0.0,0.0,0.0,0.0,0.0,-0.0,0.0,0.0,1.887206838,0.0,0.0,0.0,0.0,0.0,0.0,0.0,0.0,4.913329575000001,0.0,0.0,0.0,0.0,0.0,-0.0,0.0,0.0,2.8430172870000003,0.0,0.0,1.159999966621399,1.3700000047683716,-0.03999999910593033,0.01702880859375,0.025146484375,0.975341796875,30.649999618530273,0.0,-6.0,0.0,0.0,Closing,0.0,0.0,0.0,0.0,0.0,0.0,0.0,0.0,
1.146518,0.0,0.0,0.0,0.0,0.0,0.0,0.0,0.125,3.803710548,0.0,0.0,0.0,0.0,0.0,-0.0,0.0,0.0,1.887206838,0.0,0.0,0.0,0.0,0.0,0.0,0.0,0.0,4.912108872,0.0,0.0,0.0,0.0,0.0,-0.0,0.0,0.0,2.8430172870000003,0.0,0.0,1.1699999570846558,1.3600000143051147,-0.03999999910593033,0.018310546875,0.0186767578125,0.99005126953125,30.649999618530273,0.0,-5.0,0.0,0.0,Closing,0.0,0.0,0.0,0.0,0.0,0.0,0.0,0.0,
1.1648810000000003,0.0,0.0,0.0,0.0,0.0,0.0,0.0,0.125,3.803710548,0.0,0.0,0.0,0.0,0.0,-0.0,0.0,0.0,1.887206838,0.0,0.0,0.0,0.0,0.0,0.0,0.0,0.0,4.910888169000001,0.0,0.0,0.0,0.0,0.0,-0.0,0.0,0.0,2.8430172870000003,0.0,0.0,1.1699999570846558,1.350000023841858,-0.03999999910593033,0.030517578125,0.0177001953125,1.0235595703125,30.649999618530273,0.0,6.0,0.0,0.0,Closing,0.0,0.0,0.0,0.0,0.0,0.0,0.0,0.0,
1.1888990000000004,0.0,0.0,0.0,0.0,0.0,0.0,0.0,0.125,3.804931251,0.0,0.0,0.0,0.0,0.0,-0.0,0.0,0.0,1.887206838,0.0,0.0,0.0,0.0,0.0,0.0,0.0,0.0,4.912108872,0.0,0.0,0.0,0.0,0.0,-0.0,0.0,0.0,2.8442379900000003,0.0,0.0,1.159999966621399,1.3600000143051147,-0.03999999910593033,0.03131103515625,0.01959228515625,0.98199462890625,30.649999618530273,0.0,7.0,0.0,0.0,Closing,0.0,0.0,0.0,0.0,0.0,0.0,0.0,0.0,
1.2136490000000004,0.0,0.0,0.0,0.0,0.0,0.0,0.0,0.125,3.804931251,0.0,0.0,0.0,0.0,0.0,-0.0,0.0,0.0,1.887206838,0.0,0.0,0.0,0.0,0.0,0.0,0.0,0.0,4.912108872,0.0,0.0,0.0,0.0,0.0,-0.0,0.0,0.0,2.8442379900000003,0.0,0.0,1.1699999570846558,1.3600000143051147,-0.03999999910593033,0.0234375,0.01678466796875,1.02484130859375,30.649999618530273,0.0,0.0,0.0,0.0,Closing,0.0,0.0,0.0,0.0,0.0,0.0,0.0,0.0,
1.2367190000000001,0.0,0.0,0.0,0.0,0.0,0.0,0.0,0.125,3.804931251,0.0,0.0,0.0,0.0,0.0,-0.0,0.0,0.0,1.885986135,0.0,0.0,0.0,0.0,0.0,0.0,0.0,0.0,4.912108872,0.0,0.0,0.0,0.0,0.0,-0.0,0.0,0.0,2.8442379900000003,0.0,0.0,1.159999966621399,1.3600000143051147,-0.029999999329447746,0.02117919921875,0.0113525390625,1.00006103515625,30.649999618530273,0.0,-2.0,0.0,0.0,Closing,0.0,0.0,0.0,0.0,0.0,0.0,0.0,0.0,
1.2547460000000001,0.0,0.0,0.0,0.0,0.0,0.0,0.0,0.125,3.804931251,0.0,0.0,0.0,0.0,0.0,-0.0,0.0,0.0,1.8884275410000002,0.0,0.0,0.0,0.0,0.0,0.0,0.0,0.0,4.912108872,0.0,0.0,0.0,0.0,0.0,-0.0,0.0,0.0,2.8442379900000003,0.0,0.0,1.159999966621399,1.3600000143051147,-0.029999999329447746,0.0194091796875,0.0235595703125,0.995361328125,30.649999618530273,0.0,-4.0,0.0,0.0,Closing,0.0,0.0,0.0,0.0,0.0,0.0,0.0,0.0,
1.280093,0.0,0.0,0.0,0.0,0.0,0.0,0.0,0.125,3.803710548,0.0,0.0,0.0,0.0,0.0,-0.0,0.0,0.0,1.887206838,0.0,0.0,0.0,0.0,0.0,0.0,0.0,0.0,4.910888169000001,0.0,0.0,0.0,0.0,0.0,-0.0,0.0,0.0,2.8442379900000003,0.0,0.0,1.159999966621399,1.3600000143051147,-0.029999999329447746,0.0224609375,0.024658203125,0.99993896484375,30.649999618530273,0.0,-1.0,0.0,0.0,Closing,0.0,0.0,0.0,0.0,0.0,0.0,0.0,0.0,
1.2983190000000004,0.0,0.0,0.0,0.0,0.0,0.0,0.0,0.125,3.803710548,0.0,0.0,0.0,0.0,0.0,-0.0,0.0,0.0,1.8884275410000002,0.0,0.0,0.0,0.0,0.0,0.0,0.0,0.0,4.913329575000001,0.0,0.0,0.0,0.0,0.0,-0.0,0.0,0.0,2.8430172870000003,0.0,0.0,1.1699999570846558,1.350000023841858,-0.03999999910593033,0.0281982421875,0.0277099609375,1.01629638671875,30.649999618530273,0.0,4.0,0.0,0.0,Closing,0.0,0.0,0.0,0.0,0.0,0.0,0.0,0.0,
1.3145,0.0,0.0,0.0,0.0,0.0,0.0,0.0,0.125,3.803710548,0.0,0.0,0.0,0.0,0.0,-0.0,0.0,0.0,1.887206838,0.0,0.0,0.0,0.0,0.0,0.0,0.0,0.0,4.912108872,0.0,0.0,0.0,0.0,0.0,-0.0,0.0,0.0,2.8442379900000003,0.0,0.0,1.1699999570846558,1.3600000143051147,-0.03999999910593033,0.02484130859375,0.02581787109375,1.00128173828125,30.649999618530273,0.0,1.0,0.0,0.0,Closing,0.0,0.0,0.0,0.0,0.0,0.0,0.0,0.0,
1.3355200000000005,0.0,0.0,0.0,0.0,0.0,0.0,0.0,0.125,3.804931251,0.0,0.0,0.0,0.0,0.0,-0.0,0.0,0.0,1.887206838,0.0,0.0,0.0,0.0,0.0,0.0,0.0,0.0,4.913329575000001,0.0,0.0,0.0,0.0,0.0,-0.0,0.0,0.0,2.8442379900000003,0.0,0.0,1.1699999570846558,1.3700000047683716,-0.03999999910593033,0.02178955078125,0.02587890625,0.99041748046875,30.649999618530273,0.0,-1.0,0.0,0.0,Closing,0.0,0.0,0.0,0.0,0.0,0.0,0.0,0.0,
1.3553580000000003,0.0,0.0,0.0,0.0,0.0,0.0,0.0,0.125,3.803710548,0.0,0.0,0.0,0.0,0.0,-0.0,0.0,0.0,1.8884275410000002,0.0,0.0,0.0,0.0,0.0,0.0,0.0,0.0,4.912108872,0.0,0.0,0.0,0.0,0.0,-0.0,0.0,0.0,2.8442379900000003,0.0,0.0,1.1799999475479126,1.350000023841858,-0.03999999910593033,0.02337646484375,0.02093505859375,1.02130126953125,30.65999984741211,0.0,0.0,0.0,0.0,Closing,0.0,0.0,0.0,0.0,0.0,0.0,0.0,0.0,
1.3923630000000002,0.0,0.0,0.0,0.0,0.0,0.0,0.0,0.125,3.803710548,0.0,0.0,0.0,0.0,0.0,-0.0,0.0,0.0,1.887206838,0.0,0.0,0.0,0.0,0.0,0.0,0.0,0.0,4.913329575000001,0.0,0.0,0.0,0.0,0.0,-0.0,0.0,0.0,2.8442379900000003,0.0,0.0,1.159999966621399,1.3600000143051147,-0.03999999910593033,0.02490234375,0.0145263671875,0.99578857421875,30.65999984741211,0.0,1.0,0.0,0.0,Closing,0.0,0.0,0.0,0.0,0.0,0.0,0.0,0.0,
1.410759,0.0,0.0,0.0,0.0,0.0,0.0,0.0,0.125,3.803710548,0.0,0.0,0.0,0.0,0.0,-0.0,0.0,0.0,1.887206838,0.0,0.0,0.0,0.0,0.0,0.0,0.0,0.0,4.913329575000001,0.0,0.0,0.0,0.0,0.0,-0.0,0.0,0.0,2.8430172870000003,0.0,0.0,1.159999966621399,1.3600000143051147,-0.03999999910593033,0.02105712890625,0.01129150390625,1.00946044921875,30.65999984741211,0.0,-2.0,0.0,0.0,Closing,0.0,0.0,0.0,0.0,0.0,0.0,0.0,0.0,
1.4322130000000006,0.0,0.0,0.0,0.0,0.0,0.0,0.0,0.125,3.804931251,0.0,0.0,0.0,0.0,0.0,-0.0,0.0,0.0,1.887206838,0.0,0.0,0.0,0.0,0.0,0.0,0.0,0.0,4.912108872,0.0,0.0,0.0,0.0,0.0,-0.0,0.0,0.0,2.8442379900000003,0.0,0.0,1.159999966621399,1.3600000143051147,-0.03999999910593033,0.0311279296875,0.01324462890625,0.99591064453125,30.65999984741211,0.0,7.0,0.0,0.0,Closing,0.0,0.0,0.0,0.0,0.0,0.0,0.0,0.0,
1.451223,0.0,0.0,0.0,0.0,0.0,0.0,0.0,0.125,3.802489845,0.0,0.0,0.0,0.0,0.0,-0.0,0.0,0.0,1.887206838,0.0,0.0,0.0,0.0,0.0,0.0,0.0,0.0,4.912108872,0.0,0.0,0.0,0.0,0.0,-0.0,0.0,0.0,2.8430172870000003,0.0,0.0,1.159999966621399,1.3600000143051147,-0.03999999910593033,0.02838134765625,0.0206298828125,1.0074462890625,30.65999984741211,0.0,4.0,0.0,0.0,Closing,0.0,0.0,0.0,0.0,0.0,0.0,0.0,0.0,
1.4689400000000006,0.0,0.0,0.0,0.0,0.0,0.0,0.0,0.125,3.803710548,0.0,0.0,0.0,0.0,0.0,-0.0,0.0,0.0,1.887206838,0.0,0.0,0.0,0.0,0.0,0.0,0.0,0.0,4.912108872,0.0,0.0,0.0,0.0,0.0,-0.0,0.0,0.0,2.8442379900000003,0.0,0.0,1.159999966621399,1.3600000143051147,-0.03999999910593033,0.02313232421875,0.0233154296875,1.01202392578125,30.65999984741211,0.0,-1.0,0.0,0.0,Closing,0.0,0.0,0.0,0.0,0.0,0.0,0.0,0.0,
1.491593,0.0,0.0,0.0,0.0,0.0,0.0,0.0,0.125,3.804931251,0.0,0.0,0.0,0.0,0.0,-0.0,0.0,0.0,1.887206838,0.0,0.0,0.0,0.0,0.0,0.0,0.0,0.0,4.912108872,0.0,0.0,0.0,0.0,0.0,-0.0,0.0,0.0,2.8442379900000003,0.0,0.0,1.159999966621399,1.3600000143051147,-0.03999999910593033,0.01983642578125,0.0247802734375,1.00048828125,30.65999984741211,0.0,-1.0,0.0,0.0,Closing,0.0,0.0,0.0,0.0,0.0,0.0,0.0,0.0,
1.509834,0.0,0.0,0.0,0.0,0.0,0.0,0.0,0.125,3.803710548,0.0,0.0,0.0,0.0,0.0,-0.0,0.0,0.0,1.887206838,0.0,0.0,0.0,0.0,0.0,0.0,0.0,0.0,4.912108872,0.0,0.0,0.0,0.0,0.0,-0.0,0.0,0.0,2.8442379900000003,0.0,0.0,1.159999966621399,1.3600000143051147,-0.03999999910593033,0.023193359375,0.0244140625,1.007568359375,30.65999984741211,0.0,0.0,0.0,0.0,Closing,0.0,0.0,0.0,0.0,0.0,0.0,0.0,0.0,
1.5297550000000002,0.0,0.0,0.0,0.0,0.0,0.0,0.0,0.125,3.804931251,0.0,0.0,0.0,0.0,0.0,-0.0,0.0,0.0,1.887206838,0.0,0.0,0.0,0.0,0.0,0.0,0.0,0.0,4.910888169000001,0.0,0.0,0.0,0.0,0.0,-0.0,0.0,0.0,2.8442379900000003,0.0,0.0,1.1799999475479126,1.3600000143051147,-0.03999999910593033,0.02197265625,0.0245361328125,1.0113525390625,30.65999984741211,0.0,-2.0,0.0,0.0,Closing,0.0,0.0,0.0,0.0,0.0,0.0,0.0,0.0,
1.5486460000000006,0.0,0.0,0.0,0.0,0.0,0.0,0.0,0.125,3.802489845,0.0,0.0,0.0,0.0,0.0,-0.0,0.0,0.0,1.8884275410000002,0.0,0.0,0.0,0.0,0.0,0.0,0.0,0.0,4.913329575000001,0.0,0.0,0.0,0.0,0.0,-0.0,0.0,0.0,2.8430172870000003,0.0,0.0,1.1799999475479126,1.3600000143051147,-0.029999999329447746,0.02008056640625,0.025146484375,1.0020751953125,30.65999984741211,0.0,-3.0,0.0,0.0,Closing,0.0,0.0,0.0,0.0,0.0,0.0,0.0,0.0,
1.567232,0.0,0.0,0.0,0.0,0.0,0.0,0.0,0.125,3.803710548,0.0,0.0,0.0,0.0,0.0,-0.0,0.0,0.0,1.887206838,0.0,0.0,0.0,0.0,0.0,0.0,0.0,0.0,4.913329575000001,0.0,0.0,0.0,0.0,0.0,-0.0,0.0,0.0,2.8442379900000003,0.0,0.0,1.1799999475479126,1.3600000143051147,-0.029999999329447746,0.02716064453125,0.02001953125,1.00396728515625,30.65999984741211,0.0,3.0,0.0,0.0,Closing,0.0,0.0,0.0,0.0,0.0,0.0,0.0,0.0,
1.588901,0.0,0.0,0.0,0.0,0.0,0.0,0.0,0.125,3.802489845,0.0,0.0,0.0,0.0,0.0,-0.0,0.0,0.0,1.887206838,0.0,0.0,0.0,0.0,0.0,0.0,0.0,0.0,4.912108872,0.0,0.0,0.0,0.0,0.0,-0.0,0.0,0.0,2.8442379900000003,0.0,0.0,1.1699999570846558,1.3700000047683716,-0.029999999329447746,0.0311279296875,0.01458740234375,1.0079345703125,30.65999984741211,0.0,7.0,0.0,0.0,Closing,0.0,0.0,0.0,0.0,0.0,0.0,0.0,0.0,
1.6082370000000001,0.0,0.0,0.0,0.0,0.0,0.0,0.0,0.125,3.804931251,0.0,0.0,0.0,0.0,0.0,-0.0,0.0,0.0,1.887206838,0.0,0.0,0.0,0.0,0.0,0.0,0.0,0.0,4.912108872,0.0,0.0,0.0,0.0,0.0,-0.0,0.0,0.0,2.8442379900000003,0.0,0.0,1.1699999570846558,1.3700000047683716,-0.029999999329447746,0.0269775390625,0.015869140625,1.0087890625,30.65999984741211,0.0,2.0,0.0,0.0,Closing,0.0,0.0,0.0,0.0,0.0,0.0,0.0,0.0,
1.6301720000000004,0.0,0.0,0.0,0.0,0.0,0.0,0.0,0.125,3.803710548,0.0,0.0,0.0,0.0,0.0,-0.0,0.0,0.0,1.887206838,0.0,0.0,0.0,0.0,0.0,0.0,0.0,0.0,4.910888169000001,0.0,0.0,0.0,0.0,0.0,-0.0,0.0,0.0,2.8430172870000003,0.0,0.0,1.159999966621399,1.3700000047683716,-0.029999999329447746,0.024658203125,0.01568603515625,1.00909423828125,30.65999984741211,0.0,0.0,0.0,0.0,Closing,0.0,0.0,0.0,0.0,0.0,0.0,0.0,0.0,
1.6483740000000007,0.0,0.0,0.0,0.0,0.0,0.0,0.0,0.125,3.804931251,0.0,0.0,0.0,0.0,0.0,-0.0,0.0,0.0,1.8884275410000002,0.0,0.0,0.0,0.0,0.0,0.0,0.0,0.0,4.913329575000001,0.0,0.0,0.0,0.0,0.0,-0.0,0.0,0.0,2.8430172870000003,0.0,0.0,1.159999966621399,1.3600000143051147,-0.029999999329447746,0.02557373046875,0.0191650390625,1.005126953125,30.65999984741211,0.0,1.0,0.0,0.0,Closing,0.0,0.0,0.0,0.0,0.0,0.0,0.0,0.0,
1.666928,0.0,0.0,0.0,0.0,0.0,0.0,0.0,0.125,3.803710548,0.0,0.0,0.0,0.0,0.0,-0.0,0.0,0.0,1.8884275410000002,0.0,0.0,0.0,0.0,0.0,0.0,0.0,0.0,4.912108872,0.0,0.0,0.0,0.0,0.0,-0.0,0.0,0.0,2.8442379900000003,0.0,0.0,1.159999966621399,1.3600000143051147,-0.029999999329447746,0.02020263671875,0.0216064453125,1.01312255859375,30.65999984741211,0.0,-4.0,0.0,0.0,Closing,0.0,0.0,0.0,0.0,0.0,0.0,0.0,0.0,
1.6890570000000007,0.0,0.0,0.0,0.0,0.0,0.0,0.0,0.125,3.804931251,0.0,0.0,0.0,0.0,0.0,-0.0,0.0,0.0,1.887206838,0.0,0.0,0.0,0.0,0.0,0.0,0.0,0.0,4.913329575000001,0.0,0.0,0.0,0.0,0.0,-0.0,0.0,0.0,2.8430172870000003,0.0,0.0,1.159999966621399,1.3600000143051147,-0.029999999329447746,0.01690673828125,0.02752685546875,0.9991455078125,30.65999984741211,0.0,-6.0,0.0,0.0,Closing,0.0,0.0,0.0,0.0,0.0,0.0,0.0,0.0,
1.708045,0.0,0.0,0.0,0.0,0.0,0.0,0.0,0.125,3.804931251,0.0,0.0,0.0,0.0,0.0,-0.0,0.0,0.0,1.887206838,0.0,0.0,0.0,0.0,0.0,0.0,0.0,0.0,4.912108872,0.0,0.0,0.0,0.0,0.0,-0.0,0.0,0.0,2.8442379900000003,0.0,0.0,1.1799999475479126,1.3600000143051147,-0.029999999329447746,0.02423095703125,0.027099609375,1.0015869140625,30.65999984741211,0.0,0.0,0.0,0.0,Closing,0.0,0.0,0.0,0.0,0.0,0.0,0.0,0.0,
1.7288060000000005,0.0,0.0,0.0,0.0,0.0,0.0,0.0,0.125,3.804931251,0.0,0.0,0.0,0.0,0.0,-0.0,0.0,0.0,1.887206838,0.0,0.0,0.0,0.0,0.0,0.0,0.0,0.0,4.912108872,0.0,0.0,0.0,0.0,0.0,-0.0,0.0,0.0,2.8442379900000003,0.0,0.0,1.1799999475479126,1.3600000143051147,-0.029999999329447746,0.02728271484375,0.0255126953125,1.0103759765625,30.65999984741211,0.0,3.0,0.0,0.0,Closing,0.0,0.0,0.0,0.0,0.0,0.0,0.0,0.0,
1.7485370000000002,0.0,0.0,0.0,0.0,0.0,0.0,0.0,0.125,3.802489845,0.0,0.0,0.0,0.0,0.0,-0.0,0.0,0.0,1.8884275410000002,0.0,0.0,0.0,0.0,0.0,0.0,0.0,0.0,4.913329575000001,0.0,0.0,0.0,0.0,0.0,-0.0,0.0,0.0,2.8430172870000003,0.0,0.0,1.190000057220459,1.3600000143051147,-0.029999999329447746,0.027099609375,0.02490234375,1.009033203125,30.65999984741211,0.0,3.0,0.0,0.0,Closing,0.0,0.0,0.0,0.0,0.0,0.0,0.0,0.0,
1.7678050000000003,0.0,0.0,0.0,0.0,0.0,0.0,0.0,0.125,3.803710548,0.0,0.0,0.0,0.0,0.0,-0.0,0.0,0.0,1.887206838,0.0,0.0,0.0,0.0,0.0,0.0,0.0,0.0,4.912108872,0.0,0.0,0.0,0.0,0.0,-0.0,0.0,0.0,2.8430172870000003,0.0,0.0,1.190000057220459,1.3700000047683716,-0.029999999329447746,0.02679443359375,0.016357421875,0.99798583984375,30.65999984741211,0.0,2.0,0.0,0.0,Closing,0.0,0.0,0.0,0.0,0.0,0.0,0.0,0.0,
1.7896440000000002,0.0,0.0,0.0,0.0,0.0,0.0,0.0,0.125,3.802489845,0.0,0.0,0.0,0.0,0.0,-0.0,0.0,0.0,1.8884275410000002,0.0,0.0,0.0,0.0,0.0,0.0,0.0,0.0,4.913329575000001,0.0,0.0,0.0,0.0,0.0,-0.0,0.0,0.0,2.8430172870000003,0.0,0.0,1.1799999475479126,1.3700000047683716,-0.03999999910593033,0.02899169921875,0.0137939453125,1.0106201171875,30.65999984741211,0.0,4.0,0.0,0.0,Closing,0.0,0.0,0.0,0.0,0.0,0.0,0.0,0.0,
1.807884,0.0,0.0,0.0,0.0,0.0,0.0,0.0,0.125,3.804931251,0.0,0.0,0.0,0.0,0.0,-0.0,0.0,0.0,1.887206838,0.0,0.0,0.0,0.0,0.0,0.0,0.0,0.0,4.910888169000001,0.0,0.0,0.0,0.0,0.0,-0.0,0.0,0.0,2.8442379900000003,0.0,0.0,1.1799999475479126,1.3700000047683716,-0.029999999329447746,0.01959228515625,0.0155029296875,1.0098876953125,30.65999984741211,0.0,-4.0,0.0,0.0,Closing,0.0,0.0,0.0,0.0,0.0,0.0,0.0,0.0,
1.8293230000000003,0.0,0.0,0.0,0.0,0.0,0.0,0.0,0.125,3.804931251,0.0,0.0,0.0,0.0,0.0,-0.0,0.0,0.0,1.887206838,0.0,-0.0012207029999995456,0.0,0.0,0.0,0.0,0.0,0.0,4.913329575000001,0.0,0.0,0.0,0.0,0.0,-0.0,0.0,0.0,2.8430172870000003,0.0,0.0,1.159999966621399,1.3600000143051147,-0.029999999329447746,0.0201416015625,0.01251220703125,1.00091552734375,30.65999984741211,0.0,-3.0,0.0,0.0,Closing,0.0,0.0,0.0,0.0,0.0,0.0,0.0,0.0,
1.8481680000000005,0.0,0.0,0.0,0.0,0.0,0.0,0.0,0.125,3.804931251,0.0,0.0,0.0,0.0,0.0,-0.0,0.0,0.0,1.887206838,0.0,-0.0012207029999995456,0.0,0.0,0.0,0.0,0.0,0.0,4.912108872,0.0,0.0,0.0,0.0,0.0,-0.0,0.0,0.0,2.8442379900000003,0.0,0.0,1.159999966621399,1.3600000143051147,-0.029999999329447746,0.0205078125,0.0172119140625,1.0010986328125,30.65999984741211,0.0,-3.0,0.0,0.0,Closing,0.0,0.0,0.0,0.0,0.0,0.0,0.0,0.0,
1.867402,0.0,0.0,0.0,0.0,0.0,0.0,0.0,0.125,3.804931251,0.0,0.0,0.0,0.0,0.0,-0.0,0.0,0.0,1.887206838,0.0,-0.0012207029999995456,0.0,0.0,0.0,0.0,0.0,0.0,4.912108872,0.0,0.0,0.0,0.0,0.0,-0.0,0.0,0.0,2.8442379900000003,0.0,0.0,1.159999966621399,1.3600000143051147,-0.029999999329447746,0.02294921875,0.01776123046875,1.0059814453125,30.670000076293945,0.0,0.0,0.0,0.0,Closing,0.0,0.0,0.0,0.0,0.0,0.0,0.0,0.0,
1.8886550000000006,0.0,0.0,0.0,0.0,0.0,0.0,0.0,0.125,3.803710548,0.0,0.0,0.0,0.0,0.0,-0.0,0.0,0.0,1.887206838,0.0,0.0012207029999995456,0.0,0.0,0.0,0.0,0.0,0.0,4.912108872,0.0,0.0,0.0,0.0,0.0,-0.0,0.0,0.0,2.8442379900000003,0.0,0.0,1.159999966621399,1.3600000143051147,-0.019999999552965164,0.02886962890625,0.0252685546875,1.00103759765625,30.670000076293945,0.0,4.0,0.0,0.0,Closing,0.0,0.0,0.0,0.0,0.0,0.0,0.0,0.0,
1.9074940000000007,0.0,0.0,0.0,0.0,0.0,0.0,0.0,0.125,3.803710548,0.0,0.0,0.0,0.0,0.0,-0.0,0.0,0.0,1.887206838,0.0,0.0012207029999995456,0.0,0.0,0.0,0.0,0.0,0.0,4.913329575000001,0.0,0.0,0.0,0.0,0.0,-0.0,0.0,0.0,2.8430172870000003,0.0,0.0,1.159999966621399,1.3600000143051147,-0.019999999552965164,0.02618408203125,0.02764892578125,0.99920654296875,30.670000076293945,0.0,2.0,0.0,0.0,Closing,0.0,0.0,0.0,0.0,0.0,0.0,0.0,0.0,
1.9291680000000007,0.0,0.0,0.0,0.0,0.0,0.0,0.0,0.125,3.806151954,0.0,0.0,0.0,0.0,0.0,-0.0,0.0,0.0,1.887206838,0.0,0.0,0.0,0.0,0.0,0.0,0.0,0.0,4.912108872,0.0,0.0,0.0,0.0,0.0,-0.0,0.0,0.0,2.8430172870000003,0.0,0.0,1.1699999570846558,1.3600000143051147,-0.019999999552965164,0.02642822265625,0.02581787109375,1.0010986328125,30.670000076293945,0.0,2.0,0.0,0.0,Closing,0.0,0.0,0.0,0.0,0.0,0.0,0.0,0.0,
1.947741,0.0,0.0,0.0,0.0,0.0,0.0,0.0,0.125,3.804931251,0.0,0.0,0.0,0.0,0.0,-0.0,0.0,0.0,1.887206838,0.0,0.0,0.0,0.0,0.0,0.0,0.0,0.0,4.912108872,0.0,0.0,0.0,0.0,0.0,-0.0,0.0,0.0,2.8442379900000003,0.0,0.0,1.1799999475479126,1.3700000047683716,-0.019999999552965164,0.02679443359375,0.02288818359375,1.004150390625,30.670000076293945,0.0,-2.0,0.0,0.0,Closing,0.0,0.0,0.0,0.0,0.0,0.0,0.0,0.0,
1.967478,0.0,0.0,0.0,0.0,0.0,0.0,0.0,0.125,3.804931251,0.0,0.0,0.0,0.0,0.0,-0.0,0.0,0.0,1.887206838,0.0,0.0,0.0,0.0,0.0,0.0,0.0,0.0,4.913329575000001,0.0,0.0,0.0,0.0,0.0,-0.0,0.0,0.0,2.8442379900000003,0.0,0.0,1.1799999475479126,1.3700000047683716,-0.019999999552965164,0.01812744140625,0.02117919921875,1.0010986328125,30.670000076293945,0.0,-5.0,0.0,0.0,Closing,0.0,0.0,0.0,0.0,0.0,0.0,0.0,0.0,
1.9895470000000004,0.0,0.0,0.0,0.0,0.0,0.0,0.0,0.125,3.804931251,0.0,0.0,0.0,0.0,0.0,-0.0,0.0,0.0,1.887206838,0.0,0.0,0.0,0.0,0.0,0.0,0.0,0.0,4.910888169000001,0.0,0.0,0.0,0.0,0.0,-0.0,0.0,0.0,2.8430172870000003,0.0,0.0,1.1799999475479126,1.3600000143051147,-0.019999999552965164,0.01708984375,0.02099609375,1.0050048828125,30.670000076293945,0.0,-6.0,0.0,0.0,Closing,0.0,0.0,0.0,0.0,0.0,0.0,0.0,0.0,
2.0082380000000004,0.0,0.0,0.0,0.0,0.0,0.0,0.0,0.125,3.803710548,0.0,0.0,0.0,0.0,0.0,-0.0,0.0,0.0,1.887206838,0.0,0.0,0.0,0.0,0.0,0.0,0.0,0.0,4.912108872,0.0,0.0,0.0,0.0,0.0,-0.0,0.0,0.0,2.8442379900000003,0.0,0.0,1.190000057220459,1.350000023841858,-0.019999999552965164,0.02142333984375,0.01806640625,1.006103515625,30.670000076293945,0.0,-2.0,0.0,0.0,Closing,0.0,0.0,0.0,0.0,0.0,0.0,0.0,0.0,
2.0303510000000005,0.0,0.0,0.0,0.0,0.0,0.0,0.0,0.125,3.803710548,0.0,0.0,0.0,0.0,0.0,-0.0,0.0,0.0,1.887206838,0.0,0.0,0.0,0.0,0.0,0.0,0.0,0.0,4.912108872,0.0,0.0,0.0,0.0,0.0,-0.0,0.0,0.0,2.8430172870000003,0.0,0.0,1.1799999475479126,1.350000023841858,-0.019999999552965164,0.0247802734375,0.0189208984375,1.00018310546875,30.670000076293945,0.0,1.0,0.0,0.0,Closing,0.0,0.0,0.0,0.0,0.0,0.0,0.0,0.0,
2.04946,0.0,0.0,0.0,0.0,0.0,0.0,0.0,0.125,3.803710548,0.0,0.0,0.0,0.0,0.0,-0.0,0.0,0.0,1.887206838,0.0,0.0,0.0,0.0,0.0,0.0,0.0,0.0,4.912108872,0.0,0.0,0.0,0.0,0.0,-0.0,0.0,0.0,2.8442379900000003,0.0,0.0,1.1799999475479126,1.350000023841858,-0.019999999552965164,0.026611328125,0.017822265625,1.00421142578125,30.670000076293945,0.0,2.0,0.0,0.0,Closing,0.0,0.0,0.0,0.0,0.0,0.0,0.0,0.0,
2.0676310000000004,0.0,0.0,0.0,0.0,0.0,0.0,0.0,0.125,3.804931251,0.0,0.0,0.0,0.0,0.0,-0.0,0.0,0.0,1.887206838,0.0,0.0,0.0,0.0,0.0,0.0,0.0,0.0,4.912108872,0.0,0.0,0.0,0.0,0.0,-0.0,0.0,0.0,2.8430172870000003,0.0,0.0,1.1799999475479126,1.3600000143051147,-0.019999999552965164,0.0240478515625,0.017822265625,1.0072021484375,30.670000076293945,0.0,0.0,0.0,0.0,Closing,0.0,0.0,0.0,0.0,0.0,0.0,0.0,0.0,
2.0881950000000007,0.0,0.0,0.0,0.0,0.0,0.0,0.0,0.125,3.803710548,0.0,0.0,0.0,0.0,0.0,-0.0,0.0,0.0,1.8884275410000002,0.0,0.0,0.0,0.0,0.0,0.0,0.0,0.0,4.910888169000001,0.0,0.0,0.0,0.0,0.0,-0.0,0.0,0.0,2.8442379900000003,0.0,0.0,1.1799999475479126,1.3600000143051147,-0.019999999552965164,0.02166748046875,0.0225830078125,0.99969482421875,30.670000076293945,0.0,-2.0,0.0,0.0,Closing,0.0,0.0,0.0,0.0,0.0,0.0,0.0,0.0,
2.106247,0.0,0.0,0.0,0.0,0.0,0.0,0.0,0.125,3.803710548,0.0,0.0,0.0,0.0,0.0,-0.0,0.0,0.0,1.887206838,0.0,0.0,0.0,0.0,0.0,0.0,0.0,0.0,4.910888169000001,0.0,0.0,0.0,0.0,0.0,-0.0,0.0,0.0,2.8442379900000003,0.0,0.0,1.1799999475479126,1.3600000143051147,-0.019999999552965164,0.0130615234375,0.01922607421875,1.0057373046875,30.670000076293945,0.0,-10.0,0.0,0.0,Closing,0.0,0.0,0.0,0.0,0.0,0.0,0.0,0.0,
2.129509,0.0,0.0,0.0,0.0,0.0,0.0,0.0,0.125,3.804931251,0.0,0.0,0.0,0.0,0.0,-0.0,0.0,0.0,1.887206838,0.0,0.0,0.0,0.0,0.0,0.0,0.0,0.0,4.910888169000001,0.0,0.0,0.0,0.0,0.0,-0.0,0.0,0.0,2.8430172870000003,0.0,0.0,1.1799999475479126,1.350000023841858,-0.019999999552965164,0.0252685546875,0.02471923828125,1.0087890625,30.670000076293945,0.0,1.0,0.0,0.0,Closing,0.0,0.0,0.0,0.0,0.0,0.0,0.0,0.0,
2.1478240000000004,0.0,0.0,0.0,0.0,0.0,0.0,0.0,0.125,3.803710548,0.0,0.0,0.0,0.0,0.0,-0.0,0.0,0.0,1.887206838,0.0,0.0,0.0,0.0,0.0,0.0,0.0,0.0,4.912108872,0.0,0.0,0.0,0.0,0.0,-0.0,0.0,0.0,2.8442379900000003,0.0,0.0,1.1799999475479126,1.3600000143051147,-0.019999999552965164,0.0311279296875,0.02642822265625,1.00439453125,30.670000076293945,0.0,7.0,0.0,0.0,Closing,0.0,0.0,0.0,0.0,0.0,0.0,0.0,0.0,
2.166612,0.0,0.0,0.0,0.0,0.0,0.0,0.0,0.125,3.803710548,0.0,0.0,0.0,0.0,0.0,-0.0,0.0,0.0,1.887206838,0.0,0.0,0.0,0.0,0.0,0.0,0.0,0.0,4.913329575000001,0.0,0.0,0.0,0.0,0.0,-0.0,0.0,0.0,2.8442379900000003,0.0,0.0,1.190000057220459,1.3600000143051147,-0.019999999552965164,0.03887939453125,0.01898193359375,0.99560546875,30.670000076293945,0.0,15.0,0.0,0.0,Closing,0.0,0.0,0.0,0.0,0.0,0.0,0.0,0.0,
2.188174,0.0,0.0,0.0,0.0,0.0,0.0,0.0,0.125,3.804931251,0.0,0.0,0.0,0.0,0.0,-0.0,0.0,0.0,1.887206838,0.0,0.0,0.0,0.0,0.0,0.0,0.0,0.0,4.912108872,0.0,0.0,0.0,0.0,0.0,-0.0,0.0,0.0,2.8430172870000003,0.0,0.0,1.190000057220459,1.3700000047683716,-0.019999999552965164,0.0338134765625,0.01904296875,1.009765625,30.670000076293945,0.0,9.0,0.0,0.0,Closing,0.0,0.0,0.0,0.0,0.0,0.0,0.0,0.0,
2.2101800000000003,0.0,0.0,0.0,0.0,0.0,0.0,0.0,0.125,3.803710548,0.0,0.0,0.0,0.0,0.0,-0.0,0.0,0.0,1.887206838,0.0,0.0,0.0,0.0,0.0,0.0,0.0,0.0,4.913329575000001,0.0,0.0,0.0,0.0,0.0,-0.0,0.0,0.0,2.8430172870000003,0.0,0.0,1.1799999475479126,1.3799999952316284,-0.029999999329447746,0.02392578125,0.01708984375,1.00079345703125,30.670000076293945,0.0,0.0,0.0,0.0,Closing,0.0,0.0,0.0,0.0,0.0,0.0,0.0,0.0,
2.2319990000000005,0.0,0.0,0.0,0.0,0.0,0.0,0.0,0.125,3.803710548,0.0,0.0,0.0,0.0,0.0,-0.0,0.0,0.0,1.887206838,0.0,0.0,0.0,0.0,0.0,0.0,0.0,0.0,4.912108872,0.0,0.0,0.0,0.0,0.0,-0.0,0.0,0.0,2.8442379900000003,0.0,0.0,1.1799999475479126,1.3600000143051147,-0.029999999329447746,0.00390625,0.01513671875,1.00579833984375,30.670000076293945,0.0,-20.0,-1.52587890625E-5,0.0,Closing,0.0,0.0,0.0,0.0,0.0,0.0,0.0,0.0,
2.2496640000000006,0.0,0.0,0.0,0.0,0.0,0.0,0.0,0.125,3.803710548,0.0,0.0,0.0,0.0,0.0,-0.0,0.0,0.0,1.887206838,0.0,0.0,0.0,0.0,0.0,0.0,0.0,0.0,4.912108872,0.0,0.0,0.0,0.0,0.0,-0.0,0.0,0.0,2.8430172870000003,0.0,0.0,1.1799999475479126,1.340000033378601,-0.019999999552965164,0.00592041015625,0.01849365234375,1.0152587890625,30.670000076293945,0.0,-18.0,-6.103515625E-5,0.0,Closing,0.0,0.0,0.0,0.0,0.0,0.0,0.0,0.0,
2.2672740000000005,0.0,0.0,0.0,0.0,0.0,0.0,0.0,0.125,3.804931251,0.0,0.0,0.0,0.0,0.0,-0.0,0.0,0.0,1.887206838,0.0,0.0,0.0,0.0,0.0,0.0,0.0,0.0,4.910888169000001,0.0,0.0,0.0,0.0,0.0,-0.0,0.0,0.0,2.8430172870000003,0.0,0.0,1.1699999570846558,1.3300000429153442,-0.009999999776482582,0.0155029296875,0.01513671875,1.0087890625,30.670000076293945,0.0,-8.0,-1.373291015625E-4,0.0,Closing,0.0,0.0,0.0,0.0,0.0,0.0,0.0,0.0,
2.289898,0.0,0.0,0.0,0.0,0.0,0.0,0.0,0.125,3.804931251,0.0,0.0,0.0,0.0,0.0,-0.0,0.0,0.0,1.887206838,0.0,0.0,0.0,0.0,0.0,0.0,0.0,0.0,4.910888169000001,0.0,0.0,0.0,0.0,0.0,-0.0,0.0,0.0,2.8442379900000003,0.0,0.0,1.1699999570846558,1.3300000429153442,-0.009999999776482582,0.0196533203125,0.01824951171875,1.0103759765625,30.670000076293945,0.0,-3.0,-1.373291015625E-4,0.0,Closing,0.0,0.0,0.0,0.0,0.0,0.0,0.0,0.0,
2.3092350000000006,0.0,0.0,0.0,0.0,0.0,0.0,0.0,0.125,3.804931251,0.0,0.0,0.0,0.0,0.0,-0.0,0.0,0.0,1.887206838,0.0,0.0,0.0,0.0,0.0,0.0,0.0,0.0,4.912108872,0.0,0.0,0.0,0.0,0.0,-0.0,0.0,0.0,2.8430172870000003,0.0,0.0,1.1699999570846558,1.340000033378601,-0.009999999776482582,0.0313720703125,0.0294189453125,0.9964599609375,30.670000076293945,0.0,7.0,-1.373291015625E-4,0.0,Closing,0.0,0.0,0.0,0.0,0.0,0.0,0.0,0.0,
2.3300570000000005,0.0,0.0,0.0,0.0,0.0,0.0,0.0,0.125,3.804931251,0.0,0.0,0.0,0.0,0.0,-0.0,0.0,0.0,1.887206838,0.0,0.0,0.0,0.0,0.0,0.0,0.0,0.0,4.912108872,0.0,0.0,0.0,0.0,0.0,-0.0,0.0,0.0,2.8442379900000003,0.0,0.0,1.1799999475479126,1.350000023841858,-0.009999999776482582,0.03887939453125,0.02630615234375,0.99810791015625,30.670000076293945,0.0,15.0,-1.373291015625E-4,0.0,Closing,0.0,0.0,0.0,0.0,0.0,0.0,0.0,0.0,
2.3482730000000003,0.0,0.0,0.0,0.0,0.0,0.0,0.0,0.125,3.803710548,0.0,0.0,0.0,0.0,0.0,-0.0,0.0,0.0,1.887206838,0.0,0.0,0.0,0.0,0.0,0.0,0.0,0.0,4.913329575000001,0.0,0.0,0.0,0.0,0.0,-0.0,0.0,0.0,2.8442379900000003,0.0,0.0,1.190000057220459,1.3600000143051147,-0.019999999552965164,0.038818359375,0.02874755859375,1.01715087890625,30.670000076293945,0.0,14.0,-1.373291015625E-4,0.0,Closing,0.0,0.0,0.0,0.0,0.0,0.0,0.0,0.0,
2.3712490000000006,0.0,0.0,0.0,0.0,0.0,0.0,0.0,0.125,3.804931251,0.0,0.0,0.0,0.0,0.0,-0.0,0.0,0.0,1.887206838,0.0,0.0,0.0,0.0,0.0,0.0,0.0,0.0,4.913329575000001,0.0,0.0,0.0,0.0,0.0,-0.0,0.0,0.0,2.8442379900000003,0.0,0.0,1.190000057220459,1.3700000047683716,-0.019999999552965164,0.01641845703125,0.03033447265625,0.9930419921875,30.65999984741211,0.0,-7.0,-1.373291015625E-4,0.0,Closing,0.0,0.0,0.0,0.0,0.0,0.0,0.0,0.0,
2.393436000000001,0.0,0.0,0.0,0.0,0.0,0.0,0.0,0.125,3.803710548,0.0,0.0,0.0,0.0,0.0,-0.0,0.0,0.0,1.887206838,0.0,0.0,0.0,0.0,0.0,0.0,0.0,0.0,4.913329575000001,0.0,0.0,0.0,0.0,0.0,-0.0,0.0,0.0,2.8430172870000003,0.0,0.0,1.2000000476837158,1.3600000143051147,-0.029999999329447746,0.01763916015625,0.029052734375,0.9876708984375,30.65999984741211,0.0,-5.0,-1.373291015625E-4,0.0,Closing,0.0,0.0,0.0,0.0,0.0,0.0,0.0,0.0,
2.4122970000000006,0.0,0.0,0.0,0.0,0.0,0.0,0.0,0.125,3.803710548,0.0,0.0,0.0,0.0,0.0,-0.0,0.0,0.0,1.887206838,0.0,0.0,0.0,0.0,0.0,0.0,0.0,0.0,4.913329575000001,0.0,0.0,0.0,0.0,0.0,-0.0,0.0,0.0,2.8442379900000003,0.0,0.0,1.2100000381469727,1.350000023841858,-0.029999999329447746,0.01605224609375,0.02191162109375,1.01348876953125,30.65999984741211,0.0,-8.0,-1.373291015625E-4,0.0,Closing,0.0,0.0,0.0,0.0,0.0,0.0,0.0,0.0,
2.433321,0.0,0.0,0.0,0.0,0.0,0.0,0.0,0.125,3.803710548,0.0,0.0,0.0,0.0,0.0,-0.0,0.0,0.0,1.887206838,0.0,0.0,0.0,0.0,0.0,0.0,0.0,0.0,4.912108872,0.0,0.0,0.0,0.0,0.0,-0.0,0.0,0.0,2.8454586930000003,0.0,0.0,1.2000000476837158,1.350000023841858,-0.019999999552965164,0.02008056640625,0.01605224609375,1.0015869140625,30.65999984741211,0.0,-3.0,-1.373291015625E-4,0.0,Closing,0.0,0.0,0.0,0.0,0.0,0.0,0.0,0.0,
2.453258000000001,0.0,0.0,0.0,0.0,0.0,0.0,0.0,0.125,3.803710548,0.0,0.0,0.0,0.0,0.0,-0.0,0.0,0.0,1.887206838,0.0,0.0,0.0,0.0,0.0,0.0,0.0,0.0,4.912108872,0.0,0.0,0.0,0.0,0.0,-0.0,0.0,0.0,2.8442379900000003,0.0,0.0,1.190000057220459,1.350000023841858,-0.019999999552965164,0.029541015625,0.01519775390625,1.00579833984375,30.65999984741211,0.0,5.0,-1.373291015625E-4,0.0,Closing,0.0,0.0,0.0,0.0,0.0,0.0,0.0,0.0,
2.475075000000001,0.0,0.0,0.0,0.0,0.0,0.0,0.0,0.125,3.803710548,0.0,0.0,0.0,0.0,0.0,-0.0,0.0,0.0,1.887206838,0.0,0.0,0.0,0.0,0.0,0.0,0.0,0.0,4.912108872,0.0,0.0,0.0,0.0,0.0,-0.0,0.0,0.0,2.8430172870000003,0.0,0.0,1.190000057220459,1.3600000143051147,-0.029999999329447746,0.03369140625,0.0140380859375,1.0101318359375,30.65999984741211,0.0,9.0,-1.373291015625E-4,0.0,Closing,0.0,0.0,0.0,0.0,0.0,0.0,0.0,0.0,
2.499749000000001,0.0,0.0,0.0,0.0,0.0,0.0,0.0,0.125,3.803710548,0.0,0.0,0.0,0.0,0.0,-0.0,0.0,0.0,1.887206838,0.0,0.0,0.0,0.0,0.0,0.0,0.0,0.0,4.914550278,0.0,0.0,0.0,0.0,0.0,-0.0,0.0,0.0,2.8442379900000003,0.0,0.0,1.190000057220459,1.3600000143051147,-0.029999999329447746,0.03369140625,0.0140380859375,1.0101318359375,30.65999984741211,0.0,9.0,-1.373291015625E-4,0.0,Closing,0.0,0.0,0.0,0.0,0.0,0.0,0.0,0.0,
2.5184940000000005,0.0,0.0,0.0,0.0,0.0,0.0,0.0,0.125,3.803710548,0.0,0.0,0.0,0.0,0.0,-0.0,0.0,0.0,1.8884275410000002,0.0,0.0,0.0,0.0,0.0,0.0,0.0,0.0,4.913329575000001,0.0,0.0,0.0,0.0,0.0,-0.0,0.0,0.0,2.8442379900000003,0.0,0.0,1.1699999570846558,1.3600000143051147,-0.019999999552965164,0.02459716796875,0.0133056640625,1.00823974609375,30.65999984741211,0.0,0.0,-1.373291015625E-4,0.0,Closing,0.0,0.0,0.0,0.0,0.0,0.0,0.0,0.0,
2.541692,0.0,0.0,0.0,0.0,0.0,0.0,0.0,0.125,3.803710548,0.0,0.0,0.0,0.0,0.0,-0.0,0.0,0.0,1.887206838,0.0,0.0,0.0,0.0,0.0,0.0,0.0,0.0,4.913329575000001,0.0,0.0,0.0,0.0,0.0,-0.0,0.0,0.0,2.8430172870000003,0.0,0.0,1.1699999570846558,1.3600000143051147,-0.019999999552965164,0.02557373046875,0.020751953125,1.01141357421875,30.65999984741211,0.0,1.0,-1.373291015625E-4,0.0,Closing,0.0,0.0,0.0,0.0,0.0,0.0,0.0,0.0,
2.561148,0.0,0.0,0.0,0.0,0.0,0.0,0.0,0.125,3.803710548,0.0,0.0,0.0,0.0,0.0,-0.0,0.0,0.0,1.887206838,0.0,0.0,0.0,0.0,0.0,0.0,0.0,0.0,4.913329575000001,0.0,0.0,0.0,0.0,0.0,-0.0,0.0,0.0,2.8442379900000003,0.0,0.0,1.1699999570846558,1.3600000143051147,-0.019999999552965164,0.02557373046875,0.020751953125,1.01141357421875,30.65999984741211,0.0,1.0,-1.373291015625E-4,0.0,Closing,0.0,0.0,0.0,0.0,0.0,0.0,0.0,0.0,
2.582303,0.0,0.0,0.0,0.0,0.0,0.0,0.0,0.125,3.803710548,0.0,0.0,0.0,0.0,0.0,-0.0,0.0,0.0,1.887206838,0.0,-0.0012207029999995456,0.0,0.0,0.0,0.0,0.0,0.0,4.914550278,0.0,0.0,0.0,0.0,0.0,-0.0,0.0,0.0,2.8442379900000003,0.0,0.0,1.1699999570846558,1.3600000143051147,-0.019999999552965164,0.017578125,0.0260009765625,1.00238037109375,30.65999984741211,0.0,-6.0,-1.373291015625E-4,0.0,Closing,0.0,0.0,0.0,0.0,0.0,0.0,0.0,0.0,
2.6064490000000005,0.0,0.0,0.0,0.0,0.0,0.0,0.0,0.125,3.804931251,0.0,0.0,0.0,0.0,0.0,-0.0,0.0,0.0,1.8884275410000002,0.0,-0.0012207029999995456,0.0,0.0,0.0,0.0,0.0,0.0,4.910888169000001,0.0,0.0,0.0,0.0,0.0,-0.0,0.0,0.0,2.8442379900000003,0.0,0.0,1.1699999570846558,1.3600000143051147,-0.019999999552965164,0.017578125,0.0260009765625,1.00238037109375,30.65999984741211,0.0,-6.0,-1.373291015625E-4,0.0,Closing,0.0,0.0,0.0,0.0,0.0,0.0,0.0,0.0,
2.6265680000000002,0.0,0.0,0.0,0.0,0.0,0.0,0.0,0.125,3.803710548,0.0,0.0,0.0,0.0,0.0,-0.0,0.0,0.0,1.887206838,0.0,0.0012207029999995456,0.0,0.0,0.0,0.0,0.0,0.0,4.912108872,0.0,0.0,0.0,0.0,0.0,-0.0,0.0,0.0,2.8430172870000003,0.0,0.0,1.1799999475479126,1.3600000143051147,-0.019999999552965164,0.02587890625,0.02606201171875,1.00347900390625,30.65999984741211,0.0,1.0,-1.373291015625E-4,0.0,Closing,0.0,0.0,0.0,0.0,0.0,0.0,0.0,0.0,
2.6469790000000004,0.0,0.0,0.0,0.0,0.0,0.0,0.0,0.125,3.804931251,0.0,0.0,0.0,0.0,0.0,-0.0,0.0,0.0,1.887206838,0.0,0.0012207029999995456,0.0,0.0,0.0,0.0,0.0,0.0,4.910888169000001,0.0,0.0,0.0,0.0,0.0,-0.0,0.0,0.0,2.8442379900000003,0.0,0.0,1.190000057220459,1.3600000143051147,-0.019999999552965164,0.02423095703125,0.0255126953125,1.00762939453125,30.65999984741211,0.0,0.0,-1.373291015625E-4,0.0,Closing,0.0,0.0,0.0,0.0,0.0,0.0,0.0,0.0,
2.665781,0.0,0.0,0.0,0.0,0.0,0.0,0.0,0.125,3.803710548,0.0,0.0,0.0,0.0,0.0,-0.0,0.0,0.0,1.887206838,0.0,0.0012207029999995456,0.0,0.0,0.0,0.0,0.0,0.0,4.914550278,0.0,0.0,0.0,0.0,0.0,-0.0,0.0,0.0,2.8430172870000003,0.0,0.0,1.190000057220459,1.3600000143051147,-0.019999999552965164,0.02264404296875,0.02593994140625,1.00799560546875,30.65999984741211,0.0,-1.0,-1.373291015625E-4,0.0,Closing,0.0,0.0,0.0,0.0,0.0,0.0,0.0,0.0,
2.68705,0.0,0.0,0.0,0.0,0.0,0.0,0.0,0.125,3.804931251,0.0,0.0,0.0,0.0,0.0,-0.0,0.0,0.0,1.8884275410000002,0.0,0.0,0.0,0.0,0.0,0.0,0.0,0.0,4.912108872,0.0,0.0,0.0,0.0,0.0,-0.0,0.0,0.0,2.8430172870000003,0.0,0.0,1.190000057220459,1.350000023841858,-0.019999999552965164,0.02301025390625,0.019287109375,1.00482177734375,30.65999984741211,0.0,0.0,-1.373291015625E-4,0.0,Closing,0.0,0.0,0.0,0.0,0.0,0.0,0.0,0.0,
2.7052170000000006,0.0,0.0,0.0,0.0,0.0,0.0,0.0,0.125,3.803710548,0.0,0.0,0.0,0.0,0.0,-0.0,0.0,0.0,1.887206838,0.0,0.0,0.0,0.0,0.0,0.0,0.0,0.0,4.913329575000001,0.0,0.0,0.0,0.0,0.0,-0.0,0.0,0.0,2.8430172870000003,0.0,0.0,1.190000057220459,1.350000023841858,-0.019999999552965164,0.02301025390625,0.019287109375,1.00482177734375,30.65999984741211,0.0,0.0,-1.373291015625E-4,0.0,Closing,0.0,0.0,0.0,0.0,0.0,0.0,0.0,0.0,
2.725374000000001,0.0,0.0,0.0,0.0,0.0,0.0,0.0,0.125,3.804931251,0.0,0.0,0.0,0.0,0.0,-0.0,0.0,0.0,1.887206838,0.0,0.0,0.0,0.0,0.0,0.0,0.0,0.0,4.910888169000001,0.0,0.0,0.0,0.0,0.0,-0.0,0.0,0.0,2.8430172870000003,0.0,0.0,1.190000057220459,1.3600000143051147,-0.019999999552965164,0.02166748046875,0.0177001953125,1.00439453125,30.65999984741211,0.0,-2.0,-1.373291015625E-4,0.0,Closing,0.0,0.0,0.0,0.0,0.0,0.0,0.0,0.0,
2.747661,0.0,0.0,0.0,0.0,0.0,0.0,0.0,0.125,3.803710548,0.0,0.0,0.0,0.0,0.0,-0.0,0.0,0.0,1.887206838,0.0,0.0,0.0,0.0,0.0,0.0,0.0,0.0,4.913329575000001,0.0,0.0,0.0,0.0,0.0,-0.0,0.0,0.0,2.8442379900000003,0.0,0.0,1.190000057220459,1.350000023841858,-0.019999999552965164,0.02581787109375,0.0194091796875,1.00494384765625,30.65999984741211,0.0,2.0,-1.373291015625E-4,0.0,Closing,0.0,0.0,0.0,0.0,0.0,0.0,0.0,0.0,
2.7665160000000006,0.0,0.0,0.0,0.0,0.0,0.0,0.0,0.125,3.803710548,0.0,0.0,0.0,0.0,0.0,-0.0,0.0,0.0,1.887206838,0.0,0.0,0.0,0.0,0.0,0.0,0.0,0.0,4.912108872,0.0,0.0,0.0,0.0,0.0,-0.0,0.0,0.0,2.8442379900000003,0.0,0.0,1.190000057220459,1.3600000143051147,-0.019999999552965164,0.0284423828125,0.01776123046875,0.99908447265625,30.65999984741211,0.0,4.0,-1.373291015625E-4,0.0,Closing,0.0,0.0,0.0,0.0,0.0,0.0,0.0,0.0,
2.78821,0.0,0.0,0.0,0.0,0.0,0.0,0.0,0.125,3.803710548,0.0,0.0,0.0,0.0,0.0,-0.0,0.0,0.0,1.8884275410000002,0.0,0.0,0.0,0.0,0.0,0.0,0.0,0.0,4.912108872,0.0,0.0,0.0,0.0,0.0,-0.0,0.0,0.0,2.8442379900000003,0.0,0.0,1.190000057220459,1.3600000143051147,-0.019999999552965164,0.0238037109375,0.01971435546875,1.00543212890625,30.65999984741211,0.0,0.0,-1.373291015625E-4,0.0,Closing,0.0,0.0,0.0,0.0,0.0,0.0,0.0,0.0,
2.807753000000001,0.0,0.0,0.0,0.0,0.0,0.0,0.0,0.125,3.802489845,0.0,0.0,0.0,0.0,0.0,-0.0,0.0,0.0,1.887206838,0.0,0.0,0.0,0.0,0.0,0.0,0.0,0.0,4.909667466,0.0,0.0,0.0,0.0,0.0,-0.0,0.0,0.0,2.8442379900000003,0.0,0.0,1.190000057220459,1.350000023841858,-0.019999999552965164,0.02337646484375,0.01959228515625,1.002685546875,30.65999984741211,0.0,0.0,-1.373291015625E-4,0.0,Closing,0.0,0.0,0.0,0.0,0.0,0.0,0.0,0.0,
2.831089,0.0,0.0,0.0,0.0,0.0,0.0,0.0,0.125,3.803710548,0.0,-0.0012207029999999897,0.0,0.0,0.0,-0.0,0.0,0.0,1.887206838,0.0,0.0,0.0,0.0,0.0,0.0,0.0,0.0,4.910888169000001,0.0,0.0,0.0,0.0,0.0,-0.0,0.0,0.0,2.8442379900000003,0.0,0.0,1.1799999475479126,1.350000023841858,-0.019999999552965164,0.0247802734375,0.0186767578125,0.99798583984375,30.65999984741211,0.0,1.0,-1.373291015625E-4,0.0,Closing,0.0,0.0,0.0,0.0,0.0,0.0,0.0,0.0,
2.850298000000001,0.0,0.0,0.0,0.0,0.0,0.0,0.0,0.125,3.803710548,0.0,-0.0012207029999999897,0.0,0.0,0.0,-0.0,0.0,0.0,1.887206838,0.0,0.0,0.0,0.0,0.0,0.0,0.0,0.0,4.912108872,0.0,0.0,0.0,0.0,0.0,-0.0,0.0,0.0,2.8442379900000003,0.0,0.0,1.190000057220459,1.3600000143051147,-0.019999999552965164,0.02093505859375,0.0335693359375,1.0225830078125,30.65999984741211,0.0,-3.0,-1.373291015625E-4,0.0,Closing,0.0,0.0,0.0,0.0,0.0,0.0,0.0,0.0,
2.869073,0.0,0.0,0.0,0.0,0.0,0.0,0.0,0.125,3.803710548,0.0,-0.0012207029999999897,0.0,0.0,0.0,-0.0,0.0,0.0,1.887206838,0.0,0.0,0.0,0.0,0.0,0.0,0.0,0.0,4.913329575000001,0.0,0.0,0.0,0.0,0.0,-0.0,0.0,0.0,2.8442379900000003,0.0,0.0,1.190000057220459,1.3600000143051147,-0.019999999552965164,0.0206298828125,0.01605224609375,0.99798583984375,30.700000762939453,0.0,-3.0,-1.373291015625E-4,0.0,Closing,0.0,0.0,0.0,0.0,0.0,0.0,0.0,0.0,
2.89383,0.0,0.0,0.0,0.0,0.0,0.0,0.0,0.125,3.803710548,0.0,0.0012207029999999897,0.0,0.0,0.0,-0.0,0.0,0.0,1.887206838,0.0,0.0,0.0,0.0,0.0,0.0,0.0,0.0,4.913329575000001,0.0,0.0,0.0,0.0,0.0,-0.0,0.0,0.0,2.8430172870000003,0.0,0.0,1.190000057220459,1.3600000143051147,-0.019999999552965164,0.02227783203125,0.02130126953125,0.99615478515625,30.700000762939453,0.0,-1.0,-1.373291015625E-4,0.0,Closing,0.0,0.0,0.0,0.0,0.0,0.0,0.0,0.0,
2.94843,0.0,0.0,0.0,0.0,0.0,0.0,0.0,0.125,3.803710548,0.0,0.0,0.0,0.0,0.0,-0.0,0.0,0.0,1.8884275410000002,0.0,0.0,0.0,0.0,0.0,0.0,0.0,0.0,4.913329575000001,0.0,0.0,0.0,0.0,0.0,-0.0,0.0,0.0,2.8442379900000003,0.0,0.0,1.190000057220459,1.3600000143051147,-0.019999999552965164,0.0283203125,0.0225830078125,1.003662109375,30.700000762939453,0.0,4.0,-1.373291015625E-4,0.0,Closing,0.0,0.0,0.0,0.0,0.0,0.0,0.0,0.0,
3.0260380000000007,0.0,0.0,0.0,0.0,0.0,0.0,0.0,0.125,3.803710548,0.0,0.0,0.0,0.0,0.0,-0.0,0.0,0.0,1.887206838,0.0,0.0,0.0,0.0,0.0,0.0,0.0,0.0,4.912108872,0.0,0.0,0.0,0.0,0.0,-0.0,0.0,0.0,2.8430172870000003,0.0,0.0,1.190000057220459,1.3600000143051147,-0.019999999552965164,0.0234375,0.01873779296875,1.00201416015625,30.700000762939453,0.0,0.0,-1.373291015625E-4,0.0,Closing,0.0,0.0,0.0,0.0,0.0,0.0,0.0,0.0,
3.1211810000000004,0.0,0.0,0.0,0.0,0.0,0.0,0.0,0.125,3.803710548,0.0,0.0,0.0,0.0,0.0,-0.0,0.0,0.0,1.887206838,0.0,0.0,0.0,0.0,0.0,0.0,0.0,0.0,4.910888169000001,0.0,0.0,0.0,0.0,0.0,-0.0,0.0,0.0,2.8442379900000003,0.0,0.0,1.190000057220459,1.3600000143051147,-0.019999999552965164,0.02508544921875,0.0206298828125,1.0072021484375,30.700000762939453,0.0,1.0,-1.373291015625E-4,0.0,Closing,0.0,0.0,0.0,0.0,0.0,0.0,0.0,0.0,
3.1584260000000004,0.0,0.0,0.0,0.0,0.0,0.0,0.0,0.125,3.803710548,0.0,0.0,0.0,0.0,0.0,-0.0,0.0,0.0,1.887206838,0.0,0.0,0.0,0.0,0.0,0.0,0.0,0.0,4.910888169000001,0.0,0.0,0.0,0.0,0.0,-0.0,0.0,0.0,2.8442379900000003,0.0,0.0,1.190000057220459,1.3600000143051147,-0.019999999552965164,0.0281982421875,0.02288818359375,1.0023193359375,30.700000762939453,0.0,4.0,-1.373291015625E-4,0.0,Closing,0.0,0.0,0.0,0.0,0.0,0.0,0.0,0.0,
3.2561850000000003,0.0,0.0,0.0,0.0,0.0,0.0,0.0,0.125,3.803710548,0.0,0.0,0.0,0.0,0.0,-0.0,0.0,0.0,1.887206838,0.0,0.0,0.0,0.0,0.0,0.0,0.0,0.0,4.910888169000001,0.0,0.0,0.0,0.0,0.0,-0.0,0.0,0.0,2.8430172870000003,0.0,0.0,1.190000057220459,1.3600000143051147,-0.019999999552965164,0.0238037109375,0.0196533203125,1.00250244140625,30.700000762939453,0.0,0.0,-1.373291015625E-4,0.0,Closing,0.0,0.0,0.0,0.0,0.0,0.0,0.0,0.0,
3.3131090000000003,0.0,0.0,0.0,0.0,0.0,0.0,0.0,0.125,3.804931251,0.0,0.0,0.0,0.0,0.0,-0.0,0.0,0.0,1.887206838,0.0,0.0,0.0,0.0,0.0,0.0,0.0,0.0,4.910888169000001,0.0,0.0,0.0,0.0,0.0,-0.0,0.0,0.0,2.8442379900000003,0.0,0.0,1.190000057220459,1.3600000143051147,-0.019999999552965164,0.02484130859375,0.01947021484375,0.99761962890625,30.700000762939453,0.0,1.0,-1.373291015625E-4,0.0,Closing,0.0,0.0,0.0,0.0,0.0,0.0,0.0,0.0,
3.3661790000000003,0.0,0.0,0.0,0.0,0.0,0.0,0.0,0.125,3.803710548,0.0,0.0,0.0,0.0,0.0,-0.0,0.0,0.0,1.887206838,0.0,-0.0012207029999995456,0.0,0.0,0.0,0.0,0.0,0.0,4.910888169000001,0.0,-0.0012207029999995456,0.0,0.0,0.0,-0.0,0.0,0.0,2.8430172870000003,0.0,0.0,1.190000057220459,1.3700000047683716,-0.019999999552965164,0.02398681640625,0.02117919921875,1.0009765625,30.729999542236328,0.0,0.0,-1.373291015625E-4,0.0,Closing,0.0,0.0,0.0,0.0,0.0,0.0,0.0,0.0,
3.409657,0.0,0.0,0.0,0.0,0.0,0.0,0.0,0.125,3.803710548,0.0,0.0,0.0,0.0,0.0,-0.0,0.0,0.0,1.887206838,0.0,-0.0012207029999995456,0.0,0.0,0.0,0.0,0.0,0.0,4.912108872,0.0,0.0012207029999995456,0.0,0.0,0.0,-0.0,0.0,0.0,2.8430172870000003,0.0,0.0,1.190000057220459,1.3600000143051147,-0.019999999552965164,0.01904296875,0.02203369140625,1.0050048828125,30.729999542236328,0.0,-4.0,-1.373291015625E-4,0.0,Closing,0.0,0.0,0.0,0.0,0.0,0.0,0.0,0.0,
3.4778640000000003,0.0,0.0,0.0,0.0,0.0,0.0,0.0,0.125,3.806151954,0.0,-0.0012207029999999897,0.0,0.0,0.0,-0.0,0.0,0.0,1.887206838,0.0,-0.0012207029999995456,0.0,0.0,0.0,0.0,0.0,0.0,4.913329575000001,0.0,-0.0012207029999995456,0.0,0.0,0.0,-0.0,0.0,0.0,2.8442379900000003,0.0,0.0,1.190000057220459,1.3600000143051147,-0.019999999552965164,0.02630615234375,0.02362060546875,1.00457763671875,30.729999542236328,0.0,2.0,-1.373291015625E-4,0.0,Closing,0.0,0.0,0.0,0.0,0.0,0.0,0.0,0.0,
3.5527120000000005,0.0,0.0,0.0,0.0,0.0,0.0,0.0,0.125,3.803710548,0.0,0.0012207029999999897,0.0,0.0,0.0,-0.0,0.0,0.0,1.887206838,0.0,0.0012207029999995456,0.0,0.0,0.0,0.0,0.0,0.0,4.912108872,0.0,0.0,0.0,0.0,0.0,-0.0,0.0,0.0,2.8430172870000003,0.0,0.0,1.190000057220459,1.3700000047683716,-0.029999999329447746,0.0196533203125,0.0216064453125,1.0048828125,30.729999542236328,0.0,-4.0,-1.373291015625E-4,0.0,Closing,0.0,0.0,0.0,0.0,0.0,0.0,0.0,0.0,
3.629928,0.0,0.0,0.0,0.0,0.0,0.0,0.0,0.125,3.803710548,0.0,-0.0012207029999999897,0.0,0.0,0.0,-0.0,0.0,0.0,1.887206838,0.0,0.0,0.0,0.0,0.0,0.0,0.0,0.0,4.912108872,0.0,-0.0012207029999995456,0.0,0.0,0.0,-0.0,0.0,0.0,2.8442379900000003,0.0,0.0,1.190000057220459,1.3700000047683716,-0.029999999329447746,0.02447509765625,0.02020263671875,1.0068359375,30.729999542236328,0.0,0.0,-1.373291015625E-4,0.0,Closing,0.0,0.0,0.0,0.0,0.0,0.0,0.0,0.0,
3.6532120000000003,0.0,0.0,0.0,0.0,0.0,0.0,0.0,0.125,3.803710548,0.0,-0.0012207029999999897,0.0,0.0,0.0,-0.0,0.0,0.0,1.887206838,0.0,0.0,0.0,0.0,0.0,0.0,0.0,0.0,4.912108872,0.0,-0.0012207029999995456,0.0,0.0,0.0,-0.0,0.0,0.0,2.8430172870000003,0.0,0.0,1.190000057220459,1.3700000047683716,-0.03999999910593033,0.02532958984375,0.0196533203125,1.00079345703125,30.729999542236328,0.0,1.0,-1.373291015625E-4,0.0,Closing,0.0,0.0,0.0,0.0,0.0,0.0,0.0,0.0,
3.672327,0.0,0.0,0.0,0.0,0.0,0.0,0.0,0.125,3.803710548,0.0,-0.0012207029999999897,0.0,0.0,0.0,-0.0,0.0,0.0,1.887206838,0.0,0.0,0.0,0.0,0.0,0.0,0.0,0.0,4.912108872,0.0,0.0012207029999995456,0.0,0.0,0.0,-0.0,0.0,0.0,2.8442379900000003,0.0,0.0,1.1799999475479126,1.3700000047683716,-0.03999999910593033,0.0255126953125,0.02215576171875,1.0047607421875,30.729999542236328,0.0,1.0,-1.373291015625E-4,0.0,Closing,0.0,0.0,0.0,0.0,0.0,0.0,0.0,0.0,
3.6965640000000004,0.0,0.0,0.0,0.0,0.0,0.0,0.0,0.125,3.803710548,0.0,0.0012207029999999897,0.0,0.0,0.0,-0.0,0.0,0.0,1.887206838,0.0,0.0,0.0,0.0,0.0,0.0,0.0,0.0,4.912108872,0.0,0.0012207029999995456,0.0,0.0,0.0,-0.0,0.0,0.0,2.8442379900000003,0.0,0.0,1.190000057220459,1.3700000047683716,-0.03999999910593033,0.0284423828125,0.02423095703125,1.00750732421875,30.729999542236328,0.0,4.0,-1.373291015625E-4,0.0,Closing,0.0,0.0,0.0,0.0,0.0,0.0,0.0,0.0,
3.7160070000000007,0.0,0.0,0.0,0.0,0.0,0.0,0.0,0.125,3.804931251,0.0,0.0012207029999999897,0.0,0.0,0.0,-0.0,0.0,0.0,1.887206838,0.0,0.0,0.0,0.0,0.0,0.0,0.0,0.0,4.912108872,0.0,0.0,0.0,0.0,0.0,-0.0,0.0,0.0,2.8430172870000003,0.0,0.0,1.190000057220459,1.3799999952316284,-0.03999999910593033,0.02545166015625,0.0235595703125,1.00408935546875,30.729999542236328,0.0,1.0,-1.373291015625E-4,0.0,Closing,0.0,0.0,0.0,0.0,0.0,0.0,0.0,0.0,
3.737448,0.0,0.0,0.0,0.0,0.0,0.0,0.0,0.125,3.803710548,0.0,0.0,0.0,0.0,0.0,-0.0,0.0,0.0,1.887206838,0.0,0.0,0.0,0.0,0.0,0.0,0.0,0.0,4.912108872,0.0,0.0,0.0,0.0,0.0,-0.0,0.0,0.0,2.8430172870000003,0.0,0.0,1.190000057220459,1.3799999952316284,-0.05000000074505806,0.0225830078125,0.02337646484375,1.00714111328125,30.729999542236328,0.0,-1.0,-1.373291015625E-4,0.0,Closing,0.0,0.0,0.0,0.0,0.0,0.0,0.0,0.0,
3.7598060000000006,0.0,0.0,0.0,0.0,0.0,0.0,0.0,0.125,3.804931251,0.0,0.0,0.0,0.0,0.0,-0.0,0.0,0.0,1.887206838,0.0,0.0,0.0,0.0,0.0,0.0,0.0,0.0,4.912108872,0.0,0.0,0.0,0.0,0.0,-0.0,0.0,0.0,2.8442379900000003,0.0,0.0,1.190000057220459,1.3799999952316284,-0.05000000074505806,0.0208740234375,0.01531982421875,1.00445556640625,30.729999542236328,0.0,-3.0,-1.373291015625E-4,0.0,Closing,0.0,0.0,0.0,0.0,0.0,0.0,0.0,0.0,
3.7789940000000004,0.0,0.0,0.0,0.0,0.0,0.0,0.0,0.125,3.803710548,0.0,0.0,0.0,0.0,0.0,-0.0,0.0,0.0,1.887206838,0.0,0.0,0.0,0.0,0.0,0.0,0.0,0.0,4.913329575000001,0.0,0.0,0.0,0.0,0.0,-0.0,0.0,0.0,2.8442379900000003,0.0,0.0,1.190000057220459,1.3700000047683716,-0.05000000074505806,0.023193359375,0.012939453125,1.00665283203125,30.729999542236328,0.0,-1.0,-1.373291015625E-4,0.0,Closing,0.0,0.0,0.0,0.0,0.0,0.0,0.0,0.0,
3.8037870000000003,0.0,0.0,0.0,0.0,0.0,0.0,0.0,0.125,3.803710548,0.0,0.0,0.0,0.0,0.0,-0.0,0.0,0.0,1.887206838,0.0,0.0,0.0,0.0,0.0,0.0,0.0,0.0,4.910888169000001,0.0,0.0,0.0,0.0,0.0,-0.0,0.0,0.0,2.8430172870000003,0.0,0.0,1.1799999475479126,1.3700000047683716,-0.05000000074505806,0.02606201171875,0.017578125,1.00225830078125,30.729999542236328,0.0,1.0,-1.373291015625E-4,0.0,Closing,0.0,0.0,0.0,0.0,0.0,0.0,0.0,0.0,
3.822013000000001,0.0,0.0,0.0,0.0,0.0,0.0,0.0,0.125,3.803710548,0.0,0.0,0.0,0.0,0.0,-0.0,0.0,0.0,1.887206838,0.0,0.0,0.0,0.0,0.0,0.0,0.0,0.0,4.912108872,0.0,0.0,0.0,0.0,0.0,-0.0,0.0,0.0,2.8442379900000003,0.0,0.0,1.1799999475479126,1.3799999952316284,-0.05000000074505806,0.0234375,0.018798828125,1.008056640625,30.729999542236328,0.0,0.0,-1.373291015625E-4,0.0,Closing,0.0,0.0,0.0,0.0,0.0,0.0,0.0,0.0,
3.8474140000000006,0.0,0.0,0.0,0.0,0.0,0.0,0.0,0.125,3.803710548,0.0,0.0,0.0,0.0,0.0,-0.0,0.0,0.0,1.887206838,0.0,0.0,0.0,0.0,0.0,0.0,0.0,0.0,4.913329575000001,0.0,0.0,0.0,0.0,0.0,-0.0,0.0,0.0,2.8442379900000003,0.0,0.0,1.1799999475479126,1.3799999952316284,-0.05000000074505806,0.02691650390625,0.018310546875,1.0057373046875,30.729999542236328,0.0,2.0,-1.373291015625E-4,0.0,Closing,0.0,0.0,0.0,0.0,0.0,0.0,0.0,0.0,
3.8668090000000013,0.0,0.0,0.0,0.0,0.0,0.0,0.0,0.125,3.804931251,0.0,0.0,0.0,0.0,0.0,-0.0,0.0,0.0,1.887206838,0.0,0.0,0.0,0.0,0.0,0.0,0.0,0.0,4.913329575000001,0.0,0.0,0.0,0.0,0.0,-0.0,0.0,0.0,2.8442379900000003,0.0,0.0,1.1799999475479126,1.3799999952316284,-0.05000000074505806,0.02569580078125,0.0166015625,1.0068359375,30.729999542236328,0.0,1.0,-1.373291015625E-4,0.0,Closing,0.0,0.0,0.0,0.0,0.0,0.0,0.0,0.0,
