Time,ClimberA1,ClimberA2,FRpos,FRCurrent,FRspeed,FRsetpoint,FRApos,FRACurrent,FREncpos,FREncSetpoint,FREncSpeed,FLpos,FLCurrent,FLspeed,FLsetpoint,FLApos,FLACurrent,FLEncpos,FLEncSetpoint,FLEncSpeed,BRpos,BRCurrent,BRspeed,BRsetpoint,BRApos,BRACurrent,BREncpos,BREncSetpoint,BREncSpeed,BLpos,BLCurrent,BLspeed,BLsetpoint,BLApos,BLACurrent,BLEncpos,BLEncSetpoint,BLEncSpeed,navx_Pitch,navx_Roll,navx_Yaw,navx_XAcc,navx_YAcc,navx_ZAcc,navx_Temp,navx_Bar,navx_Alt,navx_XDis,navx_YDis,GearPlacerState,ShootOutputV,ShootOutputCurrent,ShootEncPos,ShootEncVelocity,ShootSpeed,ShootSetpoint,CarouselSetpoint,CarouselCurrent,
0.21979099999999743,0.0,0.0,16086.0,0.0,0.0,0.0,0.0,0.25,0.8422850700000001,0.01,0.0,-10581.0,0.125,0.0,0.0,0.0,0.25,0.483398388,0.01,0.0,-8581.0,0.0,0.0,0.0,0.0,0.125,3.392333637,0.01,0.0,-6686.0,0.125,0.0,0.0,0.0,0.25,1.6027830390000002,0.01,0.0,0.05000000074505806,-0.9800000190734863,53.27000045776367,-0.01751708984375,0.001708984375,1.017822265625,36.5099983215332,0.0,0.0,1.656890869140625,-1.1074981689453125,Closing,0.0,0.0,-732.0,0.0,0.0,0.0,0.0,0.0,
0.3500810000000056,0.0,0.0,16091.0,2.125,127.5,840.0,0.0,0.25,0.823974525,0.01,0.0,-10583.0,3.0,-127.5,-840.0,0.0,0.25,0.48706049700000004,0.01,0.0,-8581.0,2.25,7.5,840.0,0.0,0.125,3.383788716,0.01,0.0,-6689.0,2.375,-157.5,-840.0,0.0,0.25,1.6308592080000002,0.01,0.0,0.029999999329447746,-0.6899999976158142,53.290000915527344,0.2491455078125,-0.09869384765625,1.0255126953125,36.5099983215332,0.0,76.0,1.657073974609375,-1.10882568359375,Closing,0.0,0.0,-732.0,0.0,0.0,0.0,0.0,0.0,
0.4673280000000086,0.0,0.0,16125.0,3.25,187.5,840.0000000000001,0.0,0.25,0.822753822,0.01,-0.013427732999999997,-10627.0,5.25,-255.0,-840.0000000000001,0.0,0.25,0.5017089330000001,0.01,0.004882811999999959,-8576.0,4.75,15.0,840.0000000000001,0.0,0.125,3.3642574680000004,0.01,-0.003662108999999969,-6725.0,3.25,-195.0,-840.0000000000001,0.0,0.125,1.652831862,0.01,0.02075195100000027,0.0,-0.15000000596046448,53.400001525878906,0.1226806640625,0.0966796875,0.7164306640625,36.52000045776367,0.0,152.0,1.65911865234375,-1.11767578125,Closing,0.0,0.0,-732.0,0.0,0.0,0.0,0.0,0.125,
0.5466699999999837,0.0,0.0,16171.0,5.0,202.5,840.0,0.0,0.125,0.822753822,0.01,0.0,-10677.0,7.875,-277.5,-840.0,0.0,0.125,0.510253854,0.01,0.0,-8539.0,6.5,240.0,840.0,0.0,0.0,3.358153953,0.01,0.0,-6772.0,4.75,-292.5,-840.0,0.0,0.25,1.6613767830000001,0.01,0.0,0.09000000357627869,0.4399999976158142,53.41999816894531,0.130126953125,0.0665283203125,0.93682861328125,36.52000045776367,0.0,125.0,1.6658782958984375,-1.13592529296875,Closing,0.0,0.0,-732.0,0.0,0.0,0.0,0.0,0.125,
0.6608319999999949,0.0,0.0,16171.0,5.375,412.5,840.0,0.0,0.25,0.822753822,0.01,0.0,-10677.0,7.625,-472.5,-840.0,0.0,0.0,0.5297851020000001,0.01,0.009765623999999917,-8539.0,6.875,390.0,840.0,0.0,0.0,3.3630367650000004,0.01,0.0,-6772.0,4.75,-420.0,-840.0,0.0,0.25,1.6601560800000001,0.01,0.0,0.10999999940395355,0.7200000286102295,53.40999984741211,0.05181884765625,-0.0013427734375,1.1185302734375,36.52000045776367,0.0,19.0,1.6736602783203125,-1.1512603759765625,Closing,0.0,0.0,-732.0,0.0,0.0,0.0,0.0,0.125,
0.7442939999999945,0.0,0.0,16253.0,5.0,592.5,840.0,0.0,0.25,0.822753822,0.01,0.0,-10764.0,6.125,-660.0,-840.0,0.0,0.125,0.578613222,0.01,0.0,-8467.0,6.375,562.5,840.0,0.0,0.0,3.358153953,0.01,0.0,-6849.0,4.5,-615.0,-840.0,0.0,0.25,1.665038892,0.01,0.0,0.2199999988079071,1.1699999570846558,53.310001373291016,0.0352783203125,0.05889892578125,0.968017578125,36.52000045776367,0.0,53.0,1.6926727294921875,-1.18505859375,Closing,0.0,0.0,-732.0,0.0,0.0,0.0,0.0,0.125,
0.8677909999999974,0.0,0.0,16365.0,3.875,750.0,840.0000000000001,0.0,0.25,0.822753822,0.01,0.0,-10881.0,5.25,-757.5,-840.0000000000001,0.0,0.25,0.578613222,0.01,0.043945308000000516,-8365.0,5.375,735.0,840.0000000000001,0.0,0.0,3.359374656,0.01,4.939179296999999,-6951.0,4.125,-705.0,-840.0000000000001,0.0,0.25,1.665038892,0.01,0.004882811999999959,0.25,1.4199999570846558,53.060001373291016,0.09326171875,0.0797119140625,0.9173583984375,36.52000045776367,0.0,102.0,1.7081451416015625,-1.2111968994140625,Closing,0.0,0.0,-732.0,0.0,0.0,0.0,0.0,0.0,
0.950673999999999,0.0,0.0,16498.0,3.0,862.5,840.0,0.0,0.25,0.8300780400000001,4.929373866126697,0.0,-11011.0,3.875,-870.0,-840.0,0.0,0.25,0.560302677,4.96087448012352,0.0,-8233.0,4.25,855.0,840.0,0.0,0.0,3.358153953,4.937518112564087,0.0,-7076.0,3.625,-817.5,-840.0,0.0,0.25,1.6601560800000001,4.955107845942179,0.0,0.2800000011920929,1.2699999809265137,52.81999969482422,0.02618408203125,-0.03125,1.112060546875,36.470001220703125,0.0,-28.0,1.713836669921875,-1.243438720703125,Closing,0.0,0.0,-732.0,0.0,0.0,0.0,0.0,0.125,
1.0739489999999932,0.0,0.0,16644.0,2.375,922.5,840.0,0.0,0.25,0.8276366340000001,4.926085675797197,0.0012207029999999897,-11155.0,3.0,-907.5,-840.0,0.0,0.25,0.539550726,4.9575652769804,-0.01342773300000033,-8091.0,3.75,907.5,840.0,0.0,0.125,3.358153953,4.934224489529928,-0.0012207029999995456,-7213.0,3.25,-877.5,-840.0,0.0,0.25,1.6564939710000002,4.9518024894926285,0.0,0.20999999344348907,1.350000023841858,52.59000015258789,-0.08001708984375,0.02520751953125,0.88018798828125,36.470001220703125,0.0,-43.0,1.7141265869140625,-1.2755889892578125,Closing,0.0,0.0,-732.0,0.0,0.0,0.0,0.0,0.125,
1.1869489999999931,0.0,0.0,16796.0,1.625,945.0,840.0,0.0,0.25,0.839843664,4.9226605014916425,0.013427732999999997,-11306.0,2.25,-937.5,-840.0,0.0,0.25,0.520019478,4.9541182144804,-0.028076168999999318,-7941.0,3.25,930.0,840.0,0.0,0.125,3.3630367650000004,4.930793656196594,0.0,-7361.0,2.625,-915.0,-840.0,0.0,0.25,1.6589353770000002,4.948359433937073,0.0,0.3100000023841858,1.190000057220459,52.38999938964844,-5.4931640625E-4,-0.003662109375,1.2677001953125,36.470001220703125,0.0,-24.0,1.713714599609375,-1.3021087646484375,Closing,0.0,0.0,-732.0,0.0,0.0,0.0,0.0,0.125,
1.2768889999999955,0.0,0.0,16950.0,1.125,952.5,840.0,0.0,0.25,0.837402258,4.920194371810521,0.0,-11457.0,1.5,-945.0,-840.0,0.0,0.25,0.5163573690000001,4.951636325272561,0.0,-7801.0,3.125,877.5,840.0,0.0,0.125,3.35693325,4.9283234520085655,0.0,-7508.0,2.25,-915.0,-840.0,0.0,0.25,1.6564939710000002,4.945880429734124,0.0,0.3100000023841858,1.0,52.209999084472656,0.00897216796875,0.0025634765625,1.0694580078125,36.470001220703125,0.0,-8.0,1.7115478515625,-1.30035400390625,Closing,0.0,0.0,-732.0,0.0,0.0,0.0,0.0,0.125,
1.3937019999999902,0.0,0.0,17100.0,0.875,930.0,840.0,0.0,0.25,0.836181555,4.9177282421294,0.0,-11605.0,1.25,-922.5,-840.0,0.0,0.125,0.518798775,4.94915443606472,0.0,-7663.0,3.25,870.0,840.0,0.0,0.125,3.358153953,4.925853247820537,0.0,-7657.0,1.875,-930.0,-840.0,0.0,0.25,1.6564939710000002,4.943401425531175,0.0,0.2800000011920929,0.9300000071525574,52.18000030517578,-0.02789306640625,0.04083251953125,0.94146728515625,36.470001220703125,0.0,2.0,1.7097930908203125,-1.2989349365234375,Closing,0.0,0.0,-732.0,0.0,0.0,0.0,0.0,0.125,
1.5225409999999975,0.0,0.0,17249.0,0.75,922.5,840.0,0.0,0.25,0.837402258,4.917317237937217,0.0012207029999999897,-11755.0,1.0,-930.0,-840.0,0.0,0.125,0.5163573690000001,4.94874080539608,-0.0012207030000004337,-7513.0,3.0,930.0,840.0,0.0,0.125,3.3618160620000004,4.925441564572653,0.0,-7805.0,1.375,-930.0,-840.0,0.0,0.25,1.6564939710000002,4.942988275676304,0.0,0.36000001430511475,0.699999988079071,52.16999816894531,-0.0960693359375,-0.04083251953125,1.30828857421875,36.400001525878906,0.0,-107.0,1.708099365234375,-1.2957000732421875,Closing,0.0,0.0,-732.0,0.0,0.0,0.0,0.0,0.0,
1.6175510000000068,0.0,0.0,17249.0,0.75,915.0,840.0,0.0,0.25,0.837402258,4.917180201697148,0.0,-11902.0,0.875,-915.0,-840.0,0.0,0.125,0.5163573690000001,4.9486028934412,0.0,-7366.0,2.75,922.5,840.0,0.0,0.125,3.3642574680000004,4.925304301923116,-4.935517188,-7954.0,1.25,-945.0,-840.0,0.0,0.25,1.650390456,4.942850524033441,0.0,0.4000000059604645,0.699999988079071,52.11000061035156,0.015625,-0.03790283203125,1.0543212890625,36.400001525878906,0.0,-34.0,1.70513916015625,-1.2916259765625,Closing,0.0,0.0,-732.0,0.0,0.0,0.0,0.0,0.0,
1.7245659999999916,0.0,0.0,17395.0,0.5,907.5,840.0,0.0,0.25,0.833740149,4.916221157072714,0.0,-11902.0,0.75,-915.0,-840.0,0.0,0.125,0.5163573690000001,4.94763772014904,0.0,-7366.0,2.75,915.0,840.0,0.0,0.125,3.35693325,4.924343672777812,0.0,-7954.0,1.25,-892.5,-840.0,0.0,0.25,1.6320799110000002,4.941886472680833,0.0,0.38999998569488525,0.44999998807907104,52.0099983215332,0.08917236328125,0.0216064453125,1.05926513671875,36.400001525878906,0.0,61.0,1.7002410888671875,-1.285491943359375,Closing,0.0,0.0,-732.0,0.0,0.0,0.0,0.0,0.0,
1.8225840000000026,0.0,0.0,17540.0,0.5,892.5,840.0000000000001,0.0,0.25,0.837402258,4.914988092232154,0.0,-12047.0,0.75,-885.0,-840.0000000000001,0.0,0.25,0.5151366660000001,4.946396775545121,0.0,-7221.0,2.75,877.5,840.0000000000001,0.0,0.125,3.3630367650000004,4.923108570683797,0.0,-8096.0,1.375,-870.0,-840.0000000000001,0.0,0.25,1.627197099,4.940646970579359,0.0,0.3499999940395355,0.3499999940395355,51.83000183105469,0.02685546875,-0.050048828125,0.60595703125,36.400001525878906,0.0,-28.0,1.692779541015625,-1.2816314697265625,Closing,0.0,0.0,-732.0,0.0,0.0,0.0,0.0,0.125,
1.938491000000009,0.0,0.0,17683.0,0.5,862.5,840.0,0.0,0.25,0.837402258,4.912522014815044,0.0,-12188.0,1.125,-840.0,-840.0,0.0,0.25,0.5163573690000001,4.94391493893528,0.0,-7081.0,2.75,855.0,840.0,0.0,0.125,3.358153953,4.9206384188461305,0.0,-8235.0,1.625,-840.0,-840.0,0.0,0.25,1.627197099,4.938168018913269,0.0,0.38999998569488525,0.07999999821186066,51.5,-0.03643798828125,-0.05108642578125,1.16650390625,36.400001525878906,0.0,-70.0,1.682861328125,-1.2790985107421875,Closing,0.0,0.0,-732.0,0.0,0.0,0.0,0.0,0.125,
2.064606,0.0,0.0,17819.0,0.75,840.0,840.0,0.0,0.25,0.837402258,4.9080007596449855,0.0,-12319.0,1.25,-817.5,-840.0,0.0,0.25,0.5151366660000001,4.93936479118824,0.0,-6944.0,2.875,832.5,840.0,0.0,0.125,3.358153953,4.9161096937179565,0.0,-8369.0,1.875,-810.0,-840.0,0.0,0.25,1.6333006140000002,4.933623160362243,0.0,0.4000000059604645,-0.029999999329447746,51.290000915527344,0.01483154296875,0.027587890625,1.11279296875,36.380001068115234,0.0,25.0,1.672821044921875,-1.2761688232421875,Closing,0.0,0.0,-732.0,0.0,0.0,0.0,0.0,0.125,
2.169484999999986,0.0,0.0,17954.0,0.75,840.0,840.0,0.0,0.375,0.8300780400000001,4.905123625771681,0.0,-12452.0,1.5,-817.5,-840.0,0.0,0.25,0.5163573690000001,4.93646927131176,0.0,-6812.0,2.875,825.0,840.0,0.0,0.125,3.358153953,4.913227806282044,0.0,-8498.0,2.25,-795.0,-840.0,0.0,0.25,1.625976396,4.930731006304423,0.0,0.46000000834465027,-0.18000000715255737,50.9900016784668,-0.10626220703125,-0.0042724609375,1.23077392578125,36.380001068115234,0.0,-75.0,1.660675048828125,-1.27294921875,Closing,0.0,0.0,-732.0,0.0,0.0,0.0,0.0,0.125,
2.2749640000000073,0.0,0.0,18087.0,0.75,832.5,840.0,0.0,0.25,0.8178710100000001,4.901013427057817,-0.004882811999999959,-12583.0,1.625,-817.5,-840.0,0.0,0.25,0.5151366660000001,4.93233280683136,0.0,-6679.0,3.0,817.5,840.0,0.0,0.125,3.35693325,4.909110816752116,0.0,-8627.0,2.5,-795.0,-840.0,0.0,0.25,1.627197099,4.926599350145128,0.0,0.4399999976158142,-0.18000000715255737,50.779998779296875,0.05157470703125,-0.00103759765625,1.14825439453125,36.380001068115234,0.0,27.0,1.6573486328125,-1.271942138671875,Closing,0.0,0.0,-732.0,0.0,0.0,0.0,0.0,0.125,
2.3789869999999937,0.0,0.0,18224.0,0.75,847.5,840.0,0.0,0.25,0.7885741380000001,4.897725236728319,4.913940455,-12714.0,1.625,-817.5,-840.0,0.0,0.25,0.5163573690000001,4.92902360368824,0.0,-6549.0,3.125,810.0,840.0,0.0,0.125,3.34472622,4.905817193717957,0.0,-8754.0,2.625,-802.5,-840.0,0.0,0.25,1.6308592080000002,4.923293993695577,0.0,0.4000000059604645,-0.30000001192092896,50.58000183105469,-0.02630615234375,0.023681640625,1.1119384765625,36.380001068115234,0.0,0.0,1.656494140625,-1.272186279296875,Closing,0.0,0.0,-732.0,0.0,0.0,0.0,0.0,0.125,
2.476222000000009,0.0,0.0,18360.0,0.75,840.0,839.9999999999999,0.0,0.25,0.8056639800000001,4.895396143287267,-0.009765623999999917,-12846.0,1.875,-817.5,-839.9999999999999,0.0,0.25,0.5163573690000001,4.92667962643528,0.0,-6414.0,3.0,832.5,839.9999999999999,0.0,0.125,3.338622705,4.903484252179464,-0.007324217999999938,-8886.0,2.625,-817.5,-839.9999999999999,0.0,0.25,1.627197099,4.920952741135491,-0.0012207030000004337,0.3700000047683716,-0.23000000417232513,50.41999816894531,0.06201171875,-0.00238037109375,0.748046875,36.380001068115234,0.0,35.0,1.6557159423828125,-1.272430419921875,Closing,0.0,0.0,-732.0,0.0,0.0,0.0,0.0,0.0,
2.561426999999996,0.0,0.0,18360.0,0.5,870.0,840.0,0.0,0.25,0.8044432770000001,4.893203981558259,0.0,-12846.0,1.75,-832.5,-840.0,0.0,0.25,0.5163573690000001,4.9244734559412,0.0,-6414.0,2.875,870.0,840.0,0.0,0.125,3.338622705,4.901288468589783,0.0,-8886.0,3.0,-802.5,-840.0,0.0,0.25,1.622314287,4.918749135144552,0.0,0.4699999988079071,-0.4000000059604645,50.209999084472656,-0.07275390625,0.0296630859375,1.48504638671875,36.36000061035156,0.0,-26.0,1.6546173095703125,-1.272979736328125,Closing,0.0,0.0,-732.0,0.0,0.0,0.0,0.0,0.125,
2.6686929999999993,0.0,0.0,18500.0,0.5,855.0,840.0,0.0,0.25,0.8044432770000001,4.889915843492773,0.0,-12981.0,1.75,-832.5,-840.0,0.0,0.25,0.506591745,4.92116430539608,0.0,-6271.0,2.75,870.0,840.0,0.0,0.125,3.338622705,4.897994897905986,0.0,-9019.0,2.875,-825.0,-840.0,0.0,0.25,1.627197099,4.915443831231859,0.0,0.46000000834465027,-0.25999999046325684,50.060001373291016,0.0377197265625,-0.02825927734375,1.1002197265625,36.36000061035156,0.0,-1.0,1.6526947021484375,-1.273193359375,Closing,0.0,0.0,-732.0,0.0,0.0,0.0,0.0,0.0,
2.7878099999999977,0.0,0.0,18636.0,0.5,847.5,840.0,0.0,0.25,0.8044432770000001,4.887997754243904,0.0,-13115.0,1.5,-840.0,-840.0,0.0,0.25,0.48706049700000004,4.91923395881176,0.0,-6137.0,3.0,825.0,840.0,0.0,0.125,3.338622705,4.896073639615377,0.0,-9151.0,2.625,-825.0,-840.0,0.0,0.25,1.617431475,4.9135157285266455,0.0,0.4000000059604645,-0.4399999976158142,49.939998626708984,-0.06298828125,-0.03668212890625,1.26641845703125,36.36000061035156,0.0,-69.0,1.65228271484375,-1.272308349609375,Closing,0.0,0.0,-732.0,0.0,0.0,0.0,0.0,0.125,
2.905130999999994,0.0,0.0,18771.0,0.75,825.0,840.0000000000001,0.0,0.25,0.8142089010000001,4.886627653163274,0.0,-13250.0,1.375,-855.0,-840.0000000000001,0.0,0.125,0.47607417,4.91785510225296,0.0,-6006.0,3.375,787.5,840.0000000000001,0.0,0.125,3.334960596,4.894701274871826,0.0,-9284.0,2.875,-825.0,-840.0000000000001,0.0,0.25,1.6113279600000001,4.912138474782308,0.0,0.3400000035762787,-0.4000000059604645,49.9900016784668,-0.00848388671875,-0.09918212890625,1.089111328125,36.36000061035156,0.0,-81.0,1.650726318359375,-1.272064208984375,Closing,0.0,0.0,-732.0,0.0,0.0,0.0,0.0,0.125,
3.013423999999999,0.0,0.0,18901.0,0.0,727.5,0.0,0.0,0.125,0.8032225740000001,0.01,0.0,-13386.0,0.25,-735.0,-0.0,0.0,0.25,0.465087843,0.01,0.0,-5879.0,0.5,705.0,0.0,0.0,0.0,3.3679195770000003,0.01,0.0,-9418.0,0.625,-765.0,-0.0,0.0,0.25,1.588134603,0.01,0.0,0.4099999964237213,-0.8399999737739563,49.939998626708984,-0.42718505859375,-0.333251953125,0.9249267578125,36.380001068115234,0.0,-526.0,1.6493377685546875,-1.271148681640625,Closing,0.0,0.0,-732.0,0.0,0.0,0.0,0.0,0.0,
3.0959100000000035,0.0,0.0,18990.0,0.125,570.0,0.0,0.0,0.25,0.8044432770000001,0.01,0.0,-13470.0,0.25,-540.0,-0.0,0.0,0.25,0.48095698200000003,0.01,0.0,-5796.0,0.375,540.0,0.0,0.0,0.0,3.3679195770000003,0.01,0.0,-9510.0,0.125,-592.5,-0.0,0.0,0.25,1.622314287,0.01,0.0,0.3499999940395355,-1.6200000047683716,49.86000061035156,-0.16925048828125,0.11016845703125,0.89642333984375,36.380001068115234,0.0,-12.0,1.640594482421875,-1.2630767822265625,Closing,0.0,0.0,-732.0,0.0,0.0,0.0,0.0,0.125,
3.2135719999999854,0.0,0.0,19063.0,0.125,435.0,0.0,0.0,0.125,0.8032225740000001,0.01,0.0,-13544.0,0.75,-442.5,-0.0,0.0,0.25,0.48583979400000005,0.01,0.0,-5722.0,0.25,412.5,0.0,0.0,0.0,3.3679195770000003,0.01,0.0,-9586.0,0.125,-420.0,-0.0,0.0,0.125,1.6308592080000002,0.01,0.0,0.3700000047683716,-2.240000009536743,49.970001220703125,-0.17901611328125,-0.040283203125,0.93304443359375,36.380001068115234,0.0,-127.0,1.6259765625,-1.2471160888671875,Closing,0.0,0.0,-732.0,0.0,0.0,0.0,0.0,0.125,
3.3279549999999873,0.0,0.0,19100.0,0.125,277.5,0.0,0.0,0.25,0.8044432770000001,0.01,-0.0012207030000004337,-13582.0,0.5,-285.0,-0.0,0.0,0.25,0.482177685,0.01,0.0,-5683.0,0.125,255.0,0.0,0.0,0.0,3.3679195770000003,0.01,0.0,-9626.0,0.125,-255.0,-0.0,0.0,0.125,1.6320799110000002,0.01,-4.948234375999999,0.3499999940395355,-2.6500000953674316,50.0099983215332,-0.15081787109375,0.0303955078125,1.10107421875,36.380001068115234,0.0,-46.0,1.611236572265625,-1.2318878173828125,Closing,0.0,0.0,-732.0,0.0,0.0,0.0,0.0,0.0,
3.4032090000000026,0.0,0.0,19100.0,0.125,127.5,0.0,0.0,0.125,0.8044432770000001,0.01,0.0,-13582.0,0.25,-105.0,-0.0,0.0,0.25,0.48706049700000004,0.01,0.0,-5683.0,0.125,105.0,0.0,0.0,0.0,3.3679195770000003,0.01,0.0,-9626.0,0.25,-112.5,-0.0,0.0,0.125,1.6320799110000002,0.01,0.0,0.33000001311302185,-3.0,50.040000915527344,-0.0955810546875,-0.0023193359375,0.9688720703125,36.380001068115234,0.0,-34.0,1.590423583984375,-1.2101593017578125,Closing,0.0,0.0,-732.0,0.0,0.0,0.0,0.0,0.0,
3.4914159999999974,0.0,0.0,19108.0,0.125,7.5,0.0,0.0,0.25,0.8044432770000001,0.01,0.0,-13590.0,0.125,-7.5,-0.0,0.0,0.25,0.48583979400000005,0.01,0.0,-5675.0,0.375,0.0,0.0,0.0,0.0,3.3679195770000003,0.01,0.0,-9635.0,0.375,0.0,-0.0,0.0,0.125,1.6296385050000002,0.01,0.0,0.3199999928474426,-3.0199999809265137,50.08000183105469,-0.00665283203125,-0.0018310546875,1.014892578125,36.380001068115234,0.0,24.0,1.5792236328125,-1.1986541748046875,Closing,0.0,0.0,-732.0,0.0,0.0,0.0,0.0,0.0,
3.608929999999993,0.0,0.0,19108.0,0.125,0.0,0.0,0.0,0.125,0.8044432770000001,0.01,0.0,-13591.0,0.125,0.0,-0.0,0.0,0.25,0.48706049700000004,0.01,0.0,-5674.0,0.375,0.0,0.0,0.0,0.0,3.3679195770000003,0.01,0.0,-9635.0,0.375,0.0,-0.0,0.0,0.125,1.6320799110000002,0.01,0.0,0.33000001311302185,-2.75,50.04999923706055,0.0023193359375,-3.662109375E-4,1.037353515625,36.380001068115234,0.0,28.0,1.58123779296875,-1.2011566162109375,Closing,0.0,0.0,-732.0,0.0,0.0,0.0,0.0,0.125,
3.734253999999986,0.0,0.0,19108.0,0.375,45.0,420.0,0.0,2.125,1.0290526290000002,0.5498168668524888,0.0,-13591.0,0.375,-105.0,-420.0,0.0,8.0,0.863037021,1.9285545897722227,0.0,-5674.0,1.875,0.0,420.0,0.0,1.25,3.1152340560000003,4.389674732977289,0.0,-9635.0,1.5,-97.5,-420.0,0.0,3.5,1.169433474,3.0316872062785585,0.0,0.36000001430511475,-2.3499999046325684,50.08000183105469,0.05303955078125,-0.00872802734375,0.990478515625,36.380001068115234,0.0,48.0,1.5871734619140625,-1.208709716796875,Closing,0.0,0.0,-732.0,0.0,0.0,0.0,0.0,0.0,
3.8671209999999845,0.0,0.0,19123.0,0.75,75.0,420.0,0.0,0.5,1.2951658830000001,0.5498168668524888,0.0,-13616.0,0.625,-135.0,-420.0,0.0,1.25,1.593017415,1.9285545897722227,0.0,-5671.0,3.0,15.0,420.0,0.0,0.25,2.8442379900000003,4.389674732977289,0.0,-9649.0,2.125,-15.0,-420.0,0.0,1.875,0.49316401200000004,3.0316872062785585,0.0,0.3499999940395355,-2.049999952316284,50.0,-6.103515625E-4,-0.00115966796875,1.04449462890625,36.380001068115234,0.0,17.0,1.595306396484375,-1.2188873291015625,Closing,0.0,0.0,-732.0,0.0,0.0,0.0,0.0,0.0,
3.9555529999999854,0.0,0.0,19138.0,1.125,135.0,420.0,0.0,0.25,1.357421736,0.5498168668524888,0.0,-13641.0,1.75,-157.5,-420.0,0.0,1.0,2.420654049,1.9285545897722227,0.0,-5664.0,4.125,172.5,420.0,0.0,0.125,2.756347374,4.389674732977289,0.0,-9650.0,3.625,-45.0,-420.0,0.0,1.75,4.704589362,3.0316872062785585,0.0,0.3199999928474426,-1.9500000476837158,48.779998779296875,-0.04156494140625,0.00830078125,1.15374755859375,36.380001068115234,0.0,0.0,1.5995025634765625,-1.231597900390625,Closing,0.0,0.0,-732.0,0.0,0.0,0.0,0.0,0.125,
4.081405999999988,0.0,0.0,19169.0,1.25,225.0,420.0,0.0,0.125,1.358642439,0.5498168668524888,0.0,-13668.0,2.0,-225.0,-420.0,0.0,0.125,3.0627438270000003,1.9285545897722227,0.0,-5624.0,3.125,262.5,420.0,0.0,0.0,2.717284878,4.389674732977289,0.0,-9667.0,3.625,-210.0,-420.0,0.0,0.25,4.30908159,3.0316872062785585,0.0,0.5099999904632568,-2.259999990463257,45.91999816894531,-0.060546875,-0.00457763671875,1.13861083984375,36.380001068115234,0.0,-21.0,1.598388671875,-1.2444000244140625,Closing,0.0,0.0,-732.0,0.0,0.0,0.0,0.0,0.0,
4.1950069999999835,0.0,0.0,19209.0,2.25,187.5,420.0,0.0,0.125,1.357421736,0.5498168668524888,0.0,-13718.0,2.875,-232.5,-420.0,0.0,0.875,2.9089352490000002,1.9285545897722227,0.0,-5587.0,7.625,75.0,420.0,0.0,0.125,2.731933314,4.389674732977289,0.0,-9712.0,4.25,-217.5,-420.0,0.0,0.375,4.462890168,3.0316872062785585,0.0,0.44999998807907104,-2.049999952316284,43.84000015258789,0.04034423828125,0.134521484375,1.12969970703125,36.380001068115234,0.0,145.0,1.5955047607421875,-1.257904052734375,Closing,0.0,0.0,-732.0,0.0,0.0,0.0,0.0,0.125,
4.330070000000007,0.0,0.0,19210.0,5.0,22.5,420.0,0.0,0.125,1.359863142,0.5498168668524888,0.0,-13732.0,6.25,-45.0,-420.0,0.0,1.125,2.607421608,1.9285545897722227,-0.1977538860000001,-5584.0,10.75,7.5,420.0,0.0,0.125,2.7380368290000003,4.389674732977289,0.0,-9735.0,6.875,-97.5,-420.0,0.0,0.375,4.652099133,3.0316872062785585,0.0,0.47999998927116394,-1.9500000476837158,43.16999816894531,-0.01220703125,-0.02203369140625,1.0582275390625,36.380001068115234,0.0,-3.0,1.5974578857421875,-1.2717742919921875,Closing,0.0,0.0,-732.0,0.0,0.0,0.0,0.0,0.125,
4.45320199999999,0.0,0.0,19225.0,5.375,142.5,420.0,0.0,0.125,1.3464354090000001,0.5498168668524888,0.0,-13753.0,6.875,-217.5,-420.0,0.0,0.25,2.413329831,1.9285545897722227,0.0,-5577.0,11.0,135.0,420.0,0.0,0.125,2.7368161260000003,4.389674732977289,0.0,-9758.0,6.125,-285.0,-420.0,0.0,0.25,4.774169433,3.0316872062785585,0.0,0.5600000023841858,-1.7300000190734863,40.720001220703125,0.026611328125,0.0531005859375,1.05804443359375,36.380001068115234,0.0,72.0,1.599029541015625,-1.2850799560546875,Closing,0.0,0.0,-732.0,0.0,0.0,0.0,0.0,0.125,
4.551158999999985,0.0,0.0,19276.0,3.25,450.0,420.0,0.0,0.25,1.357421736,0.5498168668524888,0.0,-13811.0,3.875,-435.0,-420.0,0.0,0.125,2.386474365,1.9285545897722227,0.0,-5531.0,6.875,360.0,420.0,0.0,0.125,2.7429196410000003,4.389674732977289,0.0,-9821.0,3.875,-480.0,-420.0,0.0,0.25,4.752196779,3.0316872062785585,0.0,0.49000000953674316,-1.1799999475479126,34.11000061035156,-0.031005859375,-0.003662109375,0.99072265625,36.41999816894531,0.0,-15.0,1.605926513671875,-1.306610107421875,Closing,0.0,0.0,-732.0,0.0,0.0,0.0,0.0,0.125,
4.677625999999989,0.0,0.0,19366.0,2.0,570.0,420.0,0.0,0.25,1.358642439,0.5498168668524888,0.0,-13893.0,2.25,-525.0,-420.0,0.0,0.25,2.3815915530000002,1.9285545897722227,-0.024414059999999793,-5442.0,4.25,652.5,420.0,0.0,0.0,2.756347374,4.389674732977289,0.0,-9908.0,2.5,-622.5,-420.0,0.0,0.25,4.682616708,3.0316872062785585,0.0,0.699999988079071,-1.059999942779541,27.200000762939453,0.01416015625,0.00872802734375,1.07025146484375,36.41999816894531,0.0,28.0,1.6085052490234375,-1.3250579833984375,Closing,0.0,0.0,-732.0,0.0,0.0,0.0,0.0,0.0,
4.791701000000001,0.0,0.0,19472.0,0.5,675.0,420.0,0.0,0.25,1.3720701720000001,0.5498168668524888,0.0,-13993.0,0.5,-637.5,-420.0,0.0,0.25,2.3828122560000002,1.9285545897722227,0.0,-5327.0,2.5,712.5,420.0,0.0,0.0,2.775878622,4.389674732977289,0.0,-10013.0,1.25,-660.0,-420.0,0.0,0.25,4.611815934,3.0316872062785585,0.0,0.8999999761581421,-1.0,16.6200008392334,-0.0946044921875,-0.0540771484375,1.14971923828125,36.41999816894531,0.0,-91.0,1.6058197021484375,-1.3493499755859375,Closing,0.0,0.0,-732.0,0.0,0.0,0.0,0.0,0.0,
4.9290130000000065,0.0,0.0,19580.0,0.125,652.5,420.0,0.0,0.25,1.358642439,0.5498168668524888,0.0,-14093.0,0.25,-592.5,-420.0,0.0,0.25,2.387695068,1.9285545897722227,0.006103514999999948,-5217.0,1.875,652.5,420.0,0.0,0.0,2.785644246,4.389674732977289,0.0,-10119.0,0.75,-622.5,-420.0,0.0,0.25,4.606933122,3.0316872062785585,0.0,0.8899999856948853,-0.8199999928474426,8.670000076293945,0.00164794921875,-4.2724609375E-4,1.04541015625,36.41999816894531,0.0,13.0,1.600921630859375,-1.37078857421875,Closing,0.0,0.0,-732.0,0.0,0.0,0.0,0.0,0.125,
5.055320000000007,0.0,0.0,19674.0,0.375,540.0,420.0,0.0,0.25,1.357421736,0.5498168668524888,0.0,-14181.0,0.25,-547.5,-420.0,0.0,0.25,2.386474365,1.9285545897722227,0.0,-5118.0,1.75,592.5,420.0,0.0,0.0,2.785644246,4.389674732977289,0.0,-10215.0,0.75,-562.5,-420.0,0.0,0.25,4.616698746,3.0316872062785585,0.0,0.800000011920929,-0.800000011920929,2.3299999237060547,-0.0325927734375,-6.103515625E-5,1.1417236328125,36.380001068115234,0.0,-17.0,1.6006927490234375,-1.3913421630859375,Closing,0.0,0.0,-732.0,0.0,0.0,0.0,0.0,0.125,
5.194326000000001,0.0,0.0,19759.0,0.125,495.0,0.0,0.0,1.75,1.201171752,0.01,0.0,-14271.0,0.125,-517.5,-0.0,0.0,8.625,2.183837667,0.01,0.0,-5026.0,0.375,480.0,0.0,0.0,2.125,2.980956726,0.01,0.0,-10302.0,0.375,-412.5,-0.0,0.0,6.5,0.029296872,0.01,0.0,0.7699999809265137,-0.6899999976158142,-4.050000190734863,0.01263427734375,0.0711669921875,1.2010498046875,36.380001068115234,0.0,23.0,1.6007080078125,-1.415679931640625,Closing,0.0,0.0,-732.0,0.0,0.0,0.0,0.0,0.125,
5.290758999999991,0.0,0.0,19836.0,0.125,382.5,0.0,0.0,0.375,0.826415931,0.01,0.0,-14341.0,0.125,-247.5,-0.0,0.0,1.125,1.3488768150000001,0.01,0.0,-4964.0,0.5,195.0,0.0,0.0,0.25,3.388671528,0.01,0.0,-10357.0,0.375,-352.5,-0.0,0.0,1.375,0.850829991,0.01,0.0,0.5699999928474426,-0.3199999928474426,-7.869999885559082,-0.039306640625,-0.04107666015625,1.02825927734375,36.380001068115234,0.0,-26.0,1.6031951904296875,-1.439666748046875,Closing,0.0,0.0,-732.0,0.0,0.0,0.0,0.0,0.0,
5.408359999999986,0.0,0.0,19876.0,0.125,180.0,0.0,0.0,0.25,0.747070236,0.01,0.0,-14354.0,0.0,0.0,-0.0,0.0,0.875,0.6970214130000001,0.01,0.0,-4946.0,1.125,45.0,0.0,0.0,0.125,3.498534798,0.01,0.0,-10400.0,0.375,-90.0,-0.0,0.0,1.0,1.522216641,0.01,0.0,0.6200000047683716,-0.8500000238418579,-8.109999656677246,-0.08050537109375,-0.007568359375,0.9849853515625,36.380001068115234,0.0,-62.0,1.5984649658203125,-1.446075439453125,Closing,0.0,0.0,-732.0,0.0,0.0,0.0,0.0,0.0,
5.515163,0.0,0.0,19880.0,0.125,0.0,0.0,0.0,0.25,0.78124992,0.01,0.0,-14354.0,0.0,0.0,-0.0,0.0,0.25,0.380859336,0.01,0.0,-4946.0,0.875,0.0,0.0,0.0,0.125,3.444823866,0.01,0.0,-10411.0,0.375,-82.5,-0.0,0.0,0.375,1.7626951320000002,0.01,0.0,0.5699999928474426,-0.8500000238418579,-7.909999847412109,0.01702880859375,0.055419921875,0.99078369140625,36.380001068115234,0.0,25.0,1.5900115966796875,-1.4470672607421875,Closing,0.0,0.0,-732.0,0.0,0.0,0.0,0.0,0.125,
5.615415999999997,0.0,0.0,19880.0,0.125,0.0,8.4,0.0,0.25,0.797119059,0.01,0.0,-14354.0,0.0,0.0,-8.4,0.0,0.25,0.424804644,0.01,0.0,-4944.0,1.375,7.5,8.4,0.0,0.125,3.4118648850000004,0.01,0.0,-10420.0,0.375,-52.5,-8.4,0.0,0.25,1.700439279,0.01,0.0,0.5600000023841858,-0.7200000286102295,-8.010000228881836,-0.00604248046875,-0.0052490234375,0.98297119140625,36.380001068115234,0.0,8.0,1.5852203369140625,-1.447540283203125,Closing,0.0,0.0,-732.0,0.0,0.0,0.0,0.0,0.0,
5.703470000000001,0.0,0.0,19880.0,0.125,0.0,8.4,0.0,0.25,0.8044432770000001,0.01,0.0,-14354.0,0.125,0.0,-8.4,0.0,0.25,0.46630854600000005,0.01,0.0,-4944.0,1.375,0.0,8.4,0.0,0.125,3.397216449,0.01,0.0,-10423.0,0.375,-15.0,-8.4,0.0,0.25,1.62353499,0.01,0.0,0.5899999737739563,-0.7400000095367432,-7.889999866485596,-0.02764892578125,0.010009765625,1.06365966796875,36.380001068115234,0.0,-13.0,1.5852203369140625,-1.4475555419921875,Closing,0.0,0.0,-732.0,0.0,0.0,0.0,0.0,0.125,
5.78801000000001,0.0,0.0,19880.0,0.125,0.0,8.4,0.0,0.25,0.8044432770000001,0.01,0.0,-14354.0,0.125,0.0,-8.4,0.0,0.25,0.49194330900000005,0.01,0.0,-4944.0,1.5,0.0,8.4,0.0,0.125,3.392333637,0.01,0.0,-10423.0,0.375,-15.0,-8.4,0.0,0.125,1.6076658510000001,0.01,0.0,0.5400000214576721,-0.7699999809265137,-7.940000057220459,-0.0277099609375,0.0125732421875,1.01593017578125,36.380001068115234,0.0,-14.0,1.5850830078125,-1.4477386474609375,Closing,0.0,0.0,-732.0,0.0,0.0,0.0,0.0,0.125,
5.888631999999983,0.0,0.0,19880.0,0.125,0.0,0.0,0.0,0.25,0.8044432770000001,0.01,-0.0012207030000004337,-14354.0,0.125,0.0,-0.0,0.0,0.125,0.496826121,0.01,0.023193357000000248,-4944.0,1.5,0.0,0.0,0.0,0.125,3.397216449,0.01,0.0,-10428.0,0.375,-22.5,-0.0,0.0,0.25,1.6076658510000001,0.01,-0.010986326999999463,0.550000011920929,-0.7799999713897705,-7.900000095367432,-0.013916015625,0.0013427734375,1.01751708984375,36.380001068115234,0.0,1.0,1.5850830078125,-1.4477386474609375,Closing,0.0,0.0,-732.0,0.0,0.0,0.0,0.0,0.0,
6.055687000000005,0.0,0.0,19880.0,0.5,45.0,420.0,0.0,0.25,0.8032225740000001,0.01,0.0,-14354.0,1.125,-75.0,-420.0,0.0,0.125,0.496826121,0.01,0.0,-4944.0,4.0,0.0,420.0,0.0,0.125,3.392333637,0.01,0.0,-10433.0,1.875,-15.0,-420.0,0.0,0.25,1.6076658510000001,0.01,0.0,0.5400000214576721,-0.6200000047683716,-7.889999866485596,0.01171875,0.02398681640625,1.0107421875,36.38999938964844,0.0,20.0,1.585784912109375,-1.4478607177734375,Closing,0.0,0.0,-732.0,0.0,0.0,0.0,0.0,0.0,
6.186889999999985,0.0,0.0,19924.0,1.125,127.5,441.18045136209577,0.0,0.5,0.74462883,4.688024513802235,0.0,-14397.0,2.625,-105.0,-441.18045136209577,0.0,0.25,0.510253854,4.717982811676883,0.0,-4930.0,6.125,75.0,441.18045136209577,0.0,0.5,3.305663724,4.695770006025355,0.0,-10451.0,2.75,-97.5,-441.18045136209577,0.0,0.5,1.589355306,4.712498520337161,0.0,0.5299999713897705,-0.2199999988079071,-7.889999866485596,0.08349609375,-0.0198974609375,0.91162109375,36.38999938964844,0.0,90.0,1.5927886962890625,-1.44793701171875,Closing,0.0,0.0,-732.0,0.0,0.0,0.0,0.0,0.125,
6.315168999999995,0.0,0.0,19964.0,1.25,240.0,432.4215651421655,0.0,0.25,0.6213378270000001,4.743643082438357,0.0,-14433.0,3.125,-225.0,-432.4215651421655,0.0,0.25,0.351562464,4.77395680457362,0.0,-4888.0,5.125,247.5,432.4215651421655,0.0,0.125,3.12499968,4.751480466926451,0.0,-10488.0,3.0,-217.5,-432.4215651421655,0.0,0.25,1.4526365700000001,4.768407447781828,0.0,0.33000001311302185,0.1599999964237213,-7.880000114440918,0.07025146484375,-0.05450439453125,0.9775390625,36.38999938964844,0.0,75.0,1.6060943603515625,-1.4489288330078125,Closing,0.0,0.0,-732.0,0.0,0.0,0.0,0.0,0.125,
6.458334999999992,0.0,0.0,20022.0,0.875,360.0,439.2543575481068,0.0,0.25,0.5932616580000001,4.698966387762507,0.0,-14491.0,2.625,-352.5,-439.2543575481068,0.0,0.25,0.275878878,4.728994608462525,0.0,-4827.0,4.75,375.0,439.2543575481068,0.0,0.0,3.0615231240000003,4.706729958005359,0.0,-10543.0,2.625,-352.5,-439.2543575481068,0.0,0.25,1.402587747,4.723497516757868,0.0,0.11999999731779099,0.46000000834465027,-8.039999961853027,0.01275634765625,-0.067138671875,1.0281982421875,36.38999938964844,0.0,14.0,1.62615966796875,-1.4536285400390625,Closing,0.0,0.0,-732.0,0.0,0.0,0.0,0.0,0.0,
6.588826000000001,0.0,0.0,20094.0,0.5,450.0,462.19571493713573,0.0,0.375,0.5798339250000001,4.594215514558043,0.0,-14561.0,1.75,-457.5,-462.19571493713573,0.0,0.25,0.260009739,4.6235743364840465,0.0,-4753.0,3.875,472.5,462.19571493713573,0.0,0.125,3.0627438270000003,4.601806016790823,0.0,-10610.0,2.375,-435.0,-462.19571493713573,0.0,0.25,1.36718736,4.618199787719395,0.0,0.05000000074505806,0.5099999904632568,-8.289999961853027,0.0074462890625,-0.02947998046875,1.13104248046875,36.439998626708984,0.0,1.0,1.6268310546875,-1.455780029296875,Closing,0.0,0.0,-732.0,0.0,0.0,0.0,0.0,0.125,
6.719242999999988,0.0,0.0,20174.0,0.375,502.5,470.5763524408792,0.0,0.25,0.495605418,4.5649621549754,0.0,-14639.0,1.375,-495.0,-470.5763524408792,0.0,0.25,0.181884747,4.594134036569153,0.0,-4675.0,3.5,502.5,470.5763524408792,0.0,0.125,3.023681331,4.572504325193601,0.0,-10688.0,2.0,-510.0,-470.5763524408792,0.0,0.25,1.2902830710000002,4.58879370988379,0.0,-0.14000000059604645,0.44999998807907104,-8.479999542236328,-0.02813720703125,0.01934814453125,1.1630859375,36.439998626708984,0.0,-40.0,1.628265380859375,-1.4573974609375,Closing,0.0,0.0,-732.0,0.0,0.0,0.0,0.0,0.0,
6.853506999999984,0.0,0.0,20260.0,0.125,525.0,433.99691499659593,0.0,0.375,0.482177685,4.732344317004644,0.0,-14723.0,0.75,-517.5,-433.99691499659593,0.0,0.25,0.16845701400000002,4.762585835639374,0.0,-4588.0,2.75,532.5,433.99691499659593,0.0,0.125,3.02734344,4.7401630338216245,0.0,-10770.0,1.0,-525.0,-433.99691499659593,0.0,0.375,1.2963865860000001,4.757049696722454,0.0,-0.3100000023841858,0.33000001311302185,-8.6899995803833,-0.03033447265625,0.0308837890625,0.99639892578125,36.439998626708984,0.0,-41.0,1.628204345703125,-1.4624481201171875,Closing,0.0,0.0,-732.0,0.0,0.0,0.0,0.0,0.125,
6.989924999999988,0.0,0.0,20334.0,0.375,450.0,433.99691499659593,0.0,0.375,0.6213378270000001,4.732344317004644,0.0,-14806.0,0.375,-525.0,-433.99691499659593,0.0,0.25,0.274658175,4.762585835639374,0.0,-4505.0,2.625,495.0,433.99691499659593,0.0,0.125,3.135986007,4.7401630338216245,0.0,-10855.0,0.75,-525.0,-433.99691499659593,0.0,0.375,1.3964842320000002,4.757049696722454,0.0,0.03999999910593033,0.20000000298023224,-8.819999694824219,-0.04193115234375,0.04998779296875,1.04461669921875,36.439998626708984,0.0,-52.0,1.6263275146484375,-1.4647216796875,Closing,0.0,0.0,-732.0,0.0,0.0,0.0,0.0,0.125,
7.1266929999999995,0.0,0.0,20412.0,0.125,495.0,470.5763524408792,0.0,0.375,0.6335448570000001,4.5649621549754,0.0,-14890.0,0.375,-502.5,-470.5763524408792,0.0,0.25,0.302734344,4.594134036569153,0.0,-4426.0,2.875,502.5,470.5763524408792,0.0,0.25,3.1140133530000003,4.572504325193601,0.0,-10939.0,0.75,-510.0,-470.5763524408792,0.0,0.25,1.4196775890000002,4.58879370988379,0.0,0.25,0.10999999940395355,-8.930000305175781,-0.023193359375,0.023681640625,1.083251953125,36.400001525878906,0.0,-28.0,1.622833251953125,-1.4622039794921875,Closing,0.0,0.0,-732.0,0.0,0.0,0.0,0.0,0.0,
7.25450099999999,0.0,0.0,20566.0,0.125,480.0,429.54249080416946,0.0,0.375,0.509033151,4.766477385014434,0.0,-15043.0,0.375,-465.0,-429.54249080416946,0.0,0.25,0.23193357,4.796937027213962,0.0,-4264.0,2.25,502.5,429.54249080416946,0.0,0.125,3.028564143,4.774352496035848,0.0,-11093.0,0.75,-465.0,-429.54249080416946,0.0,0.375,1.363525251,4.7913609576847485,0.0,-0.019999999552965164,-0.019999999552965164,-9.050000190734863,-0.050048828125,-0.04815673828125,1.0506591796875,36.400001525878906,0.0,-41.0,1.6163330078125,-1.4643096923828125,Closing,0.0,0.0,-732.0,0.0,0.0,0.0,0.0,0.125,
7.392714999999996,0.0,0.0,20640.0,0.125,457.5,428.24059247000696,0.0,0.25,0.578613222,4.778004792092225,0.0,-15116.0,0.375,-457.5,-428.24059247000696,0.0,0.25,0.273437472,4.808538098901216,0.0,-4193.0,2.5,442.5,428.24059247000696,0.0,0.125,3.1103512440000003,4.785898948543459,0.0,-11162.0,1.0,-420.0,-428.24059247000696,0.0,0.25,1.4208982920000002,4.802948544020418,0.0,0.14000000059604645,-0.1899999976158142,-9.210000038146973,-0.05419921875,0.0135498046875,1.12005615234375,36.400001525878906,0.0,-51.0,1.606903076171875,-1.467376708984375,Closing,0.0,0.0,-732.0,0.0,0.0,0.0,0.0,0.125,
7.524040000000008,0.0,0.0,20709.0,0.125,427.5,425.9162806985224,0.0,0.375,0.6457518870000001,4.801258457807891,0.0,-15187.0,0.375,-435.0,-425.9162806985224,0.0,0.25,0.357665979,4.831940364574527,0.0,-4129.0,2.875,397.5,425.9162806985224,0.0,0.125,3.2043453750000004,4.809191033658689,0.0,-11223.0,1.25,-375.0,-425.9162806985224,0.0,0.25,1.483154145,4.826323606363813,0.0,0.25,-0.23000000417232513,-9.210000038146973,0.0093994140625,0.102783203125,0.9849853515625,36.400001525878906,0.0,-2.0,1.596282958984375,-1.466461181640625,Closing,0.0,0.0,-732.0,0.0,0.0,0.0,0.0,0.125,
7.654845000000001,0.0,0.0,20776.0,0.375,412.5,459.5482360852476,0.0,0.375,0.631103451,4.604198597334031,0.058593743999999504,-15255.0,0.5,-420.0,-459.5482360852476,0.0,0.25,0.37597652400000003,4.633621215037261,0.06713866499999988,-4063.0,3.625,405.0,459.5482360852476,0.0,0.25,3.2031246720000004,4.611805593484404,0.0,-11304.0,1.0,-510.0,-459.5482360852476,0.0,0.5,1.4538572730000001,4.62823498755074,0.0,0.3199999928474426,-0.25999999046325684,-9.130000114440918,-0.0172119140625,0.04656982421875,1.04901123046875,36.400001525878906,0.0,-18.0,1.5913543701171875,-1.4659271240234375,Closing,0.0,0.0,-732.0,0.0,0.0,0.0,0.0,0.125,
7.786641000000003,0.0,0.0,20848.0,0.375,442.5,454.4800896783736,0.0,0.25,0.5041503390000001,4.624505442297681,-0.07446288299999981,-15322.0,0.75,-405.0,-454.4800896783736,0.0,0.25,0.21118161900000001,4.654057828629151,-0.058593743999999504,-3999.0,3.5,412.5,454.4800896783736,0.0,0.125,3.043212579,4.632145989149268,-0.06835936800000031,-11371.0,1.25,-405.0,-454.4800896783736,0.0,0.25,1.2902830710000002,4.648647845154657,-0.10253905200000002,0.05000000074505806,-0.33000001311302185,-9.170000076293945,-0.025146484375,-0.11114501953125,1.0985107421875,36.400001525878906,0.0,0.0,1.5900421142578125,-1.4674072265625,Closing,0.0,0.0,-732.0,0.0,0.0,0.0,0.0,0.125,
7.923138000000006,0.0,0.0,20913.0,0.375,412.5,454.4800896783736,0.0,0.125,0.47241206100000005,4.624505442297681,0.0,-15389.0,0.875,-420.0,-454.4800896783736,0.0,0.125,0.14892576600000001,4.654057828629151,0.0,-3939.0,4.0,367.5,454.4800896783736,0.0,0.0,2.9602047750000002,4.632145989149268,0.0,-11437.0,1.375,-412.5,-454.4800896783736,0.0,0.25,1.276855338,4.648647845154657,0.0,-0.05999999865889549,-0.3499999940395355,-9.3100004196167,0.03790283203125,-0.0086669921875,0.9344482421875,36.400001525878906,0.0,44.0,1.5898284912109375,-1.4726104736328125,Closing,0.0,0.0,-732.0,0.0,0.0,0.0,0.0,0.125,
8.056462,0.0,0.0,20986.0,0.125,450.0,449.7228150222785,0.0,0.25,0.477294873,4.645256047916777,0.0,-15455.0,0.875,-420.0,-449.7228150222785,0.0,0.25,0.167236311,4.674941038679471,0.0,-3871.0,3.75,412.5,449.7228150222785,0.0,0.125,2.984618835,4.652930878645074,0.0,-11507.0,1.625,-412.5,-449.7228150222785,0.0,0.25,1.300048695,4.6695067800830445,0.0,-0.009999999776482582,-0.3499999940395355,-9.489999771118164,0.017822265625,0.044677734375,1.0718994140625,36.400001525878906,0.0,16.0,1.5897216796875,-1.47271728515625,Closing,0.0,0.0,-732.0,0.0,0.0,0.0,0.0,0.125,
8.18980900000001,0.0,0.0,21057.0,0.375,442.5,449.7228150222785,0.0,0.25,0.506591745,4.645256047916777,0.009765623999999917,-15526.0,0.75,-450.0,-449.7228150222785,0.0,0.25,0.214843728,4.674941038679471,0.03173827799999973,-3803.0,4.0,427.5,449.7228150222785,0.0,0.125,3.0480953910000004,4.652930878645074,0.0402831990000001,-11580.0,1.375,-465.0,-449.7228150222785,0.0,0.25,1.3232420520000001,4.6695067800830445,0.028076169000000206,0.07000000029802322,-0.25999999046325684,-9.630000114440918,0.00518798828125,0.03387451171875,0.97698974609375,36.43000030517578,0.0,4.0,1.5898284912109375,-1.472442626953125,Closing,0.0,0.0,-732.0,0.0,0.0,0.0,0.0,0.0,
8.31817300000001,0.0,0.0,21128.0,0.125,442.5,420.19691087185544,0.0,0.5,0.6347655600000001,4.908218127627576,0.0,-15599.0,0.625,-435.0,-420.19691087185544,0.0,0.5,0.29052731400000004,4.939583548236683,0.0,-3732.0,3.375,442.5,420.19691087185544,0.0,0.375,3.188476236,4.916327420833059,0.0,-11651.0,0.75,-465.0,-420.19691087185544,0.0,0.375,1.405029153,4.933841663122481,0.0,0.12999999523162842,-0.25,-9.880000114440918,0.04095458984375,0.01629638671875,0.9075927734375,36.43000030517578,0.0,41.0,1.5894317626953125,-1.47161865234375,Closing,0.0,0.0,-732.0,0.0,0.0,0.0,0.0,0.0,
8.45414499999999,0.0,0.0,21201.0,0.125,442.5,420.19691087185544,0.0,0.375,0.8447264760000001,0.02403287237242459,0.0,-15670.0,0.5,-450.0,-420.19691087185544,0.0,0.25,0.5017089330000001,0.024186451763316588,0.0,-3598.0,3.875,397.5,420.19691087185544,0.0,0.125,3.3776852010000002,0.024072579166941513,0.0,-11799.0,0.75,-457.5,-420.19691087185544,0.0,0.375,1.6369627230000001,0.024158336877519233,0.0,0.5899999737739563,-0.23000000417232513,-9.989999771118164,-0.03387451171875,0.06121826171875,1.00897216796875,36.43000030517578,0.0,-38.0,1.588226318359375,-1.4676055908203125,Closing,0.0,0.0,-732.0,0.0,0.0,0.0,0.0,0.125,
8.591946999999985,0.0,0.0,21339.0,0.125,427.5,435.66151586552843,0.0,0.625,0.8813475660000001,4.721129584569014,-4.779663125,-15813.0,0.5,-435.0,-435.66151586552843,0.0,0.5,0.6604003230000001,4.751299436706716,0.2258300550000003,-3534.0,4.5,397.5,435.66151586552843,0.0,0.5,3.4216305090000003,4.728929772553091,-4.791474234000001,-11868.0,1.0,-435.0,-435.66151586552843,0.0,0.625,1.7675779440000001,4.745776417358559,-4.746818381,0.7200000286102295,-0.3700000047683716,-10.109999656677246,-0.04443359375,0.0682373046875,1.081787109375,36.43000030517578,0.0,-46.0,1.5850982666015625,-1.4570770263671875,Closing,0.0,0.0,-732.0,0.0,0.0,0.0,0.0,0.0,
8.722991999999998,0.0,0.0,21413.0,0.125,457.5,432.4215651421655,0.0,0.375,0.681152274,4.743643082438357,0.0,-15880.0,0.625,-412.5,-432.4215651421655,0.0,0.25,0.45288081300000005,4.77395680457362,0.0,-3459.0,3.375,465.0,432.4215651421655,0.0,0.25,3.2080074840000004,4.751480466926451,0.0,-11933.0,1.25,-397.5,-432.4215651421655,0.0,0.5,1.5014646900000002,4.768407447781828,0.0,0.5099999904632568,-0.44999998807907104,-10.25,-0.04412841796875,-0.08935546875,0.9544677734375,36.400001525878906,0.0,-18.0,1.5850372314453125,-1.4461669921875,Closing,0.0,0.0,-732.0,0.0,0.0,0.0,0.0,0.125,
8.853160000000004,0.0,0.0,21485.0,0.125,450.0,432.4215651421655,0.0,0.25,0.574951113,4.743643082438357,0.0,-15948.0,0.75,-412.5,-432.4215651421655,0.0,0.25,0.234374976,4.77395680457362,0.0,-3383.0,3.125,472.5,432.4215651421655,0.0,0.0,3.067626639,4.751480466926451,0.0,-12001.0,1.25,-420.0,-432.4215651421655,0.0,0.125,1.262206902,4.768407447781828,0.0,0.05000000074505806,-0.5299999713897705,-10.470000267028809,-0.05120849609375,-0.08245849609375,1.08538818359375,36.400001525878906,0.0,-25.0,1.5850677490234375,-1.444366455078125,Closing,0.0,0.0,-732.0,0.0,0.0,0.0,0.0,0.125,
8.989981,0.0,0.0,21555.0,0.125,435.0,433.99691499659593,0.0,0.25,0.57373041,4.732344317004644,-0.06958007099999985,-16013.0,1.0,-405.0,-433.99691499659593,0.0,0.25,0.250244115,4.762585835639374,0.0,-3308.0,3.0,465.0,433.99691499659593,0.0,0.125,3.084716481,4.7401630338216245,0.0,-12067.0,1.25,-420.0,-433.99691499659593,0.0,0.25,1.304931507,4.757049696722454,0.0,-0.019999999552965164,-0.5899999737739563,-10.970000267028809,0.0191650390625,0.04217529296875,0.9876708984375,36.400001525878906,0.0,20.0,1.584716796875,-1.4487457275390625,Closing,0.0,0.0,-732.0,0.0,0.0,0.0,0.0,0.0,
9.118967000000005,0.0,0.0,21626.0,0.125,435.0,421.2291827664158,0.0,0.625,0.68359368,0.059983937446018626,0.0,-16076.0,1.0,-405.0,-421.2291827664158,0.0,0.5,0.332031216,0.060367258109212986,0.0,-3234.0,3.0,435.0,421.2291827664158,0.0,0.375,3.2666012280000003,0.060083042115721685,0.0,-12134.0,1.25,-420.0,-421.2291827664158,0.0,0.625,1.560058434,0.06029708582498342,0.0,0.14000000059604645,-0.6100000143051147,-11.329999923706055,-0.04669189453125,0.06683349609375,0.97808837890625,36.400001525878906,0.0,-48.0,1.5846710205078125,-1.451263427734375,Closing,0.0,0.0,-732.0,0.0,0.0,0.0,0.0,0.0,
9.252396999999997,0.0,0.0,21692.0,0.375,382.5,443.19150787921245,0.0,0.625,0.8288573370000001,4.677179849637432,0.0,-16145.0,0.75,-457.5,-443.19150787921245,0.0,0.5,0.534667914,4.707068845895068,0.0,-3172.0,4.125,367.5,443.19150787921245,0.0,0.75,3.382568013,4.684907424449561,0.0,-12206.0,1.25,-450.0,-443.19150787921245,0.0,1.25,1.728515448,4.70159724119928,0.0,0.6700000166893005,-0.699999988079071,-10.819999694824219,-0.04986572265625,0.10546875,0.997314453125,36.400001525878906,0.0,-54.0,1.5827484130859375,-1.4468994140625,Closing,0.0,0.0,-732.0,0.0,0.0,0.0,0.0,0.0,
9.387157999999996,0.0,0.0,21754.0,0.125,412.5,439.2543575481068,0.0,0.375,0.677490165,4.698966387762507,0.019531247999999835,-16215.0,1.0,-412.5,-439.2543575481068,0.0,0.25,0.444335892,4.728994608462525,0.0,-3107.0,4.125,427.5,439.2543575481068,0.0,0.25,3.197021157,4.706729958005359,0.0,-12274.0,1.375,-405.0,-439.2543575481068,0.0,0.5,1.48925766,4.723497516757868,0.026855465999999995,0.3499999940395355,-0.6800000071525574,-10.720000267028809,-0.0140380859375,-0.0985107421875,0.91802978515625,36.400001525878906,0.0,16.0,1.58135986328125,-1.4404449462890625,Closing,0.0,0.0,-732.0,0.0,0.0,0.0,0.0,0.125,
9.515983000000007,0.0,0.0,21824.0,0.375,397.5,441.18045136209577,0.0,0.25,0.545654241,4.688024513802235,0.0,-16281.0,1.125,-412.5,-441.18045136209577,0.0,0.25,0.24291989700000002,4.717982811676883,0.0,-3037.0,3.625,465.0,441.18045136209577,0.0,0.125,3.028564143,4.695770006025355,0.0,-12339.0,1.375,-420.0,-441.18045136209577,0.0,0.25,1.271972526,4.712498520337161,0.0,-0.10000000149011612,-0.6200000047683716,-10.899999618530273,-0.01885986328125,-0.0594482421875,1.0931396484375,36.400001525878906,0.0,4.0,1.582427978515625,-1.441192626953125,Closing,0.0,0.0,-732.0,0.0,0.0,0.0,0.0,0.0,
9.653775999999983,0.0,0.0,21890.0,0.125,465.0,432.4215651421655,0.0,0.25,0.5554198650000001,4.743643082438357,0.0,-16417.0,1.125,-420.0,-432.4215651421655,0.0,0.25,0.21118161900000001,4.77395680457362,0.0,-2882.0,3.0,487.5,432.4215651421655,0.0,0.125,3.037109064,4.751480466926451,0.0,-12479.0,1.375,-435.0,-432.4215651421655,0.0,0.375,1.314697131,4.768407447781828,0.0,-0.10999999940395355,-0.6000000238418579,-11.319999694824219,-0.00518798828125,0.04241943359375,1.0535888671875,36.400001525878906,0.0,-2.0,1.5828094482421875,-1.4448089599609375,Closing,0.0,0.0,-732.0,0.0,0.0,0.0,0.0,0.0,
9.789448000000004,0.0,0.0,22038.0,0.125,465.0,435.66151586552843,0.0,0.25,0.5932616580000001,4.721129584569014,0.0,-16490.0,1.0,-457.5,-435.66151586552843,0.0,0.25,0.27832028400000003,4.751299436706716,0.0,-2805.0,2.625,472.5,435.66151586552843,0.0,0.0,3.129882492,4.728929772553091,0.0,-12553.0,1.0,-465.0,-435.66151586552843,0.0,0.375,1.409911965,4.745776417358559,0.0,0.009999999776482582,-0.6100000143051147,-11.529999732971191,0.00909423828125,0.07257080078125,1.1099853515625,36.400001525878906,0.0,6.0,1.5823974609375,-1.4429168701171875,Closing,0.0,0.0,-732.0,0.0,0.0,0.0,0.0,0.0,
9.919745999999984,0.0,0.0,22115.0,0.125,472.5,433.99691499659593,0.0,0.25,0.592040955,4.732344317004644,0.0,-16564.0,0.75,-457.5,-433.99691499659593,0.0,0.0,0.332031216,4.762585835639374,0.0,-2726.0,2.375,487.5,433.99691499659593,0.0,0.0,3.14941374,4.7401630338216245,0.0,-12628.0,1.0,-465.0,-433.99691499659593,0.0,0.25,1.463622897,4.757049696722454,0.0,0.30000001192092896,-0.46000000834465027,-11.619999885559082,-0.07403564453125,0.11126708984375,1.2044677734375,36.400001525878906,0.0,-84.0,1.58294677734375,-1.4384918212890625,Closing,0.0,0.0,-732.0,0.0,0.0,0.0,0.0,0.0,
10.049396999999997,0.0,0.0,22183.0,0.125,442.5,429.54249080416946,0.0,0.25,0.5932616580000001,4.766477385014434,-0.0012207030000004337,-16639.0,0.625,-465.0,-429.54249080416946,0.0,0.0,0.33691402800000003,4.796937027213962,0.03417968399999971,-2654.0,2.625,450.0,429.54249080416946,0.0,0.0,3.1591793640000003,4.774352496035848,0.014648436000000764,-12700.0,0.75,-420.0,-429.54249080416946,0.0,0.125,1.468505709,4.7913609576847485,0.024414059999999793,0.25999999046325684,-0.5699999928474426,-11.319999694824219,-0.0089111328125,-0.01409912109375,0.865966796875,36.400001525878906,0.0,3.0,1.58251953125,-1.43365478515625,Closing,0.0,0.0,-732.0,0.0,0.0,0.0,0.0,0.125,
10.191100000000006,0.0,0.0,22254.0,0.125,427.5,425.9162806985224,0.0,0.25,0.611572203,4.801258457807891,0.004882812000000847,-16711.0,0.625,-442.5,-425.9162806985224,0.0,0.25,0.33691402800000003,4.831940364574527,0.0,-2583.0,2.625,427.5,425.9162806985224,0.0,0.0,3.1591793640000003,4.809191033658689,0.0,-12773.0,0.75,-420.0,-425.9162806985224,0.0,0.25,1.4648436,4.826323606363813,0.0,0.25,-0.699999988079071,-11.239999771118164,-0.044189453125,-0.0125732421875,1.148681640625,36.41999816894531,0.0,-26.0,1.5820159912109375,-1.4329376220703125,Closing,0.0,0.0,-732.0,0.0,0.0,0.0,0.0,0.0,
10.320483000000008,0.0,0.0,22319.0,0.125,405.0,421.2291827664158,0.0,0.375,0.6970214130000001,4.872267062553982,0.0,-16780.0,0.75,-427.5,-421.2291827664158,0.0,0.25,0.364990197,4.903402741890788,0.0,-2517.0,2.75,412.5,421.2291827664158,0.0,0.125,3.229980138,4.880316957884279,0.0,-12843.0,1.0,-442.5,-421.2291827664158,0.0,0.25,1.507568205,4.897702914175017,0.0,0.28999999165534973,-0.7300000190734863,-11.069999694824219,-0.1292724609375,0.014892578125,1.02264404296875,36.41999816894531,0.0,-115.0,1.581146240234375,-1.4322967529296875,Closing,0.0,0.0,-732.0,0.0,0.0,0.0,0.0,0.125,
10.454782000000007,0.0,0.0,22383.0,0.375,397.5,420.049236371836,0.0,0.25,0.7641600780000001,4.920231747388577,0.0,-16842.0,1.375,-322.5,-420.049236371836,0.0,0.25,0.456542922,4.9516739396950795,0.0,-2457.0,4.25,307.5,420.049236371836,0.0,0.125,3.299560209,4.928360889338058,0.0,-12899.0,2.0,-315.0,-420.049236371836,0.0,0.25,1.564941246,4.945918000432777,0.0,0.47999998927116394,-0.9200000166893005,-11.010000228881836,-0.08502197265625,0.035400390625,1.20208740234375,36.41999816894531,0.0,-69.0,1.5721588134765625,-1.4304046630859375,Closing,0.0,0.0,-732.0,0.0,0.0,0.0,0.0,0.125,
10.596562999999994,0.0,0.0,22444.0,0.75,307.5,421.2291827664158,0.0,0.25,0.808105386,0.059983937446018626,0.07080077400000029,-16894.0,2.5,-300.0,-421.2291827664158,0.0,0.25,0.54931635,0.060367258109212986,0.10131834900000047,-2408.0,5.25,270.0,421.2291827664158,0.0,0.125,3.330077784,0.060083042115721685,0.0,-12954.0,3.0,-255.0,-421.2291827664158,0.0,0.25,1.6345213170000001,0.06029708582498342,0.0,0.5600000023841858,-1.6100000143051147,-11.149999618530273,-0.31787109375,-0.06951904296875,0.96978759765625,36.41999816894531,0.0,-269.0,1.558868408203125,-1.42816162109375,Closing,0.0,0.0,-732.0,0.0,0.0,0.0,0.0,0.0,
10.721105999999999,0.0,0.0,22470.0,3.75,22.5,424.8953961344487,0.0,0.375,0.8569335060000001,0.11927545009225914,0.0,-16927.0,8.0,-37.5,-424.8953961344487,0.0,0.25,0.5554198650000001,0.12003766655518,0.0,-2380.0,12.625,7.5,424.8953961344487,0.0,0.25,3.3654781710000004,0.11947251541655059,0.0,-12982.0,8.0,-7.5,-424.8953961344487,0.0,0.25,1.6809080310000002,0.11989813202073876,0.0,0.5299999713897705,-1.6399999856948853,-11.119999885559082,0.00775146484375,-0.0037841796875,1.05120849609375,36.40999984741211,0.0,39.0,1.5306243896484375,-1.43084716796875,Closing,0.0,0.0,-732.0,0.0,0.0,0.0,0.0,0.125,
10.859736999999994,0.0,0.0,22470.0,7.625,0.0,553.2702978653381,0.0,1.25,0.9350584980000001,0.5564276322699062,0.0378417929999999,-16932.0,11.625,-52.5,-553.2702978653381,0.0,1.25,0.6347655600000001,0.5599834210044039,0.003662108999999525,-2380.0,18.125,0.0,553.2702978653381,0.0,1.75,3.449706678,0.5573469546594941,-4.901337504000001,-12982.0,10.5,-7.5,-553.2702978653381,0.0,1.25,1.7919920040000001,0.5593324834429948,0.0,0.4699999988079071,-1.6699999570846558,-11.0600004196167,0.03216552734375,0.02276611328125,1.01031494140625,36.40999984741211,0.0,57.0,1.5170135498046875,-1.432281494140625,Closing,0.0,0.0,-732.0,0.0,0.0,0.0,0.0,0.0,
10.991921000000001,0.0,0.0,22475.0,10.0,15.0,553.2702978653381,0.0,0.875,1.274413932,0.5564276322699062,0.211181619,-17013.0,9.375,-360.0,-553.2702978653381,0.0,0.25,0.9875487270000001,0.5599834210044039,0.0,-2380.0,24.75,0.0,553.2702978653381,0.0,0.75,3.715819932,0.5573469546594941,0.0,-12992.0,17.375,-45.0,-553.2702978653381,0.0,0.625,2.045898228,0.5593324834429948,0.0,0.5199999809265137,-1.4800000190734863,-11.130000114440918,-0.031005859375,-0.0042724609375,1.1173095703125,36.40999984741211,0.0,0.0,1.520111083984375,-1.430877685546875,Closing,0.0,0.0,-732.0,0.0,0.0,0.0,0.0,0.125,
11.084127000000008,0.0,0.0,22491.0,13.125,90.0,620.4036450985459,0.0,0.5,1.335449082,0.649303578497855,0.0,-17089.0,8.625,-450.0,-620.4036450985459,0.0,0.25,1.126708869,0.6534528806097455,0.0,-2372.0,31.75,52.5,620.4036450985459,0.0,0.75,3.8293453110000004,0.6503763492999044,0.0,-12993.0,24.875,-7.5,-620.4036450985459,0.0,0.75,2.1179197050000003,0.6526932920065027,0.0,0.6700000166893005,-1.2599999904632568,-11.800000190734863,-0.02142333984375,0.0804443359375,1.0321044921875,36.40999984741211,0.0,-12.0,1.5206146240234375,-1.4288787841796875,Closing,0.0,0.0,-732.0,0.0,0.0,0.0,0.0,0.0,
11.213655,0.0,0.0,22512.0,7.625,127.5,NaN,0.0,0.125,1.37939439,NaN,0.0,-17151.0,2.875,-427.5,NaN,0.0,0.0,1.1853026130000002,NaN,0.0,-2361.0,27.875,67.5,NaN,0.0,0.125,3.868407807,NaN,0.0,-12993.0,17.875,0.0,NaN,0.0,0.125,2.122802517,NaN,0.0,0.5699999928474426,-1.2599999904632568,-12.279999732971191,-0.0634765625,-0.072265625,1.06744384765625,36.380001068115234,0.0,-21.0,1.5207366943359375,-1.427276611328125,Closing,0.0,0.0,-732.0,0.0,0.0,0.0,0.0,0.0,
11.336989,0.0,0.0,22512.0,9.25,15.0,NaN,0.0,0.25,1.36718736,NaN,0.023193356999999803,-17182.0,3.875,-157.5,NaN,0.0,0.0,1.1853026130000002,NaN,0.0,-2360.0,27.25,15.0,NaN,0.0,0.0,3.864745698,NaN,0.0,-12993.0,19.75,0.0,NaN,0.0,0.125,2.1215818140000002,NaN,0.0,0.4000000059604645,-1.2400000095367432,-12.319999694824219,0.00885009765625,0.039306640625,1.01953125,36.380001068115234,0.0,23.0,1.5209197998046875,-1.4285125732421875,Closing,0.0,0.0,-732.0,0.0,0.0,0.0,0.0,0.125,
11.514616000000009,0.0,0.0,22513.0,9.875,7.5,NaN,0.0,0.125,1.36718736,NaN,0.0,-17212.0,2.875,-120.0,NaN,0.0,0.0,1.1853026130000002,NaN,0.0,-2360.0,28.125,0.0,NaN,0.0,0.0,3.862304292,NaN,0.0,-12993.0,19.875,0.0,NaN,0.0,0.125,2.132568141,NaN,0.0,0.4099999964237213,-1.1299999952316284,-12.329999923706055,-6.103515625E-5,0.01153564453125,1.01806640625,36.380001068115234,0.0,18.0,1.521331787109375,-1.429168701171875,Closing,0.0,0.0,-732.0,0.0,0.0,0.0,0.0,0.125,
11.624127999999997,0.0,0.0,22513.0,16.625,7.5,423.9696204936888,0.0,1.625,1.300048695,4.824746445161359,0.0,-17234.0,5.0,-202.5,-423.9696204936888,0.0,2.625,1.173095583,4.855578449291936,0.0,-2360.0,36.75,0.0,423.9696204936888,0.0,0.75,3.804931251,4.832717827554839,0.0,-12993.0,24.75,0.0,-423.9696204936888,0.0,1.5,2.1130368930000003,4.849934213629845,0.0,0.41999998688697815,-1.059999942779541,-12.399999618530273,-0.00946044921875,0.0203857421875,1.0413818359375,36.380001068115234,0.0,6.0,1.5216217041015625,-1.4289093017578125,Closing,0.0,0.0,-732.0,0.0,0.0,0.0,0.0,0.125,
11.744557,0.0,0.0,22522.0,11.75,52.5,NaN,0.0,0.25,1.024169817,NaN,0.0,-17293.0,2.25,-187.5,NaN,0.0,0.0,0.6713866500000001,NaN,0.0,-2353.0,31.875,45.0,NaN,0.0,0.125,3.5754390870000003,NaN,0.0,-12993.0,22.75,0.0,NaN,0.0,0.125,1.8725584020000001,NaN,0.0,0.3799999952316284,-1.0299999713897705,-12.569999694824219,-0.0140380859375,-0.012939453125,1.01947021484375,36.40999984741211,0.0,8.0,1.521697998046875,-1.4275665283203125,Closing,0.0,0.0,-732.0,0.0,0.0,0.0,0.0,0.125,
11.869394,0.0,0.0,22523.0,11.875,0.0,NaN,0.0,0.125,1.024169817,NaN,0.0,-17301.0,2.875,-45.0,NaN,0.0,0.0,0.506591745,NaN,0.0,-2350.0,32.625,7.5,NaN,0.0,0.0,3.5717769780000004,NaN,0.0,-12992.0,23.25,0.0,NaN,0.0,0.125,1.8725584020000001,NaN,0.0,0.38999998569488525,-0.9399999976158142,-12.520000457763672,-0.01519775390625,0.00665283203125,0.99664306640625,36.40999984741211,0.0,1.0,1.52197265625,-1.427398681640625,Closing,0.0,0.0,-732.0,0.0,0.0,0.0,0.0,0.125,
11.987666999999986,0.0,0.0,22520.0,0.0,-45.0,NaN,0.0,0.125,1.022949114,NaN,0.0,-17304.0,0.25,15.0,NaN,0.0,0.0,0.5017089330000001,NaN,0.0,-2350.0,1.125,0.0,NaN,0.0,0.0,3.5754390870000003,NaN,0.0,-12987.0,1.375,75.0,NaN,0.0,0.125,1.8688962930000002,NaN,0.0,0.3100000023841858,-1.4600000381469727,-12.670000076293945,-0.22479248046875,-0.0078125,1.31195068359375,36.40999984741211,0.0,-183.0,1.5196380615234375,-1.4281005859375,Closing,0.0,0.0,-732.0,0.0,0.0,0.0,0.0,0.125,
