Time,ClimberA1,ClimberA2,FRpos,FRCurrent,FRspeed,FRsetpoint,FRApos,FRACurrent,FREncpos,FREncSetpoint,FREncSpeed,FLpos,FLCurrent,FLspeed,FLsetpoint,FLApos,FLACurrent,FLEncpos,FLEncSetpoint,FLEncSpeed,BRpos,BRCurrent,BRspeed,BRsetpoint,BRApos,BRACurrent,BREncpos,BREncSetpoint,BREncSpeed,BLpos,BLCurrent,BLspeed,BLsetpoint,BLApos,BLACurrent,BLEncpos,BLEncSetpoint,BLEncSpeed,navx_Pitch,navx_Roll,navx_Yaw,navx_XAcc,navx_YAcc,navx_ZAcc,navx_Temp,navx_Bar,navx_Alt,navx_XDis,navx_YDis,GearPlacerState,ShootOutputV,ShootOutputCurrent,ShootEncPos,ShootEncVelocity,ShootSpeed,ShootSetpoint,CarouselSetpoint,CarouselCurrent,
0.4019640000000072,0.0,0.0,-41.0,0.0,0.0,0.0,0.0,0.125,0.79345695,0.01,0.0,58.0,0.0,0.0,0.0,0.0,0.125,0.5163573690000001,0.01,0.0,-41.0,0.0,0.0,0.0,0.0,0.0,3.33251919,0.01,0.0,43.0,0.0,0.0,0.0,0.0,0.125,1.6076658510000001,0.01,0.0,0.3799999952316284,-0.8700000047683716,-3.430000066757202,-0.011474609375,0.0322265625,1.01397705078125,37.31999969482422,0.0,2.0,-0.029510498046875,0.012298583984375,Waiting,0.0,0.0,0.0,0.0,0.0,0.0,0.0,0.0,
0.5737960000000021,0.0,0.0,-41.0,0.0,0.0,0.0,0.0,0.125,0.794677653,0.01,0.0,58.0,0.0,0.0,-0.0,0.0,0.0,0.5163573690000001,0.01,0.0,-41.0,0.0,0.0,0.0,0.0,0.0,3.338622705,0.01,0.0,43.0,0.0,0.0,-0.0,0.0,0.25,1.6076658510000001,0.01,0.0,0.3799999952316284,-0.8700000047683716,-3.430000066757202,0.01715087890625,0.00299072265625,0.9893798828125,37.31999969482422,0.0,32.0,-0.0301361083984375,0.0124664306640625,Closing,0.0,0.0,0.0,0.0,0.0,0.0,0.0,0.0,
0.6903470000000088,0.0,0.0,-41.0,0.0,0.0,0.0,0.0,0.125,0.794677653,0.01,0.0,58.0,0.0,0.0,-0.0,0.0,0.0,0.5151366660000001,0.01,0.0,-41.0,0.0,0.0,0.0,0.0,0.0,3.333739893,0.01,0.0,43.0,0.0,0.0,-0.0,0.0,0.25,1.6076658510000001,0.01,0.0,0.3799999952316284,-0.8600000143051147,-3.430000066757202,-0.04150390625,-0.004638671875,1.00897216796875,37.31999969482422,0.0,-25.0,-0.030364990234375,0.0123748779296875,Closing,0.0,0.0,0.0,0.0,0.0,0.0,0.0,0.0,
0.8236499999999942,0.0,0.0,-41.0,0.0,0.0,0.0,0.0,0.125,0.794677653,0.01,0.0,58.0,0.0,0.0,-0.0,0.0,0.0,0.5163573690000001,0.01,0.0,-41.0,0.0,0.0,0.0,0.0,0.0,3.333739893,0.01,0.0,43.0,0.0,0.0,-0.0,0.0,0.25,1.6076658510000001,0.01,0.0,0.3799999952316284,-0.8600000143051147,-3.430000066757202,-0.0076904296875,0.0147705078125,1.06158447265625,37.31999969482422,0.0,7.0,-0.030853271484375,0.0123748779296875,Closing,0.0,0.0,0.0,0.0,0.0,0.0,0.0,0.0,
0.8779790000000212,0.0,0.0,-41.0,0.0,0.0,0.0,0.0,0.125,0.794677653,0.01,0.0,58.0,0.0,0.0,-0.0,0.0,0.0,0.5151366660000001,0.01,0.0,-41.0,0.0,0.0,0.0,0.0,0.0,3.333739893,0.01,0.0,43.0,0.0,0.0,-0.0,0.0,0.25,1.6076658510000001,0.01,0.0,0.38999998569488525,-0.8600000143051147,-3.430000066757202,-0.00927734375,0.00164794921875,0.9989013671875,37.31999969482422,0.0,6.0,-0.0311737060546875,0.0123748779296875,Closing,0.0,0.0,0.0,0.0,0.0,0.0,0.0,0.0,
0.9517930000000051,0.0,0.0,-41.0,0.0,0.0,0.0,0.0,0.125,0.794677653,0.01,0.0,58.0,0.0,0.0,-0.0,0.0,0.0,0.5163573690000001,0.01,0.0,-41.0,0.0,0.0,0.0,0.0,0.0,3.333739893,0.01,0.0,43.0,0.0,0.0,-0.0,0.0,0.25,1.6076658510000001,0.01,0.0,0.38999998569488525,-0.8600000143051147,-3.430000066757202,0.0,0.02545166015625,1.0201416015625,37.31999969482422,0.0,14.0,-0.0313873291015625,0.0123748779296875,Closing,0.0,0.0,0.0,0.0,0.0,0.0,0.0,0.0,
1.0216400000000139,0.0,0.0,-41.0,0.0,0.0,0.0,0.0,0.125,0.795898356,0.01,0.0,58.0,0.0,0.0,-0.0,0.0,0.0,0.5151366660000001,0.01,0.0,-41.0,0.0,0.0,0.0,0.0,0.0,3.333739893,0.01,0.0,43.0,0.0,0.0,-0.0,0.0,0.25,1.6064451480000002,0.01,0.0,0.4000000059604645,-0.8600000143051147,-3.430000066757202,-0.0418701171875,0.00201416015625,1.01885986328125,37.31999969482422,0.0,-26.0,-0.0314788818359375,0.0123748779296875,Closing,0.0,0.0,0.0,0.0,0.0,0.0,0.0,0.0,
1.0759949999999954,0.0,0.0,-41.0,0.0,0.0,0.0,0.0,0.125,0.79345695,0.01,0.0,58.0,0.0,0.0,-0.0,0.0,0.0,0.5151366660000001,0.01,0.0,-41.0,0.0,0.0,0.0,0.0,0.0,3.333739893,0.01,0.0,43.0,0.0,0.0,-0.0,0.0,0.25,1.6076658510000001,0.01,0.0,0.38999998569488525,-0.8600000143051147,-3.430000066757202,0.01513671875,0.01788330078125,0.978759765625,37.31999969482422,0.0,29.0,-0.0318603515625,0.0122833251953125,Closing,0.0,0.0,0.0,0.0,0.0,0.0,0.0,0.0,
1.1410629999999946,0.0,0.0,-41.0,0.0,0.0,0.0,0.0,0.125,0.794677653,0.01,0.0,58.0,0.0,0.0,-0.0,0.0,0.0,0.5163573690000001,0.01,0.0,-41.0,0.0,0.0,0.0,0.0,0.0,3.33251919,0.01,0.0024414059999999793,43.0,0.0,0.0,-0.0,0.0,0.25,1.6076658510000001,0.01,0.0,0.38999998569488525,-0.8700000047683716,-3.430000066757202,-0.00555419921875,0.01123046875,1.01861572265625,37.31999969482422,0.0,9.0,-0.0319061279296875,0.0122833251953125,Closing,0.0,0.0,0.0,0.0,0.0,0.0,0.0,0.0,
1.2123859999999986,0.0,0.0,-41.0,0.0,0.0,0.0,0.0,0.125,0.794677653,0.01,0.0,58.0,0.0,0.0,-0.0,0.0,0.0,0.5163573690000001,0.01,0.0,-41.0,0.0,0.0,0.0,0.0,0.0,3.33251919,0.01,-0.0024414059999999793,43.0,0.0,0.0,-0.0,0.0,0.25,1.6064451480000002,0.01,0.0,0.38999998569488525,-0.8600000143051147,-3.430000066757202,-0.01531982421875,0.00390625,1.00714111328125,37.31999969482422,0.0,0.0,-0.0322265625,0.01220703125,Closing,0.0,0.0,0.0,0.0,0.0,0.0,0.0,0.0,
1.2897430000000167,0.0,0.0,-41.0,0.0,0.0,0.0,0.0,0.125,0.794677653,0.01,0.0,58.0,0.0,0.0,-0.0,0.0,0.0,0.5151366660000001,0.01,0.0,-41.0,0.0,0.0,0.0,0.0,0.0,3.333739893,0.01,0.0,43.0,0.0,0.0,-0.0,0.0,0.25,1.6076658510000001,0.01,0.0,0.38999998569488525,-0.8600000143051147,-3.430000066757202,-0.00457763671875,0.0205078125,1.02069091796875,37.31999969482422,0.0,10.0,-0.032440185546875,0.01220703125,Closing,0.0,0.0,0.0,0.0,0.0,0.0,0.0,0.125,
1.3529850000000152,0.0,0.0,-41.0,0.0,0.0,0.0,0.0,0.125,0.794677653,0.01,0.0,58.0,0.0,0.0,-0.0,0.0,0.0,0.5163573690000001,0.01,0.0,-41.0,0.0,0.0,0.0,0.0,0.0,3.33251919,0.01,0.0,43.0,0.0,0.0,-0.0,0.0,0.25,1.6076658510000001,0.01,0.0,0.4000000059604645,-0.8600000143051147,-3.430000066757202,-0.041015625,0.00360107421875,1.02923583984375,37.31999969482422,0.0,-25.0,-0.03253173828125,0.01220703125,Closing,0.0,0.0,0.0,0.0,0.0,0.0,0.0,0.0,
1.4051410000000033,0.0,0.0,-41.0,0.0,0.0,0.0,0.0,0.125,0.794677653,0.01,0.0,58.0,0.0,0.0,-0.0,0.0,0.0,0.5163573690000001,0.01,0.0,-41.0,0.0,0.0,0.0,0.0,0.0,3.333739893,0.01,0.0,43.0,0.0,0.0,-0.0,0.0,0.25,1.6076658510000001,0.01,0.0,0.38999998569488525,-0.8600000143051147,-3.430000066757202,0.0162353515625,0.01690673828125,0.96453857421875,37.33000183105469,0.0,30.0,-0.0328826904296875,0.01220703125,Closing,0.0,0.0,0.0,0.0,0.0,0.0,0.0,0.0,
1.4872850000000035,0.0,0.0,-41.0,0.0,0.0,0.0,0.0,0.125,0.795898356,0.01,0.0,58.0,0.0,0.0,-0.0,0.0,0.0,0.5163573690000001,0.01,0.0,-41.0,0.0,0.0,0.0,0.0,0.0,3.333739893,0.01,0.0,43.0,0.0,0.0,-0.0,0.0,0.25,1.6064451480000002,0.01,0.0,0.38999998569488525,-0.8600000143051147,-3.430000066757202,-0.03228759765625,0.0081787109375,1.064697265625,37.33000183105469,0.0,-16.0,-0.0329132080078125,0.01220703125,Closing,0.0,0.0,0.0,0.0,0.0,0.0,0.0,0.125,
1.6230599999999977,0.0,0.0,-41.0,0.0,0.0,0.0,0.0,0.125,0.794677653,0.01,0.0,58.0,0.0,0.0,-0.0,0.0,0.0,0.5151366660000001,0.01,0.0,-41.0,0.0,0.0,0.0,0.0,0.0,3.333739893,0.01,0.0,43.0,0.0,0.0,-0.0,0.0,0.25,1.6076658510000001,0.01,0.0,0.38999998569488525,-0.8600000143051147,-3.430000066757202,-0.00531005859375,-0.00762939453125,1.01708984375,37.33000183105469,0.0,10.0,-0.0329437255859375,0.01220703125,Closing,0.0,0.0,0.0,0.0,0.0,0.0,0.0,0.0,
1.6897749999999943,0.0,0.0,-41.0,0.0,0.0,0.0,0.0,0.125,0.794677653,0.01,-0.0012207029999995456,58.0,0.0,0.0,-0.0,0.0,0.0,0.5151366660000001,0.01,0.0,-41.0,0.0,0.0,0.0,0.0,0.0,3.333739893,0.01,0.0,43.0,0.0,0.0,-0.0,0.0,0.25,1.6076658510000001,0.01,0.0,0.38999998569488525,-0.8600000143051147,-3.430000066757202,-0.04144287109375,-0.006103515625,1.02874755859375,37.33000183105469,0.0,-25.0,-0.033111572265625,0.01220703125,Closing,0.0,0.0,0.0,0.0,0.0,0.0,0.0,0.125,
1.8190720000000147,0.0,0.0,-41.0,0.0,0.0,0.0,0.0,0.125,0.794677653,0.01,0.0,58.0,0.0,0.0,-0.0,0.0,0.0,0.5163573690000001,0.01,0.0,-41.0,0.0,0.0,0.0,0.0,0.0,3.33251919,0.01,0.0,43.0,0.0,0.0,-0.0,0.0,0.25,1.6076658510000001,0.01,0.0,0.38999998569488525,-0.8600000143051147,-3.430000066757202,-0.01806640625,0.01611328125,1.0673828125,37.33000183105469,0.0,-2.0,-0.033538818359375,0.01220703125,Closing,0.0,0.0,0.0,0.0,0.0,0.0,0.0,0.0,
1.8860010000000185,0.0,0.0,-41.0,0.0,0.0,0.0,0.0,0.125,0.794677653,0.01,0.0012207029999995456,58.0,0.0,0.0,-0.0,0.0,0.0,0.5163573690000001,0.01,0.0,-41.0,0.0,0.0,0.0,0.0,0.0,3.333739893,0.01,0.0,43.0,0.125,0.0,-0.0,0.0,0.25,1.6076658510000001,0.01,0.0,0.4000000059604645,-0.8600000143051147,-3.430000066757202,0.007568359375,0.002197265625,1.00787353515625,37.349998474121094,0.0,23.0,-0.0339202880859375,0.0119781494140625,Closing,0.0,0.0,0.0,0.0,0.0,0.0,0.0,0.125,
1.9526359999999987,0.0,0.0,-41.0,0.0,0.0,0.0,0.0,0.125,0.794677653,0.01,0.0,58.0,0.0,0.0,-0.0,0.0,0.0,0.5151366660000001,0.01,0.0,-41.0,0.0,0.0,0.0,0.0,0.0,3.33251919,0.01,0.0,43.0,0.0,0.0,-0.0,0.0,0.25,1.6076658510000001,0.01,0.0,0.38999998569488525,-0.8600000143051147,-3.430000066757202,-0.0015869140625,0.01055908203125,1.0513916015625,37.349998474121094,0.0,14.0,-0.0340118408203125,0.0120697021484375,Closing,0.0,0.0,0.0,0.0,0.0,0.0,0.0,0.125,
2.021801999999996,0.0,0.0,-41.0,0.0,0.0,0.0,0.0,0.125,0.794677653,0.01,0.0,58.0,0.0,0.0,-0.0,0.0,0.0,0.5151366660000001,0.01,0.0,-41.0,0.0,0.0,0.0,0.0,0.0,3.333739893,0.01,-0.0012207029999995456,43.0,0.125,0.0,-0.0,0.0,0.25,1.6064451480000002,0.01,0.0,0.4000000059604645,-0.8600000143051147,-3.430000066757202,-0.03424072265625,-0.0028076171875,1.01812744140625,37.349998474121094,0.0,-18.0,-0.0342254638671875,0.0120697021484375,Closing,0.0,0.0,0.0,0.0,0.0,0.0,0.0,0.0,
2.150894,0.0,0.0,-41.0,0.125,0.0,-248.03150296211243,0.0,2.375,1.024169817,0.5498168668524864,0.0,58.0,0.125,0.0,-248.03150296211243,0.0,1.125,0.253906224,4.41043958977222,0.0,-41.0,0.125,0.0,-248.03150296211243,0.0,0.875,3.071288748,4.389674732977291,0.0,43.0,0.375,-15.0,-248.03150296211243,0.0,1.375,1.9445798790000002,0.552687206278561,0.0,0.3799999952316284,-0.8799999952316284,-3.430000066757202,-0.02032470703125,-0.031005859375,1.0548095703125,37.349998474121094,0.0,-1.0,-0.0332183837890625,0.0120849609375,Closing,0.0,0.0,0.0,0.0,0.0,0.0,0.0,0.125,
2.2215010000000186,0.0,0.0,-41.0,0.0,0.0,0.0,0.0,1.25,1.300048695,0.5498168668524864,-4.653930716,58.0,0.125,0.0,0.0,0.0,0.875,4.949950665,4.41043958977222,-0.29418942299999973,-41.0,0.0,0.0,0.0,0.0,0.875,2.828368851,4.389674732977291,-0.27587887799999944,36.0,0.125,-37.5,0.0,0.0,1.375,2.1740720430000002,0.552687206278561,-4.611320348,0.36000001430511475,-0.8799999952316284,-3.359999895095825,-0.01202392578125,0.03692626953125,0.9906005859375,37.349998474121094,0.0,1.0,-0.0331573486328125,0.01202392578125,Closing,0.0,0.0,0.0,0.0,0.0,0.0,0.0,0.0,
2.285094000000012,0.0,0.0,-41.0,0.0,0.0,0.0,0.0,0.375,1.41601548,0.5498168668524864,0.264892551,58.0,0.0,0.0,0.0,0.0,0.125,4.855956534000001,4.41043958977222,4.709472174,-41.0,0.0,0.0,0.0,0.0,0.125,2.7416989380000003,4.389674732977291,-0.24291989700000016,36.0,0.0,-15.0,0.0,0.0,0.25,2.20947243,0.552687206278561,0.22583005500000009,0.4000000059604645,-0.8399999737739563,-3.25,-0.02734375,0.01666259765625,1.0645751953125,37.349998474121094,0.0,-12.0,-0.033111572265625,0.012115478515625,Closing,0.0,0.0,0.0,0.0,0.0,0.0,0.0,0.0,
2.3541989999999933,0.0,0.0,-41.0,0.0,0.0,0.0,0.0,0.25,1.39160142,0.5498168668524864,0.0,58.0,0.0,0.0,0.0,0.0,0.25,4.891356921,4.41043958977222,0.0,-41.0,0.0,0.0,0.0,0.0,0.0,2.766112998,4.389674732977291,0.0,36.0,0.125,0.0,0.0,0.0,0.25,2.1691892310000003,0.552687206278561,0.0,0.4000000059604645,-0.8700000047683716,-3.130000114440918,-0.0228271484375,0.01409912109375,0.989501953125,37.349998474121094,0.0,-8.0,-0.033111572265625,0.0123138427734375,Closing,0.0,0.0,0.0,0.0,0.0,0.0,0.0,0.0,
2.4773390000000073,0.0,0.0,-59.0,3.875,-120.0,-1074.8031377792358,0.0,0.125,1.3476561120000001,0.5498168668524864,0.0,36.0,6.75,-142.5,-1074.8031377792358,0.0,0.125,4.930419417,4.41043958977222,0.0,-41.0,5.0,0.0,-1074.8031377792358,0.0,0.0,2.8002926820000003,4.389674732977291,0.0,23.0,3.625,-172.5,-1074.8031377792358,0.0,0.125,2.125243923,0.552687206278561,0.0,0.28999999165534973,-0.6800000071525574,-2.5299999713897705,-0.0118408203125,-0.12469482421875,0.71209716796875,37.36000061035156,0.0,2.0,-0.0328521728515625,0.0106048583984375,Closing,0.0,0.0,0.0,0.0,0.0,0.0,0.0,0.0,
2.5506499999999943,0.0,0.0,-59.0,1.875,-225.0,0.0,0.0,0.125,1.362304548,0.5498168668524864,-0.030517574999999963,36.0,2.25,-232.5,0.0,0.0,0.125,4.926757308,4.41043958977222,0.032958981000000165,-47.0,1.875,-30.0,0.0,0.0,0.0,2.7941891670000003,4.389674732977291,0.030517575000000186,-7.0,0.625,-232.5,0.0,0.0,0.25,2.1643064190000003,0.552687206278561,0.0,0.3700000047683716,-0.75,-0.9200000166893005,-0.0281982421875,0.174072265625,0.694091796875,37.36000061035156,0.0,-21.0,-0.0323028564453125,0.0095977783203125,Closing,0.0,0.0,0.0,0.0,0.0,0.0,0.0,0.0,
2.6874489999999933,0.0,0.0,-97.0,0.0,-67.5,0.0,0.0,0.125,1.36718736,0.5498168668524864,0.0,-3.0,0.0,-82.5,0.0,0.0,0.0,4.924315902,4.41043958977222,0.0,-64.0,0.0,-75.0,0.0,0.0,0.0,2.7893063550000003,4.389674732977291,0.0,-24.0,0.0,-105.0,0.0,0.0,0.125,2.188720479,0.552687206278561,0.0,0.38999998569488525,-0.9100000262260437,1.6699999570846558,-0.00927734375,0.05194091796875,1.0863037109375,37.36000061035156,0.0,9.0,-0.0347137451171875,0.012603759765625,Closing,0.0,0.0,0.0,0.0,0.0,0.0,0.0,0.0,
2.7507369999999938,0.0,0.0,-97.0,4.625,-135.0,-1818.8976466655731,0.0,0.125,1.36718736,0.5498168668524864,0.0,-3.0,6.375,-165.0,-1818.8976466655731,0.0,0.0,4.9255366050000005,4.41043958977222,0.0,-64.0,4.5,-142.5,-1818.8976466655731,0.0,0.0,2.806396197,4.389674732977291,0.0,-24.0,4.5,-127.5,-1818.8976466655731,0.0,0.25,2.2180173510000003,0.552687206278561,0.0,0.47999998927116394,-0.8500000238418579,2.0199999809265137,0.251953125,-0.058349609375,1.201416015625,37.36000061035156,0.0,267.0,-0.035797119140625,0.01409912109375,Closing,0.0,0.0,0.0,0.0,0.0,0.0,0.0,0.125,
2.819710000000021,0.0,0.0,-147.0,8.375,-330.0,-1306.299215555191,0.0,0.125,1.37939439,0.5498168668524864,0.0,-72.0,16.5,-442.5,-1306.299215555191,0.0,0.0,4.924315902,4.41043958977222,0.0,-101.0,6.875,-262.5,-1306.299215555191,0.0,0.0,2.7941891670000003,4.389674732977291,0.0,-74.0,8.375,-360.0,-1306.299215555191,0.0,0.25,2.213134539,0.552687206278561,0.0,0.46000000834465027,-1.1100000143051147,3.9600000381469727,-0.1231689453125,-0.01153564453125,1.30950927734375,37.36000061035156,0.0,-98.0,-0.0368194580078125,0.0140228271484375,Closing,0.0,0.0,0.0,0.0,0.0,0.0,0.0,0.125,
2.8876270000000077,0.0,0.0,-147.0,2.5,-427.5,0.0,0.0,0.125,1.3720701720000001,0.5498168668524864,0.0,-72.0,3.75,-457.5,0.0,0.0,0.0,4.924315902,4.41043958977222,0.0,-101.0,1.0,-322.5,0.0,0.0,0.0,2.7905270580000003,4.389674732977291,-0.004882811999999959,-74.0,1.75,-412.5,0.0,0.0,0.25,2.208251727,0.552687206278561,0.0,0.5600000023841858,-1.2799999713897705,7.980000019073486,0.013671875,0.100341796875,1.21295166015625,37.36000061035156,0.0,52.0,-0.0384521484375,0.0149078369140625,Closing,0.0,0.0,0.0,0.0,0.0,0.0,0.0,0.125,
2.954445000000007,0.0,0.0,-197.0,0.0,-285.0,0.0,0.0,0.125,1.362304548,0.5498168668524864,0.0012207029999999897,-122.0,0.0,-292.5,0.0,0.0,0.0,4.9230951990000005,4.41043958977222,0.0,-148.0,0.0,-270.0,0.0,0.0,0.0,2.784423543,4.389674732977291,0.0,-130.0,0.0,-345.0,0.0,0.0,0.25,2.198486103,0.552687206278561,0.0,0.5199999809265137,-1.2300000190734863,11.460000038146973,0.02410888671875,0.121337890625,0.97015380859375,37.33000183105469,0.0,66.0,-0.0384674072265625,0.0162811279296875,Closing,0.0,0.0,0.0,0.0,0.0,0.0,0.0,0.0,
3.0229429999999993,0.0,0.0,-197.0,0.0,-345.0,0.0,0.0,0.125,1.362304548,0.5498168668524864,-0.00976562400000014,-122.0,0.0,-390.0,0.0,0.0,0.0,4.924315902,4.41043958977222,0.0,-148.0,0.0,-225.0,0.0,0.0,0.0,2.785644246,4.389674732977291,-0.009765624000000805,-130.0,0.0,-337.5,0.0,0.0,0.25,2.198486103,0.552687206278561,-0.009765623999999917,0.3700000047683716,-1.159999966621399,13.529999732971191,-0.05419921875,0.0821533203125,0.9443359375,37.33000183105469,0.0,-16.0,-0.0383148193359375,0.017608642578125,Closing,0.0,0.0,0.0,0.0,0.0,0.0,0.0,0.0,
3.085238000000012,0.0,0.0,-257.0,0.0,-307.5,0.0,0.0,0.125,1.362304548,0.5498168668524864,0.0,-184.0,0.0,-285.0,0.0,0.0,0.0,4.924315902,4.41043958977222,0.0,-194.0,0.0,-307.5,0.0,0.0,0.0,2.785644246,4.389674732977291,0.0,-189.0,0.0,-322.5,0.0,0.0,0.25,2.203368915,0.552687206278561,0.0012207029999999897,0.47999998927116394,-1.1299999952316284,14.770000457763672,-0.06475830078125,0.05145263671875,1.0963134765625,37.33000183105469,0.0,-30.0,-0.038299560546875,0.0191192626953125,Closing,0.0,0.0,0.0,0.0,0.0,0.0,0.0,0.0,
3.1505939999999826,0.0,0.0,-257.0,0.0,-180.0,0.0,0.0,0.125,1.362304548,0.5498168668524864,0.0,-212.0,0.0,-202.5,0.0,0.0,0.0,4.9255366050000005,4.41043958977222,0.0,-210.0,0.0,-195.0,0.0,0.0,0.0,2.785644246,4.389674732977291,0.0,-223.0,0.125,-225.0,0.0,0.0,0.25,2.203368915,0.552687206278561,0.0,0.4000000059604645,-1.149999976158142,16.200000762939453,0.0106201171875,0.02777099609375,0.99017333984375,37.33000183105469,0.0,35.0,-0.038330078125,0.020111083984375,Closing,0.0,0.0,0.0,0.0,0.0,0.0,0.0,0.125,
3.175255999999994,0.0,0.0,-283.0,0.0,-172.5,0.0,0.0,0.125,1.362304548,0.5498168668524864,0.0,-212.0,0.0,-202.5,0.0,0.0,0.0,4.924315902,4.41043958977222,0.0,-210.0,0.0,-127.5,0.0,0.0,0.0,2.785644246,4.389674732977291,0.0,-223.0,0.125,-187.5,0.0,0.0,0.25,2.203368915,0.552687206278561,0.0,0.3700000047683716,-1.1699999570846558,16.549999237060547,-0.03582763671875,-0.02655029296875,0.90948486328125,37.33000183105469,0.0,-25.0,-0.038177490234375,0.019989013671875,Closing,0.0,0.0,0.0,0.0,0.0,0.0,0.0,0.125,
3.22225,0.0,0.0,-283.0,0.125,-150.0,-257.95276433229446,0.0,0.25,1.363525251,0.22674652857497224,0.0,-212.0,0.25,-97.5,257.95276433229446,0.0,0.0,4.921874496,0.22819552698039694,0.0,-210.0,0.125,-15.0,-257.95276433229446,0.0,0.0,2.784423543,0.22712115619659112,0.0,-223.0,0.375,-112.5,257.95276433229446,0.0,0.25,2.198486103,0.22793026727040294,0.0,0.4000000059604645,-1.1799999475479126,16.790000915527344,-0.0394287109375,-0.029296875,1.0947265625,37.33000183105469,0.0,-26.0,-0.0380096435546875,0.01983642578125,Closing,0.0,0.0,0.0,0.0,0.0,0.0,0.0,0.0,
3.24480700000003,0.0,0.0,-283.0,0.125,-120.0,-396.8503922224045,0.0,0.625,1.351318221,0.23003471890447172,-0.0012207029999999897,-212.0,0.5,-67.5,396.8503922224045,0.0,4.5,4.935302229,0.23150473012351755,0.0,-210.0,0.125,-15.0,-396.8503922224045,0.0,3.25,2.862548535,0.23041477923075124,0.0,-223.0,0.5,-82.5,396.8503922224045,0.0,0.875,2.1618650130000003,0.2312356237199548,-0.007324217999999938,0.4099999964237213,-1.1699999570846558,16.809999465942383,-0.03692626953125,0.02398681640625,1.0345458984375,37.33000183105469,0.0,-10.0,-0.0380096435546875,0.019805908203125,Closing,0.0,0.0,0.0,0.0,0.0,0.0,0.0,0.125,
3.2870740000000223,0.0,0.0,-289.0,0.0,-60.0,-456.3779604434966,0.0,0.625,1.2707518230000001,0.22934966836415693,-0.06713866499999988,-216.0,1.0,-22.5,456.3779604434966,0.0,5.5,0.12939451800000001,0.23081530184411767,-4.875487782,-215.0,0.125,-30.0,-456.3779604434966,0.0,4.375,3.1091305410000003,0.22972859685897595,0.2258300550000003,-225.0,0.875,-22.5,456.3779604434966,0.0,1.0,2.044677525,0.23054699684778615,-0.10009764600000004,0.44999998807907104,-1.159999966621399,16.670000076293945,0.01104736328125,0.02752685546875,1.04156494140625,37.33000183105469,0.0,36.0,-0.0379180908203125,0.0196380615234375,Closing,0.0,0.0,0.0,0.0,0.0,0.0,0.0,0.125,
3.3076380000000354,0.0,0.0,-289.0,0.125,-37.5,-674.6456480026245,0.0,0.75,1.226806515,0.22839062373972158,-0.05126952600000001,-216.0,1.75,0.0,674.6456480026245,0.0,1.5,0.26489255100000003,0.22985012855195686,0.13793943900000016,-215.0,0.375,-45.0,-674.6456480026245,0.0,1.75,3.239745762,0.2287679677136708,0.1391601419999997,-225.0,1.25,0.0,674.6456480026245,0.0,0.5,1.992187296,0.2295829454951785,0.0,0.4399999976158142,-1.1399999856948853,16.600000381469727,-0.08245849609375,0.05377197265625,1.10955810546875,37.33000183105469,0.0,31.0,-0.0377655029296875,0.01959228515625,Closing,0.0,0.0,0.0,0.0,0.0,0.0,0.0,0.0,
3.350988000000012,0.0,0.0,-289.0,0.625,-30.0,-1269.9212551116943,0.0,0.375,1.153564335,0.22441740900191498,-0.07324218000000005,-216.0,4.5,45.0,1269.9212551116943,0.0,0.75,0.5029296360000001,0.22585152342843776,0.22338864900000033,-215.0,0.875,-97.5,-1269.9212551116943,0.0,0.75,3.453368787,0.224788188482918,-4.719452756999999,-225.0,2.375,37.5,1269.9212551116943,0.0,0.25,1.92871074,0.2255889884418888,0.0,0.44999998807907104,-1.2400000095367432,16.260000228881836,-0.12127685546875,-0.0072021484375,1.19110107421875,37.33000183105469,0.0,-96.0,-0.03778076171875,0.0195159912109375,Closing,0.0,0.0,0.0,0.0,0.0,0.0,0.0,0.0,
3.376902000000002,0.0,0.0,-289.0,4.25,-97.5,-1448.5039973258972,0.0,0.375,1.156005741,0.22099223469635942,-0.017089842000000077,-216.0,7.625,67.5,1448.5039973258972,0.0,0.75,0.5932616580000001,0.22240446092843774,0.0,-215.0,3.0,-105.0,-1448.5039973258972,0.0,0.375,3.5156246400000004,0.22135735514958466,0.09399413100000009,-225.0,4.25,67.5,1448.5039973258972,0.0,0.25,1.912841601,0.22214593288633325,-0.03173827799999995,0.3499999940395355,-1.350000023841858,16.020000457763672,-0.42559814453125,-0.11297607421875,0.9688720703125,37.33000183105469,0.0,-419.0,-0.0386199951171875,0.0194854736328125,Closing,0.0,0.0,0.0,0.0,0.0,0.0,0.0,0.0,
3.399914999999979,0.0,0.0,-310.0,7.0,-135.0,-1448.5039973258972,0.0,0.375,1.143798711,0.21948517577167836,0.0012207029999999897,-194.0,12.625,90.0,1448.5039973258972,0.0,0.5,0.635986263,0.22088777131175683,0.06713866499999988,-230.0,4.625,-105.0,-1448.5039973258972,0.0,0.125,3.546142215,0.21984780628204034,0.05126952600000001,-200.0,6.625,105.0,1448.5039973258972,0.0,0.25,1.878661917,0.22063100630441987,0.0,0.27000001072883606,-1.7200000286102295,15.84000015258789,-0.2392578125,-0.1082763671875,1.070068359375,37.33000183105469,0.0,-268.0,-0.042327880859375,0.0193939208984375,Closing,0.0,0.0,0.0,0.0,0.0,0.0,0.0,0.0,
3.4410800000000163,0.0,0.0,-310.0,11.125,-157.5,-1468.346507549286,0.0,0.375,1.140136602,0.2156489711419347,-0.013427732999999886,-194.0,22.125,157.5,1468.346507549286,0.0,0.5,0.656738214,0.21702705184411766,0.046386714000000495,-230.0,8.625,-67.5,-1468.346507549286,0.0,0.125,3.5693355720000004,0.21600526352564262,0.04638671399999961,-200.0,10.375,195.0,1468.346507549286,0.0,0.25,1.848144342,0.2167747746255639,-0.03295898099999994,0.12999999523162842,-1.9800000190734863,15.670000076293945,-0.30517578125,-0.0843505859375,1.05389404296875,37.33000183105469,0.0,-282.0,-0.0442352294921875,0.019317626953125,Closing,0.0,0.0,0.0,0.0,0.0,0.0,0.0,0.125,
3.4711410000000034,0.0,0.0,-310.0,11.625,-165.0,-1031.8110573291779,0.0,0.375,1.126708869,0.21468992651750013,0.0,-194.0,22.0,262.5,1031.8110573291779,0.0,0.5,0.6616210260000001,0.21606187855195763,0.0,-230.0,11.25,-52.5,-1031.8110573291779,0.0,0.125,3.594970335,0.21504463438033825,0.0,-200.0,10.5,277.5,1031.8110573291779,0.0,0.125,1.796874816,0.21581072327295703,0.0,-0.03999999910593033,-2.5899999141693115,15.670000076293945,-0.30975341796875,0.03070068359375,1.12054443359375,37.33000183105469,0.0,-240.0,-0.052093505859375,0.01922607421875,Closing,0.0,0.0,0.0,0.0,0.0,0.0,0.0,0.125,
3.507386999999988,0.0,0.0,-310.0,9.5,-240.0,-158.7401568889618,0.0,0.375,1.119384651,0.21510094377568595,-0.014648436000000098,-194.0,19.75,315.0,158.7401568889618,0.0,0.25,0.654296808,0.21647552237009768,0.0024414059999999793,-230.0,11.125,-67.5,-158.7401568889618,0.0,0.0,3.604735959,0.21545633071581288,0.03295898099999972,-135.0,9.375,315.0,158.7401568889618,0.0,0.125,1.78222638,0.2162238862620436,0.0,-0.07000000029802322,-2.8499999046325684,15.770000457763672,-0.16094970703125,-0.022705078125,1.1595458984375,37.33000183105469,0.0,-104.0,-0.0628814697265625,0.0191802978515625,Closing,0.0,0.0,0.0,0.0,0.0,0.0,0.0,0.0,
3.6087949999999838,0.0,0.0,-370.0,0.0,-442.5,0.0,0.0,0.25,1.0571287980000001,0.21510094377568595,0.0,-129.0,0.0,397.5,0.0,0.0,0.25,0.670165947,0.21647552237009768,0.0,-248.0,0.0,-262.5,0.0,0.0,0.125,3.565673463,0.21545633071581288,0.0,-135.0,0.125,322.5,0.0,0.0,0.25,1.807861143,0.2162238862620436,0.0,0.07000000029802322,-2.369999885559082,15.869999885559082,0.10443115234375,-0.078125,1.076904296875,37.33000183105469,0.0,121.0,-0.0885162353515625,0.019134521484375,Closing,0.0,0.0,0.0,0.0,0.0,0.0,0.0,0.0,
3.6864120000000113,0.0,0.0,-421.0,0.0,-300.0,0.0,0.0,0.25,1.0327147380000001,0.21510094377568595,-0.05615233800000019,-82.0,0.0,285.0,0.0,0.0,0.25,0.681152274,0.21647552237009768,0.004882811999999959,-292.0,0.0,-225.0,0.0,0.0,0.0,3.555907839,0.21545633071581288,-0.03906249600000011,-75.0,0.0,390.0,0.0,0.0,0.25,1.8103025490000002,0.2162238862620436,0.029296872000000196,0.23000000417232513,-1.8799999952316284,15.779999732971191,0.27850341796875,0.07781982421875,0.8748779296875,37.33000183105469,0.0,315.0,-0.099395751953125,0.0177154541015625,Closing,0.0,0.0,0.0,0.0,0.0,0.0,0.0,0.125,
3.708695000000007,0.0,0.0,-421.0,0.0,-277.5,0.0,0.0,0.25,1.0327147380000001,0.21510094377568595,-0.05615233800000019,-82.0,0.0,315.0,0.0,0.0,0.25,0.6848143830000001,0.21647552237009768,0.004882811999999959,-292.0,0.0,-187.5,0.0,0.0,0.0,3.555907839,0.21545633071581288,-0.03906249600000011,-75.0,0.125,397.5,0.0,0.0,0.25,1.8151853610000002,0.2162238862620436,0.0012207029999999897,0.25999999046325684,-1.7599999904632568,15.75,0.16046142578125,0.03558349609375,0.87664794921875,37.33000183105469,0.0,188.0,-0.101409912109375,0.017303466796875,Closing,0.0,0.0,0.0,0.0,0.0,0.0,0.0,0.125,
3.822457999999984,0.0,0.0,-471.0,0.0,-240.0,0.0,0.0,0.125,1.027831926,0.21510094377568595,0.0,-29.0,0.0,225.0,0.0,0.0,0.25,0.694580007,0.21647552237009768,0.0,-318.0,0.0,-180.0,0.0,0.0,0.0,3.555907839,0.21545633071581288,0.0,-33.0,0.0,247.5,0.0,0.0,0.25,1.8151853610000002,0.2162238862620436,0.0,0.36000001430511475,-1.2100000381469727,15.850000381469727,0.0877685546875,0.01788330078125,1.0633544921875,37.33000183105469,0.0,109.0,-0.110992431640625,0.0146026611328125,Closing,0.0,0.0,0.0,0.0,0.0,0.0,0.0,0.0,
3.888048999999999,0.0,0.0,-495.0,0.0,-172.5,0.0,0.0,0.125,1.024169817,0.21510094377568595,-0.004882812000000181,-4.0,0.0,165.0,0.0,0.0,0.25,0.69580071,0.21647552237009768,0.006103514999999504,-327.0,0.0,-75.0,0.0,0.0,0.0,3.555907839,0.21545633071581288,0.0,-8.0,0.0,165.0,0.0,0.0,0.25,1.8151853610000002,0.2162238862620436,0.0,0.4300000071525574,-0.9200000166893005,15.829999923706055,0.085693359375,0.0390625,1.1402587890625,37.33000183105469,0.0,108.0,-0.1116180419921875,0.014678955078125,Closing,0.0,0.0,0.0,0.0,0.0,0.0,0.0,0.0,
3.9503699999999955,0.0,0.0,-495.0,0.0,-75.0,0.0,0.0,0.125,1.024169817,0.21510094377568595,-0.004882811999999959,-4.0,0.0,75.0,0.0,0.0,0.25,0.694580007,0.21647552237009768,0.0,-327.0,0.0,0.0,0.0,0.0,0.0,3.555907839,0.21545633071581288,0.0012207029999999897,-8.0,0.0,52.5,0.0,0.0,0.25,1.8151853610000002,0.2162238862620436,0.0,0.5,-0.5799999833106995,15.859999656677246,0.00653076171875,0.00927734375,1.03143310546875,37.31999969482422,0.0,16.0,-0.10882568359375,0.0146636962890625,Closing,0.0,0.0,0.0,0.0,0.0,0.0,0.0,0.0,
4.022805999999982,0.0,0.0,-498.0,0.0,-15.0,0.0,0.0,0.125,1.024169817,0.21510094377568595,0.0,-2.0,0.0,0.0,0.0,0.0,0.25,0.694580007,0.21647552237009768,0.0,-327.0,0.0,0.0,0.0,0.0,0.0,3.555907839,0.21545633071581288,0.0,-6.0,0.0,7.5,0.0,0.0,0.25,1.8151853610000002,0.2162238862620436,0.0,0.5,-0.5400000214576721,15.8100004196167,-0.01519775390625,0.02862548828125,0.99957275390625,37.31999969482422,0.0,0.0,-0.1064300537109375,0.0145111083984375,Closing,0.0,0.0,0.0,0.0,0.0,0.0,0.0,0.0,
4.085483999999997,0.0,0.0,-498.0,0.0,0.0,0.0,0.0,0.125,1.024169817,0.21510094377568595,0.0,-2.0,0.0,0.0,0.0,0.0,0.25,0.694580007,0.21647552237009768,0.0,-327.0,0.0,0.0,0.0,0.0,0.0,3.555907839,0.21545633071581288,0.0012207029999999897,-6.0,0.0,0.0,0.0,0.0,0.25,1.8151853610000002,0.2162238862620436,0.0,0.5,-0.6000000238418579,15.819999694824219,-0.0447998046875,-0.0050048828125,0.994140625,37.31999969482422,0.0,-36.0,-0.106475830078125,0.0144805908203125,Closing,0.0,0.0,0.0,0.0,0.0,0.0,0.0,0.0,
4.152069000000018,0.0,0.0,-498.0,0.0,0.0,0.0,0.0,0.125,1.024169817,0.21510094377568595,0.0,-2.0,0.0,0.0,0.0,0.0,0.25,0.694580007,0.21647552237009768,0.0,-327.0,0.0,0.0,0.0,0.0,0.0,3.555907839,0.21545633071581288,0.0,-6.0,0.0,0.0,0.0,0.0,0.25,1.8164060640000002,0.2162238862620436,0.0,0.46000000834465027,-0.6899999976158142,15.819999694824219,-0.01129150390625,0.01568603515625,1.00592041015625,37.31999969482422,0.0,2.0,-0.107269287109375,0.0143280029296875,Closing,0.0,0.0,0.0,0.0,0.0,0.0,0.0,0.0,
4.22184600000002,0.0,0.0,-498.0,0.0,0.0,0.0,0.0,0.125,1.024169817,0.21510094377568595,0.0,-2.0,0.0,0.0,0.0,0.0,0.25,0.694580007,0.21647552237009768,0.0,-327.0,0.0,0.0,0.0,0.0,0.0,3.555907839,0.21545633071581288,0.0,-6.0,0.0,0.0,0.0,0.0,0.25,1.8151853610000002,0.2162238862620436,0.0,0.44999998807907104,-0.75,15.800000190734863,-0.01507568359375,0.01104736328125,1.01885986328125,37.31999969482422,0.0,0.0,-0.107269287109375,0.0144805908203125,Closing,0.0,0.0,0.0,0.0,0.0,0.0,0.0,0.0,
4.244890000000014,0.0,0.0,-498.0,0.0,0.0,0.0,0.0,0.125,1.024169817,0.21510094377568595,0.0,-2.0,0.0,0.0,0.0,0.0,0.25,0.694580007,0.21647552237009768,0.0,-327.0,0.0,0.0,0.0,0.0,0.0,3.555907839,0.21545633071581288,0.0,-6.0,0.0,0.0,0.0,0.0,0.25,1.8164060640000002,0.2162238862620436,0.0,0.44999998807907104,-0.7599999904632568,15.8100004196167,-0.0594482421875,-0.011962890625,1.04754638671875,37.31999969482422,0.0,-49.0,-0.10736083984375,0.0144805908203125,Closing,0.0,0.0,0.0,0.0,0.0,0.0,0.0,0.0,
4.352183000000019,0.0,0.0,-498.0,0.0,0.0,0.0,0.0,0.125,1.024169817,0.21510094377568595,0.0,-2.0,0.0,0.0,0.0,0.0,0.25,0.694580007,0.21647552237009768,0.0,-327.0,0.0,0.0,0.0,0.0,0.0,3.554687136,0.21545633071581288,0.0,-6.0,0.0,0.0,0.0,0.0,0.25,1.8164060640000002,0.2162238862620436,0.0,0.4399999976158142,-0.7799999713897705,15.8100004196167,0.004150390625,0.00714111328125,1.054443359375,37.31999969482422,0.0,17.0,-0.1082763671875,0.0144805908203125,Closing,0.0,0.0,0.0,0.0,0.0,0.0,0.0,0.0,
4.419753000000026,0.0,0.0,-498.0,0.0,0.0,0.0,0.0,0.125,1.024169817,0.21510094377568595,0.0,-2.0,0.0,0.0,0.0,0.0,0.25,0.694580007,0.21647552237009768,0.0,-327.0,0.0,0.0,0.0,0.0,0.0,3.555907839,0.21545633071581288,0.0,-6.0,0.0,0.0,0.0,0.0,0.25,1.8164060640000002,0.2162238862620436,0.0,0.4399999976158142,-0.75,15.819999694824219,-0.02337646484375,-0.0118408203125,1.01629638671875,37.31999969482422,0.0,-15.0,-0.1086273193359375,0.0144805908203125,Closing,0.0,0.0,0.0,0.0,0.0,0.0,0.0,0.0,
4.489179000000004,0.0,0.0,-498.0,0.0,0.0,0.0,0.0,0.125,1.024169817,0.21510094377568595,0.0,-2.0,0.0,0.0,0.0,0.0,0.25,0.694580007,0.21647552237009768,0.0,-327.0,0.0,0.0,0.0,0.0,0.0,3.555907839,0.21545633071581288,0.0012207029999999897,-6.0,0.0,0.0,0.0,0.0,0.25,1.8151853610000002,0.2162238862620436,0.0,0.4399999976158142,-0.7699999809265137,15.8100004196167,-0.01251220703125,0.02838134765625,1.04443359375,37.33000183105469,0.0,7.0,-0.108489990234375,0.0144805908203125,Closing,0.0,0.0,0.0,0.0,0.0,0.0,0.0,0.0,
4.540872000000032,0.0,0.0,-498.0,0.375,0.0,-727.55908370018,0.0,0.375,1.038818253,0.5498168668524864,0.0,-2.0,1.125,-7.5,-727.55908370018,0.0,4.5,0.694580007,4.41043958977222,0.0,-327.0,0.625,0.0,-727.55908370018,0.0,2.875,3.4814449560000003,4.389674732977291,0.0,-6.0,1.0,0.0,-727.55908370018,0.0,0.75,1.8627927780000002,0.552687206278561,0.0,0.4300000071525574,-0.7799999713897705,15.8100004196167,-0.05010986328125,-0.0147705078125,1.04541015625,37.33000183105469,0.0,-40.0,-0.1085662841796875,0.0144805908203125,Closing,0.0,0.0,0.0,0.0,0.0,0.0,0.0,0.0,
4.570383000000031,0.0,0.0,-498.0,0.625,-7.5,-1570.8661437034607,0.0,0.875,1.0864256700000001,0.5498168668524864,0.0,-2.0,2.75,-45.0,-1570.8661437034607,0.0,4.75,0.6066893910000001,4.41043958977222,0.0,-327.0,0.875,0.0,-1570.8661437034607,0.0,3.375,3.343505517,4.389674732977291,0.0,-6.0,1.625,-22.5,-1570.8661437034607,0.0,0.875,1.929931443,0.5526872062785609,0.0,0.4699999988079071,-0.7099999785423279,15.84000015258789,0.036865234375,-0.02374267578125,1.01007080078125,37.33000183105469,0.0,38.0,-0.108673095703125,0.014373779296875,Closing,0.0,0.0,0.0,0.0,0.0,0.0,0.0,0.0,
4.593149000000034,0.0,0.0,-498.0,0.75,-97.5,-248.03150296211243,0.0,0.875,1.143798711,0.5498168668524864,0.04760741700000004,-24.0,8.625,-82.5,-248.03150296211243,0.0,5.0,0.50048823,4.41043958977222,-0.10375975500000045,-330.0,4.125,0.0,-248.03150296211243,0.0,3.375,3.24706998,4.389674732977291,4.824433215000001,-22.0,4.625,-45.0,-248.03150296211243,0.0,0.875,1.9726560480000002,0.552687206278561,0.05371093199999999,0.4699999988079071,-0.6600000262260437,15.880000114440918,0.093505859375,-0.15960693359375,0.95574951171875,37.33000183105469,0.0,54.0,-0.1086273193359375,0.0141448974609375,Closing,0.0,0.0,0.0,0.0,0.0,0.0,0.0,0.0,
4.633600000000035,0.0,0.0,-522.0,2.75,-165.0,0.0,0.0,0.375,1.203613158,0.5498168668524864,0.04394530799999985,-24.0,8.625,-150.0,0.0,0.0,1.125,0.308837859,4.41043958977222,-0.10986326999999996,-330.0,2.5,-22.5,0.0,0.0,0.625,3.081054372,4.389674732977291,-0.11108397300000039,-22.0,3.375,-112.5,0.0,0.0,0.375,2.039794713,0.552687206278561,0.04638671400000005,0.4399999976158142,-0.6499999761581421,16.469999313354492,-0.11822509765625,-0.145751953125,0.87493896484375,37.33000183105469,0.0,-147.0,-0.107879638671875,0.013641357421875,Closing,0.0,0.0,0.0,0.0,0.0,0.0,0.0,0.125,
4.653313000000024,0.0,0.0,-522.0,1.0,-150.0,0.0,0.0,0.375,1.236572139,0.5498168668524864,0.04394530799999985,-24.0,2.75,-142.5,0.0,0.0,1.125,0.22094724300000002,4.41043958977222,-0.10986326999999996,-330.0,1.25,-30.0,0.0,0.0,0.625,3.013915707,4.389674732977291,-0.11108397300000039,-22.0,1.625,-127.5,0.0,0.0,0.375,2.0678708820000002,0.552687206278561,0.06591796199999989,0.41999998688697815,-0.6899999976158142,16.649999618530273,-0.03680419921875,0.03863525390625,1.1490478515625,37.33000183105469,0.0,-13.0,-0.107757568359375,0.013427734375,Closing,0.0,0.0,0.0,0.0,0.0,0.0,0.0,0.125,
4.682358000000008,0.0,0.0,-522.0,0.0,-105.0,0.0,0.0,0.5,1.252441278,0.5498168668524864,0.06347655600000013,-24.0,0.25,-105.0,0.0,0.0,0.875,0.13916014200000001,4.41043958977222,-0.28198239299999983,-330.0,0.125,-30.0,0.0,0.0,0.5,2.9541012600000003,4.389674732977291,-0.15869138999999954,-22.0,0.125,-112.5,0.0,0.0,0.375,2.088622833,0.552687206278561,0.06591796199999989,0.4699999988079071,-0.6600000262260437,16.829999923706055,-0.00665283203125,0.0157470703125,1.07476806640625,37.33000183105469,0.0,7.0,-0.107391357421875,0.0131378173828125,Closing,0.0,0.0,0.0,0.0,0.0,0.0,0.0,0.0,
4.753885999999999,0.0,0.0,-520.0,0.0,7.5,0.0,0.0,0.375,1.2707518230000001,0.5498168668524864,0.03662108999999991,-23.0,0.0,0.0,0.0,0.0,0.25,0.030517575,4.41043958977222,-0.08178710099999975,-330.0,0.0,22.5,0.0,0.0,0.25,2.862548535,4.389674732977291,-0.12817381500000025,-25.0,0.0,0.0,0.0,0.0,0.375,2.1130368930000003,0.552687206278561,0.0,0.4300000071525574,-0.7900000214576721,16.6299991607666,-0.0555419921875,-0.06103515625,0.97772216796875,37.33000183105469,0.0,-59.0,-0.10687255859375,0.012908935546875,Closing,0.0,0.0,0.0,0.0,0.0,0.0,0.0,0.0,
4.820655000000028,0.0,0.0,-520.0,0.0,15.0,0.0,0.0,0.375,1.280517447,0.5498168668524864,0.0,-23.0,0.0,7.5,0.0,0.0,0.25,0.013427733,4.41043958977222,0.0,-330.0,0.0,37.5,0.0,0.0,0.25,2.823486039,4.389674732977291,-0.08300780400000018,-25.0,0.0,0.0,0.0,0.0,0.375,2.1118161900000003,0.552687206278561,0.01953124800000028,0.4099999964237213,-0.8199999928474426,16.420000076293945,0.0107421875,0.02960205078125,0.9815673828125,37.33000183105469,0.0,30.0,-0.1075439453125,0.0125579833984375,Closing,0.0,0.0,0.0,0.0,0.0,0.0,0.0,0.0,
4.888174999999988,0.0,0.0,-517.0,9.125,-22.5,-1818.8976466655731,0.0,0.375,1.2902830710000002,0.5498168668524864,0.0,-20.0,11.25,-15.0,-1818.8976466655731,0.0,0.25,0.013427733,4.41043958977222,0.0,-324.0,5.75,15.0,-1818.8976466655731,0.0,0.125,2.823486039,4.389674732977291,0.0,-25.0,6.125,-22.5,-1818.8976466655731,0.0,0.25,2.1179197050000003,0.552687206278561,0.0,0.36000001430511475,-0.8399999737739563,16.549999237060547,-0.00311279296875,0.06927490234375,1.080810546875,37.33000183105469,0.0,30.0,-0.1076507568359375,0.0123443603515625,Closing,0.0,0.0,0.0,0.0,0.0,0.0,0.0,0.0,
5.019618000000016,0.0,0.0,-551.0,0.375,-262.5,-347.2440853714943,0.0,0.25,1.352538924,0.5498168668524864,0.0,-68.0,0.875,-345.0,-347.2440853714943,0.0,0.25,4.952392071,4.41043958977222,0.0,-334.0,1.0,-90.0,-347.2440853714943,0.0,0.125,2.818603227,4.389674732977291,0.0,-59.0,1.0,-210.0,-347.2440853714943,0.0,0.25,2.198486103,0.552687206278561,0.0,0.4699999988079071,-0.9599999785423279,21.270000457763672,-0.0277099609375,0.0068359375,1.00732421875,37.349998474121094,0.0,-10.0,-0.1055908203125,0.0121917724609375,Closing,0.0,0.0,0.0,0.0,0.0,0.0,0.0,0.125,
5.045908999999985,0.0,0.0,-551.0,0.125,-307.5,0.0,0.0,0.25,1.36718736,0.5498168668524864,0.06713866499999988,-68.0,0.75,-345.0,0.0,0.0,0.25,4.952392071,4.41043958977222,4.941405744000001,-334.0,1.0,-120.0,0.0,0.0,0.125,2.81982393,4.389674732977291,-0.0024414059999999793,-59.0,0.25,-195.0,0.0,0.0,0.25,2.213134539,0.552687206278561,0.07934569499999977,0.44999998807907104,-0.9200000166893005,22.299999237060547,-0.0936279296875,-0.03265380859375,0.92596435546875,37.349998474121094,0.0,-87.0,-0.1050872802734375,0.0121917724609375,Closing,0.0,0.0,0.0,0.0,0.0,0.0,0.0,0.125,
5.071397999999986,0.0,0.0,-551.0,0.0,-337.5,0.0,0.0,0.125,1.36718736,0.5498168668524864,0.06713866499999988,-116.0,0.25,-337.5,0.0,0.0,0.25,4.954833477,4.41043958977222,4.941405744000001,-365.0,0.25,-180.0,0.0,0.0,0.125,2.818603227,4.389674732977291,-0.0024414059999999793,-97.0,0.125,-217.5,0.0,0.0,0.25,2.2180173510000003,0.552687206278561,0.07934569499999977,0.4399999976158142,-0.9800000190734863,23.270000457763672,-0.01409912109375,-0.00384521484375,1.14501953125,37.349998474121094,0.0,0.0,-0.104888916015625,0.012115478515625,Closing,0.0,0.0,0.0,0.0,0.0,0.0,0.0,0.0,
5.153233000000007,0.0,0.0,-601.0,0.0,-165.0,0.0,0.0,0.125,1.365966657,0.5498168668524864,0.0,-116.0,0.0,-105.0,0.0,0.0,0.25,4.953612774000001,4.41043958977222,0.0,-365.0,0.0,-127.5,0.0,0.0,0.125,2.81982393,4.389674732977291,0.0,-97.0,0.0,-285.0,0.0,0.0,0.25,2.2216794600000003,0.552687206278561,0.0,0.5,-0.9700000286102295,25.110000610351562,0.01513671875,-0.00457763671875,1.1005859375,37.349998474121094,0.0,24.0,-0.1038970947265625,0.012542724609375,Closing,0.0,0.0,0.0,0.0,0.0,0.0,0.0,0.0,
5.221600000000035,0.0,0.0,-616.0,0.0,-82.5,0.0,0.0,0.125,1.365966657,0.5498168668524864,-0.0012207029999999897,-133.0,0.0,-105.0,0.0,0.0,0.25,4.954833477,4.41043958977222,0.0,-372.0,0.0,-30.0,0.0,0.0,0.125,2.81982393,4.389674732977291,0.0,-132.0,0.0,-202.5,0.0,0.0,0.25,2.2180173510000003,0.552687206278561,0.004882811999999959,0.4300000071525574,-0.9599999785423279,25.709999084472656,-0.0732421875,-0.05731201171875,1.0535888671875,37.349998474121094,0.0,-78.0,-0.102935791015625,0.0131988525390625,Closing,0.0,0.0,0.0,0.0,0.0,0.0,0.0,0.0,
5.288620999999985,0.0,0.0,-616.0,0.0,-82.5,0.0,0.0,0.125,1.36718736,0.5498168668524864,0.0012207029999999897,-133.0,0.0,-82.5,0.0,0.0,0.25,4.954833477,4.41043958977222,0.0,-372.0,0.0,-30.0,0.0,0.0,0.125,2.81982393,4.389674732977291,0.0,-132.0,0.0,-90.0,0.0,0.0,0.25,2.2180173510000003,0.552687206278561,0.0,0.4099999964237213,-0.9800000190734863,26.059999465942383,0.01824951171875,0.0419921875,0.98309326171875,37.349998474121094,0.0,46.0,-0.1016998291015625,0.0139007568359375,Closing,0.0,0.0,0.0,0.0,0.0,0.0,0.0,0.0,
5.351564000000013,0.0,0.0,-619.0,6.625,-60.0,-2100.0,0.0,0.125,1.36718736,0.5498168668524864,0.0,-134.0,8.5,-60.0,-2100.0,0.0,0.25,4.956054180000001,4.41043958977222,0.0,-376.0,7.0,-22.5,-2100.0,0.0,0.125,2.818603227,4.389674732977291,0.0,-137.0,6.25,-37.5,-2100.0,0.0,0.25,2.213134539,0.552687206278561,0.0,0.4300000071525574,-0.9700000286102295,25.84000015258789,0.23614501953125,0.38629150390625,0.94366455078125,37.349998474121094,0.0,392.0,-0.100006103515625,0.01409912109375,Closing,0.0,0.0,0.0,0.0,0.0,0.0,0.0,0.125,
5.417492000000028,0.0,0.0,-619.0,6.5,-300.0,-512.5984311103821,0.0,0.125,1.3732908750000001,0.5498168668524864,0.0,-134.0,14.25,-412.5,-512.5984311103821,0.0,0.25,4.956054180000001,4.41043958977222,0.0,-376.0,9.25,-180.0,-512.5984311103821,0.0,0.125,2.823486039,4.389674732977291,0.0,-137.0,6.25,-217.5,-512.5984311103821,0.0,0.25,2.208251727,0.552687206278561,0.0,0.3499999940395355,-1.100000023841858,27.450000762939453,-0.176513671875,0.03204345703125,1.40771484375,37.349998474121094,0.0,-121.0,-0.0995025634765625,0.0148773193359375,Closing,0.0,0.0,0.0,0.0,0.0,0.0,0.0,0.0,
5.483718999999983,0.0,0.0,-682.0,0.125,-315.0,0.0,0.0,0.125,1.3708494690000002,0.5498168668524864,0.0,-213.0,0.5,-397.5,0.0,0.0,0.25,4.954833477,4.41043958977222,0.0,-416.0,0.25,-247.5,0.0,0.0,0.125,2.818603227,4.389674732977291,0.0,-177.0,0.375,-195.0,0.0,0.0,0.25,2.203368915,0.552687206278561,0.0012207029999999897,0.4099999964237213,-1.090000033378601,30.020000457763672,-0.0758056640625,0.01531982421875,1.03424072265625,37.34000015258789,0.0,-44.0,-0.0991363525390625,0.017486572265625,Closing,0.0,0.0,0.0,0.0,0.0,0.0,0.0,0.125,
5.54080700000003,0.0,0.0,-682.0,0.0,-180.0,0.0,0.0,0.125,1.3720701720000001,0.5498168668524864,0.0,-213.0,0.0,-157.5,0.0,0.0,0.25,4.953612774000001,4.41043958977222,0.0012207029999995456,-435.0,0.0,-150.0,0.0,0.0,0.125,2.821044633,4.389674732977291,0.0,-212.0,0.0,-225.0,0.0,0.0,0.25,2.203368915,0.552687206278561,-0.009765623999999917,0.4099999964237213,-0.9599999785423279,31.600000381469727,-0.04815673828125,-0.00750732421875,0.95849609375,37.34000015258789,0.0,-34.0,-0.09954833984375,0.0195770263671875,Closing,0.0,0.0,0.0,0.0,0.0,0.0,0.0,0.0,
5.620303000000014,0.0,0.0,-694.0,0.0,-82.5,-198.42519611120224,0.0,0.125,1.3708494690000002,0.5498168668524864,0.0,-230.0,0.0,-142.5,-198.42519611120224,0.0,0.25,4.956054180000001,4.41043958977222,0.0,-435.0,0.125,-52.5,-198.42519611120224,0.0,0.125,2.81982393,4.389674732977291,0.0,-212.0,0.0,-202.5,-198.42519611120224,0.0,0.25,2.203368915,0.552687206278561,0.0,0.3400000035762787,-1.0,32.61000061035156,-0.04290771484375,0.060302734375,1.0660400390625,37.34000015258789,0.0,8.0,-0.100372314453125,0.021453857421875,Closing,0.0,0.0,0.0,0.0,0.0,0.0,0.0,0.0,
5.686358999999997,0.0,0.0,-713.0,0.125,-112.5,-396.8503922224045,0.0,0.125,1.3720701720000001,0.5498168668524864,0.0,-246.0,0.0,-120.0,-396.8503922224045,0.0,0.25,4.953612774000001,4.41043958977222,0.0,-451.0,0.125,-90.0,-396.8503922224045,0.0,0.125,2.818603227,4.389674732977291,0.0,-223.0,0.375,-75.0,-396.8503922224045,0.0,0.25,2.200927509,0.552687206278561,0.0,0.4300000071525574,-1.0399999618530273,32.779998779296875,-0.0269775390625,0.00213623046875,1.11859130859375,37.34000015258789,0.0,-9.0,-0.1010284423828125,0.0234222412109375,Closing,0.0,0.0,0.0,0.0,0.0,0.0,0.0,0.0,
5.752430999999982,0.0,0.0,-713.0,0.0,-67.5,0.0,0.0,0.125,1.3720701720000001,0.5498168668524864,0.0012207029999999897,-246.0,0.125,-67.5,0.0,0.0,0.25,4.956054180000001,4.41043958977222,0.0,-451.0,0.0,-120.0,0.0,0.0,0.125,2.81982393,4.389674732977291,0.0,-223.0,0.125,-15.0,0.0,0.0,0.25,2.203368915,0.552687206278561,0.0,0.4300000071525574,-0.9900000095367432,32.54999923706055,4.8828125E-4,-0.03570556640625,1.06036376953125,37.34000015258789,0.0,-7.0,-0.10162353515625,0.02581787109375,Closing,0.0,0.0,0.0,0.0,0.0,0.0,0.0,0.0,
5.820399000000034,0.0,0.0,-717.0,0.0,-22.5,0.0,0.0,0.125,1.3720701720000001,0.5498168668524864,-0.0012207029999999897,-256.0,0.0,-60.0,0.0,0.0,0.25,4.953612774000001,4.41043958977222,0.0,-462.0,0.0,-75.0,0.0,0.0,0.125,2.81982393,4.389674732977291,0.0,-223.0,0.125,0.0,0.0,0.0,0.25,2.203368915,0.552687206278561,-0.0012207029999999897,0.4000000059604645,-0.9800000190734863,32.349998474121094,-0.05377197265625,-0.02313232421875,1.0433349609375,37.34000015258789,0.0,-46.0,-0.10205078125,0.0270538330078125,Closing,0.0,0.0,0.0,0.0,0.0,0.0,0.0,0.0,
5.883623000000021,0.0,0.0,-717.0,0.0,0.0,0.0,0.0,0.125,1.3720701720000001,0.5498168668524864,0.0,-256.0,0.0,0.0,0.0,0.0,0.25,4.953612774000001,4.41043958977222,0.0012207029999995456,-462.0,0.0,7.5,0.0,0.0,0.125,2.818603227,4.389674732977291,0.0,-223.0,0.0,0.0,0.0,0.0,0.25,2.203368915,0.552687206278561,0.0012207029999999897,0.4399999976158142,-1.0099999904632568,32.2400016784668,-0.01458740234375,0.03765869140625,1.07135009765625,37.34000015258789,0.0,19.0,-0.10272216796875,0.027130126953125,Closing,0.0,0.0,0.0,0.0,0.0,0.0,0.0,0.0,
5.938119999999995,0.0,0.0,-719.0,0.625,-7.5,-744.0945088863373,0.0,0.125,1.36718736,0.5498168668524864,0.0,-257.0,1.125,-7.5,-744.0945088863373,0.0,0.25,4.953612774000001,4.41043958977222,0.0,-460.0,0.875,7.5,-744.0945088863373,0.0,0.125,2.81982393,4.389674732977291,0.0,-223.0,1.0,0.0,-744.0945088863373,0.0,0.25,2.203368915,0.552687206278561,0.0,0.4000000059604645,-0.9800000190734863,32.2400016784668,0.09576416015625,-0.12286376953125,1.0723876953125,37.34000015258789,0.0,26.0,-0.1029205322265625,0.0272216796875,Closing,0.0,0.0,0.0,0.0,0.0,0.0,0.0,0.0,
6.029543999999994,0.0,0.0,-719.0,5.625,-157.5,-1223.622089624405,0.0,0.125,1.3720701720000001,0.5498168668524864,0.0,-257.0,10.25,-127.5,-1223.622089624405,0.0,0.25,4.954833477,4.41043958977222,0.0,-460.0,5.875,-22.5,-1223.622089624405,0.0,0.125,2.81982393,4.389674732977291,0.0,-261.0,4.375,-112.5,-1223.622089624405,0.0,0.25,2.203368915,0.552687206278561,0.0,0.3100000023841858,-0.949999988079071,33.40999984741211,0.10186767578125,0.0213623046875,0.93157958984375,37.33000183105469,0.0,106.0,-0.10394287109375,0.0266265869140625,Closing,0.0,0.0,0.0,0.0,0.0,0.0,0.0,0.0,
6.08828899999999,0.0,0.0,-754.0,2.5,-225.0,0.0,0.0,0.125,1.3745115780000001,0.5498168668524864,0.004882812000000181,-291.0,5.875,-217.5,0.0,0.0,0.25,4.957274883,4.41043958977222,-0.0012207029999995456,-466.0,2.875,-30.0,0.0,0.0,0.125,2.81982393,4.389674732977291,0.0,-261.0,2.5,-300.0,0.0,0.0,0.25,2.203368915,0.552687206278561,0.0,0.4000000059604645,-1.059999942779541,35.5,-0.022705078125,0.0526123046875,0.9530029296875,37.33000183105469,0.0,22.0,-0.1035003662109375,0.026336669921875,Closing,0.0,0.0,0.0,0.0,0.0,0.0,0.0,0.0,
6.139008000000031,0.0,0.0,-754.0,0.0,-202.5,0.0,0.0,0.125,1.3720701720000001,0.5498168668524864,0.0,-291.0,0.0,-172.5,0.0,0.0,0.25,4.956054180000001,4.41043958977222,0.0,-466.0,0.0,-45.0,0.0,0.0,0.125,2.814941118,4.389674732977291,-0.0012207030000004337,-261.0,0.0,-180.0,0.0,0.0,0.25,2.203368915,0.552687206278561,0.0,0.3499999940395355,-1.059999942779541,37.459999084472656,0.11688232421875,0.065185546875,0.9342041015625,37.33000183105469,0.0,142.0,-0.1028289794921875,0.0265960693359375,Closing,0.0,0.0,0.0,0.0,0.0,0.0,0.0,0.0,
6.219693000000029,0.0,0.0,-773.0,0.625,-135.0,-942.519673705101,0.0,0.125,1.3720701720000001,0.5498168668524864,0.0,-316.0,1.0,-225.0,-942.519673705101,0.0,0.25,4.954833477,4.41043958977222,0.0,-472.0,0.625,-97.5,-942.519673705101,0.0,0.125,2.812499712,4.389674732977291,0.0,-292.0,1.0,-180.0,-942.519673705101,0.0,0.25,2.203368915,0.552687206278561,0.0,0.3199999928474426,-0.9599999785423279,38.91999816894531,-0.00604248046875,-0.095703125,1.0419921875,37.33000183105469,0.0,-54.0,-0.1020965576171875,0.0257415771484375,Closing,0.0,0.0,0.0,0.0,0.0,0.0,0.0,0.0,
6.273647999999986,0.0,0.0,-773.0,5.125,-405.0,-1570.8661437034607,0.0,0.125,1.3720701720000001,0.5498168668524864,0.0,-382.0,7.375,-427.5,-1570.8661437034607,0.0,0.25,4.953612774000001,4.41043958977222,0.0,-518.0,4.375,-307.5,-1570.8661437034607,0.0,0.125,2.821044633,4.389674732977291,0.0,-335.0,4.5,-225.0,-1570.8661437034607,0.0,0.25,2.1972654,0.5526872062785609,0.0,0.28999999165534973,-0.9599999785423279,39.880001068115234,-0.011962890625,-0.0897216796875,0.92877197265625,37.33000183105469,0.0,-57.0,-0.1024627685546875,0.02520751953125,Closing,0.0,0.0,0.0,0.0,0.0,0.0,0.0,0.0,
6.353718999999983,0.0,0.0,-840.0,3.125,-367.5,0.0,0.0,0.125,1.3720701720000001,0.5498168668524864,0.0,-382.0,1.625,-285.0,0.0,0.0,0.25,4.957274883,4.41043958977222,0.0,-518.0,1.375,-127.5,0.0,0.0,0.125,2.818603227,4.389674732977291,0.0,-335.0,2.125,-435.0,0.0,0.0,0.25,2.203368915,0.5526872062785609,0.0,0.38999998569488525,-1.1200000047683716,43.41999816894531,-0.1016845703125,0.02734375,1.3609619140625,37.33000183105469,0.0,-42.0,-0.10345458984375,0.025146484375,Closing,0.0,0.0,0.0,0.0,0.0,0.0,0.0,0.0,
6.422195000000007,0.0,0.0,-868.0,0.0,-157.5,0.0,0.0,0.25,1.36718736,0.5498168668524864,0.0,-416.0,0.0,-172.5,0.0,0.0,0.25,4.954833477,4.41043958977222,-0.0012207029999995456,-532.0,0.0,-90.0,0.0,0.0,0.125,2.818603227,4.389674732977291,-0.0012207030000004337,-383.0,0.0,-240.0,0.0,0.0,0.25,2.203368915,0.5526872062785609,0.0,0.3199999928474426,-1.0299999713897705,45.0,-0.07781982421875,0.11431884765625,0.892333984375,37.33000183105469,0.0,33.0,-0.1037750244140625,0.0252685546875,Closing,0.0,0.0,0.0,0.0,0.0,0.0,0.0,0.0,
6.484892999999982,0.0,0.0,-868.0,0.0,-217.5,0.0,0.0,0.125,1.36718736,0.5498168668524864,-0.0012207029999999897,-416.0,0.0,-300.0,0.0,0.0,0.25,4.954833477,4.41043958977222,0.0012207029999995456,-532.0,0.0,-247.5,0.0,0.0,0.125,2.818603227,4.389674732977291,-0.0012207029999995456,-383.0,0.0,-232.5,0.0,0.0,0.25,2.203368915,0.5526872062785609,0.0,0.20999999344348907,-1.0399999618530273,46.790000915527344,-0.0687255859375,-0.01190185546875,0.89959716796875,37.33000183105469,0.0,-46.0,-0.1034393310546875,0.0250701904296875,Closing,0.0,0.0,0.0,0.0,0.0,0.0,0.0,0.0,
6.541825000000012,0.0,0.0,-901.0,0.0,-217.5,0.0,0.0,0.125,1.36718736,0.5498168668524864,0.0,-444.0,0.0,-217.5,0.0,0.0,0.25,4.956054180000001,4.41043958977222,0.0,-579.0,0.0,-255.0,0.0,0.0,0.125,2.813720415,4.389674732977291,0.0,-417.0,0.125,-195.0,0.0,0.0,0.25,2.203368915,0.5526872062785609,0.0,0.2800000011920929,-1.0700000524520874,47.70000076293945,0.06011962890625,0.0452880859375,0.91680908203125,37.33000183105469,0.0,31.0,-0.103302001953125,0.024993896484375,Closing,0.0,0.0,0.0,0.0,0.0,0.0,0.0,0.0,
6.6237280000000025,0.0,0.0,-901.0,0.0,-90.0,0.0,0.0,0.125,1.36718736,0.5498168668524864,0.0,-444.0,0.0,-75.0,0.0,0.0,0.25,4.956054180000001,4.41043958977222,0.0,-579.0,0.0,-75.0,0.0,0.0,0.125,2.814941118,4.389674732977291,0.0,-417.0,0.0,-60.0,0.0,0.0,0.25,2.203368915,0.5526872062785609,0.0,0.23000000417232513,-1.0199999809265137,48.029998779296875,-0.0047607421875,-0.02752685546875,0.96173095703125,37.33000183105469,0.0,-14.0,-0.1031036376953125,0.024627685546875,Closing,0.0,0.0,0.0,0.0,0.0,0.0,0.0,0.125,
6.643677000000025,0.0,0.0,-909.0,0.0,-67.5,0.0,0.0,0.125,1.36718736,0.5498168668524864,0.0,-453.0,0.0,-67.5,0.0,0.0,0.25,4.954833477,4.41043958977222,0.0012207029999995456,-581.0,0.0,-15.0,0.0,0.0,0.125,2.81982393,4.389674732977291,0.0024414059999999793,-423.0,0.0,-37.5,0.0,0.0,0.25,2.204589618,0.5526872062785609,0.0,0.23999999463558197,-1.0199999809265137,47.95000076293945,-0.06048583984375,-0.0133056640625,1.057373046875,37.33000183105469,0.0,-41.0,-0.103118896484375,0.0244903564453125,Closing,0.0,0.0,0.0,0.0,0.0,0.0,0.0,0.125,
6.670275000000023,0.0,0.0,-909.0,0.0,-52.5,0.0,0.0,0.125,1.3684080630000002,0.5498168668524864,0.0,-453.0,0.0,-22.5,0.0,0.0,0.25,4.953612774000001,4.41043958977222,0.0012207029999995456,-581.0,0.0,0.0,0.0,0.0,0.125,2.814941118,4.389674732977291,0.0024414059999999793,-423.0,0.0,-15.0,0.0,0.0,0.25,2.203368915,0.5526872062785609,0.0,0.25999999046325684,-0.9800000190734863,47.81999969482422,0.01568603515625,0.03582763671875,1.01507568359375,37.33000183105469,0.0,45.0,-0.10321044921875,0.0244598388671875,Closing,0.0,0.0,0.0,0.0,0.0,0.0,0.0,0.125,
6.704088999999978,0.0,0.0,-909.0,0.0,-15.0,0.0,0.0,0.125,1.36718736,0.5498168668524864,-0.0012207029999999897,-453.0,0.0,-7.5,0.0,0.0,0.25,4.953612774000001,4.41043958977222,-0.0012207029999995456,-581.0,0.0,0.0,0.0,0.0,0.125,2.814941118,4.389674732977291,0.0,-423.0,0.0,0.0,0.0,0.0,0.25,2.204589618,0.5526872062785609,0.0,0.27000001072883606,-1.0099999904632568,47.66999816894531,-0.02349853515625,0.0421142578125,0.98712158203125,37.33000183105469,0.0,23.0,-0.1031494140625,0.0244903564453125,Closing,0.0,0.0,0.0,0.0,0.0,0.0,0.0,0.125,
6.730291000000027,0.0,0.0,-909.0,0.0,0.0,0.0,0.0,0.125,1.36718736,0.5498168668524864,-0.0012207029999999897,-453.0,0.0,0.0,0.0,0.0,0.25,4.953612774000001,4.41043958977222,-0.0012207029999995456,-581.0,0.0,0.0,0.0,0.0,0.125,2.81982393,4.389674732977291,0.0,-423.0,0.125,0.0,0.0,0.0,0.25,2.204589618,0.5526872062785609,0.0,0.27000001072883606,-1.0499999523162842,47.4900016784668,-0.02215576171875,0.0101318359375,1.1005859375,37.33000183105469,0.0,2.0,-0.102996826171875,0.0245361328125,Closing,0.0,0.0,0.0,0.0,0.0,0.0,0.0,0.0,
6.768450000000012,0.0,0.0,-909.0,0.0,0.0,-297.63780355453486,0.0,0.125,1.36718736,4.932250999999998,0.0,-453.0,0.0,0.0,297.63780355453486,0.0,0.25,4.954833477,4.963769999999998,0.0,-581.0,0.0,0.0,-297.63780355453486,0.0,0.125,2.81982393,0.01,0.0,-423.0,0.375,0.0,297.63780355453486,0.0,0.25,2.203368915,0.01,0.0,0.27000001072883606,-1.0499999523162842,47.439998626708984,-0.03955078125,-0.01458740234375,1.07745361328125,37.33000183105469,0.0,-27.0,-0.1030120849609375,0.0245361328125,Closing,0.0,0.0,0.0,0.0,0.0,0.0,0.0,0.0,
6.787400000000023,0.0,0.0,-909.0,0.0,0.0,-476.2204706668854,0.0,0.125,1.36718736,4.932250999999998,-0.0012207029999999897,-453.0,0.0,0.0,476.2204706668854,0.0,0.25,4.956054180000001,4.963769999999998,-0.0012207029999995456,-581.0,0.125,0.0,-476.2204706668854,0.0,0.125,2.813720415,0.01,0.0,-423.0,0.375,0.0,476.2204706668854,0.0,0.25,2.203368915,0.01,0.0,0.27000001072883606,-1.0299999713897705,47.369998931884766,-0.0399169921875,-0.02081298828125,1.01617431640625,37.33000183105469,0.0,-33.0,-0.1031951904296875,0.0245361328125,Closing,0.0,0.0,0.0,0.0,0.0,0.0,0.0,0.0,
6.827367000000027,0.0,0.0,-909.0,0.125,0.0,-734.173253774643,0.0,1.25,1.336669785,4.932250999999998,-0.006103514999999948,-453.0,0.625,7.5,734.173253774643,0.0,0.75,4.956054180000001,4.963769999999998,0.0012207029999995456,-581.0,0.375,0.0,-734.173253774643,0.0,1.0,2.862548535,0.01,0.0,-423.0,0.375,0.0,734.173253774643,0.0,2.125,2.150878686,0.01,-0.004882811999999959,0.27000001072883606,-1.0199999809265137,47.34000015258789,-0.02947998046875,0.03228759765625,1.01861572265625,37.33000183105469,0.0,12.0,-0.103485107421875,0.024566650390625,Closing,0.0,0.0,0.0,0.0,0.0,0.0,0.0,0.0,
6.847793999999994,0.0,0.0,-909.0,0.375,-7.5,-734.173253774643,0.0,1.875,1.254882684,4.932250999999998,0.0,-453.0,1.125,37.5,734.173253774643,0.0,1.75,4.954833477,4.963769999999998,0.0,-581.0,0.375,-7.5,-734.173253774643,0.0,1.75,2.973632508,0.01,0.0,-423.0,0.75,0.0,734.173253774643,0.0,2.5,2.025146277,0.01,0.0,0.3199999928474426,-1.0499999523162842,47.31999969482422,-0.11346435546875,-0.104736328125,1.01959228515625,37.33000183105469,0.0,-145.0,-0.1035919189453125,0.024749755859375,Closing,0.0,0.0,0.0,0.0,0.0,0.0,0.0,0.0,
6.889478000000003,0.0,0.0,-928.0,2.0,-90.0,-773.8582742214203,0.0,1.125,1.156005741,4.932250999999998,-0.07568358600000002,-439.0,3.25,90.0,773.8582742214203,0.0,1.5,0.14526365700000002,4.963769999999998,-4.913329575000001,-589.0,1.875,-30.0,-773.8582742214203,0.0,0.875,3.095702808,0.01,0.0,-411.0,2.375,67.5,773.8582742214203,0.0,0.625,1.877441214,0.01,0.0,0.3100000023841858,-1.2400000095367432,47.279998779296875,-0.05963134765625,-0.12042236328125,1.01214599609375,37.33000183105469,0.0,-118.0,-0.10455322265625,0.0253448486328125,Closing,0.0,0.0,0.0,0.0,0.0,0.0,0.0,0.125,
6.912396000000008,0.0,0.0,-928.0,2.625,-120.0,-793.700784444809,0.0,0.75,1.071777234,4.932250999999998,-0.12207030000000008,-439.0,4.375,97.5,793.700784444809,0.0,0.75,0.23681638200000002,4.963769999999998,0.14038084500000014,-589.0,2.5,-67.5,-793.700784444809,0.0,0.25,3.1689449880000002,0.01,0.12939451800000068,-411.0,2.625,105.0,793.700784444809,0.0,0.5,1.796874816,0.01,-0.15014646900000006,0.25999999046325684,-1.2899999618530273,47.25,-0.0850830078125,-0.05548095703125,1.0218505859375,37.33000183105469,0.0,-86.0,-0.1050872802734375,0.0255584716796875,Closing,0.0,0.0,0.0,0.0,0.0,0.0,0.0,0.125,
6.942077999999979,0.0,0.0,-928.0,3.875,-120.0,-793.700784444809,0.0,0.75,0.979003806,4.932250999999998,0.0,-439.0,5.875,82.5,793.700784444809,0.0,0.75,0.35400387,4.963769999999998,0.0,-589.0,3.0,-75.0,-793.700784444809,0.0,0.375,3.2604977130000004,0.01,0.0,-411.0,3.125,150.0,793.700784444809,0.0,0.5,1.6870115460000001,0.01,0.0,0.23999999463558197,-1.350000023841858,47.11000061035156,-0.04205322265625,0.0242919921875,0.97314453125,37.33000183105469,0.0,1.0,-0.10675048828125,0.0265350341796875,Closing,0.0,0.0,0.0,0.0,0.0,0.0,0.0,0.0,
6.973423999999999,0.0,0.0,-928.0,4.25,-82.5,-793.700784444809,0.0,0.625,0.9350584980000001,4.932250999999998,-0.09765623999999995,-439.0,6.875,82.5,793.700784444809,0.0,1.0,0.399169881,4.963769999999998,0.10864256700000041,-589.0,3.25,-75.0,-793.700784444809,0.0,0.25,3.284911773,0.01,0.08544921000000016,-411.0,3.125,157.5,793.700784444809,0.0,0.5,1.6564939710000002,0.01,-0.11230467599999994,0.27000001072883606,-1.409999966621399,47.029998779296875,-0.09088134765625,-0.00567626953125,1.03759765625,37.33000183105469,0.0,-52.0,-0.1073150634765625,0.0269775390625,Closing,0.0,0.0,0.0,0.0,0.0,0.0,0.0,0.0,
6.993539999999979,0.0,0.0,-935.0,5.75,-37.5,-793.700784444809,0.0,0.5,0.8947752990000001,4.932250999999998,0.0,-417.0,9.625,120.0,793.700784444809,0.0,0.75,0.44799800100000003,4.963769999999998,0.0,-600.0,4.375,-67.5,-793.700784444809,0.0,0.125,3.3081051300000004,0.01,0.0,-384.0,4.25,172.5,793.700784444809,0.0,0.25,1.596679524,0.01,0.0,0.3199999928474426,-1.6699999570846558,46.709999084472656,-0.07257080078125,0.06939697265625,1.05511474609375,37.34000015258789,0.0,17.0,-0.1104736328125,0.0297088623046875,Closing,0.0,0.0,0.0,0.0,0.0,0.0,0.0,0.0,
7.046750999999989,0.0,0.0,-935.0,6.75,-52.5,-793.700784444809,0.0,0.5,0.8801268630000001,4.932250999999998,-0.04150390199999998,-417.0,10.375,180.0,793.700784444809,0.0,0.5,0.458984328,4.963769999999998,0.0,-600.0,5.625,-52.5,-793.700784444809,0.0,0.125,3.3215328630000003,0.01,0.0,-384.0,5.0,217.5,793.700784444809,0.0,0.25,1.547851404,0.01,0.0,0.3400000035762787,-1.7599999904632568,46.619998931884766,-0.16046142578125,0.074951171875,0.9468994140625,37.34000015258789,0.0,-39.0,-0.1124725341796875,0.03173828125,Closing,0.0,0.0,0.0,0.0,0.0,0.0,0.0,0.125,
7.150956999999995,0.0,0.0,-977.0,7.5,-247.5,-793.700784444809,0.0,0.375,0.875244051,4.932250999999998,0.0,-371.0,11.75,300.0,793.700784444809,0.0,0.25,0.46630854600000005,4.963769999999998,0.0,-631.0,6.5,-240.0,-793.700784444809,0.0,0.0,3.3618160620000004,0.01,0.0,-340.0,5.75,292.5,793.700784444809,0.0,0.25,1.5258787500000002,0.01,0.0,0.2800000011920929,-2.4600000381469727,46.90999984741211,-0.24188232421875,0.0068359375,1.013916015625,37.34000015258789,0.0,-134.0,-0.1219635009765625,0.041595458984375,Closing,0.0,0.0,0.0,0.0,0.0,0.0,0.0,0.0,
7.211943000000028,0.0,0.0,-977.0,6.625,-412.5,-793.700784444809,0.0,0.375,0.876464754,4.932250999999998,0.0,-371.0,11.75,405.0,793.700784444809,0.0,0.25,0.457763625,4.963769999999998,0.0,-631.0,6.5,-375.0,-793.700784444809,0.0,0.0,3.3618160620000004,0.01,0.0,-340.0,6.0,382.5,793.700784444809,0.0,0.25,1.549072107,0.01,0.0,0.2800000011920929,-2.799999952316284,47.209999084472656,-0.1015625,0.01824951171875,1.00732421875,37.34000015258789,0.0,-25.0,-0.1333160400390625,0.053924560546875,Closing,0.0,0.0,0.0,0.0,0.0,0.0,0.0,0.0,
7.289347999999998,0.0,0.0,-1064.0,5.875,-577.5,-793.700784444809,0.0,0.375,0.871581942,4.932250999999998,0.0,-292.0,10.625,547.5,793.700784444809,0.0,0.25,0.457763625,4.963769999999998,0.0,-704.0,5.75,-510.0,-793.700784444809,0.0,0.0,3.3618160620000004,0.01,0.0,-268.0,5.5,540.0,793.700784444809,0.0,0.25,1.5832517910000001,0.01,0.0,0.23000000417232513,-3.059999942779541,47.380001068115234,-0.0125732421875,-0.02874755859375,0.891357421875,37.34000015258789,0.0,0.0,-0.143768310546875,0.06500244140625,Closing,0.0,0.0,0.0,0.0,0.0,0.0,0.0,0.125,
