Time,ClimberA1,ClimberA2,FRpos,FRCurrent,FRspeed,FRsetpoint,FRApos,FRACurrent,FREncpos,FREncSetpoint,FREncSpeed,FLpos,FLCurrent,FLspeed,FLsetpoint,FLApos,FLACurrent,FLEncpos,FLEncSetpoint,FLEncSpeed,BRpos,BRCurrent,BRspeed,BRsetpoint,BRApos,BRACurrent,BREncpos,BREncSetpoint,BREncSpeed,BLpos,BLCurrent,BLspeed,BLsetpoint,BLApos,BLACurrent,BLEncpos,BLEncSetpoint,BLEncSpeed,navx_Pitch,navx_Roll,navx_Yaw,navx_XAcc,navx_YAcc,navx_ZAcc,navx_Temp,navx_Bar,navx_Alt,navx_XDis,navx_YDis,GearPlacerState,ShootOutputV,ShootOutputCurrent,ShootEncPos,ShootEncVelocity,ShootSpeed,ShootSetpoint,CarouselSetpoint,CarouselCurrent,
0.3762399999999998,0.0,0.0,-3783.0,0.0,0.0,0.0,0.0,0.125,0.837402258,0.01,0.0,-18726.0,0.0,0.0,0.0,0.0,0.125,0.5151366660000001,0.01,0.0,24465.0,0.0,0.0,0.0,0.0,0.0,3.342284814,0.01,0.0,-2544.0,0.125,0.0,0.0,0.0,0.125,1.5588377310000001,0.01,0.0,0.4300000071525574,-0.8399999737739563,-61.7599983215332,0.00640869140625,0.00384521484375,1.01971435546875,37.08000183105469,0.0,13.0,-2.5599365234375,-1.1644287109375,Waiting,0.0,0.0,-316.0,0.0,0.0,0.0,0.0,0.0,
0.427018,0.0,0.0,-3783.0,0.0,0.0,0.0,0.0,0.125,0.837402258,0.01,0.0,-18726.0,0.0,0.0,-0.0,0.0,0.125,0.5163573690000001,0.01,0.0,24465.0,0.0,0.0,0.0,0.0,0.0,3.342284814,0.01,0.0,-2544.0,0.0,0.0,-0.0,0.0,0.125,1.5588377310000001,0.01,0.0,0.4300000071525574,-0.8399999737739563,-61.7599983215332,0.00628662109375,0.038330078125,1.04248046875,37.08000183105469,0.0,-16.0,-2.5600128173828125,-1.1649322509765625,Closing,0.0,0.0,-316.0,0.0,0.0,0.0,0.0,0.125,
0.46241799999999966,0.0,0.0,-3783.0,0.0,0.0,0.0,0.0,0.125,0.837402258,0.01,0.026181554999999967,-18726.0,0.0,0.0,-0.0,0.0,0.0,0.5151366660000001,0.01,0.008906666000000563,24465.0,0.0,0.0,0.0,0.0,0.0,3.343505517,0.01,4.932684814,-2544.0,0.125,0.0,-0.0,0.0,0.25,1.5588377310000001,0.01,4.896837731,0.4300000071525574,-0.8500000238418579,-61.7599983215332,-0.01458740234375,0.01507568359375,1.0296630859375,37.08000183105469,0.0,-6.0,-2.5601806640625,-1.165069580078125,Closing,0.0,0.0,-316.0,0.0,0.0,0.0,0.0,0.125,
0.4953790000000008,0.0,0.0,-3783.0,0.0,0.0,0.0,0.0,0.125,0.837402258,0.01,0.0012207029999999897,-18726.0,0.0,0.0,-0.0,0.0,0.0,0.5151366660000001,0.01,0.0,24465.0,0.0,0.0,0.0,0.0,0.0,3.343505517,0.01,0.0,-2544.0,0.0,0.0,-0.0,0.0,0.25,1.56249984,0.01,0.0,0.41999998688697815,-0.8399999737739563,-61.7599983215332,-0.00567626953125,0.02294921875,1.01824951171875,37.08000183105469,0.0,-9.0,-2.5602874755859375,-1.165069580078125,Closing,0.0,0.0,-316.0,0.0,0.0,0.0,0.0,0.0,
0.5230310000000009,0.0,0.0,-3783.0,0.0,0.0,0.0,0.0,0.125,0.837402258,0.01,0.0012207029999999897,-18726.0,0.0,0.0,-0.0,0.0,0.0,0.5151366660000001,0.01,0.0,24465.0,0.0,0.0,0.0,0.0,0.0,3.343505517,0.01,0.0,-2544.0,0.0,0.0,-0.0,0.0,0.375,1.5588377310000001,0.01,0.0,0.4399999976158142,-0.8299999833106995,-61.7599983215332,-0.05279541015625,-0.0218505859375,1.02398681640625,37.08000183105469,0.0,8.0,-2.5602874755859375,-1.165130615234375,Closing,0.0,0.0,-316.0,0.0,0.0,0.0,0.0,0.0,
0.5562180000000008,0.0,0.0,-3783.0,0.0,0.0,0.0,0.0,0.125,0.837402258,0.01,-0.0012207029999999897,-18726.0,0.0,0.0,-0.0,0.0,0.0,0.5163573690000001,0.01,0.0,24465.0,0.0,0.0,0.0,0.0,0.0,3.343505517,0.01,0.0,-2544.0,0.0,0.0,-0.0,0.0,0.375,1.5588377310000001,0.01,0.0,0.4300000071525574,-0.8399999737739563,-61.7599983215332,-0.0382080078125,-0.02593994140625,0.99810791015625,37.099998474121094,0.0,18.0,-2.5602874755859375,-1.1654205322265625,Closing,0.0,0.0,-316.0,0.0,0.0,0.0,0.0,0.0,
0.6146599999999999,0.0,0.0,-3783.0,0.0,0.0,0.0,0.0,0.125,0.837402258,0.01,0.0,-18726.0,0.0,0.0,-0.0,0.0,0.0,0.5151366660000001,0.01,0.0,24465.0,0.0,0.0,0.0,0.0,0.0,3.34472622,0.01,0.0,-2544.0,0.0,0.0,-0.0,0.0,0.375,1.560058434,0.01,0.0,0.41999998688697815,-0.8399999737739563,-61.7599983215332,0.01080322265625,0.0335693359375,1.01422119140625,37.099998474121094,0.0,-10.0,-2.5602874755859375,-1.16552734375,Closing,0.0,0.0,-316.0,0.0,0.0,0.0,0.0,0.0,
0.6400529999999999,0.0,0.0,-3783.0,0.0,0.0,0.0,0.0,0.125,0.837402258,0.01,0.0,-18726.0,0.0,0.0,-0.0,0.0,0.0,0.5151366660000001,0.01,0.0,24465.0,0.0,0.0,0.0,0.0,0.0,3.343505517,0.01,0.0,-2544.0,0.0,0.0,-0.0,0.0,0.375,1.5588377310000001,0.01,0.0,0.41999998688697815,-0.8399999737739563,-61.7599983215332,0.01312255859375,0.04742431640625,1.0341796875,37.099998474121094,0.0,-21.0,-2.560302734375,-1.1652679443359375,Closing,0.0,0.0,-316.0,0.0,0.0,0.0,0.0,0.0,
0.6703559999999997,0.0,0.0,-3783.0,0.0,0.0,0.0,0.0,0.125,0.837402258,0.01,0.0,-18726.0,0.0,0.0,-0.0,0.0,0.0,0.5151366660000001,0.01,0.0,24465.0,0.0,0.0,0.0,0.0,0.0,3.343505517,0.01,0.0,-2544.0,0.0,0.0,-0.0,0.0,0.375,1.5588377310000001,0.01,0.0,0.41999998688697815,-0.8399999737739563,-61.7599983215332,-0.008544921875,0.026611328125,1.02606201171875,37.099998474121094,0.0,14.0,-2.560394287109375,-1.165069580078125,Closing,0.0,0.0,-316.0,0.0,0.0,0.0,0.0,0.0,
0.7024520000000012,0.0,0.0,-3783.0,0.0,0.0,0.0,0.0,0.125,0.837402258,0.01,0.0012207029999999897,-18726.0,0.0,0.0,-0.0,0.0,0.0,0.5151366660000001,0.01,0.0,24465.0,0.0,0.0,0.0,0.0,0.0,3.343505517,0.01,0.0,-2544.0,0.0,0.0,-0.0,0.0,0.375,1.5588377310000001,0.01,0.0,0.41999998688697815,-0.8399999737739563,-61.7599983215332,-0.03533935546875,-0.0028076171875,1.014404296875,37.099998474121094,0.0,0.0,-2.560394287109375,-1.165069580078125,Closing,0.0,0.0,-316.0,0.0,0.0,0.0,0.0,0.125,
0.730518,0.0,0.0,-3783.0,0.0,0.0,0.0,0.0,0.125,0.837402258,0.01,0.0012207029999999897,-18726.0,0.0,0.0,-0.0,0.0,0.0,0.5151366660000001,0.01,0.0,24465.0,0.0,0.0,0.0,0.0,0.0,3.343505517,0.01,0.0,-2544.0,0.125,0.0,-0.0,0.0,0.375,1.5588377310000001,0.01,0.0,0.4300000071525574,-0.8399999737739563,-61.7599983215332,-0.05682373046875,-0.0220947265625,1.02301025390625,37.099998474121094,0.0,6.0,-2.560394287109375,-1.1652374267578125,Closing,0.0,0.0,-316.0,0.0,0.0,0.0,0.0,0.125,
0.7629279999999998,0.0,0.0,-3783.0,0.0,0.0,0.0,0.0,0.125,0.836181555,0.01,-0.0012207029999999897,-18726.0,0.0,0.0,-0.0,0.0,0.0,0.5151366660000001,0.01,0.0,24465.0,0.0,0.0,0.0,0.0,0.0,3.343505517,0.01,0.0,-2544.0,0.125,0.0,-0.0,0.0,0.375,1.5588377310000001,0.01,0.0,0.4300000071525574,-0.8399999737739563,-61.7599983215332,-0.019287109375,-0.009765625,1.00079345703125,37.099998474121094,0.0,13.0,-2.560333251953125,-1.165618896484375,Closing,0.0,0.0,-316.0,0.0,0.0,0.0,0.0,0.0,
0.7871419999999998,0.0,0.0,-3783.0,0.0,0.0,0.0,0.0,0.125,0.836181555,0.01,-0.0012207029999999897,-18726.0,0.0,0.0,-0.0,0.0,0.0,0.5163573690000001,0.01,0.0,24465.0,0.0,0.0,0.0,0.0,0.0,3.343505517,0.01,0.0,-2544.0,0.125,0.0,-0.0,0.0,0.375,1.5588377310000001,0.01,0.0,0.41999998688697815,-0.8399999737739563,-61.7599983215332,0.01580810546875,0.02020263671875,1.019287109375,37.099998474121094,0.0,3.0,-2.560272216796875,-1.1655731201171875,Closing,0.0,0.0,-316.0,0.0,0.0,0.0,0.0,0.0,
0.8238580000000002,0.0,0.0,-3783.0,0.0,0.0,0.0,0.0,0.125,0.837402258,0.01,0.0012207029999999897,-18726.0,0.0,0.0,-0.0,0.0,0.0,0.5163573690000001,0.01,0.0,24465.0,0.0,0.0,0.0,0.0,0.0,3.343505517,0.01,0.0,-2544.0,0.0,0.0,-0.0,0.0,0.375,1.5588377310000001,0.01,0.0,0.41999998688697815,-0.8399999737739563,-61.7599983215332,0.00390625,0.03448486328125,1.04931640625,37.099998474121094,0.0,-14.0,-2.560272216796875,-1.1653900146484375,Closing,0.0,0.0,-316.0,0.0,0.0,0.0,0.0,0.0,
0.858460000000001,0.0,0.0,-3783.0,0.0,0.0,0.0,0.0,0.125,0.837402258,0.01,-0.0012207029999999897,-18726.0,0.0,0.0,-0.0,0.0,0.0,0.5151366660000001,0.01,0.0,24465.0,0.0,0.0,0.0,0.0,0.0,3.342284814,0.01,0.0,-2544.0,0.0,0.0,-0.0,0.0,0.375,1.560058434,0.01,0.0,0.41999998688697815,-0.8399999737739563,-61.7599983215332,-0.01129150390625,0.0068359375,1.0418701171875,37.099998474121094,0.0,2.0,-2.560272216796875,-1.1650543212890625,Closing,0.0,0.0,-316.0,0.0,0.0,0.0,0.0,0.0,
0.883393,0.0,0.0,-3783.0,0.0,0.0,0.0,0.0,0.125,0.837402258,0.01,-0.0012207029999999897,-18726.0,0.0,0.0,-0.0,0.0,0.0,0.5151366660000001,0.01,0.0,24465.0,0.0,0.0,0.0,0.0,0.0,3.343505517,0.01,0.0,-2544.0,0.0,0.0,-0.0,0.0,0.375,1.5588377310000001,0.01,0.0,0.41999998688697815,-0.8399999737739563,-61.7599983215332,-0.0191650390625,0.01593017578125,1.0167236328125,37.099998474121094,0.0,-9.0,-2.560272216796875,-1.1650543212890625,Closing,0.0,0.0,-316.0,0.0,0.0,0.0,0.0,0.0,
0.9138469999999997,0.0,0.0,-3783.0,0.0,0.0,0.0,0.0,0.125,0.837402258,0.01,0.0,-18726.0,0.0,0.0,-0.0,0.0,0.0,0.5163573690000001,0.01,0.0,24465.0,0.0,0.0,0.0,0.0,0.0,3.343505517,0.01,0.0,-2544.0,0.0,0.0,-0.0,0.0,0.375,1.560058434,0.01,0.0,0.4300000071525574,-0.8399999737739563,-61.7599983215332,-0.05499267578125,-0.01336669921875,1.0130615234375,37.099998474121094,0.0,0.0,-2.560272216796875,-1.1651763916015625,Closing,0.0,0.0,-316.0,0.0,0.0,0.0,0.0,0.0,
0.9404650000000001,0.0,0.0,-3783.0,0.0,0.0,0.0,0.0,0.125,0.837402258,0.01,0.0,-18726.0,0.0,0.0,-0.0,0.0,0.0,0.5151366660000001,0.01,0.0,24465.0,0.0,0.0,0.0,0.0,0.0,3.342284814,0.01,0.0,-2544.0,0.125,0.0,-0.0,0.0,0.375,1.560058434,0.01,0.0,0.4300000071525574,-0.8399999737739563,-61.7599983215332,-0.04095458984375,-0.0211181640625,0.99334716796875,37.099998474121094,0.0,12.0,-2.560272216796875,-1.1653289794921875,Closing,0.0,0.0,-316.0,0.0,0.0,0.0,0.0,0.0,
0.985246000000001,0.0,0.0,-3783.0,0.0,0.0,0.0,0.0,0.125,0.837402258,0.01,0.0012207029999999897,-18726.0,0.0,0.0,-0.0,0.0,0.0,0.5151366660000001,0.01,0.0,24465.0,0.0,0.0,0.0,0.0,0.0,3.342284814,0.01,0.0,-2544.0,0.0,0.0,-0.0,0.0,0.375,1.5588377310000001,0.01,0.0,0.41999998688697815,-0.8399999737739563,-61.7599983215332,0.0087890625,0.031005859375,1.0150146484375,37.099998474121094,0.0,-9.0,-2.560272216796875,-1.166015625,Closing,0.0,0.0,-316.0,0.0,0.0,0.0,0.0,0.0,
1.0229629999999998,0.0,0.0,-3783.0,0.0,0.0,0.0,0.0,0.125,0.837402258,0.01,0.0,-18726.0,0.0,0.0,-0.0,0.0,0.0,0.5151366660000001,0.01,0.0,24465.0,0.0,0.0,0.0,0.0,0.0,3.342284814,0.01,0.0,-2544.0,0.0,0.0,-0.0,0.0,0.375,1.560058434,0.01,0.0,0.41999998688697815,-0.8500000238418579,-61.7599983215332,0.0098876953125,0.04156494140625,1.0369873046875,37.099998474121094,0.0,-17.0,-2.560272216796875,-1.166168212890625,Closing,0.0,0.0,-316.0,0.0,0.0,0.0,0.0,0.125,
1.044049000000001,0.0,0.0,-3783.0,0.0,0.0,0.0,0.0,0.125,0.837402258,0.01,0.0,-18726.0,0.0,0.0,-0.0,0.0,0.0,0.5151366660000001,0.01,0.0,24465.0,0.0,0.0,0.0,0.0,0.0,3.343505517,0.01,0.0,-2544.0,0.0,0.0,-0.0,0.0,0.375,1.5588377310000001,0.01,0.0,0.41999998688697815,-0.8399999737739563,-61.7599983215332,-0.0020751953125,0.00701904296875,1.0556640625,37.099998474121094,0.0,7.0,-2.560272216796875,-1.1661834716796875,Closing,0.0,0.0,-316.0,0.0,0.0,0.0,0.0,0.0,
1.0748469999999997,0.0,0.0,-3783.0,0.0,0.0,0.0,0.0,0.125,0.837402258,0.01,0.0,-18726.0,0.0,0.0,-0.0,0.0,0.0,0.5151366660000001,0.01,0.0,24465.0,0.0,0.0,0.0,0.0,0.0,3.343505517,0.01,0.0,-2544.0,0.0,0.0,-0.0,0.0,0.375,1.560058434,0.01,0.0,0.41999998688697815,-0.8399999737739563,-61.7599983215332,-0.01898193359375,0.0211181640625,1.0257568359375,37.099998474121094,0.0,-13.0,-2.560272216796875,-1.1661834716796875,Closing,0.0,0.0,-316.0,0.0,0.0,0.0,0.0,0.0,
1.0992170000000006,0.0,0.0,-3783.0,0.0,0.0,0.0,0.0,0.125,0.837402258,0.01,-0.0012207029999999897,-18726.0,0.0,0.0,-0.0,0.0,0.0,0.5151366660000001,0.01,0.0,24465.0,0.0,0.0,0.0,0.0,0.0,3.343505517,0.01,0.0,-2544.0,0.0,0.0,-0.0,0.0,0.375,1.5588377310000001,0.01,0.0,0.4300000071525574,-0.8399999737739563,-61.7599983215332,-0.05279541015625,-0.013916015625,1.00836181640625,37.099998474121094,0.0,1.0,-2.560272216796875,-1.1663055419921875,Closing,0.0,0.0,-316.0,0.0,0.0,0.0,0.0,0.0,
1.1231000000000004,0.0,0.0,-3783.0,0.0,0.0,0.0,0.0,0.125,0.837402258,0.01,-0.0012207029999999897,-18726.0,0.0,0.0,-0.0,0.0,0.0,0.5163573690000001,0.01,0.0,24465.0,0.0,0.0,0.0,0.0,0.0,3.343505517,0.01,0.0,-2544.0,0.0,0.0,-0.0,0.0,0.375,1.5588377310000001,0.01,0.0,0.41999998688697815,-0.8399999737739563,-61.7599983215332,0.001953125,0.004150390625,1.00775146484375,37.099998474121094,0.0,10.0,-2.560272216796875,-1.166839599609375,Closing,0.0,0.0,-316.0,0.0,0.0,0.0,0.0,0.0,
1.1653050000000003,0.0,0.0,-3783.0,0.0,0.0,0.0,0.0,0.125,0.837402258,0.01,0.0,-18726.0,0.0,0.0,-0.0,0.0,0.0,0.5151366660000001,0.01,0.0,24465.0,0.0,0.0,0.0,0.0,0.0,3.343505517,0.01,0.0,-2544.0,0.0,0.0,-0.0,0.0,0.375,1.5588377310000001,0.01,0.0,0.41999998688697815,-0.8399999737739563,-61.7599983215332,0.00567626953125,0.0301513671875,1.01092529296875,37.099998474121094,0.0,-10.0,-2.560272216796875,-1.1671295166015625,Closing,0.0,0.0,-316.0,0.0,0.0,0.0,0.0,0.0,
1.1917630000000008,0.0,0.0,-3783.0,0.0,0.0,0.0,0.0,0.125,0.837402258,0.01,0.0,-18726.0,0.0,0.0,-0.0,0.0,0.0,0.5151366660000001,0.01,0.0,24465.0,0.0,0.0,0.0,0.0,0.0,3.343505517,0.01,0.0,-2544.0,0.0,0.0,-0.0,0.0,0.375,1.560058434,0.01,0.0,0.41999998688697815,-0.8399999737739563,-61.7599983215332,0.0072021484375,0.033935546875,1.04315185546875,37.099998474121094,0.0,-12.0,-2.560272216796875,-1.167205810546875,Closing,0.0,0.0,-316.0,0.0,0.0,0.0,0.0,0.0,
1.2295930000000008,0.0,0.0,-3783.0,0.0,0.0,0.0,0.0,0.125,0.837402258,0.01,0.0012207029999999897,-18726.0,0.0,0.0,-0.0,0.0,0.0,0.5151366660000001,0.01,0.0,24465.0,0.0,0.0,0.0,0.0,0.0,3.343505517,0.01,0.0,-2544.0,0.0,0.0,-0.0,0.0,0.375,1.5588377310000001,0.01,0.0,0.41999998688697815,-0.8399999737739563,-61.7599983215332,-0.00189208984375,0.01544189453125,1.0469970703125,37.099998474121094,0.0,0.0,-2.560272216796875,-1.1672515869140625,Closing,0.0,0.0,-316.0,0.0,0.0,0.0,0.0,0.0,
1.2574750000000003,0.0,0.0,-3783.0,0.0,0.0,0.0,0.0,0.125,0.837402258,0.01,-0.0012207029999999897,-18726.0,0.0,0.0,-0.0,0.0,0.0,0.5163573690000001,0.01,0.0,24465.0,0.0,0.0,0.0,0.0,0.0,3.342284814,0.01,0.0,-2544.0,0.0,0.0,-0.0,0.0,0.375,1.560058434,0.01,0.0,0.41999998688697815,-0.8399999737739563,-61.7599983215332,-0.0264892578125,0.0098876953125,1.0213623046875,37.099998474121094,0.0,-7.0,-2.560272216796875,-1.1672515869140625,Closing,0.0,0.0,-316.0,0.0,0.0,0.0,0.0,0.0,
1.27967,0.0,0.0,-3783.0,0.0,0.0,0.0,0.0,0.125,0.837402258,0.01,-0.0012207029999999897,-18726.0,0.0,0.0,-0.0,0.0,0.0,0.5163573690000001,0.01,0.0,24465.0,0.0,0.0,0.0,0.0,0.0,3.343505517,0.01,0.0,-2544.0,0.0,0.0,-0.0,0.0,0.375,1.560058434,0.01,0.0,0.4300000071525574,-0.8399999737739563,-61.7599983215332,-0.0509033203125,-0.01483154296875,1.0084228515625,37.099998474121094,0.0,2.0,-2.560272216796875,-1.1674041748046875,Closing,0.0,0.0,-316.0,0.0,0.0,0.0,0.0,0.125,
1.3040330000000013,0.0,0.0,-3783.0,0.0,0.0,0.0,0.0,0.125,0.837402258,0.01,0.0,-18726.0,0.0,0.0,-0.0,0.0,0.0,0.5151366660000001,0.01,0.0,24465.0,0.0,0.0,0.0,0.0,0.0,3.343505517,0.01,0.0,-2544.0,0.0,0.0,-0.0,0.0,0.375,1.560058434,0.01,0.0,0.41999998688697815,-0.8399999737739563,-61.7599983215332,-0.0172119140625,-0.00537109375,0.98956298828125,37.099998474121094,0.0,10.0,-2.560272216796875,-1.167755126953125,Closing,0.0,0.0,-316.0,0.0,0.0,0.0,0.0,0.0,
1.3243850000000001,0.0,0.0,-3783.0,0.0,0.0,0.0,0.0,0.125,0.837402258,0.01,0.0,-18726.0,0.0,0.0,-0.0,0.0,0.0,0.5151366660000001,0.01,0.0,24465.0,0.0,0.0,0.0,0.0,0.0,3.342284814,0.01,0.0,-2544.0,0.125,0.0,-0.0,0.0,0.375,1.560058434,0.01,0.0,0.41999998688697815,-0.8399999737739563,-61.7599983215332,0.00592041015625,0.00823974609375,1.0145263671875,37.099998474121094,0.0,9.0,-2.560272216796875,-1.167938232421875,Closing,0.0,0.0,-316.0,0.0,0.0,0.0,0.0,0.0,
1.344643,0.0,0.0,-3783.0,0.0,0.0,0.0,0.0,0.125,0.837402258,0.01,0.0,-18726.0,0.0,0.0,-0.0,0.0,0.0,0.5151366660000001,0.01,0.0,24465.0,0.0,0.0,0.0,0.0,0.0,3.342284814,0.01,0.0,-2544.0,0.0,0.0,-0.0,0.0,0.375,1.5588377310000001,0.01,0.0,0.41999998688697815,-0.8299999833106995,-61.77000045776367,-0.00225830078125,0.0367431640625,1.02130126953125,37.099998474121094,0.0,-19.0,-2.560272216796875,-1.168212890625,Closing,0.0,0.0,-316.0,0.0,0.0,0.0,0.0,0.0,
1.367215,0.0,0.0,-3783.0,0.0,0.0,0.0,0.0,0.125,0.838622961,0.01,0.0,-18726.0,0.0,0.0,-0.0,0.0,0.0,0.5163573690000001,0.01,0.0,24465.0,0.0,0.0,0.0,0.0,0.0,3.342284814,0.01,0.0,-2544.0,0.0,0.0,-0.0,0.0,0.375,1.5588377310000001,0.01,0.0,0.41999998688697815,-0.8399999737739563,-61.77000045776367,0.00927734375,0.03607177734375,1.04132080078125,37.099998474121094,0.0,-13.0,-2.560272216796875,-1.1682891845703125,Closing,0.0,0.0,-316.0,0.0,0.0,0.0,0.0,0.0,
1.3866710000000002,0.0,0.0,-3783.0,0.0,0.0,0.0,0.0,0.125,0.837402258,0.01,0.0,-18726.0,0.0,0.0,-0.0,0.0,0.0,0.5151366660000001,0.01,0.0,24465.0,0.0,0.0,0.0,0.0,0.0,3.343505517,0.01,0.0,-2544.0,0.0,0.0,-0.0,0.0,0.375,1.563720543,0.01,0.0,0.41999998688697815,-0.8399999737739563,-61.77000045776367,-0.00518798828125,0.029052734375,1.037841796875,37.099998474121094,0.0,-13.0,-2.560272216796875,-1.1683349609375,Closing,0.0,0.0,-316.0,0.0,0.0,0.0,0.0,0.0,
1.4087389999999995,0.0,0.0,-3783.0,0.0,0.0,0.0,0.0,0.125,0.837402258,0.01,0.0,-18726.0,0.0,0.0,-0.0,0.0,0.0,0.5151366660000001,0.01,0.0,24465.0,0.0,0.0,0.0,0.0,0.0,3.342284814,0.01,0.0,-2544.0,0.0,0.0,-0.0,0.0,0.375,1.560058434,0.01,0.0,0.41999998688697815,-0.8399999737739563,-61.77000045776367,-0.0135498046875,0.022705078125,1.03997802734375,37.099998474121094,0.0,-12.0,-2.560272216796875,-1.1683502197265625,Closing,0.0,0.0,-316.0,0.0,0.0,0.0,0.0,0.0,
1.4363119999999998,0.0,0.0,-3783.0,0.0,0.0,0.0,0.0,0.125,0.837402258,0.01,0.0,-18726.0,0.0,0.0,-0.0,0.0,0.0,0.5151366660000001,0.01,0.0,24465.0,0.0,0.0,0.0,0.0,0.0,3.343505517,0.01,0.0,-2544.0,0.0,0.0,-0.0,0.0,0.375,1.5588377310000001,0.01,0.0,0.41999998688697815,-0.8299999833106995,-61.77000045776367,-0.04669189453125,-0.013427734375,1.02838134765625,37.099998474121094,0.0,3.0,-2.560272216796875,-1.168365478515625,Closing,0.0,0.0,-316.0,0.0,0.0,0.0,0.0,0.125,
1.461804,0.0,0.0,-3783.0,0.0,0.0,0.0,0.0,0.125,0.837402258,0.01,0.0,-18726.0,0.0,0.0,-0.0,0.0,0.0,0.5151366660000001,0.01,0.0,24465.0,0.0,0.0,0.0,0.0,0.0,3.342284814,0.01,0.0,-2544.0,0.125,0.0,-0.0,0.0,0.375,1.5588377310000001,0.01,0.0,0.41999998688697815,-0.8299999833106995,-61.77000045776367,-0.03857421875,-0.015869140625,1.0054931640625,37.099998474121094,0.0,9.0,-2.560272216796875,-1.1685791015625,Closing,0.0,0.0,-316.0,0.0,0.0,0.0,0.0,0.125,
1.4820380000000004,0.0,0.0,-3783.0,0.0,0.0,0.0,0.0,0.125,0.837402258,0.01,0.0,-18726.0,0.0,0.0,-0.0,0.0,0.0,0.5151366660000001,0.01,0.0,24465.0,0.0,0.0,0.0,0.0,0.0,3.343505517,0.01,0.0,-2544.0,0.125,0.0,-0.0,0.0,0.375,1.5588377310000001,0.01,0.0,0.41999998688697815,-0.8299999833106995,-61.77000045776367,-0.032470703125,-0.01422119140625,0.99188232421875,37.099998474121094,0.0,10.0,-2.560272216796875,-1.16876220703125,Closing,0.0,0.0,-316.0,0.0,0.0,0.0,0.0,0.0,
1.504442000000001,0.0,0.0,-3783.0,0.0,0.0,0.0,0.0,0.125,0.837402258,0.01,0.0,-18726.0,0.0,0.0,-0.0,0.0,0.0,0.5151366660000001,0.01,0.0,24465.0,0.0,0.0,0.0,0.0,0.0,3.343505517,0.01,0.0,-2544.0,0.125,0.0,-0.0,0.0,0.375,1.5588377310000001,0.01,0.0,0.41999998688697815,-0.8299999833106995,-61.7599983215332,0.01226806640625,0.01361083984375,1.00311279296875,37.099998474121094,0.0,7.0,-2.560272216796875,-1.169097900390625,Closing,0.0,0.0,-316.0,0.0,0.0,0.0,0.0,0.0,
1.5254269999999996,0.0,0.0,-3783.0,0.0,0.0,0.0,0.0,0.125,0.837402258,0.01,0.0,-18726.0,0.0,0.0,-0.0,0.0,0.0,0.5151366660000001,0.01,0.0,24465.0,0.0,0.0,0.0,0.0,0.0,3.342284814,0.01,0.0,-2544.0,0.125,0.0,-0.0,0.0,0.375,1.5588377310000001,0.01,0.0,0.41999998688697815,-0.8399999737739563,-61.7599983215332,0.00390625,0.0316162109375,1.00860595703125,37.099998474121094,0.0,-12.0,-2.560272216796875,-1.1692047119140625,Closing,0.0,0.0,-316.0,0.0,0.0,0.0,0.0,0.0,
1.5454269999999997,0.0,0.0,-3783.0,0.0,0.0,0.0,0.0,0.125,0.837402258,0.01,0.0,-18726.0,0.0,0.0,-0.0,0.0,0.0,0.5151366660000001,0.01,0.0,24465.0,0.0,0.0,0.0,0.0,0.0,3.342284814,0.01,0.0,-2544.0,0.125,0.0,-0.0,0.0,0.375,1.5588377310000001,0.01,0.0,0.41999998688697815,-0.8399999737739563,-61.7599983215332,0.002197265625,0.03948974609375,1.0467529296875,37.099998474121094,0.0,-19.0,-2.560272216796875,-1.1693267822265625,Closing,0.0,0.0,-316.0,0.0,0.0,0.0,0.0,0.0,
1.5687190000000009,0.0,0.0,-3783.0,0.0,0.0,0.0,0.0,0.125,0.838622961,0.01,0.0,-18726.0,0.0,0.0,-0.0,0.0,0.0,0.5163573690000001,0.01,0.0,24465.0,0.0,0.0,0.0,0.0,0.0,3.342284814,0.01,0.0,-2544.0,0.125,0.0,-0.0,0.0,0.375,1.56249984,0.01,0.0,0.41999998688697815,-0.8399999737739563,-61.7599983215332,-0.00762939453125,-3.662109375E-4,1.0487060546875,37.099998474121094,0.0,10.0,-2.560272216796875,-1.169342041015625,Closing,0.0,0.0,-316.0,0.0,0.0,0.0,0.0,0.0,
1.5925779999999996,0.0,0.0,-3783.0,0.0,0.0,0.0,0.0,0.125,0.837402258,0.01,0.0,-18726.0,0.0,0.0,-0.0,0.0,0.0,0.5151366660000001,0.01,0.0,24465.0,0.0,0.0,0.0,0.0,0.0,3.343505517,0.01,0.0,-2544.0,0.125,0.0,-0.0,0.0,0.375,1.5588377310000001,0.01,0.0,0.41999998688697815,-0.8299999833106995,-61.7599983215332,-0.0311279296875,0.001953125,1.03070068359375,37.09000015258789,0.0,-2.0,-2.560272216796875,-1.169342041015625,Closing,0.0,0.0,-316.0,0.0,0.0,0.0,0.0,0.0,
1.6202960000000002,0.0,0.0,-3783.0,0.0,0.0,0.0,0.0,0.125,0.837402258,0.01,0.0,-18726.0,0.0,0.0,-0.0,0.0,0.0,0.5151366660000001,0.01,0.0,24465.0,0.0,0.0,0.0,0.0,0.0,3.342284814,0.01,0.0,-2544.0,0.0,0.0,-0.0,0.0,0.375,1.5588377310000001,0.01,0.0,0.4300000071525574,-0.8299999833106995,-61.7599983215332,-0.05914306640625,-0.024169921875,1.022216796875,37.09000015258789,0.0,7.0,-2.560272216796875,-1.1693878173828125,Closing,0.0,0.0,-316.0,0.0,0.0,0.0,0.0,0.0,
1.6391400000000012,0.0,0.0,-3783.0,0.0,0.0,0.0,0.0,0.125,0.838622961,0.01,0.0,-18726.0,0.0,0.0,-0.0,0.0,0.0,0.5151366660000001,0.01,0.0,24465.0,0.0,0.0,0.0,0.0,0.0,3.343505517,0.01,0.0,-2544.0,0.0,0.0,-0.0,0.0,0.375,1.5588377310000001,0.01,0.0,0.4300000071525574,-0.8299999833106995,-61.7599983215332,-0.03485107421875,-0.01947021484375,0.99371337890625,37.09000015258789,0.0,14.0,-2.560272216796875,-1.169647216796875,Closing,0.0,0.0,-316.0,0.0,0.0,0.0,0.0,0.0,
1.6644290000000002,0.0,0.0,-3783.0,0.0,0.0,0.0,0.0,0.125,0.837402258,0.01,0.0,-18726.0,0.0,0.0,-0.0,0.0,0.0,0.5151366660000001,0.01,0.0,24465.0,0.0,0.0,0.0,0.0,0.0,3.343505517,0.01,0.0,-2544.0,0.0,0.0,-0.0,0.0,0.375,1.560058434,0.01,0.0,0.41999998688697815,-0.8299999833106995,-61.7599983215332,0.00762939453125,0.0087890625,1.01104736328125,37.09000015258789,0.0,9.0,-2.560272216796875,-1.1699676513671875,Closing,0.0,0.0,-316.0,0.0,0.0,0.0,0.0,0.0,
1.6841630000000005,0.0,0.0,-3783.0,0.0,0.0,0.0,0.0,0.125,0.837402258,0.01,0.0,-18726.0,0.0,0.0,-0.0,0.0,0.0,0.5163573690000001,0.01,0.0,24465.0,0.0,0.0,0.0,0.0,0.0,3.343505517,0.01,0.0,-2544.0,0.0,0.0,-0.0,0.0,0.375,1.5588377310000001,0.01,0.0,0.41999998688697815,-0.8299999833106995,-61.7599983215332,0.008544921875,0.0245361328125,0.99761962890625,37.09000015258789,0.0,-4.0,-2.560272216796875,-1.1700897216796875,Closing,0.0,0.0,-316.0,0.0,0.0,0.0,0.0,0.0,
1.7063180000000011,0.0,0.0,-3783.0,0.0,0.0,0.0,0.0,0.125,0.837402258,0.01,0.0,-18726.0,0.0,0.0,-0.0,0.0,0.0,0.5163573690000001,0.01,0.0,24465.0,0.0,0.0,0.0,0.0,0.0,3.343505517,0.01,0.0,-2544.0,0.0,0.0,-0.0,0.0,0.375,1.5588377310000001,0.01,0.0,0.41999998688697815,-0.8299999833106995,-61.7599983215332,-0.00244140625,0.02899169921875,1.02642822265625,37.09000015258789,0.0,-12.0,-2.560272216796875,-1.170166015625,Closing,0.0,0.0,-316.0,0.0,0.0,0.0,0.0,0.0,
1.728201000000001,0.0,0.0,-3783.0,0.0,0.0,0.0,0.0,0.125,0.837402258,0.01,0.0,-18726.0,0.0,0.0,-0.0,0.0,0.0,0.5163573690000001,0.01,0.0,24465.0,0.0,0.0,0.0,0.0,0.0,3.342284814,0.01,0.0,-2544.0,0.0,0.0,-0.0,0.0,0.375,1.5588377310000001,0.01,0.0,0.41999998688697815,-0.8299999833106995,-61.7599983215332,-0.006103515625,0.0118408203125,1.04632568359375,37.09000015258789,0.0,0.0,-2.560272216796875,-1.17022705078125,Closing,0.0,0.0,-316.0,0.0,0.0,0.0,0.0,0.0,
1.7526239999999997,0.0,0.0,-3783.0,0.0,0.0,0.0,0.0,0.125,0.837402258,0.01,0.0012207029999999897,-18726.0,0.0,0.0,-0.0,0.0,0.0,0.5151366660000001,0.01,0.0,24465.0,0.0,0.0,0.0,0.0,0.0,3.343505517,0.01,0.0,-2544.0,0.0,0.0,-0.0,0.0,0.375,1.5588377310000001,0.01,0.0,0.41999998688697815,-0.8299999833106995,-61.77000045776367,-0.0013427734375,0.01519775390625,1.049560546875,37.09000015258789,0.0,-6.0,-2.560272216796875,-1.17022705078125,Closing,0.0,0.0,-316.0,0.0,0.0,0.0,0.0,0.0,
1.7765519999999997,0.0,0.0,-3783.0,0.0,0.0,0.0,0.0,0.125,0.837402258,0.01,0.0012207029999999897,-18726.0,0.0,0.0,-0.0,0.0,0.0,0.5163573690000001,0.01,0.0,24465.0,0.0,0.0,0.0,0.0,0.0,3.342284814,0.01,0.0,-2544.0,0.0,0.0,-0.0,0.0,0.375,1.5588377310000001,0.01,0.0,0.4300000071525574,-0.8299999833106995,-61.77000045776367,-0.05474853515625,-0.0234375,1.031494140625,37.09000015258789,0.0,8.0,-2.560272216796875,-1.170257568359375,Closing,0.0,0.0,-316.0,0.0,0.0,0.0,0.0,0.0,
1.8000740000000006,0.0,0.0,-3783.0,0.0,0.0,0.0,0.0,0.125,0.837402258,0.01,-0.0012207029999999897,-18726.0,0.0,0.0,-0.0,0.0,0.0,0.5151366660000001,0.01,0.0,24465.0,0.0,0.0,0.0,0.0,0.0,3.342284814,0.01,0.0,-2544.0,0.0,0.0,-0.0,0.0,0.375,1.5588377310000001,0.01,0.0,0.4300000071525574,-0.8299999833106995,-61.7599983215332,-0.0390625,-0.02655029296875,0.99676513671875,37.09000015258789,0.0,18.0,-2.560272216796875,-1.1705169677734375,Closing,0.0,0.0,-316.0,0.0,0.0,0.0,0.0,0.0,
1.8233590000000004,0.0,0.0,-3783.0,0.0,0.0,0.0,0.0,0.125,0.837402258,0.01,-0.0012207029999999897,-18726.0,0.0,0.0,-0.0,0.0,0.0,0.5163573690000001,0.01,0.0,24465.0,0.0,0.0,0.0,0.0,0.0,3.342284814,0.01,0.0,-2544.0,0.125,0.0,-0.0,0.0,0.375,1.5588377310000001,0.01,0.0,0.4300000071525574,-0.8299999833106995,-61.7599983215332,-0.015869140625,-0.00164794921875,0.9876708984375,37.09000015258789,0.0,7.0,-2.560272216796875,-1.170684814453125,Closing,0.0,0.0,-316.0,0.0,0.0,0.0,0.0,0.0,
1.865692000000001,0.0,0.0,-3783.0,0.0,0.0,0.0,0.0,0.125,0.837402258,0.01,0.0012207029999999897,-18726.0,0.0,0.0,-0.0,0.0,0.0,0.5151366660000001,0.01,0.0,24465.0,0.0,0.0,0.0,0.0,0.0,3.342284814,0.01,0.0,-2544.0,0.125,0.0,-0.0,0.0,0.375,1.5588377310000001,0.01,0.0,0.41999998688697815,-0.8299999833106995,-61.7599983215332,0.00921630859375,0.04364013671875,1.03875732421875,37.09000015258789,0.0,-20.0,-2.560302734375,-1.1711883544921875,Closing,0.0,0.0,-316.0,0.0,0.0,0.0,0.0,0.0,
1.8858109999999997,0.0,0.0,-3783.0,0.0,0.0,0.0,0.0,0.125,0.837402258,0.01,0.0012207029999999897,-18726.0,0.0,0.0,-0.0,0.0,0.0,0.5151366660000001,0.01,0.0,24465.0,0.0,0.0,0.0,0.0,0.0,3.342284814,0.01,0.0,-2544.0,0.0,0.0,-0.0,0.0,0.375,1.560058434,0.01,0.0,0.4300000071525574,-0.8299999833106995,-61.7599983215332,-0.0064697265625,0.018798828125,1.04608154296875,37.09000015258789,0.0,-5.0,-2.5603485107421875,-1.1712188720703125,Closing,0.0,0.0,-316.0,0.0,0.0,0.0,0.0,0.0,
1.9097430000000004,0.0,0.0,-3783.0,0.0,0.0,0.0,0.0,0.125,0.837402258,0.01,-0.0012207029999999897,-18726.0,0.0,0.0,-0.0,0.0,0.0,0.5151366660000001,0.01,0.0,24465.0,0.0,0.0,0.0,0.0,0.0,3.343505517,0.01,0.0,-2544.0,0.0,0.0,-0.0,0.0,0.375,1.5588377310000001,0.01,0.0,0.4300000071525574,-0.8299999833106995,-61.7599983215332,-0.02093505859375,0.01971435546875,1.034423828125,37.09000015258789,0.0,-13.0,-2.560394287109375,-1.171234130859375,Closing,0.0,0.0,-316.0,0.0,0.0,0.0,0.0,0.0,
1.9300100000000002,0.0,0.0,-3783.0,0.0,0.0,0.0,0.0,0.125,0.837402258,0.01,-0.0012207029999999897,-18726.0,0.0,0.0,-0.0,0.0,0.0,0.5151366660000001,0.01,0.0,24465.0,0.0,0.0,0.0,0.0,0.0,3.343505517,0.01,0.0,-2544.0,0.0,0.0,-0.0,0.0,0.375,1.5588377310000001,0.01,0.0,0.4300000071525574,-0.8299999833106995,-61.77000045776367,-0.05181884765625,-0.02471923828125,1.0283203125,37.09000015258789,0.0,11.0,-2.560394287109375,-1.1712646484375,Closing,0.0,0.0,-316.0,0.0,0.0,0.0,0.0,0.0,
1.9516290000000007,0.0,0.0,-3783.0,0.0,0.0,0.0,0.0,0.125,0.837402258,0.01,0.0,-18726.0,0.0,0.0,-0.0,0.0,0.0,0.5163573690000001,0.01,0.0,24465.0,0.0,0.0,0.0,0.0,0.0,3.343505517,0.01,0.0,-2544.0,0.0,0.0,-0.0,0.0,0.375,1.5588377310000001,0.01,0.0,0.4300000071525574,-0.8299999833106995,-61.77000045776367,-0.04937744140625,-0.01275634765625,1.0076904296875,37.09000015258789,0.0,1.0,-2.560394287109375,-1.171356201171875,Closing,0.0,0.0,-316.0,0.0,0.0,0.0,0.0,0.0,
1.977193000000001,0.0,0.0,-3783.0,0.0,0.0,0.0,0.0,0.125,0.837402258,0.01,0.0,-18726.0,0.0,0.0,-0.0,0.0,0.0,0.5151366660000001,0.01,0.0,24465.0,0.0,0.0,0.0,0.0,0.0,3.343505517,0.01,0.0,-2544.0,0.0,0.0,-0.0,0.0,0.375,1.560058434,0.01,0.0,0.4300000071525574,-0.8299999833106995,-61.77000045776367,-0.0167236328125,-0.007080078125,0.98944091796875,37.09000015258789,0.0,11.0,-2.560394287109375,-1.1716766357421875,Closing,0.0,0.0,-316.0,0.0,0.0,0.0,0.0,0.0,
1.9997270000000007,0.0,0.0,-3783.0,0.0,0.0,0.0,0.0,0.125,0.837402258,0.01,0.0012207029999999897,-18726.0,0.0,0.0,-0.0,0.0,0.0,0.5151366660000001,0.01,0.0,24465.0,0.0,0.0,0.0,0.0,0.0,3.343505517,0.01,0.0,-2544.0,0.0,0.0,-0.0,0.0,0.375,1.560058434,0.01,0.0,0.4300000071525574,-0.8299999833106995,-61.77000045776367,0.006591796875,0.008544921875,1.008056640625,37.09000015258789,0.0,9.0,-2.560394287109375,-1.171844482421875,Closing,0.0,0.0,-316.0,0.0,0.0,0.0,0.0,0.0,
2.0221010000000006,0.0,0.0,-3783.0,0.0,0.0,0.0,0.0,0.125,0.837402258,0.01,0.0012207029999999897,-18726.0,0.0,0.0,-0.0,0.0,0.0,0.5151366660000001,0.01,0.0,24465.0,0.0,0.0,0.0,0.0,0.0,3.343505517,0.01,0.0,-2544.0,0.125,0.0,-0.0,0.0,0.375,1.5588377310000001,0.01,0.0,0.41999998688697815,-0.8199999928474426,-61.77000045776367,-0.00531005859375,0.0281982421875,1.01751708984375,37.09000015258789,0.0,-13.0,-2.560394287109375,-1.1720733642578125,Closing,0.0,0.0,-316.0,0.0,0.0,0.0,0.0,0.0,
2.042647000000001,0.0,0.0,-3783.0,0.0,0.0,0.0,0.0,0.125,0.837402258,0.01,0.0012207029999999897,-18726.0,0.0,0.0,-0.0,0.0,0.0,0.5151366660000001,0.01,0.0,24465.0,0.0,0.0,0.0,0.0,0.0,3.345946923,0.01,0.0,-2544.0,0.125,0.0,-0.0,0.0,0.375,1.560058434,0.01,0.0,0.41999998688697815,-0.8299999833106995,-61.77000045776367,0.00970458984375,0.04217529296875,1.04229736328125,37.09000015258789,0.0,-18.0,-2.560394287109375,-1.1721343994140625,Closing,0.0,0.0,-316.0,0.0,0.0,0.0,0.0,0.0,
2.0673189999999995,0.0,0.0,-3783.0,0.0,0.0,0.0,0.0,0.125,0.837402258,0.01,-0.0012207029999999897,-18726.0,0.0,0.0,-0.0,0.0,0.0,0.5151366660000001,0.01,0.0,24465.0,0.0,0.0,0.0,0.0,0.0,3.343505517,0.01,0.0,-2544.0,0.125,0.0,-0.0,0.0,0.375,1.560058434,0.01,0.0,0.4300000071525574,-0.8299999833106995,-61.77000045776367,-0.00439453125,0.0079345703125,1.0518798828125,37.09000015258789,0.0,5.0,-2.560394287109375,-1.17218017578125,Closing,0.0,0.0,-316.0,0.0,0.0,0.0,0.0,0.0,
2.087108,0.0,0.0,-3783.0,0.0,0.0,0.0,0.0,0.125,0.838622961,0.01,-0.0012207029999999897,-18726.0,0.0,0.0,-0.0,0.0,0.0,0.5175780720000001,0.01,0.0,24465.0,0.0,0.0,0.0,0.0,0.0,3.343505517,0.01,0.0,-2544.0,0.125,0.0,-0.0,0.0,0.375,1.5588377310000001,0.01,0.0,0.4300000071525574,-0.8299999833106995,-61.77000045776367,-0.021240234375,0.01910400390625,1.03759765625,37.08000183105469,0.0,-12.0,-2.560394287109375,-1.17218017578125,Closing,0.0,0.0,-316.0,0.0,0.0,0.0,0.0,0.0,
2.114776,0.0,0.0,-3783.0,0.0,0.0,0.0,0.0,0.125,0.837402258,0.01,0.0012207029999999897,-18726.0,0.0,0.0,-0.0,0.0,0.0,0.5163573690000001,0.01,0.0,24465.0,0.0,0.0,0.0,0.0,0.0,3.342284814,0.01,0.0,-2544.0,0.125,0.0,-0.0,0.0,0.375,1.5588377310000001,0.01,0.0,0.4300000071525574,-0.8299999833106995,-61.77000045776367,-0.04888916015625,-0.014404296875,1.00567626953125,37.08000183105469,0.0,3.0,-2.560394287109375,-1.17230224609375,Closing,0.0,0.0,-316.0,0.0,0.0,0.0,0.0,0.0,
2.139501,0.0,0.0,-3783.0,0.0,0.0,0.0,0.0,0.125,0.837402258,0.01,0.0012207029999999897,-18726.0,0.0,0.0,-0.0,0.0,0.0,0.5163573690000001,0.01,0.0,24465.0,0.0,0.0,0.0,0.0,0.0,3.343505517,0.01,0.0,-2544.0,0.125,0.0,-0.0,0.0,0.375,1.5588377310000001,0.01,0.0,0.4300000071525574,-0.8299999833106995,-61.77000045776367,-0.016357421875,-0.00775146484375,0.98602294921875,37.08000183105469,0.0,12.0,-2.560394287109375,-1.172637939453125,Closing,0.0,0.0,-316.0,0.0,0.0,0.0,0.0,0.125,
2.165286,0.0,0.0,-3783.0,0.0,0.0,0.0,0.0,0.125,0.836181555,0.01,0.0,-18726.0,0.0,0.0,-0.0,0.0,0.0,0.5163573690000001,0.01,0.0,24465.0,0.0,0.0,0.0,0.0,0.0,3.343505517,0.01,0.0,-2544.0,0.125,0.0,-0.0,0.0,0.375,1.560058434,0.01,0.0,0.4300000071525574,-0.8299999833106995,-61.77000045776367,0.00689697265625,0.00384521484375,1.01055908203125,37.08000183105469,0.0,13.0,-2.560394287109375,-1.1728057861328125,Closing,0.0,0.0,-316.0,0.0,0.0,0.0,0.0,0.125,
2.184635,0.0,0.0,-3783.0,0.0,0.0,0.0,0.0,0.125,0.837402258,0.01,0.0,-18726.0,0.0,0.0,-0.0,0.0,0.0,0.5151366660000001,0.01,0.0,24465.0,0.0,0.0,0.0,0.0,0.0,3.342284814,0.01,0.0,-2544.0,0.0,0.0,-0.0,0.0,0.375,1.560058434,0.01,0.0,0.4300000071525574,-0.8299999833106995,-61.77000045776367,-0.006103515625,0.0301513671875,1.01904296875,37.08000183105469,0.0,-15.0,-2.560394287109375,-1.173065185546875,Closing,0.0,0.0,-316.0,0.0,0.0,0.0,0.0,0.125,
2.2124850000000005,0.0,0.0,-3783.0,0.0,0.0,0.0,0.0,0.125,0.837402258,0.01,-0.0012207029999999897,-18726.0,0.0,0.0,-0.0,0.0,0.0,0.5175780720000001,0.01,0.0,24465.0,0.0,0.0,0.0,0.0,0.0,3.343505517,0.01,0.0,-2544.0,0.0,0.0,-0.0,0.0,0.375,1.560058434,0.01,0.0,0.41999998688697815,-0.8399999737739563,-61.77000045776367,0.0078125,0.04327392578125,1.0389404296875,37.08000183105469,0.0,-20.0,-2.5604095458984375,-1.173126220703125,Closing,0.0,0.0,-316.0,0.0,0.0,0.0,0.0,0.125,
2.231501,0.0,0.0,-3783.0,0.0,0.0,0.0,0.0,0.125,0.837402258,0.01,-0.0012207029999999897,-18726.0,0.0,0.0,-0.0,0.0,0.0,0.5151366660000001,0.01,0.0,24465.0,0.0,0.0,0.0,0.0,0.0,3.342284814,0.01,0.0,-2544.0,0.0,0.0,-0.0,0.0,0.375,1.560058434,0.01,0.0,0.4300000071525574,-0.8399999737739563,-61.77000045776367,-0.001220703125,0.00762939453125,1.0543212890625,37.08000183105469,0.0,7.0,-2.5605010986328125,-1.173187255859375,Closing,0.0,0.0,-316.0,0.0,0.0,0.0,0.0,0.0,
2.253176000000001,0.0,0.0,-3783.0,0.0,0.0,0.0,0.0,0.125,0.836181555,0.01,0.0012207029999999897,-18726.0,0.0,0.0,-0.0,0.0,0.0,0.5151366660000001,0.01,0.0,24465.0,0.0,0.0,0.0,0.0,0.0,3.343505517,0.01,0.0,-2544.0,0.125,0.0,-0.0,0.0,0.375,1.560058434,0.01,0.0,0.41999998688697815,-0.8399999737739563,-61.77000045776367,-0.02020263671875,0.01824951171875,1.0438232421875,37.08000183105469,0.0,-11.0,-2.5605010986328125,-1.173187255859375,Closing,0.0,0.0,-316.0,0.0,0.0,0.0,0.0,0.0,
2.27899,0.0,0.0,-3783.0,0.0,0.0,0.0,0.0,0.125,0.837402258,0.01,0.0012207029999999897,-18726.0,0.0,0.0,-0.0,0.0,0.0,0.5151366660000001,0.01,0.0,24465.0,0.0,0.0,0.0,0.0,0.0,3.343505517,0.01,0.0,-2544.0,0.0,0.0,-0.0,0.0,0.375,1.5588377310000001,0.01,0.0,0.4300000071525574,-0.8299999833106995,-61.77000045776367,-0.04803466796875,-0.01556396484375,1.00933837890625,37.08000183105469,0.0,4.0,-2.5605010986328125,-1.173309326171875,Closing,0.0,0.0,-316.0,0.0,0.0,0.0,0.0,0.0,
2.299246000000001,0.0,0.0,-3783.0,0.0,0.0,0.0,0.0,0.125,0.837402258,0.01,-0.0012207029999999897,-18726.0,0.0,0.0,-0.0,0.0,0.0,0.5151366660000001,0.01,0.0,24465.0,0.0,0.0,0.0,0.0,0.0,3.341064111,0.01,0.0,-2544.0,0.0,0.0,-0.0,0.0,0.375,1.5588377310000001,0.01,0.0,0.4300000071525574,-0.8299999833106995,-61.77000045776367,-0.03924560546875,-0.025146484375,0.9913330078125,37.08000183105469,0.0,17.0,-2.5605010986328125,-1.1734619140625,Closing,0.0,0.0,-316.0,0.0,0.0,0.0,0.0,0.0,
2.3231170000000003,0.0,0.0,-3783.0,0.0,0.0,0.0,0.0,0.125,0.834960852,0.01,-0.0012207029999999897,-18726.0,0.0,0.0,-0.0,0.0,0.0,0.518798775,0.01,0.0,24465.0,0.0,0.0,0.0,0.0,0.0,3.342284814,0.01,0.0,-2544.0,0.0,0.0,-0.0,0.0,0.375,1.5588377310000001,0.01,0.0,0.4300000071525574,-0.8399999737739563,-61.77000045776367,0.00579833984375,0.00469970703125,1.00421142578125,37.08000183105469,0.0,12.0,-2.5605010986328125,-1.1738128662109375,Closing,0.0,0.0,-316.0,0.0,0.0,0.0,0.0,0.0,
2.342165000000001,0.0,0.0,-3783.0,0.0,0.0,0.0,0.0,0.125,0.837402258,0.01,-0.0012207029999999897,-18726.0,0.0,0.0,-0.0,0.0,0.0,0.5151366660000001,0.01,0.0,24465.0,0.0,0.0,0.0,0.0,0.0,3.343505517,0.01,0.0,-2544.0,0.0,0.0,-0.0,0.0,0.375,1.5588377310000001,0.01,0.0,0.41999998688697815,-0.8299999833106995,-61.77000045776367,0.01165771484375,0.0257568359375,0.99267578125,37.08000183105469,0.0,-3.0,-2.5605010986328125,-1.1739501953125,Closing,0.0,0.0,-316.0,0.0,0.0,0.0,0.0,0.125,
2.365464,0.0,0.0,-3783.0,0.0,0.0,0.0,0.0,0.125,0.836181555,0.01,0.0,-18726.0,0.0,0.0,-0.0,0.0,0.0,0.5151366660000001,0.01,0.0,24465.0,0.0,0.0,0.0,0.0,0.0,3.343505517,0.01,0.0,-2544.0,0.0,0.0,-0.0,0.0,0.375,1.5588377310000001,0.01,0.0,0.41999998688697815,-0.8399999737739563,-61.77000045776367,0.01190185546875,0.0406494140625,1.0428466796875,37.08000183105469,0.0,-16.0,-2.5605010986328125,-1.17413330078125,Closing,0.0,0.0,-316.0,0.0,0.0,0.0,0.0,0.125,
2.3848250000000006,0.0,0.0,-3783.0,0.0,0.0,0.0,0.0,0.125,0.836181555,0.01,0.0,-18726.0,0.0,0.0,-0.0,0.0,0.0,0.5151366660000001,0.01,0.0,24465.0,0.0,0.0,0.0,0.0,0.0,3.342284814,0.01,0.0,-2544.0,0.0,0.0,-0.0,0.0,0.375,1.5588377310000001,0.01,0.0,0.41999998688697815,-0.8399999737739563,-61.77000045776367,-0.00445556640625,0.01580810546875,1.0426025390625,37.08000183105469,0.0,-1.0,-2.5605010986328125,-1.174163818359375,Closing,0.0,0.0,-316.0,0.0,0.0,0.0,0.0,0.0,
2.4105290000000004,0.0,0.0,-3783.0,0.0,0.0,0.0,0.0,0.125,0.836181555,0.01,0.0012207029999999897,-18726.0,0.0,0.0,-0.0,0.0,0.0,0.5163573690000001,0.01,0.0,24465.0,0.0,0.0,0.0,0.0,0.0,3.343505517,0.01,0.0,-2544.0,0.0,0.0,-0.0,0.0,0.375,1.560058434,0.01,0.0,0.41999998688697815,-0.8399999737739563,-61.77000045776367,-0.024658203125,0.01263427734375,1.043701171875,37.08000183105469,0.0,-8.0,-2.5605010986328125,-1.1741790771484375,Closing,0.0,0.0,-316.0,0.0,0.0,0.0,0.0,0.0,
2.4346080000000003,0.0,0.0,-3783.0,0.0,0.0,0.0,0.0,0.125,0.837402258,0.01,0.0012207029999999897,-18726.0,0.0,0.0,-0.0,0.0,0.0,0.5151366660000001,0.01,0.0,24465.0,0.0,0.0,0.0,0.0,0.0,3.342284814,0.01,0.0,-2544.0,0.125,0.0,-0.0,0.0,0.375,1.5588377310000001,0.01,0.0,0.4300000071525574,-0.8399999737739563,-61.77000045776367,-0.055419921875,-0.0240478515625,1.03204345703125,37.08000183105469,0.0,9.0,-2.5605010986328125,-1.1742095947265625,Closing,0.0,0.0,-316.0,0.0,0.0,0.0,0.0,0.0,
2.460884,0.0,0.0,-3783.0,0.0,0.0,0.0,0.0,0.125,0.837402258,0.01,-0.0012207029999999897,-18726.0,0.0,0.0,-0.0,0.0,0.0,0.5163573690000001,0.01,0.0,24465.0,0.0,0.0,0.0,0.0,0.0,3.342284814,0.01,0.0,-2544.0,0.0,0.0,-0.0,0.0,0.375,1.5588377310000001,0.01,0.0,0.4300000071525574,-0.8399999737739563,-61.77000045776367,-0.035400390625,-0.02410888671875,0.9991455078125,37.08000183105469,0.0,18.0,-2.5605010986328125,-1.1744537353515625,Closing,0.0,0.0,-316.0,0.0,0.0,0.0,0.0,0.0,
2.4828379999999997,0.0,0.0,-3783.0,0.0,0.0,0.0,0.0,0.125,0.837402258,0.01,-0.0012207029999999897,-18726.0,0.0,0.0,-0.0,0.0,0.0,0.5151366660000001,0.01,0.0,24465.0,0.0,0.0,0.0,0.0,0.0,3.342284814,0.01,0.0,-2544.0,0.0,0.0,-0.0,0.0,0.375,1.5588377310000001,0.01,0.0,0.4300000071525574,-0.8399999737739563,-61.77000045776367,-0.00823974609375,-0.00311279296875,0.99688720703125,37.08000183105469,0.0,12.0,-2.5605010986328125,-1.1746368408203125,Closing,0.0,0.0,-316.0,0.0,0.0,0.0,0.0,0.0,
2.5060480000000007,0.0,0.0,-3783.0,0.0,0.0,0.0,0.0,0.125,0.837402258,0.01,0.0,-18726.0,0.0,0.0,-0.0,0.0,0.0,0.5163573690000001,0.01,0.0,24465.0,0.0,0.0,0.0,0.0,0.0,3.342284814,0.01,0.0,-2544.0,0.0,0.0,-0.0,0.0,0.375,1.560058434,0.01,0.0,0.41999998688697815,-0.8399999737739563,-61.77000045776367,0.00885009765625,0.02508544921875,0.9971923828125,37.08000183105469,0.0,-4.0,-2.5605010986328125,-1.1749114990234375,Closing,0.0,0.0,-316.0,0.0,0.0,0.0,0.0,0.0,
2.527027,0.0,0.0,-3783.0,0.0,0.0,0.0,0.0,0.125,0.837402258,0.01,0.0,-18726.0,0.0,0.0,-0.0,0.0,0.0,0.5163573690000001,0.01,0.0,24465.0,0.0,0.0,0.0,0.0,0.0,3.343505517,0.01,0.0,-2544.0,0.0,0.0,-0.0,0.0,0.375,1.560058434,0.01,0.0,0.41999998688697815,-0.8399999737739563,-61.77000045776367,-0.0050048828125,0.02813720703125,1.023193359375,37.08000183105469,0.0,-13.0,-2.5605010986328125,-1.1750030517578125,Closing,0.0,0.0,-316.0,0.0,0.0,0.0,0.0,0.0,
2.546447,0.0,0.0,-3783.0,0.0,0.0,0.0,0.0,0.125,0.837402258,0.01,0.0,-18726.0,0.0,0.0,-0.0,0.0,0.0,0.5163573690000001,0.01,0.0,24465.0,0.0,0.0,0.0,0.0,0.0,3.342284814,0.01,0.0,-2544.0,0.125,0.0,-0.0,0.0,0.375,1.5588377310000001,0.01,0.0,0.41999998688697815,-0.8399999737739563,-61.77000045776367,-0.00274658203125,0.00750732421875,1.0443115234375,37.08000183105469,0.0,6.0,-2.5605010986328125,-1.1750946044921875,Closing,0.0,0.0,-316.0,0.0,0.0,0.0,0.0,0.0,
2.576407000000001,0.0,0.0,-3783.0,0.0,0.0,0.0,0.0,0.125,0.836181555,0.01,0.0012207029999999897,-18726.0,0.0,0.0,-0.0,0.0,0.0,0.5151366660000001,0.01,0.0,24465.0,0.0,0.0,0.0,0.0,0.0,3.343505517,0.01,0.0,-2544.0,0.125,0.0,-0.0,0.0,0.375,1.560058434,0.01,0.0,0.41999998688697815,-0.8399999737739563,-61.77000045776367,-0.03106689453125,0.00811767578125,1.03765869140625,37.08000183105469,0.0,-7.0,-2.5605010986328125,-1.1750946044921875,Closing,0.0,0.0,-316.0,0.0,0.0,0.0,0.0,0.125,
2.6057839999999994,0.0,0.0,-3783.0,0.0,0.0,0.0,0.0,0.125,0.837402258,0.01,-0.0012207029999999897,-18726.0,0.0,0.0,-0.0,0.0,0.0,0.5151366660000001,0.01,0.0,24465.0,0.0,0.0,0.0,0.0,0.0,3.343505517,0.01,0.0,-2544.0,0.125,0.0,-0.0,0.0,0.375,1.5588377310000001,0.01,0.0,0.4300000071525574,-0.8399999737739563,-61.77000045776367,-0.04278564453125,-0.01177978515625,1.00592041015625,37.09000015258789,0.0,3.0,-2.5605010986328125,-1.1752471923828125,Closing,0.0,0.0,-316.0,0.0,0.0,0.0,0.0,0.125,
2.625527,0.0,0.0,-3783.0,0.0,0.0,0.0,0.0,0.125,0.837402258,0.01,-0.0012207029999999897,-18726.0,0.0,0.0,-0.0,0.0,0.0,0.5163573690000001,0.01,0.0,24465.0,0.0,0.0,0.0,0.0,0.0,3.343505517,0.01,0.0,-2544.0,0.125,0.0,-0.0,0.0,0.375,1.5588377310000001,0.01,0.0,0.4300000071525574,-0.8399999737739563,-61.77000045776367,-0.0362548828125,-0.02374267578125,0.99188232421875,37.09000015258789,0.0,17.0,-2.5605010986328125,-1.1753997802734375,Closing,0.0,0.0,-316.0,0.0,0.0,0.0,0.0,0.0,
2.6449080000000014,0.0,0.0,-3783.0,0.0,0.0,0.0,0.0,0.125,0.836181555,0.01,-0.0012207029999999897,-18726.0,0.0,0.0,-0.0,0.0,0.0,0.5151366660000001,0.01,0.0,24465.0,0.0,0.0,0.0,0.0,0.0,3.343505517,0.01,0.0,-2544.0,0.125,0.0,-0.0,0.0,0.375,1.560058434,0.01,0.0,0.41999998688697815,-0.8399999737739563,-61.77000045776367,0.0064697265625,0.0103759765625,1.0067138671875,37.09000015258789,0.0,7.0,-2.5605010986328125,-1.17572021484375,Closing,0.0,0.0,-316.0,0.0,0.0,0.0,0.0,0.0,
2.678893,0.0,0.0,-3783.0,0.0,0.0,0.0,0.0,0.125,0.837402258,0.01,0.0,-18726.0,0.0,0.0,-0.0,0.0,0.0,0.5151366660000001,0.01,0.0,24465.0,0.0,0.0,0.0,0.0,0.0,3.342284814,0.01,0.0,-2544.0,0.125,0.0,-0.0,0.0,0.375,1.5588377310000001,0.01,0.0,0.41999998688697815,-0.8399999737739563,-61.77000045776367,0.00628662109375,0.0279541015625,0.99493408203125,37.09000015258789,0.0,-8.0,-2.5605010986328125,-1.17584228515625,Closing,0.0,0.0,-316.0,0.0,0.0,0.0,0.0,0.0,
2.698858,0.0,0.0,-3783.0,0.0,0.0,0.0,0.0,0.125,0.837402258,0.01,0.0,-18726.0,0.0,0.0,-0.0,0.0,0.0,0.5151366660000001,0.01,0.0,24465.0,0.0,0.0,0.0,0.0,0.0,3.343505517,0.01,0.0,-2544.0,0.125,0.0,-0.0,0.0,0.375,1.5588377310000001,0.01,0.0,0.41999998688697815,-0.8399999737739563,-61.77000045776367,0.00836181640625,0.0406494140625,1.0399169921875,37.09000015258789,0.0,-17.0,-2.5605010986328125,-1.17596435546875,Closing,0.0,0.0,-316.0,0.0,0.0,0.0,0.0,0.125,
2.7211790000000002,0.0,0.0,-3783.0,0.0,0.0,0.0,0.0,0.125,0.836181555,0.01,0.0,-18726.0,0.0,0.0,-0.0,0.0,0.0,0.5151366660000001,0.01,0.0,24465.0,0.0,0.0,0.0,0.0,0.0,3.342284814,0.01,0.0,-2544.0,0.125,0.0,-0.0,0.0,0.375,1.560058434,0.01,0.0,0.41999998688697815,-0.8399999737739563,-61.77000045776367,-0.00506591796875,0.0048828125,1.04656982421875,37.09000015258789,0.0,7.0,-2.5605010986328125,-1.1759796142578125,Closing,0.0,0.0,-316.0,0.0,0.0,0.0,0.0,0.125,
2.7415200000000004,0.0,0.0,-3783.0,0.0,0.0,0.0,0.0,0.125,0.837402258,0.01,0.0,-18726.0,0.0,0.0,-0.0,0.0,0.0,0.5151366660000001,0.01,0.0,24465.0,0.0,0.0,0.0,0.0,0.0,3.342284814,0.01,0.0,-2544.0,0.125,0.0,-0.0,0.0,0.375,1.560058434,0.01,0.0,0.41999998688697815,-0.8399999737739563,-61.77000045776367,-0.0025634765625,0.0181884765625,1.0548095703125,37.09000015258789,0.0,-2.0,-2.5605010986328125,-1.1759796142578125,Closing,0.0,0.0,-316.0,0.0,0.0,0.0,0.0,0.0,
2.764045,0.0,0.0,-3783.0,0.0,0.0,0.0,0.0,0.125,0.837402258,0.01,0.0,-18726.0,0.0,0.0,-0.0,0.0,0.0,0.5151366660000001,0.01,0.0,24465.0,0.0,0.0,0.0,0.0,0.0,3.342284814,0.01,0.0,-2544.0,0.0,0.0,-0.0,0.0,0.375,1.5588377310000001,0.01,0.0,0.4300000071525574,-0.8399999737739563,-61.77000045776367,-0.05438232421875,-0.0267333984375,1.028076171875,37.09000015258789,0.0,11.0,-2.5605010986328125,-1.176025390625,Closing,0.0,0.0,-316.0,0.0,0.0,0.0,0.0,0.0,
2.782875,0.0,0.0,-3783.0,0.0,0.0,0.0,0.0,0.125,0.837402258,0.01,0.0,-18726.0,0.0,0.0,-0.0,0.0,0.0,0.5151366660000001,0.01,0.0,24465.0,0.0,0.0,0.0,0.0,0.0,3.342284814,0.01,0.0,-2544.0,0.0,0.0,-0.0,0.0,0.375,1.56249984,0.01,0.0,0.4300000071525574,-0.8399999737739563,-61.77000045776367,-0.0440673828125,-0.01220703125,1.00830078125,37.09000015258789,0.0,3.0,-2.5605010986328125,-1.1761322021484375,Closing,0.0,0.0,-316.0,0.0,0.0,0.0,0.0,0.0,
2.805746000000001,0.0,0.0,-3783.0,0.0,0.0,0.0,0.0,0.125,0.837402258,0.01,0.0,-18726.0,0.0,0.0,-0.0,0.0,0.0,0.5151366660000001,0.01,0.0,24465.0,0.0,0.0,0.0,0.0,0.0,3.342284814,0.01,0.0,-2544.0,0.0,0.0,-0.0,0.0,0.375,1.5588377310000001,0.01,0.0,0.4300000071525574,-0.8399999737739563,-61.77000045776367,-0.0072021484375,0.00341796875,0.991943359375,37.09000015258789,0.0,7.0,-2.5605010986328125,-1.17645263671875,Closing,0.0,0.0,-316.0,0.0,0.0,0.0,0.0,0.0,
2.8246180000000005,0.0,0.0,-3783.0,0.0,0.0,0.0,0.0,0.125,0.837402258,0.01,0.0,-18726.0,0.0,0.0,-0.0,0.0,0.0,0.5151366660000001,0.01,0.0,24465.0,0.0,0.0,0.0,0.0,0.0,3.343505517,0.01,0.0,-2544.0,0.0,0.0,-0.0,0.0,0.375,1.5588377310000001,0.01,0.0,0.41999998688697815,-0.8399999737739563,-61.77000045776367,0.008544921875,0.00982666015625,1.008544921875,37.09000015258789,0.0,9.0,-2.5605010986328125,-1.1766204833984375,Closing,0.0,0.0,-316.0,0.0,0.0,0.0,0.0,0.0,
2.8437690000000004,0.0,0.0,-3783.0,0.0,0.0,0.0,0.0,0.125,0.837402258,0.01,0.0,-18726.0,0.0,0.0,-0.0,0.0,0.0,0.5151366660000001,0.01,0.0,24465.0,0.0,0.0,0.0,0.0,0.0,3.342284814,0.01,0.0,-2544.0,0.0,0.0,-0.0,0.0,0.375,1.5588377310000001,0.01,0.0,0.41999998688697815,-0.8399999737739563,-61.77000045776367,-0.001220703125,0.0343017578125,1.026123046875,37.09000015258789,0.0,-16.0,-2.5605010986328125,-1.17681884765625,Closing,0.0,0.0,-316.0,0.0,0.0,0.0,0.0,0.0,
2.8670159999999996,0.0,0.0,-3783.0,0.0,0.0,0.0,0.0,0.125,0.837402258,0.01,0.0012207029999999897,-18726.0,0.0,0.0,-0.0,0.0,0.0,0.5163573690000001,0.01,0.0,24465.0,0.0,0.0,0.0,0.0,0.0,3.342284814,0.01,0.0,-2544.0,0.0,0.0,-0.0,0.0,0.375,1.560058434,0.01,0.0,0.4300000071525574,-0.8500000238418579,-61.77000045776367,0.00506591796875,0.03631591796875,1.041259765625,37.09000015258789,0.0,-15.0,-2.5605010986328125,-1.1768646240234375,Closing,0.0,0.0,-316.0,0.0,0.0,0.0,0.0,0.0,
2.885795,0.0,0.0,-3783.0,0.0,0.0,0.0,0.0,0.125,0.837402258,0.01,0.0012207029999999897,-18726.0,0.0,0.0,-0.0,0.0,0.0,0.5163573690000001,0.01,0.0,24465.0,0.0,0.0,0.0,0.0,0.0,3.342284814,0.01,0.0,-2544.0,0.0,0.0,-0.0,0.0,0.375,1.5588377310000001,0.01,0.0,0.4300000071525574,-0.8500000238418579,-61.77000045776367,-0.00762939453125,0.003173828125,1.04156494140625,37.09000015258789,0.0,7.0,-2.5605010986328125,-1.1768951416015625,Closing,0.0,0.0,-316.0,0.0,0.0,0.0,0.0,0.125,
2.9069510000000007,0.0,0.0,-3783.0,0.0,0.0,0.0,0.0,0.125,0.837402258,0.01,-0.0012207029999999897,-18726.0,0.0,0.0,-0.0,0.0,0.0,0.5151366660000001,0.01,0.0,24465.0,0.0,0.0,0.0,0.0,0.0,3.343505517,0.01,0.0,-2544.0,0.0,0.0,-0.0,0.0,0.375,1.5588377310000001,0.01,0.0,0.4300000071525574,-0.8500000238418579,-61.77000045776367,-0.0338134765625,0.004638671875,1.03704833984375,37.09000015258789,0.0,-5.0,-2.5605010986328125,-1.1768951416015625,Closing,0.0,0.0,-316.0,0.0,0.0,0.0,0.0,0.0,
2.926041000000001,0.0,0.0,-3783.0,0.0,0.0,0.0,0.0,0.125,0.837402258,0.01,-0.0012207029999999897,-18726.0,0.0,0.0,-0.0,0.0,0.0,0.5151366660000001,0.01,0.0,24465.0,0.0,0.0,0.0,0.0,0.0,3.343505517,0.01,0.0,-2544.0,0.0,0.0,-0.0,0.0,0.375,1.560058434,0.01,0.0,0.4300000071525574,-0.8399999737739563,-61.77000045776367,-0.057861328125,-0.0220947265625,1.02886962890625,37.09000015258789,0.0,6.0,-2.5605010986328125,-1.17694091796875,Closing,0.0,0.0,-316.0,0.0,0.0,0.0,0.0,0.0,
2.945545,0.0,0.0,-3783.0,0.0,0.0,0.0,0.0,0.125,0.837402258,0.01,-0.0012207029999999897,-18726.0,0.0,0.0,-0.0,0.0,0.0,0.5151366660000001,0.01,0.0,24465.0,0.0,0.0,0.0,0.0,0.0,3.343505517,0.01,0.0,-2544.0,0.0,0.0,-0.0,0.0,0.375,1.560058434,0.01,0.0,0.4399999976158142,-0.8500000238418579,-61.77000045776367,-0.03533935546875,-0.018798828125,0.9989013671875,37.09000015258789,0.0,13.0,-2.5605010986328125,-1.1772003173828125,Closing,0.0,0.0,-316.0,0.0,0.0,0.0,0.0,0.0,
2.9714930000000006,0.0,0.0,-3783.0,0.0,0.0,0.0,0.0,0.125,0.837402258,0.01,0.0,-18726.0,0.0,0.0,-0.0,0.0,0.0,0.5151366660000001,0.01,0.0,24465.0,0.0,0.0,0.0,0.0,0.0,3.343505517,0.01,0.0,-2544.0,0.0,0.0,-0.0,0.0,0.375,1.5588377310000001,0.01,0.0,0.4399999976158142,-0.8500000238418579,-61.77000045776367,-0.00506591796875,0.00299072265625,0.99481201171875,37.09000015258789,0.0,8.0,-2.5605010986328125,-1.1773681640625,Closing,0.0,0.0,-316.0,0.0,0.0,0.0,0.0,0.0,
2.9916760000000013,0.0,0.0,-3783.0,0.0,0.0,0.0,0.0,0.125,0.837402258,0.01,0.0,-18726.0,0.0,0.0,-0.0,0.0,0.0,0.5163573690000001,0.01,0.0,24465.0,0.0,0.0,0.0,0.0,0.0,3.343505517,0.01,0.0,-2544.0,0.125,0.0,-0.0,0.0,0.375,1.560058434,0.01,0.0,0.4300000071525574,-0.8500000238418579,-61.77000045776367,0.0035400390625,0.0286865234375,0.99853515625,37.09000015258789,0.0,-9.0,-2.5605010986328125,-1.1776275634765625,Closing,0.0,0.0,-316.0,0.0,0.0,0.0,0.0,0.0,
3.020433000000001,0.0,0.0,-3783.0,0.0,0.0,0.0,0.0,0.125,0.837402258,0.01,0.0,-18726.0,0.0,0.0,-0.0,0.0,0.0,0.5151366660000001,0.01,0.0,24465.0,0.0,0.0,0.0,0.0,0.0,3.343505517,0.01,0.0,-2544.0,0.0,0.0,-0.0,0.0,0.375,1.5588377310000001,0.01,0.0,0.4300000071525574,-0.8500000238418579,-61.77000045776367,-0.0020751953125,0.029296875,1.0289306640625,37.09000015258789,0.0,-12.0,-2.5605010986328125,-1.1777191162109375,Closing,0.0,0.0,-316.0,0.0,0.0,0.0,0.0,0.0,
3.0385390000000005,0.0,0.0,-3783.0,0.0,0.0,0.0,0.0,0.125,0.837402258,0.01,0.0,-18726.0,0.0,0.0,-0.0,0.0,0.0,0.5151366660000001,0.01,0.0,24465.0,0.0,0.0,0.0,0.0,0.0,3.342284814,0.01,0.0,-2544.0,0.0,0.0,-0.0,0.0,0.375,1.5588377310000001,0.01,0.0,0.4300000071525574,-0.8500000238418579,-61.77000045776367,0.00390625,0.0355224609375,1.0419921875,37.09000015258789,0.0,-15.0,-2.5605010986328125,-1.177764892578125,Closing,0.0,0.0,-316.0,0.0,0.0,0.0,0.0,0.0,
3.062719000000001,0.0,0.0,-3783.0,0.0,0.0,0.0,0.0,0.125,0.837402258,0.01,0.0,-18726.0,0.0,0.0,-0.0,0.0,0.0,0.5163573690000001,0.01,0.0,24465.0,0.0,0.0,0.0,0.0,0.0,3.342284814,0.01,0.0,-2544.0,0.0,0.0,-0.0,0.0,0.375,1.5588377310000001,0.01,0.0,0.4300000071525574,-0.8500000238418579,-61.77000045776367,-0.0059814453125,0.0213623046875,1.05364990234375,37.09000015258789,0.0,-7.0,-2.5605010986328125,-1.17779541015625,Closing,0.0,0.0,-316.0,0.0,0.0,0.0,0.0,0.0,
3.0809390000000003,0.0,0.0,-3783.0,0.0,0.0,0.0,0.0,0.125,0.836181555,0.01,0.0,-18726.0,0.0,0.0,-0.0,0.0,0.0,0.5151366660000001,0.01,0.0,24465.0,0.0,0.0,0.0,0.0,0.0,3.343505517,0.01,0.0,-2544.0,0.125,0.0,-0.0,0.0,0.375,1.5576170280000001,0.01,0.0,0.4300000071525574,-0.8500000238418579,-61.77000045776367,-0.03436279296875,-0.00238037109375,1.03692626953125,37.09000015258789,0.0,0.0,-2.5605010986328125,-1.17779541015625,Closing,0.0,0.0,-316.0,0.0,0.0,0.0,0.0,0.125,
3.1097450000000006,0.0,0.0,-3783.0,0.0,0.0,0.0,0.0,0.125,0.837402258,0.01,0.0012207029999999897,-18726.0,0.0,0.0,-0.0,0.0,0.0,0.5151366660000001,0.01,0.0,24465.0,0.0,0.0,0.0,0.0,0.0,3.343505517,0.01,0.0,-2544.0,0.125,0.0,-0.0,0.0,0.375,1.560058434,0.01,0.0,0.4300000071525574,-0.8399999737739563,-61.77000045776367,-0.03887939453125,-0.0123291015625,1.0091552734375,37.150001525878906,0.0,6.0,-2.5605010986328125,-1.177947998046875,Closing,0.0,0.0,-316.0,0.0,0.0,0.0,0.0,0.0,
3.127999,0.0,0.0,-3783.0,0.0,0.0,0.0,0.0,0.125,0.837402258,0.01,0.0012207029999999897,-18726.0,0.0,0.0,-0.0,0.0,0.0,0.5151366660000001,0.01,0.0,24465.0,0.0,0.0,0.0,0.0,0.0,3.343505517,0.01,0.0,-2544.0,0.125,0.0,-0.0,0.0,0.375,1.560058434,0.01,0.0,0.4399999976158142,-0.8500000238418579,-61.77000045776367,-0.00286865234375,0.00531005859375,0.9971923828125,37.150001525878906,0.0,7.0,-2.5605010986328125,-1.1782684326171875,Closing,0.0,0.0,-316.0,0.0,0.0,0.0,0.0,0.0,
3.146827000000001,0.0,0.0,-3783.0,0.0,0.0,0.0,0.0,0.125,0.837402258,0.01,0.0012207029999999897,-18726.0,0.0,0.0,-0.0,0.0,0.0,0.5163573690000001,0.01,0.0,24465.0,0.0,0.0,0.0,0.0,0.0,3.343505517,0.01,0.0,-2544.0,0.0,0.0,-0.0,0.0,0.375,1.560058434,0.01,0.0,0.4300000071525574,-0.8500000238418579,-61.77000045776367,0.0076904296875,0.01531982421875,1.00592041015625,37.150001525878906,0.0,4.0,-2.5605010986328125,-1.17840576171875,Closing,0.0,0.0,-316.0,0.0,0.0,0.0,0.0,0.0,
3.1679850000000007,0.0,0.0,-3783.0,0.0,0.0,0.0,0.0,0.125,0.837402258,0.01,-0.0012207029999999897,-18726.0,0.0,0.0,-0.0,0.0,0.0,0.5151366660000001,0.01,0.0,24465.0,0.0,0.0,0.0,0.0,0.0,3.342284814,0.01,0.0,-2544.0,0.0,0.0,-0.0,0.0,0.375,1.560058434,0.01,0.0,0.4300000071525574,-0.8500000238418579,-61.77000045776367,0.00286865234375,0.02947998046875,1.00079345703125,37.150001525878906,0.0,-10.0,-2.5605010986328125,-1.1785125732421875,Closing,0.0,0.0,-316.0,0.0,0.0,0.0,0.0,0.0,
3.186948,0.0,0.0,-3783.0,0.0,0.0,-138.89763727784157,0.0,0.125,0.837402258,4.085958926311656,0.0012207029999999897,-18726.0,0.0,0.0,138.89763727784157,0.0,0.0,0.5151366660000001,4.112069791188243,0.0,24465.0,0.0,0.0,-138.89763727784157,0.0,0.0,3.343505517,4.09270969371796,0.0,-2544.0,0.0,0.0,138.89763727784157,0.0,0.375,1.560058434,4.1072898270289135,0.0,0.4300000071525574,-0.8500000238418579,-61.77000045776367,-4.2724609375E-4,0.03582763671875,1.03668212890625,37.150001525878906,0.0,-17.0,-2.5605010986328125,-1.178619384765625,Closing,0.0,0.0,-316.0,0.0,0.0,0.0,0.0,0.0,
3.2152650000000014,0.0,0.0,-3783.0,0.125,0.0,-337.32282400131226,0.0,1.25,0.832519446,4.085958926311656,0.0,-18726.0,0.0,0.0,337.32282400131226,0.0,1.75,0.48706049700000004,4.112069791188243,0.0,24465.0,0.125,0.0,-337.32282400131226,0.0,0.375,3.333739893,4.09270969371796,0.0,-2544.0,0.25,0.0,337.32282400131226,0.0,0.625,1.534423671,4.1072898270289135,0.0,0.4300000071525574,-0.8500000238418579,-61.77000045776367,-0.0028076171875,0.00201416015625,1.04913330078125,37.150001525878906,0.0,11.0,-2.5605010986328125,-1.1786346435546875,Closing,0.0,0.0,-316.0,0.0,0.0,0.0,0.0,0.0,
3.2355159999999996,0.0,0.0,-3783.0,0.125,0.0,-734.1732537746431,0.0,4.625,0.717773364,4.085958926311656,4.911499049,-18726.0,0.25,0.0,734.1732537746431,0.0,7.75,0.38818355400000004,4.112069791188243,-0.0402831990000001,24465.0,0.125,0.0,-734.1732537746431,0.0,3.5,3.240966465,4.09270969371796,-0.013427732999999442,-2544.0,0.375,0.0,734.1732537746431,0.0,4.0,1.4733885210000002,4.1072898270289135,-0.02563476299999934,0.4300000071525574,-0.8500000238418579,-61.77000045776367,-0.09423828125,-0.0166015625,1.0369873046875,37.150001525878906,0.0,-15.0,-2.5605010986328125,-1.178680419921875,Closing,0.0,0.0,-316.0,0.0,0.0,0.0,0.0,0.0,
3.2591499999999995,0.0,0.0,-3783.0,0.375,0.0,-734.1732537746431,0.0,5.5,0.626220639,4.085958926311656,0.0,-18726.0,0.875,15.0,734.1732537746431,0.0,8.625,0.249023412,4.112069791188243,0.0,24465.0,0.875,0.0,-734.1732537746431,0.0,4.125,3.1079098380000003,4.09270969371796,0.0,-2544.0,0.875,0.0,734.1732537746431,0.0,4.375,1.334228379,4.1072898270289135,0.0,0.4399999976158142,-0.8500000238418579,-61.7599983215332,-0.03924560546875,-0.056396484375,1.05645751953125,37.150001525878906,0.0,45.0,-2.56048583984375,-1.1788330078125,Closing,0.0,0.0,-316.0,0.0,0.0,0.0,0.0,0.125,
3.2799089999999995,0.0,0.0,-3783.0,1.0,0.0,-1210.3937244415285,0.0,5.0,0.496826121,4.086095962551724,-0.15014646900000006,-18726.0,1.5,60.0,1210.3937244415285,0.0,7.125,0.13916014200000001,4.112207703143123,-0.14770506300000008,24465.0,1.5,-7.5,-1210.3937244415285,0.0,4.25,2.9992672710000003,4.092846956367496,-0.14648435999999965,-2544.0,1.25,7.5,1210.3937244415285,0.0,4.625,1.2158201880000001,4.107427578671777,-0.1513671719999996,0.4099999964237213,-0.8899999856948853,-61.7599983215332,0.0018310546875,0.05810546875,0.9803466796875,37.150001525878906,0.0,-36.0,-2.5604705810546875,-1.17913818359375,Closing,0.0,0.0,-316.0,0.0,0.0,0.0,0.0,0.125,
3.2997330000000002,0.0,0.0,-3783.0,2.75,0.0,-1329.4487857818604,0.0,1.875,0.393066366,4.086095962551724,-0.1269531119999998,-18726.0,3.375,142.5,1329.4487857818604,0.0,1.75,0.030517575,4.112207703143123,0.0,24465.0,3.5,-22.5,-1329.4487857818604,0.0,1.25,2.883300486,4.092846956367496,0.0,-2544.0,3.125,30.0,1329.4487857818604,0.0,1.0,1.091308482,4.107427578671777,0.0,0.4300000071525574,-0.9100000262260437,-61.75,-0.16668701171875,0.0802001953125,0.92462158203125,37.150001525878906,0.0,-136.0,-2.56060791015625,-1.1793212890625,Closing,0.0,0.0,-316.0,0.0,0.0,0.0,0.0,0.125,
3.3219629999999998,0.0,0.0,-3783.0,4.875,0.0,-1369.1338062286377,0.0,1.875,0.285644502,4.085958926311656,-0.11962889399999987,-18726.0,3.375,142.5,1369.1338062286377,0.0,0.875,4.909667466,4.112069791188243,4.846190910000001,24465.0,4.875,-45.0,-1369.1338062286377,0.0,0.625,2.7893063550000003,4.09270969371796,-0.12817381500000025,-2519.0,4.25,75.0,1369.1338062286377,0.0,0.625,1.0034178660000002,4.1072898270289135,-0.13183592399999977,0.6000000238418579,-1.409999966621399,-61.790000915527344,-0.25634765625,0.0537109375,1.12762451171875,37.150001525878906,0.0,-144.0,-2.5619354248046875,-1.18035888671875,Closing,0.0,0.0,-316.0,0.0,0.0,0.0,0.0,0.125,
3.3421229999999995,0.0,0.0,-3783.0,7.5,-15.0,-1369.1338062286375,0.0,0.75,0.22338864900000002,4.085684906095528,-0.07934569499999977,-18680.0,10.375,292.5,1369.1338062286375,0.0,0.5,4.849853019,4.111794019876482,-0.06591796200000033,24451.0,7.5,-75.0,-1369.1338062286375,0.0,0.5,2.725829799,4.092435220769249,-0.07934569499999977,-2519.0,6.375,127.5,1369.1338062286375,0.0,0.5,0.9362792010000001,4.107014376280045,0.0,0.699999988079071,-1.5499999523162842,-61.81999969482422,-0.2884521484375,0.178955078125,0.97705078125,37.150001525878906,0.0,-270.0,-2.5630645751953125,-1.181243896484375,Closing,0.0,0.0,-316.0,0.0,0.0,0.0,0.0,0.125,
3.3657690000000002,0.0,0.0,-3798.0,10.0,-37.5,-1369.1338062286377,0.0,0.625,0.157470687,4.085410885879402,-0.06591796200000033,-18680.0,13.0,330.0,1369.1338062286377,0.0,0.25,4.783935057,4.111518248564723,-0.06835936799999942,24451.0,9.625,-97.5,-1369.1338062286377,0.0,0.375,2.659911837,4.092160747820539,-0.06835936800000031,-2519.0,7.625,187.5,1369.1338062286377,0.0,0.25,0.8813475660000001,4.106738925531178,-0.07324218000000027,1.0399999618530273,-1.75,-61.790000915527344,-0.04449462890625,0.202880859375,1.16265869140625,37.150001525878906,0.0,-164.0,-2.5664215087890625,-1.18310546875,Closing,0.0,0.0,-316.0,0.0,0.0,0.0,0.0,0.0,
3.385997000000001,0.0,0.0,-3798.0,11.25,-75.0,-1369.1338062286375,0.0,0.5,0.10986327000000001,4.085684906095528,-0.053710931999999545,-18680.0,13.375,345.0,1369.1338062286375,0.0,0.25,4.742431155,4.111794019876482,-0.046386714000000495,24451.0,11.125,-120.0,-1369.1338062286375,0.0,0.25,2.6306149650000004,4.092435220769249,-0.04394530799999963,-2519.0,8.625,225.0,1369.1338062286375,0.0,0.25,0.845947179,4.107014376280045,-0.03906249599999967,1.2000000476837158,-1.7300000190734863,-61.7599983215332,-0.057373046875,0.34283447265625,1.11260986328125,37.150001525878906,0.0,-292.0,-2.568572998046875,-1.183868408203125,Closing,0.0,0.0,-316.0,0.0,0.0,0.0,0.0,0.0,
3.4123639999999997,0.0,0.0,-3798.0,12.125,-187.5,-1369.1338062286377,0.0,0.5,0.06103515,4.086095962551724,0.0,-18680.0,14.125,337.5,1369.1338062286377,0.0,0.25,4.7058100650000005,4.112207703143123,-0.03417968399999971,24451.0,11.75,-142.5,-1369.1338062286377,0.0,0.25,2.604980202,4.092846956367496,0.0,-2519.0,9.0,285.0,1369.1338062286377,0.0,0.25,0.811767495,4.107427578671777,0.0,1.6200000047683716,-1.7000000476837158,-61.709999084472656,-0.05780029296875,0.28326416015625,0.9989013671875,37.150001525878906,0.0,-237.0,-2.5739898681640625,-1.1848297119140625,Closing,0.0,0.0,-316.0,0.0,0.0,0.0,0.0,0.0,
