Time,ClimberA1,ClimberA2,FRpos,FRCurrent,FRspeed,FRsetpoint,FRApos,FRACurrent,FREncpos,FREncSetpoint,FREncSpeed,FLpos,FLCurrent,FLspeed,FLsetpoint,FLApos,FLACurrent,FLEncpos,FLEncSetpoint,FLEncSpeed,BRpos,BRCurrent,BRspeed,BRsetpoint,BRApos,BRACurrent,BREncpos,BREncSetpoint,BREncSpeed,BLpos,BLCurrent,BLspeed,BLsetpoint,BLApos,BLACurrent,BLEncpos,BLEncSetpoint,BLEncSpeed,navx_Pitch,navx_Roll,navx_Yaw,navx_XAcc,navx_YAcc,navx_ZAcc,navx_Temp,navx_Bar,navx_Alt,navx_XDis,navx_YDis,GearPlacerState,ShootOutputV,ShootOutputCurrent,ShootEncPos,ShootEncVelocity,ShootSpeed,ShootSetpoint,CarouselSetpoint,CarouselCurrent,
0.16386300000000484,0.0,0.0,-13461.0,0.0,0.0,0.0,0.0,0.125,0.837402258,0.01,0.0,-1773.0,0.0,0.0,0.0,0.0,0.0,0.5163573690000001,0.01,0.0,14499.0,0.0,0.0,0.0,0.0,0.125,3.3764644980000003,0.01,0.0,8996.0,0.0,0.0,0.0,0.0,0.125,1.612548663,0.01,0.0,0.10000000149011612,-0.9700000286102295,-1.2799999713897705,-0.015869140625,0.00115966796875,1.0240478515625,36.58000183105469,0.0,1.0,-2.4302978515625,-1.090728759765625,Closing,0.0,0.0,-316.0,0.0,0.0,0.0,0.0,0.0,
0.21155299999999988,0.0,0.0,-13461.0,0.875,0.0,840.0,0.0,0.125,0.837402258,0.01,0.0,-1773.0,1.0,0.0,-840.0,0.0,0.0,0.5163573690000001,0.01,0.0,14499.0,0.75,0.0,840.0,0.0,0.125,3.3764644980000003,0.01,0.0,8994.0,0.75,0.0,-840.0,0.0,0.125,1.612548663,0.01,0.0,0.10000000149011612,-0.9700000286102295,-1.2799999713897705,-0.01678466796875,0.01116943359375,1.02557373046875,36.58000183105469,0.0,0.0,-2.4302978515625,-1.090728759765625,Closing,0.0,0.0,-316.0,0.0,0.0,0.0,0.0,0.0,
0.25997899999999935,0.0,0.0,-13450.0,2.5,52.5,840.0,0.0,0.125,0.838622961,0.01,0.0,-1788.0,3.0,-105.0,-840.0,0.0,0.0,0.5151366660000001,0.01,0.0,14499.0,3.0,0.0,840.0,0.0,0.125,3.3764644980000003,0.01,0.0,8994.0,2.375,-22.5,-840.0,0.0,0.125,1.6076658510000001,0.01,0.0,0.07999999821186066,-0.7200000286102295,-1.340000033378601,0.02630615234375,0.2032470703125,0.98529052734375,36.58000183105469,0.0,34.0,-2.4300689697265625,-1.090850830078125,Closing,0.0,0.0,-316.0,0.0,0.0,0.0,0.0,0.0,
0.30457700000000476,0.0,0.0,-13450.0,3.375,97.5,840.0,0.0,0.25,0.833740149,4.931428957317377,-0.0012207029999999897,-1788.0,5.25,-232.5,-840.0,0.0,0.125,0.5163573690000001,4.9629427041452825,0.0,14499.0,4.375,7.5,840.0,0.0,0.125,3.3764644980000003,4.939576599149307,-0.0012207029999999897,8994.0,3.25,-172.5,-840.0,0.0,0.125,1.612548663,4.957173665812943,-0.004882811999999959,0.09000000357627869,-0.550000011920929,-1.2899999618530273,-0.01153564453125,0.08502197265625,1.28143310546875,36.58000183105469,0.0,-1.0,-2.42816162109375,-1.09124755859375,Closing,0.0,0.0,-316.0,0.0,0.0,0.0,0.0,0.0,
0.3487130000000034,0.0,0.0,-13450.0,4.125,127.5,840.0,0.0,0.25,0.837402258,4.932113993158438,0.0,-1824.0,5.625,-210.0,-840.0,0.0,0.125,0.521240181,4.963632117631495,0.0,14509.0,5.625,45.0,840.0,0.0,0.125,3.386230122,4.9402627667975425,0.0012207029999999897,8955.0,3.75,-232.5,-840.0,0.0,0.125,1.644286941,4.95786227790912,0.004882811999999959,0.07999999821186066,-0.28999999165534973,-1.25,0.073486328125,0.03680419921875,1.09637451171875,36.56999969482422,0.0,78.0,-2.4246673583984375,-1.091552734375,Closing,0.0,0.0,-316.0,0.0,0.0,0.0,0.0,0.0,
0.4041080000000002,0.0,0.0,-13423.0,4.75,187.5,840.0,0.0,0.125,0.837402258,0.01,0.0012207029999999897,-1824.0,7.125,-217.5,-840.0,0.0,0.125,0.521240181,0.01,0.004882811999999959,14509.0,6.0,97.5,840.0,0.0,0.125,3.3764644980000003,0.01,0.0,8955.0,4.125,-232.5,-840.0,0.0,0.25,1.665038892,0.01,-4.923820316,0.11999999731779099,0.009999999776482582,-1.2899999618530273,0.076416015625,-0.00640869140625,0.907958984375,36.56999969482422,0.0,76.0,-2.419464111328125,-1.091339111328125,Closing,0.0,0.0,-316.0,0.0,0.0,0.0,0.0,0.0,
0.4485679999999993,0.0,0.0,-13423.0,5.25,270.0,840.0,0.0,0.25,0.837402258,4.932113993158438,0.0,-1824.0,8.0,-315.0,-840.0,0.0,0.125,0.52490229,4.963632117631495,0.0,14509.0,6.75,127.5,840.0,0.0,0.125,3.3776852010000002,4.9402627667975425,0.0,8901.0,4.625,-300.0,-840.0,0.0,0.25,1.671142407,4.95786227790912,0.019531248000000057,0.1599999964237213,0.27000001072883606,-1.2599999904632568,0.17816162109375,0.00762939453125,1.05157470703125,36.56999969482422,0.0,172.0,-2.4126739501953125,-1.091339111328125,Closing,0.0,0.0,-316.0,0.0,0.0,0.0,0.0,0.0,
0.4905640000000058,0.0,0.0,-13357.0,5.0,352.5,840.0,0.0,0.25,0.836181555,0.01,0.0,-1890.0,7.875,-405.0,-840.0,0.0,0.125,0.520019478,0.01,0.004882811999999959,14530.0,7.75,127.5,840.0,0.0,0.125,3.3764644980000003,0.01,0.0,8901.0,4.75,-375.0,-840.0,0.0,0.25,1.669921704,0.01,0.004882811999999959,0.1899999976158142,0.5199999809265137,-1.25,0.17254638671875,0.00494384765625,1.08050537109375,36.56999969482422,0.0,162.0,-2.4040679931640625,-1.091217041015625,Closing,0.0,0.0,-316.0,0.0,0.0,0.0,0.0,0.0,
0.5402160000000004,0.0,0.0,-13357.0,4.875,442.5,840.0,0.0,0.125,0.8288573370000001,0.01,0.0,-1890.0,7.125,-487.5,-840.0,0.0,0.125,0.559081974,0.01,0.0,14530.0,9.5,142.5,840.0,0.0,0.125,3.3691402800000003,0.01,-0.0012207029999999897,8901.0,4.875,-457.5,-840.0,0.0,0.25,1.669921704,0.01,0.0,0.1899999976158142,0.7200000286102295,-1.2799999713897705,0.1337890625,-0.063232421875,1.2171630859375,36.56999969482422,0.0,119.0,-2.393646240234375,-1.0908660888671875,Closing,0.0,0.0,-316.0,0.0,0.0,0.0,0.0,0.0,
0.5857459999999992,0.0,0.0,-13357.0,4.625,517.5,840.0,0.0,0.125,0.837402258,0.01,0.0,-1991.0,6.25,-607.5,-840.0,0.0,0.125,0.583496034,0.01,0.03906249599999967,14559.0,11.125,180.0,840.0,0.0,0.125,3.3764644980000003,0.01,0.0,8811.0,4.375,-540.0,-840.0,0.0,0.25,1.669921704,0.01,0.0,0.20999999344348907,1.0199999809265137,-1.309999942779541,0.03350830078125,0.1007080078125,1.156494140625,36.56999969482422,0.0,10.0,-2.378265380859375,-1.090301513671875,Closing,0.0,0.0,-316.0,0.0,0.0,0.0,0.0,0.0,
0.629076000000001,0.0,0.0,-13259.0,4.125,592.5,840.0,0.0,0.125,0.837402258,4.931839979475313,0.0,-1991.0,5.5,-675.0,-840.0,0.0,0.25,0.616455015,4.963356352894485,0.028076169000000206,14559.0,11.875,187.5,840.0,0.0,0.125,3.3764644980000003,4.939988300392628,0.0012207029999999897,8811.0,4.125,-607.5,-840.0,0.0,0.25,1.669921704,4.95758683372736,0.0,0.23999999463558197,1.1799999475479126,-1.4299999475479126,0.18682861328125,0.1268310546875,0.85699462890625,36.56999969482422,0.0,165.0,-2.3780670166015625,-1.0891265869140625,Closing,0.0,0.0,-316.0,0.0,0.0,0.0,0.0,0.0,
0.6738300000000017,0.0,0.0,-13259.0,3.375,705.0,840.0,0.0,0.25,0.849609288,4.930195895743317,0.0,-1991.0,4.625,-742.5,-840.0,0.0,0.25,0.611572203,4.961701762828738,0.024414059999999793,14559.0,13.75,187.5,840.0,0.0,0.125,3.3776852010000002,4.93834150032719,-0.0012207029999999897,8811.0,3.75,-675.0,-840.0,0.0,0.25,1.669921704,4.955934166995022,0.0,0.3199999928474426,1.2799999713897705,-1.6299999952316284,0.11004638671875,-0.00311279296875,1.1513671875,36.56999969482422,0.0,84.0,-2.3764495849609375,-1.0871734619140625,Closing,0.0,0.0,-316.0,0.0,0.0,0.0,0.0,0.0,
0.7256130000000048,0.0,0.0,-13259.0,3.0,780.0,840.0,0.0,0.25,0.837402258,4.927455755645572,0.0,-2119.0,4.125,-780.0,-840.0,0.0,0.25,0.596923767,4.958944112171262,0.024414059999999793,14597.0,15.375,217.5,840.0,0.0,0.125,3.3764644980000003,4.9355968330061435,-0.0012207029999999897,8696.0,3.625,-697.5,-840.0,0.0,0.25,1.669921704,4.953179721893867,0.0,0.25999999046325684,1.340000033378601,-1.8300000429153442,0.12310791015625,0.03668212890625,0.85284423828125,36.56999969482422,0.0,101.0,-2.374847412109375,-1.0857391357421875,Closing,0.0,0.0,-316.0,0.0,0.0,0.0,0.0,0.0,
0.7705480000000025,0.0,0.0,-13125.0,2.375,855.0,840.0,0.0,0.25,0.836181555,4.923345547132206,0.0,-2119.0,3.5,-817.5,-840.0,0.0,0.25,0.5688475980000001,4.954807637828737,-0.004882811999999959,14597.0,16.375,322.5,840.0,0.0,0.125,3.3764644980000003,4.931479833660523,0.0012207029999999897,8696.0,3.375,-757.5,-840.0,0.0,0.25,1.674804516,4.949048055883911,0.0,0.30000001192092896,1.399999976158142,-2.240000009536743,0.10345458984375,-0.06365966796875,1.0975341796875,36.56999969482422,0.0,79.0,-2.3709259033203125,-1.0851287841796875,Closing,0.0,0.0,-316.0,0.0,0.0,0.0,0.0,0.0,
0.8126670000000012,0.0,0.0,-13125.0,1.875,900.0,840.0,0.0,0.25,0.837402258,4.919098330144027,-0.0012207029999999897,-2119.0,3.0,-847.5,-840.0,0.0,0.25,0.5407714290000001,4.95053327947402,-0.048828119999999586,14597.0,15.0,622.5,840.0,0.0,0.125,3.3764644980000003,4.927225599476497,0.0,8565.0,3.125,-802.5,-840.0,0.0,0.25,1.671142407,4.944778666141298,0.0,0.2800000011920929,1.4700000286102295,-2.4800000190734863,0.09100341796875,-0.2149658203125,0.89166259765625,36.56999969482422,0.0,77.0,-2.3677978515625,-1.0858306884765625,Closing,0.0,0.0,-316.0,0.0,0.0,0.0,0.0,0.0,
0.8555380000000005,0.0,0.0,-12974.0,1.5,930.0,840.0,0.0,0.25,0.8435057730000001,4.9158101626800335,0.0012207029999999897,-2260.0,2.375,-892.5,-840.0,0.0,0.25,0.523681587,4.947224099342525,-0.023193357000000248,14707.0,13.0,727.5,840.0,0.0,0.125,3.3764644980000003,4.923931999345621,0.0,8565.0,3.0,-840.0,-840.0,0.0,0.25,1.674804516,4.9414733326766225,0.0,0.12999999523162842,1.3799999952316284,-2.640000104904175,-0.035888671875,-0.00177001953125,1.0179443359375,36.52000045776367,0.0,-60.0,-2.364532470703125,-1.0873260498046875,Closing,0.0,0.0,-316.0,0.0,0.0,0.0,0.0,0.0,
0.9063349999999991,0.0,0.0,-12974.0,1.125,960.0,840.0,0.0,0.25,0.845947179,4.913618049948537,0.00366210900000008,-2260.0,1.875,-915.0,-840.0,0.0,0.25,0.520019478,4.94501797815907,-0.014648435999999876,14707.0,12.0,780.0,840.0,0.0,0.125,3.3666988740000003,4.921736264834404,0.0,8565.0,2.0,-907.5,-840.0,0.0,0.25,1.646728347,4.939269775938988,-0.010986326999999907,0.10000000149011612,1.2899999618530273,-2.740000009536743,0.02716064453125,-0.0411376953125,1.09429931640625,36.52000045776367,0.0,4.0,-2.36163330078125,-1.089111328125,Closing,0.0,0.0,-316.0,0.0,0.0,0.0,0.0,0.0,
0.9600610000000015,0.0,0.0,-12974.0,0.875,967.5,840.0,0.0,0.25,0.8447264760000001,4.911699954166667,0.0,-2411.0,1.375,-937.5,-840.0,0.0,0.25,0.522460884,4.943087625,-0.004882811999999959,14847.0,11.25,855.0,840.0,0.0,0.125,3.355712547,4.919815,-0.010986326999999907,8411.0,1.375,-952.5,-840.0,0.0,0.25,1.6284178020000002,4.937341666666667,-0.013427733000000108,0.18000000715255737,1.3600000143051147,-2.930000066757202,-0.05609130859375,-0.0372314453125,0.7708740234375,36.52000045776367,0.0,-72.0,-2.3576812744140625,-1.0908203125,Closing,0.0,0.0,-316.0,0.0,0.0,0.0,0.0,0.0,
1.001770000000004,0.0,0.0,-12815.0,0.75,990.0,840.0,0.0,0.25,0.832519446,4.909644848276733,-0.00366210900000008,-2411.0,1.125,-952.5,-840.0,0.0,0.25,0.520019478,4.94101938618505,0.0,14847.0,10.25,900.0,840.0,0.0,0.125,3.343505517,4.917756498691241,4.931855079,8411.0,1.25,-967.5,-840.0,0.0,0.25,1.625976396,4.9352758320199115,-0.009765623999999917,0.09000000357627869,1.2100000381469727,-3.059999942779541,0.00177001953125,0.0655517578125,1.25286865234375,36.52000045776367,0.0,-28.0,-2.35614013671875,-1.0915985107421875,Closing,0.0,0.0,-316.0,0.0,0.0,0.0,0.0,0.0,
1.0455650000000023,0.0,0.0,-12815.0,0.5,1005.0,840.0,0.0,0.25,0.822753822,4.906904708178988,-0.003662108999999969,-2411.0,1.0,-960.0,-840.0,0.0,0.25,0.521240181,4.938261735527575,0.0,14847.0,9.0,975.0,840.0,0.0,0.125,3.352050438,4.915011831370195,-0.006103514999999504,8411.0,1.0,-967.5,-840.0,0.0,0.25,1.622314287,4.932521386918757,4.948234375999999,0.10999999940395355,1.159999966621399,-3.359999895095825,0.063720703125,0.025390625,1.1695556640625,36.52000045776367,0.0,38.0,-2.353759765625,-1.0929107666015625,Closing,0.0,0.0,-316.0,0.0,0.0,0.0,0.0,0.0,
1.0895880000000033,0.0,0.0,-12654.0,0.375,1012.5,840.0,0.0,0.25,0.773925702,4.903753550823058,-0.012207030000000008,-2564.0,0.75,-945.0,-840.0,0.0,0.25,0.520019478,4.93509044105196,0.0,15005.0,8.25,975.0,840.0,0.0,0.125,3.352050438,4.911855467713674,0.0,8257.0,1.0,-960.0,-840.0,0.0,0.25,1.622314287,4.929353778828515,-0.004882811999999959,0.12999999523162842,1.1200000047683716,-3.5999999046325684,-0.0107421875,-0.10137939453125,1.04522705078125,36.52000045776367,0.0,-24.0,-2.3526458740234375,-1.09375,Closing,0.0,0.0,-316.0,0.0,0.0,0.0,0.0,0.0,
1.1326600000000036,0.0,0.0,-12654.0,0.375,990.0,840.0000000000001,0.0,0.25,0.8154296040000001,4.900465383359065,4.9285888909999995,-2564.0,0.75,-937.5,-840.0000000000001,0.0,0.25,0.521240181,4.931781260920465,0.0,15005.0,8.25,885.0,840.0000000000001,0.0,0.125,3.352050438,4.908561867582798,0.0012207029999995456,8257.0,1.0,-952.5,-840.0000000000001,0.0,0.25,1.622314287,4.92604844536384,0.0,0.11999999731779099,1.0299999713897705,-3.7799999713897705,0.08831787109375,-0.0196533203125,1.05572509765625,36.52000045776367,0.0,70.0,-2.3520660400390625,-1.094879150390625,Closing,0.0,0.0,-316.0,0.0,0.0,0.0,0.0,0.0,
1.183047000000006,0.0,0.0,-12654.0,0.375,960.0,840.0,0.0,0.25,0.812988198,4.897999256944445,0.0,-2713.0,0.625,-930.0,-840.0,0.0,0.25,0.521240181,4.929299375,0.0,15117.0,9.25,757.5,840.0,0.0,0.125,3.352050438,4.906091666666667,-0.0012207029999995456,8108.0,1.0,-930.0,-840.0,0.0,0.25,1.622314287,4.923569444444444,0.0,0.1599999964237213,1.059999942779541,-3.940000057220459,-0.03076171875,-0.055419921875,0.8785400390625,36.52000045776367,0.0,-42.0,-2.3515472412109375,-1.0960845947265625,Closing,0.0,0.0,-316.0,0.0,0.0,0.0,0.0,0.0,
1.2274000000000014,0.0,0.0,-12505.0,0.375,930.0,840.0000000000001,0.0,0.25,0.8142089010000001,4.895807144212949,0.0,-2713.0,0.625,-922.5,-840.0000000000001,0.0,0.25,0.521240181,4.927093253816545,0.0,15117.0,10.875,682.5,840.0000000000001,0.0,0.125,3.352050438,4.90389593215545,0.0,8108.0,0.75,-922.5,-840.0000000000001,0.0,0.25,1.621093584,4.921365887706809,0.0,0.10999999940395355,0.949999988079071,-4.110000133514404,0.00860595703125,0.0828857421875,1.02630615234375,36.52000045776367,0.0,-14.0,-2.351318359375,-1.0971221923828125,Closing,0.0,0.0,-316.0,0.0,0.0,0.0,0.0,0.0,
1.2711530000000058,0.0,0.0,-12505.0,0.375,922.5,840.0,0.0,0.25,0.8056639800000001,4.893478024639891,-0.004882811999999959,-2713.0,0.625,-922.5,-840.0,0.0,0.25,0.5151366660000001,4.924749250264585,-0.0012207030000004337,15117.0,11.875,690.0,840.0,0.0,0.125,3.352050438,4.901562964441776,0.0,8108.0,0.75,-922.5,-840.0,0.0,0.25,1.619872881,4.919024608878295,0.0,0.09000000357627869,0.9700000286102295,-4.300000190734863,-0.04974365234375,0.106689453125,0.87322998046875,36.52000045776367,0.0,-72.0,-2.3514556884765625,-1.0978851318359375,Closing,0.0,0.0,-316.0,0.0,0.0,0.0,0.0,0.0,
1.3195699999999997,0.0,0.0,-12505.0,0.125,952.5,840.0,0.0,0.25,0.812988198,4.890874891383708,0.0,-2862.0,0.375,-922.5,-840.0,0.0,0.25,0.511474557,4.922129481975615,-0.003662108999999525,15232.0,12.75,712.5,840.0,0.0,0.125,3.347167626,4.898955530323188,0.0,7961.0,0.75,-915.0,-840.0,0.0,0.25,1.621093584,4.916407885868019,0.0,0.10999999940395355,0.949999988079071,-4.480000019073486,0.03253173828125,-0.00775146484375,0.8660888671875,36.52000045776367,0.0,18.0,-2.3519439697265625,-1.098358154296875,Closing,0.0,0.0,-316.0,0.0,0.0,0.0,0.0,0.0,
1.3675570000000008,0.0,0.0,-12344.0,0.125,1005.0,840.0,0.0,0.25,0.8142089010000001,4.888408768235589,0.0,-2862.0,0.25,-952.5,-840.0,0.0,0.25,0.5017089330000001,4.919647599342525,-0.006103515000000392,15232.0,12.5,795.0,840.0,0.0,0.125,3.337402002,4.896485332678954,-0.004882811999999959,7961.0,0.75,-892.5,-840.0,0.0,0.25,1.621093584,4.913928888232178,0.0,0.15000000596046448,0.8399999737739563,-4.670000076293945,-6.103515625E-4,0.04278564453125,1.269775390625,36.459999084472656,0.0,-22.0,-2.3527984619140625,-1.0987548828125,Closing,0.0,0.0,-316.0,0.0,0.0,0.0,0.0,0.0,
1.4070760000000009,0.0,0.0,-12344.0,0.125,1012.5,840.0,0.0,0.25,0.8142089010000001,4.885805634979406,0.0,-2862.0,0.125,-967.5,-840.0,0.0,0.25,0.496826121,4.917027831053555,-0.008544920999999484,15232.0,11.375,945.0,840.0,0.0,0.125,3.330077784,4.8938778985603655,-0.008544921000000372,7808.0,0.625,-922.5,-840.0,0.0,0.25,1.622314287,4.911312165221903,0.0,0.14000000059604645,0.800000011920929,-4.880000114440918,-0.08636474609375,0.02294921875,1.27520751953125,36.459999084472656,0.0,-105.0,-2.3533172607421875,-1.098968505859375,Closing,0.0,0.0,-316.0,0.0,0.0,0.0,0.0,0.0,
1.451573000000004,0.0,0.0,-12182.0,0.375,1012.5,840.0,0.0,0.25,0.8288573370000001,4.8829284880401,0.0012207030000004337,-3015.0,0.125,-952.5,-840.0,0.0,0.25,0.498046824,4.9141322980275755,-0.004882811999999959,15396.0,9.625,1020.0,840.0,0.0,0.125,3.328857081,4.890995998036861,-0.009765623999999917,7808.0,0.625,-975.0,-840.0,0.0,0.25,1.6308592080000002,4.908419998029868,0.0,0.20000000298023224,0.7599999904632568,-5.099999904632568,-0.0328369140625,0.05609130859375,0.90374755859375,36.459999084472656,0.0,-49.0,-2.3541259765625,-1.09906005859375,Closing,0.0,0.0,-316.0,0.0,0.0,0.0,0.0,0.0,
1.505685000000005,0.0,0.0,-12182.0,0.375,1012.5,840.0,0.0,0.25,0.8142089010000001,4.879914337525731,-0.0012207030000004337,-3015.0,0.125,-930.0,-840.0,0.0,0.25,0.48583979400000005,4.911098885920465,-0.004882811999999959,15396.0,8.5,990.0,840.0,0.0,0.125,3.328857081,4.887976867582799,0.0,7808.0,0.375,-960.0,-840.0,0.0,0.25,1.6076658510000001,4.905390112030506,0.0,0.1599999964237213,0.5899999737739563,-5.340000152587891,-0.046630859375,0.060546875,1.03485107421875,36.459999084472656,0.0,-62.0,-2.355682373046875,-1.098876953125,Closing,0.0,0.0,-316.0,0.0,0.0,0.0,0.0,0.0,
1.550668000000005,0.0,0.0,-12182.0,0.125,1005.0,840.0,0.0,0.25,0.8032225740000001,4.875256098379616,0.0,-3165.0,0.125,-930.0,-840.0,0.0,0.25,0.47485346700000003,4.906410878816545,-0.004882811999999959,15553.0,8.25,982.5,840.0,0.0,0.125,3.337402002,4.88331093215545,0.0,7658.0,0.375,-945.0,-840.0,0.0,0.25,1.597900227,4.900707554373477,-0.014648435999999876,0.12999999523162842,0.4699999988079071,-5.570000171661377,0.03314208984375,-0.02447509765625,1.04052734375,36.459999084472656,0.0,26.0,-2.357696533203125,-1.09881591796875,Closing,0.0,0.0,-316.0,0.0,0.0,0.0,0.0,0.0,
1.5966589999999996,0.0,0.0,-12022.0,0.125,990.0,840.0,0.0,0.25,0.806884683,4.8725159615483715,-0.009765623999999917,-3165.0,0.125,-930.0,-840.0,0.0,0.25,0.48095698200000003,4.903653231446445,-0.003662109000000413,15553.0,8.25,967.5,840.0,0.0,0.125,3.331298487,4.880566268106302,0.0,7658.0,0.375,-930.0,-840.0,0.0,0.25,1.594238118,4.897953112555875,-0.009765623999999917,0.12999999523162842,0.47999998927116394,-5.739999771118164,0.0692138671875,0.0955810546875,0.8931884765625,36.459999084472656,0.0,51.0,-2.3599853515625,-1.0989837646484375,Closing,0.0,0.0,-316.0,0.0,0.0,0.0,0.0,0.0,
1.6445100000000021,0.0,0.0,-12022.0,0.125,960.0,840.0000000000001,0.0,0.25,0.7897948410000001,4.8703238455503755,-0.009765623999999917,-3165.0,0.125,-922.5,-840.0000000000001,0.0,0.25,0.48095698200000003,4.901447106975615,-0.0012207029999995456,15553.0,8.25,952.5,840.0000000000001,0.0,0.125,3.3276363780000002,4.8783705303231875,0.0,7658.0,0.375,-900.0,-840.0000000000001,0.0,0.25,1.593017415,4.895749552534686,-0.004882811999999959,0.2199999988079071,0.3400000035762787,-5.96999979019165,0.02947998046875,0.03857421875,0.98114013671875,36.459999084472656,0.0,19.0,-2.3633880615234375,-1.098846435546875,Closing,0.0,0.0,-316.0,0.0,0.0,0.0,0.0,0.0,
1.6882560000000013,0.0,0.0,-11873.0,0.125,937.5,840.0,0.0,0.25,0.786132732,4.867994732510319,-0.007324217999999938,-3308.0,0.125,-900.0,-840.0,0.0,0.25,0.482177685,4.899103109998405,0.0,15703.0,8.25,937.5,840.0,0.0,0.125,3.3239742690000003,4.876037569153309,0.0,7513.0,0.375,-892.5,-840.0,0.0,0.25,1.593017415,4.893408280273278,-0.003662108999999525,0.20000000298023224,0.15000000596046448,-6.159999847412109,-0.08050537109375,-0.0645751953125,1.05767822265625,36.459999084472656,0.0,-75.0,-2.36663818359375,-1.0986328125,Closing,0.0,0.0,-316.0,0.0,0.0,0.0,0.0,0.0,
1.7311430000000037,0.0,0.0,-11873.0,0.125,922.5,840.0,0.0,0.25,0.780029217,4.865391599254136,-0.006103515000000392,-3308.0,0.125,-877.5,-840.0,0.0,0.25,0.482177685,4.896483341709435,0.0,15703.0,8.25,915.0,840.0,0.0,0.125,3.3142086450000003,4.87343013503472,-0.009765623999999917,7513.0,0.625,-877.5,-840.0,0.0,0.25,1.593017415,4.890791557263004,0.003662108999999525,0.17000000178813934,0.15000000596046448,-6.329999923706055,-0.0438232421875,0.0506591796875,0.90869140625,36.459999084472656,0.0,-51.0,-2.3705291748046875,-1.0987701416015625,Closing,0.0,0.0,-316.0,0.0,0.0,0.0,0.0,0.0,
1.7828720000000031,0.0,0.0,-11873.0,0.375,907.5,840.0,0.0,0.25,0.78124992,4.863062479681078,-0.006103515000000392,-3445.0,0.125,-862.5,-840.0,0.0,0.25,0.483398388,4.894139338157475,0.0,15847.0,8.25,900.0,840.0,0.0,0.125,3.3093258330000004,4.871097167321047,-0.004882811999999959,7375.0,0.625,-862.5,-840.0,0.0,0.25,1.593017415,4.8884502784344885,0.0,0.15000000596046448,-0.03999999910593033,-6.519999980926514,-0.07098388671875,-0.0106201171875,1.160400390625,36.459999084472656,0.0,-68.0,-2.3719940185546875,-1.0990753173828125,Closing,0.0,0.0,-316.0,0.0,0.0,0.0,0.0,0.0,
1.8258729999999996,0.0,0.0,-11731.0,0.375,892.5,840.0,0.0,0.25,0.761718672,4.8604593464248955,0.0012207030000004337,-3445.0,0.25,-847.5,-840.0,0.0,0.25,0.482177685,4.891519569868505,0.0,15847.0,8.25,892.5,840.0,0.0,0.125,3.304443021,4.868489733202457,-0.004882811999999959,7375.0,0.625,-832.5,-840.0,0.0,0.25,1.591796712,4.885833555424213,0.0,0.17000000178813934,-0.03999999910593033,-6.739999771118164,-0.08477783203125,0.00885009765625,0.98248291015625,36.459999084472656,0.0,-84.0,-2.3726654052734375,-1.0992431640625,Closing,0.0,0.0,-316.0,0.0,0.0,0.0,0.0,0.0,
1.8692590000000056,0.0,0.0,-11731.0,0.375,877.5,840.0,0.0,0.25,0.780029217,4.857445195910527,0.0,-3445.0,0.25,-825.0,-840.0,0.0,0.25,0.482177685,4.888486157761395,0.0,15847.0,8.375,870.0,840.0,0.0,0.125,3.303222318,4.8654706027483945,-0.009765623999999917,7375.0,0.625,-817.5,-840.0,0.0,0.25,1.588134603,4.8828036694248516,0.0,0.17000000178813934,-0.15000000596046448,-6.980000019073486,0.02490234375,0.0447998046875,1.09228515625,36.439998626708984,0.0,22.0,-2.3741302490234375,-1.0995635986328125,Closing,0.0,0.0,-316.0,0.0,0.0,0.0,0.0,0.0,
1.9114950000000026,0.0,0.0,-11731.0,0.375,870.0,840.0,0.0,0.25,0.780029217,4.854157025180033,-0.0012207030000004337,-3574.0,0.375,-810.0,-840.0,0.0,0.25,0.482177685,4.885176974342525,0.0,15981.0,8.75,840.0,840.0,0.0,0.125,3.304443021,4.86217699934562,0.0,7247.0,0.75,-795.0,-840.0,0.0,0.25,1.589355306,4.879498332676622,-0.003662108999999525,0.20000000298023224,-0.23999999463558197,-7.21999979019165,-0.05511474609375,0.06793212890625,1.14971923828125,36.439998626708984,0.0,-57.0,-2.37591552734375,-1.0997161865234375,Closing,0.0,0.0,-316.0,0.0,0.0,0.0,0.0,0.0,
1.9648300000000019,0.0,0.0,-11592.0,0.375,862.5,840.0,0.0,0.25,0.780029217,4.8508688609825406,0.0,-3574.0,0.5,-795.0,-840.0,0.0,0.25,0.471191358,4.881867797498405,0.0,15981.0,9.0,832.5,840.0,0.0,0.125,3.303222318,4.858883402486643,0.0,7247.0,0.75,-802.5,-840.0,0.0,0.25,1.588134603,4.8761930024955005,0.0,0.23999999463558197,-0.20999999344348907,-7.449999809265137,-0.052734375,-0.0103759765625,0.76251220703125,36.439998626708984,0.0,-47.0,-2.3782806396484375,-1.0998687744140625,Closing,0.0,0.0,-316.0,0.0,0.0,0.0,0.0,0.0,
2.0077890000000043,0.0,0.0,-11592.0,0.375,855.0,839.9999999999999,0.0,0.25,0.78124992,4.84771770036011,0.0,-3574.0,0.625,-787.5,-839.9999999999999,0.0,0.25,0.462646437,4.878696499735415,-0.009765624000000805,15981.0,9.0,862.5,839.9999999999999,0.0,0.125,3.303222318,4.855727035558224,0.0,7124.0,0.75,-795.0,-839.9999999999999,0.0,0.25,1.5783689790000002,4.873025391121705,0.0,0.1899999976158142,-0.36000001430511475,-7.610000133514404,-0.0570068359375,0.068359375,1.079833984375,36.439998626708984,0.0,-58.0,-2.3800048828125,-1.1002349853515625,Closing,0.0,0.0,-316.0,0.0,0.0,0.0,0.0,0.0,
2.0523580000000003,0.0,0.0,-11457.0,0.375,847.5,840.0,0.0,0.25,0.772704999,4.845525584362113,-0.0012207029999995456,-3701.0,0.625,-795.0,-840.0,0.0,0.25,0.45288081300000005,4.876490375264585,-0.009765623999999917,16122.0,8.75,877.5,840.0,0.0,0.125,3.294677397,4.85353129777511,-0.0012207030000004337,7124.0,1.25,-757.5,-840.0,0.0,0.25,1.568603355,4.870821831100517,-0.009765623999999917,0.23999999463558197,-0.30000001192092896,-7.809999942779541,0.00311279296875,0.0535888671875,0.74468994140625,36.439998626708984,0.0,0.0,-2.3827056884765625,-1.1005706787109375,Closing,0.0,0.0,-316.0,0.0,0.0,0.0,0.0,0.0,
2.1012289999999996,0.0,0.0,-11457.0,0.375,840.0,840.0,0.0,0.25,0.780029217,4.842785447530869,0.0012207029999995456,-3701.0,0.625,-795.0,-840.0,0.0,0.25,0.45288081300000005,4.873732727894485,-0.009765623999999917,16122.0,8.75,862.5,840.0,0.0,0.125,3.277587555,4.850786633725961,-0.008544920999999484,7124.0,1.0,-765.0,-840.0,0.0,0.25,1.5588377310000001,4.868067389282915,-0.009765624000000805,0.20999999344348907,-0.4099999964237213,-8.029999732971191,0.0333251953125,-0.03729248046875,0.78900146484375,36.439998626708984,0.0,43.0,-2.3866424560546875,-1.1007232666015625,Closing,0.0,0.0,-316.0,0.0,0.0,0.0,0.0,0.0,
2.146649000000005,0.0,0.0,-11457.0,0.125,825.0,840.0,0.0,0.25,0.770263593,4.838812239326064,-0.004882811999999959,-3829.0,0.75,-795.0,-840.0,0.0,0.25,0.44799800100000003,4.869734129345715,-0.003662108999999525,16260.0,8.75,855.0,840.0,0.0,0.125,3.28369107,4.846806861039003,-0.009765623999999917,6996.0,1.25,-795.0,-840.0,0.0,0.25,1.5588377310000001,4.864073438796732,-0.010986326999999463,0.20999999344348907,-0.5,-8.3100004196167,-0.12548828125,0.04345703125,1.1737060546875,36.439998626708984,0.0,-119.0,-2.389495849609375,-1.10107421875,Closing,0.0,0.0,-316.0,0.0,0.0,0.0,0.0,0.0,
2.1928040000000038,0.0,0.0,-11324.0,0.125,817.5,840.0,0.0,0.25,0.770263593,4.835935092386756,-0.009765623999999917,-3829.0,0.75,-802.5,-840.0,0.0,0.25,0.44799800100000003,4.866838596319735,-0.0012207030000004337,16260.0,8.75,847.5,840.0,0.0,0.125,3.284911773,4.8439249605154995,0.0,6996.0,1.25,-780.0,-840.0,0.0,0.25,1.5588377310000001,4.861181271604697,0.0012207029999995456,0.1899999976158142,-0.46000000834465027,-8.529999732971191,-0.03662109375,-0.0589599609375,1.1363525390625,36.439998626708984,0.0,-17.0,-2.3925018310546875,-1.1015777587890625,Closing,0.0,0.0,-316.0,0.0,0.0,0.0,0.0,0.0,
2.2397420000000055,0.0,0.0,-11324.0,0.125,825.0,840.0,0.0,0.25,0.743408127,4.832920948405389,-0.009765623999999917,-3829.0,0.75,-810.0,-840.0,0.0,0.25,0.44799800100000003,4.863805190787375,0.0012207030000004337,16260.0,8.5,855.0,840.0,0.0,0.125,3.284911773,4.8409058366052315,0.0,6996.0,1.25,-772.5,-840.0,0.0,0.25,1.5588377310000001,4.858151392172442,0.0,0.2199999988079071,-0.5199999809265137,-8.729999542236328,0.02191162109375,-0.052978515625,1.00665283203125,36.439998626708984,0.0,39.0,-2.395904541015625,-1.1021728515625,Closing,0.0,0.0,-316.0,0.0,0.0,0.0,0.0,0.0,
2.287142,0.0,0.0,-11191.0,0.125,832.5,840.0,0.0,0.25,0.742187424,4.830180811574146,-0.008544921000000372,-3960.0,0.75,-817.5,-840.0,0.0,0.25,0.44677729800000004,4.861047543417275,0.0024414059999999793,16397.0,8.5,862.5,840.0,0.0,0.125,3.284911773,4.838161172556083,0.0,6874.0,1.375,-765.0,-840.0,0.0,0.25,1.560058434,4.855396950354841,0.0,0.23999999463558197,-0.6000000238418579,-8.880000114440918,9.1552734375E-4,0.05450439453125,1.17626953125,36.439998626708984,0.0,5.0,-2.3994140625,-1.1027984619140625,Closing,0.0,0.0,-316.0,0.0,0.0,0.0,0.0,0.0,
2.3323510000000023,0.0,0.0,-11191.0,0.125,825.0,840.0,0.0,0.25,0.740966721,4.828125699151211,-0.008544921000000372,-3960.0,0.75,-817.5,-840.0,0.0,0.25,0.450439407,4.858979298027575,-0.0012207030000004337,16397.0,8.625,862.5,840.0,0.0,0.125,3.28369107,4.836102664703528,0.0,6874.0,1.375,-780.0,-840.0,0.0,0.25,1.5563963250000001,4.853331109140979,0.0,0.20999999344348907,-0.47999998927116394,-9.0,0.03680419921875,-0.07952880859375,0.6990966796875,36.439998626708984,0.0,55.0,-2.40338134765625,-1.1035919189453125,Closing,0.0,0.0,-316.0,0.0,0.0,0.0,0.0,0.0,
2.3823539999999994,0.0,0.0,-11191.0,0.125,817.5,840.0,0.0,0.25,0.742187424,4.8264816170524645,-0.007324217999999938,-4088.0,0.875,-810.0,-840.0,0.0,0.25,0.437011674,4.857324709605515,-0.0012207030000004337,16533.0,8.625,855.0,840.0,0.0,0.125,3.2739254460000002,4.834455866274039,0.0,6743.0,1.375,-802.5,-840.0,0.0,0.25,1.5515135130000002,4.851678444050418,0.0,0.20999999344348907,-0.699999988079071,-9.130000114440918,0.016357421875,-0.00762939453125,1.1429443359375,36.459999084472656,0.0,31.0,-2.4072113037109375,-1.1048431396484375,Closing,0.0,0.0,-316.0,0.0,0.0,0.0,0.0,0.0,
2.4271039999999995,0.0,0.0,-11058.0,0.125,825.0,840.0,0.0,0.25,0.740966721,4.8240154873713434,0.0024414059999999793,-4088.0,1.0,-787.5,-840.0,0.0,0.25,0.44189448600000003,4.854842820397675,-0.0024414059999999793,16533.0,8.625,847.5,840.0,0.0,0.125,3.2702633370000003,4.83198566208601,-0.003662109000000413,6743.0,1.625,-802.5,-840.0,0.0,0.25,1.5588377310000001,4.849199439847469,-0.0012207029999995456,0.17000000178813934,-0.5600000023841858,-9.289999961853027,-0.04730224609375,-0.01190185546875,0.81292724609375,36.459999084472656,0.0,-36.0,-2.4109039306640625,-1.106201171875,Closing,0.0,0.0,-316.0,0.0,0.0,0.0,0.0,0.0,
2.4715149999999992,0.0,0.0,-11058.0,0.125,825.0,840.0,0.0,0.25,0.742187424,4.821823377906348,-0.0012207029999995456,-4088.0,1.125,-787.5,-840.0,0.0,0.25,0.42846675300000003,4.852636702501595,-0.003662108999999525,16533.0,8.5,862.5,840.0,0.0,0.125,3.2641598220000003,4.829789930846691,-0.006103514999999504,6743.0,1.625,-772.5,-840.0,0.0,0.25,1.5588377310000001,4.846995886393388,0.0,0.20999999344348907,-0.5600000023841858,-9.420000076293945,-0.0020751953125,0.0211181640625,1.031982421875,36.459999084472656,0.0,5.0,-2.4146575927734375,-1.107940673828125,Closing,0.0,0.0,-316.0,0.0,0.0,0.0,0.0,0.0,
2.522800000000003,0.0,0.0,-10925.0,0.125,825.0,840.0,0.0,0.25,0.740966721,4.820316305915665,0.0,-4217.0,1.125,-802.5,-840.0,0.0,0.25,0.423583941,4.851119999735415,-0.010986327000000351,16672.0,8.625,862.5,840.0,0.0,0.125,3.2653805250000003,4.828280368891558,-0.009765623999999917,6626.0,2.0,-742.5,-840.0,0.0,0.25,1.5588377310000001,4.845480946677261,0.0012207029999995456,0.25999999046325684,-0.5899999737739563,-9.539999961853027,0.0836181640625,-0.0257568359375,1.177001953125,36.459999084472656,0.0,99.0,-2.4199981689453125,-1.1097564697265625,Closing,0.0,0.0,-316.0,0.0,0.0,0.0,0.0,0.0,
2.573720000000001,0.0,0.0,-10925.0,0.125,825.0,840.0,0.0,0.25,0.740966721,4.819083241075105,0.0,-4217.0,1.125,-810.0,-840.0,0.0,0.25,0.423583941,4.849879055131495,-0.004882811999999959,16672.0,8.375,855.0,840.0,0.0,0.125,3.2641598220000003,4.827045266797543,0.0,6626.0,1.875,-780.0,-840.0,0.0,0.25,1.549072107,4.844241444575786,0.0,0.23000000417232513,-0.5299999713897705,-9.65999984741211,0.00274658203125,-0.02398681640625,0.91729736328125,36.459999084472656,0.0,15.0,-2.4239044189453125,-1.10968017578125,Closing,0.0,0.0,-316.0,0.0,0.0,0.0,0.0,0.0,
2.623232000000004,0.0,0.0,-10925.0,0.125,825.0,840.0,0.0,0.25,0.740966721,4.8174391589763585,0.0,-4347.0,1.125,-810.0,-840.0,0.0,0.25,0.423583941,4.848224466709435,-0.003662108999999525,16808.0,8.375,847.5,840.0,0.0,0.125,3.2653805250000003,4.8253984683680535,0.0,6490.0,1.625,-817.5,-840.0,0.0,0.25,1.539306483,4.842588779485226,-0.009765623999999917,0.1899999976158142,-0.5,-9.770000457763672,0.01214599609375,0.02978515625,1.00714111328125,36.459999084472656,0.0,-16.0,-2.4251861572265625,-1.10955810546875,Closing,0.0,0.0,-316.0,0.0,0.0,0.0,0.0,0.0,
2.671334999999999,0.0,0.0,-10794.0,0.125,817.5,840.0,0.0,0.25,0.740966721,4.8155210566614866,0.0,-4347.0,1.125,-810.0,-840.0,0.0,0.25,0.42236323800000003,4.846294106975615,-0.0012207030000004337,16808.0,8.375,847.5,840.0,0.0,0.125,3.2739254460000002,4.823477196989854,0.0,6490.0,1.625,-832.5,-840.0,0.0,0.25,1.534423671,4.840660663645798,0.0,0.20999999344348907,-0.49000000953674316,-9.869999885559082,-0.05059814453125,0.03167724609375,0.768798828125,36.459999084472656,0.0,-48.0,-2.4251708984375,-1.1092987060546875,Closing,0.0,0.0,-316.0,0.0,0.0,0.0,0.0,0.0,
2.7131070000000035,0.0,0.0,-10794.0,0.0,817.5,0.0,0.0,0.25,0.742187424,0.01,0.0,-4347.0,0.625,-817.5,-0.0,0.0,0.25,0.418701129,0.01,0.0,16808.0,6.125,855.0,0.0,0.0,0.0,3.2714840400000003,0.01,0.0,6490.0,0.5,-810.0,-0.0,0.0,0.25,1.534423671,0.01,-0.014648435999999876,0.25999999046325684,-0.5299999713897705,-9.979999542236328,-0.0865478515625,-0.001708984375,1.2052001953125,36.459999084472656,0.0,-72.0,-2.42510986328125,-1.1087646484375,Closing,0.0,0.0,-316.0,0.0,0.0,0.0,0.0,0.0,
2.7631419999999998,0.0,0.0,-10674.0,0.125,780.0,0.0,0.0,0.25,0.760497969,0.01,0.0012207029999995456,-4448.0,0.25,-712.5,-0.0,0.0,0.25,0.423583941,0.01,-0.004882811999999959,16941.0,0.875,825.0,0.0,0.0,0.125,3.294677397,0.01,0.009765623999999917,6379.0,0.125,-705.0,-0.0,0.0,0.25,1.545409998,0.01,0.0,0.30000001192092896,-0.8999999761581421,-10.09000015258789,-0.19976806640625,-0.0089111328125,0.91302490234375,36.459999084472656,0.0,-180.0,-2.42633056640625,-1.108642578125,Closing,0.0,0.0,-316.0,0.0,0.0,0.0,0.0,0.0,
2.8195910000000004,0.0,0.0,-10674.0,0.75,697.5,0.0,0.0,0.25,0.786132732,0.01,0.028076169000000206,-4448.0,0.25,-547.5,-0.0,0.0,0.25,0.42846675300000003,0.01,0.004882811999999959,16941.0,0.5,742.5,0.0,0.0,0.0,3.3142086450000003,0.01,0.02563476299999934,6379.0,0.125,-607.5,-0.0,0.0,0.25,1.5539549190000002,0.01,0.014648435999999876,0.4300000071525574,-1.2300000190734863,-10.239999771118164,-0.18011474609375,0.10931396484375,1.302001953125,36.459999084472656,0.0,-167.0,-2.4297332763671875,-1.1083831787109375,Closing,0.0,0.0,-316.0,0.0,0.0,0.0,0.0,0.0,
2.8653380000000035,0.0,0.0,-10674.0,1.25,637.5,0.0,0.0,0.25,0.798339762,0.01,0.019531247999999835,-4544.0,0.25,-570.0,-0.0,0.0,0.25,0.42846675300000003,0.01,0.006103515000000392,17031.0,0.75,630.0,0.0,0.0,0.0,3.3276363780000002,0.01,0.01831054500000029,6283.0,0.125,-585.0,-0.0,0.0,0.25,1.5783689790000002,0.01,0.004882811999999959,0.47999998927116394,-1.7200000286102295,-10.289999961853027,-0.27081298828125,0.0218505859375,1.1650390625,36.470001220703125,0.0,-233.0,-2.4376373291015625,-1.1071929931640625,Closing,0.0,0.0,-316.0,0.0,0.0,0.0,0.0,0.0,
2.9087289999999992,0.0,0.0,-10588.0,1.375,547.5,0.0,0.0,0.25,0.794677653,0.01,0.007324217999999938,-4544.0,0.5,-547.5,-0.0,0.0,0.25,0.438232377,0.01,0.0,17031.0,0.5,472.5,0.0,0.0,0.0,3.33251919,0.01,0.009765623999999917,6283.0,0.25,-517.5,-0.0,0.0,0.25,1.593017415,0.01,0.02441406000000068,0.4399999976158142,-1.940000057220459,-10.300000190734863,-0.20684814453125,0.00225830078125,0.77606201171875,36.470001220703125,0.0,-176.0,-2.4460296630859375,-1.1066436767578125,Closing,0.0,0.0,-316.0,0.0,0.0,0.0,0.0,0.0,
2.9526430000000037,0.0,0.0,-10588.0,1.25,450.0,0.0,0.0,0.125,0.799560465,0.01,0.0024414059999999793,-4544.0,0.875,-450.0,-0.0,0.0,0.25,0.456542922,0.01,0.008544920999999484,17031.0,0.75,420.0,0.0,0.0,0.0,3.333739893,0.01,0.004882811999999959,6283.0,0.25,-435.0,-0.0,0.0,0.25,1.6076658510000001,0.01,0.014648435999999876,0.47999998927116394,-2.3299999237060547,-10.329999923706055,-0.26263427734375,0.02960205078125,1.0767822265625,36.470001220703125,0.0,-218.0,-2.456817626953125,-1.1063995361328125,Closing,0.0,0.0,-316.0,0.0,0.0,0.0,0.0,0.0,
3.0016430000000036,0.0,0.0,-10588.0,1.25,360.0,0.0,0.0,0.125,0.794677653,0.01,-0.0012207029999995456,-4595.0,0.875,-315.0,-0.0,0.0,0.25,0.47241206100000005,0.01,0.019531247999999835,17093.0,0.75,390.0,0.0,0.0,0.0,3.33251919,0.01,0.0,6227.0,0.125,-345.0,-0.0,0.0,0.25,1.6113279600000001,0.01,0.013427732999999442,0.5099999904632568,-2.630000114440918,-10.3100004196167,-0.2010498046875,-0.0074462890625,0.97479248046875,36.470001220703125,0.0,-150.0,-2.469696044921875,-1.10650634765625,Closing,0.0,0.0,-316.0,0.0,0.0,0.0,0.0,0.0,
3.047618000000002,0.0,0.0,-10545.0,1.0,225.0,0.0,0.0,0.125,0.799560465,0.01,0.0,-4595.0,0.625,-232.5,-0.0,0.0,0.25,0.48095698200000003,0.01,0.014648435999999876,17093.0,0.75,322.5,0.0,0.0,0.0,3.330077784,0.01,0.0,6227.0,0.125,-255.0,-0.0,0.0,0.125,1.616210772,0.01,0.004882811999999959,0.5,-2.799999952316284,-10.289999961853027,-0.15509033203125,0.00592041015625,1.0068359375,36.470001220703125,0.0,-103.0,-2.4842071533203125,-1.10711669921875,Closing,0.0,0.0,-316.0,0.0,0.0,0.0,0.0,0.0,
3.0904860000000043,0.0,0.0,-10545.0,0.75,142.5,0.0,0.0,0.125,0.794677653,0.01,0.0,-4595.0,0.5,-157.5,-0.0,0.0,0.25,0.48583979400000005,0.01,0.009765624000000805,17093.0,1.125,202.5,0.0,0.0,0.0,3.330077784,0.01,0.0,6210.0,0.125,-135.0,-0.0,0.0,0.125,1.622314287,0.01,0.009765623999999917,0.49000000953674316,-3.0399999618530273,-10.270000457763672,-0.15325927734375,0.02081298828125,1.04241943359375,36.470001220703125,0.0,-98.0,-2.4998931884765625,-1.108062744140625,Closing,0.0,0.0,-316.0,0.0,0.0,0.0,0.0,0.0,
3.1387550000000046,0.0,0.0,-10535.0,0.625,75.0,0.0,0.0,0.125,0.799560465,0.01,0.0,-4611.0,0.25,-90.0,-0.0,0.0,0.25,0.48706049700000004,0.01,0.004882811999999959,17111.0,1.375,97.5,0.0,0.0,0.0,3.33251919,0.01,0.0,6210.0,0.125,-67.5,-0.0,0.0,0.125,1.621093584,0.01,0.0,0.5,-3.109999895095825,-10.260000228881836,-0.080078125,0.00146484375,1.06634521484375,36.470001220703125,0.0,-20.0,-2.516326904296875,-1.1083984375,Closing,0.0,0.0,-316.0,0.0,0.0,0.0,0.0,0.0,
3.1862940000000015,0.0,0.0,-10535.0,0.375,30.0,0.0,0.0,0.125,0.799560465,0.01,0.0012207029999995456,-4611.0,0.125,-37.5,-0.0,0.0,0.25,0.48095698200000003,0.01,0.004882811999999959,17111.0,1.875,30.0,0.0,0.0,0.0,3.33251919,0.01,0.0,6210.0,0.125,-15.0,-0.0,0.0,0.125,1.622314287,0.01,0.0,0.49000000953674316,-3.059999942779541,-10.270000457763672,-0.0093994140625,0.00885009765625,1.02252197265625,36.470001220703125,0.0,44.0,-2.5327606201171875,-1.1083984375,Closing,0.0,0.0,-316.0,0.0,0.0,0.0,0.0,0.0,
3.2316560000000027,0.0,0.0,-10535.0,0.125,-15.0,0.0,0.0,0.125,0.799560465,0.01,-0.0012207029999995456,-4611.0,0.0,0.0,-0.0,0.0,0.25,0.48095698200000003,0.01,-0.004882811999999959,17111.0,2.25,0.0,0.0,0.0,0.0,3.333739893,0.01,0.0,6210.0,0.25,0.0,-0.0,0.0,0.125,1.621093584,0.01,0.0,0.4699999988079071,-2.930000066757202,-10.25,0.01953125,-0.00201416015625,1.00921630859375,36.470001220703125,0.0,71.0,-2.5537567138671875,-1.1083984375,Closing,0.0,0.0,-316.0,0.0,0.0,0.0,0.0,0.0,
3.2833890000000028,0.0,0.0,-10539.0,0.125,-22.5,420.0,0.0,0.125,0.8032225740000001,0.5498168668524888,-0.0012207030000004337,-4611.0,0.125,0.0,-420.0,0.0,0.25,0.48095698200000003,1.9285545897722227,-0.004882811999999959,17111.0,3.75,0.0,420.0,0.0,0.0,3.33251919,4.389674732977289,0.0,6210.0,0.375,0.0,-420.0,0.0,0.125,1.622314287,3.0316872062785585,0.0,0.46000000834465027,-2.7699999809265137,-10.260000228881836,0.02996826171875,0.0120849609375,0.99365234375,36.470001220703125,0.0,76.0,-2.5685272216796875,-1.1083984375,Closing,0.0,0.0,-316.0,0.0,0.0,0.0,0.0,0.0,
3.327965000000004,0.0,0.0,-10539.0,0.125,-15.0,420.0,0.0,1.625,0.8422850700000001,0.5498168668524888,0.0,-4611.0,0.25,-22.5,-420.0,0.0,8.25,0.6323241540000001,1.9285545897722227,0.0,17111.0,6.125,0.0,420.0,0.0,1.125,3.289794585,4.389674732977289,-0.0012207029999995456,6210.0,0.625,-7.5,-420.0,0.0,6.25,1.5502928100000002,3.0316872062785585,0.0,0.46000000834465027,-2.6700000762939453,-10.289999961853027,0.04290771484375,-0.03558349609375,1.02679443359375,36.470001220703125,0.0,97.0,-2.5825347900390625,-1.1084136962890625,Closing,0.0,0.0,-316.0,0.0,0.0,0.0,0.0,0.0,
3.3707150000000037,0.0,0.0,-10536.0,0.0,0.0,420.0,0.0,2.125,1.016845599,0.5498168668524888,-4.849243196,-4628.0,0.25,-97.5,-420.0,0.0,3.375,0.9716795880000001,1.9285545897722227,0.2160644309999995,17112.0,6.25,0.0,420.0,0.0,0.625,3.1042477290000003,4.389674732977289,-0.06591796200000033,6201.0,0.75,-67.5,-420.0,0.0,5.125,1.207275267,3.0316872062785585,-0.0952148339999992,0.4300000071525574,-2.559999942779541,-10.260000228881836,0.08038330078125,0.07891845703125,0.90155029296875,36.470001220703125,0.0,105.0,-2.5957183837890625,-1.1082916259765625,Closing,0.0,0.0,-316.0,0.0,0.0,0.0,0.0,0.0,
3.410987000000001,0.0,0.0,-10536.0,0.125,22.5,420.0,0.0,0.625,1.182861207,0.5498168668524888,0.1696777169999999,-4628.0,0.25,-180.0,-420.0,0.0,1.25,1.325683458,1.9285545897722227,0.3210448890000004,17112.0,7.125,45.0,420.0,0.0,0.25,2.973632508,4.389674732977289,-0.1696777169999999,6201.0,1.25,-97.5,-420.0,0.0,1.5,0.8972167050000001,3.0316872062785585,-0.3247069980000008,0.4399999976158142,-2.4200000762939453,-10.239999771118164,0.056640625,0.004638671875,1.0263671875,36.470001220703125,0.0,99.0,-2.603759765625,-1.1077880859375,Closing,0.0,0.0,-316.0,0.0,0.0,0.0,0.0,0.0,
3.4581700000000057,0.0,0.0,-10536.0,0.125,37.5,420.0,0.0,0.5,1.273193229,0.5498168668524888,0.1440429540000001,-4652.0,0.5,-157.5,-420.0,0.0,1.25,1.6540525650000002,1.9285545897722227,0.32592770099999946,17129.0,7.25,82.5,420.0,0.0,0.25,2.8918454070000004,4.389674732977289,-0.12573240900000027,6193.0,1.875,-67.5,-420.0,0.0,1.75,0.5798339250000001,3.0316872062785585,-0.3063964529999996,0.4300000071525574,-2.2899999618530273,-10.329999923706055,0.00372314453125,0.032470703125,1.05609130859375,36.470001220703125,0.0,40.0,-2.6148681640625,-1.1074676513671875,Closing,0.0,0.0,-316.0,0.0,0.0,0.0,0.0,0.0,
3.5066949999999997,0.0,0.0,-10523.0,0.125,67.5,420.0,0.0,0.375,1.314697131,0.5498168668524888,0.08789061599999992,-4652.0,1.0,-120.0,-420.0,0.0,1.25,1.986083781,1.9285545897722227,0.36376949400000047,17129.0,7.375,127.5,420.0,0.0,0.125,2.8430172870000003,4.389674732977289,-0.08544921000000016,6193.0,2.25,-22.5,-420.0,0.0,2.125,0.253906224,3.0316872062785585,-0.3393554339999998,0.44999998807907104,-2.130000114440918,-10.649999618530273,0.02520751953125,0.0068359375,1.01220703125,36.470001220703125,0.0,62.0,-2.6252899169921875,-1.107086181640625,Closing,0.0,0.0,-316.0,0.0,0.0,0.0,0.0,0.0,
3.5498020000000032,0.0,0.0,-10523.0,0.125,135.0,420.0,0.0,0.375,1.33056627,0.5498168668524888,0.037841793000000123,-4652.0,1.625,-105.0,-420.0,0.0,0.75,2.260741956,1.9285545897722227,0.3259277009999999,17129.0,7.625,180.0,420.0,0.0,0.125,2.825927445,4.389674732977289,-0.04394530799999963,6193.0,2.625,0.0,-420.0,0.0,1.875,4.936522932,3.0316872062785585,-0.31372067100000045,0.5,-2.0,-11.130000114440918,-0.02685546875,0.0230712890625,1.061767578125,36.470001220703125,0.0,7.0,-2.635009765625,-1.106903076171875,Closing,0.0,0.0,-316.0,0.0,0.0,0.0,0.0,0.0,
3.5922390000000015,0.0,0.0,-10523.0,0.125,180.0,420.0,0.0,0.25,1.33056627,0.5498168668524888,0.008544920999999928,-4672.0,2.25,-112.5,-420.0,0.0,0.25,2.412109128,1.9285545897722227,0.24169919400000017,17170.0,7.5,232.5,420.0,0.0,0.125,2.813720415,4.389674732977289,-0.021972653999999814,6188.0,3.125,-15.0,-420.0,0.0,0.625,4.747313967,3.0316872062785585,-0.2753832919999999,0.4399999976158142,-2.0199999809265137,-11.8100004196167,-0.11541748046875,0.043212890625,0.9912109375,36.470001220703125,0.0,-85.0,-2.6445770263671875,-1.10711669921875,Closing,0.0,0.0,-316.0,0.0,0.0,0.0,0.0,0.0,
3.639958000000006,0.0,0.0,-10488.0,0.125,217.5,420.0,0.0,0.25,1.33056627,0.5498168668524888,0.0012207029999999897,-4672.0,2.75,-135.0,-420.0,0.0,0.25,2.468261466,1.9285545897722227,0.1403808449999997,17170.0,7.125,285.0,420.0,0.0,0.125,2.779540731,4.389674732977289,-0.004882811999999959,6188.0,3.25,-97.5,-420.0,0.0,0.5,4.628905776,3.0316872062785585,-0.17456052899999985,0.5099999904632568,-2.109999895095825,-12.8100004196167,-0.08209228515625,0.04010009765625,1.0655517578125,36.470001220703125,0.0,-48.0,-2.654754638671875,-1.10748291015625,Closing,0.0,0.0,-316.0,0.0,0.0,0.0,0.0,0.0,
3.6867690000000004,0.0,0.0,-10488.0,0.125,247.5,420.0,0.0,0.25,1.33056627,0.5498168668524888,0.0012207029999999897,-4672.0,2.5,-187.5,-420.0,0.0,0.125,2.493896229,1.9285545897722227,0.1403808449999997,17170.0,6.75,315.0,420.0,0.0,0.125,2.779540731,4.389674732977289,-0.004882811999999959,6188.0,3.125,-180.0,-420.0,0.0,0.25,4.581298359,3.0316872062785585,-0.12573240900000027,0.5799999833106995,-2.2100000381469727,-14.140000343322754,-0.06390380859375,0.04827880859375,0.96246337890625,36.470001220703125,0.0,-35.0,-2.6656646728515625,-1.107635498046875,Closing,0.0,0.0,-316.0,0.0,0.0,0.0,0.0,0.0,
3.729355000000003,0.0,0.0,-10439.0,0.125,277.5,420.0,0.0,0.25,1.329345567,0.5498168668524888,0.0,-4713.0,2.0,-247.5,-420.0,0.0,0.25,2.495116932,1.9285545897722227,0.06225585300000036,17225.0,6.75,337.5,420.0,0.0,0.0,2.779540731,4.389674732977289,-0.0341796840000006,6149.0,2.75,-277.5,-420.0,0.0,0.25,4.561767111,3.0316872062785585,-0.12573240900000027,0.6700000166893005,-2.2100000381469727,-15.75,-0.08245849609375,0.02166748046875,1.06591796875,36.470001220703125,0.0,-42.0,-2.6768646240234375,-1.107513427734375,Closing,0.0,0.0,-316.0,0.0,0.0,0.0,0.0,0.0,
3.7725679999999993,0.0,0.0,-10439.0,0.125,315.0,420.0,0.0,0.25,1.326904161,0.5498168668524888,0.0,-4713.0,1.625,-315.0,-420.0,0.0,0.25,2.4780270900000003,1.9285545897722227,0.015869138999999866,17225.0,6.75,352.5,420.0,0.0,0.0,2.778320028,4.389674732977289,0.0,6149.0,2.375,-345.0,-420.0,0.0,0.25,4.556884299,3.0316872062785585,-0.06347655599999946,0.7599999904632568,-2.1500000953674316,-17.530000686645508,-0.0552978515625,0.0211181640625,1.0543212890625,36.470001220703125,0.0,-16.0,-2.68804931640625,-1.1070098876953125,Closing,0.0,0.0,-316.0,0.0,0.0,0.0,0.0,0.0,
3.811395000000004,0.0,0.0,-10439.0,0.125,337.5,420.0,0.0,0.25,1.33056627,0.5498168668524888,0.0,-4713.0,1.125,-375.0,-420.0,0.0,0.25,2.468261466,1.9285545897722227,-0.015869138999999866,17288.0,6.375,375.0,420.0,0.0,0.0,2.779540731,4.389674732977289,0.0,6087.0,2.25,-375.0,-420.0,0.0,0.25,4.562987814,3.0316872062785585,-0.004882811999999959,0.7799999713897705,-2.0399999618530273,-19.420000076293945,0.01531982421875,0.0274658203125,0.95269775390625,36.470001220703125,0.0,41.0,-2.699127197265625,-1.1063690185546875,Closing,0.0,0.0,-316.0,0.0,0.0,0.0,0.0,0.0,
3.86075,0.0,0.0,-10380.0,0.125,352.5,420.0,0.0,0.25,1.33056627,0.5498168668524888,0.0,-4779.0,0.875,-412.5,-420.0,0.0,0.25,2.460937248,1.9285545897722227,-0.01220703000000034,17288.0,6.375,397.5,420.0,0.0,0.0,2.779540731,4.389674732977289,0.0,6087.0,2.0,-390.0,-420.0,0.0,0.25,4.561767111,3.0316872062785585,0.006103514999999504,0.800000011920929,-1.9800000190734863,-21.350000381469727,-0.01043701171875,-0.013427734375,1.04803466796875,36.470001220703125,0.0,34.0,-2.7099609375,-1.105804443359375,Closing,0.0,0.0,-316.0,0.0,0.0,0.0,0.0,0.0,
3.904802000000003,0.0,0.0,-10380.0,0.125,375.0,420.0,0.0,0.25,1.329345567,0.5498168668524888,0.0,-4779.0,0.625,-420.0,-420.0,0.0,0.25,2.458495842,1.9285545897722227,-0.007324217999999938,17288.0,6.25,412.5,420.0,0.0,0.0,2.779540731,4.389674732977289,0.0,6087.0,1.875,-412.5,-420.0,0.0,0.25,4.584960468,3.0316872062785585,0.0,0.8500000238418579,-1.840000033378601,-23.309999465942383,0.00372314453125,-0.01458740234375,0.96856689453125,36.47999954223633,0.0,43.0,-2.7202911376953125,-1.105865478515625,Closing,0.0,0.0,-316.0,0.0,0.0,0.0,0.0,0.0,
3.947043000000005,0.0,0.0,-10380.0,0.125,390.0,420.0,0.0,0.25,1.331786973,0.5498168668524888,0.0,-4847.0,0.75,-420.0,-420.0,0.0,0.125,2.45361303,1.9285545897722227,-0.004882811999999959,17356.0,6.0,427.5,420.0,0.0,0.0,2.779540731,4.389674732977289,0.0,6017.0,1.625,-435.0,-420.0,0.0,0.25,4.611815934,3.0316872062785585,0.023193357000000248,0.8399999737739563,-1.7899999618530273,-25.290000915527344,-0.00762939453125,0.001708984375,1.1116943359375,36.47999954223633,0.0,30.0,-2.730133056640625,-1.105926513671875,Closing,0.0,0.0,-316.0,0.0,0.0,0.0,0.0,0.0,
3.992370999999999,0.0,0.0,-10316.0,0.125,390.0,420.0,0.0,0.25,1.33056627,0.5498168668524888,0.0,-4847.0,0.75,-420.0,-420.0,0.0,0.125,2.45361303,1.9285545897722227,0.0,17356.0,5.875,435.0,420.0,0.0,0.0,2.779540731,4.389674732977289,0.0,6017.0,1.625,-435.0,-420.0,0.0,0.25,4.630126479,3.0316872062785585,0.025634763000000227,0.8399999737739563,-1.659999966621399,-27.270000457763672,-0.00628662109375,-0.01190185546875,0.88336181640625,36.47999954223633,0.0,28.0,-2.7397003173828125,-1.10577392578125,Closing,0.0,0.0,-316.0,0.0,0.0,0.0,0.0,0.0,
4.040836000000003,0.0,0.0,-10316.0,0.125,397.5,420.0,0.0,0.25,1.329345567,0.5498168668524888,0.0,-4847.0,0.625,-420.0,-420.0,0.0,0.125,2.454833733,1.9285545897722227,0.0,17356.0,5.75,442.5,420.0,0.0,0.0,2.779540731,4.389674732977289,0.0,6017.0,1.375,-457.5,-420.0,0.0,0.25,4.639892103,3.0316872062785585,0.0183105449999994,0.8199999928474426,-1.6200000047683716,-29.299999237060547,-3.0517578125E-4,0.0364990234375,0.99365234375,36.47999954223633,0.0,13.0,-2.74896240234375,-1.10589599609375,Closing,0.0,0.0,-316.0,0.0,0.0,0.0,0.0,0.0,
4.0871569999999995,0.0,0.0,-10249.0,0.0,412.5,420.0,0.0,0.25,1.337890488,0.5498168668524888,0.0,-4916.0,0.75,-427.5,-420.0,0.0,0.125,2.454833733,1.9285545897722227,0.0,17431.0,5.25,465.0,420.0,0.0,0.0,2.780761434,4.389674732977289,0.0,5942.0,1.25,-465.0,-420.0,0.0,0.25,4.644774915,3.0316872062785585,0.010986327000000351,0.8100000023841858,-1.5499999523162842,-31.389999389648438,0.005615234375,0.02142333984375,1.121337890625,36.47999954223633,0.0,28.0,-2.757843017578125,-1.106048583984375,Closing,0.0,0.0,-316.0,0.0,0.0,0.0,0.0,0.0,
4.13218,0.0,0.0,-10249.0,0.0,420.0,420.0,0.0,0.25,1.336669785,0.5498168668524888,0.0012207029999999897,-4916.0,0.75,-427.5,-420.0,0.0,0.125,2.45361303,1.9285545897722227,0.0,17431.0,5.125,480.0,420.0,0.0,0.0,2.779540731,4.389674732977289,0.0,5942.0,1.25,-465.0,-420.0,0.0,0.125,4.644774915,3.0316872062785585,0.010986327000000351,0.8199999928474426,-1.409999966621399,-33.4900016784668,-0.04351806640625,-0.02154541015625,0.94757080078125,36.47999954223633,0.0,2.0,-2.766326904296875,-1.106109619140625,Closing,0.0,0.0,-316.0,0.0,0.0,0.0,0.0,0.0,
4.180584999999999,0.0,0.0,-10249.0,0.125,435.0,420.0,0.0,0.25,1.33056627,0.5498168668524888,0.0,-4986.0,0.625,-435.0,-420.0,0.0,0.125,2.454833733,1.9285545897722227,0.0,17511.0,4.875,495.0,420.0,0.0,0.0,2.779540731,4.389674732977289,0.0,5866.0,1.25,-472.5,-420.0,0.0,0.125,4.648437024000001,3.0316872062785585,0.004882811999999959,0.8700000047683716,-1.340000033378601,-35.619998931884766,0.0257568359375,0.00518798828125,0.98919677734375,36.47999954223633,0.0,45.0,-2.769073486328125,-1.1058502197265625,Closing,0.0,0.0,-316.0,0.0,0.0,0.0,0.0,0.0,
4.227641000000003,0.0,0.0,-10178.0,0.0,435.0,420.0,0.0,0.25,1.33056627,0.5498168668524888,-0.0024414059999999793,-4986.0,0.625,-435.0,-420.0,0.0,0.125,2.454833733,1.9285545897722227,0.0,17511.0,4.625,495.0,420.0,0.0,0.0,2.779540731,4.389674732977289,-0.0012207029999995456,5866.0,1.0,-472.5,-420.0,0.0,0.125,4.665526866,3.0316872062785585,0.0,0.8999999761581421,-1.25,-37.77000045776367,-0.0052490234375,-0.013671875,0.9619140625,36.47999954223633,0.0,30.0,-2.768890380859375,-1.1053314208984375,Closing,0.0,0.0,-316.0,0.0,0.0,0.0,0.0,0.0,
4.270074,0.0,0.0,-10178.0,0.125,442.5,420.0,0.0,0.25,1.33056627,0.5498168668524888,0.0012207029999999897,-4986.0,0.625,-435.0,-420.0,0.0,0.125,2.446288812,1.9285545897722227,0.0,17511.0,4.5,502.5,420.0,0.0,0.0,2.779540731,4.389674732977289,0.0012207029999995456,5866.0,1.0,-465.0,-420.0,0.0,0.125,4.664306163,3.0316872062785585,0.01831054500000029,0.8999999761581421,-1.159999966621399,-39.91999816894531,0.009765625,0.021728515625,0.958251953125,36.47999954223633,0.0,18.0,-2.7684173583984375,-1.105133056640625,Closing,0.0,0.0,-316.0,0.0,0.0,0.0,0.0,0.0,
4.311704000000005,0.0,0.0,-10178.0,0.125,450.0,420.0,0.0,0.25,1.33056627,0.5498168668524888,0.0,-5057.0,0.5,-435.0,-420.0,0.0,0.125,2.454833733,1.9285545897722227,0.0,17591.0,4.375,495.0,420.0,0.0,0.0,2.779540731,4.389674732977289,0.0,5790.0,1.0,-472.5,-420.0,0.0,0.125,4.664306163,3.0316872062785585,0.0012207029999995456,0.9300000071525574,-1.1200000047683716,-42.06999969482422,-0.0240478515625,-0.00811767578125,1.0772705078125,36.47999954223633,0.0,15.0,-2.7682037353515625,-1.1049957275390625,Closing,0.0,0.0,-316.0,0.0,0.0,0.0,0.0,0.0,
4.355872000000003,0.0,0.0,-10105.0,0.125,450.0,420.0,0.0,0.25,1.329345567,0.5498168668524888,-0.0012207029999999897,-5057.0,0.5,-442.5,-420.0,0.0,0.125,2.45361303,1.9285545897722227,0.0,17591.0,4.0,502.5,420.0,0.0,0.0,2.780761434,4.389674732977289,0.0,5790.0,1.0,-472.5,-420.0,0.0,0.125,4.674071787,3.0316872062785585,-0.0012207029999995456,0.9100000262260437,-1.0099999904632568,-44.220001220703125,-0.01837158203125,-0.00140380859375,1.02728271484375,36.47999954223633,0.0,12.0,-2.7679901123046875,-1.10479736328125,Closing,0.0,0.0,-316.0,0.0,0.0,0.0,0.0,0.0,
4.4033940000000005,0.0,0.0,-10105.0,0.125,450.0,420.0,0.0,0.25,1.300048695,0.5498168668524888,0.0012207029999999897,-5057.0,0.625,-435.0,-420.0,0.0,0.125,2.45361303,1.9285545897722227,0.0,17591.0,3.875,510.0,420.0,0.0,0.0,2.779540731,4.389674732977289,0.0,5715.0,1.0,-472.5,-420.0,0.0,0.125,4.689940926,3.0316872062785585,0.010986326999999463,0.8999999761581421,-0.9700000286102295,-46.36000061035156,-0.02130126953125,0.04742431640625,1.08642578125,36.459999084472656,0.0,-22.0,-2.7674713134765625,-1.10491943359375,Closing,0.0,0.0,-316.0,0.0,0.0,0.0,0.0,0.0,
4.459098000000005,0.0,0.0,-10033.0,0.125,450.0,420.0,0.0,0.25,1.329345567,0.5498168668524888,0.0012207029999999897,-5126.0,0.5,-427.5,-420.0,0.0,0.125,2.45361303,1.9285545897722227,0.0,17674.0,3.5,510.0,420.0,0.0,0.0,2.780761434,4.389674732977289,0.0,5715.0,0.75,-465.0,-420.0,0.0,0.25,4.68749952,3.0316872062785585,0.01342773300000033,0.9200000166893005,-0.8500000238418579,-49.90999984741211,-0.016845703125,0.01513671875,1.1065673828125,36.459999084472656,0.0,1.0,-2.7671966552734375,-1.1049957275390625,Closing,0.0,0.0,-316.0,0.0,0.0,0.0,0.0,0.0,
4.527397000000004,0.0,0.0,-10033.0,0.125,442.5,420.0,0.0,0.25,1.329345567,0.5498168668524888,0.0,-5126.0,0.625,-435.0,-420.0,0.0,0.125,2.454833733,1.9285545897722227,0.0,17674.0,3.5,510.0,420.0,0.0,0.0,2.779540731,4.389674732977289,0.0,5715.0,0.75,-457.5,-420.0,0.0,0.25,4.692382332,3.0316872062785585,0.0,0.9300000071525574,-0.7699999809265137,-52.02000045776367,0.00860595703125,0.0240478515625,1.0277099609375,36.459999084472656,0.0,8.0,-2.767120361328125,-1.104827880859375,Closing,0.0,0.0,-316.0,0.0,0.0,0.0,0.0,0.0,
4.569586000000003,0.0,0.0,-9961.0,0.125,450.0,420.0,0.0,0.25,1.329345567,0.5498168668524888,-0.0024414059999999793,-5194.0,0.625,-412.5,-420.0,0.0,0.125,2.454833733,1.9285545897722227,0.0,17754.0,3.25,495.0,420.0,0.0,0.0,2.779540731,4.389674732977289,0.0,5641.0,0.75,-457.5,-420.0,0.0,0.25,4.698485847000001,3.0316872062785585,0.004882811999999959,0.8999999761581421,-0.7300000190734863,-54.79999923706055,-0.00830078125,0.04852294921875,1.041748046875,36.459999084472656,0.0,-23.0,-2.7670135498046875,-1.104644775390625,Closing,0.0,0.0,-316.0,0.0,0.0,0.0,0.0,0.0,
4.617637999999999,0.0,0.0,-9961.0,0.125,442.5,0.0,0.0,1.25,1.309814319,0.01,0.0012207029999999897,-5194.0,0.375,-405.0,-0.0,0.0,2.625,2.4255368610000003,0.01,0.0,17754.0,2.25,487.5,0.0,0.0,0.75,2.812499712,0.01,0.0,5641.0,0.625,-442.5,-0.0,0.0,3.625,4.741210452000001,0.01,0.004882811999999959,0.8999999761581421,-0.6600000262260437,-56.849998474121094,-0.0537109375,-0.0147705078125,0.9337158203125,36.459999084472656,0.0,1.0,-2.766998291015625,-1.1046295166015625,Closing,0.0,0.0,-316.0,0.0,0.0,0.0,0.0,0.0,
4.664438000000002,0.0,0.0,-9961.0,0.125,420.0,0.0,0.0,1.75,1.148681523,0.01,-0.052490229,-5234.0,0.0,-330.0,-0.0,0.0,9.0,2.1972654,0.01,-0.04150390200000009,17825.0,0.875,465.0,0.0,0.0,2.25,3.0029293800000003,0.01,0.05615233800000041,5587.0,0.375,-382.5,-0.0,0.0,4.125,0.152587875,0.01,0.08422850699999973,0.9200000166893005,-0.7200000286102295,-58.77000045776367,0.06024169921875,-0.18017578125,1.06585693359375,36.459999084472656,0.0,207.0,-2.767425537109375,-1.104705810546875,Closing,0.0,0.0,-316.0,0.0,0.0,0.0,0.0,0.0,
4.707732000000004,0.0,0.0,-9898.0,0.125,390.0,0.0,0.0,0.5,1.002197163,0.01,-0.16723631099999992,-5234.0,0.0,-195.0,-0.0,0.0,1.5,1.877441214,0.01,-0.264892551,17825.0,0.75,412.5,0.0,0.0,0.75,3.182372721,0.01,0.18310545000000022,5587.0,0.375,-300.0,-0.0,0.0,1.25,0.47485346700000003,0.01,0.3315356300000003,0.8799999952316284,-0.44999998807907104,-60.29999923706055,0.13922119140625,0.06732177734375,0.91412353515625,36.459999084472656,0.0,26.0,-2.7665863037109375,-1.1045074462890625,Closing,0.0,0.0,-316.0,0.0,0.0,0.0,0.0,0.0,
4.750429000000004,0.0,0.0,-9898.0,0.125,345.0,0.0,0.0,0.375,0.9082030320000001,0.01,-0.1318359240000001,-5234.0,0.0,-150.0,-0.0,0.0,1.125,1.5295408590000001,0.01,-0.3247069979999999,17825.0,1.25,322.5,0.0,0.0,0.25,3.299560209,0.01,0.17089841999999944,5587.0,0.375,-262.5,-0.0,0.0,1.375,0.79345695,0.01,0.3271484039999999,0.8999999761581421,-0.30000001192092896,-61.11000061035156,0.02880859375,-0.02642822265625,1.1253662109375,36.459999084472656,0.0,55.0,-2.765167236328125,-1.103271484375,Closing,0.0,0.0,-316.0,0.0,0.0,0.0,0.0,0.0,
4.794027000000002,0.0,0.0,-9898.0,0.125,285.0,0.0,0.0,0.25,0.859374912,0.01,-0.08544920999999994,-5263.0,0.0,-180.0,-0.0,0.0,1.5,1.20849597,0.01,-0.32104488899999994,17848.0,1.375,187.5,0.0,0.0,0.25,3.35693325,0.01,0.11352537900000037,5548.0,0.375,-232.5,-0.0,0.0,1.5,1.1108397300000001,0.01,0.3210448890000004,0.8700000047683716,-0.5,-61.31999969482422,-0.15277099609375,-0.009765625,1.10687255859375,36.459999084472656,0.0,-45.0,-2.76361083984375,-1.1024017333984375,Closing,0.0,0.0,-316.0,0.0,0.0,0.0,0.0,0.0,
4.845037000000004,0.0,0.0,-9865.0,0.125,195.0,0.0,0.0,0.25,0.837402258,0.01,-0.08544920999999994,-5263.0,0.0,-142.5,-0.0,0.0,1.5,0.8959960020000001,0.01,-0.3173827800000004,17848.0,1.5,52.5,0.0,0.0,0.125,3.3752437950000003,0.01,-4.883026959,5548.0,0.375,-157.5,-0.0,0.0,1.375,1.439208837,0.01,0.314941374,0.8299999833106995,-0.699999988079071,-61.380001068115234,-0.10260009765625,-0.02783203125,0.97222900390625,36.459999084472656,0.0,-6.0,-2.7624969482421875,-1.1029510498046875,Closing,0.0,0.0,-316.0,0.0,0.0,0.0,0.0,0.0,
4.891274000000005,0.0,0.0,-9865.0,0.125,67.5,0.0,0.0,0.25,0.837402258,0.01,-0.015869138999999977,-5263.0,0.0,-22.5,-0.0,0.0,1.125,0.57373041,0.01,-0.38085933599999944,17868.0,1.75,90.0,0.0,0.0,0.0,3.3764644980000003,0.01,0.015869138999999866,5532.0,0.375,-112.5,-0.0,0.0,0.875,1.646728347,0.01,0.35278316699999923,0.8100000023841858,-0.7799999713897705,-61.38999938964844,-0.08941650390625,0.01568603515625,1.06524658203125,36.459999084472656,0.0,-36.0,-2.7624969482421875,-1.10382080078125,Closing,0.0,0.0,-316.0,0.0,0.0,0.0,0.0,0.0,
4.9393550000000035,0.0,0.0,-9861.0,0.0,22.5,8.4,0.0,0.125,0.837402258,0.01,-0.015869138999999977,-5264.0,0.125,0.0,-8.4,0.0,0.25,0.443115189,0.01,-0.38085933599999944,17868.0,2.0,127.5,8.4,0.0,0.125,3.3764644980000003,0.01,0.015869138999999866,5532.0,0.375,-97.5,-8.4,0.0,0.375,1.729736151,0.01,-4.7712324409999995,0.800000011920929,-0.7599999904632568,-61.349998474121094,-0.00830078125,-0.004150390625,1.00482177734375,36.45000076293945,0.0,18.0,-2.7625274658203125,-1.104339599609375,Closing,0.0,0.0,-316.0,0.0,0.0,0.0,0.0,0.0,
4.9856229999999995,0.0,0.0,-9861.0,0.0,0.0,8.4,0.0,0.125,0.837402258,0.01,0.0012207029999999897,-5264.0,0.125,0.0,-8.4,0.0,0.25,0.40039058400000005,0.01,-0.2441406000000006,17868.0,1.875,82.5,8.4,0.0,0.125,3.3764644980000003,0.01,0.0,5532.0,0.375,-75.0,-8.4,0.0,0.25,1.7382810720000001,0.01,-4.7712324409999995,0.7699999809265137,-0.7099999785423279,-61.279998779296875,0.00238037109375,-0.00836181640625,0.987060546875,36.45000076293945,0.0,26.0,-2.76226806640625,-1.104339599609375,Closing,0.0,0.0,-316.0,0.0,0.0,0.0,0.0,0.0,
5.027789000000005,0.0,0.0,-9861.0,0.125,0.0,8.4,0.0,0.125,0.837402258,0.01,-0.0012207029999999897,-5268.0,0.125,-15.0,-8.4,0.0,0.25,0.410156208,0.01,-0.13793943899999928,17868.0,1.875,15.0,8.4,0.0,0.125,3.3764644980000003,0.01,0.0,5529.0,0.375,-15.0,-8.4,0.0,0.25,1.704101388,0.01,0.06958007099999985,0.7699999809265137,-0.699999988079071,-61.27000045776367,-0.00897216796875,0.01898193359375,1.04248046875,36.45000076293945,0.0,-2.0,-2.762115478515625,-1.104339599609375,Closing,0.0,0.0,-316.0,0.0,0.0,0.0,0.0,0.0,
5.068509000000005,0.0,0.0,-9859.0,0.0,7.5,8.4,0.0,0.125,0.837402258,0.01,0.0,-5268.0,0.125,-22.5,-8.4,0.0,0.25,0.438232377,0.01,-0.010986327000000351,17868.0,1.875,0.0,8.4,0.0,0.125,3.3764644980000003,0.01,0.0,5529.0,0.375,0.0,-8.4,0.0,0.25,1.67236311,0.01,-0.023193357000000026,0.7799999713897705,-0.7200000286102295,-61.279998779296875,-0.033447265625,0.011962890625,1.03570556640625,36.45000076293945,0.0,-7.0,-2.762115478515625,-1.104339599609375,Closing,0.0,0.0,-316.0,0.0,0.0,0.0,0.0,0.0,
