Time,ClimberA1,ClimberA2,FRpos,FRCurrent,FRspeed,FRsetpoint,FRApos,FRACurrent,FREncpos,FREncSetpoint,FREncSpeed,FLpos,FLCurrent,FLspeed,FLsetpoint,FLApos,FLACurrent,FLEncpos,FLEncSetpoint,FLEncSpeed,BRpos,BRCurrent,BRspeed,BRsetpoint,BRApos,BRACurrent,BREncpos,BREncSetpoint,BREncSpeed,BLpos,BLCurrent,BLspeed,BLsetpoint,BLApos,BLACurrent,BLEncpos,BLEncSetpoint,BLEncSpeed,navx_Pitch,navx_Roll,navx_Yaw,navx_XAcc,navx_YAcc,navx_ZAcc,navx_Temp,navx_Bar,navx_Alt,navx_XDis,navx_YDis,GearPlacerState,ShootOutputV,ShootOutputCurrent,ShootEncPos,ShootEncVelocity,ShootSpeed,ShootSetpoint,CarouselSetpoint,CarouselCurrent,
0.28199899999999617,0.0,0.0,19368.0,0.0,0.0,0.0,0.0,0.25,2.0117185440000003,0.01,0.0,-23108.0,0.125,0.0,0.0,0.0,0.125,1.722411933,0.01,0.0,-4564.0,0.125,0.0,0.0,0.0,0.0,2.09960916,0.01,0.0,-18629.0,0.125,0.0,0.0,0.0,0.125,0.379638633,0.01,0.0,0.07999999821186066,-1.0499999523162842,54.849998474121094,-0.01568603515625,-9.765625E-4,1.02105712890625,36.65999984741211,0.0,0.0,2.4204864501953125,-1.2212677001953125,Waiting,0.0,0.0,-732.0,0.0,0.0,0.0,0.0,0.0,
0.42879499999999826,0.0,0.0,19368.0,0.0,0.0,0.0,0.0,0.125,2.0104978410000003,0.01,1.2004978410000002,-23108.0,0.125,0.0,-0.0,0.0,7.5,1.7077634970000002,0.01,1.2149612300000006,-4564.0,0.125,0.0,0.0,0.0,3.125,2.1704099340000003,0.01,3.6887884570000002,-18629.0,0.125,0.0,-0.0,0.0,3.0,0.430908159,0.01,3.715197227,0.07000000029802322,-1.0399999618530273,54.84000015258789,-0.01678466796875,-0.02142333984375,1.02874755859375,36.61000061035156,0.0,-17.0,2.4204864501953125,-1.2212677001953125,Closing,0.0,0.0,-732.0,0.0,0.0,0.0,0.0,0.0,
0.5384890000000014,0.0,0.0,19368.0,0.0,7.5,0.0,0.0,2.125,1.3488768150000001,0.01,-0.24780270900000012,-23108.0,0.125,0.0,-0.0,0.0,1.5,1.069335828,0.01,-0.20019529200000008,-4570.0,0.125,-15.0,0.0,0.0,2.125,2.810058306,0.01,0.2587890359999996,-18629.0,0.125,0.0,-0.0,0.0,1.625,1.066894422,0.01,0.20141599499999963,0.05000000074505806,-1.0499999523162842,54.81999969482422,-0.02435302734375,-0.0147705078125,1.06646728515625,36.61000061035156,0.0,-15.0,2.420196533203125,-1.221343994140625,Closing,0.0,0.0,-732.0,0.0,0.0,0.0,0.0,0.125,
0.5765659999999989,0.0,0.0,19373.0,0.125,37.5,0.0,0.0,2.125,1.0864256700000001,0.01,-0.5151366660000001,-23108.0,0.125,0.0,-0.0,0.0,1.5,0.821533119,0.01,-0.5432128349999998,-4570.0,0.125,-45.0,0.0,0.0,1.75,3.077392263,0.01,0.5346679140000008,-18629.0,0.125,0.0,-0.0,0.0,1.625,1.3439940030000002,0.01,0.5566405680000006,0.10999999940395355,-1.0800000429153442,54.790000915527344,-0.045166015625,3.662109375E-4,1.1134033203125,36.61000061035156,0.0,-15.0,2.4196319580078125,-1.22125244140625,Closing,0.0,0.0,-732.0,0.0,0.0,0.0,0.0,0.0,
0.6092880000000005,0.0,0.0,19373.0,0.125,45.0,0.0,0.0,1.0,0.9851073210000001,0.01,-0.5151366660000001,-23108.0,0.125,0.0,-0.0,0.0,0.875,0.718994067,0.01,-0.5432128349999998,-4570.0,0.25,-67.5,0.0,0.0,1.125,3.184814127,0.01,0.5346679140000008,-18629.0,0.125,0.0,-0.0,0.0,0.875,1.511230314,0.01,0.2282714609999994,0.15000000596046448,-1.100000023841858,54.75,-0.0230712890625,0.0205078125,1.06646728515625,36.61000061035156,0.0,12.0,2.4191741943359375,-1.22076416015625,Closing,0.0,0.0,-732.0,0.0,0.0,0.0,0.0,0.0,
0.6826529999999984,0.0,0.0,19378.0,0.125,30.0,0.0,0.0,0.375,0.8557128030000001,0.01,-0.12817381500000014,-23108.0,0.125,0.0,-0.0,0.0,0.25,0.531005805,0.01,-0.15380857800000047,-4581.0,0.125,-52.5,0.0,0.0,0.25,3.343505517,0.01,0.157470687,-18629.0,0.125,0.0,-0.0,0.0,0.625,1.641845535,0.01,0.17822263800000027,0.03999999910593033,-1.1100000143051147,54.70000076293945,-0.01287841796875,-0.0142822265625,1.0657958984375,36.61000061035156,0.0,-7.0,2.4180908203125,-1.2209320068359375,Closing,0.0,0.0,-732.0,0.0,0.0,0.0,0.0,0.0,
0.7309419999999954,0.0,0.0,19378.0,0.125,15.0,0.0,0.0,0.375,0.852050694,0.01,-0.04394530799999996,-23108.0,0.125,0.0,-0.0,0.0,0.25,0.526122993,0.01,-0.09155272499999967,-4581.0,0.25,-37.5,0.0,0.0,0.125,3.343505517,0.01,0.07568358600000025,-18629.0,0.125,0.0,-0.0,0.0,0.25,1.641845535,0.01,-4.859123057,0.03999999910593033,-1.0800000429153442,54.70000076293945,-0.0103759765625,0.01727294921875,0.9873046875,36.61000061035156,0.0,18.0,2.417816162109375,-1.2209320068359375,Closing,0.0,0.0,-732.0,0.0,0.0,0.0,0.0,0.0,
0.7559049999999988,0.0,0.0,19378.0,0.0,0.0,0.0,0.0,0.25,0.860595615,0.01,-0.0012207029999999897,-23108.0,0.125,0.0,-0.0,0.0,0.0,0.526122993,0.01,-0.0012207030000004337,-4581.0,0.125,0.0,0.0,0.0,0.125,3.34472622,0.01,0.0,-18629.0,0.125,0.0,-0.0,0.0,0.125,1.622314287,0.01,0.0,0.09000000357627869,-1.059999942779541,54.709999084472656,-0.00714111328125,0.01165771484375,0.9940185546875,36.61000061035156,0.0,14.0,2.417999267578125,-1.2209320068359375,Closing,0.0,0.0,-732.0,0.0,0.0,0.0,0.0,0.0,
0.8061059999999998,0.0,0.0,19378.0,0.0,0.0,0.0,0.0,0.25,0.8581542090000001,0.01,-0.0012207029999999897,-23108.0,0.125,0.0,-0.0,0.0,0.0,0.535888617,0.01,-0.0012207030000004337,-4581.0,0.125,0.0,0.0,0.0,0.0,3.343505517,0.01,0.0,-18629.0,0.125,0.0,-0.0,0.0,0.125,1.6027830390000002,0.01,0.0,0.10000000149011612,-1.0700000524520874,54.709999084472656,-0.03717041015625,-0.0111083984375,1.0455322265625,36.61000061035156,0.0,-20.0,2.4179840087890625,-1.2209320068359375,Closing,0.0,0.0,-732.0,0.0,0.0,0.0,0.0,0.125,
0.8523369999999996,0.0,0.0,19378.0,0.0,0.0,0.0,0.0,0.25,0.8569335060000001,0.01,0.0,-23108.0,0.125,0.0,-0.0,0.0,0.125,0.5554198650000001,0.01,0.006103515000000392,-4581.0,0.125,0.0,0.0,0.0,0.0,3.338622705,0.01,0.0,-18629.0,0.125,0.0,-0.0,0.0,0.125,1.568603355,0.01,4.9384687519999995,0.05000000074505806,-1.090000033378601,54.709999084472656,-0.02679443359375,0.00958251953125,1.02764892578125,36.61000061035156,0.0,2.0,2.4178619384765625,-1.2209320068359375,Closing,0.0,0.0,-732.0,0.0,0.0,0.0,0.0,0.125,
0.8780319999999993,0.0,0.0,19378.0,0.0,0.0,0.0,0.0,0.25,0.852050694,0.01,0.0,-23108.0,0.125,0.0,-0.0,0.0,0.125,0.565185489,0.01,0.019531247999999835,-4581.0,0.125,0.0,0.0,0.0,0.0,3.339843408,0.01,-0.003662109000000413,-18629.0,0.125,0.0,-0.0,0.0,0.25,1.5588377310000001,0.01,-0.052490229,0.07000000029802322,-1.090000033378601,54.709999084472656,-0.01263427734375,0.01593017578125,1.01171875,36.61000061035156,0.0,15.0,2.4178619384765625,-1.2209320068359375,Closing,0.0,0.0,-732.0,0.0,0.0,0.0,0.0,0.125,
0.9248029999999999,0.0,0.0,19378.0,0.0,0.0,0.0,0.0,0.25,0.8569335060000001,0.01,0.0,-23108.0,0.125,0.0,-0.0,0.0,0.25,0.57373041,0.01,0.014648435999999876,-4581.0,0.125,0.0,0.0,0.0,0.0,3.339843408,0.01,-0.0012207029999995456,-18629.0,0.125,0.0,-0.0,0.0,0.25,1.560058434,0.01,-0.009765623999999917,0.09000000357627869,-1.0800000429153442,54.709999084472656,-0.020263671875,-0.00189208984375,1.0198974609375,36.599998474121094,0.0,-3.0,2.4178619384765625,-1.2209320068359375,Closing,0.0,0.0,-732.0,0.0,0.0,0.0,0.0,0.0,
0.9510299999999988,0.0,0.0,19378.0,0.0,0.0,0.0,0.0,0.25,0.8569335060000001,0.01,0.0,-23108.0,0.125,0.0,-0.0,0.0,0.25,0.57373041,0.01,0.014648435999999876,-4581.0,0.125,0.0,0.0,0.0,0.0,3.338622705,0.01,-0.0012207029999995456,-18629.0,0.125,0.0,-0.0,0.0,0.25,1.564941246,0.01,-0.009765623999999917,0.07000000029802322,-1.0800000429153442,54.709999084472656,-0.02099609375,-0.01373291015625,1.01715087890625,36.599998474121094,0.0,-13.0,2.4178619384765625,-1.2209320068359375,Closing,0.0,0.0,-732.0,0.0,0.0,0.0,0.0,0.0,
0.9952459999999992,0.0,0.0,19378.0,0.0,0.0,0.0,0.0,0.25,0.8569335060000001,0.01,0.0,-23108.0,0.125,0.0,-0.0,0.0,0.25,0.5688475980000001,0.01,0.009765624000000805,-4581.0,0.125,0.0,0.0,0.0,0.0,3.339843408,0.01,0.0,-18629.0,0.125,0.0,-0.0,0.0,0.375,1.564941246,0.01,0.004882811999999959,0.05999999865889549,-1.0800000429153442,54.709999084472656,-0.01763916015625,0.01373291015625,1.00958251953125,36.599998474121094,0.0,11.0,2.4178619384765625,-1.2209320068359375,Closing,0.0,0.0,-732.0,0.0,0.0,0.0,0.0,0.0,
1.0458339999999953,0.0,0.0,19378.0,0.0,0.0,0.0,0.0,0.25,0.852050694,0.01,0.0,-23108.0,0.125,0.0,-0.0,0.0,0.25,0.5688475980000001,0.01,0.0,-4581.0,0.125,0.0,0.0,0.0,0.0,3.338622705,0.01,0.0,-18629.0,0.125,0.0,-0.0,0.0,0.375,1.566161949,0.01,0.0,0.07999999821186066,-1.0800000429153442,54.709999084472656,-0.0228271484375,0.00390625,1.013427734375,36.599998474121094,0.0,0.0,2.4178619384765625,-1.2209320068359375,Closing,0.0,0.0,-732.0,0.0,0.0,0.0,0.0,0.0,
1.076903999999995,0.0,0.0,19378.0,0.0,0.0,0.0,0.0,0.25,0.8557128030000001,0.01,0.0,-23108.0,0.125,0.0,-0.0,0.0,0.25,0.5688475980000001,0.01,-0.004882811999999959,-4581.0,0.125,0.0,0.0,0.0,0.0,3.338622705,0.01,0.0,-18629.0,0.125,0.0,-0.0,0.0,0.375,1.564941246,0.01,0.0,0.07999999821186066,-1.0800000429153442,54.709999084472656,-0.021728515625,-0.01263427734375,1.02642822265625,36.599998474121094,0.0,-12.0,2.4178619384765625,-1.2209320068359375,Closing,0.0,0.0,-732.0,0.0,0.0,0.0,0.0,0.0,
1.108163999999997,0.0,0.0,19378.0,0.0,0.0,0.0,0.0,0.25,0.8569335060000001,0.01,0.0,-23108.0,0.125,0.0,-0.0,0.0,0.25,0.570068301,0.01,-0.004882811999999959,-4581.0,0.125,0.0,0.0,0.0,0.0,3.338622705,0.01,0.0,-18629.0,0.125,0.0,-0.0,0.0,0.375,1.564941246,0.01,0.0,0.05999999865889549,-1.0800000429153442,54.709999084472656,-0.01446533203125,-0.005615234375,1.01910400390625,36.599998474121094,0.0,-2.0,2.4178619384765625,-1.2209320068359375,Closing,0.0,0.0,-732.0,0.0,0.0,0.0,0.0,0.0,
1.1435,0.0,0.0,19378.0,0.0,0.0,0.0,0.0,0.25,0.8569335060000001,0.01,-0.0012207029999999897,-23108.0,0.125,0.0,-0.0,0.0,0.25,0.5688475980000001,0.01,0.0,-4581.0,0.125,0.0,0.0,0.0,0.0,3.339843408,0.01,0.0,-18629.0,0.125,0.0,-0.0,0.0,0.375,1.561279137,0.01,0.0,0.07000000029802322,-1.0800000429153442,54.709999084472656,-0.0186767578125,0.006103515625,1.02728271484375,36.599998474121094,0.0,4.0,2.4178619384765625,-1.2209320068359375,Closing,0.0,0.0,-732.0,0.0,0.0,0.0,0.0,0.0,
1.1924830000000002,0.0,0.0,19378.0,0.0,0.0,0.0,0.0,0.25,0.861816318,0.01,-0.0012207029999999897,-23108.0,0.125,0.0,-0.0,0.0,0.25,0.5688475980000001,0.01,0.0,-4581.0,0.125,0.0,0.0,0.0,0.0,3.339843408,0.01,0.0,-18629.0,0.125,0.0,-0.0,0.0,0.375,1.564941246,0.01,0.0,0.07000000029802322,-1.0800000429153442,54.709999084472656,-0.02288818359375,-0.00933837890625,1.02734375,36.599998474121094,0.0,-10.0,2.4178619384765625,-1.2209320068359375,Closing,0.0,0.0,-732.0,0.0,0.0,0.0,0.0,0.125,
1.227798999999999,0.0,0.0,19378.0,0.0,0.0,0.0,0.0,0.25,0.8569335060000001,0.01,0.004882811999999959,-23108.0,0.125,0.0,-0.0,0.0,0.25,0.5688475980000001,0.01,0.0,-4581.0,0.125,0.0,0.0,0.0,0.0,3.338622705,0.01,0.0,-18629.0,0.125,0.0,-0.0,0.0,0.375,1.563720543,0.01,0.0,0.05999999865889549,-1.0800000429153442,54.709999084472656,-0.02203369140625,-0.00628662109375,1.0177001953125,36.599998474121094,0.0,-7.0,2.4178619384765625,-1.2209320068359375,Closing,0.0,0.0,-732.0,0.0,0.0,0.0,0.0,0.0,
1.2555559999999968,0.0,0.0,19378.0,0.0,0.0,0.0,0.0,0.25,0.8569335060000001,0.01,0.004882811999999959,-23108.0,0.125,0.0,-0.0,0.0,0.25,0.5688475980000001,0.01,0.0,-4581.0,0.125,0.0,0.0,0.0,0.0,3.339843408,0.01,0.0,-18629.0,0.125,0.0,-0.0,0.0,0.375,1.564941246,0.01,0.0,0.05999999865889549,-1.0800000429153442,54.709999084472656,-0.0145263671875,0.00396728515625,1.01495361328125,36.599998474121094,0.0,4.0,2.4178619384765625,-1.2209320068359375,Closing,0.0,0.0,-732.0,0.0,0.0,0.0,0.0,0.0,
1.3025989999999947,0.0,0.0,19378.0,0.0,0.0,0.0,0.0,0.25,0.860595615,0.01,-0.0012207029999999897,-23108.0,0.125,0.0,-0.0,0.0,0.25,0.5688475980000001,0.01,0.0,-4581.0,0.125,0.0,0.0,0.0,0.0,3.339843408,0.01,0.0,-18629.0,0.125,0.0,-0.0,0.0,0.375,1.564941246,0.01,0.0,0.07999999821186066,-1.0700000524520874,54.709999084472656,-0.01959228515625,0.0023193359375,1.02056884765625,36.599998474121094,0.0,0.0,2.4178619384765625,-1.2209320068359375,Closing,0.0,0.0,-732.0,0.0,0.0,0.0,0.0,0.0,
1.3311229999999996,0.0,0.0,19378.0,0.0,0.0,0.0,0.0,0.25,0.8557128030000001,0.01,0.0024414059999999793,-23108.0,0.125,0.0,-0.0,0.0,0.25,0.5688475980000001,0.01,0.0,-4581.0,0.125,0.0,0.0,0.0,0.0,3.338622705,0.01,0.0,-18629.0,0.125,0.0,-0.0,0.0,0.375,1.563720543,0.01,0.0,0.07000000029802322,-1.0800000429153442,54.709999084472656,-0.023193359375,-0.0045166015625,1.0213623046875,36.599998474121094,0.0,-7.0,2.4178619384765625,-1.2209320068359375,Closing,0.0,0.0,-732.0,0.0,0.0,0.0,0.0,0.0,
1.355040000000001,0.0,0.0,19378.0,0.0,0.0,0.0,0.0,0.25,0.8557128030000001,0.01,0.0024414059999999793,-23108.0,0.125,0.0,-0.0,0.0,0.25,0.570068301,0.01,0.0,-4581.0,0.125,0.0,0.0,0.0,0.0,3.339843408,0.01,0.0,-18629.0,0.125,0.0,-0.0,0.0,0.375,1.563720543,0.01,0.0,0.05999999865889549,-1.0800000429153442,54.709999084472656,-0.01885986328125,0.0040283203125,1.0155029296875,36.599998474121094,0.0,2.0,2.4178619384765625,-1.2209320068359375,Closing,0.0,0.0,-732.0,0.0,0.0,0.0,0.0,0.0,
1.412966999999997,0.0,0.0,19378.0,0.0,0.0,0.0,0.0,0.25,0.8569335060000001,0.01,0.0,-23108.0,0.125,0.0,-0.0,0.0,0.25,0.5688475980000001,0.01,0.0,-4581.0,0.125,0.0,0.0,0.0,0.0,3.339843408,0.01,0.0,-18629.0,0.125,0.0,-0.0,0.0,0.375,1.564941246,0.01,0.0,0.07000000029802322,-1.0800000429153442,54.709999084472656,-0.0179443359375,0.00244140625,1.0201416015625,36.63999938964844,0.0,1.0,2.4178619384765625,-1.2209320068359375,Closing,0.0,0.0,-732.0,0.0,0.0,0.0,0.0,0.0,
1.4472609999999986,0.0,0.0,19378.0,0.0,0.0,0.0,0.0,0.25,0.8569335060000001,0.01,-0.0024414059999999793,-23108.0,0.125,0.0,-0.0,0.0,0.25,0.5688475980000001,0.01,0.0,-4581.0,0.125,0.0,0.0,0.0,0.0,3.339843408,0.01,0.0,-18629.0,0.125,0.0,-0.0,0.0,0.375,1.564941246,0.01,0.0,0.07000000029802322,-1.0800000429153442,54.709999084472656,-0.01959228515625,0.00115966796875,1.02099609375,36.63999938964844,0.0,-3.0,2.4178619384765625,-1.2209320068359375,Closing,0.0,0.0,-732.0,0.0,0.0,0.0,0.0,0.0,
1.4934539999999978,0.0,0.0,19378.0,0.0,0.0,0.0,0.0,0.25,0.8569335060000001,0.01,0.0,-23108.0,0.125,0.0,-0.0,0.0,0.25,0.5688475980000001,0.01,0.0,-4581.0,0.125,0.0,0.0,0.0,0.0,3.339843408,0.01,0.0,-18629.0,0.125,0.0,-0.0,0.0,0.375,1.563720543,0.01,0.0,0.07000000029802322,-1.0700000524520874,54.709999084472656,-0.0179443359375,0.0045166015625,1.01947021484375,36.63999938964844,0.0,3.0,2.4178619384765625,-1.2209320068359375,Closing,0.0,0.0,-732.0,0.0,0.0,0.0,0.0,0.0,
1.5144949999999953,0.0,0.0,19378.0,0.0,0.0,0.0,0.0,0.25,0.8569335060000001,0.01,0.0,-23108.0,0.125,0.0,-0.0,0.0,0.25,0.570068301,0.01,0.0,-4581.0,0.125,0.0,0.0,0.0,0.0,3.339843408,0.01,0.0,-18629.0,0.125,0.0,-0.0,0.0,0.375,1.564941246,0.01,0.0,0.07000000029802322,-1.0800000429153442,54.709999084472656,-0.01690673828125,0.00518798828125,1.0230712890625,36.63999938964844,0.0,4.0,2.4178619384765625,-1.2209320068359375,Closing,0.0,0.0,-732.0,0.0,0.0,0.0,0.0,0.125,
1.542364999999998,0.0,0.0,19378.0,0.0,0.0,0.0,0.0,0.25,0.8581542090000001,0.01,-0.0012207029999999897,-23108.0,0.125,0.0,-0.0,0.0,0.25,0.570068301,0.01,0.0,-4581.0,0.125,0.0,0.0,0.0,0.0,3.339843408,0.01,0.0,-18629.0,0.125,0.0,-0.0,0.0,0.375,1.563720543,0.01,0.0,0.07999999821186066,-1.0700000524520874,54.709999084472656,-0.02032470703125,0.00360107421875,1.01654052734375,36.63999938964844,0.0,0.0,2.4178619384765625,-1.2209320068359375,Closing,0.0,0.0,-732.0,0.0,0.0,0.0,0.0,0.125,
1.5909499999999972,0.0,0.0,19378.0,0.0,0.0,0.0,0.0,0.25,0.8569335060000001,0.01,0.003662108999999969,-23108.0,0.125,0.0,-0.0,0.0,0.25,0.570068301,0.01,0.0,-4581.0,0.125,0.0,0.0,0.0,0.0,3.339843408,0.01,0.0,-18629.0,0.125,0.0,-0.0,0.0,0.375,1.564941246,0.01,0.0,0.07999999821186066,-1.0700000524520874,54.709999084472656,-0.01849365234375,-0.003662109375,1.0191650390625,36.63999938964844,0.0,-3.0,2.4178619384765625,-1.2209320068359375,Closing,0.0,0.0,-732.0,0.0,0.0,0.0,0.0,0.0,
1.6123899999999993,0.0,0.0,19378.0,0.0,0.0,0.0,0.0,0.25,0.8569335060000001,0.01,0.003662108999999969,-23108.0,0.125,0.0,-0.0,0.0,0.25,0.5688475980000001,0.01,0.0,-4581.0,0.125,0.0,0.0,0.0,0.0,3.339843408,0.01,0.0,-18629.0,0.125,0.0,-0.0,0.0,0.375,1.563720543,0.01,0.0,0.07999999821186066,-1.0700000524520874,54.709999084472656,-0.01690673828125,0.0047607421875,1.02056884765625,36.63999938964844,0.0,3.0,2.4178619384765625,-1.2209320068359375,Closing,0.0,0.0,-732.0,0.0,0.0,0.0,0.0,0.0,
1.6568119999999982,0.0,0.0,19378.0,0.0,0.0,0.0,0.0,0.25,0.8569335060000001,0.01,-0.003662108999999969,-23108.0,0.125,0.0,-0.0,0.0,0.25,0.5688475980000001,0.01,0.0,-4581.0,0.125,0.0,0.0,0.0,0.0,3.339843408,0.01,0.0,-18629.0,0.125,0.0,-0.0,0.0,0.375,1.563720543,0.01,0.0,0.07999999821186066,-1.0700000524520874,54.709999084472656,-0.02166748046875,0.0047607421875,1.022705078125,36.63999938964844,0.0,1.0,2.4178619384765625,-1.2209320068359375,Closing,0.0,0.0,-732.0,0.0,0.0,0.0,0.0,0.0,
1.684364999999998,0.0,0.0,19378.0,0.0,0.0,0.0,0.0,0.25,0.8569335060000001,0.01,0.0012207029999999897,-23108.0,0.125,0.0,-0.0,0.0,0.25,0.570068301,0.01,0.0,-4581.0,0.125,0.0,0.0,0.0,0.0,3.339843408,0.01,0.0012207029999995456,-18629.0,0.125,0.0,-0.0,0.0,0.375,1.564941246,0.01,0.0,0.07999999821186066,-1.0700000524520874,54.709999084472656,-0.01824951171875,0.004150390625,1.02496337890625,36.63999938964844,0.0,2.0,2.4178619384765625,-1.2209320068359375,Closing,0.0,0.0,-732.0,0.0,0.0,0.0,0.0,0.0,
1.7097669999999998,0.0,0.0,19378.0,0.0,0.0,0.0,0.0,0.25,0.8569335060000001,0.01,0.0012207029999999897,-23108.0,0.125,0.0,-0.0,0.0,0.25,0.570068301,0.01,0.0,-4581.0,0.125,0.0,0.0,0.0,0.0,3.338622705,0.01,-0.0012207029999995456,-18629.0,0.125,0.0,-0.0,0.0,0.375,1.568603355,0.01,0.0,0.07999999821186066,-1.0700000524520874,54.709999084472656,-0.0223388671875,-0.0028076171875,1.02569580078125,36.63999938964844,0.0,-5.0,2.4178619384765625,-1.2209320068359375,Closing,0.0,0.0,-732.0,0.0,0.0,0.0,0.0,0.0,
1.7481970000000002,0.0,0.0,19378.0,0.0,0.0,0.0,0.0,0.25,0.8569335060000001,0.01,0.0,-23108.0,0.125,0.0,-0.0,0.0,0.25,0.570068301,0.01,0.0,-4581.0,0.125,0.0,0.0,0.0,0.0,3.339843408,0.01,-0.0012207029999995456,-18629.0,0.125,0.0,-0.0,0.0,0.375,1.563720543,0.01,0.0,0.07000000029802322,-1.0800000429153442,54.709999084472656,-0.0167236328125,0.00177001953125,1.02276611328125,36.63999938964844,0.0,1.0,2.4178619384765625,-1.2209320068359375,Closing,0.0,0.0,-732.0,0.0,0.0,0.0,0.0,0.0,
1.795242999999995,0.0,0.0,19378.0,0.0,0.0,0.0,0.0,0.25,0.8569335060000001,0.01,0.0024414059999999793,-23108.0,0.125,0.0,-0.0,0.0,0.25,0.5688475980000001,0.01,0.0,-4581.0,0.125,0.0,0.0,0.0,0.0,3.339843408,0.01,0.0,-18629.0,0.125,0.0,-0.0,0.0,0.375,1.564941246,0.01,0.0,0.07000000029802322,-1.0800000429153442,54.709999084472656,-0.016357421875,0.00189208984375,1.0223388671875,36.63999938964844,0.0,2.0,2.4178619384765625,-1.2209320068359375,Closing,0.0,0.0,-732.0,0.0,0.0,0.0,0.0,0.0,
1.8231339999999983,0.0,0.0,19378.0,0.0,0.0,0.0,0.0,0.25,0.864257724,0.01,-0.003662108999999969,-23108.0,0.125,0.0,-0.0,0.0,0.25,0.5676268950000001,0.01,0.0,-4581.0,0.125,0.0,0.0,0.0,0.0,3.341064111,0.01,0.0,-18629.0,0.125,0.0,-0.0,0.0,0.375,1.564941246,0.01,0.0,0.07000000029802322,-1.0800000429153442,54.709999084472656,-0.01861572265625,-0.00152587890625,1.02508544921875,36.63999938964844,0.0,-1.0,2.4178619384765625,-1.2209320068359375,Closing,0.0,0.0,-732.0,0.0,0.0,0.0,0.0,0.125,
1.8689550000000017,0.0,0.0,19378.0,0.0,0.0,0.0,0.0,0.25,0.8569335060000001,0.01,-0.003662108999999969,-23108.0,0.125,0.0,-0.0,0.0,0.25,0.570068301,0.01,0.0,-4581.0,0.125,0.0,0.0,0.0,0.0,3.342284814,0.01,0.0,-18629.0,0.125,0.0,-0.0,0.0,0.375,1.568603355,0.01,0.0,0.07000000029802322,-1.0800000429153442,54.709999084472656,-0.01983642578125,0.0010986328125,1.0211181640625,36.63999938964844,0.0,0.0,2.4178619384765625,-1.2209320068359375,Closing,0.0,0.0,-732.0,0.0,0.0,0.0,0.0,0.0,
1.906487000000001,0.0,0.0,19378.0,0.0,0.0,0.0,0.0,0.25,0.8557128030000001,0.01,0.0,-23108.0,0.125,0.0,-0.0,0.0,0.25,0.5688475980000001,0.01,0.0,-4581.0,0.125,0.0,0.0,0.0,0.0,3.338622705,0.01,0.0,-18629.0,0.125,0.0,-0.0,0.0,0.375,1.563720543,0.01,0.0,0.07999999821186066,-1.0800000429153442,54.709999084472656,-0.01654052734375,0.0015869140625,1.025634765625,36.63999938964844,0.0,1.0,2.4178619384765625,-1.2209320068359375,Closing,0.0,0.0,-732.0,0.0,0.0,0.0,0.0,0.0,
1.9347079999999988,0.0,0.0,19378.0,0.0,0.0,0.0,0.0,0.25,0.8557128030000001,0.01,0.0024414059999999793,-23108.0,0.125,0.0,-0.0,0.0,0.25,0.5688475980000001,0.01,0.0,-4581.0,0.125,0.0,0.0,0.0,0.0,3.339843408,0.01,0.0,-18629.0,0.125,0.0,-0.0,0.0,0.375,1.563720543,0.01,0.0,0.07999999821186066,-1.0700000524520874,54.70000076293945,-0.01910400390625,0.004150390625,1.01751708984375,36.63999938964844,0.0,2.0,2.4178619384765625,-1.2209320068359375,Closing,0.0,0.0,-732.0,0.0,0.0,0.0,0.0,0.0,
1.962773000000001,0.0,0.0,19378.0,0.0,0.0,-413.43750000000006,0.0,0.25,0.8557128030000001,4.44861639850836,-0.0012207029999999897,-23108.0,0.125,0.0,413.43750000000006,0.0,0.25,0.571289004,4.477044785519602,0.0,-4581.0,0.125,0.0,-413.43750000000006,0.0,0.0,3.339843408,4.455966343803407,0.0,-18629.0,0.125,0.0,413.43750000000006,0.0,0.375,1.56249984,4.471840566062929,0.0,0.07999999821186066,-1.0800000429153442,54.70000076293945,-0.020263671875,-0.001220703125,1.0177001953125,36.630001068115234,0.0,-2.0,2.4178619384765625,-1.2209320068359375,Closing,0.0,0.0,-732.0,0.0,0.0,0.0,0.0,0.0,
2.0018399999999965,0.0,0.0,19377.0,0.125,0.0,-1043.4375,0.0,1.25,0.832519446,4.44861639850836,0.0,-23107.0,0.625,0.0,1043.4375,0.0,2.0,0.5163573690000001,4.477044785519602,0.0,-4582.0,0.375,0.0,-1043.4375,0.0,1.0,3.276366852,4.455966343803407,0.0,-18628.0,0.5,0.0,1043.4375,0.0,0.5,1.540527186,4.471840566062929,0.0,0.07999999821186066,-1.0800000429153442,54.70000076293945,-0.01788330078125,0.00750732421875,1.02056884765625,36.630001068115234,0.0,5.0,2.4178619384765625,-1.2209320068359375,Closing,0.0,0.0,-732.0,0.0,0.0,0.0,0.0,0.125,
2.041873999999996,0.0,0.0,19377.0,6.75,-7.5,-2421.5625,0.0,2.125,0.70800774,4.4487533824844165,0.0,-23107.0,11.125,90.0,2421.5625,0.0,2.625,0.37597652400000003,4.477182644876482,0.0,-4582.0,5.625,-30.0,-2421.5625,0.0,1.125,3.175048503,4.456103554102581,0.0,-18628.0,7.5,45.0,2421.5625,0.0,1.0,1.409911965,4.471978265168933,0.0,0.11999999731779099,-1.2799999713897705,54.70000076293945,-0.6474609375,-0.0693359375,1.0631103515625,36.630001068115234,0.0,-418.0,2.417572021484375,-1.220458984375,Closing,0.0,0.0,-732.0,0.0,0.0,0.0,0.0,0.0,
2.068900999999998,0.0,0.0,19377.0,13.375,-75.0,-1693.125,0.0,1.25,0.667724541,4.44861639850836,-0.12207030000000074,-23107.0,22.5,172.5,1693.125,0.0,0.5,0.32348629500000003,4.477044785519602,0.0,-4582.0,8.25,-60.0,-1693.125,0.0,0.25,3.131103195,4.455966343803407,0.0,-18628.0,13.25,82.5,1693.125,0.0,0.25,1.3488768150000001,4.471840566062929,0.0,0.09000000357627869,-1.6799999475479126,54.63999938964844,-0.13433837890625,0.20281982421875,1.00030517578125,36.630001068115234,0.0,103.0,2.41705322265625,-1.219573974609375,Closing,0.0,0.0,-732.0,0.0,0.0,0.0,0.0,0.0,
2.095947999999997,0.0,0.0,19377.0,20.75,-112.5,0.0,0.0,0.75,0.596923767,4.44861639850836,0.0,-23054.0,26.25,300.0,0.0,0.0,0.25,0.255126927,4.477044785519602,0.0,-4606.0,8.75,-135.0,0.0,0.0,0.25,3.082275075,4.455966343803407,0.0,-18593.0,17.0,187.5,0.0,0.0,0.25,1.2951658830000001,4.471840566062929,0.0,0.30000001192092896,-1.9900000095367432,54.61000061035156,-0.26287841796875,0.115234375,0.921875,36.630001068115234,0.0,-43.0,2.4162139892578125,-1.216796875,Closing,0.0,0.0,-732.0,0.0,0.0,0.0,0.0,0.0,
2.134915000000001,0.0,0.0,19350.0,5.875,-165.0,0.0,0.0,0.75,0.506591745,4.44861639850836,-0.10620116099999954,-23054.0,14.375,322.5,0.0,0.0,0.25,0.167236311,4.477044785519602,-0.11596678500000035,-4606.0,6.125,-150.0,0.0,0.0,0.25,3.01513641,4.455966343803407,-0.07934569499999977,-18593.0,5.5,225.0,0.0,0.0,0.25,1.2658690110000002,4.471840566062929,-0.10742186399999998,0.4399999976158142,-1.7599999904632568,54.619998931884766,0.22637939453125,0.223388671875,0.7625732421875,36.630001068115234,0.0,321.0,2.415496826171875,-1.2115631103515625,Closing,0.0,0.0,-732.0,0.0,0.0,0.0,0.0,0.125,
2.156818999999996,0.0,0.0,19350.0,1.375,-150.0,0.0,0.0,0.5,0.462646437,4.44861639850836,-0.10620116099999954,-23054.0,6.25,270.0,0.0,0.0,0.25,0.12939451800000001,4.477044785519602,-0.11596678500000035,-4606.0,0.125,-127.5,0.0,0.0,0.25,2.979736023,4.455966343803407,-0.07934569499999977,-18593.0,0.625,202.5,0.0,0.0,0.25,1.226806515,4.471840566062929,-0.10742186399999998,0.5600000023841858,-1.649999976158142,54.63999938964844,0.10284423828125,0.0467529296875,1.38067626953125,36.630001068115234,0.0,109.0,2.4163055419921875,-1.208892822265625,Closing,0.0,0.0,-732.0,0.0,0.0,0.0,0.0,0.125,
2.197695999999996,0.0,0.0,19350.0,0.0,-75.0,0.0,0.0,0.375,0.391845663,4.44861639850836,-0.14770506300000008,-23054.0,0.125,120.0,0.0,0.0,0.25,0.081787101,4.477044785519602,-0.08544921000000016,-4606.0,0.125,-82.5,0.0,0.0,0.25,2.937011418,4.455966343803407,-0.07202147699999983,-18593.0,0.125,97.5,0.0,0.0,0.25,1.1877440190000002,4.471840566062929,-0.0708007739999994,0.3400000035762787,-1.1299999952316284,54.63999938964844,0.21356201171875,-0.1669921875,0.91082763671875,36.630001068115234,0.0,-6.0,2.4182891845703125,-1.2066802978515625,Closing,0.0,0.0,-732.0,0.0,0.0,0.0,0.0,0.125,
2.2219059999999953,0.0,0.0,19351.0,0.0,0.0,0.0,0.0,0.25,0.377197227,4.44861639850836,-0.05371093200000043,-23052.0,0.125,37.5,0.0,0.0,0.25,0.06103515,4.477044785519602,-0.07568358599999936,-4611.0,0.125,-22.5,0.0,0.0,0.25,2.912597358,4.455966343803407,-0.07324218000000027,-18585.0,0.125,52.5,0.0,0.0,0.25,1.170654177,4.471840566062929,-0.035400387000000144,0.12999999523162842,-0.9800000190734863,54.66999816894531,0.0963134765625,-0.161865234375,1.07159423828125,36.630001068115234,0.0,-67.0,2.4194793701171875,-1.2068328857421875,Closing,0.0,0.0,-732.0,0.0,0.0,0.0,0.0,0.125,
2.3178569999999965,0.0,0.0,19351.0,0.0,0.0,0.0,0.0,0.25,0.357665979,4.44861639850836,-0.019531247999999835,-23052.0,0.125,30.0,0.0,0.0,0.25,0.051269526,4.477044785519602,-0.02075195100000027,-4611.0,0.125,-52.5,0.0,0.0,0.125,2.9040524370000003,4.455966343803407,0.0,-18585.0,0.125,45.0,0.0,0.0,0.25,1.1621092560000001,4.471840566062929,-0.01831054500000029,-0.019999999552965164,-0.6000000238418579,54.689998626708984,0.04876708984375,0.03826904296875,0.8917236328125,36.630001068115234,0.0,65.0,2.4224395751953125,-1.21075439453125,Closing,0.0,0.0,-732.0,0.0,0.0,0.0,0.0,0.0,
2.3365829999999987,0.0,0.0,19351.0,0.0,0.0,0.0,0.0,0.25,0.357665979,4.44861639850836,0.0,-23050.0,0.125,7.5,0.0,0.0,0.25,0.051269526,4.477044785519602,-0.009765623999999917,-4615.0,0.125,-7.5,0.0,0.0,0.125,2.9028317340000003,4.455966343803407,-0.008544921000000372,-18581.0,0.125,7.5,0.0,0.0,0.25,1.1633299590000001,4.471840566062929,0.0,-0.05000000074505806,-0.6700000166893005,54.810001373291016,-0.03070068359375,-0.00732421875,1.08197021484375,36.630001068115234,0.0,-15.0,2.42523193359375,-1.2127532958984375,Closing,0.0,0.0,-732.0,0.0,0.0,0.0,0.0,0.0,
2.448173999999999,0.0,0.0,19351.0,0.0,0.0,0.0,0.0,0.25,0.358886682,4.44861639850836,0.0,-23050.0,0.125,0.0,0.0,0.0,0.25,0.051269526,4.477044785519602,0.0,-4615.0,0.125,0.0,0.0,0.0,0.125,2.9040524370000003,4.455966343803407,-0.0012207029999995456,-18581.0,0.125,0.0,0.0,0.0,0.25,1.1633299590000001,4.471840566062929,0.0012207029999995456,-0.029999999329447746,-0.6800000071525574,54.86000061035156,-0.0201416015625,0.03076171875,1.02581787109375,36.630001068115234,0.0,21.0,2.42529296875,-1.2127227783203125,Closing,0.0,0.0,-732.0,0.0,0.0,0.0,0.0,0.0,
2.475171999999999,0.0,0.0,19351.0,0.0,0.0,0.0,0.0,0.25,0.357665979,4.44861639850836,0.0,-23050.0,0.125,0.0,0.0,0.0,0.25,0.050048823000000006,4.477044785519602,0.0,-4615.0,0.125,0.0,0.0,0.0,0.125,2.9028317340000003,4.455966343803407,0.0,-18581.0,0.125,0.0,0.0,0.0,0.25,1.1633299590000001,4.471840566062929,0.0,0.019999999552965164,-0.7599999904632568,54.849998474121094,-0.061767578125,0.026611328125,1.00543212890625,36.61000061035156,0.0,-6.0,2.42535400390625,-1.2122650146484375,Closing,0.0,0.0,-732.0,0.0,0.0,0.0,0.0,0.0,
2.5225349999999964,0.0,0.0,19351.0,0.0,0.0,0.0,0.0,0.25,0.357665979,4.44861639850836,0.0,-23050.0,0.125,0.0,0.0,0.0,0.25,0.051269526,4.477044785519602,0.0,-4615.0,0.125,0.0,0.0,0.0,0.125,2.9028317340000003,4.455966343803407,0.0,-18581.0,0.125,-7.5,0.0,0.0,0.25,1.1645506620000001,4.471840566062929,0.0,0.05000000074505806,-0.8399999737739563,54.81999969482422,-0.09814453125,0.02130126953125,1.0167236328125,36.61000061035156,0.0,-31.0,2.4252777099609375,-1.2115478515625,Closing,0.0,0.0,-732.0,0.0,0.0,0.0,0.0,0.0,
2.5499159999999974,0.0,0.0,19351.0,0.0,0.0,-1240.3125,0.0,0.25,0.357665979,4.450123483565046,0.0,-23050.0,0.125,0.0,1240.3125,0.0,0.25,0.053710932,4.478561501435282,0.0,-4615.0,0.125,0.0,-1240.3125,0.0,0.125,2.9040524370000003,4.457475918846132,0.0,-18581.0,0.125,-15.0,1240.3125,0.0,0.25,1.1633299590000001,4.47335551891327,-0.0012207029999995456,0.10999999940395355,-0.9900000095367432,54.81999969482422,-0.0655517578125,0.028564453125,1.0660400390625,36.61000061035156,0.0,-5.0,2.4249420166015625,-1.2097320556640625,Closing,0.0,0.0,-732.0,0.0,0.0,0.0,0.0,0.0,
2.573506999999998,0.0,0.0,19351.0,2.75,-15.0,-2520.0000000000005,0.0,0.25,0.352783167,4.450260467541102,0.0,-23041.0,2.375,0.0,2520.0000000000005,0.0,0.25,0.051269526,4.478699360792161,0.0,-4621.0,6.5,-7.5,-2520.0000000000005,0.0,0.125,2.8967282190000003,4.457613129145305,0.0,-18577.0,5.625,0.0,2520.0000000000005,0.0,0.25,1.143798711,4.473493218019274,0.0,0.11999999731779099,-0.9900000095367432,54.81999969482422,-0.05792236328125,0.079345703125,0.984130859375,36.61000061035156,0.0,39.0,2.424835205078125,-1.2089385986328125,Closing,0.0,0.0,-732.0,0.0,0.0,0.0,0.0,0.0,
2.6537880000000005,0.0,0.0,19335.0,22.0,-142.5,-2520.0000000000005,0.0,0.25,0.35400387,4.450260467541102,0.0,-23041.0,35.375,180.0,2520.0000000000005,0.0,0.25,0.052490229,4.478699360792161,0.0,-4621.0,22.125,-127.5,-2520.0000000000005,0.0,0.125,2.8967282190000003,4.457613129145305,0.0,-18577.0,21.375,142.5,2520.0000000000005,0.0,0.125,1.101074106,4.473493218019274,0.0,0.800000011920929,-1.8799999952316284,54.619998931884766,-0.31402587890625,0.322265625,1.18560791015625,36.61000061035156,0.0,89.0,2.4252777099609375,-1.1985015869140625,Closing,0.0,0.0,-732.0,0.0,0.0,0.0,0.0,0.0,
2.6759579999999987,0.0,0.0,19335.0,23.5,-195.0,0.0,0.0,0.25,0.352783167,4.450260467541102,0.0,-23041.0,36.375,262.5,0.0,0.0,0.25,0.051269526,4.478699360792161,0.0,-4621.0,24.625,-172.5,0.0,0.0,0.125,2.9028317340000003,4.457613129145305,0.0,-18577.0,19.0,285.0,0.0,0.0,0.125,1.105956918,4.473493218019274,-0.04272460500000008,1.0700000524520874,-2.049999952316284,54.5,-0.2545166015625,0.22088623046875,0.84991455078125,36.61000061035156,0.0,36.0,2.42572021484375,-1.191162109375,Closing,0.0,0.0,-732.0,0.0,0.0,0.0,0.0,0.0,
2.7240899999999963,0.0,0.0,19294.0,6.125,-292.5,0.0,0.0,0.25,0.344238246,4.450260467541102,-0.004882811999999959,-22984.0,18.5,367.5,0.0,0.0,0.25,0.031738278,4.478699360792161,-0.017089841999999855,-4655.0,9.625,-210.0,0.0,0.0,0.125,2.888183298,4.457613129145305,-0.009765623999999917,-18522.0,5.375,337.5,0.0,0.0,0.25,1.120605354,4.473493218019274,0.004882811999999959,1.1100000143051147,-2.049999952316284,54.38999938964844,0.1158447265625,-0.07318115234375,0.87921142578125,36.61000061035156,0.0,12.0,2.4262847900390625,-1.1790313720703125,Closing,0.0,0.0,-732.0,0.0,0.0,0.0,0.0,0.0,
2.748788999999997,0.0,0.0,19294.0,0.0,-262.5,0.0,0.0,0.25,0.344238246,4.450260467541102,-0.004882811999999959,-22984.0,0.125,292.5,0.0,0.0,0.125,0.021972654,4.478699360792161,-0.0024414059999999793,-4655.0,0.125,-127.5,0.0,0.0,0.125,2.883300486,4.457613129145305,-0.006103515000000392,-18522.0,0.125,247.5,0.0,0.0,0.25,1.124267463,4.473493218019274,0.01342773300000033,0.6499999761581421,-1.5,54.369998931884766,0.1077880859375,-0.11334228515625,0.8104248046875,36.61000061035156,0.0,-24.0,2.4266357421875,-1.1697998046875,Closing,0.0,0.0,-732.0,0.0,0.0,0.0,0.0,0.0,
2.7959720000000017,0.0,0.0,19294.0,0.0,-180.0,0.0,0.0,0.25,0.334472622,4.450260467541102,-0.004882811999999959,-22984.0,0.125,195.0,0.0,0.0,0.125,0.013427733,4.478699360792161,-0.0024414059999999793,-4655.0,0.125,-97.5,0.0,0.0,0.125,2.878417674,4.457613129145305,-0.006103515000000392,-18522.0,0.125,210.0,0.0,0.0,0.125,1.115722542,4.473493218019274,0.01342773300000033,0.5600000023841858,-1.4700000286102295,54.380001068115234,0.1572265625,-0.15106201171875,1.076904296875,36.61000061035156,0.0,-23.0,2.4265289306640625,-1.1654052734375,Closing,0.0,0.0,-732.0,0.0,0.0,0.0,0.0,0.0,
2.815687999999995,0.0,0.0,19294.0,0.0,-180.0,0.0,0.0,0.25,0.334472622,4.450260467541102,-0.004882811999999959,-22958.0,0.125,180.0,0.0,0.0,0.125,0.013427733,4.478699360792161,-0.01831054500000029,-4664.0,0.125,-75.0,0.0,0.0,0.0,2.877196971,4.457613129145305,-0.009765623999999917,-18489.0,0.125,225.0,0.0,0.0,0.125,1.115722542,4.473493218019274,-0.004882811999999959,0.3700000047683716,-1.190000057220459,54.380001068115234,0.0643310546875,-0.03179931640625,1.189453125,36.61000061035156,0.0,19.0,2.426422119140625,-1.1621856689453125,Closing,0.0,0.0,-732.0,0.0,0.0,0.0,0.0,0.0,
2.9046299999999974,0.0,0.0,19253.0,0.0,-270.0,0.0,0.0,0.25,0.33569332500000004,4.450260467541102,-0.0012207029999995456,-22958.0,0.125,135.0,0.0,0.0,0.125,0.013427733,4.478699360792161,0.0,-4664.0,0.125,-45.0,0.0,0.0,0.0,2.873534862,4.457613129145305,0.0,-18489.0,0.125,157.5,0.0,0.0,0.25,1.115722542,4.473493218019274,0.0,0.019999999552965164,-0.6800000071525574,54.400001525878906,0.121337890625,-0.12530517578125,1.03912353515625,36.61000061035156,0.0,-24.0,2.4263153076171875,-1.1583404541015625,Closing,0.0,0.0,-732.0,0.0,0.0,0.0,0.0,0.0,
2.9311500000000015,0.0,0.0,19253.0,0.0,-135.0,0.0,0.0,0.25,0.334472622,4.450260467541102,0.0,-22958.0,0.125,90.0,0.0,0.0,0.125,4.953612774000001,4.478699360792161,0.0,-4664.0,0.125,-37.5,0.0,0.0,0.0,2.873534862,4.457613129145305,0.0,-18486.0,0.125,37.5,0.0,0.0,0.25,1.115722542,4.473493218019274,0.0,-0.10000000149011612,-0.5299999713897705,54.400001525878906,0.0308837890625,-0.054931640625,0.9593505859375,36.61000061035156,0.0,-19.0,2.426177978515625,-1.1583099365234375,Closing,0.0,0.0,-732.0,0.0,0.0,0.0,0.0,0.0,
2.951784999999996,0.0,0.0,19246.0,0.0,-135.0,0.0,0.0,0.25,0.334472622,4.450260467541102,0.0,-22951.0,0.125,30.0,0.0,0.0,0.125,4.956054180000001,4.478699360792161,4.941405744000001,-4668.0,0.125,-22.5,0.0,0.0,0.0,2.873534862,4.457613129145305,-0.003662108999999525,-18486.0,0.125,7.5,0.0,0.0,0.25,1.115722542,4.473493218019274,0.0012207029999995456,-0.11999999731779099,-0.47999998927116394,54.40999984741211,-9.1552734375E-4,-0.01873779296875,0.9444580078125,36.599998474121094,0.0,-9.0,2.4260101318359375,-1.1584320068359375,Closing,0.0,0.0,-732.0,0.0,0.0,0.0,0.0,0.0,
3.0489049999999986,0.0,0.0,19246.0,0.0,0.0,0.0,0.0,0.25,0.344238246,4.450260467541102,0.004882811999999959,-22951.0,0.125,0.0,0.0,0.0,0.25,0.023193357,4.478699360792161,0.0012207029999995456,-4668.0,0.0,22.5,0.0,0.0,0.0,2.878417674,4.457613129145305,-0.0012207030000004337,-18486.0,0.125,0.0,0.0,0.0,0.25,1.125488166,4.473493218019274,-0.0012207029999995456,-0.10000000149011612,-0.5899999737739563,54.52000045776367,-0.05023193359375,0.00799560546875,1.0726318359375,36.599998474121094,0.0,-14.0,2.4257965087890625,-1.1581268310546875,Closing,0.0,0.0,-732.0,0.0,0.0,0.0,0.0,0.125,
3.1065720000000003,0.0,0.0,19246.0,0.0,0.0,0.0,0.0,0.25,0.34912105800000004,4.450260467541102,0.009765623999999917,-22951.0,0.125,0.0,0.0,0.0,0.0,0.026855466,4.478699360792161,-4.932860823,-4662.0,0.125,37.5,0.0,0.0,0.0,2.883300486,4.457613129145305,0.004882811999999959,-18486.0,0.125,0.0,0.0,0.0,0.125,1.130370978,4.473493218019274,0.009765623999999917,-0.009999999776482582,-0.699999988079071,54.529998779296875,-0.05120849609375,0.03118896484375,1.04925537109375,36.599998474121094,0.0,3.0,2.4257965087890625,-1.1568756103515625,Closing,0.0,0.0,-732.0,0.0,0.0,0.0,0.0,0.0,
3.1818539999999995,0.0,0.0,19246.0,0.0,7.5,0.0,0.0,0.25,0.347900355,4.450260467541102,0.0,-22951.0,0.125,0.0,0.0,0.0,0.0,0.026855466,4.478699360792161,0.004882811999999959,-4660.0,0.125,22.5,0.0,0.0,0.0,2.883300486,4.457613129145305,0.004882811999999959,-18486.0,0.125,0.0,0.0,0.0,0.125,1.129150275,4.473493218019274,0.0,0.03999999910593033,-0.8500000238418579,54.52000045776367,-0.0303955078125,0.0146484375,1.0203857421875,36.599998474121094,0.0,2.0,2.4256439208984375,-1.1536407470703125,Closing,0.0,0.0,-732.0,0.0,0.0,0.0,0.0,0.0,
3.2376140000000015,0.0,0.0,19248.0,0.0,0.0,0.0,0.0,0.25,0.347900355,4.450260467541102,0.0,-22951.0,0.125,0.0,0.0,0.0,0.0,0.026855466,4.478699360792161,0.0,-4660.0,0.125,0.0,0.0,0.0,0.125,2.883300486,4.457613129145305,0.0,-18486.0,0.125,0.0,0.0,0.0,0.125,1.129150275,4.473493218019274,0.0,0.05999999865889549,-0.8399999737739563,54.470001220703125,-0.00115966796875,-0.00274658203125,1.0118408203125,36.599998474121094,0.0,4.0,2.4256439208984375,-1.1520843505859375,Closing,0.0,0.0,-732.0,0.0,0.0,0.0,0.0,0.0,
3.265265999999996,0.0,0.0,19248.0,0.0,0.0,0.0,0.0,0.25,0.347900355,4.450260467541102,0.0,-22951.0,0.125,0.0,0.0,0.0,0.0,0.028076169,4.478699360792161,0.0,-4660.0,0.125,0.0,0.0,0.0,0.125,2.883300486,4.457613129145305,0.0,-18486.0,0.125,0.0,0.0,0.0,0.125,1.129150275,4.473493218019274,0.0,0.05000000074505806,-0.8299999833106995,54.470001220703125,-0.00469970703125,-0.023681640625,1.0382080078125,36.599998474121094,0.0,-14.0,2.4256439208984375,-1.1521148681640625,Closing,0.0,0.0,-732.0,0.0,0.0,0.0,0.0,0.0,
3.2864019999999945,0.0,0.0,19248.0,0.0,0.0,0.0,0.0,0.125,0.347900355,4.450260467541102,0.0,-22951.0,0.125,0.0,0.0,0.0,0.0,0.025634763,4.478699360792161,0.0,-4660.0,0.125,0.0,0.0,0.0,0.125,2.883300486,4.457613129145305,0.0,-18486.0,0.125,0.0,0.0,0.0,0.125,1.129150275,4.473493218019274,0.0,0.0,-0.8100000023841858,54.470001220703125,0.00146484375,-0.00714111328125,1.0130615234375,36.599998474121094,0.0,3.0,2.4256439208984375,-1.152496337890625,Closing,0.0,0.0,-732.0,0.0,0.0,0.0,0.0,0.0,
3.324841,0.0,0.0,19248.0,0.0,0.0,0.0,0.0,0.125,0.347900355,4.450260467541102,0.0,-22951.0,0.125,0.0,0.0,0.0,0.0,0.026855466,4.478699360792161,0.0,-4660.0,0.125,0.0,0.0,0.0,0.125,2.883300486,4.457613129145305,0.0,-18486.0,0.125,0.0,0.0,0.0,0.125,1.129150275,4.473493218019274,0.0,0.0,-0.8100000023841858,54.470001220703125,0.00146484375,-0.00714111328125,1.0130615234375,36.599998474121094,0.0,3.0,2.4256439208984375,-1.152496337890625,Closing,0.0,0.0,-732.0,0.0,0.0,0.0,0.0,0.0,
3.347936999999998,0.0,0.0,19248.0,0.0,0.0,0.0,0.0,0.25,0.347900355,4.450260467541102,0.0,-22951.0,0.125,0.0,0.0,0.0,0.0,0.025634763,4.478699360792161,0.0,-4660.0,0.125,0.0,0.0,0.0,0.125,2.883300486,4.457613129145305,0.0,-18486.0,0.125,0.0,0.0,0.0,0.125,1.129150275,4.473493218019274,0.0,0.0,-0.800000011920929,54.470001220703125,-0.007568359375,0.00811767578125,1.04241943359375,36.599998474121094,0.0,10.0,2.4256439208984375,-1.152496337890625,Closing,0.0,0.0,-732.0,0.0,0.0,0.0,0.0,0.0,
3.3817509999999964,0.0,0.0,19248.0,0.0,0.0,0.0,0.0,0.25,0.347900355,4.450260467541102,0.0,-22951.0,0.125,0.0,0.0,0.0,0.0,0.026855466,4.478699360792161,0.0,-4660.0,0.125,0.0,0.0,0.0,0.125,2.883300486,4.457613129145305,0.0,-18486.0,0.125,0.0,0.0,0.0,0.125,1.129150275,4.473493218019274,0.0,0.009999999776482582,-0.8100000023841858,54.4900016784668,-0.0179443359375,-0.00537109375,0.98858642578125,36.599998474121094,0.0,-6.0,2.4256439208984375,-1.152496337890625,Closing,0.0,0.0,-732.0,0.0,0.0,0.0,0.0,0.0,
3.4090899999999964,0.0,0.0,19248.0,0.0,0.0,0.0,0.0,0.25,0.347900355,4.450260467541102,0.0,-22951.0,0.125,0.0,0.0,0.0,0.0,0.026855466,4.478699360792161,0.0,-4660.0,0.125,0.0,0.0,0.0,0.125,2.882079783,4.457613129145305,0.0,-18486.0,0.125,0.0,0.0,0.0,0.125,1.130370978,4.473493218019274,0.0,0.019999999552965164,-0.8199999928474426,54.4900016784668,-0.03900146484375,0.00531005859375,1.0296630859375,36.599998474121094,0.0,-9.0,2.4256439208984375,-1.1524810791015625,Closing,0.0,0.0,-732.0,0.0,0.0,0.0,0.0,0.0,
3.4298099999999976,0.0,0.0,19248.0,0.0,0.0,0.0,0.0,0.25,0.34912105800000004,4.450260467541102,0.0,-22951.0,0.125,0.0,0.0,0.0,0.0,0.028076169,4.478699360792161,0.0,-4660.0,0.125,0.0,0.0,0.0,0.125,2.882079783,4.457613129145305,0.0,-18486.0,0.125,0.0,0.0,0.0,0.125,1.130370978,4.473493218019274,0.0,0.019999999552965164,-0.8500000238418579,54.4900016784668,-0.02642822265625,-0.0035400390625,1.00360107421875,36.599998474121094,0.0,-9.0,2.4256439208984375,-1.152374267578125,Closing,0.0,0.0,-732.0,0.0,0.0,0.0,0.0,0.0,
3.449426999999996,0.0,0.0,19248.0,0.0,0.0,-925.3125,0.0,0.25,0.34912105800000004,3.6991882500000015,0.0,-22951.0,0.125,0.0,925.3125,0.0,0.0,0.026855466,3.7228275000000015,0.0,-4660.0,0.125,0.0,-925.3125,0.0,0.125,2.882079783,3.7053000000000016,0.0,-18486.0,0.125,0.0,925.3125,0.0,0.125,1.129150275,3.7185000000000015,0.0,0.019999999552965164,-0.8500000238418579,54.4900016784668,-0.01873779296875,0.00982666015625,0.99798583984375,36.599998474121094,0.0,5.0,2.4256439208984375,-1.152374267578125,Closing,0.0,0.0,-732.0,0.0,0.0,0.0,0.0,0.0,
3.514682999999997,0.0,0.0,19248.0,6.125,-22.5,-1870.3125,0.0,2.625,0.275878878,3.6991882500000015,0.0,-22951.0,10.0,75.0,1870.3125,0.0,3.5,4.891356921,3.7228275000000015,0.0,-4660.0,7.25,-7.5,-1870.3125,0.0,2.25,2.805175494,3.7053000000000016,0.0,-18486.0,8.625,67.5,1870.3125,0.0,2.125,1.048583877,3.7185000000000015,0.0,0.38999998569488525,-1.3200000524520874,54.470001220703125,-0.09033203125,-0.07928466796875,1.228515625,36.59000015258789,0.0,-107.0,2.4255218505859375,-1.1512451171875,Closing,0.0,0.0,-732.0,0.0,0.0,0.0,0.0,0.0,
3.5844589999999954,0.0,0.0,19225.0,14.125,-172.5,-1594.6875,0.0,1.125,4.938964338,3.6991882500000015,0.0,-22915.0,19.125,277.5,1594.6875,0.0,0.875,4.58984328,3.7228275000000015,0.0,-4674.0,15.0,-105.0,-1594.6875,0.0,1.375,2.5280759130000003,3.7053000000000016,0.0,-18457.0,13.0,255.0,1594.6875,0.0,0.5,0.761718672,3.7185000000000015,0.0,0.9800000190734863,-1.559999942779541,54.220001220703125,-0.10540771484375,0.27789306640625,0.79595947265625,36.59000015258789,0.0,165.0,2.4263153076171875,-1.1435546875,Closing,0.0,0.0,-732.0,0.0,0.0,0.0,0.0,0.125,
3.6088410000000004,0.0,0.0,19225.0,14.5,-210.0,0.0,0.0,0.875,4.853515128000001,3.6991882500000015,0.0,-22915.0,18.25,330.0,0.0,0.0,0.875,4.506835476,3.7228275000000015,0.0,-4674.0,14.5,-150.0,0.0,0.0,1.25,2.451171624,3.7053000000000016,0.0,-18457.0,10.875,292.5,0.0,0.0,0.5,0.677490165,3.7185000000000015,0.0,1.159999966621399,-1.5800000429153442,54.18000030517578,0.01318359375,0.292236328125,0.81439208984375,36.59000015258789,0.0,244.0,2.42706298828125,-1.141204833984375,Closing,0.0,0.0,-732.0,0.0,0.0,0.0,0.0,0.0,
3.651920999999995,0.0,0.0,19225.0,5.375,-270.0,0.0,0.0,1.25,4.6606440540000005,3.6991882500000015,-0.25573780699999915,-22915.0,9.5,397.5,0.0,0.0,0.5,4.316405808,3.7228275000000015,-0.28564450200000024,-4674.0,6.125,-217.5,0.0,0.0,1.0,2.261962659,3.7053000000000016,-0.264892551,-18409.0,3.125,345.0,0.0,0.0,0.875,0.47607417,3.7185000000000015,-0.2746581749999999,1.3700000047683716,-1.340000033378601,54.150001525878906,0.2955322265625,0.15679931640625,0.7823486328125,36.59000015258789,0.0,295.0,2.43072509765625,-1.1339874267578125,Closing,0.0,0.0,-732.0,0.0,0.0,0.0,0.0,0.0,
3.6713359999999957,0.0,0.0,19193.0,0.75,-262.5,0.0,0.0,1.0,4.575194844,3.6991882500000015,-0.25573780699999915,-22865.0,3.875,390.0,0.0,0.0,0.5,4.259032767,3.7228275000000015,-0.28564450200000024,-4701.0,2.5,-217.5,0.0,0.0,0.75,2.199706806,3.7053000000000016,-0.264892551,-18409.0,0.125,322.5,0.0,0.0,0.625,0.42236323800000003,3.7185000000000015,-0.2746581749999999,1.409999966621399,-1.2300000190734863,54.18000030517578,0.18524169921875,-0.02166748046875,1.1619873046875,36.59000015258789,0.0,82.0,2.432373046875,-1.132049560546875,Closing,0.0,0.0,-732.0,0.0,0.0,0.0,0.0,0.125,
3.693182999999997,0.0,0.0,19193.0,0.0,-210.0,0.0,0.0,0.75,4.512938991,3.6991882500000015,-0.29052731400000065,-22865.0,0.125,345.0,0.0,0.0,0.25,4.213866756,3.7228275000000015,-0.2844237989999998,-4701.0,0.125,-150.0,0.0,0.0,0.25,2.122802517,3.7053000000000016,-0.2844237989999998,-18409.0,0.125,285.0,0.0,0.0,0.5,0.363769494,3.7185000000000015,-0.2941894230000006,1.0299999713897705,-0.9300000071525574,54.29999923706055,0.36566162109375,-0.13909912109375,0.99798583984375,36.59000015258789,0.0,95.0,2.4356536865234375,-1.12957763671875,Closing,0.0,0.0,-732.0,0.0,0.0,0.0,0.0,0.0,
3.7149619999999994,0.0,0.0,19193.0,0.0,-157.5,0.0,0.0,0.25,4.473876495,3.6991882500000015,-0.29052731400000065,-22865.0,0.125,225.0,0.0,0.0,0.25,4.195556211,3.7228275000000015,-0.08300780400000018,-4701.0,0.125,-127.5,0.0,0.0,0.125,2.093505645,3.7053000000000016,-0.12084959700000031,-18409.0,0.125,255.0,0.0,0.0,0.25,0.339355434,3.7185000000000015,-0.10742186399999998,0.9900000095367432,-0.7599999904632568,54.400001525878906,0.1158447265625,-0.0780029296875,1.0225830078125,36.59000015258789,0.0,-2.0,2.43914794921875,-1.1284942626953125,Closing,0.0,0.0,-732.0,0.0,0.0,0.0,0.0,0.0,
3.7483179999999994,0.0,0.0,19193.0,0.0,-127.5,0.0,0.0,0.125,4.459228059,3.6991882500000015,-0.1293945179999998,-22865.0,0.125,217.5,0.0,0.0,0.125,4.184569884,3.7228275000000015,-0.08300780400000018,-4701.0,0.125,-142.5,0.0,0.0,0.0,2.078857209,3.7053000000000016,-0.12084959700000031,-18409.0,0.125,255.0,0.0,0.0,0.25,0.328369107,3.7185000000000015,-0.10742186399999998,0.8299999833106995,-0.6499999761581421,54.459999084472656,-0.03875732421875,0.084228515625,1.12921142578125,36.59000015258789,0.0,40.0,2.4425811767578125,-1.1280975341796875,Closing,0.0,0.0,-732.0,0.0,0.0,0.0,0.0,0.0,
3.771466,0.0,0.0,19193.0,0.0,-202.5,0.0,0.0,0.125,4.460448762,3.6991882500000015,-0.1293945179999998,-22865.0,0.125,247.5,0.0,0.0,0.125,4.1809077750000005,3.7228275000000015,-0.08300780400000018,-4701.0,0.125,-187.5,0.0,0.0,0.0,2.078857209,3.7053000000000016,-0.12084959700000031,-18409.0,0.125,322.5,0.0,0.0,0.125,0.324706998,3.7185000000000015,-0.037841793000000123,0.7599999904632568,-0.6399999856948853,54.43000030517578,-0.0880126953125,-0.265380859375,0.8837890625,36.59000015258789,0.0,-270.0,2.445556640625,-1.1279144287109375,Closing,0.0,0.0,-732.0,0.0,0.0,0.0,0.0,0.0,
3.8492239999999946,0.0,0.0,19148.0,0.0,-285.0,0.0,0.0,0.25,4.460448762,3.6991882500000015,0.0,-22824.0,0.125,240.0,0.0,0.0,0.25,4.166259339,3.7228275000000015,-0.004882811999999959,-4744.0,0.125,-262.5,0.0,0.0,0.0,2.073974397,3.7053000000000016,0.0,-18358.0,0.125,240.0,0.0,0.0,0.25,0.33081051300000003,3.7185000000000015,-0.003662108999999525,0.4300000071525574,-0.7799999713897705,54.38999938964844,0.01446533203125,-0.1053466796875,1.03887939453125,36.59000015258789,0.0,-75.0,2.44873046875,-1.1284942626953125,Closing,0.0,0.0,-732.0,0.0,0.0,0.0,0.0,0.125,
3.8687220000000018,0.0,0.0,19148.0,0.0,-255.0,0.0,0.0,0.25,4.460448762,3.6991882500000015,0.0,-22824.0,0.125,217.5,0.0,0.0,0.25,4.173583557000001,3.7228275000000015,-0.004882811999999959,-4744.0,0.125,-225.0,0.0,0.0,0.0,2.073974397,3.7053000000000016,0.0,-18358.0,0.125,195.0,0.0,0.0,0.25,0.33569332500000004,3.7185000000000015,-0.003662108999999525,0.3199999928474426,-0.7799999713897705,54.38999938964844,-0.008056640625,-0.133544921875,0.90948486328125,36.59000015258789,0.0,-110.0,2.4498291015625,-1.129119873046875,Closing,0.0,0.0,-732.0,0.0,0.0,0.0,0.0,0.125,
3.914595000000001,0.0,0.0,19124.0,0.0,-195.0,0.0,0.0,0.25,4.459228059,3.6991882500000015,-0.0012207029999995456,-22794.0,0.125,180.0,0.0,0.0,0.25,4.169921448,3.7228275000000015,-0.009765623999999917,-4771.0,0.125,-180.0,0.0,0.0,0.0,2.073974397,3.7053000000000016,-0.004882811999999959,-18333.0,0.125,165.0,0.0,0.0,0.25,0.339355434,3.7185000000000015,0.010986326999999907,0.10000000149011612,-0.8100000023841858,54.439998626708984,-0.01080322265625,-0.1055908203125,1.1558837890625,36.59000015258789,0.0,-84.0,2.450592041015625,-1.130584716796875,Closing,0.0,0.0,-732.0,0.0,0.0,0.0,0.0,0.0,
3.9358799999999974,0.0,0.0,19124.0,0.0,-142.5,0.0,0.0,0.25,4.464110871,3.6991882500000015,0.0012207029999995456,-22794.0,0.125,142.5,0.0,0.0,0.25,4.169921448,3.7228275000000015,0.0,-4771.0,0.125,-150.0,0.0,0.0,0.0,2.073974397,3.7053000000000016,0.0,-18333.0,0.125,150.0,0.0,0.0,0.25,0.339355434,3.7185000000000015,0.004882811999999959,0.019999999552965164,-0.800000011920929,54.459999084472656,-0.01666259765625,-0.15435791015625,1.02691650390625,36.59000015258789,0.0,-127.0,2.450592041015625,-1.1312255859375,Closing,0.0,0.0,-732.0,0.0,0.0,0.0,0.0,0.0,
3.9544739999999945,0.0,0.0,19124.0,0.0,-142.5,0.0,0.0,0.25,4.468993683,3.6991882500000015,0.0012207029999995456,-22794.0,0.125,67.5,0.0,0.0,0.25,4.171142151000001,3.7228275000000015,0.0012207030000004337,-4771.0,0.125,-105.0,0.0,0.0,0.0,2.073974397,3.7053000000000016,0.0,-18333.0,0.125,105.0,0.0,0.0,0.25,0.338134731,3.7185000000000015,0.0,-0.23000000417232513,-0.8199999928474426,54.470001220703125,-0.01898193359375,-0.12261962890625,0.944091796875,36.56999969482422,0.0,-99.0,2.4496307373046875,-1.1337127685546875,Closing,0.0,0.0,-732.0,0.0,0.0,0.0,0.0,0.0,
4.051047999999995,0.0,0.0,19120.0,0.0,-22.5,0.0,0.0,0.25,4.477538604,3.6991882500000015,0.007324217999999938,-22792.0,0.125,22.5,0.0,0.0,0.25,4.176024963000001,3.7228275000000015,0.004882811999999959,-4776.0,0.125,-30.0,0.0,0.0,0.0,2.073974397,3.7053000000000016,0.0,-18329.0,0.125,15.0,0.0,0.0,0.25,0.339355434,3.7185000000000015,0.0012207029999999897,-0.3700000047683716,-0.8100000023841858,54.439998626708984,-0.002685546875,-0.0087890625,1.0447998046875,36.56999969482422,0.0,5.0,2.4462738037109375,-1.138916015625,Closing,0.0,0.0,-732.0,0.0,0.0,0.0,0.0,0.0,
4.104536,0.0,0.0,19120.0,0.0,0.0,0.0,0.0,0.25,4.481200713000001,3.6991882500000015,0.006103515000000392,-22792.0,0.125,0.0,0.0,0.0,0.25,4.1857905870000005,3.7228275000000015,0.0,-4776.0,0.125,0.0,0.0,0.0,0.0,2.073974397,3.7053000000000016,0.0,-18329.0,0.125,0.0,0.0,0.0,0.25,0.344238246,3.7185000000000015,-0.0012207029999999897,-0.33000001311302185,-0.8600000143051147,54.41999816894531,-0.04412841796875,0.01788330078125,1.0316162109375,36.56999969482422,0.0,2.0,2.4462738037109375,-1.1431884765625,Closing,0.0,0.0,-732.0,0.0,0.0,0.0,0.0,0.0,
4.184087,0.0,0.0,19120.0,0.0,0.0,0.0,0.0,0.25,4.477538604,3.6991882500000015,0.0,-22792.0,0.125,0.0,0.0,0.0,0.25,4.1857905870000005,3.7228275000000015,0.004882811999999959,-4776.0,0.125,0.0,0.0,0.0,0.0,2.078857209,3.7053000000000016,0.0,-18329.0,0.125,0.0,0.0,0.0,0.25,0.35400387,3.7185000000000015,0.0,-0.25999999046325684,-0.8799999952316284,54.40999984741211,-3.0517578125E-4,0.02740478515625,1.041015625,36.56999969482422,0.0,30.0,2.44659423828125,-1.146881103515625,Closing,0.0,0.0,-732.0,0.0,0.0,0.0,0.0,0.0,
4.253928,0.0,0.0,19120.0,0.125,0.0,218.26772511005402,0.0,3.0,4.434813999,2.4661254999999977,0.0,-22792.0,0.125,0.0,-218.26772511005402,0.0,6.25,4.169921448,2.481884999999998,0.0,-4776.0,0.375,0.0,218.26772511005402,0.0,4.5,2.025146277,2.4702000000000024,0.0,-18329.0,0.375,0.0,-218.26772511005402,0.0,5.25,0.334472622,2.4790000000000023,0.0,-0.18000000715255737,-0.8500000238418579,54.40999984741211,-0.0264892578125,0.01409912109375,0.9932861328125,36.56999969482422,0.0,7.0,2.447265625,-1.1468048095703125,Closing,0.0,0.0,-732.0,0.0,0.0,0.0,0.0,0.0,
4.275324,0.0,0.0,19121.0,0.125,0.0,1567.5590586662292,0.0,5.125,4.2932124510000005,2.4661254999999977,-0.10131834899999959,-22792.0,0.125,0.0,-1567.5590586662292,0.0,7.5,4.016112870000001,2.481884999999998,0.0,-4776.0,1.875,0.0,1567.5590586662292,0.0,5.25,1.85546856,2.4702000000000024,0.0,-18329.0,1.25,0.0,-1567.5590586662292,0.0,6.25,0.151367172,2.4790000000000023,0.0,-0.12999999523162842,-0.8799999952316284,54.40999984741211,-0.07763671875,-0.2042236328125,1.03570556640625,36.56999969482422,0.0,-199.0,2.4471282958984375,-1.1466217041015625,Closing,0.0,0.0,-732.0,0.0,0.0,0.0,0.0,0.0,
4.387375999999996,0.0,0.0,19121.0,5.875,270.0,1150.86611866951,0.0,0.875,3.6267086130000004,2.4661254999999977,0.0,-22823.0,13.75,-142.5,-1150.86611866951,0.0,2.375,3.443603163,2.481884999999998,0.0,-4703.0,4.375,322.5,1150.86611866951,0.0,0.75,1.249999872,2.4702000000000024,0.0,-18356.0,7.375,-165.0,-1150.86611866951,0.0,1.875,4.4958491490000005,2.4790000000000023,0.0,-1.0299999713897705,-1.4199999570846558,54.5,-0.33624267578125,0.236572265625,1.41046142578125,36.56999969482422,0.0,38.0,2.4370880126953125,-1.1483917236328125,Closing,0.0,0.0,-732.0,0.0,0.0,0.0,0.0,0.0,
4.447883000000002,0.0,0.0,19173.0,1.75,270.0,0.0,0.0,1.5,3.288573882,2.4661254999999977,-0.5163573690000001,-22823.0,7.375,-195.0,0.0,0.0,1.75,3.079833669,2.481884999999998,-0.4931640119999998,-4703.0,1.75,502.5,0.0,0.0,1.125,0.885009675,2.4702000000000024,-0.5334472109999999,-18356.0,2.125,-165.0,0.0,0.0,1.375,4.08935505,2.4790000000000023,-0.5488207639999998,-0.6200000047683716,-1.899999976158142,54.43000030517578,-0.10443115234375,0.33758544921875,1.09942626953125,36.56999969482422,0.0,244.0,2.4279327392578125,-1.1464691162109375,Closing,0.0,0.0,-732.0,0.0,0.0,0.0,0.0,0.0,
4.466633999999998,0.0,0.0,19173.0,0.25,217.5,0.0,0.0,1.125,3.233642247,2.4661254999999977,-0.5163573690000001,-22823.0,3.25,-172.5,0.0,0.0,1.125,3.0102535980000003,2.481884999999998,-0.4931640119999998,-4703.0,0.625,427.5,0.0,0.0,1.125,0.823974525,2.4702000000000024,-0.5334472109999999,-18356.0,2.125,-165.0,0.0,0.0,1.0,4.016112870000001,2.4790000000000023,-0.5488207639999998,-0.4399999976158142,-1.7699999809265137,54.38999938964844,0.05975341796875,0.30657958984375,1.12188720703125,36.56999969482422,0.0,311.0,2.426361083984375,-1.145294189453125,Closing,0.0,0.0,-732.0,0.0,0.0,0.0,0.0,0.0,
4.501324999999997,0.0,0.0,19173.0,0.0,112.5,0.0,0.0,0.375,3.144530928,2.4661254999999977,-0.3906249599999998,-22833.0,0.125,-112.5,0.0,0.0,0.0,2.8955075160000003,2.481884999999998,-0.4357909710000003,-4685.0,0.125,210.0,0.0,0.0,0.125,0.759277266,2.4702000000000024,-0.42968745600000036,-18364.0,0.125,-37.5,0.0,0.0,0.375,3.9331050660000004,2.4790000000000023,-0.4882812000000003,0.07000000029802322,-1.409999966621399,54.209999084472656,0.2822265625,-0.052001953125,1.128662109375,36.560001373291016,0.0,137.0,2.42401123046875,-1.140380859375,Closing,0.0,0.0,-732.0,0.0,0.0,0.0,0.0,0.0,
4.532379999999997,0.0,0.0,19181.0,0.0,52.5,0.0,0.0,0.375,3.14941374,2.4661254999999977,-0.07812499200000023,-22833.0,0.125,-60.0,0.0,0.0,0.0,2.88085908,2.481884999999998,-0.10864256699999997,-4685.0,0.125,52.5,0.0,0.0,0.125,0.773925702,2.4702000000000024,-0.048828119999999586,-18364.0,0.125,-15.0,0.0,0.0,0.375,3.9526363140000003,2.4790000000000023,-0.07446288299999981,-0.05999999865889549,-0.9599999785423279,54.130001068115234,0.136962890625,-0.06634521484375,0.9312744140625,36.560001373291016,0.0,36.0,2.42388916015625,-1.1389617919921875,Closing,0.0,0.0,-732.0,0.0,0.0,0.0,0.0,0.0,
4.642629000000001,0.0,0.0,19186.0,0.0,30.0,0.0,0.0,0.25,3.226318029,2.4661254999999977,0.0,-22838.0,0.125,-22.5,0.0,0.0,0.25,2.885741892,2.481884999999998,0.0,-4680.0,0.125,22.5,0.0,0.0,0.0,0.8422850700000001,2.4702000000000024,0.0,-18377.0,0.125,-67.5,0.0,0.0,0.375,4.0307613060000005,2.4790000000000023,0.0,-0.12999999523162842,-0.6100000143051147,54.279998779296875,0.02386474609375,0.057861328125,1.10589599609375,36.560001373291016,0.0,69.0,2.4245147705078125,-1.139892578125,Closing,0.0,0.0,-732.0,0.0,0.0,0.0,0.0,0.0,
4.704926999999996,0.0,0.0,19186.0,0.0,0.0,0.0,0.0,0.375,3.2592770100000004,2.4661254999999977,0.06713866499999988,-22838.0,0.125,0.0,0.0,0.0,0.25,2.884521189,2.481884999999998,0.0012207029999999897,-4680.0,0.125,0.0,0.0,0.0,0.125,0.865478427,2.4702000000000024,0.05859374399999995,-18377.0,0.125,0.0,0.0,0.0,0.375,4.073485911000001,2.4790000000000023,0.06225585299999992,-0.15000000596046448,-0.5699999928474426,54.34000015258789,-0.0386962890625,-0.03076171875,1.07305908203125,36.560001373291016,0.0,-38.0,2.4259796142578125,-1.141082763671875,Closing,0.0,0.0,-732.0,0.0,0.0,0.0,0.0,0.0,
4.775658999999999,0.0,0.0,19186.0,0.0,0.0,0.0,0.0,0.125,3.2690426340000003,2.4661254999999977,0.0,-22838.0,0.125,0.0,0.0,0.0,0.25,2.923583685,2.481884999999998,0.0,-4680.0,0.125,0.0,0.0,0.0,0.0,0.865478427,2.4702000000000024,0.0,-18377.0,0.125,7.5,0.0,0.0,0.25,4.093017159,2.4790000000000023,0.0,-0.15000000596046448,-0.7599999904632568,54.31999969482422,-0.10064697265625,-0.00213623046875,1.00958251953125,36.560001373291016,0.0,-50.0,2.42657470703125,-1.14031982421875,Closing,0.0,0.0,-732.0,0.0,0.0,0.0,0.0,0.0,
4.843500999999996,0.0,0.0,19186.0,0.0,-7.5,0.0,0.0,0.25,3.2690426340000003,2.4661254999999977,0.004882811999999959,-22838.0,0.125,30.0,0.0,0.0,0.25,2.9614254780000002,2.481884999999998,0.037841793000000123,-4680.0,0.125,0.0,0.0,0.0,0.0,0.865478427,2.4702000000000024,0.0,-18377.0,0.125,37.5,0.0,0.0,0.125,4.093017159,2.4790000000000023,0.019531247999999835,-0.12999999523162842,-0.949999988079071,54.38999938964844,-0.0789794921875,-0.01678466796875,1.00299072265625,36.560001373291016,0.0,-47.0,2.4260406494140625,-1.138031005859375,Closing,0.0,0.0,-732.0,0.0,0.0,0.0,0.0,0.125,
4.869850999999995,0.0,0.0,19184.0,0.0,-7.5,0.0,0.0,0.25,3.2702633370000003,2.4661254999999977,0.004882811999999959,-22833.0,0.125,30.0,0.0,0.0,0.25,2.967528993,2.481884999999998,0.037841793000000123,-4681.0,0.125,0.0,0.0,0.0,0.0,0.8666991300000001,2.4702000000000024,0.0,-18371.0,0.125,37.5,0.0,0.0,0.125,4.093017159,2.4790000000000023,0.019531247999999835,-0.12999999523162842,-0.9900000095367432,54.38999938964844,-0.0743408203125,-0.017333984375,0.97662353515625,36.560001373291016,0.0,-45.0,2.425750732421875,-1.1372833251953125,Closing,0.0,0.0,-732.0,0.0,0.0,0.0,0.0,0.0,
4.900992999999995,0.0,0.0,19184.0,0.125,-7.5,216.5625,0.0,0.25,3.2690426340000003,1.2330627500000013,0.0,-22833.0,0.125,22.5,-216.5625,0.0,0.125,2.96630829,1.2409425000000012,0.004882811999999959,-4681.0,0.375,-7.5,216.5625,0.0,0.0,0.8679198330000001,1.2351000000000012,0.0,-18371.0,0.125,30.0,-216.5625,0.0,0.125,4.093017159,1.2395000000000012,0.0,-0.11999999731779099,-1.0499999523162842,54.36000061035156,-0.0087890625,-0.00958251953125,1.01666259765625,36.560001373291016,0.0,0.0,2.4254302978515625,-1.1348114013671875,Closing,0.0,0.0,-732.0,0.0,0.0,0.0,0.0,0.0,
4.987312999999995,0.0,0.0,19184.0,3.0,37.5,925.3125,0.0,5.0,3.082275075,1.2330627500000013,0.0,-22843.0,4.375,-37.5,-925.3125,0.0,7.125,2.8515622080000003,1.2409425000000012,0.0,-4673.0,1.75,15.0,925.3125,0.0,4.75,0.614013609,1.2351000000000012,0.0,-18378.0,1.625,-7.5,-925.3125,0.0,5.5,3.8830562430000004,1.2395000000000012,0.0,-0.14000000059604645,-1.2100000381469727,54.29999923706055,-0.21246337890625,0.087646484375,0.89093017578125,36.560001373291016,0.0,-39.0,2.4251556396484375,-1.1336517333984375,Closing,0.0,0.0,-732.0,0.0,0.0,0.0,0.0,0.125,
5.048420999999995,0.0,0.0,19195.0,3.75,97.5,807.1874999999999,0.0,1.75,2.716064175,1.2330627500000013,0.0,-22843.0,6.25,-97.5,-807.1874999999999,0.0,2.0,2.503661853,1.2409425000000012,0.0,-4673.0,3.375,97.5,807.1874999999999,0.0,1.625,0.252685521,1.2351000000000012,0.0,-18378.0,3.625,-75.0,-807.1874999999999,0.0,1.5,3.505859016,1.2395000000000012,0.0,-0.03999999910593033,-1.4600000381469727,54.06999969482422,0.0302734375,0.056640625,0.99407958984375,36.560001373291016,0.0,79.0,2.423736572265625,-1.13116455078125,Closing,0.0,0.0,-732.0,0.0,0.0,0.0,0.0,0.125,
5.069044000000002,0.0,0.0,19195.0,3.5,120.0,0.0,0.0,1.625,2.5915524690000002,1.2330627500000013,0.0,-22843.0,6.625,-112.5,0.0,0.0,2.0,2.3767087410000003,1.2409425000000012,0.0,-4673.0,3.625,120.0,0.0,0.0,1.625,0.126953112,1.2351000000000012,0.0,-18378.0,3.875,-97.5,0.0,0.0,1.375,3.3642574680000004,1.2395000000000012,0.0,0.0,-1.4299999475479126,53.9900016784668,-0.03302001953125,0.09600830078125,0.8699951171875,36.560001373291016,0.0,169.0,2.4233245849609375,-1.1295623779296875,Closing,0.0,0.0,-732.0,0.0,0.0,0.0,0.0,0.0,
5.117025000000002,0.0,0.0,19215.0,0.5,142.5,0.0,0.0,1.625,2.288818125,1.2330627500000013,-0.5004882299999998,-22860.0,2.75,-120.0,0.0,0.0,1.75,2.0642087730000003,1.2409425000000012,-0.3369140279999998,-4658.0,0.75,120.0,0.0,0.0,1.125,4.840087395,1.2351000000000012,-0.48828119999999986,-18388.0,0.5,-67.5,0.0,0.0,0.875,3.078612966,1.2395000000000012,-0.5053710420000002,0.25999999046325684,-1.1399999856948853,53.619998931884766,0.096435546875,0.09698486328125,1.00445556640625,36.560001373291016,0.0,143.0,2.4244537353515625,-1.1277313232421875,Closing,0.0,0.0,-732.0,0.0,0.0,0.0,0.0,0.0,
