Time,ClimberA1,ClimberA2,FRpos,FRCurrent,FRspeed,FRsetpoint,FRApos,FRACurrent,FREncpos,FREncSetpoint,FREncSpeed,FLpos,FLCurrent,FLspeed,FLsetpoint,FLApos,FLACurrent,FLEncpos,FLEncSetpoint,FLEncSpeed,BRpos,BRCurrent,BRspeed,BRsetpoint,BRApos,BRACurrent,BREncpos,BREncSetpoint,BREncSpeed,BLpos,BLCurrent,BLspeed,BLsetpoint,BLApos,BLACurrent,BLEncpos,BLEncSetpoint,BLEncSpeed,navx_Pitch,navx_Roll,navx_Yaw,navx_XAcc,navx_YAcc,navx_ZAcc,navx_Temp,navx_Bar,navx_Alt,navx_XDis,navx_YDis,GearPlacerState,ShootOutputV,ShootOutputCurrent,ShootEncPos,ShootEncVelocity,ShootSpeed,ShootSetpoint,CarouselSetpoint,CarouselCurrent,
0.15801400000001012,0.0,0.0,25869.0,0.0,0.0,0.0,0.0,0.25,0.794677653,0.01,0.0,-29458.0,0.125,0.0,-0.0,0.0,0.125,0.5017089330000001,0.01,0.0,1666.0,0.125,0.0,0.0,0.0,0.0,3.334960596,0.01,0.0,-24864.0,0.125,0.0,-0.0,0.0,0.125,1.617431475,0.01,0.0,0.27000001072883606,-0.49000000953674316,4.420000076293945,-0.00982666015625,0.00531005859375,1.01690673828125,36.470001220703125,0.0,-1.0,2.4277191162109375,-1.3645782470703125,Closing,0.0,0.0,-732.0,0.0,0.0,0.0,0.0,0.0,
0.26955400000000374,0.0,0.0,25869.0,0.0,0.0,0.0,0.0,0.25,0.794677653,0.01,0.0,-29458.0,0.125,0.0,-0.0,0.0,0.125,0.50048823,0.01,0.0,1666.0,0.125,0.0,0.0,0.0,0.0,3.334960596,0.01,0.0,-24864.0,0.125,0.0,-0.0,0.0,0.125,1.617431475,0.01,0.0,0.27000001072883606,-0.47999998927116394,4.420000076293945,-0.00811767578125,0.0068359375,1.023193359375,36.470001220703125,0.0,0.0,2.4277191162109375,-1.3645782470703125,Closing,0.0,0.0,-732.0,0.0,0.0,0.0,0.0,0.125,
0.3431290000000008,0.0,0.0,25869.0,0.0,0.0,0.0,0.0,0.125,0.794677653,0.01,0.0,-29458.0,0.125,0.0,-0.0,0.0,0.125,0.496826121,0.01,0.0,1666.0,0.125,0.0,0.0,0.0,0.0,3.334960596,0.01,0.0,-24864.0,0.125,0.0,-0.0,0.0,0.125,1.617431475,0.01,0.0,0.27000001072883606,-0.47999998927116394,4.420000076293945,-0.0103759765625,0.004638671875,1.0184326171875,36.470001220703125,0.0,-1.0,2.4277191162109375,-1.3645782470703125,Closing,0.0,0.0,-732.0,0.0,0.0,0.0,0.0,0.0,
0.4074830000000075,0.0,0.0,25869.0,0.0,0.0,0.0,0.0,0.25,0.794677653,0.01,0.0,-29458.0,0.125,0.0,-0.0,0.0,0.125,0.5017089330000001,0.01,0.0,1666.0,0.125,0.0,0.0,0.0,0.0,3.334960596,0.01,0.0,-24864.0,0.125,0.0,-0.0,0.0,0.125,1.617431475,0.01,0.0,0.2800000011920929,-0.49000000953674316,4.409999847412109,-0.0103759765625,0.00640869140625,1.01763916015625,36.470001220703125,0.0,-1.0,2.4277191162109375,-1.3645782470703125,Closing,0.0,0.0,-732.0,0.0,0.0,0.0,0.0,0.125,
0.5472390000000014,0.0,0.0,25869.0,0.0,0.0,0.0,0.0,0.25,0.794677653,0.01,0.0,-29458.0,0.125,0.0,-0.0,0.0,0.125,0.50048823,0.01,0.0,1666.0,0.125,0.0,0.0,0.0,0.0,3.336181299,0.01,0.0,-24864.0,0.125,0.0,-0.0,0.0,0.125,1.617431475,0.01,0.0,0.27000001072883606,-0.47999998927116394,4.409999847412109,-0.0087890625,0.00445556640625,1.02142333984375,36.470001220703125,0.0,0.0,2.4277191162109375,-1.3645782470703125,Closing,0.0,0.0,-732.0,0.0,0.0,0.0,0.0,0.0,
0.6793859999999986,0.0,0.0,25869.0,0.0,0.0,0.0,0.0,0.25,0.794677653,0.01,0.0,-29458.0,0.125,0.0,-0.0,0.0,0.125,0.5017089330000001,0.01,0.0,1666.0,0.125,0.0,0.0,0.0,0.0,3.334960596,0.01,0.0,-24864.0,0.125,0.0,-0.0,0.0,0.125,1.617431475,0.01,0.0,0.27000001072883606,-0.47999998927116394,4.409999847412109,-0.00927734375,0.00262451171875,1.023681640625,36.5099983215332,0.0,0.0,2.4277191162109375,-1.3645782470703125,Closing,0.0,0.0,-732.0,0.0,0.0,0.0,0.0,0.0,
0.8136680000000052,0.0,0.0,25869.0,0.0,0.0,0.0,0.0,0.25,0.794677653,0.01,0.0,-29458.0,0.125,0.0,-0.0,0.0,0.125,0.50048823,0.01,0.0,1666.0,0.125,0.0,0.0,0.0,0.0,3.334960596,0.01,0.0,-24864.0,0.125,0.0,-0.0,0.0,0.125,1.617431475,0.01,0.0,0.27000001072883606,-0.47999998927116394,4.409999847412109,-0.00799560546875,0.00372314453125,1.01690673828125,36.5099983215332,0.0,0.0,2.4277191162109375,-1.3645782470703125,Closing,0.0,0.0,-732.0,0.0,0.0,0.0,0.0,0.0,
0.9444919999999983,0.0,0.0,25869.0,0.0,0.0,0.0,0.0,0.25,0.794677653,0.01,0.0,-29458.0,0.125,0.0,-0.0,0.0,0.125,0.5017089330000001,0.01,0.0,1666.0,0.125,0.0,0.0,0.0,0.0,3.333739893,0.01,0.0,-24864.0,0.125,0.0,-0.0,0.0,0.125,1.617431475,0.01,0.0,0.27000001072883606,-0.47999998927116394,4.409999847412109,-0.008544921875,0.00799560546875,1.021240234375,36.5099983215332,0.0,0.0,2.4277191162109375,-1.3645782470703125,Closing,0.0,0.0,-732.0,0.0,0.0,0.0,0.0,0.0,
1.0831670000000013,0.0,0.0,25869.0,0.0,0.0,0.0,0.0,0.25,0.794677653,0.01,0.0,-29458.0,0.125,0.0,-0.0,0.0,0.125,0.50048823,0.01,0.0,1666.0,0.125,0.0,0.0,0.0,0.0,3.334960596,0.01,0.0,-24864.0,0.125,0.0,-0.0,0.0,0.125,1.617431475,0.01,0.0,0.2800000011920929,-0.47999998927116394,4.409999847412109,-0.0081787109375,0.00537109375,1.019287109375,36.5099983215332,0.0,0.0,2.4277191162109375,-1.3645782470703125,Closing,0.0,0.0,-732.0,0.0,0.0,0.0,0.0,0.125,
1.212649000000005,0.0,0.0,25869.0,0.0,0.0,0.0,0.0,0.25,0.795898356,0.01,0.0,-29458.0,0.125,0.0,-0.0,0.0,0.125,0.496826121,0.01,0.0,1666.0,0.125,0.0,0.0,0.0,0.0,3.334960596,0.01,0.0,-24864.0,0.125,0.0,-0.0,0.0,0.125,1.617431475,0.01,0.0,0.27000001072883606,-0.4699999988079071,4.409999847412109,-0.0084228515625,0.004638671875,1.02490234375,36.5099983215332,0.0,0.0,2.4277191162109375,-1.3645782470703125,Closing,0.0,0.0,-732.0,0.0,0.0,0.0,0.0,0.0,
1.3480660000000062,0.0,0.0,25869.0,0.0,0.0,0.0,0.0,0.25,0.794677653,0.01,0.0,-29458.0,0.125,0.0,-0.0,0.0,0.125,0.5017089330000001,0.01,0.0,1666.0,0.125,0.0,0.0,0.0,0.0,3.333739893,0.01,0.0,-24864.0,0.125,0.0,-0.0,0.0,0.125,1.617431475,0.01,0.0,0.2800000011920929,-0.47999998927116394,4.409999847412109,-0.00927734375,0.00457763671875,1.02423095703125,36.5099983215332,0.0,0.0,2.4277191162109375,-1.3645782470703125,Closing,0.0,0.0,-732.0,0.0,0.0,0.0,0.0,0.0,
1.4777750000000087,0.0,0.0,25867.0,0.125,-15.0,-218.26772511005402,0.0,0.25,0.787353435,4.932250999999998,0.0,-29457.0,0.5,7.5,218.26772511005402,0.0,0.0,0.5017089330000001,4.963769999999998,0.0,1666.0,0.375,0.0,-218.26772511005402,0.0,0.0,3.333739893,0.01,0.0,-24864.0,0.625,0.0,218.26772511005402,0.0,0.125,1.617431475,0.01,0.0,0.2800000011920929,-0.5,4.429999828338623,0.00396728515625,2.44140625E-4,1.033203125,36.5099983215332,0.0,12.0,2.427642822265625,-1.3645782470703125,Closing,0.0,0.0,-732.0,0.0,0.0,0.0,0.0,0.0,
1.6140780000000086,0.0,0.0,25848.0,0.375,-135.0,-396.8503922224045,0.0,0.25,0.809326089,4.932250999999998,0.0,-29433.0,1.25,172.5,396.8503922224045,0.0,0.0,0.507812448,4.963769999999998,0.0,1662.0,0.875,-60.0,-396.8503922224045,0.0,0.0,3.34472622,0.01,0.0,-24862.0,1.125,60.0,396.8503922224045,0.0,0.125,1.617431475,0.01,0.0,0.27000001072883606,-0.6399999856948853,4.480000019073486,0.01495361328125,0.05364990234375,0.9180908203125,36.4900016784668,0.0,28.0,2.4264373779296875,-1.3642120361328125,Closing,0.0,0.0,-732.0,0.0,0.0,0.0,0.0,0.125,
1.734472000000009,0.0,0.0,25830.0,3.25,-97.5,-634.9606275558472,0.0,0.125,0.808105386,4.932250999999998,0.0,-29422.0,5.875,90.0,634.9606275558472,0.0,0.0,0.5029296360000001,4.963769999999998,0.0,1630.0,2.625,-195.0,-634.9606275558472,0.0,0.0,3.3691402800000003,0.01,0.0,-24832.0,2.625,135.0,634.9606275558472,0.0,0.125,1.588134603,0.01,0.0,0.25,-1.0399999618530273,4.610000133514404,-0.1392822265625,-0.01611328125,0.97882080078125,36.4900016784668,0.0,-122.0,2.4220428466796875,-1.3624267578125,Closing,0.0,0.0,-732.0,0.0,0.0,0.0,0.0,0.0,
1.8784760000000096,0.0,0.0,25799.0,3.375,-262.5,-634.9606275558472,0.0,0.25,0.810546792,4.932250999999998,0.0,-29390.0,6.625,270.0,634.9606275558472,0.0,0.0,0.482177685,4.963769999999998,0.0,1613.0,4.75,-82.5,-634.9606275558472,0.0,0.0,3.3691402800000003,0.01,0.0,-24801.0,3.75,277.5,634.9606275558472,0.0,0.25,1.547851404,0.01,0.0,0.25999999046325684,-1.7100000381469727,4.619999885559082,-0.1368408203125,0.06549072265625,0.99114990234375,36.4900016784668,0.0,-101.0,2.4064178466796875,-1.3621673583984375,Closing,0.0,0.0,-732.0,0.0,0.0,0.0,0.0,0.0,
2.0154410000000063,0.0,0.0,25739.0,3.125,-457.5,-654.8031377792358,0.0,0.25,0.8032225740000001,4.932250999999998,0.0,-29328.0,5.75,472.5,654.8031377792358,0.0,0.125,0.45288081300000005,4.963769999999998,0.0,1575.0,5.0,-480.0,-654.8031377792358,0.0,0.0,3.3691402800000003,0.01,0.0,-24745.0,3.75,450.0,654.8031377792358,0.0,0.25,1.569824058,0.01,0.0,0.38999998569488525,-2.1700000762939453,4.78000020980835,-0.09661865234375,0.01611328125,0.9942626953125,36.4900016784668,0.0,-57.0,2.38299560546875,-1.3599853515625,Closing,0.0,0.0,-732.0,0.0,0.0,0.0,0.0,0.125,
2.1432309999999997,0.0,0.0,25650.0,2.625,-592.5,-654.8031377792358,0.0,0.25,0.809326089,4.932250999999998,0.0,-29242.0,3.875,637.5,654.8031377792358,0.0,0.25,0.435790971,4.963769999999998,0.0,1495.0,4.875,-502.5,-654.8031377792358,0.0,0.0,3.3679195770000003,0.01,0.0,-24663.0,3.125,585.0,654.8031377792358,0.0,0.25,1.6076658510000001,0.01,0.0,0.4000000059604645,-2.2699999809265137,4.670000076293945,0.0308837890625,-0.02142333984375,0.56683349609375,36.52000045776367,0.0,51.0,2.3513336181640625,-1.3573150634765625,Closing,0.0,0.0,-732.0,0.0,0.0,0.0,0.0,0.0,
2.2850100000000095,0.0,0.0,25437.0,1.875,-675.0,-654.8031377792358,0.0,0.25,0.808105386,4.932250999999998,0.0,-29017.0,2.375,727.5,654.8031377792358,0.0,0.25,0.47607417,4.963769999999998,0.0,1302.0,3.875,-637.5,-654.8031377792358,0.0,0.0,3.3679195770000003,0.01,0.0,-24452.0,2.25,705.0,654.8031377792358,0.0,0.25,1.617431475,0.01,0.0,0.33000001311302185,-2.440000057220459,4.429999828338623,-0.00537109375,-0.022705078125,0.975830078125,36.52000045776367,0.0,34.0,2.3123626708984375,-1.35565185546875,Closing,0.0,0.0,-732.0,0.0,0.0,0.0,0.0,0.0,
2.4119750000000058,0.0,0.0,25322.0,1.375,-720.0,-694.4881582260131,0.0,0.25,0.7897948410000001,4.932250999999998,0.0,-28897.0,2.0,742.5,694.4881582260131,0.0,0.125,0.5017089330000001,4.963769999999998,0.0,1188.0,3.5,-705.0,-694.4881582260131,0.0,0.0,3.3691402800000003,0.01,0.0,-24335.0,2.25,720.0,694.4881582260131,0.0,0.125,1.613769366,0.01,0.0,0.30000001192092896,-2.4200000762939453,4.369999885559082,-0.0638427734375,-0.03106689453125,1.07769775390625,36.52000045776367,0.0,-20.0,2.2855682373046875,-1.3549652099609375,Closing,0.0,0.0,-732.0,0.0,0.0,0.0,0.0,0.0,
2.545585000000006,0.0,0.0,25198.0,1.0,-765.0,-714.3307435512543,0.0,0.25,0.8056639800000001,4.932250999999998,0.0,-28773.0,1.625,772.5,714.3307435512543,0.0,0.0,0.496826121,4.963769999999998,0.0,1063.0,3.125,-772.5,-714.3307435512543,0.0,0.0,3.3691402800000003,0.01,0.0,-24218.0,2.0,735.0,714.3307435512543,0.0,0.125,1.617431475,0.01,0.0,0.33000001311302185,-2.259999990463257,4.400000095367432,-0.0582275390625,0.0018310546875,0.9483642578125,36.52000045776367,0.0,-20.0,2.2483062744140625,-1.3545989990234375,Closing,0.0,0.0,-732.0,0.0,0.0,0.0,0.0,0.125,
2.680748000000007,0.0,0.0,25077.0,0.75,-757.5,-714.3307435512543,0.0,0.25,0.7922362470000001,4.932250999999998,0.0,-28650.0,1.5,765.0,714.3307435512543,0.0,0.125,0.496826121,4.963769999999998,0.0,938.0,2.75,-780.0,-714.3307435512543,0.0,0.0,3.3679195770000003,0.01,0.0,-24097.0,2.0,742.5,714.3307435512543,0.0,0.125,1.617431475,0.01,0.0,0.3400000035762787,-2.1700000762939453,4.309999942779541,-0.0162353515625,0.08935546875,0.93121337890625,36.459999084472656,0.0,25.0,2.2200927734375,-1.3541107177734375,Closing,0.0,0.0,-732.0,0.0,0.0,0.0,0.0,0.0,
2.8129809999999997,0.0,0.0,24955.0,0.75,-757.5,-714.3307435512543,0.0,0.25,0.79345695,4.932250999999998,0.0,-28524.0,1.125,787.5,714.3307435512543,0.0,0.125,0.496826121,4.963769999999998,0.0,816.0,2.75,-757.5,-714.3307435512543,0.0,0.0,3.3691402800000003,0.01,0.0,-23980.0,2.0,735.0,714.3307435512543,0.0,0.125,1.619872881,0.01,0.0,0.30000001192092896,-1.9800000190734863,4.159999847412109,0.01446533203125,0.0718994140625,0.84259033203125,36.459999084472656,0.0,48.0,2.1908416748046875,-1.3531646728515625,Closing,0.0,0.0,-732.0,0.0,0.0,0.0,0.0,0.0,
2.882574000000008,0.0,0.0,24833.0,0.75,-757.5,-714.3307435512543,0.0,0.25,0.809326089,4.932250999999998,0.0,-28401.0,1.125,765.0,714.3307435512543,0.0,0.125,0.495605418,4.963769999999998,0.0,692.0,2.625,-765.0,-714.3307435512543,0.0,0.0,3.3691402800000003,0.01,0.0,-23865.0,2.0,712.5,714.3307435512543,0.0,0.125,1.614990069,0.01,0.0,0.25999999046325684,-1.899999976158142,4.119999885559082,-0.05950927734375,0.06634521484375,1.0517578125,36.459999084472656,0.0,-20.0,2.172637939453125,-1.353424072265625,Closing,0.0,0.0,-732.0,0.0,0.0,0.0,0.0,0.125,
3.014790000000008,0.0,0.0,24712.0,0.625,-757.5,-714.3307435512543,0.0,0.25,0.808105386,4.932250999999998,0.0,-28281.0,1.0,750.0,714.3307435512543,0.0,0.125,0.496826121,4.963769999999998,0.0,571.0,2.625,-757.5,-714.3307435512543,0.0,0.0,3.358153953,0.01,0.0,-23748.0,2.0,727.5,714.3307435512543,0.0,0.125,1.617431475,0.01,0.0,0.25999999046325684,-1.7999999523162842,4.28000020980835,-0.0372314453125,0.02789306640625,1.08795166015625,36.459999084472656,0.0,-1.0,2.1507568359375,-1.3543548583984375,Closing,0.0,0.0,-732.0,0.0,0.0,0.0,0.0,0.0,
3.135385000000009,0.0,0.0,24595.0,0.75,-727.5,-714.3307435512543,0.0,0.25,0.809326089,4.932250999999998,0.0,-28165.0,1.25,720.0,714.3307435512543,0.0,0.125,0.495605418,4.963769999999998,0.0,452.0,2.625,-735.0,-714.3307435512543,0.0,0.0,3.3642574680000004,0.01,0.0,-23633.0,2.0,712.5,714.3307435512543,0.0,0.125,1.617431475,0.01,0.0,0.27000001072883606,-1.5800000429153442,4.300000190734863,0.103271484375,0.03570556640625,0.87188720703125,36.5,0.0,129.0,2.12860107421875,-1.3553466796875,Closing,0.0,0.0,-732.0,0.0,0.0,0.0,0.0,0.125,
3.282747000000003,0.0,0.0,24481.0,0.75,-705.0,-714.3307435512543,0.0,0.25,0.8166503070000001,4.932250999999998,0.0,-28051.0,1.375,705.0,714.3307435512543,0.0,0.125,0.496826121,4.963769999999998,0.0,335.0,2.625,-720.0,-714.3307435512543,0.0,0.0,3.3728023890000003,0.01,0.0,-23515.0,1.875,735.0,714.3307435512543,0.0,0.125,1.617431475,0.01,0.0,0.27000001072883606,-1.5299999713897705,4.320000171661377,-0.036865234375,0.03900146484375,0.98052978515625,36.5,0.0,-7.0,2.1158447265625,-1.354888916015625,Closing,0.0,0.0,-732.0,0.0,0.0,0.0,0.0,0.0,
3.4137520000000077,0.0,0.0,24382.0,0.0,-562.5,0.0,0.0,0.25,0.795898356,4.932250999999998,0.0,-27946.0,0.125,517.5,0.0,0.0,0.125,0.496826121,4.963769999999998,0.0,224.0,0.125,-615.0,0.0,0.0,0.0,3.339843408,0.01,0.0,-23411.0,0.125,562.5,0.0,0.0,0.125,1.617431475,0.01,0.0,0.30000001192092896,-1.0299999713897705,4.239999771118164,0.145751953125,-0.0423583984375,0.96728515625,36.5,0.0,159.0,2.1195526123046875,-1.354827880859375,Closing,0.0,0.0,-732.0,0.0,0.0,0.0,0.0,0.125,
3.549679000000004,0.0,0.0,24318.0,2.25,-375.0,218.26772511005402,0.0,5.125,0.631103451,3.6991882499999984,0.0,-27882.0,4.25,345.0,-218.26772511005402,0.0,7.5,0.380859336,3.7228274999999984,0.0,152.0,3.125,-360.0,218.26772511005402,0.0,4.75,3.028564143,3.7052999999999985,0.0,-23324.0,3.375,375.0,-218.26772511005402,0.0,5.875,1.409911965,3.7184999999999984,0.0,0.17000000178813934,0.5099999904632568,3.859999895095825,0.32806396484375,-0.0904541015625,1.3433837890625,36.5,0.0,308.0,2.144378662109375,-1.3612060546875,Closing,0.0,0.0,-732.0,0.0,0.0,0.0,0.0,0.0,
3.6828380000000034,0.0,0.0,24310.0,3.0,112.5,555.5905491113663,0.0,1.75,4.749755373,3.6991882499999984,0.0,-27864.0,6.375,-67.5,-555.5905491113663,0.0,1.75,4.541015160000001,3.7228274999999984,0.0,128.0,4.25,-37.5,555.5905491113663,0.0,1.5,2.257079847,3.7052999999999985,0.0,-23304.0,4.375,-22.5,-555.5905491113663,0.0,2.125,0.6335448570000001,3.7184999999999984,0.0,-0.1899999976158142,1.350000023841858,4.159999847412109,-0.03961181640625,-0.1690673828125,0.98883056640625,36.470001220703125,0.0,-74.0,2.192779541015625,-1.373504638671875,Closing,0.0,0.0,-732.0,0.0,0.0,0.0,0.0,0.0,
3.8129100000000036,0.0,0.0,24352.0,3.125,322.5,595.2756071090697,0.0,0.25,4.317626511,3.6991882499999984,0.0,-27895.0,6.5,-300.0,-595.2756071090697,0.0,0.25,4.112548407,3.7228274999999984,0.0,140.0,5.5,150.0,595.2756071090697,0.0,0.125,1.7675779440000001,3.7052999999999985,0.0,-23328.0,5.125,-232.5,-595.2756071090697,0.0,0.5,0.23315427300000002,3.7184999999999984,0.0,-0.9100000262260437,0.2800000011920929,4.5,-0.1158447265625,-0.01055908203125,1.09600830078125,36.470001220703125,0.0,-120.0,2.2404327392578125,-1.399017333984375,Closing,0.0,0.0,-732.0,0.0,0.0,0.0,0.0,0.125,
3.9333110000000016,0.0,0.0,24417.0,2.75,517.5,654.8031377792358,0.0,0.375,4.313964402,3.6991882499999984,0.0,-27954.0,5.375,-517.5,-654.8031377792358,0.0,0.25,4.0332027120000005,3.7228274999999984,0.0,172.0,6.375,345.0,654.8031377792358,0.0,0.375,1.8994138680000001,3.7052999999999985,0.0,-23374.0,5.25,-420.0,-654.8031377792358,0.0,0.375,0.247802709,3.7184999999999984,0.0,-1.399999976158142,-0.15000000596046448,5.289999961853027,0.00244140625,-0.09234619140625,0.878662109375,36.470001220703125,0.0,-1.0,2.2721099853515625,-1.4329681396484375,Closing,0.0,0.0,-732.0,0.0,0.0,0.0,0.0,0.0,
4.081175000000003,0.0,0.0,24511.0,0.375,592.5,297.63780355453486,0.0,0.375,4.487304228,3.6991882499999984,0.0,-28143.0,0.75,-615.0,-297.63780355453486,0.0,0.25,4.1333003580000005,3.7228274999999984,0.0,317.0,2.75,487.5,297.63780355453486,0.0,0.125,2.142333765,3.7052999999999985,0.0,-23546.0,1.25,-577.5,-297.63780355453486,0.0,0.25,0.383300742,3.7184999999999984,0.0,-1.4199999570846558,0.2800000011920929,5.53000020980835,0.05279541015625,0.02862548828125,1.06640625,36.470001220703125,0.0,52.0,2.3024139404296875,-1.4744110107421875,Closing,0.0,0.0,-732.0,0.0,0.0,0.0,0.0,0.0,
4.212304000000004,0.0,0.0,24662.0,0.0,427.5,0.0,0.0,0.25,4.559325705,3.6991882499999984,0.0,-28210.0,0.125,-375.0,0.0,0.0,0.25,4.2407222220000005,3.7228274999999984,0.0,388.0,0.125,442.5,0.0,0.0,0.125,2.243652114,3.7052999999999985,0.0,-23616.0,0.125,-420.0,0.0,0.0,0.125,0.42724605000000004,3.7184999999999984,0.0,-0.8600000143051147,0.5299999713897705,5.150000095367432,0.05609130859375,0.28753662109375,0.86981201171875,36.459999084472656,0.0,74.0,2.33892822265625,-1.5087738037109375,Closing,0.0,0.0,-732.0,0.0,0.0,0.0,0.0,0.0,
4.347695000000007,0.0,0.0,24722.0,0.0,382.5,0.0,0.0,0.25,4.5556635960000005,3.6991882499999984,0.0,-28263.0,0.125,-300.0,0.0,0.0,0.125,4.281005421000001,3.7228274999999984,0.0,433.0,0.125,277.5,0.0,0.0,0.25,2.198486103,3.7052999999999985,0.0,-23685.0,0.125,-397.5,0.0,0.0,0.25,0.450439407,3.7184999999999984,0.0,-0.05999999865889549,0.33000001311302185,4.989999771118164,-0.0194091796875,0.11688232421875,0.9500732421875,36.459999084472656,0.0,-14.0,2.342926025390625,-1.527099609375,Closing,0.0,0.0,-732.0,0.0,0.0,0.0,0.0,0.0,
4.479755000000004,0.0,0.0,24750.0,0.0,165.0,0.0,0.0,0.25,4.547118675,3.6991882499999984,0.0,-28293.0,0.125,-172.5,0.0,0.0,0.25,4.283446827000001,3.7228274999999984,0.0,462.0,0.125,165.0,0.0,0.0,0.125,2.137450953,3.7052999999999985,0.0,-23715.0,0.125,-195.0,0.0,0.0,0.25,0.42236323800000003,3.7184999999999984,0.0,0.47999998927116394,0.20999999344348907,5.050000190734863,0.021728515625,0.06494140625,0.84429931640625,36.459999084472656,0.0,23.0,2.3422698974609375,-1.5319671630859375,Closing,0.0,0.0,-732.0,0.0,0.0,0.0,0.0,0.0,
4.601184999999997,0.0,0.0,24756.0,0.125,15.0,-196.875,0.0,1.625,4.10156208,3.0159423668524887,0.0,-28300.0,0.625,-22.5,196.875,0.0,1.25,4.62646437,4.410439589772222,0.0,472.0,0.375,45.0,196.875,0.0,2.75,2.364501711,4.389674732977289,0.0,-23720.0,0.375,-22.5,-196.875,0.0,1.25,4.903563951000001,3.0316872062785585,0.0,0.9700000286102295,0.09000000357627869,4.96999979019165,-0.02203369140625,0.051025390625,1.04449462890625,36.459999084472656,0.0,-20.0,2.340484619140625,-1.5273284912109375,Closing,0.0,0.0,-732.0,0.0,0.0,0.0,0.0,0.0,
4.682125,0.0,0.0,24756.0,0.125,0.0,-311.71875,0.0,1.0,3.767089458,3.0159423668524887,0.0,-28298.0,1.25,0.0,311.71875,0.0,0.75,4.956054180000001,4.410439589772222,0.0,474.0,0.5,7.5,311.71875,0.0,0.625,2.674560273,4.389674732977289,0.0,-23723.0,0.375,-7.5,-311.71875,0.0,1.0,4.578856953,3.0316872062785585,0.0,0.9399999976158142,0.03999999910593033,5.0,-0.00146484375,0.01251220703125,0.9940185546875,36.400001525878906,0.0,-2.0,2.3395233154296875,-1.522613525390625,Closing,0.0,0.0,-732.0,0.0,0.0,0.0,0.0,0.125,
4.799820000000007,0.0,0.0,24756.0,0.0,0.0,0.0,0.0,0.25,3.754882428,3.0159423668524887,0.0,-28298.0,0.125,0.0,0.0,0.0,1.75,4.526366724,4.410439589772222,0.0,477.0,0.125,15.0,0.0,0.0,0.125,2.878417674,4.389674732977289,0.0,-23725.0,0.125,-7.5,0.0,0.0,0.625,4.630126479,3.0316872062785585,0.0,0.6700000166893005,-0.029999999329447746,4.639999866485596,-0.03289794921875,0.10162353515625,1.02325439453125,36.400001525878906,0.0,-24.0,2.3382110595703125,-1.5244598388671875,Closing,0.0,0.0,-732.0,0.0,0.0,0.0,0.0,0.125,
4.8697860000000075,0.0,0.0,24755.0,0.0,0.0,0.0,0.0,0.25,3.7902828150000003,3.0159423668524887,0.008544920999999928,-28298.0,0.125,0.0,0.0,0.0,3.875,4.1809077750000005,4.410439589772222,3.6657711090000005,477.0,0.125,0.0,0.0,0.0,0.25,2.872314159,4.389674732977289,0.18920896499999973,-23725.0,0.125,0.0,0.0,0.0,0.25,4.680175302,3.0316872062785585,0.05981444699999994,0.75,-0.05000000074505806,4.550000190734863,0.00421142578125,0.00909423828125,0.98114013671875,36.400001525878906,0.0,4.0,2.3376312255859375,-1.5240325927734375,Closing,0.0,0.0,-732.0,0.0,0.0,0.0,0.0,0.125,
5.011307,0.0,0.0,24755.0,0.0,0.0,0.0,0.0,0.25,3.806151954,3.0159423668524887,0.0,-28298.0,0.125,0.0,0.0,0.0,0.75,4.769286621,4.410439589772222,0.0,478.0,0.125,0.0,0.0,0.0,0.125,2.8015133850000002,4.389674732977289,0.0,-23725.0,0.125,0.0,0.0,0.0,0.25,4.69970655,3.0316872062785585,0.0,0.6499999761581421,-0.17000000178813934,4.690000057220459,-0.020263671875,-0.03997802734375,1.0279541015625,36.400001525878906,0.0,-21.0,2.337188720703125,-1.527191162109375,Closing,0.0,0.0,-732.0,0.0,0.0,0.0,0.0,0.0,
5.144987999999998,0.0,0.0,24755.0,0.0,0.0,0.0,0.0,0.25,3.817138281,3.0159423668524887,0.0,-28298.0,0.125,0.0,0.0,0.0,0.25,0.150146469,4.410439589772222,0.0,478.0,0.125,0.0,0.0,0.0,0.0,2.7905270580000003,4.389674732977289,0.0,-23725.0,0.125,0.0,0.0,0.0,0.25,4.694823738,3.0316872062785585,0.0,0.6200000047683716,-0.17000000178813934,4.679999828338623,-0.0325927734375,-0.011962890625,1.03546142578125,36.400001525878906,0.0,-31.0,2.337127685546875,-1.531524658203125,Closing,0.0,0.0,-732.0,0.0,0.0,0.0,0.0,0.0,
5.285559999999998,0.0,0.0,24755.0,0.0,0.0,0.0,0.0,0.25,3.817138281,3.0159423668524887,0.0,-28298.0,0.125,0.0,0.0,0.0,0.25,0.063476556,4.410439589772222,0.0,478.0,0.125,0.0,0.0,0.0,0.0,2.7905270580000003,4.389674732977289,0.0,-23725.0,0.125,0.0,0.0,0.0,0.25,4.688720223000001,3.0316872062785585,0.0,0.6000000238418579,-0.2199999988079071,4.650000095367432,0.009033203125,-0.00970458984375,0.99188232421875,36.40999984741211,0.0,11.0,2.336883544921875,-1.5325164794921875,Closing,0.0,0.0,-732.0,0.0,0.0,0.0,0.0,0.0,
5.411206000000005,0.0,0.0,24755.0,0.0,0.0,0.0,0.0,0.125,3.815917578,3.0159423668524887,0.0,-28298.0,0.125,0.0,0.0,0.0,0.25,0.013427733,4.410439589772222,0.0,478.0,0.125,0.0,0.0,0.0,0.0,2.7917477610000003,4.389674732977289,0.0,-23725.0,0.125,0.0,0.0,0.0,0.25,4.689940926,3.0316872062785585,0.0,0.5600000023841858,-0.28999999165534973,4.659999847412109,-0.00494384765625,-0.0029296875,1.0152587890625,36.40999984741211,0.0,0.0,2.3367156982421875,-1.5325927734375,Closing,0.0,0.0,-732.0,0.0,0.0,0.0,0.0,0.0,
5.547578000000009,0.0,0.0,24751.0,0.375,-15.0,-393.75,0.0,0.25,3.815917578,3.0159423668524887,0.0,-28293.0,1.25,22.5,393.75,0.0,0.25,4.935302229,4.410439589772222,0.0,481.0,0.875,15.0,393.75,0.0,0.0,2.7905270580000003,4.389674732977289,0.0,-23732.0,0.75,-52.5,-393.75,0.0,0.25,4.685058114,3.0316872062785585,0.0,0.5600000023841858,-0.3400000035762787,4.46999979019165,-0.00701904296875,-0.00970458984375,1.0120849609375,36.40999984741211,0.0,-2.0,2.3366851806640625,-1.5326080322265625,Closing,0.0,0.0,-732.0,0.0,0.0,0.0,0.0,0.0,
5.671082000000009,0.0,0.0,24747.0,0.0,-15.0,0.0,0.0,0.25,3.815917578,3.0159423668524887,0.0,-28289.0,0.125,22.5,0.0,0.0,0.0,4.9157709810000005,4.410439589772222,0.0,486.0,0.125,30.0,0.0,0.0,0.0,2.7905270580000003,4.389674732977289,0.0,-23737.0,0.125,-30.0,0.0,0.0,0.25,4.686278817,3.0316872062785585,0.0,0.49000000953674316,-0.36000001430511475,4.039999961853027,-0.02313232421875,0.03387451171875,1.10858154296875,36.38999938964844,0.0,-14.0,2.3366241455078125,-1.533294677734375,Closing,0.0,0.0,-732.0,0.0,0.0,0.0,0.0,0.0,
5.81539,0.0,0.0,24747.0,0.0,0.0,0.0,0.0,0.25,3.815917578,3.0159423668524887,0.0,-28289.0,0.125,0.0,0.0,0.0,0.0,4.9157709810000005,4.410439589772222,0.0,485.0,0.125,0.0,0.0,0.0,0.0,2.7905270580000003,4.389674732977289,0.0,-23737.0,0.125,0.0,0.0,0.0,0.25,4.685058114,3.0316872062785585,0.0,0.4699999988079071,-0.3700000047683716,4.25,-0.00921630859375,0.01385498046875,1.01171875,36.38999938964844,0.0,-9.0,2.3365020751953125,-1.5337677001953125,Closing,0.0,0.0,-732.0,0.0,0.0,0.0,0.0,0.125,
5.945231,0.0,0.0,24747.0,0.125,0.0,-278.90625,0.0,0.25,3.817138281,3.0159423668524887,0.0,-28290.0,0.75,0.0,278.90625,0.0,0.0,4.916991684,4.410439589772222,0.0,485.0,0.5,0.0,278.90625,0.0,0.0,2.78320284,4.389674732977289,0.0,-23737.0,0.375,0.0,-278.90625,0.0,0.25,4.685058114,3.0316872062785585,0.0,0.46000000834465027,-0.41999998688697815,4.199999809265137,-0.0035400390625,6.7138671875E-4,1.02667236328125,36.38999938964844,0.0,3.0,2.33636474609375,-1.5337677001953125,Closing,0.0,0.0,-732.0,0.0,0.0,0.0,0.0,0.0,
6.082294000000009,0.0,0.0,24747.0,0.0,0.0,0.0,0.0,0.25,3.817138281,3.0159423668524887,0.0,-28290.0,0.125,0.0,0.0,0.0,0.0,4.9157709810000005,4.410439589772222,0.0,486.0,0.125,0.0,0.0,0.0,0.0,2.7917477610000003,4.389674732977289,0.0,-23737.0,0.125,0.0,0.0,0.0,0.25,4.685058114,3.0316872062785585,0.0,0.44999998807907104,-0.46000000834465027,4.199999809265137,-0.0081787109375,3.662109375E-4,1.0294189453125,36.38999938964844,0.0,0.0,2.33636474609375,-1.5337677001953125,Closing,0.0,0.0,-732.0,0.0,0.0,0.0,0.0,0.0,
6.213059000000008,0.0,0.0,24747.0,0.0,0.0,0.0,0.0,0.25,3.815917578,3.0159423668524887,0.0,-28290.0,0.125,0.0,0.0,0.0,0.0,4.914550278,4.410439589772222,0.0,486.0,0.125,0.0,0.0,0.0,0.0,2.7917477610000003,4.389674732977289,0.0,-23737.0,0.125,0.0,0.0,0.0,0.25,4.685058114,3.0316872062785585,0.0,0.4300000071525574,-0.4699999988079071,4.190000057220459,-0.01336669921875,0.008056640625,1.0223388671875,36.45000076293945,0.0,-4.0,2.33636474609375,-1.5337677001953125,Closing,0.0,0.0,-732.0,0.0,0.0,0.0,0.0,0.0,
6.346245999999999,0.0,0.0,24747.0,0.0,0.0,0.0,0.0,0.25,3.815917578,3.0159423668524887,0.0,-28290.0,0.125,0.0,0.0,0.0,0.0,4.914550278,4.410439589772222,0.0,486.0,0.125,0.0,0.0,0.0,0.0,2.7905270580000003,4.389674732977289,0.0,-23737.0,0.125,0.0,0.0,0.0,0.25,4.685058114,3.0316872062785585,0.0,0.41999998688697815,-0.5,4.190000057220459,-0.01068115234375,0.00201416015625,1.02490234375,36.45000076293945,0.0,-2.0,2.33636474609375,-1.5337677001953125,Closing,0.0,0.0,-732.0,0.0,0.0,0.0,0.0,0.0,
6.481403000000006,0.0,0.0,24747.0,0.0,0.0,0.0,0.0,0.25,3.815917578,3.0159423668524887,0.0,-28290.0,0.125,0.0,0.0,0.0,0.0,4.916991684,4.410439589772222,0.0,486.0,0.125,0.0,0.0,0.0,0.0,2.7917477610000003,4.389674732977289,0.0,-23737.0,0.125,0.0,0.0,0.0,0.25,4.685058114,3.0316872062785585,0.0,0.4099999964237213,-0.5199999809265137,4.190000057220459,-0.011474609375,0.00732421875,1.016357421875,36.45000076293945,0.0,-2.0,2.33636474609375,-1.5337677001953125,Closing,0.0,0.0,-732.0,0.0,0.0,0.0,0.0,0.125,
6.547290999999998,0.0,0.0,24747.0,0.375,0.0,-531.5625,0.0,1.5,3.7304683680000004,2.4661255,0.0,-28290.0,0.5,-7.5,-531.5625,0.0,2.375,4.945067853,0.01,0.0,486.0,0.5,0.0,531.5625,0.0,2.125,2.926025091,0.01,0.0,-23737.0,0.875,15.0,531.5625,0.0,2.5,4.576415547,2.479,0.0,0.4099999964237213,-0.5099999904632568,4.190000057220459,0.006591796875,0.01397705078125,1.03106689453125,36.45000076293945,0.0,16.0,2.3364105224609375,-1.5337677001953125,Closing,0.0,0.0,-732.0,0.0,0.0,0.0,0.0,0.0,
6.684115000000006,0.0,0.0,24743.0,2.125,-37.5,-570.9375,0.0,0.75,3.303222318,2.4661255,0.0,-28321.0,2.25,-142.5,-570.9375,0.0,0.75,0.526122993,0.01,0.0,486.0,2.5,22.5,570.9375,0.0,0.5,3.3703609830000003,0.01,0.0,-23710.0,1.75,157.5,570.9375,0.0,0.875,4.0783687230000005,2.479,0.0,0.41999998688697815,-0.18000000715255737,3.859999895095825,0.093994140625,0.03173828125,0.98760986328125,36.45000076293945,0.0,98.0,2.3397064208984375,-1.535003662109375,Closing,0.0,0.0,-732.0,0.0,0.0,0.0,0.0,0.0,
6.80226400000001,0.0,0.0,24723.0,5.75,-165.0,-905.6249999999999,0.0,0.25,3.2116695930000003,2.4661255,0.0,-28336.0,8.875,-187.5,-905.6249999999999,0.0,0.125,0.69580071,0.01,0.0,500.0,6.375,135.0,905.6249999999999,0.0,0.125,3.45458949,0.01,0.0,-23701.0,5.75,172.5,905.6249999999999,0.0,0.25,3.8977046790000003,2.479,0.0,0.4000000059604645,0.4399999976158142,3.8299999237060547,0.13995361328125,0.02923583984375,0.953857421875,36.45000076293945,0.0,133.0,2.350189208984375,-1.5352325439453125,Closing,0.0,0.0,-732.0,0.0,0.0,0.0,0.0,0.125,
6.948268000000011,0.0,0.0,24678.0,7.125,-435.0,-944.9999999999999,0.0,0.25,3.2226559200000002,2.4661255,0.0,-28388.0,11.0,-420.0,-944.9999999999999,0.0,0.25,0.690917898,0.01,0.0,528.0,9.0,337.5,944.9999999999999,0.0,0.125,3.4216305090000003,0.01,0.0,-23653.0,7.625,390.0,944.9999999999999,0.0,0.375,3.9379878780000004,2.479,0.0,0.30000001192092896,0.9300000071525574,3.1700000762939453,0.10943603515625,-0.0909423828125,0.93743896484375,36.45000076293945,0.0,88.0,2.373748779296875,-1.5351104736328125,Closing,0.0,0.0,-732.0,0.0,0.0,0.0,0.0,0.125,
7.084396000000008,0.0,0.0,24596.0,7.25,-637.5,-944.9999999999999,0.0,0.25,3.248290683,2.4661255,0.0,-28572.0,10.75,-637.5,-944.9999999999999,0.0,0.25,0.612792906,0.01,0.0,674.0,9.625,510.0,944.9999999999999,0.0,0.125,3.392333637,0.01,0.0,-23489.0,8.125,555.0,944.9999999999999,0.0,0.25,4.073485911000001,2.479,0.0,0.3100000023841858,1.4600000381469727,2.6700000762939453,0.1343994140625,0.1024169921875,0.98931884765625,36.45000076293945,0.0,113.0,2.404388427734375,-1.536895751953125,Closing,0.0,0.0,-732.0,0.0,0.0,0.0,0.0,0.0,
7.212169999999999,0.0,0.0,24353.0,6.0,-810.0,-944.9999999999999,0.0,0.25,3.2714840400000003,2.4661255,0.0,-28711.0,8.875,-832.5,-944.9999999999999,0.0,0.25,0.560302677,0.01,0.0,794.0,9.625,697.5,944.9999999999999,0.0,0.125,3.3642574680000004,0.01,0.0,-23357.0,6.75,810.0,944.9999999999999,0.0,0.25,4.122314031,2.479,0.0,0.4000000059604645,2.0399999618530273,2.509999990463257,0.13037109375,0.00115966796875,0.66571044921875,36.40999984741211,0.0,106.0,2.4445953369140625,-1.536285400390625,Closing,0.0,0.0,-732.0,0.0,0.0,0.0,0.0,0.125,
7.348877000000008,0.0,0.0,24190.0,4.25,-1005.0,-944.9999999999999,0.0,0.25,3.2702633370000003,2.4661255,0.0,-28874.0,5.75,-1035.0,-944.9999999999999,0.0,0.25,0.538330023,0.01,0.0,946.0,7.5,967.5,944.9999999999999,0.0,0.0,3.3654781710000004,0.01,0.0,-23201.0,5.0,990.0,944.9999999999999,0.0,0.25,4.127196843,2.479,0.0,0.5199999809265137,2.4100000858306885,2.430000066757202,0.0885009765625,-0.06488037109375,0.646728515625,36.40999984741211,0.0,58.0,2.4930267333984375,-1.53326416015625,Closing,0.0,0.0,-732.0,0.0,0.0,0.0,0.0,0.125,
7.479317999999999,0.0,0.0,24011.0,2.75,-1125.0,-944.9999999999999,0.0,0.25,3.2690426340000003,2.4661255,0.0,-29055.0,3.25,-1140.0,-944.9999999999999,0.0,0.125,0.5407714290000001,0.01,0.0,1122.0,5.375,1102.5,944.9999999999999,0.0,0.0,3.3642574680000004,0.01,0.0,-23022.0,3.375,1125.0,944.9999999999999,0.0,0.25,4.1284175460000005,2.479,0.0,0.4699999988079071,2.319999933242798,2.369999885559082,0.04833984375,-0.09674072265625,0.997314453125,36.40999984741211,0.0,3.0,2.5417633056640625,-1.5302276611328125,Closing,0.0,0.0,-732.0,0.0,0.0,0.0,0.0,0.0,
7.614489000000002,0.0,0.0,23825.0,1.25,-1162.5,-944.9999999999999,0.0,0.25,3.2690426340000003,2.4661255,0.0,-29242.0,1.625,-1162.5,-944.9999999999999,0.0,0.125,0.535888617,0.01,0.0,1307.0,4.125,1147.5,944.9999999999999,0.0,0.0,3.3630367650000004,0.01,0.0,-22835.0,2.0,1170.0,944.9999999999999,0.0,0.25,4.1308589520000005,2.479,0.0,0.3100000023841858,2.2300000190734863,2.2899999618530273,-0.0601806640625,0.0865478515625,0.72430419921875,36.40999984741211,0.0,-84.0,2.5829925537109375,-1.5293121337890625,Closing,0.0,0.0,-732.0,0.0,0.0,0.0,0.0,0.125,
7.7467880000000005,0.0,0.0,23656.0,0.125,-982.5,-315.0,0.0,0.25,3.2580563070000004,2.4661255,0.0,-29412.0,0.0,-975.0,-315.0,0.0,0.125,0.531005805,0.01,0.0,1479.0,0.5,982.5,315.0,0.0,0.0,3.3642574680000004,0.01,0.0,-22658.0,0.5,960.0,315.0,0.0,0.25,4.165038636,2.479,0.0,0.28999999165534973,1.2300000190734863,2.1500000953674316,-0.20806884765625,0.09600830078125,1.6851806640625,36.36000061035156,0.0,-240.0,2.6223297119140625,-1.5262603759765625,Closing,0.0,0.0,-732.0,0.0,0.0,0.0,0.0,0.125,
7.880785000000004,0.0,0.0,23492.0,0.0,-952.5,0.0,0.0,0.25,3.2690426340000003,2.4661255,0.0,-29562.0,0.125,-945.0,0.0,0.0,0.125,0.531005805,0.01,0.0,1627.0,0.125,930.0,0.0,0.0,0.0,3.388671528,0.01,0.0,-22514.0,0.125,945.0,0.0,0.0,0.25,4.127196843,2.479,0.0,0.3199999928474426,0.41999998688697815,2.180000066757202,-0.15423583984375,0.09967041015625,1.36773681640625,36.36000061035156,0.0,-160.0,2.6460723876953125,-1.5216064453125,Closing,0.0,0.0,-732.0,0.0,0.0,0.0,0.0,0.125,
8.01206700000001,0.0,0.0,23354.0,0.0,-787.5,0.0,0.0,0.25,3.2702633370000003,2.4661255,0.0,-29705.0,0.125,-802.5,0.0,0.0,0.125,0.526122993,0.01,0.0,1763.0,0.125,765.0,0.0,0.0,0.125,3.387450825,0.01,0.0,-22370.0,0.125,817.5,0.0,0.0,0.25,4.117431219,2.479,0.0,0.3100000023841858,0.0,2.5299999713897705,-0.06982421875,0.06585693359375,0.94134521484375,36.36000061035156,0.0,-67.0,2.6540985107421875,-1.5194244384765625,Closing,0.0,0.0,-732.0,0.0,0.0,0.0,0.0,0.0,
8.145354000000006,0.0,0.0,23240.0,0.0,-577.5,0.0,0.0,0.25,3.2690426340000003,2.4661255,0.0,-29826.0,0.125,-645.0,0.0,0.0,0.125,0.526122993,0.01,0.0,1879.0,0.125,517.5,0.0,0.0,0.125,3.391112934,0.01,0.0,-22245.0,0.125,607.5,0.0,0.0,0.125,4.117431219,2.479,0.0,-0.07999999821186066,-2.549999952316284,3.569999933242798,-0.41802978515625,0.10894775390625,0.84930419921875,36.36000061035156,0.0,-372.0,2.6379852294921875,-1.519683837890625,Closing,0.0,0.0,-732.0,0.0,0.0,0.0,0.0,0.0,
8.281826,0.0,0.0,23194.0,0.0,210.0,0.0,0.0,0.25,3.2690426340000003,2.4661255,0.0,-29869.0,0.125,60.0,0.0,0.0,0.125,0.527343696,0.01,0.0,1930.0,0.125,-7.5,0.0,0.0,0.125,3.3630367650000004,0.01,0.0,-22204.0,0.125,-97.5,0.0,0.0,0.25,4.093017159,2.479,0.0,0.28999999165534973,-3.0299999713897705,3.5299999713897705,0.10247802734375,-0.0372314453125,1.183837890625,36.36000061035156,0.0,162.0,2.5844879150390625,-1.5146484375,Closing,0.0,0.0,-732.0,0.0,0.0,0.0,0.0,0.125,
8.41418800000001,0.0,0.0,23248.0,0.0,142.5,0.0,0.0,0.25,3.2702633370000003,2.4661255,0.0,-29852.0,0.125,97.5,0.0,0.0,0.125,0.5163573690000001,0.01,0.0,1907.0,0.125,-127.5,0.0,0.0,0.0,3.3679195770000003,0.01,0.0,-22220.0,0.125,-97.5,0.0,0.0,0.125,4.0783687230000005,2.479,0.0,0.27000001072883606,-2.259999990463257,3.6700000762939453,0.02044677734375,0.0059814453125,1.25787353515625,36.36000061035156,0.0,69.0,2.5429840087890625,-1.511016845703125,Closing,0.0,0.0,-732.0,0.0,0.0,0.0,0.0,0.125,
8.545072,0.0,0.0,23249.0,0.0,7.5,0.0,0.0,0.25,3.2690426340000003,2.4661255,0.0,-29851.0,0.125,7.5,0.0,0.0,0.0,0.5163573690000001,0.01,0.0,1905.0,0.125,-7.5,0.0,0.0,0.0,3.3679195770000003,0.01,0.0,-22220.0,0.125,0.0,0.0,0.0,0.25,4.0783687230000005,2.479,0.0,0.23000000417232513,-1.8200000524520874,3.559999942779541,-0.00921630859375,0.0146484375,1.02679443359375,36.36000061035156,0.0,24.0,2.516021728515625,-1.511993408203125,Closing,0.0,0.0,-732.0,0.0,0.0,0.0,0.0,0.0,
8.615072,0.0,0.0,23249.0,0.0,0.0,0.0,0.0,0.25,3.2690426340000003,2.4661255,0.0,-29851.0,0.125,0.0,0.0,0.0,0.0,0.5163573690000001,0.01,0.0,1905.0,0.125,0.0,0.0,0.0,0.0,3.3679195770000003,0.01,0.0,-22220.0,0.125,0.0,0.0,0.0,0.25,4.079589426,2.479,0.0,0.2199999988079071,-1.7999999523162842,3.5999999046325684,-0.04071044921875,-0.00421142578125,1.0286865234375,36.36000061035156,0.0,-8.0,2.50982666015625,-1.5125885009765625,Closing,0.0,0.0,-732.0,0.0,0.0,0.0,0.0,0.0,
8.747059000000009,0.0,0.0,23249.0,0.0,0.0,0.0,0.0,0.25,3.2702633370000003,2.4661255,0.0,-29851.0,0.125,0.0,0.0,0.0,0.0,0.5163573690000001,0.01,0.0,1905.0,0.125,0.0,0.0,0.0,0.0,3.3679195770000003,0.01,0.0,-22220.0,0.125,0.0,0.0,0.0,0.25,4.079589426,2.479,0.0,0.23000000417232513,-1.7899999618530273,3.569999933242798,-0.027587890625,0.0079345703125,1.0162353515625,36.36000061035156,0.0,4.0,2.50982666015625,-1.5127410888671875,Closing,0.0,0.0,-732.0,0.0,0.0,0.0,0.0,0.125,
8.882422000000005,0.0,0.0,23247.0,26.0,-240.0,-2520.0,0.0,0.25,3.2739254460000002,2.4661255,0.0,-29933.0,30.0,-457.5,-2520.0,0.0,0.0,0.5163573690000001,0.01,0.0,1943.0,20.875,210.0,2520.0,0.0,0.0,3.3642574680000004,0.01,0.0,-22181.0,22.875,195.0,2520.0,0.0,0.25,4.058837475,2.479,0.0,0.14000000059604645,-0.6000000238418579,3.7200000286102295,0.03875732421875,-0.0150146484375,1.42938232421875,36.36000061035156,0.0,52.0,2.52105712890625,-1.514801025390625,Closing,0.0,0.0,-732.0,0.0,0.0,0.0,0.0,0.125,
9.012273,0.0,0.0,23202.0,0.0,-120.0,0.0,0.0,0.25,3.2739254460000002,2.4661255,0.0,-29966.0,0.125,-240.0,0.0,0.0,0.0,0.5175780720000001,0.01,0.0,1959.0,0.125,127.5,0.0,0.0,0.0,3.3642574680000004,0.01,0.0,-22163.0,0.125,135.0,0.0,0.0,0.25,4.0832515350000005,2.479,0.0,0.18000000715255737,-2.430000066757202,4.659999847412109,-0.1453857421875,0.1632080078125,1.2354736328125,36.36000061035156,0.0,-79.0,2.5252685546875,-1.5216217041015625,Closing,0.0,0.0,-732.0,0.0,0.0,0.0,0.0,0.125,
9.053283000000011,0.0,0.0,23202.0,0.0,142.5,0.0,0.0,0.25,3.2751461490000002,2.4661255,0.0,-29966.0,0.125,7.5,0.0,0.0,0.0,0.521240181,0.01,0.0,1959.0,0.125,22.5,0.0,0.0,0.0,3.3630367650000004,0.01,0.0,-22163.0,0.125,-60.0,0.0,0.0,0.25,4.063720287000001,2.479,0.02441406000000068,0.25999999046325684,-2.309999942779541,4.460000038146973,-0.003662109375,-0.12255859375,0.79620361328125,36.36000061035156,0.0,18.0,2.5203094482421875,-1.521392822265625,Closing,0.0,0.0,-732.0,0.0,0.0,0.0,0.0,0.0,
9.147729000000007,0.0,0.0,23229.0,0.0,172.5,0.0,0.0,0.25,3.2739254460000002,2.4661255,0.0,-29928.0,0.125,240.0,0.0,0.0,0.0,0.522460884,0.01,0.004882811999999959,1944.0,0.125,-82.5,0.0,0.0,0.0,3.3630367650000004,0.01,0.0,-22196.0,0.125,-225.0,0.0,0.0,0.25,4.06494099,2.479,-0.019531247999999835,0.029999999329447746,-1.909999966621399,4.179999828338623,0.13116455078125,0.04803466796875,0.921142578125,36.36000061035156,0.0,164.0,2.513427734375,-1.5228729248046875,Closing,0.0,0.0,-732.0,0.0,0.0,0.0,0.0,0.0,
9.277747000000003,0.0,0.0,23245.0,0.0,97.5,0.0,0.0,0.25,3.2739254460000002,2.4661255,0.0,-29918.0,0.125,37.5,0.0,0.0,0.0,0.5163573690000001,0.01,0.0,1926.0,0.125,-82.5,0.0,0.0,0.0,3.3642574680000004,0.01,0.0,-22207.0,0.125,-37.5,0.0,0.0,0.25,4.063720287000001,2.479,0.0,0.10000000149011612,-1.3300000429153442,4.429999828338623,0.062255859375,0.0032958984375,1.0203857421875,36.34000015258789,0.0,85.0,2.511138916015625,-1.5247344970703125,Closing,0.0,0.0,-732.0,0.0,0.0,0.0,0.0,0.0,
9.413270000000004,0.0,0.0,23245.0,0.0,0.0,0.0,0.0,0.25,3.2751461490000002,2.4661255,0.0,-29917.0,0.125,0.0,0.0,0.0,0.0,0.511474557,0.01,0.0,1926.0,0.125,0.0,0.0,0.0,0.0,3.3630367650000004,0.01,0.0,-22207.0,0.125,0.0,0.0,0.0,0.25,4.06494099,2.479,0.0,0.11999999731779099,-1.1799999475479126,4.380000114440918,-0.03009033203125,-0.008056640625,1.02740478515625,36.34000015258789,0.0,-9.0,2.51446533203125,-1.5246734619140625,Closing,0.0,0.0,-732.0,0.0,0.0,0.0,0.0,0.125,
9.549031000000003,0.0,0.0,23236.0,0.375,-75.0,-393.75,0.0,0.25,3.2751461490000002,2.4661255,0.0,-29925.0,1.0,-60.0,-393.75,0.0,0.0,0.526122993,0.01,0.0,1926.0,0.875,0.0,393.75,0.0,0.0,3.3642574680000004,0.01,0.0,-22203.0,1.125,52.5,393.75,0.0,0.25,4.063720287000001,2.479,0.0,0.14000000059604645,-1.059999942779541,4.389999866485596,0.03253173828125,-0.065673828125,0.9849853515625,36.34000015258789,0.0,45.0,2.5152435302734375,-1.5246124267578125,Closing,0.0,0.0,-732.0,0.0,0.0,0.0,0.0,0.125,
9.679766000000003,0.0,0.0,23227.0,1.375,-67.5,-433.125,0.0,0.25,3.2739254460000002,2.4661255,0.0,-29934.0,2.75,-82.5,-433.125,0.0,0.125,0.527343696,0.01,0.0,1932.0,1.75,60.0,433.125,0.0,0.0,3.3630367650000004,0.01,0.0,-22194.0,1.75,82.5,433.125,0.0,0.25,4.06494099,2.479,0.0,0.11999999731779099,-0.8799999952316284,4.429999828338623,-0.00201416015625,0.009765625,1.034912109375,36.34000015258789,0.0,14.0,2.5208892822265625,-1.5246734619140625,Closing,0.0,0.0,-732.0,0.0,0.0,0.0,0.0,0.125,
9.802770000000004,0.0,0.0,23213.0,2.25,-82.5,-433.125,0.0,0.25,3.2739254460000002,2.4661255,0.0,-29951.0,4.25,-97.5,-433.125,0.0,0.125,0.526122993,0.01,0.0,1944.0,3.0,67.5,433.125,0.0,0.0,3.3642574680000004,0.01,0.0,-22177.0,2.625,90.0,433.125,0.0,0.25,4.068603099000001,2.479,0.0,0.14000000059604645,-0.9700000286102295,4.53000020980835,-0.1082763671875,0.009765625,1.0552978515625,36.36000061035156,0.0,-89.0,2.520416259765625,-1.5243072509765625,Closing,0.0,0.0,-732.0,0.0,0.0,0.0,0.0,0.0,
9.946096000000004,0.0,0.0,23204.0,5.5,0.0,-433.125,0.0,0.25,3.2751461490000002,2.4661255,0.0,-29967.0,7.25,-67.5,-433.125,0.0,0.125,0.526122993,0.01,0.0,1952.0,5.875,7.5,433.125,0.0,0.0,3.3630367650000004,0.01,0.0,-22164.0,6.0,22.5,433.125,0.0,0.25,4.0808101290000005,2.479,0.0,0.1899999976158142,-1.1100000143051147,4.670000076293945,-0.007568359375,0.00335693359375,1.0435791015625,36.36000061035156,0.0,12.0,2.517791748046875,-1.524017333984375,Closing,0.0,0.0,-732.0,0.0,0.0,0.0,0.0,0.0,
10.082396000000008,0.0,0.0,23204.0,7.625,0.0,-433.125,0.0,0.25,3.2739254460000002,2.4661255,0.0,-29979.0,11.375,-22.5,-433.125,0.0,0.125,0.526122993,0.01,0.0,1953.0,9.125,0.0,433.125,0.0,0.0,3.3642574680000004,0.01,0.0,-22159.0,8.125,15.0,433.125,0.0,0.25,4.068603099000001,2.479,0.0,0.18000000715255737,-0.9700000286102295,4.75,0.01751708984375,0.0118408203125,1.01300048828125,36.36000061035156,0.0,35.0,2.5182952880859375,-1.5241241455078125,Closing,0.0,0.0,-732.0,0.0,0.0,0.0,0.0,0.0,
10.214241999999999,0.0,0.0,23211.0,0.0,45.0,0.0,0.0,0.25,3.2751461490000002,2.4661255,0.0,-29968.0,0.125,90.0,0.0,0.0,0.125,0.526122993,0.01,0.0,1950.0,0.125,-15.0,0.0,0.0,0.0,3.3630367650000004,0.01,0.0,-22170.0,0.125,-90.0,0.0,0.0,0.25,4.06494099,2.479,0.0,0.30000001192092896,-1.2699999809265137,4.539999961853027,0.15948486328125,-0.0406494140625,0.98626708984375,36.36000061035156,0.0,177.0,2.5141143798828125,-1.5233306884765625,Closing,0.0,0.0,-732.0,0.0,0.0,0.0,0.0,0.0,
10.346978000000004,0.0,0.0,23214.0,0.125,15.0,-196.875,0.0,2.125,3.493651986,3.0159423668524887,0.0,-29958.0,0.125,52.5,196.875,0.0,2.625,0.279540987,4.410439589772222,0.0,1947.0,0.5,-22.5,196.875,0.0,1.75,3.284911773,4.389674732977289,0.0,-22180.0,0.375,-45.0,-196.875,0.0,2.0,4.354247601,3.0316872062785585,0.0,0.20999999344348907,-0.8399999737739563,4.510000228881836,-0.0389404296875,0.013671875,1.0264892578125,36.369998931884766,0.0,-22.0,2.512054443359375,-1.5227813720703125,Closing,0.0,0.0,-732.0,0.0,0.0,0.0,0.0,0.0,
10.482675000000002,0.0,0.0,23203.0,2.875,-67.5,-689.0625,0.0,0.625,3.825683202,3.0159423668524887,0.0,-29925.0,2.875,225.0,689.0625,0.0,0.5,4.881591297,4.410439589772222,0.0,1952.0,3.5,37.5,689.0625,0.0,0.5,2.7954098700000003,4.389674732977289,0.0,-22202.0,1.375,-172.5,-689.0625,0.0,0.625,4.676513193,3.031687206278559,0.0,0.1899999976158142,-1.0700000524520874,4.010000228881836,-0.0096435546875,0.11627197265625,1.03125,36.369998931884766,0.0,17.0,2.510498046875,-1.5237884521484375,Closing,0.0,0.0,-732.0,0.0,0.0,0.0,0.0,0.0,
10.613075000000011,0.0,0.0,23198.0,0.0,-7.5,0.0,0.0,0.25,3.8977046790000003,3.0159423668524887,0.0,-29910.0,0.125,67.5,0.0,0.0,0.25,4.790038572,4.410439589772222,0.0,1957.0,0.125,7.5,0.0,0.0,0.0,2.6977536300000002,4.389674732977289,0.0,-22226.0,0.125,-60.0,0.0,0.0,0.25,4.796142087000001,3.031687206278559,0.0,0.18000000715255737,-0.8299999833106995,2.259999990463257,-0.087890625,-0.0147705078125,1.122314453125,36.369998931884766,0.0,-72.0,2.5123138427734375,-1.523956298828125,Closing,0.0,0.0,-732.0,0.0,0.0,0.0,0.0,0.125,
10.748184000000009,0.0,0.0,23181.0,9.375,-172.5,-1624.21875,0.0,0.375,3.908691006,3.0159423668524887,0.0,-29900.0,14.25,187.5,1624.21875,0.0,0.25,4.788817869,4.410439589772222,0.0,1958.0,11.125,15.0,1624.21875,0.0,0.125,2.6928708180000003,4.389674732977289,0.0,-22229.0,9.125,-180.0,-1624.21875,0.0,0.5,4.802245602,3.0316872062785585,0.0,0.38999998569488525,-0.8500000238418579,1.2899999618530273,0.20294189453125,-0.11810302734375,0.92352294921875,36.369998931884766,0.0,213.0,2.514495849609375,-1.52459716796875,Closing,0.0,0.0,-732.0,0.0,0.0,0.0,0.0,0.125,
10.877623000000007,0.0,0.0,23136.0,0.0,-157.5,0.0,0.0,0.25,3.854980074,3.0159423668524887,0.0,-29831.0,0.125,255.0,0.0,0.0,0.25,4.822997553,4.410439589772222,0.0,1987.0,0.125,180.0,0.0,0.0,0.125,2.756347374,4.389674732977289,0.0,-22284.0,0.125,-270.0,0.0,0.0,0.25,4.691161629000001,3.0316872062785585,0.0,0.15000000596046448,-0.9700000286102295,-3.450000047683716,0.130126953125,0.188232421875,0.89227294921875,36.40999984741211,0.0,133.0,2.516357421875,-1.531951904296875,Closing,0.0,0.0,-732.0,0.0,0.0,0.0,0.0,0.0,
11.014558000000005,0.0,0.0,23128.0,0.0,-82.5,0.0,0.0,0.25,3.8305660140000004,3.0159423668524887,0.0,-29810.0,0.125,105.0,0.0,0.0,0.25,4.896239733000001,4.410439589772222,0.0,1992.0,0.125,30.0,0.0,0.0,0.0,2.77099581,4.389674732977289,0.0,-22327.0,0.125,-187.5,0.0,0.0,0.25,4.641112806000001,3.0316872062785585,0.0,0.23999999463558197,-0.6399999856948853,-4.849999904632568,-0.02154541015625,-0.08203125,1.0433349609375,36.40999984741211,0.0,-2.0,2.5188751220703125,-1.53515625,Closing,0.0,0.0,-732.0,0.0,0.0,0.0,0.0,0.0,
11.14875,0.0,0.0,23123.0,0.0,0.0,0.0,0.0,0.25,3.8403316380000003,3.0159423668524887,0.0,-29805.0,0.125,0.0,0.0,0.0,0.125,4.9206537930000005,4.410439589772222,0.0,1994.0,0.125,0.0,0.0,0.0,0.0,2.777099325,4.389674732977289,0.0,-22333.0,0.125,7.5,0.0,0.0,0.125,4.641112806000001,3.0316872062785585,0.0,0.30000001192092896,-0.7300000190734863,-4.0,0.027099609375,-0.001953125,1.0709228515625,36.40999984741211,0.0,41.0,2.5167083740234375,-1.5396881103515625,Closing,0.0,0.0,-732.0,0.0,0.0,0.0,0.0,0.0,
11.281013000000007,0.0,0.0,23123.0,0.125,0.0,-180.46875,0.0,0.25,3.8403316380000003,3.0159423668524887,0.0,-29804.0,0.25,0.0,180.46875,0.0,0.0,4.9206537930000005,4.410439589772222,0.0,1994.0,0.375,0.0,180.46875,0.0,0.0,2.775878622,4.389674732977289,0.0,-22332.0,0.375,15.0,-180.46875,0.0,0.125,4.641112806000001,3.031687206278559,0.0,0.2199999988079071,-0.7799999713897705,-3.9000000953674316,-0.02557373046875,0.03216552734375,1.0343017578125,36.40999984741211,0.0,15.0,2.51611328125,-1.54144287109375,Closing,0.0,0.0,-732.0,0.0,0.0,0.0,0.0,0.125,
11.414559999999998,0.0,0.0,23105.0,1.0,-120.0,-475.78125,0.0,0.25,3.8452144500000003,3.0159423668524887,0.0,-29789.0,2.0,90.0,475.78125,0.0,0.0,4.9206537930000005,4.410439589772222,0.0,1994.0,1.625,0.0,475.78125,0.0,0.0,2.775878622,4.389674732977289,0.0,-22337.0,1.625,-30.0,-475.78125,0.0,0.125,4.641112806000001,3.0316872062785585,0.0,0.25,-0.6899999976158142,-4.300000190734863,0.03863525390625,-0.04254150390625,0.94891357421875,36.40999984741211,0.0,53.0,2.5169525146484375,-1.5411376953125,Closing,0.0,0.0,-732.0,0.0,0.0,0.0,0.0,0.0,
11.547128000000011,0.0,0.0,23101.0,0.0,-22.5,0.0,0.0,0.25,3.8342281230000004,3.0159423668524887,0.0,-29784.0,0.125,22.5,0.0,0.0,0.0,4.9206537930000005,4.410439589772222,0.0,2002.0,0.125,45.0,0.0,0.0,0.0,2.777099325,4.389674732977289,0.0,-22345.0,0.125,-37.5,0.0,0.0,0.125,4.639892103,3.0316872062785585,0.0,0.25999999046325684,-0.699999988079071,-5.110000133514404,-0.05059814453125,0.02532958984375,1.0670166015625,36.40999984741211,0.0,-39.0,2.5182037353515625,-1.5414581298828125,Closing,0.0,0.0,-732.0,0.0,0.0,0.0,0.0,0.0,
11.679881999999997,0.0,0.0,23076.0,14.375,-150.0,-1870.3125,0.0,0.25,3.854980074,3.0159423668524887,0.0,-29756.0,22.125,240.0,1870.3125,0.0,0.0,4.916991684,4.410439589772222,0.0,2006.0,16.125,37.5,1870.3125,0.0,0.0,2.775878622,4.389674732977289,0.0,-22364.0,13.25,-157.5,-1870.3125,0.0,0.125,4.641112806000001,3.0316872062785585,0.0,0.3700000047683716,-0.7300000190734863,-6.610000133514404,-0.099853515625,0.0865478515625,1.29339599609375,36.40999984741211,0.0,-91.0,2.5193634033203125,-1.54071044921875,Closing,0.0,0.0,-732.0,0.0,0.0,0.0,0.0,0.0,
11.745589000000008,0.0,0.0,23076.0,5.25,-375.0,-278.90625,0.0,0.25,3.8354488260000004,3.0159423668524887,0.0,-29756.0,11.0,457.5,278.90625,0.0,0.0,4.9230951990000005,4.410439589772222,0.0,2006.0,9.125,240.0,278.90625,0.0,0.0,2.777099325,4.389674732977289,0.0,-22364.0,10.375,-397.5,-278.90625,0.0,0.125,4.631347182,3.0316872062785585,0.0,0.2800000011920929,-0.7099999785423279,-10.75,0.00494384765625,0.04888916015625,0.966796875,36.40999984741211,0.0,8.0,2.51934814453125,-1.53973388671875,Closing,0.0,0.0,-732.0,0.0,0.0,0.0,0.0,0.125,
11.816199000000008,0.0,0.0,22997.0,0.25,-495.0,0.0,0.0,0.25,3.8354488260000004,3.0159423668524887,-0.018310544999999845,-29664.0,0.625,585.0,0.0,0.0,0.0,4.921874496,4.410439589772222,-0.0012207030000004337,2070.0,1.0,450.0,0.0,0.0,0.0,2.775878622,4.389674732977289,0.0,-22450.0,0.25,-585.0,0.0,0.0,0.25,4.606933122,3.0316872062785585,0.0,0.3499999940395355,-0.5699999928474426,-14.399999618530273,-0.021240234375,0.04229736328125,0.98577880859375,36.40999984741211,0.0,-19.0,2.5193939208984375,-1.539581298828125,Closing,0.0,0.0,-732.0,0.0,0.0,0.0,0.0,0.0,
11.873023000000002,0.0,0.0,22997.0,0.0,-345.0,0.0,0.0,0.25,3.8354488260000004,3.0159423668524887,0.0,-29604.0,0.125,480.0,0.0,0.0,0.0,4.9206537930000005,4.410439589772222,0.0,2099.0,0.125,210.0,0.0,0.0,0.0,2.775878622,4.389674732977289,0.0,-22508.0,0.125,-390.0,0.0,0.0,0.25,4.57763625,3.0316872062785585,-0.02563476299999934,0.3700000047683716,-0.4699999988079071,-18.059999465942383,-0.048583984375,-0.05133056640625,0.7738037109375,36.40999984741211,0.0,-22.0,2.5195159912109375,-1.5391082763671875,Closing,0.0,0.0,-732.0,0.0,0.0,0.0,0.0,0.0,
11.939678,0.0,0.0,22950.0,0.0,-285.0,0.0,0.0,0.25,3.8354488260000004,3.0159423668524887,0.0,-29604.0,0.125,315.0,0.0,0.0,0.0,4.9206537930000005,4.410439589772222,0.0,2099.0,0.125,112.5,0.0,0.0,0.0,2.777099325,4.389674732977289,0.0,-22508.0,0.125,-330.0,0.0,0.0,0.25,4.591063983000001,3.0316872062785585,-0.02929687200000064,0.33000001311302185,-0.5400000214576721,-20.059999465942383,-0.01580810546875,0.1162109375,0.8924560546875,36.40999984741211,0.0,-44.0,2.5196685791015625,-1.539276123046875,Closing,0.0,0.0,-732.0,0.0,0.0,0.0,0.0,0.0,
12.08089700000001,0.0,0.0,22908.0,0.0,-172.5,0.0,0.0,0.25,3.8342281230000004,3.0159423668524887,0.0,-29557.0,0.125,217.5,0.0,0.0,0.0,4.9206537930000005,4.410439589772222,0.0,2114.0,0.125,60.0,0.0,0.0,0.0,2.775878622,4.389674732977289,0.0,-22552.0,0.125,-180.0,0.0,0.0,0.25,4.632567885,3.0316872062785585,0.0,0.4000000059604645,-0.47999998927116394,-23.09000015258789,-0.051025390625,0.0162353515625,1.13800048828125,36.40999984741211,0.0,-41.0,2.5194549560546875,-1.53961181640625,Closing,0.0,0.0,-732.0,0.0,0.0,0.0,0.0,0.125,
12.217626000000005,0.0,0.0,22893.0,0.0,-22.5,0.0,0.0,0.25,3.8366695290000004,3.0159423668524887,0.0,-29536.0,0.125,15.0,0.0,0.0,0.0,4.926757308,4.410439589772222,0.0,2126.0,0.125,15.0,0.0,0.0,0.0,2.775878622,4.389674732977289,0.0,-22575.0,0.125,-15.0,0.0,0.0,0.25,4.644774915,3.0316872062785585,0.0,0.3199999928474426,-0.4399999976158142,-22.989999771118164,-0.0113525390625,0.02142333984375,1.08026123046875,36.40999984741211,0.0,-8.0,2.5197296142578125,-1.5394287109375,Closing,0.0,0.0,-732.0,0.0,0.0,0.0,0.0,0.0,
12.34723000000001,0.0,0.0,22893.0,0.0,0.0,0.0,0.0,0.25,3.8354488260000004,3.0159423668524887,0.0,-29536.0,0.125,0.0,0.0,0.0,0.0,4.9255366050000005,4.410439589772222,0.0,2126.0,0.125,0.0,0.0,0.0,0.0,2.777099325,4.389674732977289,0.0,-22575.0,0.125,0.0,0.0,0.0,0.125,4.647216321,3.0316872062785585,0.0,0.3700000047683716,-0.5,-22.670000076293945,-0.014892578125,-0.00274658203125,1.09552001953125,36.40999984741211,0.0,-1.0,2.519195556640625,-1.539337158203125,Closing,0.0,0.0,-732.0,0.0,0.0,0.0,0.0,0.125,
12.478121,0.0,0.0,22893.0,0.0,0.0,0.0,0.0,0.25,3.8366695290000004,3.0159423668524887,0.0,-29536.0,0.125,0.0,0.0,0.0,0.0,4.924315902,4.410439589772222,0.0,2126.0,0.125,0.0,0.0,0.0,0.0,2.775878622,4.389674732977289,0.0,-22575.0,0.125,0.0,0.0,0.0,0.125,4.644774915,3.0316872062785585,0.0,0.3499999940395355,-0.47999998927116394,-22.84000015258789,-0.01416015625,0.01885986328125,1.0350341796875,36.40999984741211,0.0,-9.0,2.519195556640625,-1.539337158203125,Closing,0.0,0.0,-732.0,0.0,0.0,0.0,0.0,0.0,
12.613156000000002,0.0,0.0,22949.0,15.5,255.0,2100.0,0.0,0.25,3.8476558560000003,3.015942366852486,0.0,-29597.0,25.125,-277.5,-2100.0,0.0,0.0,4.9255366050000005,4.41043958977222,0.0,2107.0,18.625,-82.5,-2100.0,0.0,0.0,2.814941118,4.389674732977291,0.0,-22536.0,14.875,247.5,2100.0,0.0,0.125,4.641112806000001,3.031687206278561,0.0,0.17000000178813934,-0.5299999713897705,-20.0,0.0352783203125,-0.12811279296875,0.93865966796875,36.40999984741211,0.0,86.0,2.5186614990234375,-1.542877197265625,Closing,0.0,0.0,-732.0,0.0,0.0,0.0,0.0,0.0,
12.746437000000006,0.0,0.0,23021.0,0.0,457.5,0.0,0.0,0.25,3.854980074,3.015942366852486,0.0,-29678.0,0.125,-457.5,0.0,0.0,0.0,4.930419417,4.41043958977222,0.0,2074.0,0.125,-210.0,0.0,0.0,0.125,2.785644246,4.389674732977291,0.0,-22463.0,0.125,427.5,0.0,0.0,0.125,4.694823738,3.031687206278561,0.0,0.3100000023841858,-0.7200000286102295,-11.329999923706055,0.0418701171875,0.07000732421875,1.2919921875,36.40999984741211,0.0,44.0,2.51739501953125,-1.5491790771484375,Closing,0.0,0.0,-732.0,0.0,0.0,0.0,0.0,0.0,
12.785899000000004,0.0,0.0,23021.0,0.0,465.0,0.0,0.0,0.25,3.854980074,3.015942366852486,0.018310544999999845,-29678.0,0.125,-555.0,0.0,0.0,0.125,4.929198714,4.41043958977222,0.003662109000000413,2074.0,0.125,-195.0,0.0,0.0,0.0,2.7905270580000003,4.389674732977291,-0.029296871999999752,-22463.0,0.125,502.5,0.0,0.0,0.25,4.694823738,3.031687206278561,0.05371093200000043,0.30000001192092896,-0.7699999809265137,-8.369999885559082,-0.0250244140625,0.032470703125,1.20281982421875,36.40999984741211,0.0,-12.0,2.517486572265625,-1.553802490234375,Closing,0.0,0.0,-732.0,0.0,0.0,0.0,0.0,0.0,
12.86927900000001,0.0,0.0,23097.0,0.0,435.0,0.0,0.0,0.25,3.856200777,3.015942366852486,0.0,-29749.0,0.125,-375.0,0.0,0.0,0.125,4.927978011,4.41043958977222,0.0,2014.0,0.125,-405.0,0.0,0.0,0.0,2.7905270580000003,4.389674732977291,0.0,-22391.0,0.125,405.0,0.0,0.0,0.25,4.689940926,3.031687206278561,0.0,0.3400000035762787,-0.7599999904632568,-5.860000133514404,0.02618408203125,0.14788818359375,1.080810546875,36.40999984741211,0.0,25.0,2.517578125,-1.558746337890625,Closing,0.0,0.0,-732.0,0.0,0.0,0.0,0.0,0.0,
12.946948000000004,0.0,0.0,23097.0,0.0,352.5,0.0,0.0,0.25,3.854980074,3.015942366852486,0.0,-29749.0,0.125,-255.0,0.0,0.0,0.125,4.929198714,4.41043958977222,0.0,2014.0,0.125,-270.0,0.0,0.0,0.0,2.785644246,4.389674732977291,0.0,-22391.0,0.125,360.0,0.0,0.0,0.25,4.685058114,3.031687206278561,-0.006103514999999504,0.30000001192092896,-0.6800000071525574,-3.859999895095825,0.03759765625,0.01409912109375,1.00738525390625,36.40999984741211,0.0,48.0,2.518280029296875,-1.5633544921875,Closing,0.0,0.0,-732.0,0.0,0.0,0.0,0.0,0.0,
13.017983000000008,0.0,0.0,23145.0,0.0,262.5,0.0,0.0,0.25,3.853759371,3.015942366852486,0.0,-29792.0,0.125,-232.5,0.0,0.0,0.125,4.935302229,4.41043958977222,0.0,1981.0,0.125,-202.5,0.0,0.0,0.0,2.785644246,4.389674732977291,0.0,-22339.0,0.125,232.5,0.0,0.0,0.25,4.680175302,3.031687206278561,0.0,0.3400000035762787,-0.7300000190734863,-1.4500000476837158,-0.029052734375,0.01995849609375,1.10968017578125,36.40999984741211,0.0,-15.0,2.519012451171875,-1.5689239501953125,Closing,0.0,0.0,-732.0,0.0,0.0,0.0,0.0,0.0,
13.132027000000003,0.0,0.0,23165.0,0.0,97.5,0.0,0.0,0.25,3.853759371,3.015942366852486,0.0,-29812.0,0.125,-60.0,0.0,0.0,0.125,4.935302229,4.41043958977222,0.0,1957.0,0.125,-82.5,0.0,0.0,0.0,2.785644246,4.389674732977291,0.0,-22315.0,0.125,82.5,0.0,0.0,0.25,4.680175302,3.031687206278561,0.0,0.33000001311302185,-0.6600000262260437,-0.9700000286102295,0.0130615234375,0.02972412109375,1.00335693359375,36.40999984741211,0.0,24.0,2.5190887451171875,-1.5694427490234375,Closing,0.0,0.0,-732.0,0.0,0.0,0.0,0.0,0.125,
13.216105000000011,0.0,0.0,23167.0,0.0,15.0,0.0,0.0,0.25,3.853759371,3.015942366852486,0.0,-29814.0,0.125,-7.5,0.0,0.0,0.125,4.935302229,4.41043958977222,0.0,1956.0,0.125,-15.0,0.0,0.0,0.0,2.7868649490000004,4.389674732977291,0.0,-22313.0,0.125,0.0,0.0,0.0,0.25,4.680175302,3.031687206278561,0.0,0.3400000035762787,-0.6600000262260437,-1.1699999570846558,-0.02337646484375,-0.001708984375,1.01922607421875,36.40999984741211,0.0,-11.0,2.5191650390625,-1.5695037841796875,Closing,0.0,0.0,-732.0,0.0,0.0,0.0,0.0,0.0,
13.350133000000001,0.0,0.0,23167.0,0.0,0.0,0.0,0.0,0.25,3.853759371,3.015942366852486,0.0,-29814.0,0.125,0.0,0.0,0.0,0.125,4.934081526,4.41043958977222,0.0,1956.0,0.125,0.0,0.0,0.0,0.0,2.785644246,4.389674732977291,0.0,-22313.0,0.125,0.0,0.0,0.0,0.25,4.680175302,3.031687206278561,0.0,0.33000001311302185,-0.6600000262260437,-1.590000033378601,-0.001953125,0.0096435546875,1.01397705078125,36.41999816894531,0.0,9.0,2.5191650390625,-1.5695037841796875,Closing,0.0,0.0,-732.0,0.0,0.0,0.0,0.0,0.0,
13.47885500000001,0.0,0.0,23167.0,0.0,0.0,0.0,0.0,0.25,3.853759371,3.015942366852486,0.0,-29814.0,0.125,0.0,0.0,0.0,0.125,4.934081526,4.41043958977222,0.0,1956.0,0.125,0.0,0.0,0.0,0.0,2.785644246,4.389674732977291,0.0,-22313.0,0.125,0.0,0.0,0.0,0.25,4.678954599,3.031687206278561,0.0,0.3100000023841858,-0.6800000071525574,-1.5700000524520874,-0.0130615234375,0.00372314453125,1.0333251953125,36.41999816894531,0.0,0.0,2.5191650390625,-1.5695037841796875,Closing,0.0,0.0,-732.0,0.0,0.0,0.0,0.0,0.0,
13.61372600000001,0.0,0.0,23167.0,0.0,0.0,0.0,0.0,0.25,3.854980074,3.015942366852486,0.0,-29814.0,0.125,0.0,0.0,0.0,0.125,4.935302229,4.41043958977222,0.0,1956.0,0.125,0.0,0.0,0.0,0.0,2.785644246,4.389674732977291,0.0,-22313.0,0.125,0.0,0.0,0.0,0.25,4.680175302,3.031687206278561,0.0,0.3100000023841858,-0.6600000262260437,-1.5700000524520874,-0.01837158203125,0.00360107421875,1.0360107421875,36.41999816894531,0.0,-6.0,2.5191650390625,-1.5695037841796875,Closing,0.0,0.0,-732.0,0.0,0.0,0.0,0.0,0.0,
13.745878000000012,0.0,0.0,23167.0,0.0,0.0,0.0,0.0,0.25,3.854980074,3.015942366852486,0.0,-29814.0,0.125,0.0,0.0,0.0,0.125,4.932860823,4.41043958977222,0.0,1956.0,0.125,0.0,0.0,0.0,0.0,2.785644246,4.389674732977291,0.0,-22313.0,0.125,0.0,0.0,0.0,0.25,4.680175302,3.031687206278561,0.0,0.30000001192092896,-0.6600000262260437,-1.5700000524520874,-0.0074462890625,0.00335693359375,1.0169677734375,36.41999816894531,0.0,4.0,2.5191650390625,-1.5695037841796875,Closing,0.0,0.0,-732.0,0.0,0.0,0.0,0.0,0.0,
13.885096000000004,0.0,0.0,23167.0,0.125,0.0,-177.18749999999997,0.0,0.875,3.455810193,2.4661255,0.0,-29814.0,0.125,0.0,-177.18749999999997,0.0,0.75,0.380859336,0.01,0.0,1956.0,0.375,0.0,177.18749999999997,0.0,0.875,3.2202145140000002,0.01,0.0,-22313.0,0.375,15.0,177.18749999999997,0.0,1.0,4.261474173,2.479,0.0,0.25999999046325684,-0.6600000262260437,-1.600000023841858,-9.765625E-4,-0.026611328125,0.96575927734375,36.41999816894531,0.0,11.0,2.51910400390625,-1.570404052734375,Closing,0.0,0.0,-732.0,0.0,0.0,0.0,0.0,0.0,
14.016099000000002,0.0,0.0,23164.0,0.125,-15.0,-216.5625,0.0,0.25,3.2116695930000003,2.4661255,0.0,-29820.0,0.125,-105.0,-216.5625,0.0,0.5,0.599365173,0.01,0.0,1956.0,0.5,0.0,216.5625,0.0,0.25,3.4118648850000004,0.01,0.0,-22305.0,0.5,52.5,216.5625,0.0,0.25,3.9953609190000003,2.479,0.0,0.3100000023841858,-0.6399999856948853,-1.809999942779541,0.004638671875,-0.00811767578125,1.0035400390625,36.41999816894531,0.0,16.0,2.518951416015625,-1.5717315673828125,Closing,0.0,0.0,-732.0,0.0,0.0,0.0,0.0,0.0,
14.084766000000004,0.0,0.0,23164.0,0.75,0.0,-295.3125,0.0,0.375,3.226318029,2.4661255,0.0,-29836.0,0.5,-97.5,-295.3125,0.0,0.25,0.574951113,0.01,0.0,1956.0,1.125,0.0,295.3125,0.0,0.375,3.403319964,0.01,0.0,-22299.0,0.75,30.0,295.3125,0.0,0.375,4.0258784940000005,2.479,0.0,0.28999999165534973,-0.6299999952316284,-1.75,0.00799560546875,-0.001708984375,1.0322265625,36.41999816894531,0.0,19.0,2.518951416015625,-1.5717315673828125,Closing,0.0,0.0,-732.0,0.0,0.0,0.0,0.0,0.125,
