Time,ClimberA1,ClimberA2,FRpos,FRCurrent,FRspeed,FRsetpoint,FRApos,FRACurrent,FREncpos,FREncSetpoint,FREncSpeed,FLpos,FLCurrent,FLspeed,FLsetpoint,FLApos,FLACurrent,FLEncpos,FLEncSetpoint,FLEncSpeed,BRpos,BRCurrent,BRspeed,BRsetpoint,BRApos,BRACurrent,BREncpos,BREncSetpoint,BREncSpeed,BLpos,BLCurrent,BLspeed,BLsetpoint,BLApos,BLACurrent,BLEncpos,BLEncSetpoint,BLEncSpeed,navx_Pitch,navx_Roll,navx_Yaw,navx_XAcc,navx_YAcc,navx_ZAcc,navx_Temp,navx_Bar,navx_Alt,navx_XDis,navx_YDis,GearPlacerState,ShootOutputV,ShootOutputCurrent,ShootEncPos,ShootEncVelocity,ShootSpeed,ShootSetpoint,CarouselSetpoint,CarouselCurrent,
0.559579000000027,0.0,0.0,-3870.0,0.0,0.0,0.0,0.0,0.125,0.822753822,0.01,0.0,2403.0,0.0,0.0,0.0,0.0,0.125,0.539550726,0.01,0.0,-2967.0,0.0,0.0,0.0,0.0,0.125,3.391112934,0.01,0.0,2356.0,0.0,0.0,0.0,0.0,0.25,1.6015623360000002,0.01,0.0,0.10000000149011612,-1.0,52.90999984741211,-0.01971435546875,0.0042724609375,1.02008056640625,37.279998779296875,0.0,0.0,-0.1794281005859375,-0.0666351318359375,Closing,0.0,0.0,0.0,0.0,0.0,0.0,0.0,0.125,
0.62075,0.0,0.0,-3870.0,0.75,0.0,840.0,0.0,0.125,0.822753822,0.01,0.0,2403.0,1.125,0.0,-840.0,0.0,0.125,0.539550726,0.01,0.0,-2967.0,0.75,0.0,840.0,0.0,0.125,3.391112934,0.01,0.0,2356.0,0.75,0.0,-840.0,0.0,0.25,1.6027830390000002,0.01,0.0,0.10000000149011612,-1.0,52.900001525878906,-0.0223388671875,0.009521484375,1.02459716796875,37.279998779296875,0.0,3.0,-0.1794281005859375,-0.0666351318359375,Closing,0.0,0.0,0.0,0.0,0.0,0.0,0.0,0.0,
0.6689820000000182,0.0,0.0,-3845.0,2.0,82.5,840.0,0.0,0.125,0.809326089,4.932114016023943,0.0012207030000004337,2374.0,3.25,-105.0,-840.0,0.0,0.125,0.534667914,4.96363214064312,0.0,-2946.0,2.0,52.5,840.0,0.0,0.125,3.3776852010000002,4.940262789700826,0.0,2334.0,1.625,-60.0,-840.0,0.0,0.25,1.6113279600000001,4.9578623008939955,0.0,0.05000000074505806,-0.8600000143051147,52.91999816894531,0.16156005859375,0.02716064453125,1.07757568359375,37.279998779296875,0.0,128.0,-0.179290771484375,-0.0667572021484375,Closing,0.0,0.0,0.0,0.0,0.0,0.0,0.0,0.0,
0.7083560000000289,0.0,0.0,-3845.0,2.375,142.5,840.0000000000001,0.0,0.125,0.812988198,0.01,-0.004882811999999959,2374.0,5.125,-225.0,-840.0000000000001,0.0,0.25,0.57373041,0.01,0.008544921000000372,-2946.0,2.25,187.5,840.0000000000001,0.0,0.125,3.387450825,0.01,-0.004882811999999959,2334.0,2.5,-157.5,-840.0000000000001,0.0,0.125,1.616210772,0.01,0.014648435999999876,0.05999999865889549,-0.5199999809265137,52.970001220703125,0.13775634765625,-0.077880859375,0.94256591796875,37.279998779296875,0.0,25.0,-0.178375244140625,-0.0677490234375,Closing,0.0,0.0,0.0,0.0,0.0,0.0,0.0,0.0,
0.7403630000000121,0.0,0.0,-3845.0,3.125,195.0,840.0,0.0,0.125,0.812988198,0.01,-0.0012207030000004337,2374.0,5.875,-225.0,-840.0,0.0,0.25,0.572509707,0.01,0.025634763000000227,-2946.0,2.5,255.0,840.0,0.0,0.125,3.382568013,0.01,0.0,2334.0,2.75,-187.5,-840.0,0.0,0.125,1.627197099,0.01,0.0,0.05000000074505806,-0.3199999928474426,52.970001220703125,0.12225341796875,0.00286865234375,0.864501953125,37.279998779296875,0.0,78.0,-0.1767120361328125,-0.0695037841796875,Closing,0.0,0.0,0.0,0.0,0.0,0.0,0.0,0.125,
0.7877239999999874,0.0,0.0,-3845.0,3.25,157.5,840.0,0.0,0.125,0.812988198,0.01,0.0,2346.0,7.25,-172.5,-840.0,0.0,0.25,0.57373041,0.01,0.0,-2919.0,3.875,157.5,840.0,0.0,0.125,3.3618160620000004,0.01,-0.004882811999999959,2310.0,4.0,-165.0,-840.0,0.0,0.125,1.6613767830000001,0.01,-4.942130861,0.07999999821186066,-0.009999999776482582,52.959999084472656,0.14190673828125,0.0185546875,0.87579345703125,37.290000915527344,0.0,99.0,-0.17291259765625,-0.073150634765625,Closing,0.0,0.0,0.0,0.0,0.0,0.0,0.0,0.0,
0.8479189999999944,0.0,0.0,-3821.0,4.875,202.5,840.0000000000001,0.0,0.125,0.808105386,0.01,0.0,2346.0,9.0,-232.5,-840.0000000000001,0.0,0.25,0.5798339250000001,0.01,-0.0012207030000004337,-2919.0,4.625,150.0,840.0000000000001,0.0,0.0,3.35693325,0.01,-0.019531247999999835,2310.0,4.625,-240.0,-840.0000000000001,0.0,0.25,1.667480298,0.01,0.028076168999999984,0.10000000149011612,0.12999999523162842,52.939998626708984,0.1104736328125,-0.02557373046875,1.0709228515625,37.290000915527344,0.0,43.0,-0.1701812744140625,-0.0758514404296875,Closing,0.0,0.0,0.0,0.0,0.0,0.0,0.0,0.0,
0.9049270000000251,0.0,0.0,-3821.0,5.25,315.0,840.0000000000001,0.0,0.125,0.8142089010000001,0.01,0.0,2279.0,9.25,-360.0,-840.0000000000001,0.0,0.25,0.57373041,0.01,0.0012207030000004337,-2872.0,5.375,202.5,840.0000000000001,0.0,0.0,3.358153953,0.01,4.9355171879999995,2253.0,4.75,-307.5,-840.0000000000001,0.0,0.25,1.666259595,0.01,0.004882811999999959,0.10000000149011612,0.47999998927116394,52.939998626708984,0.04937744140625,-0.0406494140625,0.99114990234375,37.290000915527344,0.0,-9.0,-0.1630401611328125,-0.0830078125,Closing,0.0,0.0,0.0,0.0,0.0,0.0,0.0,0.0,
0.9337250000000349,0.0,0.0,-3763.0,5.25,390.0,840.0000000000001,0.0,0.125,0.8154296040000001,0.01,0.0,2279.0,8.625,-487.5,-840.0000000000001,0.0,0.25,0.57373041,0.01,0.0012207029999995456,-2872.0,5.5,360.0,840.0000000000001,0.0,0.0,3.35693325,0.01,0.0,2253.0,4.75,-420.0,-840.0000000000001,0.0,0.25,1.666259595,0.01,0.0,0.1599999964237213,0.7699999809265137,52.88999938964844,0.057373046875,-0.03472900390625,0.927734375,37.290000915527344,0.0,-2.0,-0.1539306640625,-0.091827392578125,Closing,0.0,0.0,0.0,0.0,0.0,0.0,0.0,0.0,
0.9926479999999865,0.0,0.0,-3763.0,5.125,517.5,840.0,0.0,0.125,0.8178710100000001,4.931976979783874,0.0012207030000004337,2279.0,7.875,-562.5,-840.0,0.0,0.25,0.57373041,4.96349422868824,-0.0012207029999995456,-2872.0,5.375,442.5,840.0,0.0,0.0,3.35693325,4.94012552705129,0.0,2162.0,4.75,-525.0,-840.0,0.0,0.25,1.665038892,4.957724549251132,-0.0012207029999999897,0.18000000715255737,0.949999988079071,52.84000015258789,0.06475830078125,-0.01409912109375,0.99029541015625,37.290000915527344,0.0,15.0,-0.1461181640625,-0.099456787109375,Closing,0.0,0.0,0.0,0.0,0.0,0.0,0.0,0.125,
1.0495939999999828,0.0,0.0,-3667.0,4.5,585.0,840.0,0.0,0.125,0.8142089010000001,4.931291955375565,0.0,2176.0,7.125,-630.0,-840.0,0.0,0.25,0.572509707,4.96280482670784,0.0,-2789.0,5.25,517.5,840.0,0.0,0.0,3.35693325,4.9394393708546955,0.0012207030000004337,2162.0,4.625,-562.5,-840.0,0.0,0.25,1.6613767830000001,4.957035948647393,0.0012207029999999897,0.11999999731779099,0.9800000190734863,52.810001373291016,0.12420654296875,0.0513916015625,1.098876953125,37.290000915527344,0.0,102.0,-0.1409759521484375,-0.10491943359375,Closing,0.0,0.0,0.0,0.0,0.0,0.0,0.0,0.0,
1.0952189999999828,0.0,0.0,-3667.0,4.375,645.0,840.0,0.0,0.125,0.812988198,4.930469894727188,0.0,2176.0,6.375,-720.0,-840.0,0.0,0.25,0.563964786,4.9619775127725605,0.0,-2789.0,4.75,577.5,840.0,0.0,0.0,3.35693325,4.938615952008566,-0.0012207030000004337,2162.0,4.5,-637.5,-840.0,0.0,0.25,1.6564939710000002,4.95620959640079,-0.009765623999999917,0.1599999964237213,1.2000000476837158,52.68000030517578,0.00946044921875,-0.0745849609375,0.96624755859375,37.290000915527344,0.0,-68.0,-0.1273651123046875,-0.110748291015625,Closing,0.0,0.0,0.0,0.0,0.0,0.0,0.0,0.0,
1.1474910000000382,0.0,0.0,-3549.0,3.5,727.5,840.0,0.0,0.125,0.812988198,4.929099845910571,0.0,2051.0,5.5,-787.5,-840.0,0.0,0.25,0.559081974,4.96059870881176,-0.009765624000000805,-2697.0,4.75,622.5,840.0,0.0,0.0,3.358153953,4.937243639615377,0.0,2049.0,4.0,-712.5,-840.0,0.0,0.25,1.650390456,4.9548323951933115,0.0,0.12999999523162842,1.25,52.56999969482422,0.01837158203125,-0.036376953125,1.08477783203125,37.290000915527344,0.0,-34.0,-0.1163482666015625,-0.1108245849609375,Closing,0.0,0.0,0.0,0.0,0.0,0.0,0.0,0.125,
1.2048400000000257,0.0,0.0,-3549.0,3.5,772.5,840.0,0.0,0.125,0.812988198,4.9275927608538845,-0.0024414059999999793,2051.0,5.125,-825.0,-840.0,0.0,0.25,0.5554198650000001,4.95908199289608,-0.004882811999999959,-2697.0,4.875,645.0,840.0,0.0,0.0,3.3666988740000003,4.935734064572652,0.0,2049.0,3.875,-757.5,-840.0,0.0,0.25,1.650390456,4.9533174423429704,-0.004882812000000181,0.15000000596046448,1.2999999523162842,52.5099983215332,0.04852294921875,0.0428466796875,1.003173828125,37.290000915527344,0.0,47.0,-0.1107330322265625,-0.1108245849609375,Closing,0.0,0.0,0.0,0.0,0.0,0.0,0.0,0.125,
1.2441770000000252,0.0,0.0,-3549.0,3.125,825.0,840.0,0.0,0.125,0.8142089010000001,4.926222712037267,0.0012207029999995456,2051.0,4.625,-840.0,-840.0,0.0,0.25,0.550537053,4.95770318893528,-0.009765623999999917,-2697.0,4.875,690.0,840.0,0.0,0.0,3.35693325,4.934361752179464,0.0,2049.0,3.625,-802.5,-840.0,0.0,0.25,1.651611159,4.951940241135492,0.0,0.10999999940395355,1.3300000429153442,52.40999984741211,0.0533447265625,0.07586669921875,1.11865234375,37.290000915527344,0.0,74.0,-0.10235595703125,-0.1109161376953125,Closing,0.0,0.0,0.0,0.0,0.0,0.0,0.0,0.0,
1.3092270000000135,0.0,0.0,-3409.0,2.75,877.5,840.0,0.0,0.125,0.812988198,4.9251266311727635,0.0,1912.0,3.875,-870.0,-840.0,0.0,0.25,0.5407714290000001,4.95660010368824,-0.004882811999999959,-2576.0,4.875,712.5,840.0,0.0,0.0,3.3630367650000004,4.933263860384623,0.0,1918.0,3.25,-847.5,-840.0,0.0,0.25,1.6625974860000001,4.950838438140021,0.0,0.09000000357627869,1.2799999713897705,52.310001373291016,0.1138916015625,0.067138671875,0.906494140625,37.2599983215332,0.0,109.0,-0.091094970703125,-0.110626220703125,Closing,0.0,0.0,0.0,0.0,0.0,0.0,0.0,0.0,
1.3571230000000214,0.0,0.0,-3409.0,2.25,915.0,840.0,0.0,0.125,0.809326089,4.923619546116077,0.0,1912.0,3.125,-915.0,-840.0,0.0,0.25,0.5407714290000001,4.95508338777256,-0.004882811999999959,-2576.0,4.875,727.5,840.0,0.0,0.125,3.35693325,4.931754285341899,0.0012207030000004337,1918.0,3.125,-870.0,-840.0,0.0,0.25,1.651611159,4.949323485289679,0.0,0.15000000596046448,1.3200000524520874,52.209999084472656,-0.08404541015625,0.0679931640625,0.83453369140625,37.2599983215332,0.0,-11.0,-0.07916259765625,-0.110443115234375,Closing,0.0,0.0,0.0,0.0,0.0,0.0,0.0,0.0,
1.3983300000000163,0.0,0.0,-3261.0,2.0,922.5,840.0,0.0,0.125,0.8142089010000001,4.9226605014916425,0.0,1763.0,2.75,-930.0,-840.0,0.0,0.25,0.539550726,4.9541182144804,0.0,-2448.0,4.5,855.0,840.0,0.0,0.125,3.35693325,4.930793656196594,-0.0012207030000004337,1773.0,2.5,-900.0,-840.0,0.0,0.25,1.6577146740000002,4.948359433937073,0.0,0.11999999731779099,1.2100000381469727,52.130001068115234,0.1695556640625,0.03314208984375,1.0084228515625,37.2599983215332,0.0,115.0,-0.0706329345703125,-0.1103973388671875,Closing,0.0,0.0,0.0,0.0,0.0,0.0,0.0,0.125,
1.4603780000000262,0.0,0.0,-3261.0,1.625,945.0,840.0,0.0,0.125,0.8142089010000001,4.921564472891151,0.0,1763.0,2.625,-930.0,-840.0,0.0,0.25,0.5407714290000001,4.95301518183136,0.0,-2448.0,3.875,892.5,840.0,0.0,0.125,3.35693325,4.929695816752116,0.0,1773.0,2.0,-922.5,-840.0,0.0,0.25,1.651611159,4.947257683478461,0.0,0.2199999988079071,1.159999966621399,52.04999923706055,0.03515625,-0.05255126953125,1.14398193359375,37.2599983215332,0.0,-37.0,-0.0618743896484375,-0.11004638671875,Closing,0.0,0.0,0.0,0.0,0.0,0.0,0.0,0.0,
1.5001710000000312,0.0,0.0,-3107.0,1.25,960.0,840.0,0.0,0.25,0.8044432770000001,4.920468392026647,0.0,1610.0,2.125,-945.0,-840.0,0.0,0.25,0.5407714290000001,4.95191209658432,0.0,-2300.0,3.5,922.5,840.0,0.0,0.125,3.358153953,4.928597924957276,0.0,1624.0,2.0,-930.0,-840.0,0.0,0.25,1.650390456,4.9461558804829915,0.0,0.17000000178813934,1.1100000143051147,51.95000076293945,0.07806396484375,0.02069091796875,1.2198486328125,37.2599983215332,0.0,46.0,-0.0536651611328125,-0.108978271484375,Closing,0.0,0.0,0.0,0.0,0.0,0.0,0.0,0.125,
1.5373859999999986,0.0,0.0,-3107.0,1.25,952.5,840.0,0.0,0.125,0.8142089010000001,4.91909834321003,0.0,1610.0,1.875,-960.0,-840.0,0.0,0.25,0.5297851020000001,4.95053329262352,-0.004882811999999959,-2300.0,3.25,937.5,840.0,0.0,0.125,3.358153953,4.927225612564087,0.0,1624.0,1.875,-922.5,-840.0,0.0,0.25,1.651611159,4.944778679275513,-0.0012207029999999897,0.1899999976158142,1.0499999523162842,51.880001068115234,0.01251220703125,0.0335693359375,0.93316650390625,37.2599983215332,0.0,21.0,-0.045562744140625,-0.10760498046875,Closing,0.0,0.0,0.0,0.0,0.0,0.0,0.0,0.0,
1.5905939999999827,0.0,0.0,-3107.0,1.25,945.0,840.0,0.0,0.125,0.812988198,4.918139298585595,0.0,1610.0,1.5,-952.5,-840.0,0.0,0.25,0.531005805,4.94956811933136,-0.004882811999999959,-2300.0,3.25,870.0,840.0,0.0,0.125,3.358153953,4.926264983418783,-4.9355171879999995,1477.0,1.625,-915.0,-840.0,0.0,0.25,1.650390456,4.943814627922905,0.0012207029999999897,0.23999999463558197,1.0299999713897705,51.79999923706055,0.109375,-8.544921875E-4,0.874267578125,37.2599983215332,0.0,54.0,-0.0349884033203125,-0.105712890625,Closing,0.0,0.0,0.0,0.0,0.0,0.0,0.0,0.0,
1.6453880000000354,0.0,0.0,-2956.0,1.125,937.5,840.0,0.0,0.125,0.8142089010000001,4.917043217721091,-0.0012207029999995456,1459.0,1.375,-945.0,-840.0,0.0,0.25,0.533447211,4.94846503408432,0.0,-2175.0,3.375,817.5,840.0,0.0,0.125,3.358153953,4.925167091623942,4.9355171879999995,1477.0,1.625,-922.5,-840.0,0.0,0.25,1.650390456,4.942712824927436,0.0012207029999999897,0.25,0.8999999761581421,51.7599983215332,-0.11309814453125,0.16815185546875,1.3026123046875,37.2599983215332,0.0,44.0,-0.029632568359375,-0.1047210693359375,Closing,0.0,0.0,0.0,0.0,0.0,0.0,0.0,0.0,
1.6754060000000173,0.0,0.0,-2956.0,1.125,945.0,840.0,0.0,0.125,0.812988198,4.91649517728884,0.0012207029999995456,1459.0,1.25,-937.5,-840.0,0.0,0.25,0.5297851020000001,4.9479134914608,0.0,-2175.0,4.75,660.0,840.0,0.0,0.125,3.354491844,4.924618145726522,0.0,1477.0,1.375,-922.5,-840.0,0.0,0.25,1.651611159,4.942161923429701,-0.0012207029999999897,0.20000000298023224,0.800000011920929,51.68000030517578,-0.051513671875,0.03472900390625,1.1868896484375,37.2599983215332,0.0,-18.0,-0.0192718505859375,-0.1018218994140625,Closing,0.0,0.0,0.0,0.0,0.0,0.0,0.0,0.0,
1.726655000000028,0.0,0.0,-2956.0,0.875,952.5,840.0,0.0,0.125,0.8142089010000001,4.915399148688349,0.0012207029999995456,1459.0,1.125,-930.0,-840.0,0.0,0.25,0.5297851020000001,4.94681045881176,0.0,-2175.0,5.375,712.5,840.0,0.0,0.125,3.35693325,4.923520306282044,0.0,1330.0,1.375,-922.5,-840.0,0.0,0.25,1.650390456,4.941060172971089,0.0,0.1899999976158142,0.8500000238418579,51.59000015258789,0.03564453125,0.02740478515625,0.84967041015625,37.2599983215332,0.0,33.0,-0.0118408203125,-0.0993194580078125,Closing,0.0,0.0,0.0,0.0,0.0,0.0,0.0,0.0,
1.780777999999991,0.0,0.0,-2804.0,0.875,945.0,840.0,0.0,0.125,0.810546792,4.914166083847788,0.0,1310.0,1.125,-922.5,-840.0,0.0,0.25,0.532226508,4.94556951420784,0.0,-2050.0,5.0,810.0,840.0,0.0,0.125,3.358153953,4.92228520418803,0.0,1330.0,1.25,-915.0,-840.0,0.0,0.25,1.646728347,4.939820670869615,0.0,0.2800000011920929,0.7699999809265137,51.540000915527344,-0.03411865234375,0.016845703125,1.23577880859375,37.2599983215332,0.0,-23.0,-0.00689697265625,-0.0975799560546875,Closing,0.0,0.0,0.0,0.0,0.0,0.0,0.0,0.0,
1.8293520000000134,0.0,0.0,-2804.0,0.75,930.0,840.0,0.0,0.125,0.812988198,4.913481059439479,0.0,1310.0,1.125,-915.0,-840.0,0.0,0.25,0.531005805,4.94488011222744,0.0,-2050.0,4.375,855.0,840.0,0.0,0.125,3.35693325,4.921599047991435,0.0,1330.0,1.25,-922.5,-840.0,0.0,0.25,1.6333006140000002,4.939132070265876,-0.004882811999999959,0.23999999463558197,0.7200000286102295,51.470001220703125,-0.05462646484375,-0.00799560546875,1.10052490234375,37.220001220703125,0.0,-52.0,1.983642578125E-4,-0.0949249267578125,Closing,0.0,0.0,0.0,0.0,0.0,0.0,0.0,0.0,
1.8644309999999824,0.0,0.0,-2804.0,0.75,937.5,840.0,0.0,0.125,0.812988198,4.912522014815044,0.0012207030000004337,1163.0,1.0,-915.0,-840.0,0.0,0.25,0.531005805,4.94391493893528,0.0,-1905.0,4.125,900.0,840.0,0.0,0.125,3.35693325,4.9206384188461305,0.0,1178.0,1.0,-937.5,-840.0,0.0,0.25,1.6357420200000001,4.938168018913269,-0.009765623999999917,0.20000000298023224,0.6100000143051147,51.380001068115234,-0.0821533203125,0.04296875,1.224853515625,37.220001220703125,0.0,-29.0,0.006805419921875,-0.0919189453125,Closing,0.0,0.0,0.0,0.0,0.0,0.0,0.0,0.0,
1.904738000000012,0.0,0.0,-2652.0,0.5,945.0,840.0,0.0,0.125,0.812988198,4.911288949974484,-0.0012207030000004337,1163.0,0.875,-915.0,-840.0,0.0,0.25,0.531005805,4.94267399433136,0.0,-1905.0,3.875,900.0,840.0,0.0,0.125,3.35693325,4.919403316752116,0.0,1178.0,1.0,-945.0,-840.0,0.0,0.25,1.645507644,4.936928516811795,0.0,0.18000000715255737,0.6600000262260437,51.33000183105469,-0.03515625,0.03369140625,0.7567138671875,37.220001220703125,0.0,-3.0,0.0110321044921875,-0.0896148681640625,Closing,0.0,0.0,0.0,0.0,0.0,0.0,0.0,0.0,
1.9332949999999838,0.0,0.0,-2652.0,0.5,937.5,840.0,0.0,0.25,0.812988198,4.910603925566176,0.0,1163.0,0.875,-915.0,-840.0,0.0,0.25,0.526122993,4.94198459235096,0.0,-1905.0,3.75,915.0,840.0,0.0,0.125,3.358153953,4.918717160555522,0.0,1178.0,1.0,-915.0,-840.0,0.0,0.25,1.6357420200000001,4.936239916208056,0.0,0.1899999976158142,0.5600000023841858,51.16999816894531,0.0020751953125,-0.0345458984375,0.864013671875,37.220001220703125,0.0,-33.0,0.0189971923828125,-0.085662841796875,Closing,0.0,0.0,0.0,0.0,0.0,0.0,0.0,0.0,
1.9918209999999963,0.0,0.0,-2504.0,0.5,922.5,840.0,0.0,0.25,0.812988198,4.908411763837168,-0.0012207029999995456,1017.0,0.75,-907.5,-840.0,0.0,0.25,0.5163573690000001,4.9397784218568805,-0.004882811999999959,-1760.0,3.375,922.5,840.0,0.0,0.125,3.352050438,4.916521376965841,-0.004882811999999959,1033.0,1.0,-900.0,-840.0,0.0,0.25,1.6357420200000001,4.934036310217116,0.0,0.1899999976158142,0.4399999976158142,50.970001220703125,0.02215576171875,0.02545166015625,0.86328125,37.220001220703125,0.0,27.0,0.026458740234375,-0.0853424072265625,Closing,0.0,0.0,0.0,0.0,0.0,0.0,0.0,0.0,
2.0498740000000106,0.0,0.0,-2504.0,0.5,915.0,840.0,0.0,0.25,0.8154296040000001,4.905671666203934,0.0012207029999995456,1017.0,0.75,-900.0,-840.0,0.0,0.25,0.511474557,4.93702081393528,-0.009765623999999917,-1760.0,3.375,922.5,840.0,0.0,0.125,3.359374656,4.913776752179464,0.0012207030000004337,1033.0,1.0,-892.5,-840.0,0.0,0.25,1.6357420200000001,4.931281907802158,0.0,0.23000000417232513,0.2800000011920929,50.90999984741211,-0.09765625,0.0059814453125,1.40655517578125,37.220001220703125,0.0,-65.0,0.0301361083984375,-0.0850372314453125,Closing,0.0,0.0,0.0,0.0,0.0,0.0,0.0,0.0,
2.086625,0.0,0.0,-2504.0,0.5,907.5,840.0,0.0,0.25,0.772704999,4.904438601363373,0.0012207029999995456,1017.0,0.625,-900.0,-840.0,0.0,0.25,0.511474557,4.93577986933136,-0.004882811999999959,-1760.0,3.375,907.5,840.0,0.0,0.125,3.358153953,4.9125416500854495,0.004882811999999959,1033.0,1.0,-885.0,-840.0,0.0,0.25,1.643066238,4.930042405700684,0.0,0.20000000298023224,0.36000001430511475,50.86000061035156,0.0421142578125,0.0931396484375,0.64599609375,37.220001220703125,0.0,94.0,0.0334930419921875,-0.0845184326171875,Closing,0.0,0.0,0.0,0.0,0.0,0.0,0.0,0.0,
2.1233819999999834,0.0,0.0,-2360.0,0.5,900.0,840.0,0.0,0.25,0.8166503070000001,4.903890560931121,0.0,873.0,0.625,-900.0,-840.0,0.0,0.25,0.511474557,4.93522832670784,-0.004882811999999959,-1620.0,3.5,870.0,840.0,0.0,0.125,3.358153953,4.911992704188029,0.004882811999999959,891.0,1.0,-885.0,-840.0,0.0,0.25,1.6369627230000001,4.929491504202948,0.0,0.2199999988079071,0.09000000357627869,50.810001373291016,-0.053955078125,-0.06719970703125,1.19317626953125,37.220001220703125,0.0,-91.0,0.03851318359375,-0.0834808349609375,Closing,0.0,0.0,0.0,0.0,0.0,0.0,0.0,0.0,
2.1730900000000255,0.0,0.0,-2360.0,0.5,892.5,840.0,0.0,0.25,0.8276366340000001,4.903205536522813,0.0,873.0,0.625,-892.5,-840.0,0.0,0.25,0.511474557,4.93453892472744,0.0,-1620.0,3.875,810.0,840.0,0.0,0.125,3.353271141,4.911306547991435,-0.0012207030000004337,891.0,1.0,-870.0,-840.0,0.0,0.25,1.644286941,4.928802903599209,0.0,0.23999999463558197,0.03999999910593033,50.75,-0.04644775390625,0.00128173828125,1.24395751953125,37.220001220703125,0.0,-33.0,0.0431365966796875,-0.0821685791015625,Closing,0.0,0.0,0.0,0.0,0.0,0.0,0.0,0.0,
2.233256999999983,0.0,0.0,-2218.0,0.375,885.0,840.0,0.0,0.25,0.871581942,4.901972471682252,-4.922485376,734.0,0.625,-877.5,-840.0,0.0,0.25,0.5163573690000001,4.93329798012352,0.0,-1505.0,4.125,765.0,840.0,0.0,0.125,3.347167626,4.910071445897421,-0.004882811999999959,752.0,1.0,-870.0,-840.0,0.0,0.25,1.6369627230000001,4.927563401497735,0.0,0.2199999988079071,0.009999999776482582,50.59000015258789,-0.06085205078125,-0.0140380859375,1.24224853515625,37.220001220703125,0.0,-53.0,0.0491180419921875,-0.0799407958984375,Closing,0.0,0.0,0.0,0.0,0.0,0.0,0.0,0.0,
2.266679999999993,0.0,0.0,-2218.0,0.375,885.0,840.0,0.0,0.25,0.8276366340000001,4.899917346193313,0.003662108999999969,734.0,0.875,-862.5,-840.0,0.0,0.25,0.511474557,4.93122972158432,0.0,-1505.0,4.625,727.5,840.0,0.0,0.125,3.34472622,4.9080129249572755,0.0,752.0,1.0,-862.5,-840.0,0.0,0.25,1.6320799110000002,4.925497547149658,0.0,0.1599999964237213,-0.029999999329447746,50.5,-0.00653076171875,0.10003662109375,0.85125732421875,37.220001220703125,0.0,71.0,0.05194091796875,-0.07855224609375,Closing,0.0,0.0,0.0,0.0,0.0,0.0,0.0,0.0,
2.2950960000000196,0.0,0.0,-2218.0,0.375,877.5,840.0,0.0,0.25,0.820312416,4.898684281352753,0.0,734.0,0.875,-840.0,-840.0,0.0,0.25,0.511474557,4.9299887769804,0.0,-1505.0,5.0,772.5,840.0,0.0,0.125,3.348388329,4.906777822863261,-0.004882811999999959,752.0,1.25,-832.5,-840.0,0.0,0.25,1.6320799110000002,4.924258045048184,-0.004882811999999959,0.23999999463558197,-0.05000000074505806,50.369998931884766,0.00360107421875,-0.04205322265625,1.0430908203125,37.220001220703125,0.0,-32.0,0.056365966796875,-0.075927734375,Closing,0.0,0.0,0.0,0.0,0.0,0.0,0.0,0.0,
2.3354550000000165,0.0,0.0,-2080.0,0.5,862.5,840.0,0.0,0.25,0.819091713,4.897451216512192,0.0,600.0,1.0,-832.5,-840.0,0.0,0.25,0.511474557,4.92874783237648,0.0,-1365.0,4.625,855.0,840.0,0.0,0.125,3.34472622,4.905542720769247,0.0012207030000004337,621.0,1.25,-817.5,-840.0,0.0,0.25,1.622314287,4.92301854294671,0.0,0.23000000417232513,-0.14000000059604645,50.150001525878906,0.0147705078125,0.03912353515625,0.988525390625,37.16999816894531,0.0,37.0,0.06201171875,-0.072021484375,Closing,0.0,0.0,0.0,0.0,0.0,0.0,0.0,0.125,
2.393189000000013,0.0,0.0,-2080.0,0.5,855.0,840.0,0.0,0.25,0.8178710100000001,4.8944370986628325,4.923706079,600.0,1.125,-825.0,-840.0,0.0,0.25,0.510253854,4.92571445314312,0.0,-1365.0,4.5,862.5,840.0,0.0,0.125,3.348388329,4.90252362303416,-0.0012207030000004337,621.0,1.25,-840.0,-840.0,0.0,0.25,1.618652178,4.919988689782884,4.948234375999999,0.20000000298023224,-0.12999999523162842,50.040000915527344,0.0048828125,-0.031005859375,0.9564208984375,37.16999816894531,0.0,-21.0,0.0646514892578125,-0.0698699951171875,Closing,0.0,0.0,0.0,0.0,0.0,0.0,0.0,0.0,
2.429722000000009,0.0,0.0,-2080.0,0.5,855.0,840.0,0.0,0.25,0.8154296040000001,4.892244989197837,4.923706079,600.0,1.0,-825.0,-840.0,0.0,0.25,0.510253854,4.92350833524704,0.0,-1365.0,4.375,847.5,840.0,0.0,0.125,3.342284814,4.9003278917948405,-0.0012207030000004337,621.0,1.25,-840.0,-840.0,0.0,0.25,1.617431475,4.917785136328803,-0.004882811999999959,0.25,-0.23999999463558197,49.88999938964844,-0.04339599609375,0.05419921875,1.18133544921875,37.16999816894531,0.0,12.0,0.0684814453125,-0.068756103515625,Closing,0.0,0.0,0.0,0.0,0.0,0.0,0.0,0.125,
2.470516000000003,0.0,0.0,-1942.0,0.5,855.0,840.0,0.0,0.25,0.812988198,4.8908748881172075,-0.004882811999999959,468.0,1.125,-825.0,-840.0,0.0,0.25,0.513915963,4.92212947868824,0.0,-1236.0,4.5,810.0,840.0,0.0,0.125,3.347167626,4.89895552705129,0.0,489.0,1.25,-817.5,-840.0,0.0,0.25,1.617431475,4.9164078825844655,-0.004882811999999959,0.2199999988079071,-0.1899999976158142,49.779998779296875,0.0325927734375,-0.006591796875,0.79852294921875,37.16999816894531,0.0,15.0,0.070953369140625,-0.068572998046875,Closing,0.0,0.0,0.0,0.0,0.0,0.0,0.0,0.125,
2.510625999999989,0.0,0.0,-1942.0,0.375,855.0,840.0,0.0,0.25,0.812988198,4.888682778652212,0.0,468.0,1.125,-825.0,-840.0,0.0,0.25,0.510253854,4.91992336079216,0.0,-1236.0,4.75,795.0,840.0,0.0,0.125,3.333739893,4.896759795811971,0.0,489.0,1.375,-795.0,-840.0,0.0,0.25,1.612548663,4.914204329130385,0.0,0.3100000023841858,-0.3100000023841858,49.619998931884766,-0.07135009765625,-0.06280517578125,1.4176025390625,37.16999816894531,0.0,-94.0,0.0720977783203125,-0.06842041015625,Closing,0.0,0.0,0.0,0.0,0.0,0.0,0.0,0.125,
2.553753000000026,0.0,0.0,-1942.0,0.375,855.0,840.0,0.0,0.25,0.826415931,4.887175693595526,0.0,468.0,1.25,-817.5,-840.0,0.0,0.25,0.5163573690000001,4.91840664487648,0.0,-1236.0,4.875,795.0,840.0,0.0,0.125,3.333739893,4.895250220769246,-0.004882811999999959,489.0,1.375,-795.0,-840.0,0.0,0.25,1.6052244450000002,4.912689376280043,-0.004882811999999959,0.28999999165534973,-0.30000001192092896,49.45000076293945,0.00225830078125,0.0140380859375,1.08477783203125,37.16999816894531,0.0,11.0,0.071746826171875,-0.068359375,Closing,0.0,0.0,0.0,0.0,0.0,0.0,0.0,0.0,
2.593171000000031,0.0,0.0,-1806.0,0.375,855.0,840.0,0.0,0.25,0.832519446,4.884024539506097,0.0,337.0,1.125,-817.5,-840.0,0.0,0.25,0.50048823,4.9152353536882405,-0.004882811999999959,-1109.0,5.125,787.5,840.0,0.0,0.125,3.328857081,4.892093860384623,-0.009765623999999917,362.0,1.625,-795.0,-840.0,0.0,0.25,1.6027830390000002,4.909521771473354,-0.004882811999999959,0.3100000023841858,-0.28999999165534973,49.27000045776367,0.02471923828125,-0.0010986328125,1.097900390625,37.16999816894531,0.0,14.0,0.07147216796875,-0.068359375,Closing,0.0,0.0,0.0,0.0,0.0,0.0,0.0,0.0,
2.628609999999986,0.0,0.0,-1806.0,0.375,847.5,840.0,0.0,0.25,0.809326089,4.882380470473353,0.0,337.0,1.375,-817.5,-840.0,0.0,0.25,0.495605418,4.91358077841568,-0.004882811999999959,-1109.0,5.0,795.0,840.0,0.0,0.125,3.330077784,4.890447075042725,-0.009765623999999917,362.0,1.625,-795.0,-840.0,0.0,0.25,1.597900227,4.9078691195170085,-0.004882811999999959,0.28999999165534973,-0.3100000023841858,49.13999938964844,0.03704833984375,-0.0257568359375,0.91595458984375,37.16999816894531,0.0,4.0,0.0711669921875,-0.0683441162109375,Closing,0.0,0.0,0.0,0.0,0.0,0.0,0.0,0.125,
2.6678460000000195,0.0,0.0,-1806.0,0.5,840.0,840.0,0.0,0.25,0.7897948410000001,4.880599365200541,-0.004882811999999959,337.0,1.375,-817.5,-840.0,0.0,0.25,0.48706049700000004,4.91178829118824,-0.004882811999999959,-1109.0,5.0,832.5,840.0,0.0,0.125,3.328857081,4.88866302705129,0.0,362.0,1.875,-795.0,-840.0,0.0,0.25,1.6015623360000002,4.906078715917799,-0.004882811999999959,0.27000001072883606,-0.2800000011920929,48.88999938964844,0.017333984375,0.01611328125,0.88787841796875,37.16999816894531,0.0,23.0,0.070281982421875,-0.0686798095703125,Closing,0.0,0.0,0.0,0.0,0.0,0.0,0.0,0.0,
2.7265810000000057,0.0,0.0,-1670.0,0.5,840.0,840.0,0.0,0.25,0.794677653,4.8762151462705505,-0.004882811999999959,206.0,1.375,-810.0,-840.0,0.0,0.25,0.4882812,4.90737605539608,-0.004882811999999959,-980.0,5.125,765.0,840.0,0.0,0.125,3.328857081,4.884271564572653,0.0,234.0,1.875,-802.5,-840.0,0.0,0.25,1.6027830390000002,4.901671609009637,0.004882811999999959,0.28999999165534973,-0.3799999952316284,48.65999984741211,-0.0345458984375,-0.0550537109375,1.1273193359375,37.16999816894531,0.0,-63.0,0.0692291259765625,-0.0689697265625,Closing,0.0,0.0,0.0,0.0,0.0,0.0,0.0,0.125,
2.7762810000000173,0.0,0.0,-1670.0,0.5,847.5,840.0000000000001,0.0,0.25,0.7897948410000001,4.874023036805556,-0.008544921000000372,206.0,1.5,-817.5,-840.0000000000001,0.0,0.25,0.482177685,4.9051699375,-0.004882811999999959,-980.0,5.5,750.0,840.0000000000001,0.0,0.125,3.328857081,4.882075833333333,0.0,234.0,1.875,-802.5,-840.0000000000001,0.0,0.25,1.6015623360000002,4.899468055555555,0.004882811999999959,0.25999999046325684,-0.3199999928474426,48.58000183105469,0.02947998046875,0.0570068359375,0.86163330078125,37.16999816894531,0.0,62.0,0.0685882568359375,-0.0691375732421875,Closing,0.0,0.0,0.0,0.0,0.0,0.0,0.0,0.0,
2.821582999999984,0.0,0.0,-1534.0,0.375,847.5,840.0,0.0,0.25,0.7897948410000001,4.872927008205064,-0.008544920999999484,73.0,1.375,-832.5,-840.0,0.0,0.25,0.482177685,4.90406690485096,-0.004882811999999959,-851.0,5.875,795.0,840.0,0.0,0.125,3.3239742690000003,4.880977993888855,0.0,100.0,1.625,-817.5,-840.0,0.0,0.25,1.6027830390000002,4.898366305096944,0.0,0.25,-0.3499999940395355,48.470001220703125,-0.0572509765625,0.02008056640625,1.09161376953125,37.15999984741211,0.0,-22.0,0.067657470703125,-0.06951904296875,Closing,0.0,0.0,0.0,0.0,0.0,0.0,0.0,0.125,
2.869439000000013,0.0,0.0,-1534.0,0.375,847.5,840.0,0.0,0.25,0.783691326,4.870871882716126,-0.0012207030000004337,73.0,1.25,-832.5,-840.0,0.0,0.25,0.482177685,4.90199864631176,0.0,-851.0,5.625,840.0,840.0,0.0,0.125,3.3190914570000003,4.87891947294871,0.0,100.0,1.625,-832.5,-840.0,0.0,0.25,1.59912093,4.896300450748868,0.0,0.25,-0.38999998569488525,48.349998474121094,-0.06610107421875,-0.0079345703125,1.02423095703125,37.15999984741211,0.0,-48.0,0.0665740966796875,-0.0699615478515625,Closing,0.0,0.0,0.0,0.0,0.0,0.0,0.0,0.0,
2.9065650000000023,0.0,0.0,-1534.0,0.375,847.5,840.0,0.0,0.25,0.780029217,4.869227813683383,-0.009765623999999917,73.0,1.125,-840.0,-840.0,0.0,0.25,0.483398388,4.9003440710392,0.0,-851.0,5.375,840.0,840.0,0.0,0.125,3.3142086450000003,4.877272687606812,-0.009765623999999917,100.0,1.375,-840.0,-840.0,0.0,0.25,1.6040037420000002,4.894647798792521,0.0,0.30000001192092896,-0.4300000071525574,48.2400016784668,0.0238037109375,0.04534912109375,1.27874755859375,37.15999984741211,0.0,51.0,0.06524658203125,-0.0702667236328125,Closing,0.0,0.0,0.0,0.0,0.0,0.0,0.0,0.0,
2.9413180000000283,0.0,0.0,-1396.0,0.375,855.0,840.0,0.0,0.25,0.780029217,4.868268769058949,0.0,-64.0,1.125,-847.5,-840.0,0.0,0.25,0.490722606,4.89937889774704,0.0,-716.0,5.25,840.0,840.0,0.0,0.125,3.3142086450000003,4.876312058461507,-0.004882811999999959,-34.0,1.375,-840.0,-840.0,0.0,0.25,1.6101072570000001,4.893683747439915,0.0,0.30000001192092896,-0.41999998688697815,48.13999938964844,0.06805419921875,-0.011962890625,0.92108154296875,37.15999984741211,0.0,37.0,0.06402587890625,-0.070343017578125,Closing,0.0,0.0,0.0,0.0,0.0,0.0,0.0,0.0,
3.0029839999999965,0.0,0.0,-1396.0,0.375,855.0,839.9999999999999,0.0,0.25,0.773925702,4.866624647762193,0.0,-64.0,1.125,-847.5,-839.9999999999999,0.0,0.25,0.477294873,4.8977242698764805,0.0,-716.0,5.375,832.5,839.9999999999999,0.0,0.125,3.3142086450000003,4.874665220769247,0.0,-34.0,1.625,-832.5,-839.9999999999999,0.0,0.25,1.597900227,4.8920310429467095,-0.004882811999999959,0.28999999165534973,-0.36000001430511475,48.060001373291016,0.09307861328125,-0.001953125,0.86492919921875,37.15999984741211,0.0,61.0,0.0627593994140625,-0.070220947265625,Closing,0.0,0.0,0.0,0.0,0.0,0.0,0.0,0.0,
3.04575,0.0,0.0,-1396.0,0.375,855.0,840.0,0.0,0.25,0.78124992,4.865254598945575,-0.0012207029999995456,-64.0,1.125,-847.5,-840.0,0.0,0.25,0.48095698200000003,4.89634546591568,0.0,-716.0,5.5,825.0,840.0,0.0,0.125,3.3129879420000004,4.873292908376058,0.0,-34.0,1.625,-832.5,-840.0,0.0,0.25,1.597900227,4.890653841739231,0.0012207030000004337,0.28999999165534973,-0.46000000834465027,47.95000076293945,-0.0107421875,0.06103515625,0.9927978515625,37.15999984741211,0.0,39.0,0.061309814453125,-0.0701141357421875,Closing,0.0,0.0,0.0,0.0,0.0,0.0,0.0,0.0,
3.090329000000027,0.0,0.0,-1258.0,0.25,855.0,0.0,0.0,0.25,0.780029217,0.01,0.0012207029999995456,-200.0,0.5,-825.0,-0.0,0.0,0.25,0.482177685,0.01,0.0,-581.0,3.25,840.0,0.0,0.0,0.125,3.3178707540000003,0.01,0.0,-167.0,0.875,-825.0,-0.0,0.0,0.25,1.597900227,0.01,0.0,0.28999999165534973,-0.5299999713897705,47.810001373291016,-0.083984375,0.0177001953125,1.202880859375,37.15999984741211,0.0,-40.0,0.060272216796875,-0.07000732421875,Closing,0.0,0.0,0.0,0.0,0.0,0.0,0.0,0.125,
3.15446100000001,0.0,0.0,-1258.0,0.0,787.5,0.0,0.0,0.25,0.784912029,0.01,-0.0012207029999995456,-200.0,0.25,-615.0,-0.0,0.0,0.25,0.47607417,0.01,0.0,-581.0,0.375,787.5,0.0,0.0,0.0,3.328857081,0.01,0.004882811999999959,-167.0,0.125,-675.0,-0.0,0.0,0.25,1.6027830390000002,0.01,-0.0012207030000004337,0.25999999046325684,-0.9800000190734863,47.650001525878906,-0.2374267578125,0.0413818359375,0.803466796875,37.15999984741211,0.0,-122.0,0.0589447021484375,-0.067596435546875,Closing,0.0,0.0,0.0,0.0,0.0,0.0,0.0,0.0,
3.1971630000000006,0.0,0.0,-1140.0,0.125,765.0,0.0,0.0,0.25,0.7910155440000001,0.01,0.006103514999999504,-291.0,0.25,-555.0,-0.0,0.0,0.25,0.477294873,0.01,-0.004882811999999959,-472.0,0.375,675.0,0.0,0.0,0.0,3.333739893,0.01,0.009765623999999917,-266.0,0.125,-585.0,-0.0,0.0,0.25,1.6088865540000001,0.01,0.004882811999999959,0.3100000023841858,-1.159999966621399,47.560001373291016,-0.12237548828125,0.03131103515625,1.13330078125,37.15999984741211,0.0,-48.0,0.0574951171875,-0.065399169921875,Closing,0.0,0.0,0.0,0.0,0.0,0.0,0.0,0.125,
3.2337920000000158,0.0,0.0,-1140.0,0.125,697.5,0.0,0.0,0.25,0.794677653,0.01,0.006103514999999504,-291.0,0.25,-577.5,-0.0,0.0,0.25,0.47851557600000005,0.01,-0.004882811999999959,-472.0,0.375,615.0,0.0,0.0,0.0,3.336181299,0.01,0.009765623999999917,-266.0,0.125,-577.5,-0.0,0.0,0.25,1.616210772,0.01,0.004882811999999959,0.30000001192092896,-1.340000033378601,47.5,-0.24468994140625,-0.033447265625,0.95037841796875,37.15999984741211,0.0,-178.0,0.0555419921875,-0.0625762939453125,Closing,0.0,0.0,0.0,0.0,0.0,0.0,0.0,0.0,
3.2695229999999866,0.0,0.0,-1140.0,0.375,660.0,0.0,0.0,0.25,0.79345695,0.01,0.004882811999999959,-291.0,0.625,-600.0,-0.0,0.0,0.25,0.47607417,0.01,0.0012207029999995456,-472.0,0.375,525.0,0.0,0.0,0.0,3.348388329,0.01,0.004882811999999959,-266.0,0.0,-577.5,-0.0,0.0,0.25,1.6076658510000001,0.01,0.0024414059999999793,0.33000001311302185,-1.6299999952316284,47.47999954223633,-0.20361328125,0.0064697265625,1.03369140625,37.15999984741211,0.0,-117.0,0.052947998046875,-0.05902099609375,Closing,0.0,0.0,0.0,0.0,0.0,0.0,0.0,0.0,
3.307847999999998,0.0,0.0,-1060.0,0.375,570.0,0.0,0.0,0.125,0.794677653,0.01,0.004882811999999959,-371.0,1.0,-517.5,-0.0,0.0,0.25,0.477294873,0.01,-0.0012207029999995456,-395.0,0.375,487.5,0.0,0.0,0.0,3.348388329,0.01,0.013427732999999442,-345.0,0.125,-517.5,-0.0,0.0,0.25,1.6076658510000001,0.01,0.0024414059999999793,0.3100000023841858,-1.9199999570846558,47.47999954223633,-0.20465087890625,0.047607421875,0.9635009765625,37.15999984741211,0.0,-85.0,0.047882080078125,-0.05230712890625,Closing,0.0,0.0,0.0,0.0,0.0,0.0,0.0,0.125,
3.3398090000000082,0.0,0.0,-1060.0,0.375,435.0,0.0,0.0,0.125,0.795898356,0.01,0.0,-371.0,1.125,-427.5,-0.0,0.0,0.25,0.48583979400000005,0.01,0.0,-395.0,0.375,450.0,0.0,0.0,0.0,3.353271141,0.01,0.0,-345.0,0.25,-442.5,-0.0,0.0,0.25,1.6076658510000001,0.01,0.0,0.30000001192092896,-2.3399999141693115,47.470001220703125,-0.1539306640625,0.0350341796875,1.03704833984375,37.119998931884766,0.0,-53.0,0.038848876953125,-0.041107177734375,Closing,0.0,0.0,0.0,0.0,0.0,0.0,0.0,0.0,
3.3952970000000207,0.0,0.0,-1060.0,0.375,345.0,0.0,0.0,0.125,0.794677653,0.01,0.0,-371.0,1.0,-300.0,-0.0,0.0,0.25,0.47607417,0.01,0.0,-350.0,0.375,330.0,0.0,0.0,0.0,3.353271141,0.01,0.004882811999999959,-388.0,0.25,-315.0,-0.0,0.0,0.25,1.597900227,0.01,0.0012207030000004337,0.30000001192092896,-2.700000047683716,47.439998626708984,-0.16448974609375,0.00311279296875,0.99688720703125,37.119998931884766,0.0,-80.0,0.02783203125,-0.0274505615234375,Closing,0.0,0.0,0.0,0.0,0.0,0.0,0.0,0.125,
3.448982000000018,0.0,0.0,-1019.0,0.375,262.5,0.0,0.0,0.125,0.7885741380000001,0.01,-0.0012207029999995456,-411.0,0.875,-262.5,-0.0,0.0,0.25,0.477294873,0.01,0.0,-350.0,0.375,285.0,0.0,0.0,0.0,3.352050438,0.01,0.0,-388.0,0.25,-270.0,-0.0,0.0,0.25,1.6076658510000001,0.01,-0.0012207030000004337,0.3100000023841858,-2.8399999141693115,47.41999816894531,-0.13604736328125,-0.00921630859375,1.04339599609375,37.119998931884766,0.0,-68.0,0.0216064453125,-0.0198211669921875,Closing,0.0,0.0,0.0,0.0,0.0,0.0,0.0,0.125,
3.4874830000000077,0.0,0.0,-1019.0,0.125,187.5,0.0,0.0,0.125,0.795898356,0.01,0.0012207029999995456,-411.0,0.75,-180.0,-0.0,0.0,0.25,0.47607417,0.01,0.0,-350.0,0.5,210.0,0.0,0.0,0.0,3.348388329,0.01,-0.0012207029999995456,-388.0,0.0,-150.0,-0.0,0.0,0.25,1.6064451480000002,0.01,0.0,0.2800000011920929,-3.059999942779541,47.40999984741211,-0.13690185546875,-0.00299072265625,1.05535888671875,37.119998931884766,0.0,-60.0,0.0113983154296875,-0.0076751708984375,Closing,0.0,0.0,0.0,0.0,0.0,0.0,0.0,0.0,
3.527400000000023,0.0,0.0,-1019.0,0.125,150.0,0.0,0.0,0.125,0.794677653,0.01,0.0012207029999995456,-411.0,0.5,-82.5,-0.0,0.0,0.25,0.477294873,0.01,0.0,-338.0,0.5,97.5,0.0,0.0,0.0,3.345946923,0.01,0.0,-398.0,0.125,-90.0,-0.0,0.0,0.25,1.6076658510000001,0.01,0.0,0.28999999165534973,-3.1700000762939453,47.459999084472656,-0.0966796875,0.01190185546875,1.04547119140625,37.119998931884766,0.0,-21.0,4.8828125E-4,0.00518798828125,Closing,0.0,0.0,0.0,0.0,0.0,0.0,0.0,0.0,
3.5776959999999964,0.0,0.0,-1010.0,0.125,52.5,0.0,0.0,0.25,0.833740149,0.01,-0.0024414059999999793,-420.0,0.375,-52.5,-0.0,0.0,0.25,0.477294873,0.01,0.0,-338.0,0.5,75.0,0.0,0.0,0.0,3.352050438,0.01,0.0,-398.0,0.125,-60.0,-0.0,0.0,0.25,1.6076658510000001,0.01,0.0,0.28999999165534973,-3.190000057220459,47.4900016784668,-0.0352783203125,0.02227783203125,0.9852294921875,37.119998931884766,0.0,25.0,-0.00689697265625,0.0139923095703125,Closing,0.0,0.0,0.0,0.0,0.0,0.0,0.0,0.0,
3.6143040000000037,0.0,0.0,-1010.0,0.125,0.0,0.0,0.0,0.125,0.794677653,0.01,0.0024414059999999793,-420.0,0.25,-7.5,-0.0,0.0,0.25,0.477294873,0.01,0.0,-338.0,0.5,67.5,0.0,0.0,0.0,3.342284814,0.01,0.0012207029999995456,-398.0,0.125,-7.5,-0.0,0.0,0.25,1.6064451480000002,0.01,0.0,0.30000001192092896,-3.0899999141693115,47.4900016784668,-0.00274658203125,-0.01763916015625,1.01123046875,37.119998931884766,0.0,18.0,-0.021514892578125,0.0312957763671875,Closing,0.0,0.0,0.0,0.0,0.0,0.0,0.0,0.0,
3.6635989999999876,0.0,0.0,-1010.0,0.125,0.0,420.0,0.0,0.125,0.794677653,0.5498168668524888,-0.0012207029999995456,-421.0,0.125,0.0,-420.0,0.0,5.5,0.520019478,1.9285545897722227,0.0,-325.0,1.375,90.0,420.0,0.0,1.75,3.24706998,4.389674732977289,-0.009765623999999917,-398.0,0.375,0.0,-420.0,0.0,6.75,1.457519382,3.0316872062785585,0.0,0.30000001192092896,-2.9000000953674316,47.45000076293945,0.020751953125,-0.0291748046875,1.032958984375,37.119998931884766,0.0,23.0,-0.035491943359375,0.0474090576171875,Closing,0.0,0.0,0.0,0.0,0.0,0.0,0.0,0.0,
3.7155929999999935,0.0,0.0,-1010.0,0.125,0.0,420.0,0.0,1.125,0.8032225740000001,0.5498168668524888,0.0,-421.0,0.125,-15.0,-420.0,0.0,8.5,0.747070236,1.9285545897722227,0.0,-325.0,2.25,67.5,420.0,0.0,1.875,3.134765304,4.389674732977289,0.0,-398.0,0.625,0.0,-420.0,0.0,7.5,1.2402342480000002,3.0316872062785585,-0.16113279599999952,0.2800000011920929,-2.8499999046325684,47.45000076293945,0.05078125,0.0587158203125,1.01739501953125,37.119998931884766,0.0,108.0,-0.038848876953125,0.0511932373046875,Closing,0.0,0.0,0.0,0.0,0.0,0.0,0.0,0.125,
3.7706689999999945,0.0,0.0,-1010.0,0.125,15.0,420.0,0.0,2.25,1.0046385690000001,0.5498168668524888,0.0012207029999995456,-421.0,0.125,-67.5,-420.0,0.0,1.5,1.1364744930000001,1.9285545897722227,0.08544920999999928,-325.0,3.0,37.5,420.0,0.0,0.5,2.939452824,4.389674732977289,-0.10620116099999954,-398.0,1.375,-7.5,-420.0,0.0,1.75,0.8801268630000001,3.0316872062785585,0.0,0.27000001072883606,-2.7200000286102295,47.439998626708984,0.0384521484375,-0.04986572265625,1.0113525390625,37.119998931884766,0.0,18.0,-0.0484466552734375,0.0623016357421875,Closing,0.0,0.0,0.0,0.0,0.0,0.0,0.0,0.125,
3.7955380000000005,0.0,0.0,-1002.0,0.125,60.0,420.0,0.0,0.75,1.202392455,0.5498168668524888,-4.705200241999999,-445.0,0.125,-165.0,-420.0,0.0,1.5,1.53808578,1.9285545897722227,0.5993651730000007,-317.0,3.75,52.5,420.0,0.0,0.375,2.7893063550000003,4.389674732977289,-0.30761715600000006,-400.0,1.875,-7.5,-420.0,0.0,1.875,0.47973627900000004,3.0316872062785585,-0.5786132220000004,0.25,-2.549999952316284,47.40999984741211,0.02490234375,0.01885986328125,1.01495361328125,37.119998931884766,0.0,58.0,-0.0605316162109375,0.0762786865234375,Closing,0.0,0.0,0.0,0.0,0.0,0.0,0.0,0.125,
3.852316999999981,0.0,0.0,-1002.0,0.125,82.5,420.0,0.0,0.625,1.324462755,0.5498168668524888,0.20507810400000004,-445.0,0.25,-180.0,-420.0,0.0,1.5,1.755370914,1.9285545897722227,0.417480426,-317.0,4.0,75.0,420.0,0.0,0.125,2.77099581,4.389674732977289,-0.14282225100000012,-400.0,2.125,-15.0,-420.0,0.0,2.125,0.25146481800000003,3.0316872062785585,-0.3918456629999998,0.2800000011920929,-2.440000057220459,47.31999969482422,-0.00634765625,0.05181884765625,1.013916015625,37.150001525878906,0.0,59.0,-0.066192626953125,0.0830841064453125,Closing,0.0,0.0,0.0,0.0,0.0,0.0,0.0,0.125,
3.893540000000037,0.0,0.0,-1002.0,0.375,127.5,420.0,0.0,0.375,1.329345567,0.5498168668524888,0.078124992,-445.0,0.5,-165.0,-420.0,0.0,1.25,2.077636506,1.9285545897722227,0.2990722349999997,-297.0,5.0,105.0,420.0,0.0,0.0,2.766112998,4.389674732977289,-0.019531247999999835,-408.0,2.25,-22.5,-420.0,0.0,1.5,4.937743635,3.0316872062785585,-0.26367184800000043,0.23999999463558197,-2.319999933242798,47.08000183105469,-0.01055908203125,-0.0284423828125,1.04473876953125,37.150001525878906,0.0,-2.0,-0.0742950439453125,0.09283447265625,Closing,0.0,0.0,0.0,0.0,0.0,0.0,0.0,0.0,
3.9301140000000014,0.0,0.0,-980.0,0.375,135.0,420.0,0.0,0.375,1.335449082,0.5498168668524888,0.078124992,-469.0,1.0,-127.5,-420.0,0.0,0.75,2.362060305,1.9285545897722227,0.24780270900000012,-297.0,4.75,135.0,420.0,0.0,0.0,2.760009483,4.389674732977289,0.0,-408.0,2.625,-60.0,-420.0,0.0,0.625,4.69970655,3.0316872062785585,-0.2412036079999993,0.10999999940395355,-2.309999942779541,46.41999816894531,-0.09326171875,0.06427001953125,1.02117919921875,37.150001525878906,0.0,9.0,-0.0826416015625,0.1048126220703125,Closing,0.0,0.0,0.0,0.0,0.0,0.0,0.0,0.0,
3.9824039999999803,0.0,0.0,-980.0,0.5,127.5,420.0,0.0,0.125,1.339111191,0.5498168668524888,0.028076168999999984,-469.0,1.5,-120.0,-420.0,0.0,0.5,2.445068109,1.9285545897722227,0.24780270900000012,-297.0,4.625,157.5,420.0,0.0,0.0,2.7368161260000003,4.389674732977289,0.0,-408.0,2.625,-97.5,-420.0,0.0,0.5,4.635009291,3.0316872062785585,-0.2412036079999993,0.1899999976158142,-2.309999942779541,45.90999984741211,-0.0345458984375,0.063720703125,0.9703369140625,37.150001525878906,0.0,46.0,-0.0824737548828125,0.1109161376953125,Closing,0.0,0.0,0.0,0.0,0.0,0.0,0.0,0.0,
4.008065000000002,0.0,0.0,-950.0,0.5,157.5,420.0,0.0,0.25,1.339111191,0.5498168668524888,0.004882811999999959,-494.0,2.0,-135.0,-420.0,0.0,0.25,2.562255597,1.9285545897722227,0.3405761369999998,-257.0,5.0,225.0,420.0,0.0,0.0,2.729491908,4.389674732977289,-0.035400387000000144,-433.0,2.75,-135.0,-420.0,0.0,0.25,4.547118675,3.0316872062785585,-0.2966308290000006,0.3400000035762787,-2.3299999237060547,44.93000030517578,-0.08013916015625,0.06781005859375,0.9425048828125,37.150001525878906,0.0,14.0,-0.081787109375,0.1206207275390625,Closing,0.0,0.0,0.0,0.0,0.0,0.0,0.0,0.125,
4.056722000000009,0.0,0.0,-950.0,0.5,180.0,420.0,0.0,0.25,1.334228379,0.5498168668524888,-0.0012207029999999897,-494.0,1.875,-150.0,-420.0,0.0,0.25,2.598876687,1.9285545897722227,0.104980458,-257.0,4.625,262.5,420.0,0.0,0.125,2.7416989380000003,4.389674732977289,0.0,-433.0,2.625,-172.5,-420.0,0.0,0.25,4.530028833,3.0316872062785585,-0.08422850699999973,0.4099999964237213,-2.380000114440918,44.13999938964844,-0.082763671875,-0.001220703125,1.08355712890625,37.150001525878906,0.0,-33.0,-0.0818023681640625,0.1239776611328125,Closing,0.0,0.0,0.0,0.0,0.0,0.0,0.0,0.125,
4.0949640000000365,0.0,0.0,-950.0,0.5,225.0,420.0,0.0,0.125,1.334228379,0.5498168668524888,0.0024414059999999793,-494.0,1.625,-210.0,-420.0,0.0,0.25,2.5866696570000003,1.9285545897722227,0.028076169000000206,-257.0,4.625,277.5,420.0,0.0,0.125,2.7514645620000002,4.389674732977289,0.010986327000000351,-433.0,2.625,-232.5,-420.0,0.0,0.25,4.541015160000001,3.0316872062785585,-0.02075195100000027,0.41999998688697815,-2.390000104904175,42.849998474121094,-0.08209228515625,-0.05657958984375,1.0531005859375,37.150001525878906,0.0,-71.0,-0.0821380615234375,0.12408447265625,Closing,0.0,0.0,0.0,0.0,0.0,0.0,0.0,0.0,
4.13222000000003,0.0,0.0,-908.0,0.75,255.0,420.0,0.0,0.125,1.339111191,0.5498168668524888,-0.0012207029999999897,-544.0,1.375,-300.0,-420.0,0.0,0.25,2.5854489540000003,1.9285545897722227,-0.013427732999999886,-211.0,5.125,285.0,420.0,0.0,0.0,2.756347374,4.389674732977289,0.008544920999999484,-480.0,2.375,-285.0,-420.0,0.0,0.25,4.547118675,3.0316872062785585,0.012207030000000785,0.41999998688697815,-2.359999895095825,41.45000076293945,-0.03515625,-0.012451171875,0.98297119140625,37.150001525878906,0.0,-8.0,-0.08294677734375,0.1241455078125,Closing,0.0,0.0,0.0,0.0,0.0,0.0,0.0,0.0,
4.186863000000012,0.0,0.0,-908.0,0.75,262.5,420.0,0.0,0.125,1.335449082,0.5498168668524888,-0.0012207029999999897,-544.0,1.375,-307.5,-420.0,0.0,0.25,2.5866696570000003,1.9285545897722227,-0.013427732999999886,-211.0,5.0,285.0,420.0,0.0,0.0,2.761230186,4.389674732977289,0.008544920999999484,-480.0,2.375,-307.5,-420.0,0.0,0.25,4.5483393780000005,3.0316872062785585,0.012207030000000785,0.47999998927116394,-2.359999895095825,40.4900016784668,-0.05230712890625,0.01165771484375,1.05548095703125,37.150001525878906,0.0,-4.0,-0.08294677734375,0.1240692138671875,Closing,0.0,0.0,0.0,0.0,0.0,0.0,0.0,0.0,
4.239318000000028,0.0,0.0,-908.0,0.875,255.0,420.0,0.0,0.125,1.326904161,0.5498168668524888,-0.0024414059999999793,-544.0,1.25,-352.5,-420.0,0.0,0.25,2.552489973,1.9285545897722227,-0.0012207029999999897,-211.0,5.75,262.5,420.0,0.0,0.0,2.75878878,4.389674732977289,0.006103515000000392,-480.0,2.25,-360.0,-420.0,0.0,0.25,4.586181171000001,3.0316872062785585,0.004882811999999959,0.5400000214576721,-2.2899999618530273,39.04999923706055,0.00970458984375,-0.01190185546875,1.04278564453125,37.150001525878906,0.0,26.0,-0.0826873779296875,0.123779296875,Closing,0.0,0.0,0.0,0.0,0.0,0.0,0.0,0.0,
4.267609999999986,0.0,0.0,-908.0,0.875,255.0,420.0,0.0,0.125,1.339111191,0.5498168668524888,0.0024414059999999793,-601.0,1.25,-352.5,-420.0,0.0,0.25,2.523193101,1.9285545897722227,-0.037841793000000123,-169.0,6.125,262.5,420.0,0.0,0.0,2.763671592,4.389674732977289,0.004882811999999959,-543.0,2.0,-375.0,-420.0,0.0,0.25,4.6105952310000005,3.0316872062785585,0.04272460500000008,0.5600000023841858,-2.1500000953674316,37.59000015258789,0.021484375,-0.01470947265625,0.9476318359375,37.150001525878906,0.0,30.0,-0.082122802734375,0.1230621337890625,Closing,0.0,0.0,0.0,0.0,0.0,0.0,0.0,0.0,
4.303217999999993,0.0,0.0,-867.0,0.875,255.0,420.0,0.0,0.125,1.339111191,0.5498168668524888,0.0,-601.0,1.25,-352.5,-420.0,0.0,0.25,2.499999744,1.9285545897722227,-0.029296872000000196,-169.0,5.75,262.5,420.0,0.0,0.125,2.753905968,4.389674732977289,-0.0012207030000004337,-543.0,2.0,-382.5,-420.0,0.0,0.25,4.627685073,3.0316872062785585,0.024414059999999793,0.5699999928474426,-2.119999885559082,36.619998931884766,0.0286865234375,0.0345458984375,1.03594970703125,37.150001525878906,0.0,68.0,-0.081512451171875,0.12237548828125,Closing,0.0,0.0,0.0,0.0,0.0,0.0,0.0,0.0,
4.331286000000022,0.0,0.0,-867.0,0.875,277.5,420.0,0.0,0.125,1.340331894,0.5498168668524888,-0.0012207029999999897,-601.0,1.5,-345.0,-420.0,0.0,0.25,2.469482169,1.9285545897722227,-0.023193356999999803,-169.0,6.375,285.0,420.0,0.0,0.0,2.761230186,4.389674732977289,0.0,-543.0,2.375,-367.5,-420.0,0.0,0.25,4.641112806000001,3.0316872062785585,0.01586913899999942,0.5899999737739563,-1.9299999475479126,34.61000061035156,-0.017578125,0.00335693359375,0.95135498046875,37.15999984741211,0.0,8.0,-0.0794525146484375,0.1205902099609375,Closing,0.0,0.0,0.0,0.0,0.0,0.0,0.0,0.0,
4.3882280000000025,0.0,0.0,-867.0,1.125,285.0,420.0,0.0,0.125,1.339111191,0.5498168668524888,-0.0012207029999999897,-657.0,1.625,-337.5,-420.0,0.0,0.25,2.459716545,1.9285545897722227,-0.023193356999999803,-115.0,5.875,315.0,420.0,0.0,0.0,2.761230186,4.389674732977289,0.0,-603.0,2.25,-375.0,-420.0,0.0,0.25,4.641112806000001,3.0316872062785585,0.01342773300000033,0.6100000143051147,-1.8300000429153442,32.9900016784668,-0.02520751953125,0.017578125,0.969970703125,37.15999984741211,0.0,8.0,-0.0775604248046875,0.1204986572265625,Closing,0.0,0.0,0.0,0.0,0.0,0.0,0.0,0.0,
4.441221000000019,0.0,0.0,-817.0,1.125,315.0,420.0,0.0,0.125,1.334228379,0.5498168668524888,0.0024414059999999793,-657.0,1.75,-345.0,-420.0,0.0,0.25,2.440185297,1.9285545897722227,-0.030517575000000186,-115.0,5.625,345.0,420.0,0.0,0.0,2.761230186,4.389674732977289,0.0012207030000004337,-603.0,2.25,-375.0,-420.0,0.0,0.125,4.638671400000001,3.0316872062785585,0.01342773300000033,0.6499999761581421,-1.7899999618530273,31.829999923706055,-0.0228271484375,-0.01129150390625,1.0877685546875,37.15999984741211,0.0,-2.0,-0.0775604248046875,0.1203460693359375,Closing,0.0,0.0,0.0,0.0,0.0,0.0,0.0,0.0,
4.46866399999999,0.0,0.0,-817.0,1.125,345.0,420.0,0.0,0.125,1.339111191,0.5498168668524888,-0.0024414059999999793,-657.0,1.75,-352.5,-420.0,0.0,0.0,2.4353024850000002,1.9285545897722227,-0.020751950999999824,-115.0,5.5,375.0,420.0,0.0,0.0,2.761230186,4.389674732977289,0.0,-603.0,2.25,-382.5,-420.0,0.0,0.125,4.639892103,3.0316872062785585,0.0,0.6899999976158142,-1.75,29.979999542236328,-0.04608154296875,-0.01654052734375,1.11944580078125,37.15999984741211,0.0,-25.0,-0.07733154296875,0.1199951171875,Closing,0.0,0.0,0.0,0.0,0.0,0.0,0.0,0.0,
4.505584000000032,0.0,0.0,-753.0,0.875,382.5,420.0,0.0,0.125,1.335449082,0.5498168668524888,0.0,-718.0,1.625,-375.0,-420.0,0.0,0.0,2.420654049,1.9285545897722227,-0.012207029999999897,-48.0,5.375,405.0,420.0,0.0,0.0,2.766112998,4.389674732977289,-0.0012207030000004337,-670.0,2.0,-405.0,-420.0,0.0,0.125,4.639892103,3.0316872062785585,0.0,0.699999988079071,-1.6299999952316284,28.649999618530273,0.00201416015625,0.0137939453125,0.94775390625,37.15999984741211,0.0,26.0,-0.0770721435546875,0.119720458984375,Closing,0.0,0.0,0.0,0.0,0.0,0.0,0.0,0.0,
4.542053000000014,0.0,0.0,-753.0,0.875,405.0,420.0,0.0,0.125,1.334228379,0.5498168668524888,-0.0024414059999999793,-718.0,1.5,-405.0,-420.0,0.0,0.0,2.415771237,1.9285545897722227,-0.009765624000000361,-48.0,4.875,435.0,420.0,0.0,0.0,2.767333701,4.389674732977289,0.003662109000000413,-670.0,1.875,-442.5,-420.0,0.0,0.125,4.650878430000001,3.0316872062785585,0.0,0.75,-1.5700000524520874,25.81999969482422,0.01568603515625,-0.01519775390625,0.96270751953125,37.15999984741211,0.0,25.0,-0.076202392578125,0.119720458984375,Closing,0.0,0.0,0.0,0.0,0.0,0.0,0.0,0.0,
4.591060999999987,0.0,0.0,-753.0,0.75,420.0,420.0,0.0,0.125,1.339111191,0.5498168668524888,-0.0024414059999999793,-718.0,1.125,-435.0,-420.0,0.0,0.125,2.41699194,1.9285545897722227,-0.009765624000000361,-48.0,4.5,465.0,420.0,0.0,0.0,2.766112998,4.389674732977289,0.003662109000000413,-670.0,1.625,-465.0,-420.0,0.0,0.125,4.641112806000001,3.0316872062785585,0.0,0.7799999713897705,-1.5,24.34000015258789,0.00323486328125,0.0159912109375,1.0565185546875,37.15999984741211,0.0,28.0,-0.075531005859375,0.1195831298828125,Closing,0.0,0.0,0.0,0.0,0.0,0.0,0.0,0.0,
4.647118000000017,0.0,0.0,-680.0,0.5,450.0,420.0,0.0,0.125,1.3427733000000002,0.5498168668524888,0.0012207029999999897,-793.0,1.0,-465.0,-420.0,0.0,0.125,2.410888425,1.9285545897722227,-0.004882811999999959,32.0,4.25,487.5,420.0,0.0,0.0,2.766112998,4.389674732977289,0.0,-748.0,1.375,-480.0,-420.0,0.0,0.125,4.641112806000001,3.0316872062785585,0.0,0.800000011920929,-1.4299999475479126,22.06999969482422,-0.02642822265625,0.08270263671875,1.13067626953125,37.15999984741211,0.0,26.0,-0.07427978515625,0.1190948486328125,Closing,0.0,0.0,0.0,0.0,0.0,0.0,0.0,0.125,
4.676911000000022,0.0,0.0,-680.0,0.5,465.0,420.0,0.0,0.125,1.334228379,0.5498168668524888,0.0012207029999999897,-793.0,0.75,-472.5,-420.0,0.0,0.125,2.407226316,1.9285545897722227,-0.004882811999999959,32.0,3.75,510.0,420.0,0.0,0.0,2.772216513,4.389674732977289,0.0,-748.0,1.25,-487.5,-420.0,0.0,0.125,4.641112806000001,3.0316872062785585,0.0,0.7900000214576721,-1.309999942779541,20.520000457763672,0.0390625,-0.01605224609375,0.8956298828125,37.15999984741211,0.0,45.0,-0.0732421875,0.11865234375,Closing,0.0,0.0,0.0,0.0,0.0,0.0,0.0,0.125,
4.709912000000011,0.0,0.0,-680.0,0.5,472.5,420.0,0.0,0.125,1.331786973,0.5498168668524888,-0.0024414059999999793,-793.0,0.625,-472.5,-420.0,0.0,0.125,2.402343504,1.9285545897722227,-0.007324217999999938,32.0,3.625,525.0,420.0,0.0,0.0,2.766112998,4.389674732977289,-0.0012207030000004337,-748.0,1.25,-495.0,-420.0,0.0,0.125,4.638671400000001,3.0316872062785585,0.0,0.800000011920929,-1.2799999713897705,18.15999984741211,-0.01666259765625,0.02532958984375,1.0872802734375,37.15999984741211,0.0,10.0,-0.0720672607421875,0.1176910400390625,Closing,0.0,0.0,0.0,0.0,0.0,0.0,0.0,0.0,
4.762437000000035,0.0,0.0,-602.0,0.375,480.0,420.0,0.0,0.125,1.339111191,0.5498168668524888,0.0012207029999999897,-869.0,0.625,-472.5,-420.0,0.0,0.25,2.401122801,1.9285545897722227,-0.0024414059999999793,120.0,3.25,547.5,420.0,0.0,0.0,2.766112998,4.389674732977289,0.0,-828.0,1.0,-495.0,-420.0,0.0,0.125,4.638671400000001,3.0316872062785585,-0.0012207029999995456,0.8500000238418579,-1.2200000286102295,15.800000190734863,-0.0347900390625,-0.03582763671875,0.94500732421875,37.15999984741211,0.0,-27.0,-0.07208251953125,0.11663818359375,Closing,0.0,0.0,0.0,0.0,0.0,0.0,0.0,0.0,
4.798745999999984,0.0,0.0,-602.0,0.375,487.5,420.0,0.0,0.125,1.336669785,0.5498168668524888,-0.0012207029999999897,-869.0,0.625,-472.5,-420.0,0.0,0.25,2.402343504,1.9285545897722227,0.0,120.0,3.0,547.5,420.0,0.0,0.0,2.766112998,4.389674732977289,0.0,-828.0,1.0,-502.5,-420.0,0.0,0.125,4.635009291,3.0316872062785585,0.0012207029999995456,0.8799999952316284,-1.1799999475479126,13.4399995803833,-0.031005859375,-0.021240234375,1.08740234375,37.15999984741211,0.0,-17.0,-0.072235107421875,0.1155548095703125,Closing,0.0,0.0,0.0,0.0,0.0,0.0,0.0,0.0,
4.830875,0.0,0.0,-602.0,0.125,502.5,420.0,0.0,0.125,1.337890488,0.5498168668524888,-0.0012207029999999897,-869.0,0.375,-472.5,-420.0,0.0,0.25,2.401122801,1.9285545897722227,0.0,120.0,3.0,540.0,420.0,0.0,0.0,2.766112998,4.389674732977289,0.0,-828.0,0.75,-510.0,-420.0,0.0,0.125,4.639892103,3.0316872062785585,0.0012207029999995456,0.8199999928474426,-1.159999966621399,11.859999656677246,-0.0025634765625,0.02227783203125,0.9642333984375,37.15999984741211,0.0,18.0,-0.072479248046875,0.1147308349609375,Closing,0.0,0.0,0.0,0.0,0.0,0.0,0.0,0.0,
4.866737000000023,0.0,0.0,-602.0,0.125,510.0,420.0,0.0,0.125,1.339111191,0.5498168668524888,0.0012207029999999897,-947.0,0.375,-480.0,-420.0,0.0,0.25,2.403564207,1.9285545897722227,0.0,205.0,2.75,532.5,420.0,0.0,0.0,2.766112998,4.389674732977289,0.0,-911.0,0.75,-510.0,-420.0,0.0,0.125,4.641112806000001,3.0316872062785585,0.0,0.8700000047683716,-1.1100000143051147,9.529999732971191,-0.02679443359375,-0.01092529296875,1.12969970703125,37.130001068115234,0.0,-9.0,-0.072601318359375,0.1146087646484375,Closing,0.0,0.0,0.0,0.0,0.0,0.0,0.0,0.0,
4.912241000000038,0.0,0.0,-521.0,0.125,487.5,420.0,0.0,0.125,1.339111191,0.5498168668524888,-0.0012207029999999897,-947.0,0.375,-487.5,-420.0,0.0,0.25,2.402343504,1.9285545897722227,0.0,205.0,2.75,532.5,420.0,0.0,0.0,2.764892295,4.389674732977289,0.0012207030000004337,-911.0,0.75,-510.0,-420.0,0.0,0.125,4.639892103,3.0316872062785585,0.0,0.8500000238418579,-1.0099999904632568,7.989999771118164,0.01922607421875,0.0230712890625,0.93792724609375,37.130001068115234,0.0,36.0,-0.0725860595703125,0.11444091796875,Closing,0.0,0.0,0.0,0.0,0.0,0.0,0.0,0.0,
4.951616000000038,0.0,0.0,-521.0,0.125,480.0,420.0,0.0,0.125,1.337890488,0.5498168668524888,0.0012207029999999897,-947.0,0.25,-480.0,-420.0,0.0,0.25,2.401122801,1.9285545897722227,0.0,205.0,2.625,525.0,420.0,0.0,0.0,2.766112998,4.389674732977289,0.0,-911.0,0.625,-495.0,-420.0,0.0,0.125,4.641112806000001,3.0316872062785585,0.0,0.8999999761581421,-0.9300000071525574,4.980000019073486,-0.01324462890625,0.01788330078125,0.9342041015625,37.130001068115234,0.0,2.0,-0.0723724365234375,0.114044189453125,Closing,0.0,0.0,0.0,0.0,0.0,0.0,0.0,0.125,
4.994630000000004,0.0,0.0,-446.0,0.125,472.5,420.0,0.0,0.125,1.3415525970000002,0.5498168668524888,0.0012207029999999897,-1024.0,0.25,-480.0,-420.0,0.0,0.25,2.401122801,1.9285545897722227,0.0,288.0,2.625,517.5,420.0,0.0,0.0,2.766112998,4.389674732977289,0.0,-989.0,0.75,-487.5,-420.0,0.0,0.125,4.641112806000001,3.0316872062785585,0.0,0.8999999761581421,-0.9599999785423279,3.5,-0.06787109375,0.05413818359375,1.04425048828125,37.130001068115234,0.0,-47.0,-0.072296142578125,0.1138458251953125,Closing,0.0,0.0,0.0,0.0,0.0,0.0,0.0,0.125,
5.033633000000031,0.0,0.0,-446.0,0.125,465.0,0.0,0.0,0.25,1.339111191,0.01,0.0012207029999999897,-1024.0,0.25,-465.0,-0.0,0.0,0.25,2.401122801,0.01,0.0,288.0,1.75,510.0,0.0,0.0,0.0,2.766112998,0.01,0.0,-989.0,0.625,-480.0,-0.0,0.0,0.125,4.639892103,0.01,0.0,0.8700000047683716,-0.8899999856948853,2.0399999618530273,-0.015869140625,-0.00885009765625,1.02581787109375,37.130001068115234,0.0,0.0,-0.0722808837890625,0.1136322021484375,Closing,0.0,0.0,0.0,0.0,0.0,0.0,0.0,0.0,
5.06868200000003,0.0,0.0,-446.0,0.125,435.0,0.0,0.0,1.5,1.2658690110000002,0.01,0.0,-1024.0,0.0,-412.5,-0.0,0.0,7.5,2.2741696890000003,0.01,0.0,288.0,0.75,495.0,0.0,0.0,2.125,2.86865205,0.01,0.0,-989.0,0.375,-382.5,-0.0,0.0,6.5,4.8205561470000005,0.01,0.0,0.8799999952316284,-0.8899999856948853,-0.7099999785423279,-0.0150146484375,-0.03466796875,0.96368408203125,37.130001068115234,0.0,0.0,-0.0722808837890625,0.11309814453125,Closing,0.0,0.0,0.0,0.0,0.0,0.0,0.0,0.125,
5.125248000000021,0.0,0.0,-396.0,0.125,337.5,0.0,0.0,1.75,1.14746082,0.01,-0.0012207029999999897,-1067.0,0.0,-292.5,-0.0,0.0,9.25,2.0629880700000003,0.01,-0.14282225100000012,360.0,0.375,450.0,0.0,0.0,2.25,3.028564143,0.01,0.104980458,-1038.0,0.375,-322.5,-0.0,0.0,7.125,0.156249984,0.01,0.18798826200000018,0.8299999833106995,-0.7799999713897705,-1.9299999475479126,0.00946044921875,-0.13287353515625,0.939697265625,37.130001068115234,0.0,27.0,-0.072357177734375,0.112060546875,Closing,0.0,0.0,0.0,0.0,0.0,0.0,0.0,0.125,
5.168570000000007,0.0,0.0,-396.0,0.0,270.0,0.0,0.0,0.625,0.968017479,0.01,-0.25390622399999985,-1067.0,0.0,-202.5,-0.0,0.0,1.125,1.699218576,0.01,-0.2746581749999999,360.0,0.5,382.5,0.0,0.0,0.5,3.183593424,0.01,0.16479490499999994,-1038.0,0.125,-277.5,-0.0,0.0,1.5,0.458984328,0.01,0.2912524309999993,0.75,-0.6600000262260437,-3.319999933242798,0.0860595703125,-0.0360107421875,0.9478759765625,37.130001068115234,0.0,99.0,-0.072021484375,0.1107025146484375,Closing,0.0,0.0,0.0,0.0,0.0,0.0,0.0,0.0,
5.202004000000016,0.0,0.0,-396.0,0.0,292.5,0.0,0.0,0.25,0.8666991300000001,0.01,-0.13549803300000007,-1086.0,0.0,-142.5,-0.0,0.0,1.5,1.313476428,0.01,-0.3015136410000001,388.0,0.875,232.5,0.0,0.0,0.25,3.3105465360000004,0.01,0.1513671719999996,-1087.0,0.125,-322.5,-0.0,0.0,1.5,0.8557128030000001,0.01,0.3063964530000005,0.6899999976158142,-0.5299999713897705,-4.289999961853027,-0.0369873046875,-0.010986328125,0.9957275390625,37.130001068115234,0.0,-25.0,-0.069976806640625,0.1071014404296875,Closing,0.0,0.0,0.0,0.0,0.0,0.0,0.0,0.0,
5.250901000000012,0.0,0.0,-349.0,0.0,277.5,0.0,0.0,0.25,0.8422850700000001,0.01,-0.08789061600000003,-1086.0,0.0,-105.0,-0.0,0.0,1.5,1.118163948,0.01,-0.3894042569999998,388.0,1.25,172.5,0.0,0.0,0.25,3.348388329,0.01,0.12573240900000027,-1087.0,0.375,-292.5,-0.0,0.0,1.625,1.063232313,0.01,0.3918456629999998,0.7300000190734863,-0.6499999761581421,-4.440000057220459,-0.13482666015625,0.05035400390625,1.04095458984375,37.130001068115234,0.0,-125.0,-0.06927490234375,0.105224609375,Closing,0.0,0.0,0.0,0.0,0.0,0.0,0.0,0.0,
5.308291000000026,0.0,0.0,-349.0,0.0,150.0,0.0,0.0,0.125,0.837402258,0.01,-0.024414060000000015,-1086.0,0.0,0.0,-0.0,0.0,0.875,0.743408127,0.01,-0.38696285099999983,388.0,1.375,30.0,0.0,0.0,0.125,3.3630367650000004,0.01,-4.89157188,-1087.0,0.125,-127.5,-0.0,0.0,1.0,1.429443213,0.01,0.39428706899999977,0.7799999713897705,-0.9399999976158142,-4.610000133514404,-0.08831787109375,-0.00225830078125,0.98004150390625,37.130001068115234,0.0,-70.0,-0.06964111328125,0.10186767578125,Closing,0.0,0.0,0.0,0.0,0.0,0.0,0.0,0.0,
