Time,ClimberA1,ClimberA2,FRpos,FRCurrent,FRspeed,FRsetpoint,FRApos,FRACurrent,FREncpos,FREncSetpoint,FREncSpeed,FLpos,FLCurrent,FLspeed,FLsetpoint,FLApos,FLACurrent,FLEncpos,FLEncSetpoint,FLEncSpeed,BRpos,BRCurrent,BRspeed,BRsetpoint,BRApos,BRACurrent,BREncpos,BREncSetpoint,BREncSpeed,BLpos,BLCurrent,BLspeed,BLsetpoint,BLApos,BLACurrent,BLEncpos,BLEncSetpoint,BLEncSpeed,navx_Pitch,navx_Roll,navx_Yaw,navx_XAcc,navx_YAcc,navx_ZAcc,navx_Temp,navx_Bar,navx_Alt,navx_XDis,navx_YDis,GearPlacerState,ShootOutputV,ShootOutputCurrent,ShootEncPos,ShootEncVelocity,ShootSpeed,ShootSetpoint,CarouselSetpoint,CarouselCurrent,
0.43109599999999043,0.0,0.0,-7447.0,0.0,0.0,0.0,0.0,0.125,0.819091713,0.01,0.0,-15100.0,0.0,0.0,0.0,0.0,0.0,0.510253854,0.01,0.0,21027.0,0.0,0.0,0.0,0.0,0.125,3.386230122,0.01,0.0,1027.0,0.0,0.0,0.0,0.0,0.125,1.627197099,0.01,0.0,0.10000000149011612,-1.0099999904632568,-1.9500000476837158,-0.0191650390625,-7.9345703125E-4,1.02093505859375,37.060001373291016,0.0,0.0,-2.8919677734375,-1.152374267578125,Closing,0.0,0.0,-316.0,0.0,0.0,0.0,0.0,0.0,
0.4681699999999837,0.0,0.0,-7447.0,0.375,0.0,840.0,0.0,0.125,0.819091713,0.01,0.0,-15100.0,0.0,0.0,-840.0,0.0,0.0,0.510253854,0.01,0.0,21027.0,0.0,0.0,840.0,0.0,0.125,3.3801266070000002,0.01,0.0,1027.0,0.75,0.0,-840.0,0.0,0.125,1.627197099,0.01,0.0,0.10000000149011612,-1.0099999904632568,-1.9500000476837158,-0.016845703125,0.00128173828125,1.01861572265625,37.060001373291016,0.0,1.0,-2.8919677734375,-1.152374267578125,Closing,0.0,0.0,-316.0,0.0,0.0,0.0,0.0,0.0,
0.4953729999999923,0.0,0.0,-7440.0,0.875,0.0,840.0,0.0,0.125,0.8178710100000001,0.01,0.0,-15100.0,1.125,0.0,-840.0,0.0,0.0,0.510253854,0.01,0.0,21027.0,1.5,0.0,840.0,0.0,0.125,3.387450825,0.01,0.0,1027.0,1.25,-15.0,-840.0,0.0,0.125,1.625976396,0.01,0.0,0.10000000149011612,-1.0099999904632568,-1.9500000476837158,-0.01190185546875,0.0081787109375,1.01568603515625,37.060001373291016,0.0,5.0,-2.8919677734375,-1.152374267578125,Closing,0.0,0.0,-316.0,0.0,0.0,0.0,0.0,0.0,
0.5265689999999886,0.0,0.0,-7440.0,1.625,105.0,840.0,0.0,0.125,0.7885741380000001,0.01,0.0,-15100.0,3.375,-112.5,-840.0,0.0,0.0,0.510253854,0.01,0.0,21027.0,2.125,0.0,840.0,0.0,0.125,3.382568013,0.01,0.0,1027.0,2.375,-120.0,-840.0,0.0,0.125,1.6552732680000002,0.01,0.0,0.10000000149011612,-0.9900000095367432,-1.9500000476837158,0.25250244140625,-0.22442626953125,1.05645751953125,37.060001373291016,0.0,278.0,-2.89178466796875,-1.15252685546875,Closing,0.0,0.0,-316.0,0.0,0.0,0.0,0.0,0.0,
0.5527529999999969,0.0,0.0,-7440.0,2.75,165.0,840.0,0.0,0.125,0.8044432770000001,0.01,0.0,-15100.0,4.25,-180.0,-840.0,0.0,0.0,0.521240181,0.01,0.0,21027.0,3.125,15.0,840.0,0.0,0.125,3.38134731,0.01,-0.004882811999999959,1027.0,2.625,-172.5,-840.0,0.0,0.125,1.645507644,0.01,0.0,0.03999999910593033,-0.49000000953674316,-1.909999966621399,0.08111572265625,-0.1243896484375,0.8868408203125,37.060001373291016,0.0,92.0,-2.8898773193359375,-1.152679443359375,Closing,0.0,0.0,-316.0,0.0,0.0,0.0,0.0,0.0,
0.5870839999999734,0.0,0.0,-7440.0,3.0,202.5,840.0,0.0,0.125,0.8044432770000001,0.01,-0.013427732999999442,-15141.0,5.375,-247.5,-840.0,0.0,0.0,0.533447211,0.01,0.0,21036.0,4.875,37.5,840.0,0.0,0.125,3.382568013,0.01,-0.004882811999999959,994.0,3.0,-202.5,-840.0,0.0,0.25,1.665038892,0.01,-4.9287031279999995,0.10999999940395355,-0.4000000059604645,-1.899999976158142,0.075927734375,0.01373291015625,1.12451171875,37.060001373291016,0.0,83.0,-2.8870697021484375,-1.1530914306640625,Closing,0.0,0.0,-316.0,0.0,0.0,0.0,0.0,0.0,
0.612042999999976,0.0,0.0,-7407.0,3.25,202.5,840.0,0.0,0.125,0.808105386,0.01,0.0012207029999995456,-15141.0,5.5,-240.0,-840.0,0.0,0.0,0.531005805,0.01,0.019531247999999835,21036.0,5.0,60.0,840.0,0.0,0.125,3.3764644980000003,0.01,0.0,994.0,3.0,-195.0,-840.0,0.0,0.25,1.669921704,0.01,0.009765623999999917,0.11999999731779099,-0.28999999165534973,-1.8799999952316284,0.074462890625,0.05377197265625,0.7889404296875,37.060001373291016,0.0,138.0,-2.882049560546875,-1.153839111328125,Closing,0.0,0.0,-316.0,0.0,0.0,0.0,0.0,0.0,
0.6459599999999919,0.0,0.0,-7407.0,3.625,172.5,840.0000000000001,0.0,0.125,0.8007811680000001,0.01,0.0012207029999995456,-15141.0,7.0,-202.5,-840.0000000000001,0.0,0.125,0.5297851020000001,0.01,0.019531247999999835,21036.0,5.75,127.5,840.0000000000001,0.0,0.125,3.337402002,0.01,0.0,994.0,3.125,-180.0,-840.0000000000001,0.0,0.25,1.676025219,0.01,0.009765623999999917,0.09000000357627869,-0.05999999865889549,-1.840000033378601,0.13702392578125,0.034423828125,0.9215087890625,37.060001373291016,0.0,136.0,-2.88006591796875,-1.1540374755859375,Closing,0.0,0.0,-316.0,0.0,0.0,0.0,0.0,0.0,
0.67249099999998,0.0,0.0,-7407.0,4.375,187.5,840.0000000000001,0.0,0.125,0.8044432770000001,0.01,-0.0024414059999999793,-15141.0,7.625,-225.0,-840.0000000000001,0.0,0.125,0.5297851020000001,0.01,0.0,21036.0,6.25,165.0,840.0000000000001,0.0,0.125,3.348388329,0.01,4.906220316,994.0,4.25,-217.5,-840.0000000000001,0.0,0.25,1.679687328,0.01,0.009765623999999917,0.10999999940395355,0.009999999776482582,-1.8200000524520874,0.128173828125,0.044921875,1.13311767578125,37.060001373291016,0.0,126.0,-2.87554931640625,-1.1543731689453125,Closing,0.0,0.0,-316.0,0.0,0.0,0.0,0.0,0.0,
0.7060529999999854,0.0,0.0,-7407.0,4.625,232.5,840.0000000000001,0.0,0.125,0.8044432770000001,0.01,-0.0024414059999999793,-15195.0,8.25,-270.0,-840.0000000000001,0.0,0.125,0.5297851020000001,0.01,0.0,21081.0,6.25,255.0,840.0000000000001,0.0,0.0,3.347167626,0.01,0.0,950.0,4.625,-262.5,-840.0000000000001,0.0,0.25,1.679687328,0.01,0.004882811999999959,0.15000000596046448,0.33000001311302185,-1.840000033378601,0.19927978515625,0.05029296875,1.130126953125,37.060001373291016,0.0,191.0,-2.86712646484375,-1.1545562744140625,Closing,0.0,0.0,-316.0,0.0,0.0,0.0,0.0,0.125,
0.7350699999999779,0.0,0.0,-7351.0,4.75,322.5,840.0,0.0,0.125,0.809326089,0.01,0.0024414059999999793,-15195.0,8.25,-352.5,-840.0,0.0,0.125,0.535888617,0.01,0.0,21081.0,6.25,300.0,840.0,0.0,0.0,3.347167626,0.01,0.0,950.0,4.625,-300.0,-840.0,0.0,0.25,1.679687328,0.01,0.004882811999999959,0.14000000059604645,0.4300000071525574,-1.840000033378601,0.12762451171875,-0.03558349609375,1.0640869140625,37.060001373291016,0.0,120.0,-2.8638458251953125,-1.1545867919921875,Closing,0.0,0.0,-316.0,0.0,0.0,0.0,0.0,0.125,
0.7664779999999737,0.0,0.0,-7351.0,4.875,367.5,839.9999999999999,0.0,0.125,0.810546792,0.01,0.0,-15195.0,7.75,-435.0,-839.9999999999999,0.0,0.125,0.534667914,0.01,0.004882811999999959,21081.0,5.875,375.0,839.9999999999999,0.0,0.0,3.347167626,0.01,0.0,950.0,4.75,-375.0,-839.9999999999999,0.0,0.25,1.6809080310000002,0.01,0.0,0.10999999940395355,0.6600000262260437,-1.8600000143051147,0.08795166015625,-0.02728271484375,1.0150146484375,37.060001373291016,0.0,77.0,-2.8527984619140625,-1.1547698974609375,Closing,0.0,0.0,-316.0,0.0,0.0,0.0,0.0,0.0,
0.7949129999999713,0.0,0.0,-7351.0,4.875,405.0,840.0000000000001,0.0,0.125,0.819091713,0.01,0.0,-15195.0,7.625,-480.0,-840.0000000000001,0.0,0.125,0.535888617,0.01,0.004882811999999959,21081.0,5.875,405.0,840.0000000000001,0.0,0.0,3.347167626,0.01,0.0,950.0,4.625,-405.0,-840.0000000000001,0.0,0.25,1.679687328,0.01,0.0,0.07000000029802322,0.75,-1.8600000143051147,0.08172607421875,0.068359375,0.8992919921875,37.040000915527344,0.0,67.0,-2.8447113037109375,-1.1548919677734375,Closing,0.0,0.0,-316.0,0.0,0.0,0.0,0.0,0.0,
0.8305159999999742,0.0,0.0,-7351.0,4.5,487.5,840.0000000000001,0.0,0.125,0.809326089,0.01,-0.0012207029999995456,-15286.0,7.125,-562.5,-840.0000000000001,0.0,0.125,0.5407714290000001,0.01,0.0,21154.0,6.0,442.5,840.0000000000001,0.0,0.0,3.347167626,0.01,0.0,874.0,4.25,-465.0,-840.0000000000001,0.0,0.25,1.671142407,0.01,0.0,0.14000000059604645,0.8500000238418579,-1.8700000047683716,0.11395263671875,-0.04815673828125,1.065673828125,37.040000915527344,0.0,99.0,-2.8362579345703125,-1.1548309326171875,Closing,0.0,0.0,-316.0,0.0,0.0,0.0,0.0,0.0,
0.8558209999999963,0.0,0.0,-7260.0,4.25,525.0,840.0,0.0,0.125,0.8044432770000001,0.01,0.0012207029999995456,-15286.0,6.875,-600.0,-840.0,0.0,0.125,0.5407714290000001,0.01,0.004882811999999959,21154.0,6.0,457.5,840.0,0.0,0.0,3.348388329,0.01,0.0,874.0,4.5,-540.0,-840.0,0.0,0.25,1.679687328,0.01,-0.0012207029999999897,0.11999999731779099,0.9900000095367432,-1.8899999856948853,0.053955078125,0.00653076171875,0.94952392578125,37.040000915527344,0.0,37.0,-2.8273162841796875,-1.1547698974609375,Closing,0.0,0.0,-316.0,0.0,0.0,0.0,0.0,0.0,
0.8910649999999732,0.0,0.0,-7260.0,4.25,592.5,840.0,0.0,0.125,0.806884683,0.01,0.0012207029999995456,-15286.0,6.375,-637.5,-840.0,0.0,0.125,0.5554198650000001,0.01,0.004882811999999959,21154.0,6.125,480.0,840.0,0.0,0.0,3.347167626,0.01,0.0,874.0,4.25,-570.0,-840.0,0.0,0.25,1.679687328,0.01,-0.0012207029999999897,0.1599999964237213,1.0099999904632568,-1.8899999856948853,0.04803466796875,-0.051025390625,1.123291015625,37.040000915527344,0.0,29.0,-2.818145751953125,-1.1546173095703125,Closing,0.0,0.0,-316.0,0.0,0.0,0.0,0.0,0.125,
0.9215349999999743,0.0,0.0,-7260.0,4.0,622.5,840.0,0.0,0.125,0.809326089,0.01,0.0,-15286.0,5.75,-690.0,-840.0,0.0,0.25,0.5688475980000001,0.01,0.019531247999999835,21154.0,6.375,487.5,840.0,0.0,0.0,3.348388329,0.01,-0.0012207029999995456,766.0,3.875,-630.0,-840.0,0.0,0.25,1.691894358,0.01,0.0012207029999999897,0.18000000715255737,1.1299999952316284,-1.9199999570846558,0.07537841796875,-0.0567626953125,0.899169921875,37.040000915527344,0.0,59.0,-2.808624267578125,-1.154296875,Closing,0.0,0.0,-316.0,0.0,0.0,0.0,0.0,0.0,
0.9529049999999988,0.0,0.0,-7260.0,3.625,675.0,840.0,0.0,0.125,0.812988198,0.01,0.0,-15405.0,5.625,-720.0,-840.0,0.0,0.25,0.5688475980000001,0.01,0.019531247999999835,21241.0,6.5,510.0,840.0,0.0,0.0,3.348388329,0.01,-0.0012207029999995456,766.0,3.75,-660.0,-840.0,0.0,0.25,1.679687328,0.01,0.0012207029999999897,0.18000000715255737,1.2000000476837158,-1.9700000286102295,0.21295166015625,0.064208984375,0.999755859375,37.040000915527344,0.0,189.0,-2.79864501953125,-1.1536407470703125,Closing,0.0,0.0,-316.0,0.0,0.0,0.0,0.0,0.0,
0.9890069999999832,0.0,0.0,-7144.0,3.25,735.0,840.0,0.0,0.125,0.8044432770000001,4.931702972633752,-0.0024414059999999793,-15405.0,5.125,-757.5,-840.0,0.0,0.25,0.5688475980000001,4.96321847052598,0.008544921000000372,21241.0,6.625,577.5,840.0,0.0,0.0,3.347167626,4.939851067190171,0.0012207029999995456,766.0,4.0,-690.0,-840.0,0.0,0.25,1.679687328,4.95744911163648,0.0,0.23999999463558197,1.350000023841858,-2.059999942779541,0.0562744140625,-8.544921875E-4,1.07080078125,37.040000915527344,0.0,31.0,-2.7831573486328125,-1.1521453857421875,Closing,0.0,0.0,-316.0,0.0,0.0,0.0,0.0,0.0,
1.015685999999987,0.0,0.0,-7144.0,3.0,757.5,840.0,0.0,0.125,0.8044432770000001,4.930743924742816,0.003662109000000413,-15405.0,4.75,-780.0,-840.0,0.0,0.25,0.5688475980000001,4.962253293946445,0.0,21241.0,6.25,645.0,840.0,0.0,0.0,3.358153953,4.9388904347729685,0.0,766.0,3.875,-697.5,-840.0,0.0,0.25,1.6809080310000002,4.956485057000319,0.0,0.23999999463558197,1.3799999952316284,-2.1500000953674316,0.037841796875,0.010986328125,0.876220703125,37.040000915527344,0.0,16.0,-2.7726287841796875,-1.1521453857421875,Closing,0.0,0.0,-316.0,0.0,0.0,0.0,0.0,0.0,
1.050850999999995,0.0,0.0,-7144.0,2.875,802.5,840.0,0.0,0.125,0.799560465,4.929510859902256,0.003662109000000413,-15405.0,4.75,-795.0,-840.0,0.0,0.25,0.57373041,4.961012349342525,0.0,21241.0,6.0,667.5,840.0,0.0,0.0,3.347167626,4.937655332678954,0.0,646.0,3.5,-712.5,-840.0,0.0,0.25,1.6809080310000002,4.955245554898845,0.0,0.2800000011920929,1.340000033378601,-2.2300000190734863,0.0584716796875,0.10626220703125,1.06927490234375,37.040000915527344,0.0,29.0,-2.7621307373046875,-1.1519622802734375,Closing,0.0,0.0,-316.0,0.0,0.0,0.0,0.0,0.0,
1.083020999999979,0.0,0.0,-7144.0,2.75,817.5,840.0,0.0,0.125,0.809326089,4.9284148051697585,-0.0012207030000004337,-15535.0,4.5,-802.5,-840.0,0.0,0.25,0.57373041,4.959909290394485,0.006103515000000392,21353.0,5.625,712.5,840.0,0.0,0.0,3.347167626,4.936557467059295,0.0,646.0,3.5,-757.5,-840.0,0.0,0.25,1.667480298,4.9541437781718045,-0.0012207029999999897,0.30000001192092896,1.399999976158142,-2.299999952316284,0.09039306640625,-0.05419921875,0.92401123046875,37.040000915527344,0.0,70.0,-2.7514190673828125,-1.1517791748046875,Closing,0.0,0.0,-316.0,0.0,0.0,0.0,0.0,0.125,
1.1125089999999909,0.0,0.0,-7007.0,2.625,847.5,840.0000000000001,0.0,0.125,0.8044432770000001,4.927455757278823,0.0,-15535.0,4.125,-832.5,-840.0000000000001,0.0,0.25,0.57373041,4.95894411381495,0.0,21353.0,5.625,735.0,840.0000000000001,0.0,0.0,3.347167626,4.935596834642093,0.0,646.0,3.625,-810.0,-840.0000000000001,0.0,0.25,1.6613767830000001,4.953179723535643,-0.008544920999999928,0.33000001311302185,1.309999942779541,-2.369999885559082,-0.1209716796875,-0.03948974609375,1.182373046875,37.040000915527344,0.0,-146.0,-2.74072265625,-1.15167236328125,Closing,0.0,0.0,-316.0,0.0,0.0,0.0,0.0,0.125,
1.1468449999999721,0.0,0.0,-7007.0,2.375,862.5,840.0000000000001,0.0,0.125,0.8056639800000001,4.925948678755137,0.0,-15535.0,3.875,-847.5,-840.0000000000001,0.0,0.25,0.5688475980000001,4.95742740447402,0.0,21353.0,5.5,772.5,840.0000000000001,0.0,0.0,3.347167626,4.934087266143163,0.0,646.0,3.375,-810.0,-840.0000000000001,0.0,0.25,1.6564939710000002,4.951664777252409,-0.008544920999999928,0.28999999165534973,1.399999976158142,-2.450000047683716,0.10931396484375,0.046630859375,0.9608154296875,37.040000915527344,0.0,83.0,-2.7300262451171875,-1.15179443359375,Closing,0.0,0.0,-316.0,0.0,0.0,0.0,0.0,0.125,
1.1783979999999865,0.0,0.0,-7007.0,2.0,892.5,840.0,0.0,0.125,0.8056639800000001,4.924715617181078,-0.0012207029999995456,-15678.0,3.5,-870.0,-840.0,0.0,0.25,0.559081974,4.956186463157475,-0.009765624000000805,21481.0,5.25,780.0,840.0,0.0,0.0,3.347167626,4.932852167321046,0.0,513.0,3.375,-810.0,-840.0,0.0,0.25,1.651611159,4.950425278434489,-0.014648435999999876,0.3100000023841858,1.309999942779541,-2.549999952316284,-0.0313720703125,-0.03582763671875,1.11151123046875,37.040000915527344,0.0,-54.0,-2.7194366455078125,-1.1520233154296875,Closing,0.0,0.0,-316.0,0.0,0.0,0.0,0.0,0.125,
1.2084799999999813,0.0,0.0,-6861.0,2.0,900.0,840.0,0.0,0.125,0.8044432770000001,4.9233455487654565,0.003662108999999525,-15678.0,3.125,-885.0,-840.0,0.0,0.25,0.54931635,4.954807639472425,-0.009765623999999917,21481.0,5.125,787.5,840.0,0.0,0.0,3.347167626,4.931479835296472,0.0,513.0,3.25,-840.0,-840.0,0.0,0.25,1.649169753,4.949048057525688,-0.004882812000000181,0.3100000023841858,1.25,-2.690000057220459,-0.05206298828125,0.0916748046875,1.3177490234375,37.040000915527344,0.0,-84.0,-2.703643798828125,-1.152496337890625,Closing,0.0,0.0,-316.0,0.0,0.0,0.0,0.0,0.0,
1.2420379999999713,0.0,0.0,-6861.0,1.625,915.0,840.0000000000001,0.0,0.125,0.808105386,4.922112483924896,0.003662108999999525,-15678.0,3.0,-892.5,-840.0000000000001,0.0,0.25,0.545654241,4.953566694868505,-0.009765623999999917,21481.0,5.0,817.5,840.0000000000001,0.0,0.0,3.348388329,4.930244733202458,0.0,513.0,3.125,-862.5,-840.0000000000001,0.0,0.25,1.646728347,4.9478085554242135,-0.004882812000000181,0.28999999165534973,1.340000033378601,-2.7899999618530273,0.07598876953125,0.06683349609375,0.903076171875,37.040000915527344,0.0,51.0,-2.69329833984375,-1.1526947021484375,Closing,0.0,0.0,-316.0,0.0,0.0,0.0,0.0,0.0,
1.2714409999999916,0.0,0.0,-6861.0,1.5,915.0,840.0,0.0,0.125,0.794677653,4.920742415509274,-0.004882811999999959,-15678.0,2.75,-900.0,-840.0,0.0,0.25,0.535888617,4.952187871183455,-0.013427732999999442,21481.0,4.5,892.5,840.0,0.0,0.0,3.347167626,4.928872401177883,0.0,513.0,2.875,-870.0,-840.0,0.0,0.25,1.649169753,4.946431334515412,-0.004882811999999959,0.23000000417232513,1.190000057220459,-2.9100000858306885,0.001220703125,-0.04595947265625,1.14654541015625,37.040000915527344,0.0,-20.0,-2.6828765869140625,-1.1530609130859375,Closing,0.0,0.0,-316.0,0.0,0.0,0.0,0.0,0.0,
1.308,0.0,0.0,-6861.0,1.25,930.0,840.0,0.0,0.125,0.8056639800000001,4.918413295936216,-0.004882811999999959,-15826.0,2.625,-907.5,-840.0,0.0,0.25,0.5297851020000001,4.949843867631495,-0.010986327000000351,21632.0,4.25,945.0,840.0,0.0,0.0,3.348388329,4.926539433464209,0.0,374.0,2.625,-877.5,-840.0,0.0,0.25,1.645507644,4.944090055686898,0.0,0.23999999463558197,1.1799999475479126,-3.009999990463257,0.0545654296875,0.041748046875,0.84368896484375,36.959999084472656,0.0,35.0,-2.672698974609375,-1.1535186767578125,Closing,0.0,0.0,-316.0,0.0,0.0,0.0,0.0,0.0,
1.3400559999999824,0.0,0.0,-6709.0,1.125,945.0,839.9999999999999,0.0,0.125,0.8044432770000001,4.917043227520594,0.0012207030000004337,-15826.0,2.25,-915.0,-839.9999999999999,0.0,0.25,0.5297851020000001,4.948465043946445,-0.010986327000000351,21632.0,3.75,952.5,839.9999999999999,0.0,0.0,3.348388329,4.925167101439635,0.0,374.0,2.625,-885.0,-839.9999999999999,0.0,0.25,1.64794905,4.942712834778097,0.0,0.23999999463558197,1.149999976158142,-3.0999999046325684,-0.01751708984375,0.05352783203125,1.0577392578125,36.959999084472656,0.0,-41.0,-2.66259765625,-1.153900146484375,Closing,0.0,0.0,-316.0,0.0,0.0,0.0,0.0,0.0,
1.3696869999999763,0.0,0.0,-6709.0,0.875,952.5,840.0,0.0,0.125,0.809326089,4.9160841763631575,-0.0012207030000004337,-15826.0,2.125,-922.5,-840.0,0.0,0.25,0.5297851020000001,4.947499864079535,0.0,21632.0,3.5,952.5,840.0,0.0,0.0,3.348388329,4.924206465750536,0.0,374.0,2.875,-877.5,-840.0,0.0,0.25,1.646728347,4.9417487768583825,0.0012207029999999897,0.3100000023841858,1.1299999952316284,-3.180000066757202,-0.06243896484375,-0.07122802734375,0.94427490234375,36.959999084472656,0.0,-76.0,-2.652801513671875,-1.154052734375,Closing,0.0,0.0,-316.0,0.0,0.0,0.0,0.0,0.125,
1.4023069999999715,0.0,0.0,-6709.0,0.875,952.5,840.0,0.0,0.125,0.8044432770000001,4.91498812163066,-0.0012207030000004337,-15826.0,2.0,-930.0,-840.0,0.0,0.25,0.5297851020000001,4.946396805131495,0.0,21632.0,3.25,945.0,840.0,0.0,0.0,3.347167626,4.923108600130876,0.0,374.0,2.625,-870.0,-840.0,0.0,0.25,1.64794905,4.940647000131342,0.0012207029999999897,0.2800000011920929,1.0800000429153442,-3.240000009536743,-0.0706787109375,-0.00445556640625,1.042724609375,36.959999084472656,0.0,-89.0,-2.6431732177734375,-1.154449462890625,Closing,0.0,0.0,-316.0,0.0,0.0,0.0,0.0,0.0,
1.4341439999999712,0.0,0.0,-6709.0,0.875,937.5,840.0,0.0,0.125,0.8044432770000001,4.914166080581287,0.0024414059999999793,-15973.0,1.875,-930.0,-840.0,0.0,0.25,0.531005805,4.945569510920465,0.0,21780.0,3.25,937.5,840.0,0.0,0.0,3.338622705,4.922285200916131,-0.0012207029999995456,231.0,2.25,-885.0,-840.0,0.0,0.25,1.646728347,4.939820667586062,-0.0012207029999999897,0.28999999165534973,1.090000033378601,-3.3399999141693115,0.02276611328125,0.04364013671875,0.6593017578125,36.959999084472656,0.0,7.0,-2.629150390625,-1.154571533203125,Closing,0.0,0.0,-316.0,0.0,0.0,0.0,0.0,0.0,
1.4656329999999724,0.0,0.0,-6560.0,0.875,937.5,840.0,0.0,0.125,0.806884683,4.913207032690352,0.0,-15973.0,1.75,-930.0,-840.0,0.0,0.25,0.52490229,4.94460433434093,0.0,21780.0,3.25,915.0,840.0,0.0,0.0,3.347167626,4.92132456849893,0.0012207029999995456,231.0,2.25,-900.0,-840.0,0.0,0.25,1.6589353770000002,4.938856612949901,0.0,0.3400000035762787,0.9599999785423279,-3.4100000858306885,-0.1021728515625,-0.00341796875,1.21746826171875,36.959999084472656,0.0,-121.0,-2.6199798583984375,-1.1546173095703125,Closing,0.0,0.0,-316.0,0.0,0.0,0.0,0.0,0.0,
1.4949799999999813,0.0,0.0,-6560.0,0.75,930.0,840.0,0.0,0.125,0.8044432770000001,4.912247981532915,0.0,-15973.0,1.625,-922.5,-840.0,0.0,0.25,0.526122993,4.94363915447402,0.0,21780.0,3.25,900.0,840.0,0.0,0.125,3.348388329,4.92036393280983,0.0012207029999995456,231.0,2.0,-937.5,-840.0,0.0,0.25,1.645507644,4.937892555030187,0.0,0.3100000023841858,0.949999988079071,-3.4600000381469727,-0.05615234375,-0.07269287109375,0.98651123046875,36.959999084472656,0.0,-67.0,-2.6112060546875,-1.1544952392578125,Closing,0.0,0.0,-316.0,0.0,0.0,0.0,0.0,0.0,
1.5308729999999924,0.0,0.0,-6560.0,0.75,922.5,840.0,0.0,0.125,0.8044432770000001,4.911562947325105,0.0,-15973.0,1.5,-915.0,-840.0,0.0,0.25,0.520019478,4.9429497426314954,-0.004882811999999959,21918.0,3.375,877.5,840.0,0.0,0.125,3.347167626,4.919677766797543,0.0,84.0,1.875,-930.0,-840.0,0.0,0.25,1.646728347,4.937203944575787,0.0,0.25,0.9200000166893005,-3.5,0.02630615234375,0.09295654296875,0.90069580078125,36.959999084472656,0.0,6.0,-2.602783203125,-1.1544036865234375,Closing,0.0,0.0,-316.0,0.0,0.0,0.0,0.0,0.0,
1.558694999999978,0.0,0.0,-6560.0,0.75,922.5,840.0,0.0,0.125,0.8032225740000001,4.9110149199588555,-0.0012207029999995456,-16119.0,1.5,-907.5,-840.0,0.0,0.25,0.5151366660000001,4.942398213157475,-0.004882811999999959,21918.0,3.5,847.5,840.0,0.0,0.125,3.347167626,4.919128833987713,0.0,84.0,2.0,-900.0,-840.0,0.0,0.25,1.646728347,4.936653056212267,0.0,0.2800000011920929,0.8799999952316284,-3.569999933242798,-0.02655029296875,0.081298828125,1.0079345703125,36.959999084472656,0.0,-46.0,-2.5902862548828125,-1.1544036865234375,Closing,0.0,0.0,-316.0,0.0,0.0,0.0,0.0,0.0,
1.5939249999999883,0.0,0.0,-6411.0,0.75,922.5,840.0,0.0,0.125,0.8044432770000001,4.910055872067921,-0.0012207029999995456,-16119.0,1.375,-907.5,-840.0,0.0,0.25,0.511474557,4.94143303657794,-0.004882811999999959,21918.0,3.625,832.5,840.0,0.0,0.125,3.347167626,4.918168201570511,0.0,84.0,2.0,-877.5,-840.0,0.0,0.25,1.641845535,4.9356890015761055,0.0,0.27000001072883606,0.9100000262260437,-3.5899999141693115,-0.0106201171875,-0.07183837890625,1.07879638671875,36.959999084472656,0.0,-39.0,-2.5821990966796875,-1.15447998046875,Closing,0.0,0.0,-316.0,0.0,0.0,0.0,0.0,0.0,
1.628215999999986,0.0,0.0,-6411.0,0.75,922.5,840.0,0.0,0.125,0.809326089,4.909507844701672,0.0,-16119.0,1.375,-907.5,-840.0,0.0,0.25,0.510253854,4.94088150710392,-0.004882811999999959,21918.0,3.875,810.0,840.0,0.0,0.125,3.348388329,4.9176192687606815,0.0,84.0,2.5,-855.0,-840.0,0.0,0.25,1.6357420200000001,4.935138113212585,-0.004882811999999959,0.30000001192092896,0.75,-3.619999885559082,-0.05889892578125,-0.007568359375,1.26409912109375,36.959999084472656,0.0,-74.0,-2.5782470703125,-1.1545867919921875,Closing,0.0,0.0,-316.0,0.0,0.0,0.0,0.0,0.125,
1.6687749999999941,0.0,0.0,-6411.0,0.75,907.5,840.0000000000001,0.0,0.125,0.8032225740000001,4.909370837860109,0.0,-16263.0,1.25,-900.0,-840.0000000000001,0.0,0.25,0.510253854,4.940743624735415,-0.004882811999999959,22046.0,4.0,795.0,840.0000000000001,0.0,0.125,3.348388329,4.917482035558224,0.0,-51.0,2.25,-840.0,-840.0000000000001,0.0,0.25,1.6308592080000002,4.935000391121705,-0.004882811999999959,0.27000001072883606,0.8100000023841858,-3.619999885559082,-0.0133056640625,-0.02484130859375,1.00799560546875,36.959999084472656,0.0,-25.0,-2.5668182373046875,-1.154876708984375,Closing,0.0,0.0,-316.0,0.0,0.0,0.0,0.0,0.125,
1.6971049999999814,0.0,0.0,-6267.0,0.75,900.0,840.0000000000001,0.0,0.125,0.809326089,4.909370837860109,0.0,-16263.0,1.125,-892.5,-840.0000000000001,0.0,0.25,0.510253854,4.940743624735415,-0.004882811999999959,22046.0,4.0,795.0,840.0000000000001,0.0,0.125,3.347167626,4.917482035558224,0.0,-51.0,2.25,-840.0,-840.0000000000001,0.0,0.25,1.6308592080000002,4.935000391121705,-0.004882811999999959,0.25999999046325684,0.7300000190734863,-3.640000104904175,-0.0296630859375,0.0440673828125,1.11090087890625,36.959999084472656,0.0,-46.0,-2.5594329833984375,-1.1552734375,Closing,0.0,0.0,-316.0,0.0,0.0,0.0,0.0,0.125,
1.7312779999999912,0.0,0.0,-6267.0,0.75,900.0,840.0,0.0,0.125,0.808105386,4.90882280722736,0.0,-16263.0,1.125,-900.0,-840.0,0.0,0.25,0.5041503390000001,4.94019209197402,0.0,22046.0,4.0,810.0,840.0,0.0,0.125,3.345946923,4.916933099476497,0.0,-51.0,2.0,-870.0,-840.0,0.0,0.25,1.6320799110000002,4.934449499474631,-0.004882811999999959,0.23000000417232513,0.6600000262260437,-3.680000066757202,0.06439208984375,0.04095458984375,0.95709228515625,36.959999084472656,0.0,50.0,-2.5521697998046875,-1.15557861328125,Closing,0.0,0.0,-316.0,0.0,0.0,0.0,0.0,0.125,
1.758359999999986,0.0,0.0,-6267.0,0.5,900.0,840.0,0.0,0.125,0.808105386,4.908137773019549,0.0,-16263.0,1.125,-900.0,-840.0,0.0,0.25,0.5151366660000001,4.939502680131495,0.0,22046.0,4.0,840.0,840.0,0.0,0.125,3.348388329,4.916246933464209,0.0,-203.0,1.375,-930.0,-840.0,0.0,0.25,1.6320799110000002,4.933760889020231,0.0,0.20999999344348907,0.6399999856948853,-3.7899999618530273,-0.00860595703125,0.05279541015625,0.9083251953125,36.959999084472656,0.0,-22.0,-2.54132080078125,-1.1559295654296875,Closing,0.0,0.0,-316.0,0.0,0.0,0.0,0.0,0.0,
1.793328999999998,0.0,0.0,-6267.0,0.5,915.0,840.0,0.0,0.125,0.809326089,4.907041718287052,0.0024414059999999793,-16409.0,1.125,-907.5,-840.0,0.0,0.25,0.511474557,4.938399621183455,0.0,22183.0,3.875,847.5,840.0,0.0,0.125,3.345946923,4.91514906784455,0.0,-203.0,1.375,-952.5,-840.0,0.0,0.25,1.6308592080000002,4.93265911229319,0.0,0.23999999463558197,0.5400000214576721,-3.869999885559082,-0.100830078125,0.021484375,1.25457763671875,36.959999084472656,0.0,-113.0,-2.534271240234375,-1.1561737060546875,Closing,0.0,0.0,-316.0,0.0,0.0,0.0,0.0,0.0,
1.822475999999995,0.0,0.0,-6118.0,0.5,930.0,840.0,0.0,0.25,0.809326089,4.905945663554554,0.0012207029999995456,-16409.0,1.0,-907.5,-840.0,0.0,0.25,0.510253854,4.9372965622354155,0.0,22183.0,3.875,847.5,840.0,0.0,0.125,3.348388329,4.914051202224891,0.0,-203.0,1.375,-960.0,-840.0,0.0,0.25,1.6296385050000002,4.93155733556615,0.0,0.20000000298023224,0.5899999737739563,-3.940000057220459,0.01287841796875,-0.06756591796875,0.66644287109375,36.959999084472656,0.0,10.0,-2.5276947021484375,-1.156341552734375,Closing,0.0,0.0,-316.0,0.0,0.0,0.0,0.0,0.0,
1.8563019999999961,0.0,0.0,-6118.0,0.375,930.0,840.0000000000001,0.0,0.25,0.806884683,4.904986612397118,0.0012207029999995456,-16409.0,0.875,-907.5,-840.0000000000001,0.0,0.25,0.51269526,4.936331382368505,0.0,22183.0,3.875,840.0,840.0000000000001,0.0,0.125,3.348388329,4.913090566535791,0.0,-203.0,1.375,-930.0,-840.0000000000001,0.0,0.25,1.6308592080000002,4.930593277646436,0.0,0.25,0.44999998807907104,-3.990000009536743,-0.13690185546875,-0.0460205078125,1.40582275390625,36.959999084472656,0.0,-144.0,-2.5213470458984375,-1.1566162109375,Closing,0.0,0.0,-316.0,0.0,0.0,0.0,0.0,0.0,
1.8905969999999797,0.0,0.0,-6118.0,0.375,922.5,840.0,0.0,0.25,0.809326089,4.9040275612396815,0.0012207030000004337,-16409.0,0.875,-900.0,-840.0,0.0,0.25,0.510253854,4.935366202501595,0.0,22316.0,4.0,832.5,840.0,0.0,0.125,3.347167626,4.9121299308466915,0.0,-335.0,1.375,-892.5,-840.0,0.0,0.25,1.6308592080000002,4.9296292197267215,0.0,0.23999999463558197,0.49000000953674316,-4.03000020980835,0.08038330078125,0.0860595703125,0.65203857421875,36.959999084472656,0.0,68.0,-2.51513671875,-1.156768798828125,Closing,0.0,0.0,-316.0,0.0,0.0,0.0,0.0,0.0,
1.916926999999996,0.0,0.0,-6118.0,0.375,915.0,840.0000000000001,0.0,0.25,0.812988198,4.9037535475565575,-0.0012207030000004337,-16553.0,0.875,-900.0,-840.0000000000001,0.0,0.25,0.510253854,4.935090437764585,0.0,22316.0,4.0,832.5,840.0000000000001,0.0,0.125,3.347167626,4.911855464441777,0.0,-335.0,1.875,-817.5,-840.0000000000001,0.0,0.25,1.6308592080000002,4.9293537755449615,0.0,0.2800000011920929,0.3499999940395355,-4.119999885559082,0.05657958984375,0.01055908203125,0.96197509765625,36.959999084472656,0.0,50.0,-2.5059661865234375,-1.1566162109375,Closing,0.0,0.0,-316.0,0.0,0.0,0.0,0.0,0.125,
1.9513559999999999,0.0,0.0,-5973.0,0.375,900.0,840.0,0.0,0.25,0.819091713,4.902520489248999,-0.0012207030000004337,-16553.0,0.75,-892.5,-840.0,0.0,0.25,0.510253854,4.933849499735415,0.0,22316.0,4.0,832.5,840.0,0.0,0.125,3.347167626,4.910620368891557,0.0,-335.0,1.875,-810.0,-840.0,0.0,0.25,1.6308592080000002,4.928114280010594,0.0,0.2800000011920929,0.3499999940395355,-4.119999885559082,0.05657958984375,0.01055908203125,0.96197509765625,36.959999084472656,0.0,50.0,-2.5059661865234375,-1.1566162109375,Closing,0.0,0.0,-316.0,0.0,0.0,0.0,0.0,0.125,
1.9871049999999815,0.0,0.0,-5973.0,0.375,892.5,840.0,0.0,0.25,0.8178710100000001,4.90197246188275,0.009765623999999917,-16553.0,0.875,-885.0,-840.0,0.0,0.25,0.51269526,4.933297970261395,0.0,22316.0,4.0,847.5,840.0,0.0,0.125,3.347167626,4.9100714360817275,0.0,-335.0,1.625,-847.5,-840.0,0.0,0.25,1.6320799110000002,4.927563391647074,0.0,0.28999999165534973,0.1899999976158142,-4.239999771118164,-0.13470458984375,0.00836181640625,1.05230712890625,36.959999084472656,0.0,-138.0,-2.4969024658203125,-1.15643310546875,Closing,0.0,0.0,-316.0,0.0,0.0,0.0,0.0,0.125,
2.01303899999999,0.0,0.0,-5973.0,0.375,877.5,840.0,0.0,0.25,0.822753822,4.900876407150252,0.0,-16693.0,0.875,-877.5,-840.0,0.0,0.25,0.511474557,4.932194911313355,0.0,22457.0,4.0,862.5,840.0,0.0,0.125,3.348388329,4.908973570462068,0.0,-482.0,1.625,-907.5,-840.0,0.0,0.25,1.6345213170000001,4.926461614920034,0.0,0.2800000011920929,0.23000000417232513,-4.329999923706055,-0.017578125,-0.0230712890625,0.918701171875,36.959999084472656,0.0,-19.0,-2.4940643310546875,-1.1564483642578125,Closing,0.0,0.0,-316.0,0.0,0.0,0.0,0.0,0.0,
2.0479009999999835,0.0,0.0,-5832.0,0.375,877.5,840.0,0.0,0.25,0.806884683,4.899643342309692,0.0,-16693.0,0.875,-877.5,-840.0,0.0,0.25,0.510253854,4.930953966709435,0.0,22457.0,3.75,892.5,840.0,0.0,0.125,3.347167626,4.907738468368054,0.0,-482.0,1.375,-915.0,-840.0,0.0,0.25,1.625976396,4.925222112818559,0.0,0.3100000023841858,0.09000000357627869,-4.429999828338623,-0.074462890625,-0.00921630859375,1.319580078125,36.959999084472656,0.0,-75.0,-2.4942779541015625,-1.1564788818359375,Closing,0.0,0.0,-316.0,0.0,0.0,0.0,0.0,0.0,
2.0734019999999727,0.0,0.0,-5832.0,0.375,877.5,840.0,0.0,0.25,0.8178710100000001,4.89827327389407,0.0,-16693.0,1.0,-862.5,-840.0,0.0,0.25,0.511474557,4.929575143024385,0.0,22457.0,3.75,892.5,840.0,0.0,0.125,3.347167626,4.906366136343479,0.0,-482.0,1.375,-907.5,-840.0,0.0,0.25,1.6320799110000002,4.923844891909758,0.0,0.20999999344348907,0.15000000596046448,-4.519999980926514,0.0301513671875,0.02166748046875,0.7447509765625,36.959999084472656,0.0,26.0,-2.4947052001953125,-1.15655517578125,Closing,0.0,0.0,-316.0,0.0,0.0,0.0,0.0,0.0,
2.1090319999999774,0.0,0.0,-5832.0,0.375,877.5,840.0,0.0,0.25,0.8178710100000001,4.897040209053509,0.0,-16693.0,1.0,-855.0,-840.0,0.0,0.25,0.511474557,4.928334198420465,0.0,22457.0,3.625,885.0,840.0,0.0,0.125,3.347167626,4.9051310342494645,0.0,-482.0,1.625,-855.0,-840.0,0.0,0.25,1.6345213170000001,4.922605389808284,0.0,0.27000001072883606,0.03999999910593033,-4.610000133514404,-0.0018310546875,-0.03173828125,1.12164306640625,36.959999084472656,0.0,0.0,-2.4952545166015625,-1.1565093994140625,Closing,0.0,0.0,-316.0,0.0,0.0,0.0,0.0,0.0,
2.140197999999975,0.0,0.0,-5832.0,0.375,877.5,840.0000000000001,0.0,0.25,0.819091713,4.895807144212949,0.0,-16827.0,1.125,-840.0,-840.0000000000001,0.0,0.25,0.510253854,4.927093253816545,0.0,22600.0,3.625,885.0,840.0000000000001,0.0,0.125,3.348388329,4.90389593215545,0.0,-612.0,1.875,-825.0,-840.0000000000001,0.0,0.25,1.6320799110000002,4.921365887706809,0.0,0.30000001192092896,0.029999999329447746,-4.690000057220459,-0.044189453125,-0.015625,1.0888671875,36.959999084472656,0.0,-42.0,-2.49530029296875,-1.1565093994140625,Closing,0.0,0.0,-316.0,0.0,0.0,0.0,0.0,0.0,
2.169050999999978,0.0,0.0,-5692.0,0.375,870.0,840.0000000000001,0.0,0.25,0.809326089,4.8947110894804515,0.0,-16827.0,1.125,-832.5,-840.0000000000001,0.0,0.25,0.51269526,4.925990194868505,0.0,22600.0,3.5,885.0,840.0000000000001,0.0,0.125,3.348388329,4.902798066535791,0.0,-612.0,2.25,-787.5,-840.0000000000001,0.0,0.25,1.6320799110000002,4.920264110979769,0.0,0.23999999463558197,-0.019999999552965164,-4.78000020980835,0.02069091796875,-6.103515625E-5,0.851318359375,36.959999084472656,0.0,21.0,-2.4954376220703125,-1.1566925048828125,Closing,0.0,0.0,-316.0,0.0,0.0,0.0,0.0,0.0,
2.2002149999999965,0.0,0.0,-5692.0,0.375,870.0,840.0,0.0,0.25,0.797119059,4.893478024639891,0.0,-16827.0,1.125,-832.5,-840.0,0.0,0.25,0.511474557,4.924749250264585,0.0,22600.0,3.625,877.5,840.0,0.0,0.125,3.348388329,4.901562964441776,0.0,-612.0,2.25,-780.0,-840.0,0.0,0.25,1.6320799110000002,4.919024608878295,0.0,0.28999999165534973,-0.09000000357627869,-4.829999923706055,5.4931640625E-4,0.01690673828125,1.17926025390625,36.959999084472656,0.0,1.0,-2.4956512451171875,-1.1566925048828125,Closing,0.0,0.0,-316.0,0.0,0.0,0.0,0.0,0.0,
2.2344219999999915,0.0,0.0,-5692.0,0.375,862.5,840.0,0.0,0.25,0.820312416,4.892244966332332,0.0012207030000004337,-16827.0,1.125,-832.5,-840.0,0.0,0.25,0.510253854,4.923508312235415,0.0,22600.0,3.625,877.5,840.0,0.0,0.125,3.347167626,4.900327868891558,0.0,-612.0,2.0,-810.0,-840.0,0.0,0.25,1.6320799110000002,4.917785113343927,0.0,0.28999999165534973,-0.07999999821186066,-4.909999847412109,0.01202392578125,-0.12432861328125,0.89569091796875,36.959999084472656,0.0,24.0,-2.49609375,-1.1567840576171875,Closing,0.0,0.0,-316.0,0.0,0.0,0.0,0.0,0.0,
2.265734999999986,0.0,0.0,-5692.0,0.375,862.5,840.0000000000001,0.0,0.25,0.8178710100000001,4.891148911599834,0.0,-16961.0,1.25,-832.5,-840.0000000000001,0.0,0.25,0.511474557,4.922405253287375,0.0,22737.0,3.625,862.5,840.0000000000001,0.0,0.125,3.343505517,4.899230003271898,0.0,-746.0,2.0,-832.5,-840.0000000000001,0.0,0.25,1.6308592080000002,4.916683336616887,0.0,0.3100000023841858,-0.17000000178813934,-5.050000190734863,-0.12506103515625,0.0418701171875,1.21197509765625,36.959999084472656,0.0,-123.0,-2.496795654296875,-1.15716552734375,Closing,0.0,0.0,-316.0,0.0,0.0,0.0,0.0,0.125,
2.2940839999999736,0.0,0.0,-5555.0,0.375,855.0,839.9999999999999,0.0,0.25,0.812988198,4.889778836651211,0.0,-16961.0,1.25,-832.5,-839.9999999999999,0.0,0.25,0.510253854,4.921026423027575,0.0,22737.0,3.625,855.0,839.9999999999999,0.0,0.125,3.342284814,4.897857664703528,0.0,-746.0,1.875,-862.5,-839.9999999999999,0.0,0.25,1.6308592080000002,4.915306109140979,0.0,0.3199999928474426,-0.11999999731779099,-5.090000152587891,0.00640869140625,-0.0062255859375,1.1007080078125,36.959999084472656,0.0,9.0,-2.4971771240234375,-1.1572723388671875,Closing,0.0,0.0,-316.0,0.0,0.0,0.0,0.0,0.0,
2.32680799999999,0.0,0.0,-5555.0,0.375,847.5,840.0,0.0,0.25,0.8142089010000001,4.888545778343652,-0.004882811999999959,-16961.0,1.375,-825.0,-840.0,0.0,0.25,0.505371042,4.919785484998405,0.0,22737.0,3.625,855.0,840.0,0.0,0.125,3.338622705,4.896622569153309,-0.009765623999999917,-746.0,1.875,-870.0,-840.0,0.0,0.25,1.627197099,4.914066613606612,0.0,0.3199999928474426,-0.2800000011920929,-5.239999771118164,-0.0450439453125,0.04364013671875,1.1231689453125,36.93000030517578,0.0,-42.0,-2.4984588623046875,-1.1573028564453125,Closing,0.0,0.0,-316.0,0.0,0.0,0.0,0.0,0.0,
2.35425999999998,0.0,0.0,-5555.0,0.375,847.5,840.0,0.0,0.25,0.8142089010000001,4.88717570992803,-0.004882811999999959,-16961.0,1.375,-825.0,-840.0,0.0,0.25,0.510253854,4.918406661313355,0.0,22737.0,3.625,855.0,840.0,0.0,0.125,3.338622705,4.895250237128735,0.0,-746.0,1.875,-847.5,-840.0,0.0,0.25,1.625976396,4.9126893926978115,4.953117187999999,0.3100000023841858,-0.17000000178813934,-5.329999923706055,-0.01837158203125,0.020263671875,0.92535400390625,36.93000030517578,0.0,-16.0,-2.4989471435546875,-1.1572113037109375,Closing,0.0,0.0,-316.0,0.0,0.0,0.0,0.0,0.125,
2.39074099999998,0.0,0.0,-5555.0,0.375,855.0,840.0,0.0,0.25,0.808105386,4.88594264508747,0.0,-17092.0,1.5,-817.5,-840.0,0.0,0.25,0.510253854,4.917165716709435,0.0,22875.0,3.625,855.0,840.0,0.0,0.125,3.337402002,4.894015135034721,0.0,-880.0,1.875,-832.5,-840.0,0.0,0.25,1.6101072570000001,4.911449890596336,4.953117187999999,0.3499999940395355,-0.27000001072883606,-5.449999809265137,-0.0299072265625,-0.01385498046875,1.15380859375,36.93000030517578,0.0,-22.0,-2.499053955078125,-1.1571044921875,Closing,0.0,0.0,-316.0,0.0,0.0,0.0,0.0,0.0,
2.4210599999999975,0.0,0.0,-5418.0,0.375,855.0,840.0,0.0,0.25,0.8056639800000001,4.8842985629887234,-0.004882811999999959,-17092.0,1.5,-817.5,-840.0,0.0,0.25,0.511474557,4.915511128287375,0.0,22875.0,3.625,855.0,840.0,0.0,0.125,3.337402002,4.892368336605231,0.0,-880.0,2.0,-802.5,-840.0,0.0,0.25,1.6027830390000002,4.909797225505776,-0.014648435999999876,0.30000001192092896,-0.20999999344348907,-5.559999942779541,0.02288818359375,0.06048583984375,0.87200927734375,36.93000030517578,0.0,20.0,-2.4991607666015625,-1.1570281982421875,Closing,0.0,0.0,-316.0,0.0,0.0,0.0,0.0,0.0,
2.4525319999999775,0.0,0.0,-5418.0,0.375,855.0,840.0,0.0,0.25,0.797119059,4.8821064469907265,-0.004882811999999959,-17092.0,1.625,-817.5,-840.0,0.0,0.25,0.505371042,4.913305003816545,0.0,22875.0,3.625,855.0,840.0,0.0,0.125,3.338622705,4.890172598822117,0.0,-880.0,2.0,-802.5,-840.0,0.0,0.25,1.6027830390000002,4.907593665484588,-0.014648435999999876,0.3700000047683716,-0.25999999046325684,-5.670000076293945,-0.053466796875,-0.0489501953125,1.081787109375,36.93000030517578,0.0,-42.0,-2.499237060546875,-1.1568603515625,Closing,0.0,0.0,-316.0,0.0,0.0,0.0,0.0,0.0,
2.4873279999999793,0.0,0.0,-5418.0,0.375,855.0,840.0,0.0,0.25,0.8032225740000001,4.88046236489198,-0.006103515000000392,-17092.0,1.75,-810.0,-840.0,0.0,0.25,0.50048823,4.911650415394485,0.0,22875.0,3.625,847.5,840.0,0.0,0.125,3.333739893,4.888525800392628,0.0,-1009.0,2.5,-810.0,-840.0,0.0,0.25,1.6027830390000002,4.9059410003940265,-0.009765623999999917,0.3700000047683716,-0.33000001311302185,-5.840000152587891,0.03131103515625,0.0115966796875,1.2733154296875,36.93000030517578,0.0,38.0,-2.499298095703125,-1.1568603515625,Closing,0.0,0.0,-316.0,0.0,0.0,0.0,0.0,0.125,
2.5145659999999914,0.0,0.0,-5418.0,0.375,847.5,840.0,0.0,0.25,0.799560465,4.878955286368296,-0.003662109000000413,-17221.0,1.75,-802.5,-840.0,0.0,0.25,0.49194330900000005,4.910133706053555,-0.01342773300000033,23010.0,3.625,840.0,840.0,0.0,0.125,3.339843408,4.887016231893699,-0.003662108999999525,-1009.0,2.5,-810.0,-840.0,0.0,0.25,1.591796712,4.904426054110792,-0.003662108999999525,0.28999999165534973,-0.25999999046325684,-5.949999809265137,-0.00518798828125,0.0543212890625,0.79925537109375,36.93000030517578,0.0,-6.0,-2.4993438720703125,-1.1567840576171875,Closing,0.0,0.0,-316.0,0.0,0.0,0.0,0.0,0.125,
2.548317999999999,0.0,0.0,-5283.0,0.375,840.0,840.0,0.0,0.25,0.799560465,4.877448214377612,-0.003662109000000413,-17221.0,1.875,-802.5,-840.0,0.0,0.25,0.48583979400000005,4.908617003287375,-0.01342773300000033,23010.0,3.625,840.0,840.0,0.0,0.125,3.328857081,4.8855066699385645,-0.003662108999999525,-1009.0,2.625,-780.0,-840.0,0.0,0.25,1.597900227,4.902911114394665,-0.003662108999999525,0.3400000035762787,-0.38999998569488525,-6.059999942779541,-0.01385498046875,-0.015869140625,1.244384765625,36.93000030517578,0.0,-2.0,-2.4993438720703125,-1.1565399169921875,Closing,0.0,0.0,-316.0,0.0,0.0,0.0,0.0,0.0,
2.5799709999999902,0.0,0.0,-5283.0,0.375,840.0,840.0000000000001,0.0,0.25,0.8007811680000001,4.875941135853927,-0.0012207029999995456,-17221.0,2.0,-802.5,-840.0000000000001,0.0,0.25,0.484619091,4.907100293946445,-0.010986326999999463,23010.0,3.625,840.0,840.0000000000001,0.0,0.125,3.3251949720000002,4.883997101439635,-0.006103515000000392,-1009.0,2.625,-772.5,-840.0000000000001,0.0,0.25,1.597900227,4.901396168111431,0.0,0.28999999165534973,-0.3499999940395355,-6.150000095367432,-0.02960205078125,0.06475830078125,0.96063232421875,36.93000030517578,0.0,-29.0,-2.4995574951171875,-1.1562652587890625,Closing,0.0,0.0,-316.0,0.0,0.0,0.0,0.0,0.0,
2.6102209999999904,0.0,0.0,-5283.0,0.375,840.0,840.0,0.0,0.25,0.79345695,4.874708071013367,0.0012207029999995456,-17352.0,2.0,-802.5,-840.0,0.0,0.25,0.482177685,4.905859349342525,-0.004882811999999959,23150.0,3.625,847.5,840.0,0.0,0.125,3.3239742690000003,4.882761999345621,-0.004882811999999959,-1134.0,2.875,-780.0,-840.0,0.0,0.25,1.597900227,4.900156666009956,-0.0012207030000004337,0.3199999928474426,-0.38999998569488525,-6.239999771118164,-0.052490234375,-0.0419921875,1.03192138671875,36.93000030517578,0.0,-39.0,-2.4997711181640625,-1.1559295654296875,Closing,0.0,0.0,-316.0,0.0,0.0,0.0,0.0,0.0,
2.6460929999999934,0.0,0.0,-5146.0,0.375,840.0,839.9999999999999,0.0,0.25,0.8007811680000001,4.872926978806557,0.0012207029999995456,-17352.0,2.0,-810.0,-839.9999999999999,0.0,0.25,0.482177685,4.9040668752645855,-0.004882811999999959,23150.0,3.5,870.0,839.9999999999999,0.0,0.125,3.3251949720000002,4.880977964441777,-0.004882811999999959,-1134.0,2.875,-795.0,-839.9999999999999,0.0,0.25,1.59912093,4.898366275544961,-0.0012207030000004337,0.2800000011920929,-0.3799999952316284,-6.320000171661377,0.00933837890625,0.0340576171875,1.10430908203125,36.93000030517578,0.0,13.0,-2.499908447265625,-1.1557159423828125,Closing,0.0,0.0,-316.0,0.0,0.0,0.0,0.0,0.0,
2.671871999999974,0.0,0.0,-5146.0,0.375,847.5,840.0,0.0,0.25,0.8020018710000001,4.872378951440309,-0.0012207029999995456,-17352.0,2.0,-817.5,-840.0,0.0,0.25,0.47241206100000005,4.903515345790565,0.0,23150.0,3.375,877.5,840.0,0.0,0.125,3.3239742690000003,4.880429031631947,0.0,-1134.0,2.625,-817.5,-840.0,0.0,0.25,1.597900227,4.897815387181441,0.0012207030000004337,0.3400000035762787,-0.3700000047683716,-6.420000076293945,-0.077880859375,-0.07623291015625,1.0772705078125,36.93000030517578,0.0,-61.0,-2.4999542236328125,-1.1554412841796875,Closing,0.0,0.0,-316.0,0.0,0.0,0.0,0.0,0.0,
2.7085449999999835,0.0,0.0,-5146.0,0.375,855.0,839.9999999999999,0.0,0.25,0.799560465,4.870323852083376,-0.0012207029999995456,-17352.0,2.0,-825.0,-839.9999999999999,0.0,0.25,0.482177685,4.901447113550365,0.0,23150.0,3.25,892.5,839.9999999999999,0.0,0.125,3.3178707540000003,4.878370536866983,0.0012207030000004337,-1134.0,2.625,-817.5,-839.9999999999999,0.0,0.25,1.597900227,4.895749559101794,0.0,0.3199999928474426,-0.4399999976158142,-6.559999942779541,-0.0274658203125,-0.00555419921875,1.0804443359375,36.93000030517578,0.0,-17.0,-2.5000457763671875,-1.1553955078125,Closing,0.0,0.0,-316.0,0.0,0.0,0.0,0.0,0.0,
2.741087999999989,0.0,0.0,-5146.0,0.375,855.0,840.0,0.0,0.25,0.797119059,4.869090787242816,0.0,-17485.0,1.875,-832.5,-840.0,0.0,0.25,0.482177685,4.900206168946445,0.0,23292.0,3.25,885.0,840.0,0.0,0.125,3.3239742690000003,4.877135434772969,0.0012207030000004337,-1269.0,2.625,-825.0,-840.0,0.0,0.25,1.597900227,4.8945100570003195,0.0,0.3400000035762787,-0.4099999964237213,-6.619999885559082,0.01123046875,-0.03173828125,0.9755859375,36.93000030517578,0.0,22.0,-2.499969482421875,-1.1553955078125,Closing,0.0,0.0,-316.0,0.0,0.0,0.0,0.0,0.125,
2.772108999999997,0.0,0.0,-5008.0,0.375,862.5,839.9999999999999,0.0,0.25,0.799560465,4.868268746193443,0.0012207029999995456,-17485.0,1.75,-832.5,-839.9999999999999,0.0,0.25,0.47363276400000004,4.899378874735415,0.0,23292.0,3.125,885.0,839.9999999999999,0.0,0.125,3.3239742690000003,4.876312035558224,0.0,-1269.0,2.625,-817.5,-839.9999999999999,0.0,0.25,1.597900227,4.893683724455038,-0.0012207030000004337,0.3499999940395355,-0.4300000071525574,-6.690000057220459,0.01654052734375,0.01715087890625,1.056640625,36.93000030517578,0.0,23.0,-2.4999542236328125,-1.155303955078125,Closing,0.0,0.0,-316.0,0.0,0.0,0.0,0.0,0.0,
2.808926999999996,0.0,0.0,-5008.0,0.375,855.0,840.0,0.0,0.25,0.810546792,4.866898677777821,0.0012207029999995456,-17485.0,1.75,-832.5,-840.0,0.0,0.25,0.47607417,4.898000051050365,0.0,23292.0,3.125,885.0,840.0,0.0,0.125,3.3190914570000003,4.8749397035336495,-0.0012207030000004337,-1269.0,2.5,-825.0,-840.0,0.0,0.25,1.597900227,4.892306503546238,0.0012207030000004337,0.3400000035762787,-0.41999998688697815,-6.75,0.0029296875,-0.01806640625,1.00091552734375,36.93000030517578,0.0,13.0,-2.4998931884765625,-1.1552734375,Closing,0.0,0.0,-316.0,0.0,0.0,0.0,0.0,0.0,
2.8420479999999806,0.0,0.0,-5008.0,0.375,855.0,840.0,0.0,0.25,0.795898356,4.866076630195447,-0.0012207029999995456,-17485.0,1.875,-832.5,-840.0,0.0,0.25,0.477294873,4.897172750264585,-0.004882811999999959,23292.0,3.125,885.0,840.0,0.0,0.125,3.3142086450000003,4.87411629777511,-0.0012207030000004337,-1404.0,2.5,-840.0,-840.0,0.0,0.25,1.597900227,4.89148016443385,0.0012207030000004337,0.36000001430511475,-0.4099999964237213,-6.829999923706055,-0.0491943359375,-0.03619384765625,0.9881591796875,36.959999084472656,0.0,-36.0,-2.499847412109375,-1.1552734375,Closing,0.0,0.0,-316.0,0.0,0.0,0.0,0.0,0.0,
2.870877999999997,0.0,0.0,-5008.0,0.375,855.0,840.0,0.0,0.25,0.7910155440000001,4.865391599254136,-0.003662109000000413,-17619.0,1.875,-832.5,-840.0,0.0,0.25,0.477294873,4.896483341709435,0.0012207029999995456,23434.0,3.125,885.0,840.0,0.0,0.125,3.3093258330000004,4.87343013503472,-0.008544920999999484,-1404.0,2.5,-847.5,-840.0,0.0,0.25,1.597900227,4.890791557263004,0.0,0.28999999165534973,-0.4099999964237213,-6.880000114440918,-0.10809326171875,0.0032958984375,0.99884033203125,36.959999084472656,0.0,-99.0,-2.4998931884765625,-1.1552276611328125,Closing,0.0,0.0,-316.0,0.0,0.0,0.0,0.0,0.0,
2.9103959999999787,0.0,0.0,-4872.0,0.375,847.5,840.0,0.0,0.25,0.784912029,4.864706561779824,-0.003662109000000413,-17619.0,1.75,-840.0,-840.0,0.0,0.25,0.46630854600000005,4.895793926579535,-0.0024414059999999793,23434.0,3.125,870.0,840.0,0.0,0.125,3.3093258330000004,4.872743965750535,-0.004882811999999959,-1404.0,2.5,-840.0,-840.0,0.0,0.25,1.595458821,4.89010294352505,0.0,0.28999999165534973,-0.44999998807907104,-6.920000076293945,0.03326416015625,0.0599365234375,0.99066162109375,36.959999084472656,0.0,34.0,-2.5001373291015625,-1.1552581787109375,Closing,0.0,0.0,-316.0,0.0,0.0,0.0,0.0,0.125,
2.9457969999999913,0.0,0.0,-4872.0,0.375,847.5,840.0,0.0,0.25,0.780029217,4.864158534413575,-0.007324217999999938,-17619.0,1.75,-840.0,-840.0,0.0,0.25,0.477294873,4.895242397105515,-0.0024414059999999793,23434.0,3.125,862.5,840.0,0.0,0.125,3.3093258330000004,4.872195032940706,-0.004882811999999959,-1404.0,2.5,-817.5,-840.0,0.0,0.25,1.6027830390000002,4.889552055161529,0.0,0.30000001192092896,-0.46000000834465027,-6.980000019073486,-0.03656005859375,-0.03009033203125,1.04718017578125,36.959999084472656,0.0,-23.0,-2.50042724609375,-1.1552581787109375,Closing,0.0,0.0,-316.0,0.0,0.0,0.0,0.0,0.0,
2.9738459999999907,0.0,0.0,-4872.0,0.375,847.5,840.0,0.0,0.25,0.7885741380000001,4.863336493364202,-0.007324217999999938,-17755.0,1.75,-840.0,-840.0,0.0,0.25,0.477294873,4.894415102894485,0.0012207030000004337,23571.0,3.25,847.5,840.0,0.0,0.125,3.3093258330000004,4.871371633725961,0.0,-1531.0,2.875,-810.0,-840.0,0.0,0.25,1.594238118,4.888725722616249,-0.0012207030000004337,0.25,-0.44999998807907104,-7.050000190734863,0.088623046875,0.02044677734375,0.8914794921875,36.959999084472656,0.0,93.0,-2.5007171630859375,-1.1552734375,Closing,0.0,0.0,-316.0,0.0,0.0,0.0,0.0,0.0,
3.008779999999999,0.0,0.0,-4736.0,0.375,847.5,840.0,0.0,0.25,0.770263593,4.861966424948581,-0.007324217999999938,-17755.0,1.75,-840.0,-840.0,0.0,0.25,0.47607417,4.893036279209435,0.0012207030000004337,23571.0,3.25,840.0,840.0,0.0,0.125,3.3093258330000004,4.869999301701387,0.0,-1531.0,2.875,-802.5,-840.0,0.0,0.25,1.597900227,4.887348501707448,0.0012207030000004337,0.2199999988079071,-0.38999998569488525,-7.119999885559082,0.00775146484375,0.00640869140625,0.8564453125,36.959999084472656,0.0,13.0,-2.50103759765625,-1.1553192138671875,Closing,0.0,0.0,-316.0,0.0,0.0,0.0,0.0,0.0,
3.041844999999972,0.0,0.0,-4736.0,0.375,847.5,0.0,0.0,0.25,0.770263593,0.01,-0.003662108999999525,-17755.0,1.125,-840.0,-0.0,0.0,0.25,0.47607417,0.01,-0.0012207030000004337,23571.0,2.25,840.0,0.0,0.0,0.125,3.3093258330000004,0.01,0.0,-1531.0,2.875,-802.5,-0.0,0.0,0.25,1.594238118,0.01,0.0012207030000004337,0.27000001072883606,-0.550000011920929,-7.139999866485596,-0.02069091796875,0.07696533203125,1.1787109375,36.959999084472656,0.0,-18.0,-2.50103759765625,-1.155364990234375,Closing,0.0,0.0,-316.0,0.0,0.0,0.0,0.0,0.125,
3.071188999999984,0.0,0.0,-4736.0,0.125,817.5,0.0,0.0,0.25,0.771484296,0.01,-0.003662109000000413,-17755.0,0.75,-817.5,-0.0,0.0,0.25,0.471191358,0.01,0.0012207030000004337,23571.0,1.625,840.0,0.0,0.0,0.0,3.3093258330000004,0.01,-0.0012207030000004337,-1531.0,1.25,-772.5,-0.0,0.0,0.25,1.597900227,0.01,0.0,0.3100000023841858,-0.550000011920929,-7.190000057220459,-0.064697265625,-0.05108642578125,1.01788330078125,36.959999084472656,0.0,-47.0,-2.5010833740234375,-1.1552734375,Closing,0.0,0.0,-316.0,0.0,0.0,0.0,0.0,0.0,
3.1055979999999983,0.0,0.0,-4736.0,0.125,757.5,0.0,0.0,0.25,0.773925702,0.01,-0.003662109000000413,-17854.0,0.125,-652.5,-0.0,0.0,0.25,0.47851557600000005,0.01,0.0012207030000004337,23693.0,0.375,802.5,0.0,0.0,0.0,3.3166500510000003,0.01,-0.0012207030000004337,-1641.0,0.75,-727.5,-0.0,0.0,0.25,1.594238118,0.01,0.0,0.25,-0.8500000238418579,-7.25,-0.01788330078125,0.0657958984375,0.85498046875,36.959999084472656,0.0,-12.0,-2.5025177001953125,-1.1556854248046875,Closing,0.0,0.0,-316.0,0.0,0.0,0.0,0.0,0.0,
3.1351489999999758,0.0,0.0,-4627.0,0.0,675.0,0.0,0.0,0.25,0.78124992,0.01,-0.0024414059999999793,-17854.0,0.125,-577.5,-0.0,0.0,0.25,0.46142573400000003,0.01,-0.004882812000000847,23693.0,0.375,757.5,0.0,0.0,0.0,3.347167626,0.01,0.0012207030000004337,-1641.0,0.125,-615.0,-0.0,0.0,0.25,1.6076658510000001,0.01,-0.009765623999999917,0.27000001072883606,-1.1299999952316284,-7.329999923706055,-0.36614990234375,0.06707763671875,1.0218505859375,36.959999084472656,0.0,-350.0,-2.5048065185546875,-1.1564788818359375,Closing,0.0,0.0,-316.0,0.0,0.0,0.0,0.0,0.125,
3.1671209999999848,0.0,0.0,-4627.0,0.0,652.5,0.0,0.0,0.25,0.7897948410000001,0.01,0.014648435999999876,-17854.0,0.25,-525.0,-0.0,0.0,0.25,0.462646437,0.01,-0.009765623999999917,23693.0,0.375,622.5,0.0,0.0,0.0,3.347167626,0.01,0.037841792999999235,-1641.0,0.125,-577.5,-0.0,0.0,0.25,1.6064451480000002,0.01,0.019531247999999835,0.3400000035762787,-1.3600000143051147,-7.369999885559082,-0.2069091796875,-0.093017578125,1.23931884765625,36.959999084472656,0.0,-163.0,-2.50811767578125,-1.1573486328125,Closing,0.0,0.0,-316.0,0.0,0.0,0.0,0.0,0.125,
3.195875,0.0,0.0,-4627.0,0.125,637.5,0.0,0.0,0.25,0.794677653,0.01,0.014648435999999876,-17854.0,0.25,-547.5,-0.0,0.0,0.25,0.462646437,0.01,-0.009765623999999917,23693.0,0.375,562.5,0.0,0.0,0.0,3.352050438,0.01,0.037841792999999235,-1641.0,0.125,-577.5,-0.0,0.0,0.25,1.617431475,0.01,0.019531247999999835,0.33000001311302185,-1.5399999618530273,-7.369999885559082,-0.14495849609375,-0.024169921875,0.85107421875,36.959999084472656,0.0,-117.0,-2.5122833251953125,-1.1583404541015625,Closing,0.0,0.0,-316.0,0.0,0.0,0.0,0.0,0.0,
3.2266369999999878,0.0,0.0,-4627.0,0.125,622.5,0.0,0.0,0.125,0.799560465,0.01,0.008544921000000372,-17944.0,0.375,-577.5,-0.0,0.0,0.25,0.456542922,0.01,0.0,23771.0,0.375,487.5,0.0,0.0,0.0,3.353271141,0.01,0.004882811999999959,-1733.0,0.125,-585.0,-0.0,0.0,0.25,1.617431475,0.01,0.008544920999999484,0.3499999940395355,-1.809999942779541,-7.329999923706055,-0.25762939453125,-0.0035400390625,1.11505126953125,36.959999084472656,0.0,-219.0,-2.5172576904296875,-1.159515380859375,Closing,0.0,0.0,-316.0,0.0,0.0,0.0,0.0,0.0,
3.255813999999984,0.0,0.0,-4546.0,0.375,525.0,0.0,0.0,0.125,0.799560465,0.01,0.008544921000000372,-17944.0,0.5,-540.0,-0.0,0.0,0.25,0.46142573400000003,0.01,0.0,23771.0,0.375,480.0,0.0,0.0,0.0,3.352050438,0.01,0.004882811999999959,-1733.0,0.125,-562.5,-0.0,0.0,0.125,1.616210772,0.01,0.008544920999999484,0.3499999940395355,-2.009999990463257,-7.300000190734863,-0.184814453125,-0.00927734375,0.94329833984375,36.959999084472656,0.0,-148.0,-2.523223876953125,-1.1608123779296875,Closing,0.0,0.0,-316.0,0.0,0.0,0.0,0.0,0.0,
3.2901759999999776,0.0,0.0,-4546.0,0.625,480.0,0.0,0.0,0.125,0.799560465,0.01,0.006103514999999504,-17944.0,0.75,-457.5,-0.0,0.0,0.25,0.46630854600000005,0.01,0.0,23771.0,0.25,457.5,0.0,0.0,0.0,3.353271141,0.01,0.0,-1733.0,0.25,-480.0,-0.0,0.0,0.125,1.617431475,0.01,0.0,0.3700000047683716,-2.2699999809265137,-7.300000190734863,-0.1873779296875,-0.01080322265625,0.93682861328125,36.959999084472656,0.0,-146.0,-2.5300750732421875,-1.16217041015625,Closing,0.0,0.0,-316.0,0.0,0.0,0.0,0.0,0.0,
3.3192459999999846,0.0,0.0,-4546.0,0.375,397.5,0.0,0.0,0.125,0.798339762,0.01,-0.0012207029999995456,-17944.0,0.75,-412.5,-0.0,0.0,0.25,0.46630854600000005,0.01,0.004882811999999959,23771.0,0.125,420.0,0.0,0.0,0.0,3.353271141,0.01,0.0,-1733.0,0.25,-390.0,-0.0,0.0,0.125,1.616210772,0.01,0.0,0.36000001430511475,-2.5299999713897705,-7.289999961853027,-0.18572998046875,0.005126953125,1.13250732421875,36.959999084472656,0.0,-134.0,-2.5417938232421875,-1.1636962890625,Closing,0.0,0.0,-316.0,0.0,0.0,0.0,0.0,0.0,
3.350987999999983,0.0,0.0,-4546.0,0.375,352.5,0.0,0.0,0.125,0.799560465,0.01,-0.0012207029999995456,-17994.0,0.75,-367.5,-0.0,0.0,0.25,0.46752924900000004,0.01,0.004882811999999959,23823.0,0.125,322.5,0.0,0.0,0.0,3.352050438,0.01,0.0,-1789.0,0.25,-345.0,-0.0,0.0,0.125,1.616210772,0.01,0.0,0.36000001430511475,-2.630000114440918,-7.28000020980835,-0.1971435546875,0.00946044921875,0.9974365234375,36.93000030517578,0.0,-150.0,-2.5460968017578125,-1.1636962890625,Closing,0.0,0.0,-316.0,0.0,0.0,0.0,0.0,0.0,
3.3788859999999987,0.0,0.0,-4505.0,0.375,262.5,0.0,0.0,0.125,0.799560465,0.01,0.0012207029999995456,-17994.0,0.5,-277.5,-0.0,0.0,0.25,0.46630854600000005,0.01,0.0,23823.0,0.125,270.0,0.0,0.0,0.0,3.353271141,0.01,0.0,-1789.0,0.25,-255.0,-0.0,0.0,0.125,1.618652178,0.01,0.0,0.3799999952316284,-2.859999895095825,-7.239999771118164,-0.203369140625,0.00482177734375,1.11956787109375,36.93000030517578,0.0,-145.0,-2.55987548828125,-1.163787841796875,Closing,0.0,0.0,-316.0,0.0,0.0,0.0,0.0,0.0,
3.411491999999998,0.0,0.0,-4505.0,0.125,225.0,0.0,0.0,0.125,0.799560465,0.01,0.0012207029999995456,-17994.0,0.5,-240.0,-0.0,0.0,0.25,0.46752924900000004,0.01,0.0,23823.0,0.125,187.5,0.0,0.0,0.0,3.354491844,0.01,0.0,-1789.0,0.25,-217.5,-0.0,0.0,0.125,1.6088865540000001,0.01,0.0,0.3700000047683716,-2.9200000762939453,-7.21999979019165,-0.1341552734375,0.04901123046875,1.0472412109375,36.93000030517578,0.0,-85.0,-2.564788818359375,-1.1638336181640625,Closing,0.0,0.0,-316.0,0.0,0.0,0.0,0.0,0.0,
3.447762999999977,0.0,0.0,-4505.0,0.125,142.5,0.0,0.0,0.125,0.799560465,0.01,0.0,-17994.0,0.375,-165.0,-0.0,0.0,0.25,0.477294873,0.01,0.0,23823.0,0.125,157.5,0.0,0.0,0.0,3.349609032,0.01,0.0,-1805.0,0.375,-135.0,-0.0,0.0,0.125,1.617431475,0.01,0.0,0.3499999940395355,-3.049999952316284,-7.21999979019165,-0.1395263671875,-0.0062255859375,1.0272216796875,36.93000030517578,0.0,-82.0,-2.5749664306640625,-1.1639556884765625,Closing,0.0,0.0,-316.0,0.0,0.0,0.0,0.0,0.0,
3.472764999999985,0.0,0.0,-4505.0,0.125,105.0,0.0,0.0,0.125,0.799560465,0.01,-0.0012207029999995456,-18010.0,0.25,-127.5,-0.0,0.0,0.25,0.477294873,0.01,0.009765624000000805,23840.0,0.125,105.0,0.0,0.0,0.0,3.352050438,0.01,0.0,-1805.0,0.375,-97.5,-0.0,0.0,0.125,1.617431475,0.01,0.0,0.3499999940395355,-3.1500000953674316,-7.230000019073486,-0.11981201171875,0.0135498046875,1.03106689453125,36.93000030517578,0.0,-63.0,-2.5855865478515625,-1.164154052734375,Closing,0.0,0.0,-316.0,0.0,0.0,0.0,0.0,0.125,
3.509841999999975,0.0,0.0,-4495.0,0.125,52.5,0.0,0.0,0.125,0.8020018710000001,0.01,-0.0012207029999995456,-18010.0,0.125,-60.0,-0.0,0.0,0.25,0.48095698200000003,0.01,0.009765624000000805,23840.0,0.375,75.0,0.0,0.0,0.0,3.353271141,0.01,0.0,-1805.0,0.375,-37.5,-0.0,0.0,0.125,1.617431475,0.01,0.0,0.36000001430511475,-3.1700000762939453,-7.260000228881836,-0.05938720703125,0.00457763671875,1.00103759765625,36.93000030517578,0.0,-3.0,-2.5964202880859375,-1.164398193359375,Closing,0.0,0.0,-316.0,0.0,0.0,0.0,0.0,0.125,
3.549276999999973,0.0,0.0,-4495.0,0.125,22.5,0.0,0.0,0.125,0.799560465,0.01,0.0012207029999995456,-18010.0,0.0,-15.0,-0.0,0.0,0.25,0.482177685,0.01,0.0,23840.0,0.375,37.5,0.0,0.0,0.0,3.352050438,0.01,0.0,-1805.0,0.375,-7.5,-0.0,0.0,0.125,1.617431475,0.01,0.0,0.3700000047683716,-3.1600000858306885,-7.239999771118164,-0.03094482421875,-0.01007080078125,1.050048828125,36.93000030517578,0.0,28.0,-2.5963592529296875,-1.164520263671875,Closing,0.0,0.0,-316.0,0.0,0.0,0.0,0.0,0.125,
3.5762909999999972,0.0,0.0,-4495.0,0.0,7.5,420.0,0.0,0.125,0.799560465,0.5498168668524888,-0.0012207029999995456,-18010.0,0.125,0.0,-420.0,0.0,0.25,0.48583979400000005,1.9285545897722227,0.004882811999999959,23842.0,0.5,7.5,420.0,0.0,0.75,3.3239742690000003,4.389674732977289,0.0,-1805.0,0.625,0.0,-420.0,0.0,0.125,1.5795896820000002,3.0316872062785585,0.0,0.3499999940395355,-3.109999895095825,-7.199999809265137,-0.0384521484375,0.02154541015625,0.980224609375,36.93000030517578,0.0,12.0,-2.596282958984375,-1.164520263671875,Closing,0.0,0.0,-316.0,0.0,0.0,0.0,0.0,0.0,
3.612877999999997,0.0,0.0,-4495.0,0.125,0.0,420.0,0.0,1.875,0.889892487,0.5498168668524888,0.010986327000000351,-18010.0,0.25,0.0,-420.0,0.0,8.25,0.678710868,1.9285545897722227,0.017089841999999855,23842.0,0.75,7.5,420.0,0.0,1.875,3.2080074840000004,4.389674732977289,-0.03906249599999967,-1805.0,1.625,0.0,-420.0,0.0,7.125,1.376952984,3.0316872062785585,-0.03906249599999967,0.3400000035762787,-3.0199999809265137,-7.199999809265137,-0.0245361328125,-0.0831298828125,1.02008056640625,36.93000030517578,0.0,40.0,-2.5959014892578125,-1.1645660400390625,Closing,0.0,0.0,-316.0,0.0,0.0,0.0,0.0,0.0,
3.6493919999999926,0.0,0.0,-4495.0,0.125,0.0,420.0,0.0,1.5,1.0351561440000001,0.5498168668524888,0.010986327000000351,-18010.0,0.375,-45.0,-420.0,0.0,8.375,0.9228514680000001,1.9285545897722227,0.017089841999999855,23842.0,1.625,52.5,420.0,0.0,1.625,3.077392263,4.389674732977289,-0.03906249599999967,-1805.0,1.875,-7.5,-420.0,0.0,7.75,1.152343632,3.0316872062785585,-0.03906249599999967,0.3400000035762787,-2.9200000762939453,-7.21999979019165,-0.006591796875,0.09759521484375,0.999755859375,36.93000030517578,0.0,32.0,-2.5953369140625,-1.1648101806640625,Closing,0.0,0.0,-316.0,0.0,0.0,0.0,0.0,0.0,
3.676059999999998,0.0,0.0,-4495.0,0.125,0.0,420.0,0.0,0.875,1.158447147,0.5498168668524888,-4.682006885,-18010.0,0.375,-82.5,-420.0,0.0,1.25,1.174316286,1.9285545897722227,0.4516601099999997,23842.0,2.375,90.0,420.0,0.0,0.375,2.9589840720000002,4.389674732977289,-0.2441405999999997,-1809.0,2.0,-22.5,-420.0,0.0,1.875,0.904540923,3.0316872062785585,-0.41503902000000004,0.3799999952316284,-2.7899999618530273,-7.260000228881836,0.08258056640625,-0.04241943359375,1.01416015625,36.93000030517578,0.0,137.0,-2.5943603515625,-1.1649322509765625,Closing,0.0,0.0,-316.0,0.0,0.0,0.0,0.0,0.125,
3.7120829999999843,0.0,0.0,-4495.0,0.375,7.5,420.0,0.0,0.625,1.2402342480000002,0.5498168668524888,-4.682006885,-18041.0,0.625,-180.0,-420.0,0.0,1.25,1.387939311,1.9285545897722227,0.4516601099999997,23856.0,2.5,90.0,420.0,0.0,0.375,2.9064938430000002,4.389674732977289,-0.11352537900000037,-1809.0,2.125,-22.5,-420.0,0.0,1.875,0.7104491460000001,3.0316872062785585,-0.2685546600000004,0.38999998569488525,-2.640000104904175,-7.260000228881836,0.04290771484375,-0.00750732421875,1.02911376953125,36.93000030517578,0.0,91.0,-2.5927734375,-1.165008544921875,Closing,0.0,0.0,-316.0,0.0,0.0,0.0,0.0,0.125,
3.747228999999992,0.0,0.0,-4485.0,0.375,45.0,420.0,0.0,0.5,1.2902830710000002,0.5498168668524888,0.131835924,-18041.0,0.625,-210.0,-420.0,0.0,1.25,1.6613767830000001,1.9285545897722227,0.26733395699999996,23856.0,2.75,60.0,420.0,0.0,0.25,2.873534862,4.389674732977289,-0.11352537900000037,-1809.0,2.625,-37.5,-420.0,0.0,2.125,0.468749952,3.0316872062785585,-0.2685546600000004,0.3700000047683716,-2.5399999618530273,-7.260000228881836,0.02197265625,0.03240966796875,1.01116943359375,36.93000030517578,0.0,63.0,-2.5906524658203125,-1.165069580078125,Closing,0.0,0.0,-316.0,0.0,0.0,0.0,0.0,0.125,
3.774209999999992,0.0,0.0,-4485.0,0.375,120.0,420.0,0.0,0.375,1.298827992,0.5498168668524888,0.10864256699999997,-18041.0,0.75,-180.0,-420.0,0.0,1.25,1.8737791050000001,1.9285545897722227,0.4614257340000001,23856.0,3.0,52.5,420.0,0.0,0.25,2.8466793960000003,4.389674732977289,-0.08422850699999973,-1809.0,3.0,-37.5,-420.0,0.0,1.875,0.23193357,3.0316872062785585,-0.4296874559999999,0.3199999928474426,-2.430000066757202,-7.360000133514404,-0.00750732421875,0.0145263671875,0.9813232421875,36.93000030517578,0.0,32.0,-2.5866546630859375,-1.1650848388671875,Closing,0.0,0.0,-316.0,0.0,0.0,0.0,0.0,0.125,
