Time,ClimberA1,ClimberA2,FRpos,FRCurrent,FRspeed,FRsetpoint,FRApos,FRACurrent,FREncpos,FREncSetpoint,FREncSpeed,FLpos,FLCurrent,FLspeed,FLsetpoint,FLApos,FLACurrent,FLEncpos,FLEncSetpoint,FLEncSpeed,BRpos,BRCurrent,BRspeed,BRsetpoint,BRApos,BRACurrent,BREncpos,BREncSetpoint,BREncSpeed,BLpos,BLCurrent,BLspeed,BLsetpoint,BLApos,BLACurrent,BLEncpos,BLEncSetpoint,BLEncSpeed,navx_Pitch,navx_Roll,navx_Yaw,navx_XAcc,navx_YAcc,navx_ZAcc,navx_Temp,navx_Bar,navx_Alt,navx_XDis,navx_YDis,GearPlacerState,ShootOutputV,ShootOutputCurrent,ShootEncPos,ShootEncVelocity,ShootSpeed,ShootSetpoint,CarouselSetpoint,CarouselCurrent,
0.2437509999999993,0.0,0.0,1625.0,0.0,0.0,0.0,0.0,0.125,0.7897948410000001,0.01,0.0,-881.0,0.0,0.0,0.0,0.0,0.125,0.5151366660000001,0.01,0.0,5725.0,0.0,0.0,0.0,0.0,0.0,3.337402002,0.01,0.0,-4523.0,0.0,0.0,0.0,0.0,0.125,1.5539549190000002,0.01,0.0,0.699999988079071,-0.550000011920929,-135.35000610351562,-0.01385498046875,0.0882568359375,1.02215576171875,36.81999969482422,0.0,-50.0,-1.140869140625,-0.445159912109375,Waiting,0.0,0.0,-316.0,0.0,0.0,0.0,0.0,0.0,
0.28707899999999975,0.0,0.0,1625.0,0.0,0.0,0.0,0.0,0.125,0.7897948410000001,0.01,0.0,-881.0,0.0,0.0,-0.0,0.0,0.125,0.511474557,0.01,0.0,5725.0,0.0,0.0,0.0,0.0,0.0,3.338622705,0.01,0.0,-4523.0,0.0,0.0,-0.0,0.0,0.125,1.5539549190000002,0.01,0.0,0.7099999785423279,-0.5400000214576721,-135.35000610351562,-0.03314208984375,0.0162353515625,1.0428466796875,36.81999969482422,0.0,14.0,-1.1416473388671875,-0.44525146484375,Closing,0.0,0.0,-316.0,0.0,0.0,0.0,0.0,0.0,
0.31810999999999967,0.0,0.0,1625.0,0.0,0.0,0.0,0.0,0.125,0.794677653,0.01,4.91570795,-881.0,0.0,0.0,-0.0,0.0,0.0,0.5151366660000001,0.01,0.004023854000000604,5725.0,0.0,0.0,0.0,0.0,0.0,3.338622705,0.01,4.927802002,-4523.0,0.0,0.0,-0.0,0.0,0.125,1.5551756220000001,0.01,4.891954919,0.7099999785423279,-0.5400000214576721,-135.35000610351562,-0.02532958984375,-0.010986328125,1.00738525390625,36.81999969482422,0.0,27.0,-1.142059326171875,-0.44525146484375,Closing,0.0,0.0,-316.0,0.0,0.0,0.0,0.0,0.0,
0.34560099999999966,0.0,0.0,1625.0,0.0,0.0,0.0,0.0,0.125,0.794677653,0.01,4.91570795,-881.0,0.0,0.0,-0.0,0.0,0.0,0.510253854,0.01,0.004023854000000604,5725.0,0.0,0.0,0.0,0.0,0.0,3.337402002,0.01,4.927802002,-4523.0,0.0,0.0,-0.0,0.0,0.25,1.5539549190000002,0.01,4.891954919,0.7099999785423279,-0.5400000214576721,-135.35000610351562,-0.0208740234375,-0.02484130859375,1.0462646484375,36.81999969482422,0.0,34.0,-1.1422882080078125,-0.44525146484375,Closing,0.0,0.0,-316.0,0.0,0.0,0.0,0.0,0.0,
0.36958500000000005,0.0,0.0,1625.0,0.0,0.0,0.0,0.0,0.125,0.794677653,0.01,-0.0024414059999999793,-881.0,0.0,0.0,-0.0,0.0,0.0,0.511474557,0.01,0.0012207029999995456,5725.0,0.0,0.0,0.0,0.0,0.0,3.338622705,0.01,0.0,-4523.0,0.0,0.0,-0.0,0.0,0.25,1.5551756220000001,0.01,0.0,0.7099999785423279,-0.5400000214576721,-135.35000610351562,-0.004638671875,-0.00762939453125,1.025390625,36.81999969482422,0.0,0.0,-1.142333984375,-0.445220947265625,Closing,0.0,0.0,-316.0,0.0,0.0,0.0,0.0,0.0,
0.40048099999999975,0.0,0.0,1625.0,0.0,0.0,0.0,0.0,0.25,0.795898356,0.01,-0.0024414059999999793,-881.0,0.0,0.0,-0.0,0.0,0.0,0.510253854,0.01,0.0012207029999995456,5725.0,0.0,0.0,0.0,0.0,0.0,3.338622705,0.01,0.0,-4523.0,0.0,0.0,-0.0,0.0,0.25,1.5551756220000001,0.01,0.0,0.7099999785423279,-0.550000011920929,-135.35000610351562,0.0133056640625,0.02557373046875,1.0308837890625,36.81999969482422,0.0,-25.0,-1.1423492431640625,-0.4451751708984375,Closing,0.0,0.0,-316.0,0.0,0.0,0.0,0.0,0.0,
0.4266279999999997,0.0,0.0,1625.0,0.0,0.0,0.0,0.0,0.25,0.794677653,0.01,0.0012207029999995456,-881.0,0.0,0.0,-0.0,0.0,0.0,0.510253854,0.01,-0.0012207029999995456,5725.0,0.0,0.0,0.0,0.0,0.0,3.337402002,0.01,0.0,-4523.0,0.0,0.0,-0.0,0.0,0.25,1.5551756220000001,0.01,0.0,0.7099999785423279,-0.5400000214576721,-135.35000610351562,0.005615234375,0.0281982421875,1.01239013671875,36.81999969482422,0.0,-21.0,-1.14251708984375,-0.4451141357421875,Closing,0.0,0.0,-316.0,0.0,0.0,0.0,0.0,0.0,
0.45046900000000006,0.0,0.0,1625.0,0.0,0.0,0.0,0.0,0.25,0.794677653,0.01,0.0012207029999995456,-881.0,0.0,0.0,-0.0,0.0,0.0,0.510253854,0.01,-0.0012207029999995456,5725.0,0.0,0.0,0.0,0.0,0.0,3.337402002,0.01,0.0,-4523.0,0.0,0.0,-0.0,0.0,0.25,1.5539549190000002,0.01,0.0,0.699999988079071,-0.550000011920929,-135.35000610351562,-0.02197265625,0.03704833984375,1.01776123046875,36.810001373291016,0.0,-8.0,-1.142852783203125,-0.4451904296875,Closing,0.0,0.0,-316.0,0.0,0.0,0.0,0.0,0.0,
0.4829389999999994,0.0,0.0,1625.0,0.0,0.0,0.0,0.0,0.25,0.7897948410000001,0.01,-0.0012207029999995456,-881.0,0.0,0.0,-0.0,0.0,0.0,0.5151366660000001,0.01,0.0024414059999999793,5725.0,0.0,0.0,0.0,0.0,0.0,3.337402002,0.01,0.0,-4523.0,0.0,0.0,-0.0,0.0,0.25,1.5539549190000002,0.01,0.0,0.699999988079071,-0.5400000214576721,-135.36000061035156,-0.00531005859375,0.03900146484375,1.00189208984375,36.810001373291016,0.0,-21.0,-1.1428680419921875,-0.44525146484375,Closing,0.0,0.0,-316.0,0.0,0.0,0.0,0.0,0.0,
0.5054359999999997,0.0,0.0,1625.0,0.0,0.0,0.0,0.0,0.25,0.794677653,0.01,-0.0012207029999995456,-881.0,0.0,0.0,-0.0,0.0,0.0,0.510253854,0.01,-0.0012207030000004337,5725.0,0.0,0.0,0.0,0.0,0.0,3.337402002,0.01,0.0,-4523.0,0.0,0.0,-0.0,0.0,0.25,1.5539549190000002,0.01,0.0,0.7099999785423279,-0.5400000214576721,-135.36000061035156,-0.03887939453125,-0.01922607421875,1.03875732421875,36.810001373291016,0.0,43.0,-1.142852783203125,-0.44525146484375,Closing,0.0,0.0,-316.0,0.0,0.0,0.0,0.0,0.0,
0.5374449999999997,0.0,0.0,1625.0,0.0,0.0,0.0,0.0,0.125,0.794677653,0.01,0.0024414059999999793,-881.0,0.0,0.0,-0.0,0.0,0.0,0.510253854,0.01,-0.0012207030000004337,5725.0,0.0,0.0,0.0,0.0,0.0,3.338622705,0.01,0.0,-4523.0,0.0,0.0,-0.0,0.0,0.25,1.5539549190000002,0.01,0.0,0.7099999785423279,-0.5400000214576721,-135.36000061035156,-0.02532958984375,-0.0133056640625,1.00897216796875,36.810001373291016,0.0,29.0,-1.1427764892578125,-0.44525146484375,Closing,0.0,0.0,-316.0,0.0,0.0,0.0,0.0,0.0,
0.5600360000000001,0.0,0.0,1625.0,0.0,0.0,0.0,0.0,0.125,0.7910155440000001,0.01,0.0024414059999999793,-881.0,0.0,0.0,-0.0,0.0,0.0,0.5151366660000001,0.01,-0.0012207029999995456,5725.0,0.0,0.0,0.0,0.0,0.0,3.337402002,0.01,0.0,-4523.0,0.0,0.0,-0.0,0.0,0.25,1.5539549190000002,0.01,0.0,0.7099999785423279,-0.5400000214576721,-135.36000061035156,-0.0128173828125,-0.00689697265625,1.03472900390625,36.810001373291016,0.0,16.0,-1.142486572265625,-0.4451904296875,Closing,0.0,0.0,-316.0,0.0,0.0,0.0,0.0,0.0,
0.5861679999999997,0.0,0.0,1625.0,0.0,0.0,0.0,0.0,0.25,0.795898356,0.01,-0.0024414059999999793,-881.0,0.0,0.0,-0.0,0.0,0.0,0.510253854,0.01,-0.0012207029999995456,5725.0,0.0,0.0,0.0,0.0,0.0,3.337402002,0.01,0.0,-4523.0,0.0,0.0,-0.0,0.0,0.25,1.5563963250000001,0.01,0.0,0.7099999785423279,-0.550000011920929,-135.36000061035156,0.0108642578125,0.00299072265625,1.02947998046875,36.810001373291016,0.0,-7.0,-1.1423187255859375,-0.445037841796875,Closing,0.0,0.0,-316.0,0.0,0.0,0.0,0.0,0.0,
0.6175599999999994,0.0,0.0,1625.0,0.0,0.0,0.0,0.0,0.25,0.794677653,0.01,0.0,-881.0,0.0,0.0,-0.0,0.0,0.0,0.5163573690000001,0.01,0.0024414059999999793,5725.0,0.0,0.0,0.0,0.0,0.0,3.337402002,0.01,0.0,-4523.0,0.0,0.0,-0.0,0.0,0.25,1.5539549190000002,0.01,0.0,0.699999988079071,-0.550000011920929,-135.36000061035156,0.00738525390625,0.03326416015625,1.0308837890625,36.810001373291016,0.0,-26.0,-1.142425537109375,-0.44482421875,Closing,0.0,0.0,-316.0,0.0,0.0,0.0,0.0,0.0,
0.6567349999999996,0.0,0.0,1625.0,0.0,0.0,0.0,0.0,0.25,0.7897948410000001,0.01,0.0,-881.0,0.0,0.0,-0.0,0.0,0.0,0.5151366660000001,0.01,-0.0024414059999999793,5725.0,0.0,0.0,0.0,0.0,0.0,3.337402002,0.01,0.0,-4523.0,0.0,0.0,-0.0,0.0,0.25,1.5551756220000001,0.01,0.0,0.699999988079071,-0.550000011920929,-135.36000061035156,-0.0179443359375,0.010498046875,1.02008056640625,36.810001373291016,0.0,7.0,-1.142852783203125,-0.44482421875,Closing,0.0,0.0,-316.0,0.0,0.0,0.0,0.0,0.0,
0.7013289999999998,0.0,0.0,1625.0,0.0,0.0,0.0,0.0,0.25,0.7897948410000001,0.01,0.0,-881.0,0.0,0.0,-0.0,0.0,0.0,0.5151366660000001,0.01,-0.0024414059999999793,5725.0,0.0,0.0,0.0,0.0,0.0,3.337402002,0.01,0.0,-4523.0,0.0,0.0,-0.0,0.0,0.25,1.5539549190000002,0.01,0.0,0.7200000286102295,-0.5799999833106995,-135.36000061035156,-0.044921875,0.04425048828125,1.0211181640625,36.810001373291016,0.0,2.0,-1.142852783203125,-0.4449462890625,Closing,0.0,0.0,-316.0,0.0,0.0,0.0,0.0,0.0,
0.7270879999999997,0.0,0.0,1625.0,0.0,0.0,0.0,0.0,0.25,0.7897948410000001,0.01,0.0012207029999995456,-881.0,0.0,0.0,-0.0,0.0,0.0,0.510253854,0.01,0.0012207029999995456,5725.0,0.0,0.0,0.0,0.0,0.0,3.337402002,0.01,0.0,-4523.0,0.0,0.0,-0.0,0.0,0.25,1.5539549190000002,0.01,0.0,0.7599999904632568,-0.5600000023841858,-135.36000061035156,-0.00762939453125,-0.0189208984375,1.1148681640625,36.810001373291016,0.0,21.0,-1.142852783203125,-0.445159912109375,Closing,0.0,0.0,-316.0,0.0,0.0,0.0,0.0,0.0,
0.7494119999999993,0.0,0.0,1625.0,0.0,0.0,0.0,0.0,0.25,0.7910155440000001,0.01,0.0012207029999995456,-881.0,0.0,0.0,-0.0,0.0,0.0,0.5151366660000001,0.01,0.0012207029999995456,5725.0,0.0,0.0,0.0,0.0,0.0,3.337402002,0.01,0.0,-4523.0,0.0,0.0,-0.0,0.0,0.25,1.5539549190000002,0.01,0.0,0.6800000071525574,-0.47999998927116394,-135.3699951171875,0.0140380859375,-0.02581787109375,0.8203125,36.810001373291016,0.0,10.0,-1.1428070068359375,-0.4451751708984375,Closing,0.0,0.0,-316.0,0.0,0.0,0.0,0.0,0.0,
0.7836790000000001,0.0,0.0,1625.0,0.0,0.0,0.0,0.0,0.25,0.794677653,0.01,0.0,-881.0,0.0,0.0,-0.0,0.0,0.0,0.511474557,0.01,0.0012207030000004337,5725.0,0.0,0.0,0.0,0.0,0.0,3.336181299,0.01,0.0,-4523.0,0.0,0.0,-0.0,0.0,0.25,1.5539549190000002,0.01,0.0,0.6800000071525574,-0.5299999713897705,-135.35000610351562,-0.01312255859375,0.0379638671875,1.04412841796875,36.810001373291016,0.0,-15.0,-1.1426849365234375,-0.4450225830078125,Closing,0.0,0.0,-316.0,0.0,0.0,0.0,0.0,0.0,
0.8052479999999996,0.0,0.0,1625.0,0.0,0.0,0.0,0.0,0.25,0.794677653,0.01,0.0,-881.0,0.0,0.0,-0.0,0.0,0.0,0.5151366660000001,0.01,0.0012207030000004337,5725.0,0.0,0.0,0.0,0.0,0.0,3.337402002,0.01,0.0,-4523.0,0.0,0.0,-0.0,0.0,0.25,1.5539549190000002,0.01,0.0,0.6700000166893005,-0.5199999809265137,-135.3300018310547,-0.00860595703125,0.0860595703125,1.02740478515625,36.810001373291016,0.0,61.0,-1.1426239013671875,-0.44500732421875,Closing,0.0,0.0,-316.0,0.0,0.0,0.0,0.0,0.0,
0.8336809999999996,0.0,0.0,1625.0,0.0,0.0,0.0,0.0,0.25,0.794677653,0.01,0.0,-881.0,0.0,0.0,-0.0,0.0,0.0,0.5151366660000001,0.01,-0.0012207030000004337,5725.0,0.0,0.0,0.0,0.0,0.0,3.337402002,0.01,0.0,-4523.0,0.0,0.0,-0.0,0.0,0.25,1.5551756220000001,0.01,0.0,0.6800000071525574,-0.550000011920929,-135.3300018310547,0.03021240234375,0.0159912109375,0.87811279296875,36.810001373291016,0.0,-31.0,-1.1425628662109375,-0.4450225830078125,Closing,0.0,0.0,-316.0,0.0,0.0,0.0,0.0,0.0,
0.8666660000000002,0.0,0.0,1625.0,0.0,0.0,0.0,0.0,0.25,0.794677653,0.01,0.0,-881.0,0.0,0.0,-0.0,0.0,0.0,0.5151366660000001,0.01,0.0,5725.0,0.0,0.0,0.0,0.0,0.0,3.338622705,0.01,0.0,-4523.0,0.0,0.0,-0.0,0.0,0.25,1.5539549190000002,0.01,0.0,0.6800000071525574,-0.6299999952316284,-135.38999938964844,0.04327392578125,0.0677490234375,1.14471435546875,36.810001373291016,0.0,-77.0,-1.142303466796875,-0.4450531005859375,Closing,0.0,0.0,-316.0,0.0,0.0,0.0,0.0,0.0,
0.8902109999999993,0.0,0.0,1625.0,0.0,0.0,0.0,0.0,0.25,0.7897948410000001,0.01,0.0,-881.0,0.0,0.0,-0.0,0.0,0.0,0.510253854,0.01,0.0,5725.0,0.0,0.0,0.0,0.0,0.0,3.337402002,0.01,0.0,-4523.0,0.0,0.0,-0.0,0.0,0.25,1.5539549190000002,0.01,0.0,0.6700000166893005,-0.4699999988079071,-135.38999938964844,0.12017822265625,0.04345703125,0.89654541015625,36.810001373291016,0.0,-113.0,-1.1421356201171875,-0.4449005126953125,Closing,0.0,0.0,-316.0,0.0,0.0,0.0,0.0,0.0,
0.9198469999999997,0.0,0.0,1625.0,0.0,0.0,0.0,0.0,0.25,0.794677653,0.01,0.0,-881.0,0.0,0.0,-0.0,0.0,0.0,0.511474557,0.01,0.0012207030000004337,5725.0,0.0,0.0,0.0,0.0,0.0,3.338622705,0.01,0.0,-4523.0,0.0,0.0,-0.0,0.0,0.25,1.5539549190000002,0.01,0.0,0.699999988079071,-0.41999998688697815,-135.35000610351562,0.03466796875,0.05902099609375,1.031494140625,36.810001373291016,0.0,-62.0,-1.1421356201171875,-0.444488525390625,Closing,0.0,0.0,-316.0,0.0,0.0,0.0,0.0,0.0,
0.9431369999999997,0.0,0.0,1625.0,0.0,0.0,0.0,0.0,0.25,0.7897948410000001,0.01,0.0,-881.0,0.0,7.5,-0.0,0.0,0.0,0.511474557,0.01,0.0012207030000004337,5725.0,0.0,0.0,0.0,0.0,0.0,3.338622705,0.01,0.0,-4523.0,0.0,0.0,-0.0,0.0,0.25,1.5539549190000002,0.01,0.0,0.7099999785423279,-0.47999998927116394,-135.33999633789062,-0.0206298828125,0.06634521484375,1.18731689453125,36.810001373291016,0.0,-28.0,-1.1422119140625,-0.444305419921875,Closing,0.0,0.0,-316.0,0.0,0.0,0.0,0.0,0.0,
0.9658239999999996,0.0,0.0,1625.0,0.0,0.0,0.0,0.0,0.25,0.795898356,0.01,0.0,-881.0,0.0,7.5,-0.0,0.0,0.0,0.510253854,0.01,-0.0024414059999999793,5725.0,0.0,0.0,0.0,0.0,0.0,3.338622705,0.01,0.0,-4523.0,0.0,0.0,-0.0,0.0,0.25,1.5551756220000001,0.01,0.0,0.7099999785423279,-0.5600000023841858,-135.33999633789062,-0.1064453125,0.0484619140625,0.9886474609375,36.81999969482422,0.0,43.0,-1.1421356201171875,-0.444183349609375,Closing,0.0,0.0,-316.0,0.0,0.0,0.0,0.0,0.0,
0.9976570000000001,0.0,0.0,1625.0,0.0,0.0,0.0,0.0,0.25,0.794677653,0.01,0.0,-880.0,0.0,0.0,-0.0,0.0,0.0,0.510253854,0.01,-0.0024414059999999793,5725.0,0.0,0.0,0.0,0.0,0.0,3.337402002,0.01,0.0,-4523.0,0.0,0.0,-0.0,0.0,0.25,1.5539549190000002,0.01,0.0,0.7400000095367432,-0.6399999856948853,-135.33999633789062,-0.0240478515625,-0.01165771484375,1.044677734375,36.81999969482422,0.0,26.0,-1.141998291015625,-0.4442291259765625,Closing,0.0,0.0,-316.0,0.0,0.0,0.0,0.0,0.0,
1.023563,0.0,0.0,1625.0,0.0,0.0,0.0,0.0,0.25,0.794677653,0.01,0.0012207030000004337,-880.0,0.0,0.0,-0.0,0.0,0.0,0.510253854,0.01,0.0024414059999999793,5725.0,0.0,0.0,0.0,0.0,0.0,3.338622705,0.01,0.0,-4523.0,0.0,0.0,-0.0,0.0,0.25,1.5539549190000002,0.01,0.0,0.7200000286102295,-0.5699999928474426,-135.36000061035156,0.07000732421875,-0.00604248046875,0.9864501953125,36.81999969482422,0.0,-43.0,-1.1417388916015625,-0.4442901611328125,Closing,0.0,0.0,-316.0,0.0,0.0,0.0,0.0,0.0,
1.0434290000000002,0.0,0.0,1625.0,0.0,0.0,0.0,0.0,0.125,0.7897948410000001,0.01,0.0012207030000004337,-880.0,0.0,0.0,-0.0,0.0,0.0,0.510253854,0.01,0.0024414059999999793,5725.0,0.0,0.0,0.0,0.0,0.0,3.337402002,0.01,0.0,-4523.0,0.0,0.0,-0.0,0.0,0.25,1.5539549190000002,0.01,0.0,0.6800000071525574,-0.5199999809265137,-135.3800048828125,0.14508056640625,0.11700439453125,0.8465576171875,36.81999969482422,0.0,-183.0,-1.14178466796875,-0.4442291259765625,Closing,0.0,0.0,-316.0,0.0,0.0,0.0,0.0,0.0,
1.0648339999999998,0.0,0.0,1625.0,0.0,0.0,0.0,0.0,0.125,0.7897948410000001,0.01,-0.0012207030000004337,-880.0,0.0,0.0,-0.0,0.0,0.0,0.5151366660000001,0.01,-0.0012207030000004337,5725.0,0.0,0.0,0.0,0.0,0.0,3.337402002,0.01,0.0,-4523.0,0.0,0.0,-0.0,0.0,0.25,1.5551756220000001,0.01,0.0,0.7200000286102295,-0.5099999904632568,-135.39999389648438,-0.0130615234375,0.06854248046875,1.0908203125,36.81999969482422,0.0,-36.0,-1.1421661376953125,-0.4439849853515625,Closing,0.0,0.0,-316.0,0.0,0.0,0.0,0.0,0.0,
1.0876819999999998,0.0,0.0,1625.0,0.0,0.0,0.0,0.0,0.125,0.794677653,0.01,-0.0012207030000004337,-880.0,0.0,0.0,-0.0,0.0,0.0,0.510253854,0.01,-0.0012207030000004337,5725.0,0.0,0.0,0.0,0.0,0.0,3.337402002,0.01,0.0,-4523.0,0.0,0.0,-0.0,0.0,0.25,1.5551756220000001,0.01,0.0,0.7699999809265137,-0.5199999809265137,-135.35000610351562,-0.05169677734375,-0.03173828125,1.0325927734375,36.81999969482422,0.0,62.0,-1.142425537109375,-0.4438934326171875,Closing,0.0,0.0,-316.0,0.0,0.0,0.0,0.0,0.0,
1.109375,0.0,0.0,1625.0,0.0,0.0,0.0,0.0,0.25,0.794677653,0.01,-0.0012207030000004337,-880.0,0.0,0.0,-0.0,0.0,0.0,0.5151366660000001,0.01,0.0,5725.0,0.0,0.0,0.0,0.0,0.0,3.338622705,0.01,0.0,-4523.0,0.0,0.0,-0.0,0.0,0.25,1.5588377310000001,0.01,0.0,0.7699999809265137,-0.5299999713897705,-135.3300018310547,0.00836181640625,0.0721435546875,0.98162841796875,36.81999969482422,0.0,-53.0,-1.14251708984375,-0.44390869140625,Closing,0.0,0.0,-316.0,0.0,0.0,0.0,0.0,0.0,
1.1404299999999994,0.0,0.0,1625.0,0.0,0.0,0.0,0.0,0.25,0.794677653,0.01,-0.0012207029999995456,-880.0,0.0,0.0,-0.0,0.0,0.0,0.511474557,0.01,0.0,5725.0,0.0,0.0,0.0,0.0,0.0,3.338622705,0.01,0.0,-4523.0,0.0,0.0,-0.0,0.0,0.25,1.5588377310000001,0.01,0.0,0.75,-0.5699999928474426,-135.36000061035156,-0.026123046875,-0.01123046875,1.097900390625,36.81999969482422,0.0,28.0,-1.1427764892578125,-0.4439239501953125,Closing,0.0,0.0,-316.0,0.0,0.0,0.0,0.0,0.0,
1.1615419999999994,0.0,0.0,1625.0,0.0,0.0,0.0,0.0,0.25,0.794677653,0.01,-0.0012207029999995456,-880.0,0.0,0.0,-0.0,0.0,0.0,0.511474557,0.01,0.0,5725.0,0.0,0.0,0.0,0.0,0.0,3.337402002,0.01,0.0,-4523.0,0.0,0.0,-0.0,0.0,0.25,1.5588377310000001,0.01,0.004882811999999959,0.7200000286102295,-0.5600000023841858,-135.3800048828125,0.0609130859375,0.02105712890625,0.9019775390625,36.81999969482422,0.0,-56.0,-1.1429290771484375,-0.443878173828125,Closing,0.0,0.0,-316.0,0.0,0.0,0.0,0.0,0.0,
1.1854449999999996,0.0,0.0,1625.0,0.0,0.0,0.0,0.0,0.25,0.7910155440000001,0.01,0.0,-880.0,0.0,0.0,-0.0,0.0,0.0,0.5151366660000001,0.01,-0.0012207029999995456,5725.0,0.0,0.0,0.0,0.0,0.0,3.337402002,0.01,0.0,-4523.0,0.0,0.0,-0.0,0.0,0.25,1.563720543,0.01,0.004882811999999959,0.699999988079071,-0.5400000214576721,-135.36000061035156,0.02667236328125,0.0257568359375,1.0919189453125,36.81999969482422,0.0,-35.0,-1.143402099609375,-0.4437408447265625,Closing,0.0,0.0,-316.0,0.0,0.0,0.0,0.0,0.0,
1.2065720000000002,0.0,0.0,1625.0,0.0,0.0,0.0,0.0,0.25,0.7897948410000001,0.01,0.0,-880.0,0.0,0.0,-0.0,0.0,0.0,0.510253854,0.01,-0.0012207029999995456,5725.0,0.0,0.0,0.0,0.0,0.0,3.337402002,0.01,0.0,-4523.0,0.0,0.0,-0.0,0.0,0.25,1.563720543,0.01,0.004882811999999959,0.6800000071525574,-0.47999998927116394,-135.36000061035156,-0.52520751953125,0.00390625,1.21112060546875,36.81999969482422,0.0,373.0,-1.143890380859375,-0.44366455078125,Closing,0.0,0.0,-316.0,0.0,0.0,0.0,0.0,0.0,
1.2288759999999992,0.0,0.0,1625.0,0.0,0.0,0.0,0.0,0.25,0.794677653,0.01,0.0012207029999995456,-880.0,0.0,0.0,-0.0,0.0,0.0,0.511474557,0.01,0.0012207029999995456,5725.0,0.0,0.0,0.0,0.0,0.0,3.337402002,0.01,0.0,-4523.0,0.0,0.0,-0.0,0.0,0.25,1.568603355,0.01,0.004882811999999959,0.7200000286102295,-0.44999998807907104,-135.3699951171875,-0.14776611328125,-0.103759765625,0.84112548828125,36.81999969482422,0.0,180.0,-1.1436767578125,-0.4439697265625,Closing,0.0,0.0,-316.0,0.0,0.0,0.0,0.0,0.0,
1.254612,0.0,0.0,1625.0,0.0,0.0,0.0,0.0,0.25,0.7897948410000001,0.01,0.0012207029999995456,-880.0,0.0,0.0,-0.0,0.0,0.0,0.510253854,0.01,0.0012207029999995456,5725.0,0.0,0.0,0.0,0.0,0.0,3.337402002,0.01,0.0,-4523.0,0.0,0.0,-0.0,0.0,0.25,1.568603355,0.01,0.004882811999999959,0.6800000071525574,-0.5099999904632568,-135.3699951171875,-0.00909423828125,-0.061279296875,0.89630126953125,36.81999969482422,0.0,51.0,-1.142791748046875,-0.4446868896484375,Closing,0.0,0.0,-316.0,0.0,0.0,0.0,0.0,0.0,
1.2822929999999997,0.0,0.0,1625.0,0.0,0.0,0.0,0.0,0.25,0.794677653,0.01,-0.0012207029999995456,-880.0,0.0,0.0,-0.0,0.0,0.0,0.511474557,0.01,0.0012207030000004337,5725.0,0.0,0.0,0.0,0.0,0.0,3.338622705,0.01,0.0,-4523.0,0.0,0.0,-0.0,0.0,0.25,1.568603355,0.01,0.004882811999999959,0.6899999976158142,-0.5400000214576721,-135.36000061035156,-0.00421142578125,0.01702880859375,1.044189453125,36.81999969482422,0.0,-7.0,-1.1422882080078125,-0.4449920654296875,Closing,0.0,0.0,-316.0,0.0,0.0,0.0,0.0,0.0,
1.3060389999999997,0.0,0.0,1625.0,0.0,0.0,0.0,0.0,0.25,0.7897948410000001,0.01,-0.0012207029999995456,-880.0,0.0,0.0,-0.0,0.0,0.0,0.5151366660000001,0.01,0.0012207030000004337,5725.0,0.0,0.0,0.0,0.0,0.0,3.337402002,0.01,0.0,-4523.0,0.0,0.0,-0.0,0.0,0.25,1.569824058,0.01,0.0,0.6600000262260437,-0.5099999904632568,-135.36000061035156,0.0308837890625,0.00543212890625,0.8077392578125,36.81999969482422,0.0,-24.0,-1.1414947509765625,-0.4459686279296875,Closing,0.0,0.0,-316.0,0.0,0.0,0.0,0.0,0.0,
1.333089,0.0,0.0,1625.0,0.0,0.0,0.0,0.0,0.25,0.7897948410000001,0.01,0.0,-880.0,0.0,0.0,-0.0,0.0,0.0,0.511474557,0.01,0.0,5725.0,0.0,0.0,0.0,0.0,0.0,3.337402002,0.01,0.0,-4523.0,0.0,0.0,-0.0,0.0,0.25,1.568603355,0.01,0.0,0.6800000071525574,-0.550000011920929,-135.3800048828125,-0.003662109375,0.11297607421875,0.89300537109375,36.81999969482422,0.0,-75.0,-1.140869140625,-0.44635009765625,Closing,0.0,0.0,-316.0,0.0,0.0,0.0,0.0,0.0,
1.3582519999999996,0.0,0.0,1625.0,0.0,0.0,0.0,0.0,0.25,0.79345695,0.01,0.0,-880.0,0.0,0.0,-0.0,0.0,0.0,0.510253854,0.01,0.0,5725.0,0.0,0.0,0.0,0.0,0.0,3.338622705,0.01,0.0,-4523.0,0.0,0.0,-0.0,0.0,0.25,1.568603355,0.01,0.0,0.6499999761581421,-0.5,-135.36000061035156,-0.03466796875,-0.03948974609375,0.9091796875,36.81999969482422,0.0,54.0,-1.14007568359375,-0.44732666015625,Closing,0.0,0.0,-316.0,0.0,0.0,0.0,0.0,0.0,
1.3834839999999995,0.0,0.0,1625.0,0.0,0.0,0.0,0.0,0.25,0.794677653,0.01,0.0,-880.0,0.0,0.0,-0.0,0.0,0.0,0.511474557,0.01,0.0,5725.0,0.0,0.0,0.0,0.0,0.0,3.338622705,0.01,0.0,-4523.0,0.0,0.0,-0.0,0.0,0.25,1.568603355,0.01,0.0,0.6299999952316284,-0.4699999988079071,-135.36000061035156,-0.06085205078125,0.040283203125,0.7890625,36.81999969482422,0.0,16.0,-1.1395721435546875,-0.4478759765625,Closing,0.0,0.0,-316.0,0.0,0.0,0.0,0.0,0.0,
1.4038959999999998,0.0,0.0,1625.0,0.0,0.0,0.0,0.0,0.25,0.794677653,0.01,0.0,-880.0,0.0,0.0,-0.0,0.0,0.0,0.510253854,0.01,0.0,5725.0,0.0,0.0,0.0,0.0,0.0,3.337402002,0.01,0.0,-4523.0,0.0,0.0,-0.0,0.0,0.25,1.568603355,0.01,0.0,0.6499999761581421,-0.5,-135.36000061035156,-0.02215576171875,-0.05487060546875,1.0164794921875,36.81999969482422,0.0,56.0,-1.139007568359375,-0.44842529296875,Closing,0.0,0.0,-316.0,0.0,0.0,0.0,0.0,0.0,
1.4293559999999998,0.0,0.0,1625.0,0.0,0.0,0.0,0.0,0.25,0.7897948410000001,0.01,0.0,-880.0,0.0,0.0,-0.0,0.0,0.0,0.513915963,0.01,-0.0012207030000004337,5725.0,0.0,0.0,0.0,0.0,0.0,3.338622705,0.01,0.0,-4523.0,0.0,0.0,-0.0,0.0,0.25,1.568603355,0.01,0.0,0.6700000166893005,-0.5299999713897705,-135.3800048828125,-0.17999267578125,0.04150390625,1.18841552734375,36.81999969482422,0.0,100.0,-1.1375885009765625,-0.449737548828125,Closing,0.0,0.0,-316.0,0.0,0.0,0.0,0.0,0.0,
1.4499659999999994,0.0,0.0,1625.0,0.0,0.0,0.0,0.0,0.25,0.7897948410000001,0.01,0.0,-880.0,0.0,0.0,-0.0,0.0,0.0,0.511474557,0.01,-0.0012207030000004337,5725.0,0.0,0.0,0.0,0.0,0.0,3.337402002,0.01,0.0,-4523.0,0.0,0.0,-0.0,0.0,0.25,1.568603355,0.01,0.0,0.6499999761581421,-0.49000000953674316,-135.36000061035156,0.10516357421875,0.00738525390625,0.88934326171875,36.81999969482422,0.0,-78.0,-1.1359405517578125,-0.4513702392578125,Closing,0.0,0.0,-316.0,0.0,0.0,0.0,0.0,0.0,
1.4760959999999996,0.0,0.0,1625.0,0.0,0.0,0.0,0.0,0.25,0.795898356,0.01,-0.0012207030000004337,-880.0,0.0,0.0,-0.0,0.0,0.0,0.5163573690000001,0.01,-0.0012207029999995456,5725.0,0.0,0.0,0.0,0.0,0.0,3.337402002,0.01,0.0,-4523.0,0.0,0.0,-0.0,0.0,0.25,1.568603355,0.01,0.0,0.6600000262260437,-0.550000011920929,-135.36000061035156,0.1553955078125,0.0360107421875,1.05975341796875,36.81999969482422,0.0,-134.0,-1.135284423828125,-0.4520416259765625,Closing,0.0,0.0,-316.0,0.0,0.0,0.0,0.0,0.0,
1.4941229999999996,0.0,0.0,1625.0,0.0,0.0,0.0,0.0,0.25,0.794677653,0.01,-0.0012207030000004337,-880.0,0.0,0.0,-0.0,0.0,0.0,0.511474557,0.01,-0.0012207029999995456,5725.0,0.0,0.0,0.0,0.0,0.0,3.337402002,0.01,0.0,-4523.0,0.0,0.0,-0.0,0.0,0.25,1.569824058,0.01,0.0,0.6700000166893005,-0.5600000023841858,-135.3699951171875,0.005615234375,0.09783935546875,1.07830810546875,36.81999969482422,0.0,-71.0,-1.1347808837890625,-0.452667236328125,Closing,0.0,0.0,-316.0,0.0,0.0,0.0,0.0,0.0,
1.5135419999999995,0.0,0.0,1625.0,0.0,0.0,0.0,0.0,0.25,0.7897948410000001,0.01,0.0012207030000004337,-880.0,0.0,0.0,-0.0,0.0,0.0,0.510253854,0.01,0.0,5725.0,0.0,0.0,0.0,0.0,0.0,3.337402002,0.01,0.0,-4523.0,0.0,0.0,-0.0,0.0,0.25,1.569824058,0.01,0.0,0.6499999761581421,-0.5099999904632568,-135.3800048828125,-0.00701904296875,0.002197265625,0.9208984375,36.81999969482422,0.0,4.0,-1.133941650390625,-0.4539642333984375,Closing,0.0,0.0,-316.0,0.0,0.0,0.0,0.0,0.0,
1.5403669999999994,0.0,0.0,1625.0,0.0,0.0,0.0,0.0,0.25,0.794677653,0.01,0.0012207030000004337,-880.0,0.0,0.0,-0.0,0.0,0.0,0.510253854,0.01,0.0,5725.0,0.0,0.0,0.0,0.0,0.0,3.337402002,0.01,0.0,-4523.0,0.0,0.0,-0.0,0.0,0.25,1.569824058,0.01,0.0,0.6499999761581421,-0.5199999809265137,-135.3699951171875,-0.0465087890625,0.07122802734375,1.07025146484375,36.81999969482422,0.0,-15.0,-1.133941650390625,-0.45465087890625,Closing,0.0,0.0,-316.0,0.0,0.0,0.0,0.0,0.0,
1.559701,0.0,0.0,1625.0,0.0,0.0,0.0,0.0,0.25,0.7885741380000001,0.01,0.0012207030000004337,-880.0,0.0,0.0,-0.0,0.0,0.0,0.510253854,0.01,0.0,5725.0,0.0,0.0,0.0,0.0,0.0,3.337402002,0.01,0.0,-4523.0,0.0,0.0,-0.0,0.0,0.25,1.569824058,0.01,0.0,0.6700000166893005,-0.5299999713897705,-135.3699951171875,-0.023681640625,0.0184326171875,1.02215576171875,36.81999969482422,0.0,5.0,-1.133880615234375,-0.4561309814453125,Closing,0.0,0.0,-316.0,0.0,0.0,0.0,0.0,0.0,
1.581795,0.0,0.0,1625.0,0.0,0.0,0.0,0.0,0.25,0.794677653,0.01,0.0,-880.0,0.0,0.0,-0.0,0.0,0.0,0.511474557,0.01,0.003662108999999525,5725.0,0.0,0.0,0.0,0.0,0.0,3.337402002,0.01,0.0,-4523.0,0.0,0.0,-0.0,0.0,0.25,1.568603355,0.01,0.0,0.6499999761581421,-0.49000000953674316,-135.3800048828125,-0.06396484375,0.0250244140625,0.92596435546875,36.81999969482422,0.0,29.0,-1.133819580078125,-0.4569244384765625,Closing,0.0,0.0,-316.0,0.0,0.0,0.0,0.0,0.0,
1.6019279999999998,0.0,0.0,1625.0,0.0,0.0,0.0,0.0,0.25,0.7897948410000001,0.01,0.0,-880.0,0.0,0.0,-0.0,0.0,0.0,0.510253854,0.01,0.003662108999999525,5725.0,0.0,0.0,0.0,0.0,0.0,3.337402002,0.01,0.0,-4523.0,0.0,0.0,-0.0,0.0,0.25,1.569824058,0.01,0.0,0.6800000071525574,-0.5199999809265137,-135.3800048828125,-0.072265625,-0.0780029296875,1.02130126953125,36.81999969482422,0.0,108.0,-1.1336517333984375,-0.4577484130859375,Closing,0.0,0.0,-316.0,0.0,0.0,0.0,0.0,0.0,
1.6243269999999994,0.0,0.0,1625.0,0.0,0.0,0.0,0.0,0.25,0.79345695,0.01,0.0012207029999995456,-880.0,0.0,0.0,-0.0,0.0,0.0,0.511474557,0.01,-0.0024414059999999793,5725.0,0.0,0.0,0.0,0.0,0.0,3.337402002,0.01,0.0,-4523.0,0.0,0.0,-0.0,0.0,0.25,1.569824058,0.01,0.0,0.6600000262260437,-0.5600000023841858,-135.3699951171875,0.01202392578125,0.00347900390625,1.023681640625,36.81999969482422,0.0,-9.0,-1.1334381103515625,-0.459381103515625,Closing,0.0,0.0,-316.0,0.0,0.0,0.0,0.0,0.0,
1.6547889999999998,0.0,0.0,1625.0,0.0,0.0,0.0,0.0,0.25,0.7910155440000001,0.01,0.0012207029999995456,-880.0,0.0,0.0,-0.0,0.0,0.0,0.5163573690000001,0.01,-0.0024414059999999793,5725.0,0.0,0.0,0.0,0.0,0.0,3.337402002,0.01,0.0,-4523.0,0.0,0.0,-0.0,0.0,0.25,1.568603355,0.01,0.0,0.6499999761581421,-0.550000011920929,-135.3800048828125,0.00946044921875,0.06103515625,1.02508544921875,36.81999969482422,0.0,-48.0,-1.1337432861328125,-0.460205078125,Closing,0.0,0.0,-316.0,0.0,0.0,0.0,0.0,0.0,
1.6803769999999996,0.0,0.0,1625.0,0.0,0.0,0.0,0.0,0.25,0.7910155440000001,0.01,-0.0012207029999995456,-880.0,0.0,0.0,-0.0,0.0,0.0,0.510253854,0.01,-0.0012207029999995456,5725.0,0.0,0.0,0.0,0.0,0.0,3.338622705,0.01,0.0,-4523.0,0.0,0.0,-0.0,0.0,0.25,1.568603355,0.01,0.0,0.6499999761581421,-0.5600000023841858,-135.3800048828125,-0.023681640625,0.00811767578125,1.053466796875,36.81999969482422,0.0,12.0,-1.1339263916015625,-0.4602508544921875,Closing,0.0,0.0,-316.0,0.0,0.0,0.0,0.0,0.0,
1.7011369999999997,0.0,0.0,1625.0,0.0,0.0,0.0,0.0,0.25,0.7897948410000001,0.01,-0.0012207029999995456,-880.0,0.0,0.0,-0.0,0.0,0.0,0.510253854,0.01,-0.0012207029999995456,5725.0,0.0,0.0,0.0,0.0,0.0,3.337402002,0.01,0.0,-4523.0,0.0,0.0,-0.0,0.0,0.25,1.568603355,0.01,0.0,0.6499999761581421,-0.5199999809265137,-135.3699951171875,-0.0020751953125,0.0501708984375,0.99041748046875,36.81999969482422,0.0,-32.0,-1.134307861328125,-0.460357666015625,Closing,0.0,0.0,-316.0,0.0,0.0,0.0,0.0,0.0,
1.7245329999999994,0.0,0.0,1625.0,0.0,0.0,0.0,0.0,0.25,0.7885741380000001,0.01,0.0012207029999995456,-880.0,0.0,0.0,-0.0,0.0,0.0,0.510253854,0.01,0.0,5725.0,0.0,0.0,0.0,0.0,0.0,3.338622705,0.01,0.0,-4523.0,0.0,0.0,-0.0,0.0,0.25,1.569824058,0.01,0.0,0.6600000262260437,-0.5400000214576721,-135.3800048828125,-0.03912353515625,-0.00714111328125,1.03228759765625,36.81999969482422,0.0,34.0,-1.1345062255859375,-0.46044921875,Closing,0.0,0.0,-316.0,0.0,0.0,0.0,0.0,0.0,
1.7441520000000001,0.0,0.0,1625.0,0.0,0.0,0.0,0.0,0.25,0.7897948410000001,0.01,0.0012207029999995456,-880.0,0.0,0.0,-0.0,0.0,0.0,0.5151366660000001,0.01,0.0,5725.0,0.0,0.0,0.0,0.0,0.0,3.337402002,0.01,0.0,-4523.0,0.0,0.0,-0.0,0.0,0.25,1.568603355,0.01,0.0,0.6600000262260437,-0.550000011920929,-135.38999938964844,-0.0390625,-0.0230712890625,1.0709228515625,36.81999969482422,0.0,45.0,-1.1346588134765625,-0.4605255126953125,Closing,0.0,0.0,-316.0,0.0,0.0,0.0,0.0,0.0,
1.7642159999999993,0.0,0.0,1625.0,0.0,0.0,0.0,0.0,0.25,0.7897948410000001,0.01,0.0012207029999995456,-880.0,0.0,0.0,-0.0,0.0,0.0,0.510253854,0.01,0.0012207029999995456,5725.0,0.0,0.0,0.0,0.0,0.0,3.337402002,0.01,0.0,-4523.0,0.0,0.0,-0.0,0.0,0.25,1.568603355,0.01,0.0,0.6499999761581421,-0.5199999809265137,-135.3800048828125,-0.01031494140625,1.220703125E-4,0.9678955078125,36.81999969482422,0.0,8.0,-1.1348114013671875,-0.4605255126953125,Closing,0.0,0.0,-316.0,0.0,0.0,0.0,0.0,0.0,
1.788495,0.0,0.0,1625.0,0.0,0.0,0.0,0.0,0.25,0.7897948410000001,0.01,0.0,-880.0,0.0,0.0,-0.0,0.0,0.0,0.510253854,0.01,0.0012207029999995456,5725.0,0.0,0.0,0.0,0.0,0.0,3.337402002,0.01,0.0,-4523.0,0.0,0.0,-0.0,0.0,0.25,1.568603355,0.01,0.0,0.6600000262260437,-0.5400000214576721,-135.3800048828125,0.014892578125,-0.00396728515625,1.03173828125,36.81999969482422,0.0,-6.0,-1.1348114013671875,-0.46051025390625,Closing,0.0,0.0,-316.0,0.0,0.0,0.0,0.0,0.0,
1.8184589999999998,0.0,0.0,1625.0,0.0,0.0,0.0,0.0,0.25,0.7897948410000001,0.01,-0.0024414059999999793,-880.0,0.0,0.0,-0.0,0.0,0.0,0.510253854,0.01,-0.0012207029999995456,5725.0,0.0,0.0,0.0,0.0,0.0,3.337402002,0.01,0.0,-4523.0,0.0,0.0,-0.0,0.0,0.25,1.569824058,0.01,0.0,0.6600000262260437,-0.5400000214576721,-135.3800048828125,0.01397705078125,0.036865234375,1.02301025390625,36.81999969482422,0.0,-34.0,-1.1349029541015625,-0.46044921875,Closing,0.0,0.0,-316.0,0.0,0.0,0.0,0.0,0.0,
1.8423699999999998,0.0,0.0,1625.0,0.0,0.0,0.0,0.0,0.25,0.787353435,0.01,-0.0024414059999999793,-880.0,0.0,0.0,-0.0,0.0,0.0,0.5151366660000001,0.01,-0.0012207029999995456,5725.0,0.0,0.0,0.0,0.0,0.0,3.337402002,0.01,0.0,-4523.0,0.0,0.0,-0.0,0.0,0.25,1.568603355,0.01,0.0,0.6600000262260437,-0.5400000214576721,-135.38999938964844,-0.0203857421875,0.00592041015625,1.03204345703125,36.81999969482422,0.0,11.0,-1.135162353515625,-0.46044921875,Closing,0.0,0.0,-316.0,0.0,0.0,0.0,0.0,0.0,
1.8647289999999994,0.0,0.0,1625.0,0.0,0.0,0.0,0.0,0.25,0.79345695,0.01,-0.0024414059999999793,-880.0,0.0,0.0,-0.0,0.0,0.0,0.511474557,0.01,0.0024414059999999793,5725.0,0.0,0.0,0.0,0.0,0.0,3.337402002,0.01,0.0,-4523.0,0.0,0.0,-0.0,0.0,0.25,1.568603355,0.01,0.0,0.6499999761581421,-0.5299999713897705,-135.3800048828125,-0.02264404296875,0.02520751953125,1.02642822265625,36.81999969482422,0.0,0.0,-1.13531494140625,-0.46044921875,Closing,0.0,0.0,-316.0,0.0,0.0,0.0,0.0,0.0,
1.8881089999999994,0.0,0.0,1625.0,0.0,0.0,0.0,0.0,0.25,0.79345695,0.01,0.0024414059999999793,-880.0,0.0,0.0,-0.0,0.0,0.0,0.5151366660000001,0.01,0.0024414059999999793,5725.0,0.0,0.0,0.0,0.0,0.0,3.337402002,0.01,0.0,-4523.0,0.0,0.0,-0.0,0.0,0.25,1.572265464,0.01,0.0,0.6600000262260437,-0.5099999904632568,-135.3800048828125,-0.0281982421875,-0.015869140625,1.00885009765625,36.81999969482422,0.0,32.0,-1.135284423828125,-0.46044921875,Closing,0.0,0.0,-316.0,0.0,0.0,0.0,0.0,0.0,
1.9088800000000001,0.0,0.0,1625.0,0.0,0.0,0.0,0.0,0.25,0.7897948410000001,0.01,0.0024414059999999793,-880.0,0.0,0.0,-0.0,0.0,0.0,0.5151366660000001,0.01,0.0024414059999999793,5725.0,0.0,0.0,0.0,0.0,0.0,3.338622705,0.01,0.0,-4523.0,0.0,0.0,-0.0,0.0,0.25,1.569824058,0.01,0.0,0.6700000166893005,-0.5400000214576721,-135.38999938964844,-0.03814697265625,-0.0223388671875,1.0526123046875,36.81999969482422,0.0,44.0,-1.135101318359375,-0.46044921875,Closing,0.0,0.0,-316.0,0.0,0.0,0.0,0.0,0.0,
1.935285,0.0,0.0,1625.0,0.0,0.0,0.0,0.0,0.125,0.7897948410000001,0.01,0.0012207030000004337,-880.0,0.0,0.0,-0.0,0.0,0.0,0.5163573690000001,0.01,-0.0024414059999999793,5725.0,0.0,0.0,0.0,0.0,0.0,3.338622705,0.01,0.0,-4523.0,0.0,0.0,-0.0,0.0,0.25,1.569824058,0.01,0.0,0.6700000166893005,-0.5400000214576721,-135.38999938964844,-0.007080078125,6.103515625E-5,1.0228271484375,36.81999969482422,0.0,6.0,-1.13494873046875,-0.46044921875,Closing,0.0,0.0,-316.0,0.0,0.0,0.0,0.0,0.0,
1.9567649999999994,0.0,0.0,1625.0,0.0,0.0,0.0,0.0,0.125,0.7897948410000001,0.01,0.0012207030000004337,-880.0,0.0,0.0,-0.0,0.0,0.0,0.511474557,0.01,-0.0024414059999999793,5725.0,0.0,0.0,0.0,0.0,0.0,3.338622705,0.01,0.0,-4523.0,0.0,0.0,-0.0,0.0,0.25,1.569824058,0.01,0.0,0.6600000262260437,-0.5299999713897705,-135.3800048828125,0.01385498046875,0.00579833984375,0.99212646484375,36.81999969482422,0.0,-12.0,-1.1348114013671875,-0.460418701171875,Closing,0.0,0.0,-316.0,0.0,0.0,0.0,0.0,0.0,
1.980214,0.0,0.0,1625.0,0.0,0.0,0.0,0.0,0.25,0.7897948410000001,0.01,-0.0024414059999999793,-880.0,0.0,0.0,-0.0,0.0,0.0,0.510253854,0.01,0.0024414059999999793,5725.0,0.0,0.0,0.0,0.0,0.0,3.337402002,0.01,0.0,-4523.0,0.0,0.0,-0.0,0.0,0.25,1.568603355,0.01,0.0,0.6600000262260437,-0.550000011920929,-135.38999938964844,-7.9345703125E-4,0.024658203125,1.05657958984375,36.810001373291016,0.0,-15.0,-1.1346282958984375,-0.4603424072265625,Closing,0.0,0.0,-316.0,0.0,0.0,0.0,0.0,0.0,
2.0012879999999997,0.0,0.0,1625.0,0.0,0.0,0.0,0.0,0.25,0.794677653,0.01,-0.0024414059999999793,-880.0,0.0,0.0,-0.0,0.0,0.0,0.511474557,0.01,0.0024414059999999793,5725.0,0.0,0.0,0.0,0.0,0.0,3.337402002,0.01,0.0,-4523.0,0.0,0.0,-0.0,0.0,0.25,1.568603355,0.01,0.0,0.6600000262260437,-0.5400000214576721,-135.38999938964844,0.0032958984375,0.04473876953125,1.0281982421875,36.810001373291016,0.0,-32.0,-1.13458251953125,-0.4603424072265625,Closing,0.0,0.0,-316.0,0.0,0.0,0.0,0.0,0.0,
2.023666,0.0,0.0,1625.0,0.0,0.0,0.0,0.0,0.25,0.7885741380000001,0.01,-0.0012207030000004337,-880.0,0.0,0.0,-0.0,0.0,0.0,0.510253854,0.01,0.0,5725.0,0.0,0.0,0.0,0.0,0.0,3.338622705,0.01,0.0,-4523.0,0.0,0.0,-0.0,0.0,0.25,1.568603355,0.01,0.0,0.6600000262260437,-0.5400000214576721,-135.38999938964844,-0.00360107421875,0.03521728515625,1.01300048828125,36.810001373291016,0.0,-20.0,-1.1345672607421875,-0.4603424072265625,Closing,0.0,0.0,-316.0,0.0,0.0,0.0,0.0,0.0,
2.0430019999999995,0.0,0.0,1625.0,0.0,0.0,0.0,0.0,0.25,0.7910155440000001,0.01,-0.0012207030000004337,-880.0,0.0,0.0,-0.0,0.0,0.0,0.510253854,0.01,0.0,5725.0,0.0,0.0,0.0,0.0,0.0,3.338622705,0.01,0.0,-4523.0,0.0,0.0,-0.0,0.0,0.25,1.568603355,0.01,0.0,0.6600000262260437,-0.550000011920929,-135.38999938964844,-0.02972412109375,0.01629638671875,1.0472412109375,36.810001373291016,0.0,11.0,-1.1345672607421875,-0.4603424072265625,Closing,0.0,0.0,-316.0,0.0,0.0,0.0,0.0,0.0,
2.0628019999999996,0.0,0.0,1625.0,0.0,0.0,0.0,0.0,0.25,0.7897948410000001,0.01,-0.0012207030000004337,-880.0,0.0,0.0,-0.0,0.0,0.0,0.510253854,0.01,0.0,5725.0,0.0,0.0,0.0,0.0,0.0,3.337402002,0.01,0.0,-4523.0,0.0,0.0,-0.0,0.0,0.25,1.568603355,0.01,0.0,0.6700000166893005,-0.5299999713897705,-135.38999938964844,-0.030517578125,-0.01239013671875,0.99444580078125,36.810001373291016,0.0,32.0,-1.13446044921875,-0.4603424072265625,Closing,0.0,0.0,-316.0,0.0,0.0,0.0,0.0,0.0,
2.0869020000000003,0.0,0.0,1625.0,0.0,0.0,0.0,0.0,0.25,0.7897948410000001,0.01,0.0,-880.0,0.0,0.0,-0.0,0.0,0.0,0.5163573690000001,0.01,-0.0012207030000004337,5725.0,0.0,0.0,0.0,0.0,0.0,3.338622705,0.01,0.0,-4523.0,0.0,0.0,-0.0,0.0,0.25,1.568603355,0.01,0.0,0.6700000166893005,-0.5299999713897705,-135.38999938964844,-0.0255126953125,-0.0213623046875,1.0125732421875,36.810001373291016,0.0,34.0,-1.1343536376953125,-0.4603424072265625,Closing,0.0,0.0,-316.0,0.0,0.0,0.0,0.0,0.0,
2.1059449999999997,0.0,0.0,1625.0,0.0,0.0,0.0,0.0,0.25,0.794677653,0.01,0.0,-880.0,0.0,0.0,-0.0,0.0,0.0,0.5151366660000001,0.01,-0.0012207030000004337,5725.0,0.0,0.0,0.0,0.0,0.0,3.336181299,0.01,0.0,-4523.0,0.0,0.0,-0.0,0.0,0.25,1.568603355,0.01,0.0,0.6700000166893005,-0.5400000214576721,-135.38999938964844,-0.00799560546875,0.002685546875,1.029296875,36.810001373291016,0.0,5.0,-1.13421630859375,-0.4603424072265625,Closing,0.0,0.0,-316.0,0.0,0.0,0.0,0.0,0.0,
2.1283980000000002,0.0,0.0,1625.0,0.0,0.0,0.0,0.0,0.25,0.794677653,0.01,0.0024414059999999793,-880.0,0.0,0.0,-0.0,0.0,0.0,0.5163573690000001,0.01,0.0,5725.0,0.0,0.0,0.0,0.0,0.0,3.337402002,0.01,0.0,-4523.0,0.0,0.0,-0.0,0.0,0.25,1.568603355,0.01,0.0,0.6600000262260437,-0.5400000214576721,-135.38999938964844,0.0228271484375,0.03863525390625,1.00091552734375,36.810001373291016,0.0,-41.0,-1.1339874267578125,-0.4603424072265625,Closing,0.0,0.0,-316.0,0.0,0.0,0.0,0.0,0.0,
2.147897,0.0,0.0,1625.0,0.0,0.0,0.0,0.0,0.25,0.794677653,0.01,0.0024414059999999793,-880.0,0.0,0.0,-0.0,0.0,0.0,0.510253854,0.01,0.0,5725.0,0.0,0.0,0.0,0.0,0.0,3.338622705,0.01,0.0,-4523.0,0.0,0.0,-0.0,0.0,0.25,1.568603355,0.01,0.0,0.6600000262260437,-0.5400000214576721,-135.38999938964844,0.00970458984375,0.03082275390625,1.02545166015625,36.810001373291016,0.0,-27.0,-1.133941650390625,-0.4603424072265625,Closing,0.0,0.0,-316.0,0.0,0.0,0.0,0.0,0.0,
2.1676229999999994,0.0,0.0,1625.0,0.0,0.0,0.0,0.0,0.25,0.794677653,0.01,-0.0024414059999999793,-880.0,0.0,0.0,-0.0,0.0,0.0,0.511474557,0.01,0.0024414059999999793,5725.0,0.0,0.0,0.0,0.0,0.0,3.337402002,0.01,0.0,-4523.0,0.0,0.0,-0.0,0.0,0.25,1.569824058,0.01,0.0,0.6600000262260437,-0.550000011920929,-135.38999938964844,-0.01715087890625,0.00555419921875,1.0306396484375,36.810001373291016,0.0,9.0,-1.133941650390625,-0.4603424072265625,Closing,0.0,0.0,-316.0,0.0,0.0,0.0,0.0,0.0,
2.193945,0.0,0.0,1625.0,0.0,0.0,0.0,0.0,0.25,0.794677653,0.01,-0.0024414059999999793,-880.0,0.0,0.0,-0.0,0.0,0.0,0.509033151,0.01,0.0024414059999999793,5725.0,0.0,0.0,0.0,0.0,0.0,3.338622705,0.01,0.0,-4523.0,0.0,0.0,-0.0,0.0,0.25,1.568603355,0.01,0.0,0.6600000262260437,-0.5400000214576721,-135.38999938964844,-0.008056640625,0.03515625,1.02215576171875,36.810001373291016,0.0,-17.0,-1.133941650390625,-0.4603424072265625,Closing,0.0,0.0,-316.0,0.0,0.0,0.0,0.0,0.0,
2.217914,0.0,0.0,1625.0,0.0,0.0,0.0,0.0,0.25,0.794677653,0.01,0.0,-880.0,0.0,0.0,-0.0,0.0,0.0,0.510253854,0.01,-0.0024414059999999793,5725.0,0.0,0.0,0.0,0.0,0.0,3.337402002,0.01,0.0,-4523.0,0.0,0.0,-0.0,0.0,0.25,1.568603355,0.01,0.0,0.6700000166893005,-0.5299999713897705,-135.38999938964844,-0.037841796875,-0.0023193359375,1.02886962890625,36.810001373291016,0.0,30.0,-1.1339111328125,-0.4603424072265625,Closing,0.0,0.0,-316.0,0.0,0.0,0.0,0.0,0.0,
2.2429169999999994,0.0,0.0,1625.0,0.0,0.0,0.0,0.0,0.25,0.794677653,0.01,0.0,-880.0,0.0,0.0,-0.0,0.0,0.0,0.511474557,0.01,-0.0024414059999999793,5725.0,0.0,0.0,0.0,0.0,0.0,3.337402002,0.01,0.0,-4523.0,0.0,0.0,-0.0,0.0,0.25,1.569824058,0.01,0.0,0.6700000166893005,-0.5400000214576721,-135.38999938964844,-0.03521728515625,-0.0166015625,1.0172119140625,36.810001373291016,0.0,38.0,-1.133819580078125,-0.4603424072265625,Closing,0.0,0.0,-316.0,0.0,0.0,0.0,0.0,0.0,
2.2625099999999994,0.0,0.0,1625.0,0.0,0.0,0.0,0.0,0.25,0.7910155440000001,0.01,0.0,-880.0,0.0,0.0,-0.0,0.0,0.0,0.510253854,0.01,-0.0024414059999999793,5725.0,0.0,0.0,0.0,0.0,0.0,3.338622705,0.01,0.0,-4523.0,0.0,0.0,-0.0,0.0,0.25,1.568603355,0.01,0.0,0.6700000166893005,-0.5299999713897705,-135.38999938964844,0.0101318359375,0.001953125,1.01873779296875,36.810001373291016,0.0,-6.0,-1.133575439453125,-0.4603271484375,Closing,0.0,0.0,-316.0,0.0,0.0,0.0,0.0,0.0,
2.285214,0.0,0.0,1625.0,0.0,0.0,0.0,0.0,0.25,0.794677653,0.01,0.0024414059999999793,-880.0,0.0,0.0,-0.0,0.0,0.0,0.510253854,0.01,0.0,5725.0,0.0,0.0,0.0,0.0,0.0,3.338622705,0.01,0.0,-4523.0,0.0,0.0,-0.0,0.0,0.25,1.569824058,0.01,0.0,0.6700000166893005,-0.5400000214576721,-135.38999938964844,0.0145263671875,0.02734375,1.002197265625,36.810001373291016,0.0,-28.0,-1.1334686279296875,-0.460296630859375,Closing,0.0,0.0,-316.0,0.0,0.0,0.0,0.0,0.0,
2.306067,0.0,0.0,1625.0,0.0,0.0,0.0,0.0,0.25,0.794677653,0.01,0.0024414059999999793,-880.0,0.0,0.0,-0.0,0.0,0.0,0.511474557,0.01,0.0,5725.0,0.0,0.0,0.0,0.0,0.0,3.337402002,0.01,0.0,-4523.0,0.0,0.0,-0.0,0.0,0.25,1.568603355,0.01,0.0,0.6700000166893005,-0.5400000214576721,-135.38999938964844,0.0111083984375,0.04144287109375,1.04022216796875,36.810001373291016,0.0,-35.0,-1.133392333984375,-0.4602508544921875,Closing,0.0,0.0,-316.0,0.0,0.0,0.0,0.0,0.0,
2.3269609999999994,0.0,0.0,1625.0,0.0,0.0,0.0,0.0,0.25,0.7910155440000001,0.01,0.0,-880.0,0.0,0.0,-0.0,0.0,0.0,0.510253854,0.01,0.0024414059999999793,5725.0,0.0,0.0,0.0,0.0,0.0,3.337402002,0.01,0.0,-4523.0,0.0,0.0,-0.0,0.0,0.25,1.568603355,0.01,0.0,0.6600000262260437,-0.5400000214576721,-135.38999938964844,-0.0072021484375,0.01580810546875,1.01361083984375,36.810001373291016,0.0,-4.0,-1.1334075927734375,-0.4602508544921875,Closing,0.0,0.0,-316.0,0.0,0.0,0.0,0.0,0.0,
2.3462199999999993,0.0,0.0,1625.0,0.0,0.0,0.0,0.0,0.25,0.7897948410000001,0.01,0.0,-880.0,0.0,0.0,-0.0,0.0,0.0,0.5151366660000001,0.01,0.0024414059999999793,5725.0,0.0,0.0,0.0,0.0,0.0,3.337402002,0.01,0.0,-4523.0,0.0,0.0,-0.0,0.0,0.25,1.568603355,0.01,0.0,0.6600000262260437,-0.5400000214576721,-135.38999938964844,-0.0072021484375,0.01580810546875,1.01361083984375,36.810001373291016,0.0,-4.0,-1.1334075927734375,-0.4602508544921875,Closing,0.0,0.0,-316.0,0.0,0.0,0.0,0.0,0.0,
2.364871,0.0,0.0,1625.0,0.0,0.0,0.0,0.0,0.25,0.7897948410000001,0.01,0.0,-880.0,0.0,0.0,-0.0,0.0,0.0,0.511474557,0.01,-0.003662108999999525,5725.0,0.0,0.0,0.0,0.0,0.0,3.337402002,0.01,0.0,-4523.0,0.0,0.0,-0.0,0.0,0.25,1.568603355,0.01,0.0,0.6700000166893005,-0.5299999713897705,-135.38999938964844,-0.03472900390625,-0.008056640625,1.01287841796875,36.810001373291016,0.0,31.0,-1.13330078125,-0.4603424072265625,Closing,0.0,0.0,-316.0,0.0,0.0,0.0,0.0,0.0,
2.38745,0.0,0.0,1625.0,0.0,0.0,0.0,0.0,0.25,0.7897948410000001,0.01,0.0,-880.0,0.0,0.0,-0.0,0.0,0.0,0.510253854,0.01,-0.003662108999999525,5725.0,0.0,0.0,0.0,0.0,0.0,3.338622705,0.01,0.0,-4523.0,0.0,0.0,-0.0,0.0,0.25,1.568603355,0.01,0.0,0.6700000166893005,-0.5299999713897705,-135.38999938964844,-0.020263671875,-0.02008056640625,1.007080078125,36.810001373291016,0.0,30.0,-1.1331787109375,-0.4603424072265625,Closing,0.0,0.0,-316.0,0.0,0.0,0.0,0.0,0.0,
2.407143,0.0,0.0,1625.0,0.0,0.0,0.0,0.0,0.25,0.794677653,0.01,0.0,-880.0,0.0,0.0,-0.0,0.0,0.0,0.5151366660000001,0.01,-0.003662108999999525,5725.0,0.0,0.0,0.0,0.0,0.0,3.338622705,0.01,0.0,-4523.0,0.0,0.0,-0.0,0.0,0.25,1.568603355,0.01,0.0,0.6700000166893005,-0.5299999713897705,-135.38999938964844,-0.01397705078125,6.103515625E-4,1.0142822265625,36.810001373291016,0.0,11.0,-1.133026123046875,-0.4603424072265625,Closing,0.0,0.0,-316.0,0.0,0.0,0.0,0.0,0.0,
2.429817999999999,0.0,0.0,1625.0,0.0,0.0,0.0,0.0,0.25,0.794677653,0.01,-0.0012207029999995456,-880.0,0.0,0.0,-0.0,0.0,0.0,0.510253854,0.01,0.0012207029999995456,5725.0,0.0,0.0,0.0,0.0,0.0,3.337402002,0.01,0.0,-4523.0,0.0,0.0,-0.0,0.0,0.25,1.569824058,0.01,0.0,0.6700000166893005,-0.5400000214576721,-135.38999938964844,0.0098876953125,0.00433349609375,1.03143310546875,36.810001373291016,0.0,-8.0,-1.13287353515625,-0.4603424072265625,Closing,0.0,0.0,-316.0,0.0,0.0,0.0,0.0,0.0,
2.454315,0.0,0.0,1625.0,0.0,0.0,0.0,0.0,0.25,0.794677653,0.01,-0.0012207029999995456,-880.0,0.0,0.0,-0.0,0.0,0.0,0.510253854,0.01,0.0012207029999995456,5725.0,0.0,0.0,0.0,0.0,0.0,3.338622705,0.01,0.0,-4523.0,0.0,0.0,-0.0,0.0,0.25,1.568603355,0.01,0.0,0.6700000166893005,-0.5299999713897705,-135.38999938964844,0.01043701171875,0.03070068359375,1.01934814453125,36.810001373291016,0.0,-27.0,-1.1326904296875,-0.4603424072265625,Closing,0.0,0.0,-316.0,0.0,0.0,0.0,0.0,0.0,
2.4782209999999996,0.0,0.0,1625.0,0.0,0.0,0.0,0.0,0.25,0.79345695,0.01,0.0,-880.0,0.0,0.0,-0.0,0.0,0.0,0.5151366660000001,0.01,0.0,5725.0,0.0,0.0,0.0,0.0,0.0,3.337402002,0.01,0.0,-4523.0,0.0,0.0,-0.0,0.0,0.25,1.568603355,0.01,0.0,0.6700000166893005,-0.5400000214576721,-135.38999938964844,-0.0186767578125,0.00738525390625,1.024169921875,36.83000183105469,0.0,9.0,-1.132659912109375,-0.4603424072265625,Closing,0.0,0.0,-316.0,0.0,0.0,0.0,0.0,0.0,
2.500041,0.0,0.0,1625.0,0.0,0.0,0.0,0.0,0.25,0.794677653,0.01,0.0,-880.0,0.0,0.0,-0.0,0.0,0.0,0.511474557,0.01,0.0,5725.0,0.0,0.0,0.0,0.0,0.0,3.337402002,0.01,0.0,-4523.0,0.0,0.0,-0.0,0.0,0.25,1.568603355,0.01,0.0,0.6700000166893005,-0.5400000214576721,-135.38999938964844,-0.0030517578125,0.033203125,1.021240234375,36.83000183105469,0.0,-19.0,-1.132659912109375,-0.4603424072265625,Closing,0.0,0.0,-316.0,0.0,0.0,0.0,0.0,0.0,
2.521804999999999,0.0,0.0,1625.0,0.0,0.0,0.0,0.0,0.25,0.7885741380000001,0.01,-0.0012207030000004337,-880.0,0.0,0.0,-0.0,0.0,0.0,0.509033151,0.01,0.0,5725.0,0.0,0.0,0.0,0.0,0.0,3.337402002,0.01,0.0,-4523.0,0.0,0.0,-0.0,0.0,0.25,1.568603355,0.01,0.0,0.6800000071525574,-0.5400000214576721,-135.38999938964844,-0.04083251953125,-0.007568359375,1.0384521484375,36.83000183105469,0.0,36.0,-1.13262939453125,-0.4603424072265625,Closing,0.0,0.0,-316.0,0.0,0.0,0.0,0.0,0.0,
2.5429939999999998,0.0,0.0,1625.0,0.0,0.0,0.0,0.0,0.25,0.79345695,0.01,-0.0012207030000004337,-880.0,0.0,0.0,-0.0,0.0,0.0,0.511474557,0.01,0.0,5725.0,0.0,0.0,0.0,0.0,0.0,3.337402002,0.01,0.0,-4523.0,0.0,0.0,-0.0,0.0,0.25,1.569824058,0.01,0.0,0.6700000166893005,-0.5400000214576721,-135.38999938964844,-0.0318603515625,-0.0142822265625,1.013671875,36.83000183105469,0.0,34.0,-1.132537841796875,-0.4603424072265625,Closing,0.0,0.0,-316.0,0.0,0.0,0.0,0.0,0.0,
2.5621409999999996,0.0,0.0,1625.0,0.0,0.0,0.0,0.0,0.25,0.7910155440000001,0.01,-0.0012207030000004337,-880.0,0.0,0.0,-0.0,0.0,0.0,0.5163573690000001,0.01,0.0,5725.0,0.0,0.0,0.0,0.0,0.0,3.337402002,0.01,0.0,-4523.0,0.0,0.0,-0.0,0.0,0.25,1.569824058,0.01,0.0,0.6800000071525574,-0.5299999713897705,-135.38999938964844,-0.02069091796875,-0.01153564453125,1.0172119140625,36.83000183105469,0.0,24.0,-1.132415771484375,-0.4603424072265625,Closing,0.0,0.0,-316.0,0.0,0.0,0.0,0.0,0.0,
2.585147,0.0,0.0,1625.0,0.0,0.0,0.0,0.0,0.25,0.794677653,0.01,0.0012207030000004337,-880.0,0.0,0.0,-0.0,0.0,0.0,0.5151366660000001,0.01,-0.0012207029999995456,5725.0,0.0,0.0,0.0,0.0,0.0,3.337402002,0.01,0.0,-4523.0,0.0,0.0,-0.0,0.0,0.25,1.568603355,0.01,0.0,0.6700000166893005,-0.5400000214576721,-135.38999938964844,0.01129150390625,0.0174560546875,1.00750732421875,36.83000183105469,0.0,-18.0,-1.1322784423828125,-0.4603424072265625,Closing,0.0,0.0,-316.0,0.0,0.0,0.0,0.0,0.0,
2.6042680000000002,0.0,0.0,1625.0,0.0,0.0,0.0,0.0,0.25,0.7897948410000001,0.01,0.0012207030000004337,-880.0,0.0,0.0,-0.0,0.0,0.0,0.5151366660000001,0.01,-0.0012207029999995456,5725.0,0.0,0.0,0.0,0.0,0.0,3.338622705,0.01,0.0,-4523.0,0.0,0.0,-0.0,0.0,0.25,1.569824058,0.01,0.0,0.6700000166893005,-0.5400000214576721,-135.38999938964844,0.0126953125,0.0338134765625,1.0029296875,36.83000183105469,0.0,-31.0,-1.1323089599609375,-0.4603424072265625,Opening,0.0,0.0,-316.0,0.0,0.0,0.0,0.0,0.0,
2.626491,0.0,0.0,1625.0,0.0,0.0,0.0,0.0,0.25,0.794677653,0.01,0.0012207029999995456,-880.0,0.0,0.0,-0.0,0.0,0.0,0.511474557,0.01,0.0012207029999995456,5725.0,0.0,0.0,0.0,0.0,0.0,3.337402002,0.01,0.0,-4523.0,0.0,0.0,-0.0,0.0,0.25,1.567382652,0.01,0.0,0.6700000166893005,-0.5400000214576721,-135.38999938964844,-0.00689697265625,0.0330810546875,1.02105712890625,36.83000183105469,0.0,-16.0,-1.1324920654296875,-0.4603424072265625,Opening,0.0,0.0,-316.0,0.0,0.0,0.0,0.0,0.0,
2.6459719999999995,0.0,0.0,1625.0,0.0,0.0,0.0,0.0,0.25,0.794677653,0.01,0.0012207029999995456,-880.0,0.0,0.0,-0.0,0.0,0.0,0.510253854,0.01,0.0012207029999995456,5725.0,0.0,0.0,0.0,0.0,0.0,3.337402002,0.01,0.0,-4523.0,0.0,0.0,-0.0,0.0,0.25,1.568603355,0.01,0.0,0.6700000166893005,-0.5400000214576721,-135.38999938964844,-0.0106201171875,0.00811767578125,1.03424072265625,36.83000183105469,0.0,3.0,-1.1324920654296875,-0.4603424072265625,Opening,0.0,0.0,-316.0,0.0,0.0,0.0,0.0,0.0,
2.666455,0.0,0.0,1625.0,0.0,0.0,0.0,0.0,0.25,0.794677653,0.01,0.0012207029999995456,-880.0,0.0,0.0,-0.0,0.0,0.0,0.5151366660000001,0.01,-0.0012207029999995456,5725.0,0.0,0.0,0.0,0.0,0.0,3.338622705,0.01,0.0,-4523.0,0.0,0.0,-0.0,0.0,0.25,1.569824058,0.01,0.0,0.6499999761581421,-0.5899999737739563,-135.38999938964844,-0.0159912109375,0.02532958984375,1.06787109375,36.83000183105469,0.0,-5.0,-1.1324920654296875,-0.4604644775390625,Opening,0.0,0.0,-316.0,0.0,0.0,0.0,0.0,0.0,
2.700648,0.0,0.0,1625.0,0.0,0.0,0.0,0.0,0.25,0.795898356,0.01,0.0,-880.0,0.0,0.0,-0.0,0.0,0.0,0.5163573690000001,0.01,-0.0012207029999995456,5725.0,0.0,0.0,0.0,0.0,0.0,3.338622705,0.01,0.0,-4523.0,0.0,0.0,-0.0,0.0,0.25,1.568603355,0.01,0.0,0.6700000166893005,-0.5799999833106995,-135.39999389648438,-0.1505126953125,0.00469970703125,0.99847412109375,36.83000183105469,0.0,104.0,-1.1324310302734375,-0.4606170654296875,Opening,0.0,0.0,-316.0,0.0,0.0,0.0,0.0,0.0,
2.724875999999999,0.0,0.0,1625.0,0.0,0.0,0.0,0.0,0.25,0.794677653,0.01,-0.0012207029999995456,-880.0,0.0,0.0,-0.0,0.0,0.0,0.511474557,0.01,0.0024414059999999793,5725.0,0.0,0.0,0.0,0.0,0.0,3.337402002,0.01,0.0,-4523.0,0.0,0.0,-0.0,0.0,0.25,1.568603355,0.01,0.0,0.6700000166893005,-0.49000000953674316,-135.4199981689453,-0.0159912109375,-0.03118896484375,0.89007568359375,36.83000183105469,0.0,35.0,-1.132537841796875,-0.4610595703125,Opening,0.0,0.0,-316.0,0.0,0.0,0.0,0.0,0.0,
2.7437129999999996,0.0,0.0,1625.0,0.0,0.0,0.0,0.0,0.25,0.794677653,0.01,-0.0012207029999995456,-880.0,0.0,0.0,-0.0,0.0,0.0,0.510253854,0.01,0.0024414059999999793,5725.0,0.0,0.0,0.0,0.0,0.0,3.338622705,0.01,0.0,-4523.0,0.0,0.0,-0.0,0.0,0.25,1.568603355,0.01,0.0,0.6299999952316284,-0.5199999809265137,-135.4199981689453,-0.04498291015625,0.023681640625,0.9498291015625,36.83000183105469,0.0,16.0,-1.13262939453125,-0.461273193359375,Opening,0.0,0.0,-316.0,0.0,0.0,0.0,0.0,0.0,
2.763585,0.0,0.0,1625.0,0.0,0.0,0.0,0.0,0.25,0.7897948410000001,0.01,-0.0012207029999995456,-880.0,0.0,0.0,-0.0,0.0,0.0,0.510253854,0.01,0.0024414059999999793,5725.0,0.0,0.0,0.0,0.0,0.0,3.338622705,0.01,0.0,-4523.0,0.0,0.0,-0.0,0.0,0.25,1.568603355,0.01,0.0,0.5899999737739563,-0.5899999737739563,-135.3699951171875,-0.04644775390625,0.03277587890625,1.08453369140625,36.83000183105469,0.0,9.0,-1.1326904296875,-0.4617767333984375,Opening,0.0,0.0,-316.0,0.0,0.0,0.0,0.0,0.0,
2.7876579999999995,0.0,0.0,1625.0,0.0,0.0,0.0,0.0,0.25,0.7897948410000001,0.01,0.0012207029999995456,-880.0,0.0,0.0,-0.0,0.0,0.0,0.511474557,0.01,-0.0024414059999999793,5725.0,0.0,0.0,0.0,0.0,0.0,3.337402002,0.01,0.0,-4523.0,0.0,0.0,-0.0,0.0,0.25,1.563720543,0.01,0.0,0.5799999833106995,-0.5899999737739563,-135.36000061035156,-0.05145263671875,0.07342529296875,1.06341552734375,36.83000183105469,0.0,-15.0,-1.1327056884765625,-0.4621124267578125,Opening,0.0,0.0,-316.0,0.0,0.0,0.0,0.0,0.0,
2.8096099999999997,0.0,0.0,1625.0,0.0,0.0,0.0,0.0,0.25,0.7897948410000001,0.01,0.0012207029999995456,-880.0,0.0,0.0,-0.0,0.0,0.0,0.510253854,0.01,-0.0024414059999999793,5725.0,0.0,0.0,0.0,0.0,0.0,3.338622705,0.01,0.0,-4523.0,0.0,0.0,-0.0,0.0,0.25,1.568603355,0.01,0.0,0.5899999737739563,-0.5600000023841858,-135.41000366210938,0.02532958984375,0.033203125,0.93267822265625,36.83000183105469,0.0,-41.0,-1.1327362060546875,-0.462493896484375,Opening,0.0,0.0,-316.0,0.0,0.0,0.0,0.0,0.0,
2.8370729999999993,0.0,0.0,1625.0,0.0,0.0,0.0,0.0,0.25,0.7910155440000001,0.01,-0.0024414059999999793,-880.0,0.0,0.0,-0.0,0.0,0.0,0.510253854,0.01,0.0012207029999995456,5725.0,0.0,0.0,0.0,0.0,0.0,3.338622705,0.01,0.0,-4523.0,0.0,0.0,-0.0,0.0,0.25,1.568603355,0.01,0.0,0.5899999737739563,-0.6000000238418579,-135.41000366210938,-0.10919189453125,-0.07476806640625,1.14300537109375,36.83000183105469,0.0,130.0,-1.132598876953125,-0.462554931640625,Opening,0.0,0.0,-316.0,0.0,0.0,0.0,0.0,0.0,
2.8591860000000007,0.0,0.0,1625.0,0.0,0.0,0.0,0.0,0.25,0.794677653,0.01,-0.0024414059999999793,-880.0,0.0,0.0,-0.0,0.0,0.0,0.511474557,0.01,0.0012207029999995456,5725.0,0.0,0.0,0.0,0.0,0.0,3.337402002,0.01,0.0,-4523.0,0.0,0.0,-0.0,0.0,0.25,1.568603355,0.01,0.0,0.5600000023841858,-0.6000000238418579,-135.38999938964844,0.0179443359375,-0.04718017578125,0.93377685546875,36.83000183105469,0.0,19.0,-1.1323699951171875,-0.462554931640625,Closing,0.0,0.0,-316.0,0.0,0.0,0.0,0.0,0.0,
2.8929489999999998,0.0,0.0,1625.0,0.0,0.0,0.0,0.0,0.25,0.794677653,0.01,0.0024414059999999793,-880.0,0.0,0.0,-0.0,0.0,0.0,0.5151366660000001,0.01,0.0012207030000004337,5725.0,0.0,0.0,0.0,0.0,0.0,3.338622705,0.01,0.0,-4523.0,0.0,0.0,-0.0,0.0,0.25,1.568603355,0.01,0.0,0.6299999952316284,-0.6100000143051147,-135.3800048828125,-0.00872802734375,0.0181884765625,1.18017578125,36.83000183105469,0.0,-6.0,-1.1321258544921875,-0.462493896484375,Closing,0.0,0.0,-316.0,0.0,0.0,0.0,0.0,0.0,
2.9166779999999988,0.0,0.0,1625.0,0.0,0.0,0.0,0.0,0.25,0.794677653,0.01,0.0024414059999999793,-880.0,0.0,0.0,-0.0,0.0,0.0,0.510253854,0.01,-0.0012207030000004337,5725.0,0.0,0.0,0.0,0.0,0.0,3.337402002,0.01,0.0,-4523.0,0.0,0.0,-0.0,0.0,0.25,1.569824058,0.01,0.0,0.6399999856948853,-0.5699999928474426,-135.39999389648438,0.01361083984375,0.03399658203125,1.07672119140625,36.83000183105469,0.0,-32.0,-1.1321563720703125,-0.462493896484375,Closing,0.0,0.0,-316.0,0.0,0.0,0.0,0.0,0.0,
2.941829999999999,0.0,0.0,1625.0,0.0,0.0,0.0,0.0,0.25,0.794677653,0.01,0.0,-880.0,0.0,0.0,-0.0,0.0,0.0,0.510253854,0.01,-0.0012207030000004337,5725.0,0.0,0.0,0.0,0.0,0.0,3.334960596,0.01,0.0,-4523.0,0.0,0.0,-0.0,0.0,0.25,1.568603355,0.01,0.0,0.6399999856948853,-0.550000011920929,-135.4199981689453,0.03070068359375,0.0750732421875,1.06640625,36.83000183105469,0.0,-73.0,-1.13238525390625,-0.4623870849609375,Closing,0.0,0.0,-316.0,0.0,0.0,0.0,0.0,0.0,
2.961622,0.0,0.0,1625.0,0.0,0.0,0.0,0.0,0.25,0.7897948410000001,0.01,0.0,-880.0,0.0,0.0,-0.0,0.0,0.0,0.511474557,0.01,-0.0012207030000004337,5725.0,0.0,0.0,0.0,0.0,0.0,3.338622705,0.01,0.0,-4523.0,0.0,0.0,-0.0,0.0,0.25,1.569824058,0.01,0.0,0.6299999952316284,-0.5799999833106995,-135.39999389648438,-0.12274169921875,0.06256103515625,1.15875244140625,36.83000183105469,0.0,44.0,-1.132568359375,-0.46240234375,Closing,0.0,0.0,-316.0,0.0,0.0,0.0,0.0,0.0,
2.984079000000001,0.0,0.0,1625.0,0.0,0.0,0.0,0.0,0.25,0.7897948410000001,0.01,-0.0024414059999999793,-880.0,0.0,0.0,-0.0,0.0,0.0,0.510253854,0.01,0.0012207030000004337,5725.0,0.0,0.0,0.0,0.0,0.0,3.337402002,0.01,0.0,-4523.0,0.0,0.0,-0.0,0.0,0.25,1.568603355,0.01,0.0,0.5699999928474426,-0.5799999833106995,-135.35000610351562,0.04913330078125,-0.06365966796875,0.809814453125,36.83000183105469,0.0,9.0,-1.132659912109375,-0.46240234375,Closing,0.0,0.0,-316.0,0.0,0.0,0.0,0.0,0.0,
3.002932,0.0,0.0,1625.0,0.0,0.0,0.0,0.0,0.25,0.7897948410000001,0.01,-0.0024414059999999793,-880.0,0.0,0.0,-0.0,0.0,0.0,0.510253854,0.01,0.0012207030000004337,5725.0,0.0,0.0,0.0,0.0,0.0,3.338622705,0.01,0.0,-4523.0,0.0,0.0,-0.0,0.0,0.25,1.566161949,0.01,0.0,0.6200000047683716,-0.5899999737739563,-135.36000061035156,-0.02691650390625,0.10308837890625,1.2386474609375,36.84000015258789,0.0,-53.0,-1.1327056884765625,-0.46234130859375,Closing,0.0,0.0,-316.0,0.0,0.0,0.0,0.0,0.0,
3.028889,0.0,0.0,1625.0,0.0,0.0,0.0,0.0,0.25,0.794677653,0.01,0.0012207030000004337,-880.0,0.0,0.0,-0.0,0.0,0.0,0.510253854,0.01,-0.0012207030000004337,5725.0,0.0,0.0,0.0,0.0,0.0,3.337402002,0.01,0.0,-4523.0,0.0,0.0,-0.0,0.0,0.25,1.568603355,0.01,0.0,0.5400000214576721,-0.5299999713897705,-135.4199981689453,0.07904052734375,-0.03375244140625,0.92919921875,36.84000015258789,0.0,-32.0,-1.1325225830078125,-0.4618377685546875,Closing,0.0,0.0,-316.0,0.0,0.0,0.0,0.0,0.0,
3.0503370000000003,0.0,0.0,1625.0,0.0,0.0,0.0,0.0,0.25,0.7897948410000001,0.01,0.0012207030000004337,-880.0,0.0,0.0,-0.0,0.0,0.0,0.510253854,0.01,-0.0012207030000004337,5725.0,0.0,0.0,0.0,0.0,0.0,3.337402002,0.01,0.0,-4523.0,0.0,0.0,-0.0,0.0,0.25,1.569824058,0.01,0.0,0.5199999809265137,-0.5899999737739563,-135.38999938964844,-0.06488037109375,0.07049560546875,1.24072265625,36.84000015258789,0.0,-4.0,-1.1324310302734375,-0.4615478515625,Closing,0.0,0.0,-316.0,0.0,0.0,0.0,0.0,0.0,
3.068124999999999,0.0,0.0,1625.0,0.0,0.0,0.0,0.0,0.25,0.7897948410000001,0.01,0.0012207030000004337,-880.0,0.0,0.0,-0.0,0.0,0.0,0.510253854,0.01,0.0012207030000004337,5725.0,0.0,0.0,0.0,0.0,0.0,3.337402002,0.01,0.0,-4523.0,0.0,0.0,-0.0,0.0,0.25,1.568603355,0.01,0.0,0.5099999904632568,-0.5699999928474426,-135.3699951171875,-0.065185546875,-0.01336669921875,0.9583740234375,36.84000015258789,0.0,54.0,-1.1323089599609375,-0.4613494873046875,Closing,0.0,0.0,-316.0,0.0,0.0,0.0,0.0,0.0,
3.0916819999999996,0.0,0.0,1625.0,0.0,0.0,0.0,0.0,0.25,0.7897948410000001,0.01,0.0012207029999995456,-880.0,0.0,0.0,-0.0,0.0,0.0,0.510253854,0.01,0.0012207030000004337,5725.0,0.0,0.0,0.0,0.0,0.0,3.338622705,0.01,0.0,-4523.0,0.0,0.0,-0.0,0.0,0.25,1.569824058,0.01,0.0,0.49000000953674316,-0.5400000214576721,-135.36000061035156,0.1395263671875,0.08721923828125,0.80029296875,36.84000015258789,0.0,-161.0,-1.13226318359375,-0.46112060546875,Closing,0.0,0.0,-316.0,0.0,0.0,0.0,0.0,0.0,
3.1154759999999997,0.0,0.0,1625.0,0.0,0.0,0.0,0.0,0.25,0.794677653,0.01,0.0012207029999995456,-880.0,0.0,0.0,-0.0,0.0,0.0,0.5151366660000001,0.01,-0.0012207030000004337,5725.0,0.0,0.0,0.0,0.0,0.0,3.338622705,0.01,0.0,-4523.0,0.0,0.0,-0.0,0.0,0.25,1.569824058,0.01,0.0,0.5799999833106995,-0.6000000238418579,-135.41000366210938,-0.100830078125,0.04998779296875,1.26934814453125,36.84000015258789,0.0,36.0,-1.13226318359375,-0.4607696533203125,Closing,0.0,0.0,-316.0,0.0,0.0,0.0,0.0,0.0,
3.137548,0.0,0.0,1625.0,0.0,0.0,0.0,0.0,0.25,0.794677653,0.01,-0.0012207029999995456,-880.0,0.0,0.0,-0.0,0.0,0.0,0.510253854,0.01,-0.0012207030000004337,5725.0,0.0,0.0,0.0,0.0,0.0,3.337402002,0.01,0.0,-4523.0,0.0,0.0,-0.0,0.0,0.25,1.569824058,0.01,0.0,0.5600000023841858,-0.5699999928474426,-135.4199981689453,-0.02069091796875,-0.03509521484375,0.89630126953125,36.84000015258789,0.0,39.0,-1.1322021484375,-0.460693359375,Closing,0.0,0.0,-316.0,0.0,0.0,0.0,0.0,0.0,
3.155544999999999,0.0,0.0,1625.0,0.0,0.0,0.0,0.0,0.25,0.7897948410000001,0.01,-0.0012207029999995456,-880.0,0.0,0.0,-0.0,0.0,0.0,0.5163573690000001,0.01,-0.0012207030000004337,5725.0,0.0,0.0,0.0,0.0,0.0,3.338622705,0.01,0.0,-4523.0,0.0,0.0,-0.0,0.0,0.25,1.568603355,0.01,0.0,0.5400000214576721,-0.6000000238418579,-135.38999938964844,-0.068359375,-0.04608154296875,1.12451171875,36.84000015258789,0.0,80.0,-1.1319580078125,-0.460418701171875,Closing,0.0,0.0,-316.0,0.0,0.0,0.0,0.0,0.0,
3.1771799999999994,0.0,0.0,1625.0,0.0,0.0,0.0,0.0,0.25,0.795898356,0.01,-0.0012207029999995456,-880.0,0.0,0.0,-0.0,0.0,0.0,0.510253854,0.01,0.0012207030000004337,5725.0,0.0,0.0,0.0,0.0,0.0,3.338622705,0.01,0.0,-4523.0,0.0,0.0,-0.0,0.0,0.25,1.564941246,0.01,0.0,0.5400000214576721,-0.6000000238418579,-135.3699951171875,-0.02587890625,-0.0126953125,1.0609130859375,36.84000015258789,0.0,26.0,-1.131744384765625,-0.460418701171875,Closing,0.0,0.0,-316.0,0.0,0.0,0.0,0.0,0.0,
3.1969939999999997,0.0,0.0,1625.0,0.0,0.0,0.0,0.0,0.25,0.7897948410000001,0.01,0.0,-880.0,0.0,0.0,-0.0,0.0,0.0,0.5163573690000001,0.01,0.0012207030000004337,5725.0,0.0,0.0,0.0,0.0,0.0,3.337402002,0.01,0.0,-4523.0,0.0,0.0,-0.0,0.0,0.25,1.569824058,0.01,0.0,0.5199999809265137,-0.5699999928474426,-135.3800048828125,0.05291748046875,0.03265380859375,0.8887939453125,36.84000015258789,0.0,-61.0,-1.1315460205078125,-0.4604034423828125,Closing,0.0,0.0,-316.0,0.0,0.0,0.0,0.0,0.0,
3.2146449999999995,0.0,0.0,1625.0,0.0,0.0,0.0,0.0,0.25,0.7910155440000001,0.01,0.0,-880.0,0.0,0.0,-0.0,0.0,0.0,0.510253854,0.01,0.0012207030000004337,5725.0,0.0,0.0,0.0,0.0,0.0,3.338622705,0.01,0.0,-4523.0,0.0,0.0,-0.0,0.0,0.25,1.568603355,0.01,0.0,0.550000011920929,-0.6299999952316284,-135.41000366210938,-0.013427734375,0.01422119140625,1.18048095703125,36.84000015258789,0.0,-1.0,-1.13134765625,-0.4603271484375,Closing,0.0,0.0,-316.0,0.0,0.0,0.0,0.0,0.0,
