Time,ClimberA1,ClimberA2,FRpos,FRCurrent,FRspeed,FRsetpoint,FRApos,FRACurrent,FREncpos,FREncSetpoint,FREncSpeed,FLpos,FLCurrent,FLspeed,FLsetpoint,FLApos,FLACurrent,FLEncpos,FLEncSetpoint,FLEncSpeed,BRpos,BRCurrent,BRspeed,BRsetpoint,BRApos,BRACurrent,BREncpos,BREncSetpoint,BREncSpeed,BLpos,BLCurrent,BLspeed,BLsetpoint,BLApos,BLACurrent,BLEncpos,BLEncSetpoint,BLEncSpeed,navx_Pitch,navx_Roll,navx_Yaw,navx_XAcc,navx_YAcc,navx_ZAcc,navx_Temp,navx_Bar,navx_Alt,navx_XDis,navx_YDis,GearPlacerState,ShootOutputV,ShootOutputCurrent,ShootEncPos,ShootEncVelocity,ShootSpeed,ShootSetpoint,CarouselSetpoint,CarouselCurrent,
0.24364299999998185,0.0,0.0,22492.0,0.0,0.0,NaN,0.0,0.25,1.024169817,NaN,0.0,-17266.0,0.0,0.0,NaN,0.0,0.0,0.49194330900000005,NaN,0.0,-2374.0,0.0,0.0,NaN,0.0,0.0,3.5717769780000004,NaN,0.0,-12945.0,0.125,0.0,NaN,0.0,0.125,1.824950985,NaN,0.0,0.20999999344348907,-0.6499999761581421,-13.380000114440918,-0.01458740234375,0.00103759765625,1.01702880859375,36.7599983215332,0.0,-2.0,1.50848388671875,-1.4205474853515625,Closing,0.0,0.0,-732.0,0.0,0.0,0.0,0.0,0.0,
0.48463000000000467,0.0,0.0,22492.0,0.0,0.0,0.0,0.0,0.375,0.9619139640000001,0.01,0.0,-17266.0,0.125,0.0,-0.0,0.0,0.125,0.490722606,0.01,0.0,-2374.0,0.0,0.0,0.0,0.0,0.25,3.4851070650000002,0.01,0.0,-12945.0,0.125,0.0,-0.0,0.0,0.5,1.772460756,0.01,0.0,0.20000000298023224,-0.6299999952316284,-13.399999618530273,-0.012451171875,0.01947021484375,1.04034423828125,36.7599983215332,0.0,-4.0,1.50848388671875,-1.4205474853515625,Closing,0.0,0.0,-732.0,0.0,0.0,0.0,0.0,0.0,
0.6240050000000047,0.0,0.0,22492.0,0.0,0.0,0.0,0.0,0.375,0.8569335060000001,0.01,0.0,-17266.0,0.125,0.0,-0.0,0.0,0.125,0.490722606,0.01,0.0,-2374.0,0.0,0.0,0.0,0.0,0.25,3.4118648850000004,0.01,0.0,-12945.0,0.125,0.0,-0.0,0.0,0.25,1.6564939710000002,0.01,0.0,0.20000000298023224,-0.6399999856948853,-13.40999984741211,-0.0194091796875,2.44140625E-4,1.0162353515625,36.7599983215332,0.0,-6.0,1.50848388671875,-1.4205169677734375,Closing,0.0,0.0,-732.0,0.0,0.0,0.0,0.0,0.0,
0.8226609999999637,0.0,0.0,22492.0,0.0,0.0,0.0,0.0,0.25,0.8435057730000001,0.01,0.0,-17266.0,0.125,0.0,-0.0,0.0,0.125,0.49194330900000005,0.01,0.0,-2374.0,0.0,0.0,0.0,0.0,0.125,3.402099261,0.01,0.0,-12945.0,0.125,0.0,-0.0,0.0,0.25,1.704101388,0.01,0.0,0.20000000298023224,-0.6299999952316284,-13.40999984741211,-0.0120849609375,-0.0013427734375,1.01983642578125,36.7599983215332,0.0,0.0,1.50848388671875,-1.4205169677734375,Closing,0.0,0.0,-732.0,0.0,0.0,0.0,0.0,0.0,
1.021332999999984,0.0,0.0,22492.0,0.0,0.0,0.0,0.0,0.25,0.8422850700000001,0.01,0.0,-17266.0,0.125,0.0,-0.0,0.0,0.125,0.490722606,0.01,0.0,-2374.0,0.0,0.0,0.0,0.0,0.125,3.402099261,0.01,0.0,-12945.0,0.125,0.0,-0.0,0.0,0.25,1.6809080310000002,0.01,0.0,0.20000000298023224,-0.6299999952316284,-13.40999984741211,-0.0084228515625,0.0,1.019775390625,36.7599983215332,0.0,3.0,1.50848388671875,-1.4205169677734375,Closing,0.0,0.0,-732.0,0.0,0.0,0.0,0.0,0.0,
1.2211400000000139,0.0,0.0,22470.0,0.375,-135.0,-396.8503922224045,0.0,0.25,0.8410643670000001,4.932250999999998,0.0,-17246.0,1.125,127.5,396.8503922224045,0.0,0.125,0.48706049700000004,4.963769999999998,0.0,-2382.0,1.0,-45.0,-396.8503922224045,0.0,0.125,3.40576137,0.01,0.0,-12931.0,1.125,67.5,396.8503922224045,0.0,0.25,1.6809080310000002,0.01,0.0,0.17000000178813934,-0.7200000286102295,-13.449999809265137,-0.00787353515625,-0.03228759765625,0.97711181640625,36.7599983215332,0.0,12.0,1.5076446533203125,-1.421234130859375,Closing,0.0,0.0,-732.0,0.0,0.0,0.0,0.0,0.125,
1.358448999999964,0.0,0.0,22441.0,10.625,-195.0,-1349.291296005249,0.0,0.25,0.8422850700000001,4.932250999999998,0.0,-17215.0,19.0,277.5,1349.291296005249,0.0,0.125,0.48706049700000004,4.963769999999998,0.0,-2390.0,16.375,-90.0,-1349.291296005249,0.0,0.125,3.402099261,0.01,0.0,-12902.0,10.25,330.0,1349.291296005249,0.0,0.25,1.5783689790000002,0.01,0.0,0.20999999344348907,-2.5799999237060547,-13.470000267028809,-0.29388427734375,0.03155517578125,1.03948974609375,36.779998779296875,0.0,-246.0,1.4879608154296875,-1.427276611328125,Closing,0.0,0.0,-732.0,0.0,0.0,0.0,0.0,0.0,
1.555064000000013,0.0,0.0,22339.0,7.375,-870.0,-1250.0787448883057,0.0,0.25,0.8422850700000001,4.932250999999998,0.0,-17114.0,13.375,840.0,1250.0787448883057,0.0,0.125,0.48583979400000005,4.963769999999998,0.0,-2438.0,14.375,-645.0,-1250.0787448883057,0.0,0.125,3.402099261,0.01,0.0,-12807.0,8.5,787.5,1250.0787448883057,0.0,0.25,1.561279137,0.01,0.0,0.23000000417232513,-3.759999990463257,-12.989999771118164,-0.20526123046875,0.10107421875,1.36566162109375,36.779998779296875,0.0,-133.0,1.437225341796875,-1.4395751953125,Closing,0.0,0.0,-732.0,0.0,0.0,0.0,0.0,0.125,
1.6507249999999767,0.0,0.0,22180.0,5.625,-1117.5,-1250.0787448883057,0.0,0.25,0.8422850700000001,4.932250999999998,0.0,-16960.0,9.5,1147.5,1250.0787448883057,0.0,0.125,0.47241206100000005,4.963769999999998,0.0,-2574.0,10.75,-1035.0,-1250.0787448883057,0.0,0.125,3.400878558,0.01,0.0,-12665.0,7.0,1080.0,1250.0787448883057,0.0,0.25,1.5783689790000002,0.01,0.0,0.25999999046325684,-4.320000171661377,-12.539999961853027,-0.16864013671875,0.0845947265625,1.39105224609375,36.779998779296875,0.0,-78.0,1.385040283203125,-1.4499664306640625,Closing,0.0,0.0,-732.0,0.0,0.0,0.0,0.0,0.0,
1.8191209999999847,0.0,0.0,21766.0,3.5,-1350.0,-1250.0787448883057,0.0,0.25,0.8789061600000001,4.932250999999998,0.0,-16553.0,5.5,1350.0,1250.0787448883057,0.0,0.25,0.457763625,4.963769999999998,0.0,-2945.0,9.125,-1245.0,-1250.0787448883057,0.0,0.125,3.397216449,0.01,0.0,-12276.0,5.0,1275.0,1250.0787448883057,0.0,0.25,1.613769366,0.01,0.0,0.27000001072883606,-4.550000190734863,-11.960000038146973,-0.0936279296875,-0.00482177734375,1.29010009765625,36.70000076293945,0.0,11.0,1.3078460693359375,-1.4641571044921875,Closing,0.0,0.0,-732.0,0.0,0.0,0.0,0.0,0.125,
2.0218190000000176,0.0,0.0,21539.0,1.25,-1417.5,-1250.0787448883057,0.0,0.25,0.8276366340000001,4.932250999999998,0.0,-16326.0,2.75,1432.5,1250.0787448883057,0.0,0.25,0.462646437,4.963769999999998,0.0,-3167.0,5.625,-1417.5,-1250.0787448883057,0.0,0.125,3.397216449,0.01,0.0,-11835.0,3.625,1395.0,1250.0787448883057,0.0,0.125,1.622314287,0.01,0.0,0.3499999940395355,-3.990000009536743,-11.630000114440918,0.00396728515625,-0.0296630859375,0.9805908203125,36.70000076293945,0.0,78.0,1.2123260498046875,-1.4674835205078125,Closing,0.0,0.0,-732.0,0.0,0.0,0.0,0.0,0.0,
2.2244369999999765,0.0,0.0,21069.0,4.875,-1545.0,-1797.993571491684,0.0,0.375,0.992431539,0.19750498885987067,0.0,-15898.0,0.125,1192.5,813.6047515921549,0.0,0.5,0.9338377950000001,0.4602320704119484,0.0,-3617.0,13.25,-1455.0,-1797.993571491684,0.0,0.25,3.251952792,4.742568696004461,0.0,-11635.0,0.5,1222.5,813.6047515921549,0.0,0.5,1.340331894,4.498302913893585,0.0,-0.05000000074505806,-3.509999990463257,-10.579999923706055,0.0438232421875,-0.06146240234375,0.89630126953125,36.70000076293945,0.0,108.0,1.1407470703125,-1.4823455810546875,Closing,0.0,0.0,-732.0,0.0,0.0,0.0,0.0,0.0,
2.353396999999997,0.0,0.0,20786.0,1.625,-1927.5,-1883.868439126577,0.0,0.25,1.105956918,0.220493891021913,0.0,-15720.0,0.25,952.5,773.8407602405534,0.0,0.25,1.282958853,0.5852030175860602,0.0,-3884.0,10.25,-1837.5,-1883.868439126577,0.0,0.125,3.0993649170000004,4.719541811881703,0.0,-11459.0,1.5,870.0,773.8407602405534,0.0,0.5,0.963134667,4.373477235812359,0.0,-0.07000000029802322,-2.75,-1.8899999856948853,0.0758056640625,0.1173095703125,0.782958984375,36.689998626708984,0.0,109.0,1.0982666015625,-1.4961395263671875,Closing,0.0,0.0,-732.0,0.0,0.0,0.0,0.0,0.0,
2.5554280000000142,0.0,0.0,20133.0,0.75,-2017.5,-1959.665491230706,0.0,0.25,1.091308482,0.23398452167212863,0.0,-15432.0,0.25,870.0,767.5442808148663,0.0,0.25,1.301269398,0.6697472748112613,0.0,-4497.0,9.0,-1905.0,-1959.665491230706,0.0,0.0,3.077392263,4.706028892189594,0.0,-11238.0,3.875,577.5,767.5442808148663,0.0,0.125,0.74462883,4.289031254769211,0.0,0.9200000166893005,-2.799999952316284,19.350000381469727,-0.1490478515625,0.30224609375,1.05682373046875,36.689998626708984,0.0,2.0,1.052947998046875,-1.4868316650390625,Closing,0.0,0.0,-732.0,0.0,0.0,0.0,0.0,0.0,
2.6857849999999743,0.0,0.0,19814.0,1.375,-1995.0,-2051.3236716808537,0.0,0.25,1.076660046,0.248851900521723,0.0,-15304.0,0.5,780.0,771.7017740856727,0.0,0.125,1.2646483080000002,0.7715691748649568,0.0,-4802.0,10.625,-1905.0,-2051.3236716808537,0.0,0.0,3.072509451,4.691136949652903,0.0,-11141.0,5.0,615.0,771.7017740856727,0.0,0.375,0.761718672,4.187327714825535,0.0,1.3799999952316284,-2.9600000381469727,32.91999816894531,-0.11016845703125,0.38238525390625,1.062255859375,36.689998626708984,0.0,147.0,1.0355682373046875,-1.457763671875,Closing,0.0,0.0,-732.0,0.0,0.0,0.0,0.0,0.0,
2.8855449999999836,0.0,0.0,19231.0,0.0,-1762.5,0.0,0.0,0.125,1.071777234,0.248851900521723,0.0,-15062.0,0.125,795.0,0.0,0.0,0.125,1.259765496,0.7715691748649568,0.0,-5333.0,0.0,-1440.0,0.0,0.0,0.0,3.071288748,4.691136949652903,0.0,-10962.0,0.125,465.0,0.0,0.0,0.25,0.914306547,4.187327714825535,0.0,1.2899999618530273,-2.369999885559082,51.279998779296875,0.2259521484375,0.12384033203125,0.04119873046875,36.65999984741211,0.0,238.0,1.031951904296875,-1.3991241455078125,Closing,0.0,0.0,-732.0,0.0,0.0,0.0,0.0,0.0,
3.087044999999984,0.0,0.0,19006.0,0.0,-1297.5,0.0,0.0,0.125,1.076660046,0.248851900521723,0.0,-14968.0,0.125,510.0,0.0,0.0,0.125,1.258544793,0.7715691748649568,0.0,-5537.0,0.0,-1125.0,0.0,0.0,0.0,3.072509451,4.691136949652903,0.0,-10899.0,0.125,397.5,0.0,0.0,0.25,0.9326170920000001,4.187327714825535,0.0,1.6100000143051147,-2.0999999046325684,63.900001525878906,0.1015625,0.0672607421875,1.2633056640625,36.65999984741211,0.0,93.0,1.0647125244140625,-1.3493194580078125,Closing,0.0,0.0,-732.0,0.0,0.0,0.0,0.0,0.0,
3.1886020000000137,0.0,0.0,18830.0,0.0,-967.5,0.0,0.0,0.25,1.076660046,0.248851900521723,0.0,-14896.0,0.125,367.5,0.0,0.0,0.125,1.258544793,0.7715691748649568,0.0,-5699.0,0.0,-795.0,0.0,0.0,0.0,3.072509451,4.691136949652903,0.0,-10839.0,0.125,307.5,0.0,0.0,0.25,0.8789061600000001,4.187327714825535,0.0,1.6399999856948853,-1.4900000095367432,69.88999938964844,0.09228515625,0.0701904296875,1.080810546875,36.65999984741211,0.0,78.0,1.101165771484375,-1.329254150390625,Closing,0.0,0.0,-732.0,0.0,0.0,0.0,0.0,0.0,
3.3225530000000143,0.0,0.0,18699.0,0.0,-682.5,0.0,0.0,0.25,1.071777234,0.248851900521723,0.0,-14845.0,0.125,247.5,0.0,0.0,0.125,1.25732409,0.7715691748649568,0.0,-5815.0,0.0,-645.0,0.0,0.0,0.0,3.072509451,4.691136949652903,0.0,-10794.0,0.125,225.0,0.0,0.0,0.25,0.852050694,4.187327714825535,0.0,1.6100000143051147,-1.0800000429153442,73.69999694824219,0.093505859375,0.02593994140625,1.03887939453125,36.650001525878906,0.0,28.0,1.138336181640625,-1.3207550048828125,Closing,0.0,0.0,-732.0,0.0,0.0,0.0,0.0,0.125,
3.4465139999999663,0.0,0.0,18606.0,0.0,-480.0,0.0,0.0,0.25,1.076660046,0.248851900521723,0.0,-14810.0,0.125,165.0,0.0,0.0,0.125,1.258544793,0.7715691748649568,0.0,-5904.0,0.0,-427.5,0.0,0.0,0.0,3.071288748,4.691136949652903,0.0,-10761.0,0.125,150.0,0.0,0.0,0.125,0.852050694,4.187327714825535,0.0,1.5499999523162842,-0.6800000071525574,76.16000366210938,0.0654296875,-0.0029296875,1.00518798828125,36.650001525878906,0.0,-10.0,1.1633453369140625,-1.3200531005859375,Closing,0.0,0.0,-732.0,0.0,0.0,0.0,0.0,0.0,
3.6232679999999817,0.0,0.0,18532.0,0.0,-142.5,0.0,0.0,0.125,1.076660046,0.248851900521723,0.0,-14781.0,0.125,52.5,0.0,0.0,0.125,1.25732409,0.7715691748649568,0.0,-5982.0,0.0,-135.0,0.0,0.0,0.0,3.067626639,4.691136949652903,0.0,-10732.0,0.125,52.5,0.0,0.0,0.125,0.850829991,4.187327714825535,0.0,1.440000057220459,-0.12999999523162842,77.44999694824219,0.0601806640625,0.0040283203125,1.064208984375,36.650001525878906,0.0,-8.0,1.1622161865234375,-1.3307647705078125,Closing,0.0,0.0,-732.0,0.0,0.0,0.0,0.0,0.0,
3.745588999999978,0.0,0.0,18532.0,0.0,0.0,0.0,0.0,0.125,1.076660046,0.248851900521723,0.0,-14781.0,0.125,0.0,0.0,0.0,0.125,1.259765496,0.7715691748649568,0.0,-5983.0,0.0,0.0,0.0,0.0,0.0,3.067626639,4.691136949652903,0.0,-10732.0,0.125,0.0,0.0,0.0,0.125,0.850829991,4.187327714825535,0.0,1.309999942779541,-0.10999999940395355,77.18000030517578,-0.0166015625,0.0113525390625,1.03436279296875,36.650001525878906,0.0,-15.0,1.1616363525390625,-1.3374786376953125,Closing,0.0,0.0,-732.0,0.0,0.0,0.0,0.0,0.125,
3.9550979999999982,0.0,0.0,18532.0,0.0,0.0,0.0,0.0,0.125,1.076660046,0.248851900521723,0.0,-14781.0,0.125,0.0,0.0,0.0,0.125,1.258544793,0.7715691748649568,0.0,-5983.0,0.0,0.0,0.0,0.0,0.0,3.067626639,4.691136949652903,0.0,-10732.0,0.125,0.0,0.0,0.0,0.125,0.850829991,4.187327714825535,0.0,1.1699999570846558,-0.3100000023841858,76.97000122070312,-0.024169921875,0.00909423828125,1.00830078125,36.619998931884766,0.0,-15.0,1.16021728515625,-1.3364410400390625,Closing,0.0,0.0,-732.0,0.0,0.0,0.0,0.0,0.0,
4.152770000000019,0.0,0.0,18532.0,0.0,0.0,0.0,0.0,0.125,1.076660046,0.248851900521723,0.0,-14781.0,0.125,0.0,0.0,0.0,0.125,1.259765496,0.7715691748649568,0.0,-5983.0,0.0,0.0,0.0,0.0,0.0,3.067626639,4.691136949652903,0.0,-10732.0,0.125,0.0,0.0,0.0,0.125,0.850829991,4.187327714825535,0.0,1.0299999713897705,-0.3700000047683716,77.02999877929688,-0.01153564453125,0.0079345703125,1.02386474609375,36.619998931884766,0.0,-11.0,1.159820556640625,-1.3364410400390625,Closing,0.0,0.0,-732.0,0.0,0.0,0.0,0.0,0.0,
4.285338999999978,0.0,0.0,18532.0,0.0,0.0,0.0,0.0,0.25,1.076660046,0.248851900521723,0.0,-14781.0,0.125,0.0,0.0,0.0,0.125,1.258544793,0.7715691748649568,0.0,-5983.0,0.0,0.0,0.0,0.0,0.0,3.068847342,4.691136949652903,0.0,-10732.0,0.125,0.0,0.0,0.0,0.125,0.850829991,4.187327714825535,0.0,0.9599999785423279,-0.4300000071525574,77.01000213623047,-0.0179443359375,0.00860595703125,1.0203857421875,36.619998931884766,0.0,-10.0,1.159820556640625,-1.3364410400390625,Closing,0.0,0.0,-732.0,0.0,0.0,0.0,0.0,0.0,
4.488119000000006,0.0,0.0,18532.0,0.0,0.0,0.0,0.0,0.25,1.076660046,0.248851900521723,0.0,-14781.0,0.125,0.0,0.0,0.0,0.125,1.258544793,0.7715691748649568,0.0,-5983.0,0.0,0.0,0.0,0.0,0.0,3.067626639,4.691136949652903,0.0,-10732.0,0.125,0.0,0.0,0.0,0.125,0.850829991,4.187327714825535,0.0,0.8600000143051147,-0.49000000953674316,77.0199966430664,-0.015869140625,0.00677490234375,1.020263671875,36.63999938964844,0.0,-10.0,1.159820556640625,-1.3364410400390625,Closing,0.0,0.0,-732.0,0.0,0.0,0.0,0.0,0.0,
4.691494000000006,0.0,0.0,18532.0,0.0,0.0,0.0,0.0,0.125,1.075439343,0.248851900521723,0.0,-14781.0,0.125,0.0,0.0,0.0,0.125,1.258544793,0.7715691748649568,0.0,-5983.0,0.0,0.0,0.0,0.0,0.0,3.067626639,4.691136949652903,0.0,-10732.0,0.125,0.0,0.0,0.0,0.125,0.850829991,4.187327714825535,0.0,0.7799999713897705,-0.550000011920929,77.0199966430664,-0.01556396484375,-9.1552734375E-4,1.0250244140625,36.63999938964844,0.0,-15.0,1.159820556640625,-1.3364410400390625,Closing,0.0,0.0,-732.0,0.0,0.0,0.0,0.0,0.0,
4.8865729999999745,0.0,0.0,18532.0,0.0,0.0,0.0,0.0,0.125,1.076660046,0.248851900521723,0.0,-14781.0,0.125,0.0,0.0,0.0,0.125,1.258544793,0.7715691748649568,0.0,-5983.0,0.0,0.0,0.0,0.0,0.0,3.067626639,4.691136949652903,0.0,-10732.0,0.125,0.0,0.0,0.0,0.125,0.850829991,4.187327714825535,0.0,0.7200000286102295,-0.6000000238418579,77.0199966430664,-0.01824951171875,0.005615234375,1.020263671875,36.61000061035156,0.0,-8.0,1.159820556640625,-1.3364410400390625,Closing,0.0,0.0,-732.0,0.0,0.0,0.0,0.0,0.0,
5.0104619999999995,0.0,0.0,18549.0,16.0,352.5,2050.78125,0.0,0.5,1.148681523,0.5498168668524888,0.0,-14789.0,26.375,-412.5,-2050.78125,0.0,1.25,1.640624832,1.9285545897722223,0.0,-5926.0,14.875,300.0,2050.78125,0.0,0.25,2.935790715,4.389674732977289,0.0,-10759.0,25.875,-127.5,-2050.78125,0.0,1.875,0.36254879100000004,3.031687206278559,0.0,0.6000000238418579,0.7099999785423279,74.76000213623047,0.24737548828125,-0.05767822265625,0.54132080078125,36.61000061035156,0.0,2.0,1.159149169921875,-1.3444061279296875,Closing,0.0,0.0,-732.0,0.0,0.0,0.0,0.0,0.125,
5.16386699999997,0.0,0.0,18621.0,1.875,787.5,410.15625000000006,0.0,0.375,1.304931507,0.5498168668524888,0.0,-14943.0,7.5,-442.5,-410.15625000000006,0.0,0.5,2.357177493,1.9285545897722227,0.0,-5789.0,1.375,810.0,410.15625000000006,0.0,0.125,2.810058306,4.389674732977289,0.0,-10819.0,8.375,-337.5,-410.15625000000006,0.0,0.5,4.685058114,3.0316872062785585,0.0,0.6100000143051147,0.3700000047683716,67.44999694824219,-0.20611572265625,0.14385986328125,0.86767578125,36.61000061035156,0.0,43.0,1.16021728515625,-1.3588409423828125,Closing,0.0,0.0,-732.0,0.0,0.0,0.0,0.0,0.0,
5.275343999999983,0.0,0.0,18862.0,0.0,742.5,0.0,0.0,0.25,1.3488768150000001,0.5498168668524888,0.0,-15016.0,0.125,-427.5,0.0,0.0,0.125,2.731933314,1.9285545897722227,0.0,-5675.0,0.0,735.0,0.0,0.0,0.0,2.785644246,4.389674732977289,0.0,-10876.0,0.125,-330.0,0.0,0.0,0.125,4.146728091,3.0316872062785585,0.0,0.6399999856948853,-0.47999998927116394,58.95000076293945,-0.23187255859375,0.02069091796875,1.05865478515625,36.61000061035156,0.0,-107.0,1.1576690673828125,-1.356414794921875,Closing,0.0,0.0,-732.0,0.0,0.0,0.0,0.0,0.0,
5.400409999999974,0.0,0.0,18887.0,0.0,232.5,0.0,0.0,0.125,1.3488768150000001,0.5498168668524888,0.0,-15043.0,0.125,-150.0,0.0,0.0,0.5,2.702636442,1.9285545897722227,0.0,-5645.0,0.0,195.0,0.0,0.0,0.0,2.777099325,4.389674732977289,0.0,-10899.0,0.125,-150.0,0.0,0.0,1.875,4.262694876,3.0316872062785585,0.0,0.5600000023841858,-0.7900000214576721,56.88999938964844,0.041748046875,-0.09100341796875,1.0166015625,36.61000061035156,0.0,-54.0,1.1471710205078125,-1.3447723388671875,Closing,0.0,0.0,-732.0,0.0,0.0,0.0,0.0,0.0,
5.5168289999999685,0.0,0.0,18879.0,0.0,-45.0,0.0,0.0,0.125,1.3476561120000001,0.5498168668524888,0.0,-15043.0,0.125,0.0,0.0,0.0,0.25,2.473144278,1.9285545897722227,0.0,-5645.0,0.0,0.0,0.0,0.0,0.0,2.780761434,4.389674732977289,0.0,-10902.0,0.125,-7.5,0.0,0.0,0.75,4.686278817,3.0316872062785585,0.0,0.49000000953674316,-0.49000000953674316,58.0,-0.0838623046875,0.04913330078125,1.03851318359375,36.61000061035156,0.0,-5.0,1.136627197265625,-1.334716796875,Closing,0.0,0.0,-732.0,0.0,0.0,0.0,0.0,0.0,
5.691277999999991,0.0,0.0,18879.0,0.0,0.0,0.0,0.0,0.125,1.3476561120000001,0.5498168668524888,0.0,-15043.0,0.125,0.0,0.0,0.0,0.25,2.3767087410000003,1.9285545897722227,0.0,-5646.0,0.0,0.0,0.0,0.0,0.0,2.780761434,4.389674732977289,0.0,-10902.0,0.125,0.0,0.0,0.0,0.25,4.840087395,3.0316872062785585,0.0,0.4699999988079071,-0.6299999952316284,57.790000915527344,0.0595703125,0.0216064453125,1.04144287109375,36.61000061035156,0.0,48.0,1.1334686279296875,-1.3194580078125,Closing,0.0,0.0,-732.0,0.0,0.0,0.0,0.0,0.0,
5.815576000000001,0.0,0.0,18877.0,0.375,-45.0,-396.8503922224045,0.0,2.0,1.087646373,4.932250999999998,0.0,-15044.0,0.75,-37.5,-396.8503922224045,0.0,1.25,2.653808322,2.481884999999998,0.0,-5646.0,0.375,0.0,-396.8503922224045,0.0,0.875,3.2031246720000004,0.01,0.0,-10903.0,0.75,-105.0,-396.8503922224045,0.0,0.875,4.276122609000001,2.4790000000000023,0.0,0.4300000071525574,-0.7799999713897705,57.7599983215332,-0.17449951171875,0.02093505859375,0.94232177734375,36.61000061035156,0.0,-74.0,1.130859375,-1.3075408935546875,Closing,0.0,0.0,-732.0,0.0,0.0,0.0,0.0,0.125,
5.959424999999988,0.0,0.0,18862.0,0.125,-37.5,-218.26772511005402,0.0,0.375,0.745849533,4.932250999999998,0.0,-15060.0,0.625,-82.5,-218.26772511005402,0.0,0.5,3.0639645300000002,2.481884999999998,0.0,-5660.0,0.375,-82.5,-218.26772511005402,0.0,0.125,3.4167476970000004,0.01,0.0,-10919.0,0.375,-30.0,-218.26772511005402,0.0,0.25,3.957519126,2.4790000000000023,0.0,0.4300000071525574,-0.9399999976158142,57.61000061035156,-0.0140380859375,0.0087890625,1.0167236328125,36.650001525878906,0.0,2.0,1.124176025390625,-1.2920684814453125,Closing,0.0,0.0,-732.0,0.0,0.0,0.0,0.0,0.0,
6.08309600000002,0.0,0.0,18857.0,4.125,150.0,1181.25,0.0,0.875,1.0571287980000001,0.5498168668524888,0.0,-15072.0,15.0,-172.5,-1181.25,0.0,0.875,2.838134475,1.9285545897722227,0.0,-5662.0,4.0,75.0,1181.25,0.0,2.125,3.2568356040000004,4.389674732977289,0.0,-10928.0,9.875,-180.0,-1181.25,0.0,0.625,4.407958533,3.0316872062785585,0.0,0.47999998927116394,-1.100000023841858,57.18000030517578,-0.14227294921875,0.119384765625,0.97259521484375,36.650001525878906,0.0,26.0,1.1172943115234375,-1.2743377685546875,Closing,0.0,0.0,-732.0,0.0,0.0,0.0,0.0,0.0,
6.217834999999963,0.0,0.0,18873.0,0.0,-45.0,0.0,0.0,0.5,1.488036957,0.5498168668524888,0.0,-15107.0,0.0,0.0,0.0,0.0,0.875,2.407226316,1.9285545897722227,0.0,-5647.0,0.0,15.0,0.0,0.0,1.5,2.834472366,4.389674732977289,0.0,-10980.0,0.125,-45.0,0.0,0.0,0.375,4.860839346000001,3.0316872062785585,0.0,0.4000000059604645,-0.5199999809265137,55.91999816894531,-0.0035400390625,-0.02117919921875,1.092041015625,36.650001525878906,0.0,-20.0,1.118743896484375,-1.2512664794921875,Closing,0.0,0.0,-732.0,0.0,0.0,0.0,0.0,0.125,
6.371429999999993,0.0,0.0,18885.0,1.375,67.5,574.21875,0.0,0.375,1.488036957,0.5498168668524888,0.0,-15120.0,2.125,-60.0,-574.21875,0.0,0.25,2.3303220270000002,1.9285545897722223,0.0,-5645.0,1.75,7.5,574.21875,0.0,0.125,2.757568077,4.389674732977289,0.0,-10994.0,1.625,-90.0,-574.21875,0.0,0.5,4.829101068,3.031687206278559,0.0,0.46000000834465027,-0.7699999809265137,55.560001373291016,-0.011962890625,-0.0126953125,0.9561767578125,36.650001525878906,0.0,-16.0,1.120819091796875,-1.2401885986328125,Closing,0.0,0.0,-732.0,0.0,0.0,0.0,0.0,0.125,
6.498735999999975,0.0,0.0,18920.0,3.375,232.5,836.7187499999999,0.0,0.375,1.386718608,0.5498168668524888,0.0,-15155.0,7.0,-240.0,-836.7187499999999,0.0,0.25,2.358398196,1.9285545897722227,0.0,-5642.0,4.375,22.5,836.7187499999999,0.0,0.0,2.733154017,4.389674732977289,0.0,-11020.0,4.625,-187.5,-836.7187499999999,0.0,0.5,4.666747569,3.0316872062785585,0.0,0.47999998927116394,-0.49000000953674316,52.529998779296875,0.033447265625,-0.16064453125,1.08526611328125,36.63999938964844,0.0,-108.0,1.12371826171875,-1.24029541015625,Closing,0.0,0.0,-732.0,0.0,0.0,0.0,0.0,0.0,
6.633408999999985,0.0,0.0,18987.0,2.625,457.5,709.5761839804943,0.0,0.375,1.3684080630000002,0.6777176393825716,0.0,-15221.0,9.25,-547.5,-980.0416948929343,0.0,0.25,2.508544665,2.0215527568930654,0.0,-5591.0,3.875,450.0,709.5761839804943,0.0,0.125,2.728271205,4.261562644479031,0.0,-11081.0,5.875,-487.5,-980.0416948929343,0.0,0.25,4.5532221900000005,2.938797142358365,0.0,0.5099999904632568,-0.6499999761581421,45.93000030517578,-0.05047607421875,0.00372314453125,0.98333740234375,36.63999938964844,0.0,-30.0,1.122161865234375,-1.2411651611328125,Closing,0.0,0.0,-732.0,0.0,0.0,0.0,0.0,0.125,
6.82229800000001,0.0,0.0,19073.0,0.0,390.0,-178.58268588781357,0.0,0.625,0.9338377950000001,4.932250999999998,0.0,-15332.0,0.125,-525.0,-178.58268588781357,0.0,0.75,2.871093456,2.481884999999998,0.0,-5521.0,0.375,202.5,-178.58268588781357,0.0,1.125,3.081054372,0.01,0.0,-11187.0,0.375,-495.0,-178.58268588781357,0.0,0.5,4.102782783,2.4790000000000023,0.0,0.3400000035762787,-0.7699999809265137,35.16999816894531,-0.09088134765625,-0.13470458984375,1.0521240234375,36.63999938964844,0.0,-144.0,1.1161956787109375,-1.240753173828125,Closing,0.0,0.0,-732.0,0.0,0.0,0.0,0.0,0.125,
7.021570999999996,0.0,0.0,19125.0,0.125,-142.5,-198.42519611120224,0.0,0.375,0.7128905520000001,4.932250999999998,0.0,-15442.0,2.125,-67.5,-198.42519611120224,0.0,0.25,3.0102535980000003,2.481884999999998,0.0,-5489.0,0.375,0.0,-198.42519611120224,0.0,0.375,3.604735959,0.01,0.0,-11282.0,2.0,-187.5,-198.42519611120224,0.0,0.125,3.913573818,2.4790000000000023,0.0,0.3700000047683716,-0.6499999761581421,34.470001220703125,0.0367431640625,-0.09490966796875,1.0570068359375,36.61000061035156,0.0,-17.0,1.11114501953125,-1.2421112060546875,Closing,0.0,0.0,-732.0,0.0,0.0,0.0,0.0,0.0,
7.223343999999983,0.0,0.0,19118.0,0.125,-37.5,-218.26772511005402,0.0,0.375,0.7360839090000001,4.932250999999998,0.0,-15467.0,5.5,-30.0,-218.26772511005402,0.0,0.25,3.034667658,2.481884999999998,0.0,-5496.0,0.25,-15.0,-218.26772511005402,0.0,0.25,3.4680172230000004,0.01,0.0,-11304.0,4.0,-37.5,-218.26772511005402,0.0,0.375,4.016112870000001,2.4790000000000023,0.0,0.28999999165534973,-0.550000011920929,34.33000183105469,-0.0423583984375,-0.019775390625,0.9354248046875,36.61000061035156,0.0,-41.0,1.114959716796875,-1.244781494140625,Closing,0.0,0.0,-732.0,0.0,0.0,0.0,0.0,0.125,
7.4250059999999936,0.0,0.0,19110.0,0.125,-67.5,-257.95276433229446,0.0,0.375,0.784912029,4.932250999999998,0.0,-15474.0,7.375,-75.0,-257.95276433229446,0.0,0.25,3.031005549,2.481884999999998,0.0,-5496.0,0.125,-60.0,-257.95276433229446,0.0,0.25,3.358153953,0.01,0.0,-11328.0,5.375,-75.0,-257.95276433229446,0.0,0.25,4.134521061,2.4790000000000023,0.0,0.28999999165534973,-0.8999999761581421,34.22999954223633,-0.055908203125,0.00439453125,1.03125,36.599998474121094,0.0,-33.0,1.11639404296875,-1.2436981201171875,Closing,0.0,0.0,-732.0,0.0,0.0,0.0,0.0,0.0,
7.617420999999973,0.0,0.0,19059.0,0.125,-217.5,-337.32282400131226,0.0,0.125,0.795898356,4.932250999999998,0.0,-15516.0,9.125,-202.5,-337.32282400131226,0.0,0.25,3.028564143,2.481884999999998,0.0,-5527.0,0.125,-127.5,-337.32282400131226,0.0,0.0,3.338622705,0.01,0.0,-11355.0,6.125,-195.0,-337.32282400131226,0.0,0.25,4.19921832,2.4790000000000023,0.0,0.30000001192092896,-1.2200000286102295,33.91999816894531,-0.0638427734375,0.03851318359375,1.0279541015625,36.599998474121094,0.0,-16.0,1.109771728515625,-1.2386016845703125,Closing,0.0,0.0,-732.0,0.0,0.0,0.0,0.0,0.0,
7.82236599999998,0.0,0.0,18978.0,0.625,-285.0,-476.2204706668854,0.0,0.25,0.7910155440000001,4.932250999999998,0.0,-15615.0,10.25,-360.0,-476.2204706668854,0.0,0.25,3.028564143,2.481884999999998,0.0,-5575.0,0.625,-150.0,-476.2204706668854,0.0,0.0,3.338622705,0.01,0.0,-11453.0,7.0,-352.5,-476.2204706668854,0.0,0.25,4.121093328000001,2.4790000000000023,0.0,0.3199999928474426,-1.559999942779541,33.13999938964844,-0.04705810546875,-0.014404296875,1.0037841796875,36.599998474121094,0.0,-27.0,1.103851318359375,-1.227752685546875,Closing,0.0,0.0,-732.0,0.0,0.0,0.0,0.0,0.125,
8.02518199999997,0.0,0.0,18922.0,0.625,-412.5,-496.06298089027405,0.0,0.25,0.797119059,4.932250999999998,0.0,-15685.0,9.0,-472.5,-496.06298089027405,0.0,0.25,3.020019222,2.481884999999998,0.0,-5627.0,0.625,-360.0,-496.06298089027405,0.0,0.0,3.338622705,0.01,0.0,-11600.0,6.375,-480.0,-496.06298089027405,0.0,0.25,4.097899971,2.4790000000000023,0.0,0.33000001311302185,-1.940000057220459,32.52000045776367,-0.06683349609375,0.01434326171875,1.1585693359375,36.61000061035156,0.0,-19.0,1.0982818603515625,-1.2238006591796875,Closing,0.0,0.0,-732.0,0.0,0.0,0.0,0.0,0.125,
8.222474999999976,0.0,0.0,18772.0,0.375,-495.0,-515.9055286645889,0.0,0.125,0.794677653,4.932250999999998,0.0,-15853.0,7.0,-570.0,-515.9055286645889,0.0,0.25,3.029784846,2.481884999999998,0.0,-5737.0,1.0,-247.5,-515.9055286645889,0.0,0.0,3.338622705,0.01,0.0,-11685.0,5.75,-555.0,-515.9055286645889,0.0,0.125,4.097899971,2.4790000000000023,0.0,0.3100000023841858,-2.069999933242798,32.11000061035156,-0.01348876953125,0.0052490234375,0.95452880859375,36.61000061035156,0.0,17.0,1.0964508056640625,-1.222900390625,Closing,0.0,0.0,-732.0,0.0,0.0,0.0,0.0,0.0,
8.408771000000009,0.0,0.0,18593.0,0.125,-577.5,-515.9055286645889,0.0,0.25,0.795898356,4.932250999999998,0.0,-16051.0,4.625,-637.5,-515.9055286645889,0.0,0.25,3.024902034,2.481884999999998,0.0,-5833.0,1.5,-427.5,-515.9055286645889,0.0,0.0,3.338622705,0.01,0.0,-11876.0,4.375,-615.0,-515.9055286645889,0.0,0.125,4.097899971,2.4790000000000023,0.0,0.3199999928474426,-2.2699999809265137,31.899999618530273,-0.07452392578125,-0.04058837890625,1.09600830078125,36.63999938964844,0.0,-51.0,1.093902587890625,-1.2202301025390625,Closing,0.0,0.0,-732.0,0.0,0.0,0.0,0.0,0.125,
8.62370299999998,0.0,0.0,18502.0,0.125,-562.5,-515.9055286645889,0.0,0.25,0.794677653,4.932250999999998,0.0,-16159.0,2.5,-682.5,-515.9055286645889,0.0,0.25,3.023681331,2.481884999999998,0.0,-5937.0,0.875,-510.0,-515.9055286645889,0.0,0.0,3.3276363780000002,0.01,0.0,-11981.0,2.75,-682.5,-515.9055286645889,0.0,0.125,4.099120674,2.4790000000000023,0.0,0.3700000047683716,-2.0899999141693115,31.809999465942383,-0.02825927734375,0.02557373046875,0.99658203125,36.63999938964844,0.0,16.0,1.0964813232421875,-1.221832275390625,Closing,0.0,0.0,-732.0,0.0,0.0,0.0,0.0,0.0,
8.820815999999992,0.0,0.0,18308.0,0.125,-585.0,-515.9055286645889,0.0,0.125,0.794677653,4.932250999999998,0.0,-16373.0,1.75,-645.0,-515.9055286645889,0.0,0.25,3.023681331,2.481884999999998,0.0,-6087.0,1.0,-585.0,-515.9055286645889,0.0,0.0,3.339843408,0.01,0.0,-12195.0,2.0,-637.5,-515.9055286645889,0.0,0.125,4.097899971,2.4790000000000023,0.0,0.30000001192092896,-1.7599999904632568,31.6200008392334,-0.05615234375,-0.02740478515625,0.9554443359375,36.63999938964844,0.0,-39.0,1.1091156005859375,-1.222320556640625,Closing,0.0,0.0,-732.0,0.0,0.0,0.0,0.0,0.125,
9.01973999999999,0.0,0.0,18129.0,0.125,-547.5,-515.9055286645889,0.0,0.25,0.794677653,4.932250999999998,0.0,-16567.0,1.375,-592.5,-515.9055286645889,0.0,0.25,3.026122737,2.481884999999998,0.0,-6266.0,1.0,-472.5,-515.9055286645889,0.0,0.0,3.339843408,0.01,0.0,-12391.0,1.875,-585.0,-515.9055286645889,0.0,0.125,4.093017159,2.4790000000000023,0.0,0.23999999463558197,-1.5199999809265137,31.5,-0.012939453125,0.01470947265625,0.94403076171875,36.630001068115234,0.0,16.0,1.1176300048828125,-1.223602294921875,Closing,0.0,0.0,-732.0,0.0,0.0,0.0,0.0,0.0,
9.222592999999993,0.0,0.0,18045.0,0.125,-510.0,-515.9055286645889,0.0,0.25,0.794677653,4.932250999999998,0.0,-16657.0,1.5,-547.5,-515.9055286645889,0.0,0.25,3.023681331,2.481884999999998,0.0,-6354.0,1.0,-472.5,-515.9055286645889,0.0,0.0,3.338622705,0.01,0.0,-12480.0,2.0,-540.0,-515.9055286645889,0.0,0.125,4.094237862,2.4790000000000023,0.0,0.25,-1.2599999904632568,31.31999969482422,-0.0111083984375,0.00445556640625,0.88885498046875,36.630001068115234,0.0,7.0,1.120758056640625,-1.2237396240234375,Closing,0.0,0.0,-732.0,0.0,0.0,0.0,0.0,0.125,
9.421290999999968,0.0,0.0,17872.0,0.125,-592.5,-679.7562993371089,0.0,0.375,0.941162013,0.14857621109195132,0.0,-16821.0,0.75,-472.5,-385.99678681102387,0.0,0.25,3.2177731080000003,2.7486789080725944,0.0,-6462.0,5.25,-435.0,-679.7562993371089,0.0,0.25,3.194579751,4.791578313253183,0.0,-12638.0,1.625,-427.5,-385.99678681102387,0.0,0.5,3.7878414090000003,2.2125162192801193,0.0,0.20000000298023224,-1.2400000095367432,32.16999816894531,-0.051025390625,-0.0106201171875,1.09100341796875,36.630001068115234,0.0,-30.0,1.1198883056640625,-1.2257080078125,Closing,0.0,0.0,-732.0,0.0,0.0,0.0,0.0,0.0,
9.622015000000014,0.0,0.0,17668.0,0.125,-652.5,-694.2254286404748,0.0,0.25,0.991210836,0.157722641521939,0.0,-16947.0,1.5,-352.5,-377.86801149701085,0.0,0.25,3.3642574680000004,2.778466894217668,0.0,-6660.0,3.5,-652.5,-694.2254286404748,0.0,0.0,3.178710612,4.782416771211565,0.0,-12751.0,2.25,-330.0,-377.86801149701085,0.0,0.125,3.6828609510000003,2.1827628593727755,0.0,0.25,-1.2000000476837158,36.4900016784668,-0.0167236328125,0.02081298828125,1.05035400390625,36.65999984741211,0.0,13.0,1.1200408935546875,-1.2252349853515625,Closing,0.0,0.0,-732.0,0.0,0.0,0.0,0.0,0.0,
9.825353999999992,0.0,0.0,17554.0,0.125,-757.5,-694.2254286404748,0.0,0.125,0.9863280240000001,0.157722641521939,0.0,-17004.0,1.5,-367.5,-377.86801149701085,0.0,0.25,3.3740230920000003,2.778466894217668,0.0,-6732.0,5.125,-682.5,-694.2254286404748,0.0,0.0,3.179931315,4.782416771211565,0.0,-12804.0,2.25,-412.5,-377.86801149701085,0.0,0.25,3.7817378940000004,2.1827628593727755,0.0,0.30000001192092896,-1.399999976158142,42.040000915527344,-0.01763916015625,0.03924560546875,1.13330078125,36.65999984741211,0.0,29.0,1.1192626953125,-1.2227020263671875,Closing,0.0,0.0,-732.0,0.0,0.0,0.0,0.0,0.0,
10.019709999999963,0.0,0.0,17306.0,0.125,-765.0,-694.2254286404748,0.0,0.25,0.989990133,0.157722641521939,0.0,-17132.0,1.125,-397.5,-377.86801149701085,0.0,0.25,3.300780912,2.778466894217668,0.0,-6969.0,3.75,-727.5,-694.2254286404748,0.0,0.0,3.179931315,4.782416771211565,0.0,-12935.0,2.125,-382.5,-377.86801149701085,0.0,0.125,3.870849213,2.1827628593727755,0.0,0.4099999964237213,-1.4800000190734863,46.70000076293945,-0.1622314453125,-0.174072265625,1.7449951171875,36.650001525878906,0.0,182.0,1.1217193603515625,-1.221282958984375,Closing,0.0,0.0,-732.0,0.0,0.0,0.0,0.0,0.125,
10.220957999999984,0.0,0.0,17073.0,0.125,-720.0,-694.2254286404748,0.0,0.25,0.989990133,0.157722641521939,0.0,-17266.0,0.625,-420.0,-377.86801149701085,0.0,0.0,3.2714840400000003,2.778466894217668,0.0,-7199.0,3.875,-712.5,-694.2254286404748,0.0,0.0,3.1738278,4.782416771211565,0.0,-13063.0,1.875,-397.5,-377.86801149701085,0.0,0.25,3.8452144500000003,2.1827628593727755,0.0,0.4099999964237213,-1.159999966621399,51.0,0.07562255859375,0.02764892578125,0.92083740234375,36.650001525878906,0.0,75.0,1.1313629150390625,-1.217742919921875,Closing,0.0,0.0,-732.0,0.0,0.0,0.0,0.0,0.0,
10.359472999999998,0.0,0.0,16961.0,0.125,-690.0,-694.2254286404748,0.0,0.125,0.991210836,0.157722641521939,0.0,-17330.0,0.75,-390.0,-377.86801149701085,0.0,0.125,3.2727047430000002,2.778466894217668,0.0,-7307.0,3.875,-697.5,-694.2254286404748,0.0,0.0,3.175048503,4.782416771211565,0.0,-13124.0,2.0,-375.0,-377.86801149701085,0.0,0.25,3.815917578,2.1827628593727755,0.0,0.47999998927116394,-1.25,54.45000076293945,-0.01031494140625,0.00457763671875,0.99896240234375,36.650001525878906,0.0,3.0,1.138580322265625,-1.216064453125,Closing,0.0,0.0,-732.0,0.0,0.0,0.0,0.0,0.0,
10.502087999999988,0.0,0.0,16849.0,0.125,-697.5,-708.7849371094806,0.0,0.125,0.9863280240000001,0.1664944511426262,0.0,-17391.0,0.75,-382.5,-370.2996023536032,0.0,0.25,3.291015288,2.8095182159334753,0.0,-7378.0,8.875,-210.0,-708.7849371094806,0.0,0.0,3.1738278,4.773630468922804,0.0,-13183.0,2.125,-352.5,-370.2996023536032,0.0,0.25,3.7988277360000002,2.1517476324249167,0.0,0.5,-1.4199999570846558,57.790000915527344,-0.12152099609375,0.05596923828125,1.09503173828125,36.65999984741211,0.0,-11.0,1.139434814453125,-1.21588134765625,Closing,0.0,0.0,-732.0,0.0,0.0,0.0,0.0,0.0,
10.63332799999998,0.0,0.0,16732.0,0.125,-750.0,-708.7849371094806,0.0,0.25,0.992431539,0.1664944511426262,0.0,-17454.0,0.5,-412.5,-370.2996023536032,0.0,0.125,3.2958981,2.8095182159334753,0.0,-7448.0,8.5,-600.0,-708.7849371094806,0.0,0.0,3.178710612,4.773630468922804,0.0,-13243.0,1.625,-397.5,-370.2996023536032,0.0,0.25,3.801269142,2.1517476324249167,0.0,0.47999998927116394,-1.7200000286102295,61.18000030517578,-0.0113525390625,-0.03485107421875,1.0302734375,36.65999984741211,0.0,-28.0,1.139434814453125,-1.2143402099609375,Closing,0.0,0.0,-732.0,0.0,0.0,0.0,0.0,0.125,
10.768282000000006,0.0,0.0,16605.0,0.125,-787.5,-515.9055286645889,0.0,0.375,0.9472655280000001,4.932250999999998,0.0,-17522.0,1.0,-450.0,-515.9055286645889,0.0,0.5,3.199462563,2.481884999999998,0.0,-7549.0,4.75,-757.5,-515.9055286645889,0.0,0.125,3.248290683,0.01,0.0,-13309.0,2.375,-442.5,-515.9055286645889,0.0,0.75,3.8891597580000004,2.4790000000000023,0.0,0.5199999809265137,-1.7599999904632568,64.33000183105469,-0.03826904296875,-0.04412841796875,1.09765625,36.65999984741211,0.0,-50.0,1.140045166015625,-1.2131500244140625,Closing,0.0,0.0,-732.0,0.0,0.0,0.0,0.0,0.0,
10.87890399999998,0.0,0.0,16481.0,0.125,-772.5,-515.9055286645889,0.0,0.375,0.8312987430000001,4.932250999999998,0.0,-17596.0,1.125,-450.0,-515.9055286645889,0.0,0.25,2.982177429,2.481884999999998,0.0,-7676.0,3.375,-780.0,-515.9055286645889,0.0,0.0,3.343505517,0.01,0.0,-13383.0,1.875,-495.0,-515.9055286645889,0.0,0.375,4.1284175460000005,2.4790000000000023,0.0,0.5699999928474426,-1.7200000286102295,66.5199966430664,0.07177734375,-0.02203369140625,1.0108642578125,36.65999984741211,0.0,11.0,1.142669677734375,-1.212799072265625,Closing,0.0,0.0,-732.0,0.0,0.0,0.0,0.0,0.0,
11.023989000000002,0.0,0.0,16286.0,0.125,-547.5,-515.9055286645889,0.0,0.125,0.7507323450000001,4.932250999999998,0.0,-17766.0,0.5,-570.0,-515.9055286645889,0.0,0.125,2.808837603,2.481884999999998,0.0,-7884.0,4.375,-570.0,-515.9055286645889,0.0,0.0,3.397216449,0.01,0.0,-13568.0,0.75,-622.5,-515.9055286645889,0.0,0.25,4.2907710450000005,2.4790000000000023,0.0,0.5199999809265137,-1.399999976158142,65.94000244140625,0.032470703125,0.00439453125,1.09881591796875,36.68000030517578,0.0,19.0,1.1438140869140625,-1.21527099609375,Closing,0.0,0.0,-732.0,0.0,0.0,0.0,0.0,0.0,
11.168869000000006,0.0,0.0,16217.0,0.125,-420.0,-371.0990302861672,0.0,0.375,0.628662045,4.610133547347771,0.0,-17863.0,1.125,-645.0,-707.1882592680286,0.0,0.125,2.813720415,2.315274414272937,0.0,-7957.0,4.0,-435.0,-371.0990302861672,0.0,0.25,3.5803218990000003,0.32264965085578046,0.0,-13669.0,1.625,-622.5,-707.1882592680286,0.0,0.25,4.2907710450000005,2.6454169137640906,0.0,0.33000001311302185,-1.1100000143051147,64.30000305175781,-0.0203857421875,0.0343017578125,0.94757080078125,36.68000030517578,0.0,25.0,1.14288330078125,-1.2227935791015625,Closing,0.0,0.0,-732.0,0.0,0.0,0.0,0.0,0.125,
11.306963999999978,0.0,0.0,16170.0,7.375,-270.0,945.6287237056295,0.0,7.0,0.650634699,0.8318791176592791,0.0,-17976.0,16.0,-720.0,-1706.840221353112,0.0,0.25,2.784423543,2.083450361184282,0.0,-8006.0,0.375,-225.0,945.6287237056295,0.0,5.5,3.348388329,4.107146462642737,0.0,-13778.0,12.25,-705.0,-1706.840221353112,0.0,0.375,4.404296424,2.8769714892608502,0.0,0.3100000023841858,-1.0,61.54999923706055,-0.0166015625,-0.0140380859375,0.864990234375,36.68000030517578,0.0,-17.0,1.1419830322265625,-1.2317657470703125,Closing,0.0,0.0,-732.0,0.0,0.0,0.0,0.0,0.0,
11.432486999999965,0.0,0.0,16148.0,0.25,-157.5,-515.9055286645889,0.0,0.375,1.04980458,4.932250999999998,0.0,-18093.0,2.375,-727.5,-515.9055286645889,0.0,0.5,2.7368161260000003,2.481884999999998,0.0,-8007.0,5.625,-7.5,-515.9055286645889,0.0,0.0,3.14941374,0.01,0.0,-13900.0,3.25,-757.5,-515.9055286645889,0.0,1.0,4.373778849,2.4790000000000023,0.0,0.33000001311302185,-0.3700000047683716,58.0,0.1085205078125,0.00982666015625,1.0260009765625,36.68000030517578,0.0,64.0,1.145843505859375,-1.24359130859375,Closing,0.0,0.0,-732.0,0.0,0.0,0.0,0.0,0.0,
11.532205000000017,0.0,0.0,16146.0,0.125,-15.0,-515.9055286645889,0.0,0.375,0.96435537,4.932250999999998,0.0,-18159.0,6.375,-375.0,-515.9055286645889,0.0,0.25,2.9003903280000003,2.481884999999998,0.0,-8016.0,8.75,-52.5,-515.9055286645889,0.0,0.375,3.227538732,0.01,0.0,-13961.0,6.875,-352.5,-515.9055286645889,0.0,0.5,4.11376911,2.4790000000000023,0.0,0.15000000596046448,0.029999999329447746,55.970001220703125,0.00128173828125,-0.02923583984375,1.01397705078125,36.65999984741211,0.0,-26.0,1.1544342041015625,-1.2703857421875,Closing,0.0,0.0,-732.0,0.0,0.0,0.0,0.0,0.0,
11.670578999999968,0.0,0.0,16124.0,0.125,-142.5,-138.89763727784157,0.0,0.375,0.833740149,4.932250999999998,0.0,-18189.0,5.75,-165.0,-138.89763727784157,0.0,0.25,3.026122737,2.481884999999998,0.0,-8037.0,4.25,-135.0,-138.89763727784157,0.0,0.125,3.3178707540000003,0.01,0.0,-13986.0,6.625,-150.0,-138.89763727784157,0.0,0.125,4.010009355,2.4790000000000023,0.0,0.019999999552965164,-0.2199999988079071,56.13999938964844,-0.049072265625,0.05517578125,1.0546875,36.65999984741211,0.0,20.0,1.1578369140625,-1.2943878173828125,Closing,0.0,0.0,-732.0,0.0,0.0,0.0,0.0,0.125,
11.787504000000016,0.0,0.0,16113.0,9.75,-90.0,1296.09375,0.0,1.75,0.92773428,0.5498168668524888,0.0,-18230.0,29.5,-255.0,-1296.09375,0.0,2.0,2.9992672710000003,1.9285545897722223,0.0,-8059.0,0.5,-135.0,1296.09375,0.0,1.125,3.3190914570000003,4.389674732977289,0.0,-14028.0,23.875,-255.0,-1296.09375,0.0,2.0,4.229735895,3.031687206278559,0.0,0.09000000357627869,-0.25,55.56999969482422,0.01611328125,-0.05987548828125,0.8876953125,36.65999984741211,0.0,-39.0,1.1577606201171875,-1.3125152587890625,Closing,0.0,0.0,-732.0,0.0,0.0,0.0,0.0,0.0,
11.956610999999976,0.0,0.0,16115.0,2.875,22.5,114.84375,0.0,0.5,1.441650243,0.5498168668524888,0.0,-18277.0,10.125,-247.5,-114.84375,0.0,1.125,2.4365231880000002,1.9285545897722223,0.0,-8059.0,0.375,0.0,114.84375,0.0,2.25,2.873534862,4.389674732977289,0.0,-14090.0,9.75,-277.5,-114.84375,0.0,0.375,4.857177237,3.031687206278559,0.0,0.05999999865889549,0.1899999976158142,52.93000030517578,0.0552978515625,0.03961181640625,0.938232421875,36.65999984741211,0.0,62.0,1.1607208251953125,-1.3475799560546875,Closing,0.0,0.0,-732.0,0.0,0.0,0.0,0.0,0.0,
12.08927999999997,0.0,0.0,16133.0,0.0,97.5,0.0,0.0,0.375,1.5515135130000002,0.5498168668524888,0.0,-18313.0,0.125,-90.0,0.0,0.0,0.25,2.24609352,1.9285545897722223,0.0,-8059.0,0.0,7.5,0.0,0.0,0.125,2.763671592,4.389674732977289,0.0,-14129.0,0.125,-90.0,0.0,0.0,0.5,4.927978011,3.031687206278559,0.0,-0.07000000029802322,0.4099999964237213,50.29999923706055,-0.10601806640625,-0.036376953125,0.97271728515625,36.63999938964844,0.0,-99.0,1.1671295166015625,-1.379638671875,Closing,0.0,0.0,-732.0,0.0,0.0,0.0,0.0,0.0,
12.286636999999988,0.0,0.0,16174.0,4.625,225.0,1066.40625,0.0,0.375,1.384277202,0.5498168668524888,0.0,-18352.0,8.25,-247.5,-1066.40625,0.0,0.25,2.3291013240000003,1.9285545897722223,0.0,-8054.0,5.25,105.0,1066.40625,0.0,0.0,2.7416989380000003,4.389674732977289,0.0,-14156.0,6.125,-202.5,-1066.40625,0.0,0.5,4.641112806000001,3.031687206278559,0.0,0.0,0.30000001192092896,48.31999969482422,0.0145263671875,-0.11322021484375,0.96588134765625,36.63999938964844,0.0,-78.0,1.1723175048828125,-1.4212188720703125,Closing,0.0,0.0,-732.0,0.0,0.0,0.0,0.0,0.125,
12.422794999999983,0.0,0.0,16216.0,0.0,210.0,0.0,0.0,0.25,1.2963865860000001,0.5498168668524888,0.0,-18387.0,0.125,-150.0,0.0,0.0,0.25,2.421874752,1.9285545897722223,0.0,-7990.0,0.0,270.0,0.0,0.0,0.0,2.766112998,4.389674732977289,0.0,-14194.0,0.125,-165.0,0.0,0.0,0.125,4.458007356,3.031687206278559,0.0,0.019999999552965164,0.05000000074505806,43.27000045776367,-0.05718994140625,-0.03375244140625,0.85040283203125,36.63999938964844,0.0,-65.0,1.178558349609375,-1.4454803466796875,Closing,0.0,0.0,-732.0,0.0,0.0,0.0,0.0,0.0,
12.61963500000001,0.0,0.0,16263.0,0.0,52.5,0.0,0.0,0.375,1.309814319,0.5498168668524888,0.0,-18443.0,0.125,-120.0,0.0,0.0,0.0,2.469482169,1.9285545897722223,0.0,-7960.0,0.0,67.5,0.0,0.0,0.0,2.775878622,4.389674732977289,0.0,-14238.0,0.125,-82.5,0.0,0.0,0.375,4.52880813,3.031687206278559,0.0,-0.09000000357627869,-0.05999999865889549,40.68000030517578,-0.00811767578125,0.0340576171875,0.966064453125,36.66999816894531,0.0,18.0,1.1856842041015625,-1.443084716796875,Closing,0.0,0.0,-732.0,0.0,0.0,0.0,0.0,0.0,
12.74978999999998,0.0,0.0,16235.0,7.75,-202.5,-1388.9763414859772,0.0,0.25,1.3488768150000001,0.5498168668524864,0.0,-18409.0,12.5,330.0,1388.9763414859772,0.0,0.25,2.468261466,1.92855458977222,0.0,-7974.0,9.125,-97.5,-1388.9763414859772,0.0,0.0,2.805175494,4.389674732977291,0.0,-14215.0,8.75,240.0,1388.9763414859772,0.0,0.375,4.644774915,3.031687206278561,0.0,-0.07000000029802322,-0.25,44.18000030517578,-0.08270263671875,0.00628662109375,1.1036376953125,36.66999816894531,0.0,-50.0,1.1867218017578125,-1.4412384033203125,Closing,0.0,0.0,-732.0,0.0,0.0,0.0,0.0,0.125,
12.895844999999973,0.0,0.0,16155.0,0.0,-442.5,0.0,0.0,0.25,1.358642439,0.5498168668524864,0.0,-18316.0,0.125,502.5,0.0,0.0,0.25,2.4853513080000003,1.92855458977222,0.0,-7986.0,0.0,-105.0,0.0,0.0,0.0,2.785644246,4.389674732977291,0.0,-14133.0,0.125,442.5,0.0,0.0,0.125,4.685058114,3.031687206278561,0.0,0.11999999731779099,-0.49000000953674316,52.849998474121094,-0.0948486328125,-0.08392333984375,0.86639404296875,36.66999816894531,0.0,-121.0,1.1806182861328125,-1.438079833984375,Closing,0.0,0.0,-732.0,0.0,0.0,0.0,0.0,0.125,
13.029956000000006,0.0,0.0,16081.0,0.0,-457.5,0.0,0.0,0.25,1.3488768150000001,0.5498168668524864,0.0,-18252.0,0.125,367.5,0.0,0.0,0.25,2.4841306050000003,1.92855458977222,0.0,-8031.0,0.0,-442.5,0.0,0.0,0.0,2.785644246,4.389674732977291,0.0,-14057.0,0.125,337.5,0.0,0.0,0.25,4.72412061,3.031687206278561,0.0,0.07999999821186066,-0.5699999928474426,59.060001373291016,0.09747314453125,0.05462646484375,0.91119384765625,36.63999938964844,0.0,100.0,1.174835205078125,-1.4317626953125,Closing,0.0,0.0,-732.0,0.0,0.0,0.0,0.0,0.125,
13.222393999999971,0.0,0.0,16021.0,0.0,-82.5,0.0,0.0,0.125,1.3488768150000001,0.5498168668524864,0.0,-18187.0,0.125,67.5,0.0,0.0,0.25,2.464599357,1.92855458977222,0.0,-8101.0,0.0,-90.0,0.0,0.0,0.0,2.785644246,4.389674732977291,0.0,-13990.0,0.125,52.5,0.0,0.0,0.25,4.683837411,3.031687206278561,0.0,0.05000000074505806,-0.6200000047683716,61.310001373291016,-0.01971435546875,-0.0537109375,0.97515869140625,36.63999938964844,0.0,-52.0,1.171417236328125,-1.427520751953125,Closing,0.0,0.0,-732.0,0.0,0.0,0.0,0.0,0.125,
13.369135000000009,0.0,0.0,16021.0,0.0,0.0,0.0,0.0,0.125,1.3488768150000001,0.5498168668524864,0.0,-18187.0,0.125,0.0,0.0,0.0,0.25,2.454833733,1.92855458977222,0.0,-8101.0,0.0,0.0,0.0,0.0,0.0,2.780761434,4.389674732977291,0.0,-13989.0,0.125,0.0,0.0,0.0,0.25,4.670409678,3.031687206278561,0.0,0.07999999821186066,-0.6800000071525574,60.779998779296875,-0.05255126953125,-0.01348876953125,1.05999755859375,36.63999938964844,0.0,-32.0,1.1714324951171875,-1.42724609375,Closing,0.0,0.0,-732.0,0.0,0.0,0.0,0.0,0.0,
13.509092999999993,0.0,0.0,16021.0,0.0,0.0,0.0,0.0,0.25,1.3476561120000001,0.5498168668524864,0.0,-18187.0,0.125,0.0,0.0,0.0,0.125,2.454833733,1.92855458977222,0.0,-8101.0,0.0,0.0,0.0,0.0,0.0,2.785644246,4.389674732977291,0.0,-13989.0,0.125,0.0,0.0,0.0,0.25,4.670409678,3.031687206278561,0.0,0.05000000074505806,-0.7099999785423279,60.7599983215332,-0.01611328125,-0.0037841796875,1.0067138671875,36.689998626708984,0.0,-5.0,1.1704559326171875,-1.427093505859375,Closing,0.0,0.0,-732.0,0.0,0.0,0.0,0.0,0.0,
13.652952999999979,0.0,0.0,16054.0,5.125,165.0,1066.40625,0.0,0.25,1.339111191,0.5498168668524888,0.0,-18219.0,8.875,-180.0,-1066.40625,0.0,0.125,2.508544665,1.9285545897722223,0.0,-8080.0,5.125,112.5,1066.40625,0.0,0.0,2.775878622,4.389674732977289,0.0,-14020.0,5.625,-180.0,-1066.40625,0.0,0.25,4.670409678,3.031687206278559,0.0,0.019999999552965164,-0.75,59.290000915527344,0.035888671875,-0.0201416015625,0.91949462890625,36.689998626708984,0.0,6.0,1.172821044921875,-1.4253692626953125,Closing,0.0,0.0,-732.0,0.0,0.0,0.0,0.0,0.0,
13.828083999999974,0.0,0.0,16079.0,0.0,157.5,0.0,0.0,0.25,1.3476561120000001,0.5498168668524888,0.0,-18244.0,0.125,-142.5,0.0,0.0,0.25,2.4743649810000004,1.9285545897722223,0.0,-8055.0,0.0,105.0,0.0,0.0,0.0,2.775878622,4.389674732977289,0.0,-14055.0,0.125,-187.5,0.0,0.0,0.25,4.654540539,3.031687206278559,0.0,0.03999999910593033,-0.6299999952316284,53.939998626708984,0.0582275390625,-0.0264892578125,0.8289794921875,36.689998626708984,0.0,17.0,1.1734619140625,-1.4232940673828125,Closing,0.0,0.0,-732.0,0.0,0.0,0.0,0.0,0.0,
13.966156000000018,0.0,0.0,16114.0,0.0,150.0,0.0,0.0,0.125,1.339111191,0.5498168668524888,0.0,-18278.0,0.125,-135.0,0.0,0.0,0.25,2.464599357,1.9285545897722223,0.0,-8031.0,0.0,105.0,0.0,0.0,0.0,2.775878622,4.389674732977289,0.0,-14089.0,0.125,-90.0,0.0,0.0,0.125,4.6606440540000005,3.031687206278559,0.0,0.05999999865889549,-0.6899999976158142,51.93000030517578,-0.01495361328125,9.765625E-4,1.02984619140625,36.689998626708984,0.0,-1.0,1.1733551025390625,-1.4208831787109375,Closing,0.0,0.0,-732.0,0.0,0.0,0.0,0.0,0.125,
14.155331000000006,0.0,0.0,16117.0,0.0,0.0,0.0,0.0,0.25,1.339111191,0.5498168668524888,0.0,-18282.0,0.125,0.0,0.0,0.0,0.25,2.464599357,1.9285545897722223,0.0,-8026.0,0.0,0.0,0.0,0.0,0.0,2.775878622,4.389674732977289,0.0,-14095.0,0.125,0.0,0.0,0.0,0.125,4.6606440540000005,3.031687206278559,0.0,0.05999999865889549,-0.7599999904632568,52.41999816894531,-0.04345703125,-0.02252197265625,1.10369873046875,36.650001525878906,0.0,-36.0,1.1726531982421875,-1.4207763671875,Closing,0.0,0.0,-732.0,0.0,0.0,0.0,0.0,0.125,
14.355799,0.0,0.0,16117.0,0.0,0.0,0.0,0.0,0.125,1.339111191,0.5498168668524888,0.0,-18282.0,0.125,0.0,0.0,0.0,0.25,2.463378654,1.9285545897722223,0.0,-8026.0,0.0,0.0,0.0,0.0,0.0,2.775878622,4.389674732977289,0.0,-14095.0,0.125,0.0,0.0,0.0,0.125,4.659423351,3.031687206278559,0.0,0.05000000074505806,-0.7900000214576721,52.41999816894531,-0.00689697265625,0.0220947265625,1.03057861328125,36.650001525878906,0.0,21.0,1.172149658203125,-1.4207763671875,Closing,0.0,0.0,-732.0,0.0,0.0,0.0,0.0,0.0,
14.560293000000005,0.0,0.0,16104.0,0.375,-90.0,-377.00788199901575,0.0,1.375,2.0068357320000003,1.2330627499999984,0.0,-18272.0,1.125,75.0,377.00788199901575,0.0,1.125,1.774902162,1.2409424999999985,0.0,-8021.0,0.875,60.0,377.00788199901575,0.0,1.0,2.291259531,3.7052999999999985,0.0,-14117.0,0.625,-150.0,-377.00788199901575,0.0,1.25,0.435790971,3.7184999999999984,0.0,-0.029999999329447746,-0.8100000023841858,52.439998626708984,0.00335693359375,-0.04998779296875,1.00543212890625,36.63999938964844,0.0,-28.0,1.17218017578125,-1.4203033447265625,Closing,0.0,0.0,-732.0,0.0,0.0,0.0,0.0,0.0,
14.755649999999966,0.0,0.0,16077.0,1.875,-90.0,-416.69290244579315,0.0,0.25,2.28271461,1.2330627499999984,0.0,-18244.0,3.75,97.5,416.69290244579315,0.0,0.0,1.3208006460000001,1.2409424999999985,0.0,-7975.0,1.625,210.0,416.69290244579315,0.0,0.25,1.9934079990000002,3.7052999999999985,0.0,-14146.0,2.0,-105.0,-416.69290244579315,0.0,0.25,0.584716737,3.7184999999999984,0.0,-0.3400000035762787,-0.8600000143051147,52.060001373291016,-0.04412841796875,-0.00762939453125,0.989990234375,36.63999938964844,0.0,-19.0,1.164093017578125,-1.4227447509765625,Closing,0.0,0.0,-732.0,0.0,0.0,0.0,0.0,0.125,
14.971382999999973,0.0,0.0,16069.0,0.0,0.0,0.0,0.0,0.375,2.147216577,1.2330627499999984,0.0,-18236.0,0.125,0.0,0.0,0.0,0.75,1.622314287,1.2409424999999985,0.0,-7960.0,0.0,0.0,0.0,0.0,0.125,1.979980266,3.7052999999999985,0.0,-14157.0,0.125,0.0,0.0,0.0,0.5,0.418701129,3.7184999999999984,0.0,0.28999999165534973,-0.9100000262260437,52.02000045776367,0.00634765625,0.0191650390625,0.98760986328125,36.63999938964844,0.0,24.0,1.1600189208984375,-1.418121337890625,Closing,0.0,0.0,-732.0,0.0,0.0,0.0,0.0,0.0,
15.154420999999973,0.0,0.0,16072.0,0.0,0.0,0.0,0.0,0.375,2.049560337,1.2330627499999984,0.0,-18241.0,0.125,-15.0,0.0,0.0,0.5,1.809081846,1.2409424999999985,0.0,-7964.0,0.0,-15.0,0.0,0.0,0.125,2.102050566,3.7052999999999985,0.0,-14155.0,0.125,0.0,0.0,0.0,0.25,0.37841793,3.7184999999999984,0.0,0.05999999865889549,-0.8999999761581421,52.060001373291016,-0.03216552734375,-0.01092529296875,1.0526123046875,36.66999816894531,0.0,-19.0,1.1580810546875,-1.4189453125,Closing,0.0,0.0,-732.0,0.0,0.0,0.0,0.0,0.0,
15.292755999999994,0.0,0.0,16072.0,0.0,0.0,0.0,0.0,0.125,2.033691198,1.2330627499999984,0.0,-18241.0,0.125,0.0,0.0,0.0,0.25,1.783447083,1.2409424999999985,0.0,-7964.0,0.0,0.0,0.0,0.0,0.0,2.132568141,3.7052999999999985,0.0,-14155.0,0.125,0.0,0.0,0.0,0.125,0.377197227,3.7184999999999984,0.0,0.14000000059604645,-0.9200000166893005,52.04999923706055,0.01873779296875,0.0206298828125,0.998046875,36.66999816894531,0.0,35.0,1.1588592529296875,-1.41888427734375,Closing,0.0,0.0,-732.0,0.0,0.0,0.0,0.0,0.0,
15.47501000000001,0.0,0.0,16072.0,0.125,0.0,-138.89763727784157,0.0,2.0,1.300048695,4.932250999999998,0.0,-18242.0,0.125,-7.5,-138.89763727784157,0.0,1.75,2.508544665,2.481884999999998,0.0,-7967.0,0.125,-15.0,-138.89763727784157,0.0,1.75,3.096923511,0.01,0.0,-14152.0,0.375,15.0,-138.89763727784157,0.0,2.125,4.315185105,2.4790000000000023,0.0,-0.23000000417232513,-0.949999988079071,52.06999969482422,0.00567626953125,0.0299072265625,0.96099853515625,36.66999816894531,0.0,39.0,1.1566619873046875,-1.4207916259765625,Closing,0.0,0.0,-732.0,0.0,0.0,0.0,0.0,0.0,
15.68726899999997,0.0,0.0,16072.0,1.375,-7.5,-416.69290244579315,0.0,0.5,0.6213378270000001,4.932250999999998,0.0,-18259.0,1.25,-202.5,-416.69290244579315,0.0,0.5,3.2714840400000003,2.481884999999998,0.0,-7971.0,0.625,-127.5,-416.69290244579315,0.0,0.25,3.5192867490000004,0.01,0.0,-14154.0,1.75,-45.0,-416.69290244579315,0.0,0.5,3.8354488260000004,2.4790000000000023,0.0,0.07000000029802322,-1.2100000381469727,52.0099983215332,-0.08367919921875,-0.06072998046875,1.00640869140625,36.65999984741211,0.0,-87.0,1.154296875,-1.4182586669921875,Closing,0.0,0.0,-732.0,0.0,0.0,0.0,0.0,0.125,
15.887354999999982,0.0,0.0,16045.0,2.875,-120.0,-436.53545022010803,0.0,0.375,0.7385253150000001,4.932250999999998,0.0,-18294.0,4.25,-82.5,-436.53545022010803,0.0,0.25,3.1738278,2.481884999999998,0.0,-8020.0,1.75,-97.5,-436.53545022010803,0.0,0.25,3.40576137,0.01,0.0,-14178.0,3.5,-97.5,-436.53545022010803,0.0,0.375,4.055175366,2.4790000000000023,0.0,0.029999999329447746,-1.3200000524520874,52.27000045776367,-0.0565185546875,0.009521484375,0.98577880859375,36.65999984741211,0.0,-13.0,1.147705078125,-1.4091339111328125,Closing,0.0,0.0,-732.0,0.0,0.0,0.0,0.0,0.0,
16.02534600000002,0.0,0.0,16021.0,3.75,-157.5,-436.53545022010803,0.0,0.25,0.799560465,4.932250999999998,0.0,-18312.0,6.0,-150.0,-436.53545022010803,0.0,0.25,3.0578610150000003,2.481884999999998,0.0,-8042.0,2.75,-150.0,-436.53545022010803,0.0,0.125,3.382568013,0.01,0.0,-14200.0,4.375,-180.0,-436.53545022010803,0.0,0.25,4.129638249,2.4790000000000023,0.0,0.05999999865889549,-1.6299999952316284,52.369998931884766,-0.02557373046875,0.00811767578125,1.05035400390625,36.65999984741211,0.0,8.0,1.1464080810546875,-1.4011993408203125,Closing,0.0,0.0,-732.0,0.0,0.0,0.0,0.0,0.125,
16.22402799999999,0.0,0.0,15928.0,3.125,-360.0,-436.53545022010803,0.0,0.125,0.8300780400000001,4.932250999999998,0.0,-18407.0,5.0,-352.5,-436.53545022010803,0.0,0.25,3.018798519,2.481884999999998,0.0,-8133.0,2.625,-352.5,-436.53545022010803,0.0,0.125,3.3764644980000003,0.01,0.0,-14294.0,3.375,-382.5,-436.53545022010803,0.0,0.25,4.169921448,2.4790000000000023,0.0,0.03999999910593033,-2.1700000762939453,52.189998626708984,-0.0538330078125,0.053955078125,0.9664306640625,36.63999938964844,0.0,31.0,1.137908935546875,-1.3794403076171875,Closing,0.0,0.0,-732.0,0.0,0.0,0.0,0.0,0.125,
16.425005000000006,0.0,0.0,15774.0,2.0,-502.5,-436.53545022010803,0.0,0.25,0.822753822,4.932250999999998,0.0,-18565.0,2.75,-525.0,-436.53545022010803,0.0,0.25,3.017577816,2.481884999999998,0.0,-8285.0,1.25,-510.0,-436.53545022010803,0.0,0.125,3.3776852010000002,0.01,0.0,-14449.0,2.75,-472.5,-436.53545022010803,0.0,0.25,4.127196843,2.4790000000000023,0.0,-0.05000000074505806,-1.0199999809265137,52.06999969482422,1.15447998046875,-0.21551513671875,0.96136474609375,36.63999938964844,0.0,550.0,1.1219329833984375,-1.348724365234375,Closing,0.0,0.0,-732.0,0.0,0.0,0.0,0.0,0.125,
16.56865299999999,0.0,0.0,15774.0,6.5,-37.5,-436.53545022010803,0.0,0.25,0.822753822,4.932250999999998,0.0,-18564.0,8.25,-90.0,-436.53545022010803,0.0,0.25,3.020019222,2.481884999999998,0.0,-8274.0,4.0,-75.0,-436.53545022010803,0.0,0.125,3.3776852010000002,0.01,0.0,-14440.0,9.375,45.0,-436.53545022010803,0.0,0.25,4.121093328000001,2.4790000000000023,0.0,0.30000001192092896,-0.41999998688697815,52.0099983215332,-0.1116943359375,-0.24188232421875,0.9227294921875,36.63999938964844,0.0,-259.0,1.13568115234375,-1.3561859130859375,Closing,0.0,0.0,-732.0,0.0,0.0,0.0,0.0,0.125,
16.75066499999998,0.0,0.0,15776.0,7.5,-7.5,-158.7401568889618,0.0,0.125,0.822753822,4.932250999999998,0.0,-18567.0,13.375,0.0,-158.7401568889618,0.0,0.25,3.021239925,2.481884999999998,0.0,-8278.0,6.375,-7.5,-158.7401568889618,0.0,0.125,3.3776852010000002,0.01,0.0,-14443.0,7.25,-7.5,-158.7401568889618,0.0,0.25,4.117431219,2.4790000000000023,0.0,0.09000000357627869,-0.6499999761581421,52.20000076293945,-0.05743408203125,-0.15057373046875,1.075927734375,36.650001525878906,0.0,-148.0,1.150390625,-1.36053466796875,Closing,0.0,0.0,-732.0,0.0,0.0,0.0,0.0,0.0,
16.89279800000001,0.0,0.0,15784.0,0.0,127.5,0.0,0.0,0.125,0.812988198,4.932250999999998,0.0,-18564.0,0.125,82.5,0.0,0.0,0.25,2.9956051620000004,2.481884999999998,0.0,-8278.0,0.0,30.0,0.0,0.0,0.125,3.3789059040000002,0.01,0.0,-14443.0,0.125,97.5,0.0,0.0,0.25,4.112548407,2.4790000000000023,0.0,0.20000000298023224,-0.25,52.16999816894531,-0.11224365234375,0.02313232421875,0.9786376953125,36.650001525878906,0.0,-50.0,1.1635589599609375,-1.366180419921875,Closing,0.0,0.0,-732.0,0.0,0.0,0.0,0.0,0.0,
17.02711699999997,0.0,0.0,15798.0,0.0,45.0,0.0,0.0,0.25,0.809326089,4.932250999999998,0.0,-18548.0,0.125,22.5,0.0,0.0,0.0,2.9956051620000004,2.481884999999998,0.0,-8266.0,0.0,7.5,0.0,0.0,0.125,3.3728023890000003,0.01,0.0,-14424.0,0.125,15.0,0.0,0.0,0.125,4.112548407,2.4790000000000023,0.0,0.11999999731779099,-0.8100000023841858,52.130001068115234,-0.0113525390625,0.0325927734375,1.0123291015625,36.650001525878906,0.0,25.0,1.176361083984375,-1.3685302734375,Closing,0.0,0.0,-732.0,0.0,0.0,0.0,0.0,0.125,
17.221637999999977,0.0,0.0,15802.0,0.0,0.0,0.0,0.0,0.125,0.809326089,4.932250999999998,0.0,-18548.0,0.0,0.0,0.0,0.0,0.0,2.9956051620000004,2.481884999999998,0.0,-8266.0,0.0,0.0,0.0,0.0,0.0,3.3728023890000003,0.01,0.0,-14424.0,0.125,0.0,0.0,0.0,0.125,4.112548407,2.4790000000000023,0.0,0.12999999523162842,-0.699999988079071,52.150001525878906,-0.02532958984375,0.016845703125,1.07568359375,36.619998931884766,0.0,3.0,1.1864471435546875,-1.369110107421875,Closing,0.0,0.0,-732.0,0.0,0.0,0.0,0.0,0.125,
17.361083999999973,0.0,0.0,15802.0,0.0,0.0,0.0,0.0,0.25,0.809326089,4.932250999999998,0.0,-18548.0,0.125,0.0,0.0,0.0,0.0,2.9956051620000004,2.481884999999998,0.0,-8266.0,0.0,0.0,0.0,0.0,0.0,3.3728023890000003,0.01,0.0,-14424.0,0.125,0.0,0.0,0.0,0.125,4.111327704,2.4790000000000023,0.0,0.10999999940395355,-0.7900000214576721,52.130001068115234,-0.042724609375,7.9345703125E-4,1.04266357421875,36.619998931884766,0.0,-18.0,1.1858367919921875,-1.3688812255859375,Closing,0.0,0.0,-732.0,0.0,0.0,0.0,0.0,0.125,
17.555908999999986,0.0,0.0,15802.0,0.0,0.0,0.0,0.0,0.125,0.809326089,4.932250999999998,0.0,-18548.0,0.125,0.0,0.0,0.0,0.0,2.9956051620000004,2.481884999999998,0.0,-8266.0,0.0,0.0,0.0,0.0,0.0,3.3728023890000003,0.01,0.0,-14424.0,0.125,0.0,0.0,0.0,0.125,4.112548407,2.4790000000000023,0.0,0.10999999940395355,-0.8100000023841858,52.130001068115234,0.0076904296875,0.02984619140625,0.9739990234375,36.619998931884766,0.0,35.0,1.18511962890625,-1.3688201904296875,Closing,0.0,0.0,-732.0,0.0,0.0,0.0,0.0,0.0,
17.75335499999998,0.0,0.0,15802.0,0.0,0.0,0.0,0.0,0.125,0.808105386,4.932250999999998,0.0,-18548.0,0.125,0.0,0.0,0.0,0.0,2.9956051620000004,2.481884999999998,0.0,-8266.0,0.0,0.0,0.0,0.0,0.0,3.3728023890000003,0.01,0.0,-14424.0,0.125,0.0,0.0,0.0,0.125,4.111327704,2.4790000000000023,0.0,0.10999999940395355,-0.8399999737739563,52.119998931884766,-0.04779052734375,-0.0233154296875,1.05572509765625,36.66999816894531,0.0,-39.0,1.18475341796875,-1.3688507080078125,Closing,0.0,0.0,-732.0,0.0,0.0,0.0,0.0,0.0,
17.889290999999968,0.0,0.0,15802.0,0.0,0.0,0.0,0.0,0.25,0.809326089,4.932250999999998,0.0,-18548.0,0.125,0.0,0.0,0.0,0.0,2.9956051620000004,2.481884999999998,0.0,-8266.0,0.0,0.0,0.0,0.0,0.0,3.3728023890000003,0.01,0.0,-14424.0,0.125,0.0,0.0,0.0,0.125,4.112548407,2.4790000000000023,0.0,0.10000000149011612,-0.8500000238418579,52.130001068115234,-0.0438232421875,-0.01715087890625,1.05657958984375,36.66999816894531,0.0,-32.0,1.1840362548828125,-1.3688507080078125,Closing,0.0,0.0,-732.0,0.0,0.0,0.0,0.0,0.0,
18.089,0.0,0.0,15802.0,0.0,0.0,0.0,0.0,0.125,0.808105386,4.932250999999998,0.0,-18548.0,0.125,0.0,0.0,0.0,0.0,2.9956051620000004,2.481884999999998,0.0,-8266.0,0.0,0.0,0.0,0.0,0.0,3.3728023890000003,0.01,0.0,-14424.0,0.125,0.0,0.0,0.0,0.125,4.112548407,2.4790000000000023,0.0,0.09000000357627869,-0.8799999952316284,52.130001068115234,-0.0244140625,-0.00677490234375,1.01904296875,36.66999816894531,0.0,-11.0,1.1837921142578125,-1.3688507080078125,Closing,0.0,0.0,-732.0,0.0,0.0,0.0,0.0,0.125,
18.290005000000004,0.0,0.0,15802.0,0.0,0.0,0.0,0.0,0.125,0.808105386,4.932250999999998,0.0,-18548.0,0.125,0.0,0.0,0.0,0.0,2.9956051620000004,2.481884999999998,0.0,-8266.0,0.0,0.0,0.0,0.0,0.0,3.3728023890000003,0.01,0.0,-14424.0,0.125,0.0,0.0,0.0,0.125,4.112548407,2.4790000000000023,0.0,0.09000000357627869,-0.8999999761581421,52.130001068115234,-0.02252197265625,-0.01397705078125,1.01666259765625,36.650001525878906,0.0,-16.0,1.1832275390625,-1.3688507080078125,Closing,0.0,0.0,-732.0,0.0,0.0,0.0,0.0,0.0,
