Time,ClimberA1,ClimberA2,FRpos,FRCurrent,FRspeed,FRsetpoint,FRApos,FRACurrent,FREncpos,FREncSetpoint,FREncSpeed,FLpos,FLCurrent,FLspeed,FLsetpoint,FLApos,FLACurrent,FLEncpos,FLEncSetpoint,FLEncSpeed,BRpos,BRCurrent,BRspeed,BRsetpoint,BRApos,BRACurrent,BREncpos,BREncSetpoint,BREncSpeed,BLpos,BLCurrent,BLspeed,BLsetpoint,BLApos,BLACurrent,BLEncpos,BLEncSetpoint,BLEncSpeed,navx_Pitch,navx_Roll,navx_Yaw,navx_XAcc,navx_YAcc,navx_ZAcc,navx_Temp,navx_Bar,navx_Alt,navx_XDis,navx_YDis,GearPlacerState,ShootOutputV,ShootOutputCurrent,ShootEncPos,ShootEncVelocity,ShootSpeed,ShootSetpoint,CarouselSetpoint,CarouselCurrent,
0.23361799999999858,0.0,0.0,-8.0,0.0,0.0,0.0,0.0,0.125,0.601806579,0.01,0.0,0.0,0.0,0.0,0.0,0.0,0.0,0.333251919,0.01,0.0,-2.0,0.0,0.0,0.0,0.0,0.0,3.123778977,0.01,0.0,1.0,0.0,0.0,0.0,0.0,0.125,1.462402194,0.01,0.0,0.8600000143051147,-0.9599999785423279,-4.170000076293945,-0.00775146484375,0.0338134765625,0.99847412109375,32.33000183105469,0.0,7.0,0.0079498291015625,0.0121307373046875,Waiting,0.0,0.0,-673.0,0.0,0.0,0.0,0.0,0.0,
0.3612799999999988,0.0,0.0,-8.0,0.0,0.0,0.0,0.0,0.125,0.601806579,0.01,0.0,0.0,0.0,0.0,-0.0,0.0,0.0,0.332031216,0.01,0.0,-2.0,0.0,0.0,0.0,0.0,0.0,3.121337571,0.01,0.0,1.0,0.0,0.0,-0.0,0.0,0.125,1.462402194,0.01,4.799181491,0.8700000047683716,-0.9700000286102295,-4.170000076293945,-0.0018310546875,0.034912109375,1.035888671875,32.33000183105469,0.0,14.0,0.0079498291015625,0.0121612548828125,Closing,0.0,0.0,-673.0,0.0,0.0,0.0,0.0,0.0,
0.39547199999999794,0.0,0.0,-8.0,0.0,0.0,0.0,0.0,0.25,0.615234312,0.01,4.722836876,0.0,0.0,0.0,-0.0,0.0,0.25,0.34179684,0.01,-0.17419878399999966,-2.0,0.0,0.0,0.0,0.0,0.25,3.176269206,0.01,0.0,1.0,0.0,0.0,-0.0,0.0,0.25,1.462402194,0.01,0.0,0.8600000143051147,-0.9700000286102295,-4.170000076293945,0.0162353515625,0.07574462890625,1.00732421875,32.33000183105469,0.0,28.0,0.008056640625,0.012725830078125,Closing,0.0,0.0,-673.0,0.0,0.0,0.0,0.0,0.0,
0.4462459999999992,0.0,0.0,-8.0,0.0,0.0,0.0,0.0,0.375,0.68359368,0.01,0.0,0.0,0.0,0.0,-0.0,0.0,0.25,0.406494099,0.01,0.028076169000000206,-2.0,0.0,0.0,0.0,0.0,0.25,3.254394198,0.01,0.06225585299999992,1.0,0.0,0.0,-0.0,0.0,0.125,1.510009611,0.01,0.003662109000000413,0.8399999737739563,-0.9700000286102295,-4.139999866485596,-0.0013427734375,0.07720947265625,0.99151611328125,32.33000183105469,0.0,10.0,0.008758544921875,0.01446533203125,Closing,0.0,0.0,-673.0,0.0,0.0,0.0,0.0,0.0,
0.5044929999999985,0.0,0.0,-8.0,0.0,0.0,0.0,0.0,0.375,0.7324218,0.01,0.043945308000000516,0.0,0.0,0.0,-0.0,0.0,0.25,0.42724605000000004,0.01,0.028076169000000206,-2.0,0.0,0.0,0.0,0.0,0.25,3.2727047430000002,0.01,0.06225585299999992,1.0,0.0,0.0,-0.0,0.0,0.25,1.5295408590000001,0.01,0.003662109000000413,0.8399999737739563,-0.9700000286102295,-4.130000114440918,0.0145263671875,0.0660400390625,0.99163818359375,32.33000183105469,0.0,27.0,0.0090179443359375,0.0150909423828125,Closing,0.0,0.0,-673.0,0.0,0.0,0.0,0.0,0.0,
0.5428050000000003,0.0,0.0,-8.0,0.0,0.0,0.0,0.0,0.25,0.755615157,0.01,0.07202147699999983,0.0,0.0,0.0,-0.0,0.0,0.25,0.44799800100000003,0.01,0.05493163499999998,-2.0,0.0,0.0,0.0,0.0,0.125,3.288573882,0.01,0.07446288299999981,1.0,0.0,0.0,-0.0,0.0,0.25,1.544189295,0.01,0.05004882300000002,0.8500000238418579,-0.9800000190734863,-4.110000133514404,0.00262451171875,0.06463623046875,1.010986328125,32.33000183105469,0.0,16.0,0.009613037109375,0.0174560546875,Closing,0.0,0.0,-673.0,0.0,0.0,0.0,0.0,0.0,
0.6111839999999975,0.0,0.0,-8.0,0.0,0.0,0.0,0.0,0.25,0.760497969,0.01,0.012207030000000785,0.0,0.0,0.0,-0.0,0.0,0.0,0.45288081300000005,0.01,0.009765623999999917,-2.0,0.0,0.0,0.0,0.0,0.125,3.292235991,0.01,0.009765623999999917,1.0,0.0,0.0,-0.0,0.0,0.25,1.547851404,0.01,0.009765623999999917,0.8500000238418579,-0.9599999785423279,-4.119999885559082,-0.014404296875,0.01251220703125,1.019287109375,32.33000183105469,0.0,2.0,0.009613037109375,0.0213775634765625,Closing,0.0,0.0,-673.0,0.0,0.0,0.0,0.0,0.0,
0.6480910000000003,0.0,0.0,-8.0,0.0,0.0,0.0,0.0,0.25,0.7629393750000001,0.01,0.012207030000000785,0.0,0.0,0.0,-0.0,0.0,0.0,0.45288081300000005,0.01,0.009765623999999917,-2.0,0.0,0.0,0.0,0.0,0.125,3.292235991,0.01,0.009765623999999917,1.0,0.0,0.0,-0.0,0.0,0.25,1.549072107,0.01,0.0,0.8500000238418579,-0.949999988079071,-4.119999885559082,-0.02392578125,0.0089111328125,1.0301513671875,32.349998474121094,0.0,-6.0,0.009613037109375,0.0213775634765625,Closing,0.0,0.0,-673.0,0.0,0.0,0.0,0.0,0.0,
0.6937769999999982,0.0,0.0,-8.0,0.0,0.0,0.0,0.0,0.25,0.760497969,0.01,0.0,0.0,0.0,0.0,-0.0,0.0,0.25,0.45288081300000005,0.01,0.0,-2.0,0.0,0.0,0.0,0.0,0.125,3.292235991,0.01,0.0,1.0,0.0,0.0,-0.0,0.0,0.25,1.549072107,0.01,0.0,0.8700000047683716,-0.949999988079071,-4.119999885559082,-0.04052734375,-0.0196533203125,1.041748046875,32.349998474121094,0.0,-20.0,0.0095977783203125,0.0212860107421875,Closing,0.0,0.0,-673.0,0.0,0.0,0.0,0.0,0.0,
0.7390409999999974,0.0,0.0,-8.0,0.0,0.0,0.0,0.0,0.25,0.760497969,0.01,0.0,0.0,0.0,0.0,-0.0,0.0,0.25,0.45288081300000005,0.01,0.0,-2.0,0.0,0.0,0.0,0.0,0.125,3.292235991,0.01,0.0,1.0,0.0,0.0,-0.0,0.0,0.25,1.549072107,0.01,0.0,0.8700000047683716,-0.9599999785423279,-4.119999885559082,-0.04327392578125,-0.04827880859375,1.03466796875,32.349998474121094,0.0,-21.0,0.0094451904296875,0.0202789306640625,Closing,0.0,0.0,-673.0,0.0,0.0,0.0,0.0,0.0,
0.7675039999999972,0.0,0.0,-8.0,0.0,0.0,0.0,0.0,0.25,0.759277266,0.01,0.0,0.0,0.0,0.0,-0.0,0.0,0.25,0.45288081300000005,0.01,0.0,-2.0,0.0,0.0,0.0,0.0,0.125,3.292235991,0.01,0.0,1.0,0.0,0.0,-0.0,0.0,0.25,1.549072107,0.01,0.0,0.8700000047683716,-0.949999988079071,-4.119999885559082,-0.04681396484375,-0.03656005859375,1.03985595703125,32.349998474121094,0.0,-25.0,0.009185791015625,0.0202789306640625,Closing,0.0,0.0,-673.0,0.0,0.0,0.0,0.0,0.0,
0.8097779999999984,0.0,0.0,-8.0,0.0,0.0,0.0,0.0,0.25,0.760497969,0.01,0.0,0.0,0.0,0.0,-0.0,0.0,0.25,0.45288081300000005,0.01,0.0,-2.0,0.0,0.0,0.0,0.0,0.125,3.292235991,0.01,0.0,1.0,0.0,0.0,-0.0,0.0,0.25,1.549072107,0.01,0.0,0.8700000047683716,-0.949999988079071,-4.119999885559082,-0.04248046875,-0.035400390625,1.04840087890625,32.349998474121094,0.0,-21.0,0.0083160400390625,0.01812744140625,Closing,0.0,0.0,-673.0,0.0,0.0,0.0,0.0,0.0,
0.8437129999999997,0.0,0.0,-8.0,0.0,0.0,0.0,0.0,0.25,0.7629393750000001,0.01,0.0,0.0,0.0,0.0,-0.0,0.0,0.25,0.45166011,0.01,0.0,-2.0,0.0,0.0,0.0,0.0,0.125,3.289794585,0.01,0.0,1.0,0.0,0.0,-0.0,0.0,0.25,1.547851404,0.01,0.0,0.8700000047683716,-0.949999988079071,-4.130000114440918,-0.046142578125,-0.030029296875,1.04595947265625,32.349998474121094,0.0,-25.0,0.0080108642578125,0.017425537109375,Closing,0.0,0.0,-673.0,0.0,0.0,0.0,0.0,0.0,
0.8897739999999976,0.0,0.0,-8.0,0.0,0.0,0.0,0.0,0.25,0.759277266,0.01,0.0,0.0,0.0,0.0,-0.0,0.0,0.25,0.45288081300000005,0.01,0.0,-2.0,0.0,0.0,0.0,0.0,0.125,3.292235991,0.01,0.0,1.0,0.0,0.0,-0.0,0.0,0.25,1.549072107,0.01,0.0,0.8700000047683716,-0.949999988079071,-4.130000114440918,-0.00933837890625,0.0128173828125,1.01068115234375,32.349998474121094,0.0,7.0,0.0076904296875,0.01416015625,Closing,0.0,0.0,-673.0,0.0,0.0,0.0,0.0,0.0,
0.9146419999999998,0.0,0.0,-8.0,0.0,0.0,0.0,0.0,0.25,0.759277266,0.01,0.0,0.0,0.0,0.0,-0.0,0.0,0.25,0.45166011,0.01,0.0,-2.0,0.0,0.0,0.0,0.0,0.125,3.293456694,0.01,0.0,1.0,0.0,0.0,-0.0,0.0,0.25,1.549072107,0.01,0.0,0.8600000143051147,-0.949999988079071,-4.130000114440918,5.4931640625E-4,0.0345458984375,1.0172119140625,32.349998474121094,0.0,16.0,0.0076904296875,0.014190673828125,Closing,0.0,0.0,-673.0,0.0,0.0,0.0,0.0,0.0,
0.9539519999999975,0.0,0.0,-8.0,0.0,0.0,0.0,0.0,0.25,0.759277266,0.01,0.0,0.0,0.0,0.0,-0.0,0.0,0.25,0.45288081300000005,0.01,0.0,-2.0,0.0,0.0,0.0,0.0,0.125,3.293456694,0.01,0.0,1.0,0.0,0.0,-0.0,0.0,0.25,1.5502928100000002,0.01,0.0,0.8600000143051147,-0.949999988079071,-4.130000114440918,8.544921875E-4,0.04864501953125,1.0147705078125,32.349998474121094,0.0,20.0,0.0077056884765625,0.01446533203125,Closing,0.0,0.0,-673.0,0.0,0.0,0.0,0.0,0.0,
0.9889110000000001,0.0,0.0,-8.0,0.0,0.0,0.0,0.0,0.25,0.760497969,0.01,0.0,0.0,0.0,0.0,-0.0,0.0,0.25,0.45166011,0.01,0.0,-2.0,0.0,0.0,0.0,0.0,0.125,3.293456694,0.01,0.0,1.0,0.0,0.0,-0.0,0.0,0.25,1.545409998,0.01,0.0,0.8600000143051147,-0.9700000286102295,-4.130000114440918,0.02008056640625,0.0699462890625,1.001220703125,32.349998474121094,0.0,27.0,0.00799560546875,0.015350341796875,Closing,0.0,0.0,-673.0,0.0,0.0,0.0,0.0,0.0,
1.0306119999999974,0.0,0.0,-8.0,0.0,0.0,0.0,0.0,0.25,0.760497969,0.01,0.0,0.0,0.0,0.0,-0.0,0.0,0.25,0.45532221900000003,0.01,0.0,-2.0,0.0,0.0,0.0,0.0,0.125,3.292235991,0.01,0.0,1.0,0.0,0.0,-0.0,0.0,0.25,1.549072107,0.01,0.0,0.8600000143051147,-0.9700000286102295,-4.119999885559082,0.0068359375,0.0721435546875,1.00677490234375,32.349998474121094,0.0,19.0,0.0081634521484375,0.0157928466796875,Closing,0.0,0.0,-673.0,0.0,0.0,0.0,0.0,0.0,
1.057520999999997,0.0,0.0,-8.0,0.0,0.0,0.0,0.0,0.25,0.760497969,0.01,0.0,0.0,0.0,0.0,-0.0,0.0,0.25,0.45288081300000005,0.01,0.0,-2.0,0.0,0.0,0.0,0.0,0.125,3.293456694,0.01,0.0,1.0,0.0,0.0,-0.0,0.0,0.25,1.546630701,0.01,0.0,0.8600000143051147,-0.9700000286102295,-4.119999885559082,0.00372314453125,0.05987548828125,1.010498046875,32.349998474121094,0.0,9.0,0.008819580078125,0.0183258056640625,Closing,0.0,0.0,-673.0,0.0,0.0,0.0,0.0,0.0,
1.1053609999999972,0.0,0.0,-8.0,0.0,0.0,0.0,0.0,0.25,0.759277266,0.01,0.0,0.0,0.0,0.0,-0.0,0.0,0.25,0.45288081300000005,0.01,0.0,-2.0,0.0,0.0,0.0,0.0,0.125,3.292235991,0.01,0.0,1.0,0.0,0.0,-0.0,0.0,0.25,1.549072107,0.01,0.0,0.8500000238418579,-0.9599999785423279,-4.130000114440918,-0.01544189453125,0.0335693359375,1.01788330078125,32.349998474121094,0.0,0.0,0.008819580078125,0.0190887451171875,Closing,0.0,0.0,-673.0,0.0,0.0,0.0,0.0,0.0,
1.1502069999999984,0.0,0.0,-8.0,0.0,0.0,0.0,0.0,0.25,0.760497969,0.01,0.0,0.0,0.0,0.0,-0.0,0.0,0.25,0.45288081300000005,0.01,0.0,-2.0,0.0,0.0,0.0,0.0,0.125,3.292235991,0.01,0.0,1.0,0.0,0.0,-0.0,0.0,0.25,1.549072107,0.01,0.0,0.8600000143051147,-0.9700000286102295,-4.130000114440918,-0.02752685546875,-0.00531005859375,1.01934814453125,32.36000061035156,0.0,-8.0,0.008819580078125,0.019073486328125,Closing,0.0,0.0,-673.0,0.0,0.0,0.0,0.0,0.0,
1.1927049999999981,0.0,0.0,-8.0,0.0,0.0,0.0,0.0,0.25,0.7653807810000001,0.01,0.0,0.0,0.0,0.0,-0.0,0.0,0.25,0.45166011,0.01,0.0,-2.0,0.0,0.0,0.0,0.0,0.125,3.292235991,0.01,0.0,1.0,0.0,0.0,-0.0,0.0,0.25,1.549072107,0.01,0.0,0.8600000143051147,-0.9700000286102295,-4.130000114440918,-0.041748046875,-0.0311279296875,1.04107666015625,32.36000061035156,0.0,-20.0,0.008758544921875,0.0189056396484375,Closing,0.0,0.0,-673.0,0.0,0.0,0.0,0.0,0.0,
1.2215629999999982,0.0,0.0,-8.0,0.0,0.0,0.0,0.0,0.25,0.759277266,0.01,0.0,0.0,0.0,0.0,-0.0,0.0,0.25,0.45288081300000005,0.01,0.0,-2.0,0.0,0.0,0.0,0.0,0.125,3.2958981,0.01,0.0,1.0,0.0,0.0,-0.0,0.0,0.25,1.549072107,0.01,0.0,0.8600000143051147,-0.9599999785423279,-4.130000114440918,-0.03631591796875,-0.02984619140625,1.04327392578125,32.36000061035156,0.0,-15.0,0.008575439453125,0.018463134765625,Closing,0.0,0.0,-673.0,0.0,0.0,0.0,0.0,0.0,
1.252137999999999,0.0,0.0,-8.0,0.0,0.0,0.0,0.0,0.25,0.759277266,0.01,0.0,0.0,0.0,0.0,-0.0,0.0,0.25,0.45288081300000005,0.01,0.0,-2.0,0.0,0.0,0.0,0.0,0.125,3.293456694,0.01,0.0,1.0,0.0,0.0,-0.0,0.0,0.25,1.549072107,0.01,0.0,0.8700000047683716,-0.9599999785423279,-4.130000114440918,-0.0498046875,-0.0318603515625,1.0445556640625,32.36000061035156,0.0,-28.0,0.008270263671875,0.01776123046875,Closing,0.0,0.0,-673.0,0.0,0.0,0.0,0.0,0.0,
1.2904609999999994,0.0,0.0,-8.0,0.0,0.0,0.0,0.0,0.25,0.759277266,0.01,0.0,0.0,0.0,0.0,-0.0,0.0,0.25,0.45288081300000005,0.01,0.0,-2.0,0.0,0.0,0.0,0.0,0.125,3.293456694,0.01,0.0,1.0,0.0,0.0,-0.0,0.0,0.25,1.549072107,0.01,0.0,0.8700000047683716,-0.9599999785423279,-4.139999866485596,-0.03192138671875,-0.01214599609375,1.051025390625,32.36000061035156,0.0,-12.0,0.007568359375,0.016204833984375,Closing,0.0,0.0,-673.0,0.0,0.0,0.0,0.0,0.0,
1.3137129999999997,0.0,0.0,-8.0,0.0,0.0,0.0,0.0,0.25,0.760497969,0.01,0.0,0.0,0.0,0.0,-0.0,0.0,0.25,0.45288081300000005,0.01,0.0,-2.0,0.0,0.0,0.0,0.0,0.125,3.293456694,0.01,0.0,1.0,0.0,0.0,-0.0,0.0,0.25,1.549072107,0.01,0.0012207029999995456,0.8600000143051147,-0.9599999785423279,-4.139999866485596,-0.00384521484375,0.02203369140625,1.02569580078125,32.36000061035156,0.0,12.0,0.007568359375,0.015594482421875,Closing,0.0,0.0,-673.0,0.0,0.0,0.0,0.0,0.0,
1.3682429999999985,0.0,0.0,-8.0,0.0,0.0,0.0,0.0,0.25,0.759277266,0.01,0.0,0.0,0.0,0.0,-0.0,0.0,0.25,0.45166011,0.01,0.0,-2.0,0.0,0.0,0.0,0.0,0.125,3.292235991,0.01,0.0,1.0,0.0,0.0,-0.0,0.0,0.25,1.547851404,0.01,-0.0012207029999995456,0.8600000143051147,-0.9599999785423279,-4.139999866485596,0.0076904296875,0.057373046875,1.01861572265625,32.36000061035156,0.0,21.0,0.007598876953125,0.0157012939453125,Closing,0.0,0.0,-673.0,0.0,0.0,0.0,0.0,0.0,
1.412239999999998,0.0,0.0,-8.0,0.0,0.0,0.0,0.0,0.25,0.759277266,0.01,0.0,0.0,0.0,0.0,-0.0,0.0,0.25,0.45288081300000005,0.01,0.0,-2.0,0.0,0.0,0.0,0.0,0.125,3.292235991,0.01,0.0,1.0,0.0,0.0,-0.0,0.0,0.25,1.549072107,0.01,-0.0012207029999995456,0.8500000238418579,-0.9700000286102295,-4.139999866485596,0.00830078125,0.06671142578125,1.00738525390625,32.36000061035156,0.0,21.0,0.00787353515625,0.0163421630859375,Closing,0.0,0.0,-673.0,0.0,0.0,0.0,0.0,0.0,
1.4347369999999973,0.0,0.0,-8.0,0.0,0.0,0.0,0.0,0.25,0.760497969,0.01,0.0,0.0,0.0,0.0,-0.0,0.0,0.25,0.45288081300000005,0.01,0.0,-2.0,0.0,0.0,0.0,0.0,0.125,3.293456694,0.01,0.0,1.0,0.0,0.0,-0.0,0.0,0.25,1.549072107,0.01,0.0,0.8500000238418579,-0.9700000286102295,-4.139999866485596,-6.103515625E-5,0.0672607421875,1.0035400390625,32.36000061035156,0.0,13.0,0.008026123046875,0.016693115234375,Closing,0.0,0.0,-673.0,0.0,0.0,0.0,0.0,0.0,
1.4674699999999976,0.0,0.0,-8.0,0.0,0.0,0.0,0.0,0.25,0.758056563,0.01,0.0,0.0,0.0,0.0,-0.0,0.0,0.25,0.45288081300000005,0.01,0.0,-2.0,0.0,0.0,0.0,0.0,0.125,3.292235991,0.01,0.0,1.0,0.0,0.0,-0.0,0.0,0.25,1.547851404,0.01,0.0,0.8500000238418579,-0.9599999785423279,-4.139999866485596,-0.01544189453125,0.03070068359375,1.0240478515625,32.36000061035156,0.0,0.0,0.0085906982421875,0.0181427001953125,Closing,0.0,0.0,-673.0,0.0,0.0,0.0,0.0,0.0,
1.4965279999999985,0.0,0.0,-8.0,0.0,0.0,0.0,0.0,0.25,0.75683586,0.01,0.0,0.0,0.0,0.0,-0.0,0.0,0.25,0.45166011,0.01,0.0,-2.0,0.0,0.0,0.0,0.0,0.125,3.292235991,0.01,0.0,1.0,0.0,0.0,-0.0,0.0,0.25,1.549072107,0.01,0.0,0.8600000143051147,-0.9599999785423279,-4.139999866485596,-0.01861572265625,0.015380859375,1.02752685546875,32.36000061035156,0.0,-1.0,0.0085906982421875,0.0181427001953125,Closing,0.0,0.0,-673.0,0.0,0.0,0.0,0.0,0.0,
1.531571,0.0,0.0,-8.0,0.0,0.0,0.0,0.0,0.25,0.759277266,0.01,0.0,0.0,0.0,0.0,-0.0,0.0,0.25,0.45288081300000005,0.01,0.0,-2.0,0.0,0.0,0.0,0.0,0.125,3.292235991,0.01,0.0,1.0,0.0,0.0,-0.0,0.0,0.25,1.549072107,0.01,0.0,0.8600000143051147,-0.9599999785423279,-4.139999866485596,-0.0416259765625,-0.01409912109375,1.03375244140625,32.36000061035156,0.0,-21.0,0.008575439453125,0.0181121826171875,Closing,0.0,0.0,-673.0,0.0,0.0,0.0,0.0,0.0,
1.5628869999999988,0.0,0.0,-8.0,0.0,0.0,0.0,0.0,0.25,0.760497969,0.01,0.0,0.0,0.0,0.0,-0.0,0.0,0.25,0.45166011,0.01,0.0,-2.0,0.0,0.0,0.0,0.0,0.125,3.292235991,0.01,0.0,1.0,0.0,0.0,-0.0,0.0,0.25,1.549072107,0.01,0.0,0.8600000143051147,-0.9599999785423279,-4.139999866485596,-0.048095703125,-0.0416259765625,1.03302001953125,32.36000061035156,0.0,-26.0,0.008514404296875,0.01800537109375,Closing,0.0,0.0,-673.0,0.0,0.0,0.0,0.0,0.0,
1.6007589999999983,0.0,0.0,-8.0,0.0,0.0,0.0,0.0,0.25,0.759277266,0.01,0.0,0.0,0.0,0.0,-0.0,0.0,0.25,0.45410151600000004,0.01,0.0,-2.0,0.0,0.0,0.0,0.0,0.125,3.293456694,0.01,0.0,1.0,0.0,0.0,-0.0,0.0,0.25,1.549072107,0.01,0.0,0.8600000143051147,-0.9599999785423279,-4.139999866485596,-0.046142578125,-0.02923583984375,1.04876708984375,32.36000061035156,0.0,-25.0,0.0081939697265625,0.0172882080078125,Closing,0.0,0.0,-673.0,0.0,0.0,0.0,0.0,0.0,
1.6332119999999994,0.0,0.0,-8.0,0.0,0.0,0.0,0.0,0.25,0.760497969,0.01,0.0,0.0,0.0,0.0,-0.0,0.0,0.25,0.45288081300000005,0.01,0.0,-2.0,0.0,0.0,0.0,0.0,0.125,3.292235991,0.01,0.0,1.0,0.0,0.0,-0.0,0.0,0.25,1.547851404,0.01,0.0,0.8600000143051147,-0.9599999785423279,-4.139999866485596,-0.03265380859375,-0.01824951171875,1.03875732421875,32.36000061035156,0.0,-12.0,0.0078582763671875,0.016448974609375,Closing,0.0,0.0,-673.0,0.0,0.0,0.0,0.0,0.0,
1.6564809999999999,0.0,0.0,-8.0,0.0,0.0,0.0,0.0,0.25,0.759277266,0.01,0.0,0.0,0.0,0.0,-0.0,0.0,0.25,0.45166011,0.01,0.0,-2.0,0.0,0.0,0.0,0.0,0.125,3.292235991,0.01,0.0,1.0,0.0,0.0,-0.0,0.0,0.25,1.549072107,0.01,0.0,0.8600000143051147,-0.9599999785423279,-4.139999866485596,-0.007568359375,0.0203857421875,1.04010009765625,32.36000061035156,0.0,9.0,0.0078582763671875,0.01544189453125,Closing,0.0,0.0,-673.0,0.0,0.0,0.0,0.0,0.0,
1.6934749999999985,0.0,0.0,-8.0,0.0,0.0,0.0,0.0,0.25,0.759277266,0.01,0.0,0.0,0.0,0.0,-0.0,0.0,0.25,0.45166011,0.01,0.0,-2.0,0.0,0.0,0.0,0.0,0.125,3.293456694,0.01,0.0,1.0,0.0,0.0,-0.0,0.0,0.25,1.5515135130000002,0.01,0.0,0.8600000143051147,-0.9599999785423279,-4.139999866485596,-0.00531005859375,0.05291748046875,1.016845703125,32.36000061035156,0.0,9.0,0.0079345703125,0.015472412109375,Closing,0.0,0.0,-673.0,0.0,0.0,0.0,0.0,0.0,
1.7126839999999974,0.0,0.0,-8.0,0.0,0.0,0.0,0.0,0.25,0.759277266,0.01,0.0,0.0,0.0,0.0,-0.0,0.0,0.25,0.45288081300000005,0.01,0.0,-2.0,0.0,0.0,0.0,0.0,0.125,3.292235991,0.01,0.0,1.0,0.0,0.0,-0.0,0.0,0.25,1.549072107,0.01,0.0,0.8500000238418579,-0.9599999785423279,-4.139999866485596,0.00494384765625,0.061767578125,1.0084228515625,32.36000061035156,0.0,18.0,0.00823974609375,0.015960693359375,Closing,0.0,0.0,-673.0,0.0,0.0,0.0,0.0,0.0,
1.7549249999999992,0.0,0.0,-8.0,0.0,0.0,0.0,0.0,0.25,0.758056563,0.01,0.0,0.0,0.0,0.0,-0.0,0.0,0.25,0.45288081300000005,0.01,0.0,-2.0,0.0,0.0,0.0,0.0,0.125,3.293456694,0.01,0.0,1.0,0.0,0.0,-0.0,0.0,0.25,1.547851404,0.01,0.0,0.8500000238418579,-0.9700000286102295,-4.139999866485596,-0.00408935546875,0.07568359375,1.0084228515625,32.36000061035156,0.0,8.0,0.00823974609375,0.016265869140625,Closing,0.0,0.0,-673.0,0.0,0.0,0.0,0.0,0.0,
1.7790049999999973,0.0,0.0,-8.0,0.0,0.0,0.0,0.0,0.25,0.759277266,0.01,0.0,0.0,0.0,0.0,-0.0,0.0,0.25,0.45288081300000005,0.01,0.0,-2.0,0.0,0.0,0.0,0.0,0.125,3.293456694,0.01,0.0,1.0,0.0,0.0,-0.0,0.0,0.25,1.549072107,0.01,0.0012207029999995456,0.8500000238418579,-0.9599999785423279,-4.139999866485596,-0.0152587890625,0.05706787109375,1.00787353515625,32.36000061035156,0.0,-1.0,0.00823974609375,0.0171051025390625,Closing,0.0,0.0,-673.0,0.0,0.0,0.0,0.0,0.0,
1.8124579999999988,0.0,0.0,-8.0,0.0,0.0,0.0,0.0,0.25,0.761718672,0.01,0.0,0.0,0.0,0.0,-0.0,0.0,0.25,0.45288081300000005,0.01,0.0,-2.0,0.0,0.0,0.0,0.0,0.125,3.293456694,0.01,0.0,1.0,0.0,0.0,-0.0,0.0,0.25,1.547851404,0.01,-0.0012207029999995456,0.8500000238418579,-0.9599999785423279,-4.139999866485596,-0.02545166015625,0.028564453125,1.03192138671875,32.36000061035156,0.0,-8.0,0.00823974609375,0.0180816650390625,Closing,0.0,0.0,-673.0,0.0,0.0,0.0,0.0,0.0,
1.8394249999999992,0.0,0.0,-8.0,0.0,0.0,0.0,0.0,0.25,0.759277266,0.01,0.0,0.0,0.0,0.0,-0.0,0.0,0.25,0.45166011,0.01,0.0,-2.0,0.0,0.0,0.0,0.0,0.125,3.292235991,0.01,0.0,1.0,0.0,0.0,-0.0,0.0,0.25,1.547851404,0.01,0.0012207029999995456,0.8600000143051147,-0.9599999785423279,-4.139999866485596,-0.04150390625,-0.02362060546875,1.04998779296875,32.36000061035156,0.0,-20.0,0.008087158203125,0.017822265625,Closing,0.0,0.0,-673.0,0.0,0.0,0.0,0.0,0.0,
1.8923940000000001,0.0,0.0,-8.0,0.0,0.0,0.0,0.0,0.25,0.760497969,0.01,0.0,0.0,0.0,0.0,-0.0,0.0,0.25,0.45288081300000005,0.01,0.0,-2.0,0.0,0.0,0.0,0.0,0.125,3.292235991,0.01,0.0,1.0,0.0,0.0,-0.0,0.0,0.25,1.549072107,0.01,0.0012207029999995456,0.8600000143051147,-0.9599999785423279,-4.139999866485596,-0.03631591796875,-0.0469970703125,1.04730224609375,32.36000061035156,0.0,-14.0,0.0079803466796875,0.017608642578125,Closing,0.0,0.0,-673.0,0.0,0.0,0.0,0.0,0.0,
1.913834999999999,0.0,0.0,-8.0,0.0,0.0,0.0,0.0,0.25,0.759277266,0.01,0.0,0.0,0.0,0.0,-0.0,0.0,0.25,0.45288081300000005,0.01,0.0,-2.0,0.0,0.0,0.0,0.0,0.125,3.293456694,0.01,0.0,1.0,0.0,0.0,-0.0,0.0,0.25,1.549072107,0.01,-0.0012207029999995456,0.8700000047683716,-0.949999988079071,-4.139999866485596,-0.0428466796875,-0.0401611328125,1.04034423828125,32.36000061035156,0.0,-21.0,0.007720947265625,0.016937255859375,Closing,0.0,0.0,-673.0,0.0,0.0,0.0,0.0,0.0,
1.9465419999999976,0.0,0.0,-8.0,0.0,0.0,0.0,0.0,0.25,0.759277266,0.01,0.0,0.0,0.0,0.0,-0.0,0.0,0.25,0.45288081300000005,0.01,0.0,-2.0,0.0,0.0,0.0,0.0,0.125,3.292235991,0.01,0.0,1.0,0.0,0.0,-0.0,0.0,0.25,1.549072107,0.01,-0.0012207029999995456,0.8600000143051147,-0.9599999785423279,-4.139999866485596,-0.0067138671875,1.220703125E-4,1.03594970703125,32.36000061035156,0.0,11.0,0.0074005126953125,0.0160675048828125,Closing,0.0,0.0,-673.0,0.0,0.0,0.0,0.0,0.0,
1.9703489999999984,0.0,0.0,-8.0,0.0,0.0,0.0,0.0,0.25,0.759277266,0.01,0.0,0.0,0.0,0.0,-0.0,0.0,0.25,0.45288081300000005,0.01,0.0,-2.0,0.0,0.0,0.0,0.0,0.125,3.293456694,0.01,0.0,1.0,0.0,0.0,-0.0,0.0,0.25,1.549072107,0.01,0.0,0.8600000143051147,-0.9599999785423279,-4.139999866485596,-2.44140625E-4,0.047607421875,1.02703857421875,32.36000061035156,0.0,14.0,0.0071563720703125,0.015167236328125,Closing,0.0,0.0,-673.0,0.0,0.0,0.0,0.0,0.0,
2.024207999999999,0.0,0.0,-8.0,0.0,0.0,0.0,0.0,0.25,0.748290939,0.01,0.0,0.0,0.0,0.0,-0.0,0.0,0.25,0.45288081300000005,0.01,0.0,-2.0,0.0,0.0,0.0,0.0,0.125,3.288573882,0.01,0.0,1.0,0.0,0.0,-0.0,0.0,0.25,1.549072107,0.01,0.0,0.8600000143051147,-0.9700000286102295,-4.139999866485596,0.007568359375,0.05157470703125,0.99920654296875,32.36000061035156,0.0,21.0,0.00701904296875,0.0142364501953125,Closing,0.0,0.0,-673.0,0.0,0.0,0.0,0.0,0.0,
2.0487729999999975,0.0,0.0,-8.0,0.0,0.0,0.0,0.0,0.25,0.759277266,0.01,0.0,0.0,0.0,0.0,-0.0,0.0,0.25,0.45288081300000005,0.01,0.0,-2.0,0.0,0.0,0.0,0.0,0.125,3.292235991,0.01,0.0,1.0,0.0,0.0,-0.0,0.0,0.25,1.549072107,0.01,0.0,0.8500000238418579,-0.9700000286102295,-4.150000095367432,-0.00579833984375,0.04925537109375,0.99456787109375,32.36000061035156,0.0,8.0,0.007049560546875,0.0139617919921875,Closing,0.0,0.0,-673.0,0.0,0.0,0.0,0.0,0.0,
2.1284449999999997,0.0,0.0,-8.0,0.0,0.0,0.0,0.0,0.25,0.760497969,0.01,0.0,0.0,0.0,0.0,-0.0,0.0,0.25,0.45410151600000004,0.01,0.0,-2.0,0.0,0.0,0.0,0.0,0.125,3.293456694,0.01,0.0,1.0,0.0,0.0,-0.0,0.0,0.25,1.549072107,0.01,0.0,0.8600000143051147,-0.9599999785423279,-4.150000095367432,-0.03375244140625,-0.03082275390625,1.04046630859375,32.380001068115234,0.0,-12.0,0.0068817138671875,0.01300048828125,Closing,0.0,0.0,-673.0,0.0,0.0,0.0,0.0,0.0,
2.1998979999999975,0.0,0.0,-8.0,0.0,0.0,0.0,0.0,0.25,0.759277266,0.01,0.0,0.0,0.0,0.0,-0.0,0.0,0.25,0.45288081300000005,0.01,0.0,-2.0,0.0,0.0,0.0,0.0,0.125,3.292235991,0.01,0.0,1.0,0.0,0.0,-0.0,0.0,0.25,1.549072107,0.01,0.0,0.8600000143051147,-0.9599999785423279,-4.150000095367432,-0.014404296875,0.0140380859375,1.04022216796875,32.380001068115234,0.0,3.0,0.0068817138671875,0.01177978515625,Closing,0.0,0.0,-673.0,0.0,0.0,0.0,0.0,0.0,
2.233753999999997,0.0,0.0,-8.0,0.0,0.0,0.0,0.0,0.25,0.773925702,0.01,0.0,0.0,0.0,0.0,-0.0,0.0,0.25,0.45166011,0.01,0.0,-2.0,0.0,0.0,0.0,0.0,0.125,3.292235991,0.01,0.0,1.0,0.0,0.0,-0.0,0.0,0.25,1.549072107,0.01,0.0,0.8500000238418579,-0.9599999785423279,-4.150000095367432,0.00738525390625,0.056640625,1.0169677734375,32.380001068115234,0.0,21.0,0.0070648193359375,0.0106048583984375,Closing,0.0,0.0,-673.0,0.0,0.0,0.0,0.0,0.0,
2.273579999999998,0.0,0.0,-8.0,0.0,0.0,0.0,0.0,0.25,0.759277266,0.01,0.0,0.0,0.0,0.0,-0.0,0.0,0.25,0.45288081300000005,0.01,0.0,-2.0,0.0,0.0,0.0,0.0,0.125,3.292235991,0.01,0.0,1.0,0.0,0.0,-0.0,0.0,0.25,1.549072107,0.01,0.0,0.8399999737739563,-0.9700000286102295,-4.150000095367432,-0.007568359375,0.0572509765625,1.00360107421875,32.380001068115234,0.0,6.0,0.0073089599609375,0.009979248046875,Closing,0.0,0.0,-673.0,0.0,0.0,0.0,0.0,0.0,
2.310774999999998,0.0,0.0,-8.0,0.0,0.0,0.0,0.0,0.25,0.759277266,0.01,0.0,0.0,0.0,0.0,-0.0,0.0,0.25,0.45288081300000005,0.01,0.0,-2.0,0.0,0.0,0.0,0.0,0.125,3.292235991,0.01,0.0,1.0,0.0,0.0,-0.0,0.0,0.25,1.549072107,0.01,0.0,0.8399999737739563,-0.9599999785423279,-4.150000095367432,-0.01934814453125,0.0423583984375,1.0101318359375,32.380001068115234,0.0,-4.0,0.0073089599609375,0.0098876953125,Closing,0.0,0.0,-673.0,0.0,0.0,0.0,0.0,0.0,
2.3452669999999998,0.0,0.0,-8.0,0.0,0.0,0.0,0.0,0.25,0.759277266,0.01,0.0,0.0,0.0,0.0,-0.0,0.0,0.25,0.45288081300000005,0.01,0.0,-2.0,0.0,0.0,0.0,0.0,0.125,3.292235991,0.01,0.0,1.0,0.0,0.0,-0.0,0.0,0.25,1.549072107,0.01,0.0,0.8399999737739563,-0.9599999785423279,-4.150000095367432,-0.01446533203125,0.02093505859375,1.01763916015625,32.380001068115234,0.0,2.0,0.0073089599609375,0.00982666015625,Closing,0.0,0.0,-673.0,0.0,0.0,0.0,0.0,0.0,
2.366400999999998,0.0,0.0,-8.0,0.0,0.0,0.0,0.0,0.25,0.759277266,0.01,0.0,0.0,0.0,0.0,-0.0,0.0,0.25,0.45288081300000005,0.01,0.0,-2.0,0.0,0.0,0.0,0.0,0.125,3.292235991,0.01,0.0,1.0,0.0,0.0,-0.0,0.0,0.25,1.549072107,0.01,0.0,0.8500000238418579,-0.9599999785423279,-4.150000095367432,-0.04669189453125,-0.00433349609375,1.022705078125,32.380001068115234,0.0,-27.0,0.007293701171875,0.0098114013671875,Closing,0.0,0.0,-673.0,0.0,0.0,0.0,0.0,0.0,
2.3912259999999987,0.0,0.0,-8.0,0.0,0.0,0.0,0.0,0.25,0.760497969,0.01,0.0,0.0,0.0,0.0,-0.0,0.0,0.25,0.45166011,0.01,0.0,-2.0,0.0,0.0,0.0,0.0,0.125,3.292235991,0.01,0.0,1.0,0.0,0.0,-0.0,0.0,0.25,1.549072107,0.01,0.0,0.8600000143051147,-0.9599999785423279,-4.150000095367432,-0.04425048828125,-0.02008056640625,1.05126953125,32.380001068115234,0.0,-23.0,0.00714111328125,0.0096282958984375,Closing,0.0,0.0,-673.0,0.0,0.0,0.0,0.0,0.0,
2.412878999999997,0.0,0.0,-8.0,0.0,0.0,0.0,0.0,0.25,0.759277266,0.01,0.0,0.0,0.0,0.0,-0.0,0.0,0.25,0.45166011,0.01,0.0,-2.0,0.0,0.0,0.0,0.0,0.125,3.293456694,0.01,0.0,1.0,0.0,0.0,-0.0,0.0,0.25,1.547851404,0.01,0.0,0.8600000143051147,-0.9599999785423279,-4.150000095367432,-0.02972412109375,-0.041748046875,1.036376953125,32.380001068115234,0.0,-8.0,0.0068817138671875,0.009185791015625,Closing,0.0,0.0,-673.0,0.0,0.0,0.0,0.0,0.0,
2.441411,0.0,0.0,-8.0,0.0,0.0,0.0,0.0,0.125,0.760497969,0.01,0.0,0.0,0.0,0.0,-0.0,0.0,0.25,0.45288081300000005,0.01,0.0,-2.0,0.0,0.0,0.0,0.0,0.125,3.292235991,0.01,0.0,1.0,0.0,0.0,-0.0,0.0,0.25,1.549072107,0.01,0.0,0.8600000143051147,-0.9599999785423279,-4.150000095367432,-0.0093994140625,0.01190185546875,1.03631591796875,32.380001068115234,0.0,8.0,0.0068817138671875,0.00811767578125,Closing,0.0,0.0,-673.0,0.0,0.0,0.0,0.0,0.0,
2.492911,0.0,0.0,-8.0,0.0,0.0,0.0,0.0,0.25,0.759277266,0.01,0.0,0.0,0.0,0.0,-0.0,0.0,0.25,0.45288081300000005,0.01,0.0,-2.0,0.0,0.0,0.0,0.0,0.125,3.293456694,0.01,0.0,1.0,0.0,0.0,-0.0,0.0,0.25,1.546630701,0.01,0.0,0.8399999737739563,-0.9700000286102295,-4.150000095367432,0.018310546875,0.06134033203125,1.0186767578125,32.380001068115234,0.0,32.0,0.0069580078125,0.0073699951171875,Closing,0.0,0.0,-673.0,0.0,0.0,0.0,0.0,0.0,
2.5138969999999974,0.0,0.0,-8.0,0.0,0.0,0.0,0.0,0.25,0.760497969,0.01,0.0,0.0,0.0,0.0,-0.0,0.0,0.25,0.45288081300000005,0.01,0.0,-2.0,0.0,0.0,0.0,0.0,0.125,3.292235991,0.01,0.0,1.0,0.0,0.0,-0.0,0.0,0.25,1.549072107,0.01,0.0,0.8399999737739563,-0.9599999785423279,-4.150000095367432,0.01324462890625,0.0595703125,0.9998779296875,32.380001068115234,0.0,23.0,0.0071868896484375,0.0068511962890625,Closing,0.0,0.0,-673.0,0.0,0.0,0.0,0.0,0.0,
2.560317999999999,0.0,0.0,-8.0,0.0,0.0,0.0,0.0,0.25,0.759277266,0.01,0.0,0.0,0.0,0.0,-0.0,0.0,0.25,0.45288081300000005,0.01,0.0,-2.0,0.0,0.0,0.0,0.0,0.125,3.292235991,0.01,0.0,1.0,0.0,0.0,-0.0,0.0,0.25,1.549072107,0.01,0.0012207029999995456,0.8299999833106995,-0.9599999785423279,-4.150000095367432,-0.01116943359375,0.0555419921875,1.0042724609375,32.380001068115234,0.0,2.0,0.007354736328125,0.006591796875,Closing,0.0,0.0,-673.0,0.0,0.0,0.0,0.0,0.0,
2.5772429999999984,0.0,0.0,-8.0,0.0,0.0,0.0,0.0,0.25,0.755615157,0.01,0.0,0.0,0.0,0.0,-0.0,0.0,0.25,0.45288081300000005,0.01,0.0,-2.0,0.0,0.0,0.0,0.0,0.125,3.292235991,0.01,0.0,1.0,0.0,0.0,-0.0,0.0,0.25,1.549072107,0.01,-0.0012207029999995456,0.8399999737739563,-0.9599999785423279,-4.150000095367432,-0.0194091796875,0.009765625,1.01312255859375,32.380001068115234,0.0,-1.0,0.007354736328125,0.00653076171875,Closing,0.0,0.0,-673.0,0.0,0.0,0.0,0.0,0.0,
2.6235449999999982,0.0,0.0,-8.0,0.0,0.0,0.0,0.0,0.25,0.759277266,0.01,0.0,0.0,0.0,0.0,-0.0,0.0,0.25,0.45288081300000005,0.01,0.0,-2.0,0.0,0.0,0.0,0.0,0.125,3.292235991,0.01,0.0,1.0,0.0,0.0,-0.0,0.0,0.25,1.549072107,0.01,-0.0012207029999995456,0.8399999737739563,-0.9599999785423279,-4.150000095367432,-0.0394287109375,-0.00653076171875,1.01922607421875,32.380001068115234,0.0,-20.0,0.0073394775390625,0.006500244140625,Closing,0.0,0.0,-673.0,0.0,0.0,0.0,0.0,0.0,
2.6428969999999974,0.0,0.0,-8.0,0.0,0.0,0.0,0.0,0.25,0.7629393750000001,0.01,0.0,0.0,0.0,0.0,-0.0,0.0,0.25,0.45288081300000005,0.01,0.0,-2.0,0.0,0.0,0.0,0.0,0.125,3.292235991,0.01,0.0,1.0,0.0,0.0,-0.0,0.0,0.25,1.549072107,0.01,0.0,0.8500000238418579,-0.949999988079071,-4.150000095367432,-0.04345703125,-0.02587890625,1.04351806640625,32.380001068115234,0.0,-22.0,0.007110595703125,0.006103515625,Closing,0.0,0.0,-673.0,0.0,0.0,0.0,0.0,0.0,
2.6925069999999978,0.0,0.0,-8.0,0.0,0.0,0.0,0.0,0.25,0.759277266,0.01,0.0,0.0,0.0,0.0,-0.0,0.0,0.25,0.45288081300000005,0.01,0.0,-2.0,0.0,0.0,0.0,0.0,0.125,3.291015288,0.01,0.0,1.0,0.0,0.0,-0.0,0.0,0.25,1.549072107,0.01,0.0,0.8500000238418579,-0.9599999785423279,-4.150000095367432,-0.02447509765625,-0.0076904296875,1.04095458984375,32.36000061035156,0.0,-5.0,0.0068359375,0.0055389404296875,Closing,0.0,0.0,-673.0,0.0,0.0,0.0,0.0,0.0,
2.7122319999999998,0.0,0.0,-8.0,0.0,0.0,0.0,0.0,0.25,0.759277266,0.01,0.0,0.0,0.0,0.0,-0.0,0.0,0.25,0.45166011,0.01,0.0,-2.0,0.0,0.0,0.0,0.0,0.125,3.293456694,0.01,0.0,1.0,0.0,0.0,-0.0,0.0,0.25,1.549072107,0.01,0.0,0.8399999737739563,-0.9700000286102295,-4.150000095367432,0.01312255859375,0.00921630859375,1.0382080078125,32.36000061035156,0.0,31.0,0.006866455078125,0.00518798828125,Closing,0.0,0.0,-673.0,0.0,0.0,0.0,0.0,0.0,
2.732975999999999,0.0,0.0,-8.0,0.0,0.0,0.0,0.0,0.25,0.759277266,0.01,0.0,0.0,0.0,0.0,-0.0,0.0,0.25,0.45288081300000005,0.01,0.0,-2.0,0.0,0.0,0.0,0.0,0.125,3.292235991,0.01,0.0,1.0,0.0,0.0,-0.0,0.0,0.25,1.549072107,0.01,0.0,0.8399999737739563,-0.9700000286102295,-4.150000095367432,0.013671875,0.05340576171875,1.02496337890625,32.36000061035156,0.0,28.0,0.0069427490234375,0.005218505859375,Closing,0.0,0.0,-673.0,0.0,0.0,0.0,0.0,0.0,
2.763144,0.0,0.0,-8.0,0.0,0.0,0.0,0.0,0.25,0.759277266,0.01,0.0,0.0,0.0,0.0,-0.0,0.0,0.25,0.45166011,0.01,0.0,-2.0,0.0,0.0,0.0,0.0,0.125,3.292235991,0.01,0.0,1.0,0.0,0.0,-0.0,0.0,0.25,1.547851404,0.01,0.0,0.8299999833106995,-0.9599999785423279,-4.150000095367432,-6.103515625E-4,0.0535888671875,1.0181884765625,32.36000061035156,0.0,13.0,0.0071868896484375,0.00543212890625,Closing,0.0,0.0,-673.0,0.0,0.0,0.0,0.0,0.0,
2.7996749999999992,0.0,0.0,-8.0,0.0,0.0,0.0,0.0,0.25,0.759277266,0.01,0.0,0.0,0.0,0.0,-0.0,0.0,0.25,0.45288081300000005,0.01,0.0,-2.0,0.0,0.0,0.0,0.0,0.125,3.292235991,0.01,0.0,1.0,0.0,0.0,-0.0,0.0,0.25,1.549072107,0.01,0.0,0.8299999833106995,-0.9599999785423279,-4.150000095367432,-0.02008056640625,0.04058837890625,1.015869140625,32.36000061035156,0.0,-4.0,0.007354736328125,0.0062408447265625,Closing,0.0,0.0,-673.0,0.0,0.0,0.0,0.0,0.0,
2.830591999999997,0.0,0.0,-8.0,0.0,0.0,0.0,0.0,0.25,0.760497969,0.01,0.0,0.0,0.0,0.0,-0.0,0.0,0.25,0.45288081300000005,0.01,0.0,-2.0,0.0,0.0,0.0,0.0,0.125,3.292235991,0.01,0.0,1.0,0.0,0.0,-0.0,0.0,0.25,1.547851404,0.01,0.0,0.8299999833106995,-0.9700000286102295,-4.150000095367432,-0.02008056640625,0.03192138671875,1.00335693359375,32.36000061035156,0.0,-4.0,0.007354736328125,0.006591796875,Closing,0.0,0.0,-673.0,0.0,0.0,0.0,0.0,0.0,
2.8538619999999972,0.0,0.0,-8.0,0.0,0.0,0.0,0.0,0.25,0.760497969,0.01,0.0,0.0,0.0,0.0,-0.0,0.0,0.25,0.45410151600000004,0.01,0.0,-2.0,0.0,0.0,0.0,0.0,0.125,3.292235991,0.01,0.0,1.0,0.0,0.0,-0.0,0.0,0.25,1.549072107,0.01,0.0,0.8399999737739563,-0.9599999785423279,-4.150000095367432,-0.04443359375,-0.00323486328125,1.02362060546875,32.36000061035156,0.0,-25.0,0.00732421875,0.0065765380859375,Closing,0.0,0.0,-673.0,0.0,0.0,0.0,0.0,0.0,
2.8873539999999993,0.0,0.0,-8.0,0.0,0.0,0.0,0.0,0.25,0.760497969,0.01,0.0,0.0,0.0,0.0,-0.0,0.0,0.25,0.45166011,0.01,0.0,-2.0,0.0,0.0,0.0,0.0,0.125,3.293456694,0.01,0.0,1.0,0.0,0.0,-0.0,0.0,0.25,1.549072107,0.01,0.0,0.8399999737739563,-0.9599999785423279,-4.150000095367432,-0.04046630859375,-0.02886962890625,1.0389404296875,32.36000061035156,0.0,-19.0,0.0072021484375,0.0063934326171875,Closing,0.0,0.0,-673.0,0.0,0.0,0.0,0.0,0.0,
2.9114089999999995,0.0,0.0,-8.0,0.0,0.0,0.0,0.0,0.25,0.755615157,0.01,0.0,0.0,0.0,0.0,-0.0,0.0,0.25,0.45288081300000005,0.01,0.0,-2.0,0.0,0.0,0.0,0.0,0.125,3.292235991,0.01,0.0,1.0,0.0,0.0,-0.0,0.0,0.25,1.549072107,0.01,0.0,0.8500000238418579,-0.9599999785423279,-4.150000095367432,-0.0360107421875,-0.03753662109375,1.0438232421875,32.36000061035156,0.0,-14.0,0.0069580078125,0.005950927734375,Closing,0.0,0.0,-673.0,0.0,0.0,0.0,0.0,0.0,
2.9364759999999985,0.0,0.0,-8.0,0.0,0.0,0.0,0.0,0.25,0.760497969,0.01,0.0,0.0,0.0,0.0,-0.0,0.0,0.25,0.45288081300000005,0.01,0.0,-2.0,0.0,0.0,0.0,0.0,0.125,3.293456694,0.01,0.0,1.0,0.0,0.0,-0.0,0.0,0.25,1.549072107,0.01,0.0,0.8500000238418579,-0.9599999785423279,-4.150000095367432,-0.009033203125,0.004638671875,1.03973388671875,32.36000061035156,0.0,9.0,0.0068206787109375,0.00531005859375,Closing,0.0,0.0,-673.0,0.0,0.0,0.0,0.0,0.0,
2.9702669999999998,0.0,0.0,-8.0,0.0,0.0,0.0,0.0,0.25,0.761718672,0.01,0.0,0.0,0.0,0.0,-0.0,0.0,0.25,0.45288081300000005,0.01,0.0,-2.0,0.0,0.0,0.0,0.0,0.125,3.292235991,0.01,0.0,1.0,0.0,0.0,-0.0,0.0,0.25,1.546630701,0.01,0.0,0.8399999737739563,-0.9700000286102295,-4.150000095367432,0.00201416015625,0.01751708984375,1.03216552734375,32.36000061035156,0.0,19.0,0.0068206787109375,0.00531005859375,Closing,0.0,0.0,-673.0,0.0,0.0,0.0,0.0,0.0,
3.010245999999999,0.0,0.0,-8.0,0.0,0.0,0.0,0.0,0.25,0.759277266,0.01,0.0,0.0,0.0,0.0,-0.0,0.0,0.25,0.45166011,0.01,0.0,-2.0,0.0,0.0,0.0,0.0,0.125,3.292235991,0.01,0.0,1.0,0.0,0.0,-0.0,0.0,0.25,1.549072107,0.01,0.0,0.8299999833106995,-0.9700000286102295,-4.150000095367432,0.00494384765625,0.0521240234375,1.00848388671875,32.36000061035156,0.0,19.0,0.00701904296875,0.0055694580078125,Closing,0.0,0.0,-673.0,0.0,0.0,0.0,0.0,0.0,
3.032591999999997,0.0,0.0,-8.0,0.0,0.0,0.0,0.0,0.25,0.759277266,0.01,0.0,0.0,0.0,0.0,-0.0,0.0,0.25,0.45166011,0.01,0.0,-2.0,0.0,0.0,0.0,0.0,0.125,3.292235991,0.01,0.0,1.0,0.0,0.0,-0.0,0.0,0.25,1.547851404,0.01,0.0,0.8299999833106995,-0.9599999785423279,-4.150000095367432,-0.02008056640625,0.04437255859375,1.01806640625,32.36000061035156,0.0,-5.0,0.00701904296875,0.00604248046875,Closing,0.0,0.0,-673.0,0.0,0.0,0.0,0.0,0.0,
3.0565200000000003,0.0,0.0,-8.0,0.0,0.0,0.0,0.0,0.25,0.75683586,0.01,0.0,0.0,0.0,0.0,-0.0,0.0,0.25,0.45410151600000004,0.01,0.0,-2.0,0.0,0.0,0.0,0.0,0.125,3.293456694,0.01,0.0,1.0,0.0,0.0,-0.0,0.0,0.25,1.549072107,0.01,0.0,0.8299999833106995,-0.9599999785423279,-4.150000095367432,-0.02227783203125,0.03662109375,1.0101318359375,32.36000061035156,0.0,-6.0,0.00701904296875,0.0063323974609375,Closing,0.0,0.0,-673.0,0.0,0.0,0.0,0.0,0.0,
3.082905999999999,0.0,0.0,-8.0,0.0,0.0,0.0,0.0,0.25,0.759277266,0.01,0.0,0.0,0.0,0.0,-0.0,0.0,0.25,0.45288081300000005,0.01,0.0,-2.0,0.0,0.0,0.0,0.0,0.125,3.293456694,0.01,0.0,1.0,0.0,0.0,-0.0,0.0,0.25,1.549072107,0.01,0.0,0.8399999737739563,-0.9599999785423279,-4.150000095367432,-0.0439453125,-0.0057373046875,1.01446533203125,32.36000061035156,0.0,-25.0,0.006988525390625,0.0069427490234375,Closing,0.0,0.0,-673.0,0.0,0.0,0.0,0.0,0.0,
3.1091939999999996,0.0,0.0,-8.0,0.0,0.0,0.0,0.0,0.25,0.74462883,0.01,0.0,0.0,0.0,0.0,-0.0,0.0,0.25,0.45288081300000005,0.01,0.0,-2.0,0.0,0.0,0.0,0.0,0.125,3.293456694,0.01,0.0,1.0,0.0,0.0,-0.0,0.0,0.25,1.549072107,0.01,0.0,0.8500000238418579,-0.9599999785423279,-4.150000095367432,-0.04119873046875,-0.025634765625,1.029296875,32.36000061035156,0.0,-20.0,0.006927490234375,0.0072174072265625,Closing,0.0,0.0,-673.0,0.0,0.0,0.0,0.0,0.0,
3.151534,0.0,0.0,-8.0,0.0,0.0,0.0,0.0,0.25,0.760497969,0.01,0.0,0.0,0.0,0.0,-0.0,0.0,0.25,0.45288081300000005,0.01,0.0,-2.0,0.0,0.0,0.0,0.0,0.125,3.292235991,0.01,0.0,1.0,0.0,0.0,-0.0,0.0,0.25,1.5502928100000002,0.01,0.0012207029999995456,0.8500000238418579,-0.9599999785423279,-4.150000095367432,-0.01953125,-0.00830078125,1.031494140625,32.36000061035156,0.0,0.0,0.0064697265625,0.0076446533203125,Closing,0.0,0.0,-673.0,0.0,0.0,0.0,0.0,0.0,
3.171958999999999,0.0,0.0,-8.0,0.0,0.0,0.0,0.0,0.25,0.759277266,0.01,0.0,0.0,0.0,0.0,-0.0,0.0,0.25,0.45166011,0.01,0.0,-2.0,0.0,0.0,0.0,0.0,0.125,3.293456694,0.01,0.0,1.0,0.0,0.0,-0.0,0.0,0.25,1.549072107,0.01,0.0012207029999995456,0.8500000238418579,-0.9599999785423279,-4.150000095367432,-0.00885009765625,0.01025390625,1.035400390625,32.36000061035156,0.0,8.0,0.0064697265625,0.007659912109375,Closing,0.0,0.0,-673.0,0.0,0.0,0.0,0.0,0.0,
3.2162079999999986,0.0,0.0,-8.0,0.0,0.0,0.0,0.0,0.25,0.759277266,0.01,0.0,0.0,0.0,0.0,-0.0,0.0,0.25,0.45288081300000005,0.01,0.0,-2.0,0.0,0.0,0.0,0.0,0.125,3.293456694,0.01,0.0,1.0,0.0,0.0,-0.0,0.0,0.25,1.5515135130000002,0.01,-0.0012207029999995456,0.8399999737739563,-0.9599999785423279,-4.150000095367432,0.0064697265625,0.055419921875,1.03265380859375,32.33000183105469,0.0,20.0,0.006561279296875,0.007781982421875,Closing,0.0,0.0,-673.0,0.0,0.0,0.0,0.0,0.0,
3.236971999999998,0.0,0.0,-8.0,0.0,0.0,0.0,0.0,0.25,0.759277266,0.01,0.0,0.0,0.0,0.0,-0.0,0.0,0.25,0.45166011,0.01,0.0,-2.0,0.0,0.0,0.0,0.0,0.125,3.292235991,0.01,0.0,1.0,0.0,0.0,-0.0,0.0,0.25,1.549072107,0.01,0.0012207029999995456,0.8299999833106995,-0.9700000286102295,-4.150000095367432,8.544921875E-4,0.0628662109375,1.016845703125,32.33000183105469,0.0,-2.0,0.00665283203125,0.008392333984375,Closing,0.0,0.0,-673.0,0.0,0.0,0.0,0.0,0.0,
3.2891309999999976,0.0,0.0,-8.0,0.0,0.0,0.0,0.0,0.25,0.760497969,0.01,0.0,0.0,0.0,0.0,-0.0,0.0,0.25,0.45166011,0.01,0.0,-2.0,0.0,0.0,0.0,0.0,0.125,3.291015288,0.01,0.0,1.0,0.0,0.0,-0.0,0.0,0.25,1.549072107,0.01,0.0,0.8399999737739563,-0.9599999785423279,-4.150000095367432,-0.02532958984375,0.0186767578125,1.00836181640625,32.33000183105469,0.0,-8.0,0.00665283203125,0.009002685546875,Closing,0.0,0.0,-673.0,0.0,0.0,0.0,0.0,0.0,
3.311868999999999,0.0,0.0,-8.0,0.0,0.0,0.0,0.0,0.25,0.759277266,0.01,0.0,0.0,0.0,0.0,-0.0,0.0,0.25,0.45166011,0.01,0.0,-2.0,0.0,0.0,0.0,0.0,0.125,3.293456694,0.01,0.0,1.0,0.0,0.0,-0.0,0.0,0.25,1.549072107,0.01,0.0,0.8500000238418579,-0.9599999785423279,-4.150000095367432,-0.03399658203125,-0.0191650390625,1.03363037109375,32.33000183105469,0.0,-14.0,0.0065765380859375,0.0095367431640625,Closing,0.0,0.0,-673.0,0.0,0.0,0.0,0.0,0.0,
3.344850999999999,0.0,0.0,-8.0,0.0,0.0,0.0,0.0,0.25,0.759277266,0.01,0.0,0.0,0.0,0.0,-0.0,0.0,0.25,0.45288081300000005,0.01,0.0,-2.0,0.0,0.0,0.0,0.0,0.125,3.292235991,0.01,0.0,1.0,0.0,0.0,-0.0,0.0,0.25,1.549072107,0.01,0.0,0.8500000238418579,-0.949999988079071,-4.150000095367432,-0.033447265625,-0.0328369140625,1.03668212890625,32.33000183105469,0.0,-12.0,0.0065155029296875,0.0098876953125,Closing,0.0,0.0,-673.0,0.0,0.0,0.0,0.0,0.0,
3.3747369999999974,0.0,0.0,-8.0,0.0,0.0,0.0,0.0,0.25,0.759277266,0.01,0.0,0.0,0.0,0.0,-0.0,0.0,0.25,0.45166011,0.01,0.0,-2.0,0.0,0.0,0.0,0.0,0.125,3.292235991,0.01,0.0,1.0,0.0,0.0,-0.0,0.0,0.25,1.549072107,0.01,0.0,0.8399999737739563,-0.949999988079071,-4.150000095367432,0.0037841796875,0.015625,1.0264892578125,32.33000183105469,0.0,20.0,0.00653076171875,0.0100250244140625,Closing,0.0,0.0,-673.0,0.0,0.0,0.0,0.0,0.0,
3.419592999999997,0.0,0.0,-8.0,0.0,0.0,0.0,0.0,0.25,0.760497969,0.01,0.0,0.0,0.0,0.0,-0.0,0.0,0.25,0.45288081300000005,0.01,0.0,-2.0,0.0,0.0,0.0,0.0,0.125,3.292235991,0.01,0.0,1.0,0.0,0.0,-0.0,0.0,0.25,1.549072107,0.01,0.0,0.8399999737739563,-0.9599999785423279,-4.150000095367432,0.01922607421875,0.0364990234375,0.99139404296875,32.33000183105469,0.0,34.0,0.006683349609375,0.0101470947265625,Closing,0.0,0.0,-673.0,0.0,0.0,0.0,0.0,0.0,
3.440936999999998,0.0,0.0,-8.0,0.0,0.0,0.0,0.0,0.25,0.759277266,0.01,0.0,0.0,0.0,0.0,-0.0,0.0,0.25,0.457763625,0.01,0.0,-2.0,0.0,0.0,0.0,0.0,0.125,3.293456694,0.01,0.0,1.0,0.0,0.0,-0.0,0.0,0.25,1.549072107,0.01,-0.0012207029999995456,0.8299999833106995,-0.9700000286102295,-4.150000095367432,0.0096435546875,0.0418701171875,1.01995849609375,32.33000183105469,0.0,24.0,0.006805419921875,0.01025390625,Closing,0.0,0.0,-673.0,0.0,0.0,0.0,0.0,0.0,
3.470022999999997,0.0,0.0,-8.0,0.0,0.0,0.0,0.0,0.25,0.760497969,0.01,0.0,0.0,0.0,0.0,-0.0,0.0,0.25,0.45166011,0.01,0.0,-2.0,0.0,0.0,0.0,0.0,0.125,3.293456694,0.01,0.0,1.0,0.0,0.0,-0.0,0.0,0.25,1.549072107,0.01,-0.0012207029999995456,0.8299999833106995,-0.9599999785423279,-4.150000095367432,-0.0084228515625,0.05218505859375,0.9974365234375,32.33000183105469,0.0,5.0,0.0069580078125,0.010650634765625,Closing,0.0,0.0,-673.0,0.0,0.0,0.0,0.0,0.0,
3.504179,0.0,0.0,-8.0,0.0,0.0,0.0,0.0,0.25,0.760497969,0.01,0.0,0.0,0.0,0.0,-0.0,0.0,0.25,0.45288081300000005,0.01,0.0,-2.0,0.0,0.0,0.0,0.0,0.125,3.294677397,0.01,0.0,1.0,0.0,0.0,-0.0,0.0,0.25,1.549072107,0.01,0.0,0.8299999833106995,-0.9599999785423279,-4.150000095367432,-0.01776123046875,0.04132080078125,1.00909423828125,32.33000183105469,0.0,-2.0,0.0069580078125,0.0111846923828125,Closing,0.0,0.0,-673.0,0.0,0.0,0.0,0.0,0.0,
3.5281219999999993,0.0,0.0,-8.0,0.0,0.0,0.0,0.0,0.25,0.760497969,0.01,0.0,0.0,0.0,0.0,-0.0,0.0,0.25,0.45166011,0.01,0.0,-2.0,0.0,0.0,0.0,0.0,0.125,3.293456694,0.01,0.0,1.0,0.0,0.0,-0.0,0.0,0.25,1.544189295,0.01,0.0,0.8399999737739563,-0.949999988079071,-4.159999847412109,-0.0440673828125,-0.02593994140625,1.01336669921875,32.33000183105469,0.0,-24.0,0.00689697265625,0.01171875,Closing,0.0,0.0,-673.0,0.0,0.0,0.0,0.0,0.0,
3.554125,0.0,0.0,-8.0,0.0,0.0,0.0,0.0,0.25,0.759277266,0.01,0.0,0.0,0.0,0.0,-0.0,0.0,0.25,0.45288081300000005,0.01,0.0,-2.0,0.0,0.0,0.0,0.0,0.125,3.293456694,0.01,0.0,1.0,0.0,0.0,-0.0,0.0,0.25,1.549072107,0.01,0.0,0.8399999737739563,-0.949999988079071,-4.159999847412109,-0.03948974609375,-0.02850341796875,1.04071044921875,32.33000183105469,0.0,-18.0,0.0066986083984375,0.0120697021484375,Closing,0.0,0.0,-673.0,0.0,0.0,0.0,0.0,0.0,
3.5855419999999976,0.0,0.0,-8.0,0.0,0.0,0.0,0.0,0.25,0.760497969,0.01,0.0,0.0,0.0,0.0,-0.0,0.0,0.25,0.45288081300000005,0.01,0.0,-2.0,0.0,0.0,0.0,0.0,0.125,3.292235991,0.01,0.0,1.0,0.0,0.0,-0.0,0.0,0.25,1.546630701,0.01,0.0,0.8500000238418579,-0.949999988079071,-4.159999847412109,-0.0052490234375,0.008544921875,1.025146484375,32.33000183105469,0.0,12.0,0.006561279296875,0.012237548828125,Closing,0.0,0.0,-673.0,0.0,0.0,0.0,0.0,0.0,
3.629985999999997,0.0,0.0,-8.0,0.0,0.0,0.0,0.0,0.25,0.7641600780000001,0.01,0.0,0.0,0.0,0.0,-0.0,0.0,0.25,0.45288081300000005,0.01,0.0,-2.0,0.0,0.0,0.0,0.0,0.125,3.292235991,0.01,0.0,1.0,0.0,0.0,-0.0,0.0,0.25,1.549072107,0.01,0.0,0.8399999737739563,-0.949999988079071,-4.159999847412109,0.00323486328125,0.03179931640625,1.02874755859375,32.33000183105469,0.0,21.0,0.006591796875,0.0123443603515625,Closing,0.0,0.0,-673.0,0.0,0.0,0.0,0.0,0.0,
3.669739999999998,0.0,0.0,-8.0,0.0,0.0,0.0,0.0,0.25,0.7653807810000001,0.01,0.0,0.0,0.0,0.0,-0.0,0.0,0.25,0.45288081300000005,0.01,0.0,-2.0,0.0,0.0,0.0,0.0,0.125,3.293456694,0.01,0.0,1.0,0.0,0.0,-0.0,0.0,0.25,1.549072107,0.01,0.0,0.8299999833106995,-0.949999988079071,-4.159999847412109,-3.0517578125E-4,0.06890869140625,1.0052490234375,32.33000183105469,0.0,12.0,0.0067291259765625,0.0126190185546875,Closing,0.0,0.0,-673.0,0.0,0.0,0.0,0.0,0.0,
3.6950929999999973,0.0,0.0,-8.0,0.0,0.0,0.0,0.0,0.25,0.761718672,0.01,0.0,0.0,0.0,0.0,-0.0,0.0,0.25,0.45288081300000005,0.01,0.0,-2.0,0.0,0.0,0.0,0.0,0.125,3.292235991,0.01,0.0,1.0,0.0,0.0,-0.0,0.0,0.25,1.549072107,0.01,0.0,0.8299999833106995,-0.949999988079071,-4.159999847412109,-0.01361083984375,0.0281982421875,1.01519775390625,32.349998474121094,0.0,2.0,0.0067291259765625,0.01312255859375,Closing,0.0,0.0,-673.0,0.0,0.0,0.0,0.0,0.0,
3.715091,0.0,0.0,-8.0,0.0,0.0,0.0,0.0,0.25,0.760497969,0.01,0.0,0.0,0.0,0.0,-0.0,0.0,0.25,0.45166011,0.01,0.0,-2.0,0.0,0.0,0.0,0.0,0.125,3.293456694,0.01,0.0,1.0,0.0,0.0,-0.0,0.0,0.25,1.549072107,0.01,0.0,0.8500000238418579,-0.949999988079071,-4.159999847412109,-0.04058837890625,-0.0111083984375,1.025146484375,32.349998474121094,0.0,-21.0,0.0065765380859375,0.014251708984375,Closing,0.0,0.0,-673.0,0.0,0.0,0.0,0.0,0.0,
3.810580999999998,0.0,0.0,-8.0,0.0,0.0,0.0,0.0,0.25,0.755615157,0.01,0.0,0.0,0.0,0.0,-0.0,0.0,0.25,0.45288081300000005,0.01,0.0,-2.0,0.0,0.0,0.0,0.0,0.125,3.292235991,0.01,0.0,1.0,0.0,0.0,-0.0,0.0,0.25,1.549072107,0.01,0.0,0.8500000238418579,-0.949999988079071,-4.159999847412109,-0.02044677734375,-0.0028076171875,1.02197265625,32.349998474121094,0.0,-2.0,0.0063018798828125,0.014617919921875,Closing,0.0,0.0,-673.0,0.0,0.0,0.0,0.0,0.0,
3.8296139999999976,0.0,0.0,-8.0,0.0,0.0,0.0,0.0,0.25,0.759277266,0.01,0.0,0.0,0.0,0.0,-0.0,0.0,0.25,0.45288081300000005,0.01,0.0,-2.0,0.0,0.0,0.0,0.0,0.125,3.292235991,0.01,0.0,1.0,0.0,0.0,-0.0,0.0,0.25,1.549072107,0.01,0.0,0.8500000238418579,-0.949999988079071,-4.159999847412109,-0.00787353515625,0.00885009765625,1.034423828125,32.349998474121094,0.0,9.0,0.0063018798828125,0.014617919921875,Closing,0.0,0.0,-673.0,0.0,0.0,0.0,0.0,0.0,
3.861482,0.0,0.0,-8.0,0.0,0.0,0.0,0.0,0.25,0.760497969,0.01,0.0,0.0,0.0,0.0,-0.0,0.0,0.25,0.45288081300000005,0.01,0.0,-2.0,0.0,0.0,0.0,0.0,0.125,3.292235991,0.01,0.0,1.0,0.0,0.0,-0.0,0.0,0.25,1.549072107,0.01,0.0,0.8399999737739563,-0.949999988079071,-4.159999847412109,0.00555419921875,0.04840087890625,1.03564453125,32.349998474121094,0.0,20.0,0.0063934326171875,0.014739990234375,Closing,0.0,0.0,-673.0,0.0,0.0,0.0,0.0,0.0,
3.8905629999999984,0.0,0.0,-8.0,0.0,0.0,0.0,0.0,0.25,0.760497969,0.01,0.0,0.0,0.0,0.0,-0.0,0.0,0.25,0.45288081300000005,0.01,0.0,-2.0,0.0,0.0,0.0,0.0,0.125,3.292235991,0.01,0.0,1.0,0.0,0.0,-0.0,0.0,0.25,1.5515135130000002,0.01,0.0,0.8399999737739563,-0.9599999785423279,-4.159999847412109,-0.01263427734375,0.04876708984375,1.016357421875,32.349998474121094,0.0,2.0,0.0064849853515625,0.0150604248046875,Closing,0.0,0.0,-673.0,0.0,0.0,0.0,0.0,0.0,
3.911958999999999,0.0,0.0,-8.0,0.0,0.0,0.0,0.0,0.25,0.759277266,0.01,0.0,0.0,0.0,0.0,-0.0,0.0,0.25,0.45166011,0.01,0.0,-2.0,0.0,0.0,0.0,0.0,0.125,3.2958981,0.01,0.0,1.0,0.0,0.0,-0.0,0.0,0.25,1.5502928100000002,0.01,0.0,0.8399999737739563,-0.9599999785423279,-4.159999847412109,-0.02099609375,0.028076171875,1.01849365234375,32.349998474121094,0.0,-4.0,0.0064849853515625,0.015533447265625,Closing,0.0,0.0,-673.0,0.0,0.0,0.0,0.0,0.0,
3.943610999999997,0.0,0.0,-8.0,0.0,0.0,0.0,0.0,0.25,0.760497969,0.01,0.0,0.0,0.0,0.0,-0.0,0.0,0.25,0.45288081300000005,0.01,0.0,-2.0,0.0,0.0,0.0,0.0,0.125,3.293456694,0.01,0.0,1.0,0.0,0.0,-0.0,0.0,0.25,1.549072107,0.01,0.0012207029999995456,0.8500000238418579,-0.949999988079071,-4.159999847412109,-0.04656982421875,-0.02166748046875,1.0277099609375,32.349998474121094,0.0,-26.0,0.00640869140625,0.016021728515625,Closing,0.0,0.0,-673.0,0.0,0.0,0.0,0.0,0.0,
3.9690380000000003,0.0,0.0,-8.0,0.0,0.0,0.0,0.0,0.25,0.760497969,0.01,0.0,0.0,0.0,0.0,-0.0,0.0,0.25,0.45288081300000005,0.01,0.0,-2.0,0.0,0.0,0.0,0.0,0.125,3.292235991,0.01,0.0,1.0,0.0,0.0,-0.0,0.0,0.25,1.5527342160000002,0.01,0.0012207029999995456,0.8500000238418579,-0.949999988079071,-4.159999847412109,-0.03424072265625,-0.01898193359375,1.04913330078125,32.349998474121094,0.0,-14.0,0.006317138671875,0.0161895751953125,Closing,0.0,0.0,-673.0,0.0,0.0,0.0,0.0,0.0,
4.010663,0.0,0.0,-8.0,0.0,0.0,0.0,0.0,0.25,0.759277266,0.01,0.0,0.0,0.0,0.0,-0.0,0.0,0.25,0.45166011,0.01,0.0,-2.0,0.0,0.0,0.0,0.0,0.125,3.293456694,0.01,0.0,1.0,0.0,0.0,-0.0,0.0,0.25,1.549072107,0.01,0.0,0.8500000238418579,-0.949999988079071,-4.159999847412109,-0.01885986328125,-0.01019287109375,1.02716064453125,32.349998474121094,0.0,0.0,0.006317138671875,0.016387939453125,Closing,0.0,0.0,-673.0,0.0,0.0,0.0,0.0,0.0,
4.029511999999999,0.0,0.0,-8.0,0.0,0.0,0.0,0.0,0.25,0.760497969,0.01,0.0,0.0,0.0,0.0,-0.0,0.0,0.25,0.45166011,0.01,0.0,-2.0,0.0,0.0,0.0,0.0,0.125,3.292235991,0.01,0.0,1.0,0.0,0.0,-0.0,0.0,0.25,1.549072107,0.01,0.0,0.8500000238418579,-0.949999988079071,-4.159999847412109,-8.544921875E-4,0.0091552734375,1.02294921875,32.349998474121094,0.0,16.0,0.006317138671875,0.0163726806640625,Closing,0.0,0.0,-673.0,0.0,0.0,0.0,0.0,0.0,
4.063842999999997,0.0,0.0,-8.0,0.0,0.0,0.0,0.0,0.25,0.759277266,0.01,0.0,0.0,0.0,0.0,-0.0,0.0,0.25,0.450439407,0.01,0.0,-2.0,0.0,0.0,0.0,0.0,0.125,3.292235991,0.01,0.0,1.0,0.0,0.0,-0.0,0.0,0.25,1.549072107,0.01,-0.0012207029999995456,0.8399999737739563,-0.9599999785423279,-4.159999847412109,0.00274658203125,0.04071044921875,1.02850341796875,32.349998474121094,0.0,18.0,0.0064849853515625,0.0164947509765625,Closing,0.0,0.0,-673.0,0.0,0.0,0.0,0.0,0.0,
4.0908669999999985,0.0,0.0,-8.0,0.0,0.0,0.0,0.0,0.25,0.759277266,0.01,0.0,0.0,0.0,0.0,-0.0,0.0,0.25,0.45288081300000005,0.01,0.0,-2.0,0.0,0.0,0.0,0.0,0.125,3.293456694,0.01,0.0,1.0,0.0,0.0,-0.0,0.0,0.25,1.549072107,0.01,0.0,0.8399999737739563,-0.9599999785423279,-4.159999847412109,-5.4931640625E-4,0.06549072265625,1.01385498046875,32.349998474121094,0.0,12.0,0.0064849853515625,0.016632080078125,Closing,0.0,0.0,-673.0,0.0,0.0,0.0,0.0,0.0,
4.112407999999999,0.0,0.0,-8.0,0.0,0.0,0.0,0.0,0.25,0.755615157,0.01,0.0,0.0,0.0,0.0,-0.0,0.0,0.25,0.45410151600000004,0.01,0.0,-2.0,0.0,0.0,0.0,0.0,0.125,3.292235991,0.01,0.0,1.0,0.0,0.0,-0.0,0.0,0.25,1.545409998,0.01,0.0,0.8399999737739563,-0.949999988079071,-4.159999847412109,-0.0286865234375,0.0330810546875,1.0135498046875,32.349998474121094,0.0,-12.0,0.0064849853515625,0.0172882080078125,Closing,0.0,0.0,-673.0,0.0,0.0,0.0,0.0,0.0,
4.153403999999998,0.0,0.0,-8.0,0.0,0.0,0.0,0.0,0.25,0.755615157,0.01,0.0,0.0,0.0,0.0,-0.0,0.0,0.25,0.45166011,0.01,0.0,-2.0,0.0,0.0,0.0,0.0,0.125,3.293456694,0.01,0.0,1.0,0.0,0.0,-0.0,0.0,0.25,1.549072107,0.01,0.0,0.8500000238418579,-0.949999988079071,-4.159999847412109,-0.03765869140625,-0.0142822265625,1.0264892578125,32.349998474121094,0.0,-18.0,0.0063934326171875,0.0172576904296875,Closing,0.0,0.0,-673.0,0.0,0.0,0.0,0.0,0.0,
4.172105999999999,0.0,0.0,-8.0,0.0,0.0,0.0,0.0,0.25,0.759277266,0.01,0.0,0.0,0.0,0.0,-0.0,0.0,0.25,0.45166011,0.01,0.0,-2.0,0.0,0.0,0.0,0.0,0.125,3.292235991,0.01,0.0,1.0,0.0,0.0,-0.0,0.0,0.25,1.549072107,0.01,0.0,0.8500000238418579,-0.949999988079071,-4.159999847412109,-0.0377197265625,-0.02398681640625,1.036865234375,32.349998474121094,0.0,-17.0,0.006317138671875,0.017181396484375,Closing,0.0,0.0,-673.0,0.0,0.0,0.0,0.0,0.0,
4.217420999999998,0.0,0.0,-8.0,0.0,0.0,0.0,0.0,0.25,0.759277266,0.01,0.0,0.0,0.0,0.0,-0.0,0.0,0.25,0.45288081300000005,0.01,0.0,-2.0,0.0,0.0,0.0,0.0,0.125,3.292235991,0.01,0.0,1.0,0.0,0.0,-0.0,0.0,0.25,1.549072107,0.01,0.0012207029999995456,0.8500000238418579,-0.949999988079071,-4.159999847412109,-0.0059814453125,-0.00262451171875,1.0341796875,32.36000061035156,0.0,12.0,0.006317138671875,0.0166015625,Closing,0.0,0.0,-673.0,0.0,0.0,0.0,0.0,0.0,
4.2393639999999975,0.0,0.0,-8.0,0.0,0.0,0.0,0.0,0.25,0.760497969,0.01,0.0,0.0,0.0,0.0,-0.0,0.0,0.25,0.45166011,0.01,0.0,-2.0,0.0,0.0,0.0,0.0,0.125,3.293456694,0.01,0.0,1.0,0.0,0.0,-0.0,0.0,0.25,1.549072107,0.01,0.0,0.8500000238418579,-0.9599999785423279,-4.159999847412109,0.00872802734375,0.04681396484375,1.038818359375,32.36000061035156,0.0,23.0,0.0064849853515625,0.0166778564453125,Closing,0.0,0.0,-673.0,0.0,0.0,0.0,0.0,0.0,
4.288663000000001,0.0,0.0,-8.0,0.0,0.0,0.0,0.0,0.25,0.760497969,0.01,0.0,0.0,0.0,0.0,-0.0,0.0,0.25,0.45166011,0.01,0.0,-2.0,0.0,0.0,0.0,0.0,0.125,3.293456694,0.01,0.0,1.0,0.0,0.0,-0.0,0.0,0.25,1.549072107,0.01,-0.0012207029999995456,0.8500000238418579,-0.9599999785423279,-4.159999847412109,0.0015869140625,0.04754638671875,1.0286865234375,32.36000061035156,0.0,16.0,0.0066070556640625,0.0167999267578125,Closing,0.0,0.0,-673.0,0.0,0.0,0.0,0.0,0.0,
4.312364999999998,0.0,0.0,-8.0,0.0,0.0,0.0,0.0,0.25,0.760497969,0.01,0.0,0.0,0.0,0.0,-0.0,0.0,0.25,0.45288081300000005,0.01,0.0,-2.0,0.0,0.0,0.0,0.0,0.125,3.288573882,0.01,0.0,1.0,0.0,0.0,-0.0,0.0,0.25,1.549072107,0.01,-0.0012207029999995456,0.8399999737739563,-0.949999988079071,-4.159999847412109,-0.0189208984375,0.03369140625,1.01800537109375,32.36000061035156,0.0,-3.0,0.0067596435546875,0.0171661376953125,Closing,0.0,0.0,-673.0,0.0,0.0,0.0,0.0,0.0,
4.345613999999998,0.0,0.0,-8.0,0.0,0.0,0.0,0.0,0.25,0.733642503,0.01,0.0,0.0,0.0,0.0,-0.0,0.0,0.25,0.45288081300000005,0.01,0.0,-2.0,0.0,0.0,0.0,0.0,0.125,3.293456694,0.01,0.0,1.0,0.0,0.0,-0.0,0.0,0.25,1.549072107,0.01,0.0,0.8500000238418579,-0.949999988079071,-4.159999847412109,-0.03472900390625,0.0147705078125,1.01263427734375,32.36000061035156,0.0,-17.0,0.0067596435546875,0.0176544189453125,Closing,0.0,0.0,-673.0,0.0,0.0,0.0,0.0,0.0,
4.366457999999999,0.0,0.0,-8.0,0.0,0.0,0.0,0.0,0.25,0.761718672,0.01,0.0,0.0,0.0,0.0,-0.0,0.0,0.25,0.450439407,0.01,0.0,-2.0,0.0,0.0,0.0,0.0,0.125,3.292235991,0.01,0.0,1.0,0.0,0.0,-0.0,0.0,0.25,1.546630701,0.01,0.0,0.8500000238418579,-0.949999988079071,-4.159999847412109,-0.04345703125,-0.01513671875,1.0186767578125,32.36000061035156,0.0,-24.0,0.0067291259765625,0.01788330078125,Closing,0.0,0.0,-673.0,0.0,0.0,0.0,0.0,0.0,
4.392806,0.0,0.0,-8.0,0.0,0.0,0.0,0.0,0.25,0.759277266,0.01,0.0,0.0,0.0,0.0,-0.0,0.0,0.25,0.45288081300000005,0.01,0.0,-2.0,0.0,0.0,0.0,0.0,0.125,3.292235991,0.01,0.0,1.0,0.0,0.0,-0.0,0.0,0.25,1.5502928100000002,0.01,0.0,0.8500000238418579,-0.949999988079071,-4.159999847412109,-0.0426025390625,-0.02398681640625,1.0423583984375,32.36000061035156,0.0,-22.0,0.0065765380859375,0.0182037353515625,Closing,0.0,0.0,-673.0,0.0,0.0,0.0,0.0,0.0,
4.424491999999998,0.0,0.0,-8.0,0.0,0.0,0.0,0.0,0.25,0.7629393750000001,0.01,0.0,0.0,0.0,0.0,-0.0,0.0,0.25,0.45288081300000005,0.01,0.0,-2.0,0.0,0.0,0.0,0.0,0.125,3.292235991,0.01,0.0,1.0,0.0,0.0,-0.0,0.0,0.25,1.549072107,0.01,0.0,0.8500000238418579,-0.949999988079071,-4.150000095367432,-0.0155029296875,-0.0048828125,1.0267333984375,32.36000061035156,0.0,3.0,0.0063323974609375,0.018310546875,Closing,0.0,0.0,-673.0,0.0,0.0,0.0,0.0,0.0,
4.443147999999997,0.0,0.0,-8.0,0.0,0.0,0.0,0.0,0.25,0.760497969,0.01,0.0,0.0,0.0,0.0,-0.0,0.0,0.25,0.45288081300000005,0.01,0.0,-2.0,0.0,0.0,0.0,0.0,0.125,3.293456694,0.01,0.0,1.0,0.0,0.0,-0.0,0.0,0.25,1.545409998,0.01,0.0,0.8500000238418579,-0.949999988079071,-4.150000095367432,0.00860595703125,0.0421142578125,1.0181884765625,32.36000061035156,0.0,23.0,0.0063629150390625,0.0183563232421875,Closing,0.0,0.0,-673.0,0.0,0.0,0.0,0.0,0.0,
4.4746049999999995,0.0,0.0,-8.0,0.0,0.0,0.0,0.0,0.25,0.760497969,0.01,0.0,0.0,0.0,0.0,-0.0,0.0,0.25,0.450439407,0.01,0.0,-2.0,0.0,0.0,0.0,0.0,0.125,3.293456694,0.01,0.0,1.0,0.0,0.0,-0.0,0.0,0.25,1.5502928100000002,0.01,0.0,0.8500000238418579,-0.9599999785423279,-4.150000095367432,0.00628662109375,0.040771484375,1.02789306640625,32.36000061035156,0.0,21.0,0.0065155029296875,0.0185394287109375,Closing,0.0,0.0,-673.0,0.0,0.0,0.0,0.0,0.0,
4.504639999999999,0.0,0.0,-8.0,0.0,0.0,0.0,0.0,0.25,0.758056563,0.01,0.0,0.0,0.0,0.0,-0.0,0.0,0.25,0.45288081300000005,0.01,0.0,-2.0,0.0,0.0,0.0,0.0,0.125,3.292235991,0.01,0.0,1.0,0.0,0.0,-0.0,0.0,0.25,1.549072107,0.01,0.0,0.8399999737739563,-0.9599999785423279,-4.150000095367432,-0.00189208984375,0.057373046875,1.0032958984375,32.36000061035156,0.0,11.0,0.006622314453125,0.018707275390625,Closing,0.0,0.0,-673.0,0.0,0.0,0.0,0.0,0.0,
4.523732,0.0,0.0,-8.0,0.0,0.0,0.0,0.0,0.25,0.759277266,0.01,0.0,0.0,0.0,0.0,-0.0,0.0,0.25,0.45288081300000005,0.01,0.0,-2.0,0.0,0.0,0.0,0.0,0.125,3.293456694,0.01,0.0,1.0,0.0,0.0,-0.0,0.0,0.25,1.546630701,0.01,0.0,0.8500000238418579,-0.9599999785423279,-4.150000095367432,-0.01397705078125,0.0413818359375,1.01324462890625,32.36000061035156,0.0,1.0,0.006744384765625,0.0191497802734375,Closing,0.0,0.0,-673.0,0.0,0.0,0.0,0.0,0.0,
4.542544999999998,0.0,0.0,-8.0,0.0,0.0,0.0,0.0,0.25,0.761718672,0.01,0.0,0.0,0.0,0.0,-0.0,0.0,0.25,0.45288081300000005,0.01,0.0,-2.0,0.0,0.0,0.0,0.0,0.125,3.292235991,0.01,0.0,1.0,0.0,0.0,-0.0,0.0,0.25,1.549072107,0.01,0.0,0.8500000238418579,-0.949999988079071,-4.150000095367432,-0.03369140625,0.02203369140625,1.00714111328125,32.36000061035156,0.0,-17.0,0.006744384765625,0.0194091796875,Closing,0.0,0.0,-673.0,0.0,0.0,0.0,0.0,0.0,
4.565097999999998,0.0,0.0,-8.0,0.0,0.0,0.0,0.0,0.25,0.786132732,0.01,0.0,0.0,0.0,0.0,-0.0,0.0,0.25,0.45288081300000005,0.01,0.0,-2.0,0.0,0.0,0.0,0.0,0.125,3.293456694,0.01,0.0,1.0,0.0,0.0,-0.0,0.0,0.25,1.547851404,0.01,0.0,0.8500000238418579,-0.949999988079071,-4.150000095367432,-0.04461669921875,-0.01416015625,1.009033203125,32.36000061035156,0.0,-25.0,0.0066680908203125,0.0198516845703125,Closing,0.0,0.0,-673.0,0.0,0.0,0.0,0.0,0.0,
4.607976999999999,0.0,0.0,-8.0,0.0,0.0,0.0,0.0,0.25,0.760497969,0.01,0.0,0.0,0.0,0.0,-0.0,0.0,0.25,0.45410151600000004,0.01,0.0,-2.0,0.0,0.0,0.0,0.0,0.125,3.293456694,0.01,0.0,1.0,0.0,0.0,-0.0,0.0,0.25,1.549072107,0.01,0.0,0.8600000143051147,-0.949999988079071,-4.150000095367432,-0.034912109375,-0.0308837890625,1.0360107421875,32.36000061035156,0.0,-14.0,0.0064697265625,0.020111083984375,Closing,0.0,0.0,-673.0,0.0,0.0,0.0,0.0,0.0,
4.628688999999999,0.0,0.0,-8.0,0.0,0.0,0.0,0.0,0.25,0.760497969,0.01,0.0,0.0,0.0,0.0,-0.0,0.0,0.25,0.45166011,0.01,0.0,-2.0,0.0,0.0,0.0,0.0,0.125,3.293456694,0.01,0.0,1.0,0.0,0.0,-0.0,0.0,0.25,1.549072107,0.01,0.0,0.8500000238418579,-0.949999988079071,-4.150000095367432,-0.0042724609375,0.00665283203125,1.0223388671875,32.36000061035156,0.0,13.0,0.0063323974609375,0.0201873779296875,Closing,0.0,0.0,-673.0,0.0,0.0,0.0,0.0,0.0,
4.650983,0.0,0.0,-8.0,0.0,0.0,0.0,0.0,0.25,0.760497969,0.01,0.0,0.0,0.0,0.0,-0.0,0.0,0.25,0.45288081300000005,0.01,0.0,-2.0,0.0,0.0,0.0,0.0,0.125,3.292235991,0.01,0.0,1.0,0.0,0.0,-0.0,0.0,0.25,1.549072107,0.01,0.0,0.8500000238418579,-0.949999988079071,-4.150000095367432,0.0108642578125,0.04022216796875,1.02685546875,32.36000061035156,0.0,26.0,0.0063629150390625,0.0202178955078125,Closing,0.0,0.0,-673.0,0.0,0.0,0.0,0.0,0.0,
4.671905999999999,0.0,0.0,-8.0,0.0,0.0,0.0,0.0,0.25,0.760497969,0.01,0.0,0.0,0.0,0.0,-0.0,0.0,0.25,0.45166011,0.01,0.0,-2.0,0.0,0.0,0.0,0.0,0.125,3.292235991,0.01,0.0,1.0,0.0,0.0,-0.0,0.0,0.25,1.5527342160000002,0.01,0.0,0.8500000238418579,-0.949999988079071,-4.150000095367432,0.001953125,0.0435791015625,1.0306396484375,32.36000061035156,0.0,17.0,0.0065155029296875,0.020416259765625,Closing,0.0,0.0,-673.0,0.0,0.0,0.0,0.0,0.0,
4.705654999999999,0.0,0.0,-8.0,0.0,0.0,0.0,0.0,0.25,0.759277266,0.01,0.0,0.0,0.0,0.0,-0.0,0.0,0.25,0.45288081300000005,0.01,0.0,-2.0,0.0,0.0,0.0,0.0,0.125,3.292235991,0.01,0.0,1.0,0.0,0.0,-0.0,0.0,0.25,1.549072107,0.01,0.0,0.8500000238418579,-0.949999988079071,-4.150000095367432,-0.0194091796875,0.037841796875,1.0224609375,32.36000061035156,0.0,-3.0,0.0065155029296875,0.02081298828125,Closing,0.0,0.0,-673.0,0.0,0.0,0.0,0.0,0.0,
4.744386999999999,0.0,0.0,-8.0,0.0,0.0,0.0,0.0,0.25,0.760497969,0.01,0.0,0.0,0.0,0.0,-0.0,0.0,0.25,0.45288081300000005,0.01,0.0,-2.0,0.0,0.0,0.0,0.0,0.125,3.292235991,0.01,0.0,1.0,0.0,0.0,-0.0,0.0,0.25,1.549072107,0.01,0.0,0.8500000238418579,-0.949999988079071,-4.159999847412109,-0.0469970703125,-0.00933837890625,1.01727294921875,32.34000015258789,0.0,-28.0,0.0064849853515625,0.0216064453125,Closing,0.0,0.0,-673.0,0.0,0.0,0.0,0.0,0.0,
4.767598999999998,0.0,0.0,-8.0,0.0,0.0,0.0,0.0,0.25,0.760497969,0.01,0.0,0.0,0.0,0.0,-0.0,0.0,0.25,0.45288081300000005,0.01,0.0,-2.0,0.0,0.0,0.0,0.0,0.125,3.293456694,0.01,0.0,1.0,0.0,0.0,-0.0,0.0,0.25,1.549072107,0.01,0.0,0.8500000238418579,-0.949999988079071,-4.150000095367432,-0.04156494140625,-0.00958251953125,1.0260009765625,32.34000015258789,0.0,-22.0,0.0064239501953125,0.021820068359375,Closing,0.0,0.0,-673.0,0.0,0.0,0.0,0.0,0.0,
