Time,ClimberA1,ClimberA2,FRpos,FRCurrent,FRspeed,FRsetpoint,FRApos,FRACurrent,FREncpos,FREncSetpoint,FREncSpeed,FLpos,FLCurrent,FLspeed,FLsetpoint,FLApos,FLACurrent,FLEncpos,FLEncSetpoint,FLEncSpeed,BRpos,BRCurrent,BRspeed,BRsetpoint,BRApos,BRACurrent,BREncpos,BREncSetpoint,BREncSpeed,BLpos,BLCurrent,BLspeed,BLsetpoint,BLApos,BLACurrent,BLEncpos,BLEncSetpoint,BLEncSpeed,navx_Pitch,navx_Roll,navx_Yaw,navx_XAcc,navx_YAcc,navx_ZAcc,navx_Temp,navx_Bar,navx_Alt,navx_XDis,navx_YDis,GearPlacerState,ShootOutputV,ShootOutputCurrent,ShootEncPos,ShootEncVelocity,ShootSpeed,ShootSetpoint,CarouselSetpoint,CarouselCurrent,
0.47456200000000537,0.0,0.0,15183.0,0.0,0.0,0.0,0.0,0.25,0.8142089010000001,0.01,0.0,-8320.0,0.125,0.0,0.0,0.0,0.25,0.48706049700000004,0.01,0.0,-9019.0,0.0,0.0,0.0,0.0,0.0,3.3630367650000004,0.01,0.0,-3644.0,0.125,0.0,0.0,0.0,0.25,1.6809080310000002,0.01,0.0,0.07000000029802322,-1.0099999904632568,52.41999816894531,-0.01947021484375,6.7138671875E-4,1.026123046875,36.56999969482422,0.0,-1.0,1.89422607421875,-0.50030517578125,Closing,0.0,0.0,0.0,0.0,0.0,0.0,0.0,0.0,
0.5487260000000024,0.0,0.0,15183.0,0.75,0.0,840.0,0.0,0.125,0.812988198,0.01,0.0,-8320.0,0.625,0.0,-840.0,0.0,0.25,0.48706049700000004,0.01,0.0,-9019.0,0.75,0.0,840.0,0.0,0.0,3.3654781710000004,0.01,0.0012207029999999897,-3644.0,0.625,0.0,-840.0,0.0,0.25,1.6821287340000002,0.01,0.0,0.07000000029802322,-1.0099999904632568,52.43000030517578,-0.0028076171875,0.0079345703125,1.02264404296875,36.56999969482422,0.0,14.0,1.89422607421875,-0.50030517578125,Closing,0.0,0.0,0.0,0.0,0.0,0.0,0.0,0.125,
0.5948250000000044,0.0,0.0,15183.0,1.5,22.5,840.0,0.0,0.25,0.811767495,0.01,0.0,-8320.0,3.25,-45.0,-840.0,0.0,0.25,0.48706049700000004,0.01,0.0,-9019.0,1.5,45.0,840.0,0.0,0.0,3.3630367650000004,0.01,0.0012207029999999897,-3644.0,2.375,-22.5,-840.0,0.0,0.25,1.679687328,0.01,0.0,0.05000000074505806,-0.9200000166893005,52.45000076293945,0.133056640625,0.03558349609375,1.046630859375,36.56999969482422,0.0,118.0,1.894317626953125,-0.5003814697265625,Closing,0.0,0.0,0.0,0.0,0.0,0.0,0.0,0.125,
0.6402700000000041,0.0,0.0,15215.0,2.5,217.5,840.0,0.0,0.25,0.8142089010000001,0.01,0.0,-8334.0,5.5,-105.0,-840.0,0.0,0.25,0.490722606,0.01,0.0,-8990.0,2.375,187.5,840.0,0.0,0.0,3.3642574680000004,0.01,-0.0012207029999999897,-3652.0,3.25,-60.0,-840.0,0.0,0.25,1.6809080310000002,0.01,0.0,0.0,-0.6200000047683716,52.5099983215332,0.074951171875,0.0927734375,1.0576171875,36.56999969482422,0.0,126.0,1.8948516845703125,-0.5013275146484375,Closing,0.0,0.0,0.0,0.0,0.0,0.0,0.0,0.125,
0.6798709999999992,0.0,0.0,15215.0,3.0,247.5,840.0,0.0,0.25,0.812988198,0.01,0.0,-8334.0,6.0,-127.5,-840.0,0.0,0.25,0.49194330900000005,0.01,0.004882811999999959,-8990.0,2.625,270.0,840.0,0.0,0.0,3.3630367650000004,0.01,0.0012207029999999897,-3652.0,4.0,-97.5,-840.0,0.0,0.25,1.6809080310000002,0.01,0.0,0.05000000074505806,-0.4099999964237213,52.52000045776367,0.04638671875,0.033447265625,1.15826416015625,36.56999969482422,0.0,58.0,1.8962554931640625,-0.50341796875,Closing,0.0,0.0,0.0,0.0,0.0,0.0,0.0,0.125,
0.7091790000000038,0.0,0.0,15215.0,3.25,210.0,840.0,0.0,0.25,0.799560465,0.01,-0.004882811999999959,-8334.0,6.625,-142.5,-840.0,0.0,0.125,0.495605418,0.01,0.004882811999999959,-8990.0,2.5,255.0,840.0,0.0,0.0,3.3630367650000004,0.01,-0.0012207029999999897,-3652.0,4.5,-142.5,-840.0,0.0,0.25,1.6809080310000002,0.01,0.0,0.009999999776482582,-0.25999999046325684,52.54999923706055,0.14874267578125,0.04364013671875,0.93878173828125,36.56999969482422,0.0,127.0,1.8975067138671875,-0.5053863525390625,Closing,0.0,0.0,0.0,0.0,0.0,0.0,0.0,0.125,
0.7460500000000029,0.0,0.0,15244.0,4.375,202.5,840.0,0.0,0.125,0.795898356,0.01,-0.009765623999999917,-8370.0,8.125,-240.0,-840.0,0.0,0.125,0.495605418,0.01,0.0,-8960.0,4.0,180.0,840.0,0.0,0.0,3.3630367650000004,0.01,0.0,-3684.0,5.25,-217.5,-840.0,0.0,0.25,1.6809080310000002,0.01,0.0,0.05000000074505806,-0.05000000074505806,52.650001525878906,0.12200927734375,0.036865234375,1.10430908203125,36.56999969482422,0.0,103.0,1.900115966796875,-0.5093841552734375,Closing,0.0,0.0,0.0,0.0,0.0,0.0,0.0,0.125,
0.7988110000000015,0.0,0.0,15244.0,5.0,232.5,840.0,0.0,0.125,0.7922362470000001,0.01,-0.009765623999999917,-8370.0,8.375,-285.0,-840.0,0.0,0.125,0.49438471500000003,0.01,0.0,-8960.0,4.375,202.5,840.0,0.0,0.0,3.3642574680000004,0.01,0.0,-3684.0,5.5,-247.5,-840.0,0.0,0.25,1.678466625,0.01,0.0,0.05999999865889549,0.07999999821186066,52.709999084472656,0.19769287109375,-0.00286865234375,1.00421142578125,36.56999969482422,0.0,115.0,1.902374267578125,-0.51263427734375,Closing,0.0,0.0,0.0,0.0,0.0,0.0,0.0,0.125,
0.8537910000000047,0.0,0.0,15244.0,5.375,300.0,840.0,0.0,0.25,0.794677653,0.01,-0.003662109000000413,-8444.0,7.75,-412.5,-840.0,0.0,0.125,0.531005805,0.01,0.0,-8902.0,4.5,322.5,840.0,0.0,0.0,3.3642574680000004,0.01,0.0,-3748.0,5.5,-360.0,-840.0,0.0,0.25,1.6809080310000002,0.01,0.0,0.029999999329447746,0.41999998688697815,52.83000183105469,0.09002685546875,0.02886962890625,1.066650390625,36.56999969482422,0.0,72.0,1.908203125,-0.52105712890625,Closing,0.0,0.0,0.0,0.0,0.0,0.0,0.0,0.0,
0.8815430000000051,0.0,0.0,15308.0,5.5,390.0,840.0,0.0,0.25,0.794677653,0.01,0.0,-8444.0,7.5,-450.0,-840.0,0.0,0.125,0.572509707,0.01,0.006103514999999504,-8902.0,4.75,390.0,840.0,0.0,0.0,3.3642574680000004,0.01,0.0,-3748.0,5.5,-427.5,-840.0,0.0,0.25,1.6821287340000002,0.01,0.0,0.09000000357627869,0.6100000143051147,52.86000061035156,0.0867919921875,-0.01593017578125,1.1104736328125,36.56999969482422,0.0,30.0,1.91387939453125,-0.528839111328125,Closing,0.0,0.0,0.0,0.0,0.0,0.0,0.0,0.125,
0.9293480000000054,0.0,0.0,15308.0,5.375,465.0,840.0,0.0,0.125,0.787353435,0.01,0.0012207030000004337,-8444.0,7.375,-562.5,-840.0,0.0,0.125,0.57373041,0.01,0.03906249600000056,-8902.0,4.75,465.0,840.0,0.0,0.0,3.3630367650000004,0.01,0.0012207029999999897,-3748.0,5.375,-495.0,-840.0,0.0,0.25,1.6809080310000002,0.01,0.0,0.11999999731779099,0.7599999904632568,52.900001525878906,0.12506103515625,0.0936279296875,0.96148681640625,36.56999969482422,0.0,140.0,1.9180755615234375,-0.534393310546875,Closing,0.0,0.0,0.0,0.0,0.0,0.0,0.0,0.125,
0.9556059999999997,0.0,0.0,15404.0,5.125,532.5,840.0,0.0,0.125,0.794677653,0.01,-0.0012207030000004337,-8549.0,6.5,-630.0,-840.0,0.0,0.25,0.57373041,0.01,0.032958981000000165,-8809.0,4.375,547.5,840.0,0.0,0.0,3.3703609830000003,0.01,-0.0012207029999999897,-3843.0,5.0,-562.5,-840.0,0.0,0.25,1.6809080310000002,0.01,0.0,0.15000000596046448,0.9700000286102295,52.91999816894531,0.1553955078125,0.06451416015625,1.04437255859375,36.56999969482422,0.0,132.0,1.9281005859375,-0.546722412109375,Closing,0.0,0.0,0.0,0.0,0.0,0.0,0.0,0.125,
1.0072790000000023,0.0,0.0,15404.0,4.875,600.0,840.0,0.0,0.125,0.795898356,0.01,-0.0012207029999995456,-8549.0,6.125,-682.5,-840.0,0.0,0.25,0.578613222,0.01,-0.0012207030000004337,-8809.0,4.25,607.5,840.0,0.0,0.0,3.3630367650000004,0.01,0.0,-3843.0,4.875,-615.0,-840.0,0.0,0.25,1.6809080310000002,0.01,0.0,0.1599999964237213,1.090000033378601,52.880001068115234,0.20849609375,-0.04144287109375,0.87030029296875,36.56999969482422,0.0,80.0,1.9369964599609375,-0.5572357177734375,Closing,0.0,0.0,0.0,0.0,0.0,0.0,0.0,0.125,
1.0587819999999992,0.0,0.0,15404.0,4.375,667.5,840.0,0.0,0.125,0.794677653,0.01,0.0012207029999995456,-8549.0,5.75,-727.5,-840.0,0.0,0.25,0.574951113,0.01,0.006103515000000392,-8809.0,3.875,667.5,840.0,0.0,0.0,3.3630367650000004,0.01,0.0,-3843.0,4.75,-660.0,-840.0,0.0,0.25,1.6809080310000002,0.01,0.0,0.18000000715255737,1.1299999952316284,52.88999938964844,-0.03338623046875,0.05596923828125,1.1337890625,36.56999969482422,0.0,7.0,1.9433746337890625,-0.5648193359375,Closing,0.0,0.0,0.0,0.0,0.0,0.0,0.0,0.125,
1.089863000000005,0.0,0.0,15404.0,4.0,720.0,840.0,0.0,0.125,0.794677653,0.01,0.0012207029999995456,-8676.0,5.5,-750.0,-840.0,0.0,0.25,0.577392519,0.01,0.006103515000000392,-8692.0,3.875,690.0,840.0,0.0,0.0,3.3618160620000004,0.01,0.0,-3960.0,4.625,-690.0,-840.0,0.0,0.25,1.679687328,0.01,0.0,0.17000000178813934,1.2100000381469727,52.88999938964844,0.03759765625,0.0020751953125,0.85101318359375,36.56999969482422,0.0,11.0,1.949920654296875,-0.572479248046875,Closing,0.0,0.0,0.0,0.0,0.0,0.0,0.0,0.125,
1.1253859999999987,0.0,0.0,15525.0,3.625,765.0,840.0,0.0,0.125,0.797119059,0.01,-0.0012207029999995456,-8676.0,4.75,-802.5,-840.0,0.0,0.25,0.578613222,0.01,-0.0012207030000004337,-8692.0,3.625,735.0,840.0,0.0,0.0,3.3679195770000003,0.01,0.0,-3960.0,4.375,-735.0,-840.0,0.0,0.25,1.6809080310000002,0.01,0.0,0.15000000596046448,1.2599999904632568,52.88999938964844,0.1470947265625,0.07513427734375,0.844970703125,36.56999969482422,0.0,135.0,1.9598541259765625,-0.584075927734375,Closing,0.0,0.0,0.0,0.0,0.0,0.0,0.0,0.0,
1.152563000000002,0.0,0.0,15525.0,3.625,795.0,840.0,0.0,0.125,0.794677653,0.01,0.0012207029999995456,-8676.0,4.25,-832.5,-840.0,0.0,0.25,0.58593744,0.01,0.0012207030000004337,-8692.0,3.5,765.0,840.0,0.0,0.0,3.3679195770000003,0.01,0.004882811999999959,-3960.0,4.125,-772.5,-840.0,0.0,0.25,1.678466625,0.01,0.0,0.23999999463558197,1.25,52.869998931884766,0.04022216796875,-0.0042724609375,1.048583984375,36.56999969482422,0.0,3.0,1.970245361328125,-0.595794677734375,Closing,0.0,0.0,0.0,0.0,0.0,0.0,0.0,0.0,
1.2025380000000006,0.0,0.0,15525.0,3.375,802.5,840.0,0.0,0.125,0.794677653,0.01,0.0012207029999995456,-8676.0,4.25,-847.5,-840.0,0.0,0.25,0.57373041,0.01,0.0012207030000004337,-8692.0,3.25,802.5,840.0,0.0,0.0,3.3679195770000003,0.01,0.004882811999999959,-3960.0,3.875,-810.0,-840.0,0.0,0.25,1.67236311,0.01,0.0,0.2199999988079071,1.2999999523162842,52.869998931884766,0.04840087890625,0.07366943359375,1.1153564453125,36.56999969482422,0.0,69.0,1.9702911376953125,-0.6036834716796875,Closing,0.0,0.0,0.0,0.0,0.0,0.0,0.0,0.0,
1.2412510000000039,0.0,0.0,15660.0,3.125,840.0,840.0,0.0,0.125,0.798339762,0.01,0.0,-8815.0,3.875,-870.0,-840.0,0.0,0.25,0.565185489,0.01,-0.004882811999999959,-8562.0,3.25,825.0,840.0,0.0,0.0,3.3728023890000003,0.01,0.0,-4092.0,3.75,-840.0,-840.0,0.0,0.25,1.6845701400000002,0.01,0.0,0.18000000715255737,1.2100000381469727,52.86000061035156,0.147216796875,0.1297607421875,0.8260498046875,36.56999969482422,0.0,179.0,1.970367431640625,-0.6153106689453125,Closing,0.0,0.0,0.0,0.0,0.0,0.0,0.0,0.125,
1.2716200000000026,0.0,0.0,15660.0,2.875,862.5,840.0,0.0,0.25,0.7897948410000001,0.01,-0.0012207029999995456,-8815.0,3.5,-885.0,-840.0,0.0,0.25,0.57373041,0.01,0.0,-8562.0,3.125,832.5,840.0,0.0,0.0,3.3715816860000003,0.01,0.004882811999999959,-4092.0,3.5,-862.5,-840.0,0.0,0.25,1.679687328,0.01,0.0,0.1899999976158142,1.2400000095367432,52.849998474121094,0.06390380859375,0.11663818359375,0.87237548828125,36.56999969482422,0.0,117.0,1.9705810546875,-0.6268768310546875,Closing,0.0,0.0,0.0,0.0,0.0,0.0,0.0,0.125,
1.3295720000000002,0.0,0.0,15660.0,2.75,892.5,840.0,0.0,0.25,0.755615157,0.01,0.0,-8815.0,3.0,-907.5,-840.0,0.0,0.25,0.5688475980000001,0.01,0.0,-8427.0,3.125,810.0,840.0,0.0,0.0,3.3789059040000002,0.01,0.0,-4236.0,3.375,-877.5,-840.0,0.0,0.25,1.679687328,0.01,0.0,0.28999999165534973,1.1200000047683716,52.84000015258789,-0.11871337890625,-0.053955078125,1.208984375,36.52000045776367,0.0,-133.0,1.97064208984375,-0.6345062255859375,Closing,0.0,0.0,0.0,0.0,0.0,0.0,0.0,0.125,
1.3576290000000009,0.0,0.0,15807.0,2.5,915.0,840.0,0.0,0.25,0.794677653,0.01,0.0012207029999995456,-8964.0,2.75,-915.0,-840.0,0.0,0.25,0.5688475980000001,0.01,-0.004882811999999959,-8427.0,3.125,825.0,840.0,0.0,0.125,3.3776852010000002,0.01,0.004882811999999959,-4236.0,3.25,-892.5,-840.0,0.0,0.25,1.679687328,0.01,0.0,0.28999999165534973,1.059999942779541,52.86000061035156,0.03717041015625,-0.0494384765625,1.27545166015625,36.52000045776367,0.0,-36.0,1.9701690673828125,-0.6490936279296875,Closing,0.0,0.0,0.0,0.0,0.0,0.0,0.0,0.0,
1.4084429999999992,0.0,0.0,15807.0,2.5,907.5,840.0,0.0,0.125,0.794677653,0.01,-0.0012207029999995456,-8964.0,2.625,-922.5,-840.0,0.0,0.25,0.559081974,0.01,-0.004882812000000847,-8427.0,3.125,877.5,840.0,0.0,0.125,3.3776852010000002,0.01,0.0,-4236.0,3.125,-907.5,-840.0,0.0,0.25,1.6809080310000002,0.01,0.0,0.27000001072883606,1.0499999523162842,52.869998931884766,0.1124267578125,-0.024658203125,0.90167236328125,36.52000045776367,0.0,34.0,1.96978759765625,-0.6562957763671875,Closing,0.0,0.0,0.0,0.0,0.0,0.0,0.0,0.0,
1.4630390000000042,0.0,0.0,15952.0,2.375,907.5,840.0,0.0,0.125,0.794677653,0.01,0.0012207029999995456,-9113.0,2.25,-937.5,-840.0,0.0,0.25,0.559081974,0.01,-0.003662108999999525,-8285.0,2.875,892.5,840.0,0.0,0.125,3.3776852010000002,0.01,0.0012207029999999897,-4383.0,2.875,-915.0,-840.0,0.0,0.25,1.676025219,0.01,0.0,0.3100000023841858,0.9900000095367432,52.900001525878906,-0.004638671875,0.00665283203125,1.41900634765625,36.52000045776367,0.0,-18.0,1.9693756103515625,-0.667449951171875,Closing,0.0,0.0,0.0,0.0,0.0,0.0,0.0,0.125,
1.4916630000000004,0.0,0.0,15952.0,2.0,915.0,840.0,0.0,0.25,0.794677653,0.01,0.0,-9113.0,1.875,-945.0,-840.0,0.0,0.25,0.563964786,0.01,-0.0012207030000004337,-8285.0,2.875,892.5,840.0,0.0,0.125,3.382568013,0.01,-0.0012207029999999897,-4383.0,2.625,-922.5,-840.0,0.0,0.25,1.679687328,0.01,0.0,0.3199999928474426,1.0099999904632568,52.959999084472656,-0.063720703125,0.07794189453125,1.32977294921875,36.52000045776367,0.0,3.0,1.9682159423828125,-0.6816864013671875,Closing,0.0,0.0,0.0,0.0,0.0,0.0,0.0,0.125,
1.546398000000001,0.0,0.0,15952.0,2.0,922.5,840.0,0.0,0.125,0.795898356,0.01,0.0,-9113.0,1.75,-945.0,-840.0,0.0,0.25,0.5541991620000001,0.01,0.0,-8285.0,2.75,892.5,840.0,0.0,0.125,3.38134731,0.01,0.004882811999999959,-4530.0,2.5,-922.5,-840.0,0.0,0.25,1.679687328,0.01,0.0,0.25999999046325684,0.9900000095367432,53.0,0.034423828125,0.11767578125,0.63336181640625,36.52000045776367,0.0,105.0,1.9666595458984375,-0.691650390625,Closing,0.0,0.0,0.0,0.0,0.0,0.0,0.0,0.0,
1.5998899999999994,0.0,0.0,16099.0,1.875,915.0,840.0,0.0,0.25,0.794677653,0.01,0.0,-9264.0,1.5,-945.0,-840.0,0.0,0.25,0.559081974,0.01,0.0,-8142.0,2.75,885.0,840.0,0.0,0.125,3.382568013,0.01,0.004882811999999959,-4530.0,2.25,-922.5,-840.0,0.0,0.25,1.679687328,0.01,0.0,0.28999999165534973,0.9200000166893005,53.04999923706055,0.0465087890625,0.1094970703125,0.95867919921875,36.52000045776367,0.0,102.0,1.9651947021484375,-0.701263427734375,Closing,0.0,0.0,0.0,0.0,0.0,0.0,0.0,0.0,
1.6303440000000047,0.0,0.0,16099.0,1.875,907.5,840.0,0.0,0.125,0.79345695,0.01,0.0,-9264.0,1.5,-930.0,-840.0,0.0,0.25,0.560302677,0.01,0.0,-8142.0,2.75,885.0,840.0,0.0,0.125,3.382568013,0.01,0.0012207029999999897,-4530.0,2.25,-922.5,-840.0,0.0,0.25,1.669921704,0.01,0.0,0.3400000035762787,0.9399999976158142,53.09000015258789,-0.0198974609375,-0.00372314453125,0.97210693359375,36.52000045776367,0.0,-29.0,1.9641876220703125,-0.7075042724609375,Closing,0.0,0.0,0.0,0.0,0.0,0.0,0.0,0.0,
1.6661030000000028,0.0,0.0,16099.0,1.875,907.5,840.0,0.0,0.125,0.795898356,0.01,-0.0012207029999995456,-9264.0,1.375,-922.5,-840.0,0.0,0.25,0.560302677,0.01,0.0,-8142.0,2.75,885.0,840.0,0.0,0.125,3.383788716,0.01,-0.0012207029999999897,-4530.0,2.0,-915.0,-840.0,0.0,0.25,1.679687328,0.01,0.0,0.33000001311302185,0.7699999809265137,53.119998931884766,-0.056884765625,0.046630859375,1.2022705078125,36.52000045776367,0.0,-12.0,1.962982177734375,-0.7136688232421875,Closing,0.0,0.0,0.0,0.0,0.0,0.0,0.0,0.0,
1.7044579999999987,0.0,0.0,16243.0,1.625,907.5,840.0,0.0,0.125,0.794677653,0.01,-0.0012207029999995456,-9411.0,1.375,-915.0,-840.0,0.0,0.25,0.559081974,0.01,0.0,-8000.0,2.75,885.0,840.0,0.0,0.125,3.3776852010000002,0.01,0.0012207029999999897,-4678.0,1.875,-922.5,-840.0,0.0,0.25,1.6809080310000002,0.01,0.0,0.3100000023841858,0.7699999809265137,53.18000030517578,-0.07757568359375,0.0975341796875,1.1610107421875,36.52000045776367,0.0,17.0,1.962921142578125,-0.722686767578125,Closing,0.0,0.0,0.0,0.0,0.0,0.0,0.0,0.0,
1.741524000000005,0.0,0.0,16243.0,1.625,900.0,840.0000000000001,0.0,0.25,0.794677653,0.010412559156735739,0.0012207029999995456,-9411.0,1.375,-915.0,-840.0000000000001,0.0,0.25,0.560302677,0.010479099454879761,0.0,-8000.0,2.75,885.0,840.0000000000001,0.0,0.125,3.382568013,0.010429762649536134,0.0012207029999999897,-4678.0,1.875,-930.0,-840.0000000000001,0.0,0.25,1.679687328,0.010466918309529623,0.0,0.36000001430511475,0.7099999785423279,53.2400016784668,0.02496337890625,-0.1171875,1.16168212890625,36.52000045776367,0.0,-93.0,1.9626312255859375,-0.7311859130859375,Closing,0.0,0.0,0.0,0.0,0.0,0.0,0.0,0.0,
1.7964060000000026,0.0,0.0,16243.0,1.5,900.0,840.0,0.0,0.125,0.794677653,0.011508587757227157,0.0,-9411.0,1.25,-915.0,-840.0,0.0,0.25,0.559081974,0.011582132103919982,0.0,-8000.0,2.25,885.0,840.0,0.0,0.125,3.387450825,0.011527602094014487,-0.004882811999999959,-4678.0,1.625,-922.5,-840.0,0.0,0.25,1.6809080310000002,0.011568668768141005,0.0,0.30000001192092896,0.699999988079071,53.27000045776367,-0.0438232421875,0.0557861328125,0.9830322265625,36.52000045776367,0.0,7.0,1.9622344970703125,-0.7366943359375,Closing,0.0,0.0,0.0,0.0,0.0,0.0,0.0,0.0,
1.823737000000001,0.0,0.0,16388.0,1.5,900.0,840.0,0.0,0.125,0.79345695,0.011645623997296229,0.0,-9557.0,1.125,-915.0,-840.0,0.0,0.25,0.560302677,0.011720044058799745,0.0,-7857.0,2.25,892.5,840.0,0.0,0.125,3.394775043,0.01166486474355062,0.008544920999999928,-4824.0,1.625,-915.0,-840.0,0.0,0.25,1.6809080310000002,0.011706420411003962,0.0,0.3199999928474426,0.6299999952316284,53.369998931884766,-0.0369873046875,-0.015869140625,1.0499267578125,36.4900016784668,0.0,-46.0,1.9608612060546875,-0.7471466064453125,Closing,0.0,0.0,0.0,0.0,0.0,0.0,0.0,0.125,
1.8722439999999987,0.0,0.0,16388.0,1.625,892.5,840.0,0.0,0.25,0.795898356,0.013015672813913557,0.0,-9557.0,1.125,-907.5,-840.0,0.0,0.25,0.559081974,0.013098848019599915,0.0,-7857.0,2.25,885.0,840.0,0.0,0.125,3.387450825,0.013037177136739096,0.0,-4824.0,1.375,-915.0,-840.0,0.0,0.25,1.6809080310000002,0.013083621618482802,0.0,0.3499999940395355,0.5600000023841858,53.41999816894531,-0.09295654296875,-0.05908203125,1.027099609375,36.4900016784668,0.0,-113.0,1.9593505859375,-0.7545928955078125,Closing,0.0,0.0,0.0,0.0,0.0,0.0,0.0,0.0,
1.9320040000000007,0.0,0.0,16388.0,1.5,877.5,840.0,0.0,0.25,0.806884683,0.013974717438348135,0.0,-9702.0,1.125,-900.0,-840.0,0.0,0.25,0.563964786,0.014064021311759949,0.0,-7717.0,2.25,877.5,840.0,0.0,0.125,3.382568013,0.013997806282043458,0.0012207029999999897,-4971.0,1.375,-915.0,-840.0,0.0,0.25,1.6809080310000002,0.014047672971089682,0.0,0.3799999952316284,0.5400000214576721,53.439998626708984,-0.03790283203125,-0.0928955078125,0.9951171875,36.4900016784668,0.0,-139.0,1.95751953125,-0.761810302734375,Closing,0.0,0.0,0.0,0.0,0.0,0.0,0.0,0.0,
1.9633700000000027,0.0,0.0,16530.0,1.25,885.0,840.0,0.0,0.25,0.795898356,0.013974717438348135,-0.0012207029999995456,-9702.0,1.0,-900.0,-840.0,0.0,0.25,0.559081974,0.014064021311759949,0.0,-7717.0,2.25,862.5,840.0,0.0,0.125,3.3776852010000002,0.013997806282043458,-0.003662108999999969,-4971.0,1.375,-900.0,-840.0,0.0,0.25,1.679687328,0.014047672971089682,0.0,0.3400000035762787,0.49000000953674316,53.45000076293945,-0.05316162109375,-0.1829833984375,1.086181640625,36.4900016784668,0.0,-189.0,1.9553680419921875,-0.76849365234375,Closing,0.0,0.0,0.0,0.0,0.0,0.0,0.0,0.125,
2.0119130000000003,0.0,0.0,16530.0,1.5,885.0,840.0,0.0,0.25,0.783691326,0.014111753678417204,0.0,-9702.0,0.875,-900.0,-840.0,0.0,0.25,0.559081974,0.014201933266639707,0.0,-7717.0,2.5,862.5,840.0,0.0,0.125,3.389892231,0.014135068931579587,-0.0012207029999999897,-5114.0,1.375,-885.0,-840.0,0.0,0.25,1.6809080310000002,0.014185424613952634,0.0,0.23999999463558197,0.28999999165534973,53.52000045776367,-0.0272216796875,0.077880859375,1.06475830078125,36.4900016784668,0.0,39.0,1.951934814453125,-0.777130126953125,Closing,0.0,0.0,0.0,0.0,0.0,0.0,0.0,0.125,
2.0695659999999987,0.0,0.0,16668.0,1.5,870.0,840.0,0.0,0.25,0.794677653,0.015070798302851783,0.0,-9846.0,0.875,-900.0,-840.0,0.0,0.25,0.560302677,0.015167106558799744,0.0012207030000004337,-7580.0,2.5,855.0,840.0,0.0,0.125,3.387450825,0.015095698076883952,0.003662108999999969,-5114.0,1.375,-885.0,-840.0,0.0,0.25,1.679687328,0.015149475966559516,0.0,0.23999999463558197,0.27000001072883606,53.59000015258789,-0.04327392578125,0.02154541015625,0.86346435546875,36.4900016784668,0.0,-13.0,1.950042724609375,-0.78131103515625,Closing,0.0,0.0,0.0,0.0,0.0,0.0,0.0,0.125,
2.137870999999999,0.0,0.0,16668.0,1.625,832.5,840.0,0.0,0.25,0.794677653,0.016577883359538186,0.0,-9846.0,0.875,-892.5,-840.0,0.0,0.25,0.56152338,0.016683822474479675,-0.0012207030000004337,-7580.0,2.75,825.0,840.0,0.0,0.125,3.387450825,0.016605273119608563,0.0012207029999999897,-5114.0,1.375,-870.0,-840.0,0.0,0.25,1.679687328,0.016664428816901312,0.0,0.30000001192092896,0.18000000715255737,53.70000076293945,-0.06549072265625,0.05694580078125,0.8724365234375,36.4900016784668,0.0,1.0,1.9471435546875,-0.789154052734375,Closing,0.0,0.0,0.0,0.0,0.0,0.0,0.0,0.125,
2.1696630000000003,0.0,0.0,16668.0,1.625,832.5,840.0000000000001,0.0,0.25,0.795898356,0.01753692798397276,0.0,-9985.0,1.0,-870.0,-840.0000000000001,0.0,0.25,0.557861271,0.01764899576663971,0.0,-7451.0,2.75,802.5,840.0000000000001,0.0,0.125,3.387450825,0.017565902264912923,-0.0012207029999999897,-5251.0,1.625,-862.5,-840.0000000000001,0.0,0.25,1.678466625,0.01762848016950819,0.0,0.25999999046325684,0.05000000074505806,53.77000045776367,-0.097900390625,0.07952880859375,1.000732421875,36.4900016784668,0.0,1.0,1.94708251953125,-0.7944793701171875,Closing,0.0,0.0,0.0,0.0,0.0,0.0,0.0,0.125,
2.208385000000002,0.0,0.0,16802.0,1.875,832.5,840.0,0.0,0.25,0.795898356,0.018495972608407338,0.0012207029999995456,-9985.0,1.125,-847.5,-840.0,0.0,0.25,0.5541991620000001,0.018614169058799743,-0.003662108999999525,-7451.0,2.875,795.0,840.0,0.0,0.125,3.388671528,0.018526531410217286,0.0,-5251.0,1.625,-840.0,-840.0,0.0,0.25,1.679687328,0.018592531522115072,0.0,0.30000001192092896,-0.019999999552965164,53.79999923706055,-0.02227783203125,-0.0068359375,0.87750244140625,36.4900016784668,0.0,-22.0,1.9469451904296875,-0.799407958984375,Closing,0.0,0.0,0.0,0.0,0.0,0.0,0.0,0.125,
2.2643179999999994,0.0,0.0,16802.0,1.875,840.0,840.0,0.0,0.25,0.794677653,0.018906976800590093,0.0,-9985.0,1.125,-840.0,-840.0,0.0,0.25,0.5554198650000001,0.01902779972743988,0.0024414059999999793,-7451.0,2.875,802.5,840.0,0.0,0.125,3.3801266070000002,0.0189382146581014,0.0012207029999999897,-5251.0,1.875,-825.0,-840.0,0.0,0.25,1.6809080310000002,0.019005681376987032,0.0,0.27000001072883606,-0.05999999865889549,53.83000183105469,-0.0799560546875,-0.03326416015625,1.17291259765625,36.4900016784668,0.0,-77.0,1.9464874267578125,-0.804168701171875,Closing,0.0,0.0,0.0,0.0,0.0,0.0,0.0,0.125,
2.307658000000003,0.0,0.0,16936.0,1.875,825.0,840.0,0.0,0.25,0.797119059,0.019318033256785078,0.0,-10118.0,1.125,-832.5,-840.0,0.0,0.25,0.5554198650000001,0.019441482994079592,0.0012207029999995456,-7321.0,2.875,810.0,840.0,0.0,0.125,3.382568013,0.01934995025634766,-0.004882811999999959,-5382.0,1.875,-825.0,-840.0,0.0,0.25,1.679687328,0.019418883768717452,0.0,0.25999999046325684,-0.07000000029802322,53.86000061035156,0.00750732421875,-0.0518798828125,0.75701904296875,36.4900016784668,0.0,-39.0,1.9456329345703125,-0.8084259033203125,Closing,0.0,0.0,0.0,0.0,0.0,0.0,0.0,0.125,
2.3490520000000035,0.0,0.0,16936.0,2.0,817.5,840.0,0.0,0.25,0.795898356,0.019729037448967826,-0.0012207029999995456,-10118.0,1.25,-832.5,-840.0,0.0,0.25,0.560302677,0.019855113662719723,-0.0012207029999995456,-7321.0,2.875,810.0,840.0,0.0,0.0,3.3789059040000002,0.019761633504231768,0.0,-5382.0,1.875,-832.5,-840.0,0.0,0.25,1.6809080310000002,0.019832033623589408,0.0,0.25,-0.10000000149011612,53.90999984741211,0.00836181640625,-0.0047607421875,0.99468994140625,36.470001220703125,0.0,-1.0,1.94390869140625,-0.8137969970703125,Closing,0.0,0.0,0.0,0.0,0.0,0.0,0.0,0.125,
2.4059590000000024,0.0,0.0,16936.0,1.875,825.0,840.0,0.0,0.25,0.794677653,0.020414061857276497,-0.0012207029999995456,-10118.0,1.25,-825.0,-840.0,0.0,0.25,0.5554198650000001,0.020544515643119814,-0.0012207029999995456,-7192.0,3.0,802.5,840.0,0.0,0.0,3.3728023890000003,0.020447789700826013,0.0,-5516.0,1.875,-832.5,-840.0,0.0,0.25,1.6809080310000002,0.020520634227328832,0.0,0.25,-0.18000000715255737,53.91999816894531,-0.00701904296875,-0.0089111328125,0.994384765625,36.470001220703125,0.0,-13.0,1.9428558349609375,-0.8163299560546875,Closing,0.0,0.0,0.0,0.0,0.0,0.0,0.0,0.125,
2.460809000000001,0.0,0.0,17068.0,1.875,832.5,840.0,0.0,0.25,0.79345695,0.02055104583333333,0.0,-10252.0,1.25,-825.0,-840.0,0.0,0.25,0.5554198650000001,0.020682374999999996,-0.0012207029999995456,-7192.0,3.0,802.5,840.0,0.0,0.0,3.3691402800000003,0.020585,-0.009765623999999917,-5516.0,2.0,-817.5,-840.0,0.0,0.25,1.6809080310000002,0.02065833333333333,0.0,0.25999999046325684,-0.18000000715255737,53.88999938964844,0.0616455078125,-0.05322265625,0.85247802734375,36.470001220703125,0.0,-8.0,1.941009521484375,-0.8212432861328125,Closing,0.0,0.0,0.0,0.0,0.0,0.0,0.0,0.125,
2.4976410000000033,0.0,0.0,17068.0,1.875,832.5,840.0,0.0,0.25,0.795898356,0.020140041641150578,0.0,-10252.0,1.25,-832.5,-840.0,0.0,0.25,0.5566405680000001,0.02026874433135986,-0.0012207029999995456,-7192.0,3.0,802.5,840.0,0.0,0.0,3.3679195770000003,0.020173316752115884,-0.009765623999999917,-5516.0,2.0,-810.0,-840.0,0.0,0.25,1.679687328,0.020245183478461368,0.0,0.25999999046325684,-0.25,53.880001068115234,0.008056640625,0.0487060546875,1.07244873046875,36.470001220703125,0.0,43.0,1.9411468505859375,-0.8238372802734375,Closing,0.0,0.0,0.0,0.0,0.0,0.0,0.0,0.125,
2.537461000000003,0.0,0.0,17068.0,1.875,832.5,840.0,0.0,0.25,0.794677653,0.020003057665093745,0.0,-10384.0,1.375,-832.5,-840.0,0.0,0.25,0.560302677,0.02013088497447968,-0.0024414059999999793,-7063.0,3.125,802.5,840.0,0.0,0.0,3.3679195770000003,0.020036106452941897,0.0,-5647.0,2.25,-810.0,-840.0,0.0,0.25,1.6809080310000002,0.020107484372456873,0.0,0.2800000011920929,-0.17000000178813934,53.86000061035156,0.02044677734375,0.00250244140625,1.0032958984375,36.470001220703125,0.0,11.0,1.9413299560546875,-0.8262939453125,Closing,0.0,0.0,0.0,0.0,0.0,0.0,0.0,0.125,
2.588399000000005,0.0,0.0,17200.0,1.875,832.5,840.0,0.0,0.25,0.794677653,0.019455017232841917,0.0,-10384.0,1.375,-825.0,-840.0,0.0,0.25,0.560302677,0.019579342350959778,0.0024414059999999793,-7063.0,3.125,802.5,840.0,0.0,0.0,3.3679195770000003,0.01948716055552165,-0.004882811999999959,-5647.0,2.25,-810.0,-840.0,0.0,0.25,1.679687328,0.01955658287472195,0.0,0.2800000011920929,-0.2800000011920929,53.79999923706055,0.038818359375,0.0684814453125,1.19329833984375,36.470001220703125,0.0,76.0,1.94189453125,-0.8300628662109375,Closing,0.0,0.0,0.0,0.0,0.0,0.0,0.0,0.0,
2.615470000000001,0.0,0.0,17200.0,1.875,832.5,840.0,0.0,0.25,0.7897948410000001,0.018906976800590093,0.0,-10384.0,1.375,-825.0,-840.0,0.0,0.25,0.560302677,0.01902779972743988,0.0,-7063.0,3.25,802.5,840.0,0.0,0.0,3.3715816860000003,0.0189382146581014,0.0012207029999999897,-5647.0,2.25,-810.0,-840.0,0.0,0.25,1.679687328,0.019005681376987032,0.0,0.3199999928474426,-0.28999999165534973,53.75,-0.015625,-0.02520751953125,1.158935546875,36.470001220703125,0.0,-31.0,1.9427490234375,-0.8300628662109375,Closing,0.0,0.0,0.0,0.0,0.0,0.0,0.0,0.0,
2.666440999999999,0.0,0.0,17337.0,1.875,832.5,840.0,0.0,0.25,0.794677653,0.018221952392281426,0.0012207029999995456,-10518.0,1.375,-825.0,-840.0,0.0,0.25,0.559081974,0.018338397747039794,-0.0024414059999999793,-6935.0,3.25,795.0,840.0,0.0,0.0,3.3642574680000004,0.018252058461507164,0.0,-5775.0,2.5,-802.5,-840.0,0.0,0.25,1.6809080310000002,0.01831708077324761,0.0,0.25999999046325684,-0.30000001192092896,53.7400016784668,-0.07232666015625,0.0975341796875,0.9432373046875,36.470001220703125,0.0,35.0,1.9432830810546875,-0.83013916015625,Closing,0.0,0.0,0.0,0.0,0.0,0.0,0.0,0.125,
2.7070580000000044,0.0,0.0,17337.0,1.875,840.0,840.0,0.0,0.25,0.79345695,0.017947932176155514,0.0,-10518.0,1.375,-832.5,-840.0,0.0,0.25,0.559081974,0.018062626435279845,-0.0024414059999999793,-6935.0,3.25,787.5,840.0,0.0,0.0,3.3630367650000004,0.017977585512797038,0.0,-5775.0,2.5,-810.0,-840.0,0.0,0.25,1.6809080310000002,0.018041630024380154,0.0,0.33000001311302185,-0.3499999940395355,53.70000076293945,-0.05499267578125,0.03033447265625,1.08587646484375,36.470001220703125,0.0,-9.0,1.9450531005859375,-0.830108642578125,Closing,0.0,0.0,0.0,0.0,0.0,0.0,0.0,0.125,
2.7463899999999994,0.0,0.0,17337.0,1.625,840.0,840.0000000000001,0.0,0.25,0.794677653,0.01753692798397276,0.0,-10518.0,1.375,-840.0,-840.0000000000001,0.0,0.25,0.5541991620000001,0.01764899576663971,0.0024414059999999793,-6935.0,3.25,787.5,840.0000000000001,0.0,0.0,3.3666988740000003,0.017565902264912923,0.0,-5775.0,2.5,-810.0,-840.0000000000001,0.0,0.25,1.6809080310000002,0.01762848016950819,0.0,0.3700000047683716,-0.28999999165534973,53.70000076293945,-0.03082275390625,-0.0499267578125,0.99774169921875,36.470001220703125,0.0,-60.0,1.945953369140625,-0.83013916015625,Closing,0.0,0.0,0.0,0.0,0.0,0.0,0.0,0.125,
2.782741000000002,0.0,0.0,17471.0,1.875,840.0,840.0000000000001,0.0,0.25,0.794677653,0.01753692798397276,-0.0012207029999995456,-10653.0,1.375,-840.0,-840.0000000000001,0.0,0.25,0.559081974,0.01764899576663971,0.0,-6812.0,3.5,772.5,840.0000000000001,0.0,0.0,3.3679195770000003,0.017565902264912923,0.0,-5910.0,2.25,-825.0,-840.0000000000001,0.0,0.25,1.6809080310000002,0.01762848016950819,0.0,0.3499999940395355,-0.3700000047683716,53.689998626708984,-0.03546142578125,-0.057861328125,1.08209228515625,36.470001220703125,0.0,-68.0,1.9468536376953125,-0.83013916015625,Closing,0.0,0.0,0.0,0.0,0.0,0.0,0.0,0.125,
2.8116280000000042,0.0,0.0,17471.0,1.625,840.0,840.0,0.0,0.25,0.794677653,0.01739989174390369,0.0012207029999995456,-10653.0,1.375,-840.0,-840.0,0.0,0.25,0.5541991620000001,0.017511083811759948,0.0,-6812.0,3.625,757.5,840.0,0.0,0.0,3.3630367650000004,0.01742863961537679,0.0024414059999999793,-5910.0,2.25,-840.0,-840.0,0.0,0.25,1.679687328,0.017490728526645235,0.0,0.3199999928474426,-0.3700000047683716,53.65999984741211,-0.0306396484375,-0.1077880859375,0.80291748046875,36.470001220703125,0.0,-105.0,1.9477386474609375,-0.83026123046875,Closing,0.0,0.0,0.0,0.0,0.0,0.0,0.0,0.125,
2.8490040000000008,0.0,0.0,17471.0,1.625,847.5,840.0,0.0,0.25,0.7922362470000001,0.01698888755172094,0.0012207029999995456,-10653.0,1.375,-832.5,-840.0,0.0,0.25,0.5664061920000001,0.017097453143119817,-0.0012207030000004337,-6812.0,3.75,765.0,840.0,0.0,0.0,3.3679195770000003,0.01701695636749268,0.0024414059999999793,-5910.0,2.25,-840.0,-840.0,0.0,0.25,1.679687328,0.01707757867177328,0.0,0.28999999165534973,-0.38999998569488525,53.630001068115234,0.027099609375,-0.06195068359375,0.9727783203125,36.470001220703125,0.0,-33.0,1.947845458984375,-0.830352783203125,Closing,0.0,0.0,0.0,0.0,0.0,0.0,0.0,0.125,
2.8890109999999987,0.0,0.0,17609.0,1.5,855.0,840.0,0.0,0.25,0.795898356,0.01630386314341227,-0.0012207029999995456,-10787.0,1.375,-832.5,-840.0,0.0,0.25,0.560302677,0.016408051162719723,0.0024414059999999793,-6681.0,3.625,810.0,840.0,0.0,0.0,3.3679195770000003,0.016330800170898434,-0.0024414059999999793,-6044.0,2.25,-847.5,-840.0,0.0,0.25,1.679687328,0.01638897806803385,0.0,0.2800000011920929,-0.3400000035762787,53.54999923706055,0.03814697265625,0.04443359375,0.8768310546875,36.45000076293945,0.0,58.0,1.9483795166015625,-0.83056640625,Closing,0.0,0.0,0.0,0.0,0.0,0.0,0.0,0.125,
2.9403369999999995,0.0,0.0,17609.0,1.5,862.5,840.0,0.0,0.25,0.826415931,0.015481802495034537,0.0012207029999995456,-10787.0,1.25,-840.0,-840.0,0.0,0.25,0.559081974,0.01558073722743988,0.0,-6681.0,3.5,817.5,840.0,0.0,0.0,3.3679195770000003,0.015507381324768067,0.003662108999999969,-6044.0,2.0,-840.0,-840.0,0.0,0.25,1.6845701400000002,0.015562625821431478,0.0,0.33000001311302185,-0.4000000059604645,53.54999923706055,0.01275634765625,-0.00579833984375,1.13214111328125,36.45000076293945,0.0,2.0,1.9488525390625,-0.8303070068359375,Closing,0.0,0.0,0.0,0.0,0.0,0.0,0.0,0.0,
2.996586000000003,0.0,0.0,17609.0,1.5,862.5,840.0,0.0,0.25,0.795898356,0.015481802495034537,-0.0012207029999995456,-10787.0,1.25,-855.0,-840.0,0.0,0.25,0.559081974,0.01558073722743988,0.0,-6681.0,3.75,750.0,840.0,0.0,0.0,3.3691402800000003,0.015507381324768067,0.0012207029999999897,-6044.0,2.0,-847.5,-840.0,0.0,0.25,1.6833494370000002,0.015562625821431478,0.0,0.3199999928474426,-0.4399999976158142,53.54999923706055,0.12091064453125,-0.0428466796875,1.0648193359375,36.45000076293945,0.0,37.0,1.94879150390625,-0.8299407958984375,Closing,0.0,0.0,0.0,0.0,0.0,0.0,0.0,0.125,
3.0401820000000006,0.0,0.0,17747.0,1.5,855.0,840.0,0.0,0.25,0.794677653,0.015481802495034537,0.0012207029999995456,-10924.0,1.125,-855.0,-840.0,0.0,0.25,0.560302677,0.01558073722743988,-0.0024414059999999793,-6557.0,4.125,757.5,840.0,0.0,0.0,3.3679195770000003,0.015507381324768067,-0.003662108999999969,-6181.0,2.0,-847.5,-840.0,0.0,0.25,1.6809080310000002,0.015562625821431478,0.0,0.2800000011920929,-0.4699999988079071,53.54999923706055,0.044189453125,-0.0272216796875,1.1180419921875,36.45000076293945,0.0,5.0,1.9484100341796875,-0.8300933837890625,Closing,0.0,0.0,0.0,0.0,0.0,0.0,0.0,0.0,
3.0766440000000004,0.0,0.0,17747.0,1.5,847.5,840.0,0.0,0.25,0.794677653,0.015481802495034537,0.0,-10924.0,1.125,-855.0,-840.0,0.0,0.25,0.560302677,0.01558073722743988,0.0,-6557.0,4.0,832.5,840.0,0.0,0.0,3.3630367650000004,0.015507381324768067,0.003662108999999969,-6181.0,2.25,-840.0,-840.0,0.0,0.25,1.678466625,0.015562625821431478,0.0,0.30000001192092896,-0.4399999976158142,53.54999923706055,-0.0037841796875,0.02667236328125,1.01043701171875,36.45000076293945,0.0,19.0,1.947662353515625,-0.8302001953125,Closing,0.0,0.0,0.0,0.0,0.0,0.0,0.0,0.0,
3.135599000000002,0.0,0.0,17885.0,1.5,847.5,840.0,0.0,0.25,0.794677653,0.015344818518977696,0.0,-11062.0,1.125,-855.0,-840.0,0.0,0.25,0.560302677,0.015442877870559693,0.0,-6425.0,3.875,825.0,840.0,0.0,0.0,3.3679195770000003,0.015370171025594076,0.0,-6316.0,2.25,-832.5,-840.0,0.0,0.25,1.6809080310000002,0.015424926715426975,0.0,0.3499999940395355,-0.4699999988079071,53.54999923706055,-0.0474853515625,7.32421875E-4,1.13916015625,36.45000076293945,0.0,-27.0,1.9471588134765625,-0.830047607421875,Closing,0.0,0.0,0.0,0.0,0.0,0.0,0.0,0.0,
3.1898470000000017,0.0,0.0,17885.0,1.0,847.5,0.0,0.0,0.25,0.784912029,0.01,0.0,-11062.0,0.75,-862.5,-0.0,0.0,0.25,0.559081974,0.01,-0.0024414059999999793,-6425.0,3.0,832.5,0.0,0.0,0.0,3.3679195770000003,0.01,-0.0012207029999999897,-6316.0,2.25,-832.5,-0.0,0.0,0.25,1.679687328,0.01,0.0,0.27000001072883606,-0.49000000953674316,53.560001373291016,0.03570556640625,-0.0128173828125,0.96234130859375,36.45000076293945,0.0,12.0,1.9463958740234375,-0.8296051025390625,Closing,0.0,0.0,0.0,0.0,0.0,0.0,0.0,0.0,
3.2198349999999993,0.0,0.0,17885.0,0.75,832.5,0.0,0.0,0.25,0.7885741380000001,0.01,0.0,-11062.0,0.25,-795.0,-0.0,0.0,0.25,0.5554198650000001,0.01,0.0012207030000004337,-6425.0,1.5,817.5,0.0,0.0,0.0,3.385009419,0.01,0.0012207029999999897,-6416.0,0.375,-757.5,-0.0,0.0,0.25,1.674804516,0.01,0.0,0.3499999940395355,-0.699999988079071,53.599998474121094,-0.02276611328125,-0.05108642578125,0.9854736328125,36.45000076293945,0.0,-52.0,1.9451904296875,-0.828155517578125,Closing,0.0,0.0,0.0,0.0,0.0,0.0,0.0,0.0,
3.2719400000000025,0.0,0.0,17983.0,0.125,667.5,0.0,0.0,0.25,0.810546792,0.01,-0.0012207029999995456,-11167.0,0.25,-585.0,-0.0,0.0,0.25,0.5554198650000001,0.01,-0.0012207030000004337,-6316.0,0.375,637.5,0.0,0.0,0.125,3.392333637,0.01,0.023193356999999803,-6416.0,0.125,-615.0,-0.0,0.0,0.25,1.6857908430000001,0.01,-0.003662108999999969,0.3700000047683716,-1.2000000476837158,53.5099983215332,-0.1561279296875,0.11181640625,1.17657470703125,36.45000076293945,0.0,5.0,1.9433135986328125,-0.82525634765625,Closing,0.0,0.0,0.0,0.0,0.0,0.0,0.0,0.125,
3.3255869999999996,0.0,0.0,17983.0,0.125,555.0,0.0,0.0,0.25,0.8178710100000001,0.01,0.019531247999999835,-11167.0,0.25,-577.5,-0.0,0.0,0.25,0.5554198650000001,0.01,0.0,-6316.0,0.375,540.0,0.0,0.0,0.125,3.392333637,0.01,0.0,-6416.0,0.125,-562.5,-0.0,0.0,0.25,1.674804516,0.01,0.003662108999999969,0.3799999952316284,-1.2300000190734863,53.52000045776367,-0.1080322265625,-0.02862548828125,0.825439453125,36.45000076293945,0.0,-64.0,1.9407958984375,-0.82061767578125,Closing,0.0,0.0,0.0,0.0,0.0,0.0,0.0,0.125,
3.358524000000005,0.0,0.0,18076.0,0.125,570.0,0.0,0.0,0.125,0.8142089010000001,0.01,0.0,-11254.0,0.75,-562.5,-0.0,0.0,0.25,0.5554198650000001,0.01,0.0,-6228.0,0.375,562.5,0.0,0.0,0.125,3.392333637,0.01,0.0012207029999999897,-6513.0,0.125,-585.0,-0.0,0.0,0.25,1.6601560800000001,0.01,-0.004882811999999959,0.3199999928474426,-1.6699999570846558,53.529998779296875,-0.14471435546875,0.02734375,0.77154541015625,36.40999984741211,0.0,-54.0,1.9371337890625,-0.814422607421875,Closing,0.0,0.0,0.0,0.0,0.0,0.0,0.0,0.125,
3.413991000000002,0.0,0.0,18076.0,0.125,480.0,0.0,0.0,0.125,0.812988198,0.01,0.0,-11254.0,1.0,-480.0,-0.0,0.0,0.25,0.5541991620000001,0.01,0.0,-6228.0,0.375,517.5,0.0,0.0,0.125,3.392333637,0.01,-0.0012207029999999897,-6513.0,0.25,-502.5,-0.0,0.0,0.25,1.6564939710000002,0.01,-0.013427732999999886,0.2800000011920929,-2.059999942779541,53.5,-0.2017822265625,-0.01409912109375,0.91583251953125,36.40999984741211,0.0,-115.0,1.9302825927734375,-0.8038177490234375,Closing,0.0,0.0,0.0,0.0,0.0,0.0,0.0,0.0,
3.4685679999999994,0.0,0.0,18076.0,0.125,442.5,0.0,0.0,0.25,0.8142089010000001,0.01,0.0,-11254.0,1.0,-390.0,-0.0,0.0,0.25,0.5554198650000001,0.01,0.0,-6228.0,0.375,420.0,0.0,0.0,0.125,3.392333637,0.01,0.0,-6513.0,0.25,-420.0,-0.0,0.0,0.25,1.6552732680000002,0.01,-0.006103514999999948,0.25999999046325684,-2.3399999141693115,53.4900016784668,-0.21435546875,-0.015380859375,1.1146240234375,36.40999984741211,0.0,-116.0,1.92596435546875,-0.797515869140625,Closing,0.0,0.0,0.0,0.0,0.0,0.0,0.0,0.0,
3.5222609999999985,0.0,0.0,18128.0,0.125,322.5,0.0,0.0,0.25,0.812988198,0.01,0.0,-11306.0,0.875,-315.0,-0.0,0.0,0.25,0.5554198650000001,0.01,0.0,-6173.0,0.375,330.0,0.0,0.0,0.125,3.392333637,0.01,0.0,-6567.0,0.125,-285.0,-0.0,0.0,0.25,1.6564939710000002,0.01,0.0012207029999999897,0.23000000417232513,-2.7100000381469727,53.529998779296875,-0.22412109375,-0.0140380859375,1.0950927734375,36.40999984741211,0.0,-117.0,1.915771484375,-0.783050537109375,Closing,0.0,0.0,0.0,0.0,0.0,0.0,0.0,0.125,
3.5602490000000033,0.0,0.0,18128.0,0.125,187.5,0.0,0.0,0.125,0.812988198,0.01,0.0,-11306.0,0.625,-202.5,-0.0,0.0,0.25,0.5541991620000001,0.01,0.0,-6173.0,0.125,195.0,0.0,0.0,0.125,3.392333637,0.01,0.0012207029999999897,-6567.0,0.125,-210.0,-0.0,0.0,0.25,1.6564939710000002,0.01,-0.0012207029999999897,0.1899999976158142,-2.940000057220459,53.540000915527344,-0.1141357421875,0.01214599609375,1.0858154296875,36.40999984741211,0.0,-27.0,1.903839111328125,-0.766845703125,Closing,0.0,0.0,0.0,0.0,0.0,0.0,0.0,0.125,
3.6126920000000027,0.0,0.0,18128.0,0.125,157.5,0.0,0.0,0.125,0.812988198,0.01,0.0,-11325.0,0.625,-165.0,-0.0,0.0,0.25,0.5541991620000001,0.01,0.0,-6155.0,0.375,127.5,0.0,0.0,0.125,3.392333637,0.01,-0.0012207029999999897,-6586.0,0.125,-135.0,-0.0,0.0,0.25,1.6564939710000002,0.01,0.0,0.20000000298023224,-3.0,53.5099983215332,-0.13250732421875,-0.0211181640625,1.019287109375,36.40999984741211,0.0,-66.0,1.897430419921875,-0.7583160400390625,Closing,0.0,0.0,0.0,0.0,0.0,0.0,0.0,0.125,
3.649675000000003,0.0,0.0,18146.0,0.125,90.0,0.0,0.0,0.125,0.8142089010000001,0.01,0.0,-11325.0,0.375,-97.5,-0.0,0.0,0.25,0.548095647,0.01,0.0,-6155.0,0.375,105.0,0.0,0.0,0.125,3.392333637,0.01,-0.0012207029999999897,-6586.0,0.125,-105.0,-0.0,0.0,0.25,1.6564939710000002,0.01,0.0,0.1899999976158142,-3.0999999046325684,53.5099983215332,-0.11968994140625,0.0135498046875,1.0081787109375,36.40999984741211,0.0,-30.0,1.8907623291015625,-0.74951171875,Closing,0.0,0.0,0.0,0.0,0.0,0.0,0.0,0.125,
3.684673999999999,0.0,0.0,18146.0,0.0,37.5,0.0,0.0,0.25,0.812988198,0.01,0.0,-11325.0,0.25,-45.0,-0.0,0.0,0.25,0.5541991620000001,0.01,0.0,-6155.0,0.5,52.5,0.0,0.0,0.125,3.391112934,0.01,0.0,-6586.0,0.25,-45.0,-0.0,0.0,0.25,1.6564939710000002,0.01,0.0,0.1899999976158142,-3.130000114440918,53.529998779296875,-0.07269287109375,-0.0067138671875,1.04705810546875,36.40999984741211,0.0,-17.0,1.8839263916015625,-0.7450103759765625,Closing,0.0,0.0,0.0,0.0,0.0,0.0,0.0,0.125,
3.721012999999999,0.0,0.0,18146.0,0.0,22.5,0.0,0.0,0.25,0.8142089010000001,0.01,0.0,-11325.0,0.25,-7.5,-0.0,0.0,0.25,0.5554198650000001,0.01,0.0,-6155.0,0.5,15.0,0.0,0.0,0.125,3.391112934,0.01,0.0012207029999999897,-6587.0,0.25,-7.5,-0.0,0.0,0.25,1.6564939710000002,0.01,0.0,0.1899999976158142,-3.109999895095825,53.56999969482422,-0.02545166015625,0.00787353515625,1.02410888671875,36.40999984741211,0.0,21.0,1.8736724853515625,-0.7451019287109375,Closing,0.0,0.0,0.0,0.0,0.0,0.0,0.0,0.0,
3.750514000000003,0.0,0.0,18146.0,0.375,0.0,420.0,0.0,0.25,0.819091713,0.5498168668524888,0.0,-11325.0,0.125,0.0,-420.0,0.0,0.25,0.5541991620000001,1.9285545897722227,0.0,-6152.0,1.125,30.0,420.0,0.0,0.75,3.3801266070000002,4.389674732977289,-0.0012207029999999897,-6587.0,0.625,-15.0,-420.0,0.0,3.375,1.616210772,3.0316872062785585,0.0,0.20000000298023224,-2.990000009536743,53.56999969482422,-0.00531005859375,0.00274658203125,1.03216552734375,36.40999984741211,0.0,28.0,1.86053466796875,-0.7457733154296875,Closing,0.0,0.0,0.0,0.0,0.0,0.0,0.0,0.125,
3.8102410000000018,0.0,0.0,18146.0,0.375,22.5,420.0,0.0,1.875,0.885009675,0.5498168668524888,0.0,-11325.0,0.25,0.0,-420.0,0.0,6.875,0.603027282,1.9285545897722227,0.0,-6152.0,1.5,67.5,420.0,0.0,1.875,3.291015288,4.389674732977289,-0.0012207029999999897,-6587.0,0.625,-45.0,-420.0,0.0,6.5,1.430663916,3.0316872062785585,4.905509771,0.20999999344348907,-2.9000000953674316,53.540000915527344,0.12060546875,-0.00836181640625,1.0418701171875,36.40999984741211,0.0,93.0,1.8542633056640625,-0.74658203125,Closing,0.0,0.0,0.0,0.0,0.0,0.0,0.0,0.0,
3.852346000000005,0.0,0.0,18168.0,0.75,135.0,420.0,0.0,1.25,1.0595702040000001,0.5498168668524888,0.004882811999999959,-11334.0,0.375,-15.0,-420.0,0.0,3.125,0.953369043,1.9285545897722227,0.009765623999999917,-6128.0,1.875,150.0,420.0,0.0,1.75,3.096923511,4.389674732977289,-0.015869138999999866,-6602.0,1.0,-105.0,-420.0,0.0,5.0,1.1120604330000001,3.0316872062785585,4.905509771,0.17000000178813934,-2.640000104904175,53.4900016784668,0.09100341796875,-0.07318115234375,0.8447265625,36.40999984741211,0.0,16.0,1.8456573486328125,-0.7494049072265625,Closing,0.0,0.0,0.0,0.0,0.0,0.0,0.0,0.0,
3.8892580000000017,0.0,0.0,18168.0,0.875,127.5,420.0,0.0,0.75,1.202392455,0.5498168668524888,-4.784545937,-11334.0,0.375,-90.0,-420.0,0.0,1.25,1.350097518,1.9285545897722227,0.19287107400000014,-6128.0,1.875,127.5,420.0,0.0,0.5,2.911376655,4.389674732977289,4.781708610000001,-6602.0,1.875,-52.5,-420.0,0.0,1.75,0.754394454,3.0316872062785585,-0.27343747200000035,0.18000000715255737,-2.4800000190734863,53.459999084472656,-0.0133056640625,-0.0277099609375,0.93646240234375,36.439998626708984,0.0,-8.0,1.8376922607421875,-0.7536773681640625,Closing,0.0,0.0,0.0,0.0,0.0,0.0,0.0,0.0,
3.9428800000000046,0.0,0.0,18168.0,0.875,60.0,420.0,0.0,0.625,1.2670897140000001,0.5498168668524888,0.1452636570000001,-11334.0,0.25,-202.5,-420.0,0.0,1.5,1.573486167,1.9285545897722227,0.6481932930000003,-6128.0,2.125,75.0,420.0,0.0,0.375,2.823486039,4.389674732977289,-0.15869139000000043,-6602.0,2.625,0.0,-420.0,0.0,1.75,0.450439407,3.0316872062785585,-0.27343747200000035,0.2199999988079071,-2.3499999046325684,53.380001068115234,-0.02996826171875,0.0347900390625,1.11346435546875,36.439998626708984,0.0,33.0,1.8302764892578125,-0.758697509765625,Closing,0.0,0.0,0.0,0.0,0.0,0.0,0.0,0.125,
3.9943199999999996,0.0,0.0,18181.0,1.625,52.5,420.0,0.0,0.5,1.3439940030000002,0.5498168668524888,0.11108397299999995,-11366.0,0.375,-195.0,-420.0,0.0,1.5,1.9531248,1.9285545897722227,0.0,-6117.0,2.5,75.0,420.0,0.0,0.25,2.762450889,4.389674732977289,-0.15991209299999998,-6602.0,2.75,0.0,-420.0,0.0,1.875,0.179443341,3.0316872062785585,-0.33569332500000026,0.20000000298023224,-2.2300000190734863,53.040000915527344,-3.0517578125E-4,0.0103759765625,0.9666748046875,36.439998626708984,0.0,27.0,1.8233642578125,-0.7640380859375,Closing,0.0,0.0,0.0,0.0,0.0,0.0,0.0,0.125,
4.024260000000002,0.0,0.0,18181.0,1.75,105.0,420.0,0.0,0.375,1.36718736,0.5498168668524888,0.12817381500000002,-11366.0,0.625,-157.5,-420.0,0.0,1.5,2.2180173510000003,1.9285545897722227,0.6091307970000002,-6117.0,3.0,90.0,420.0,0.0,0.25,2.7429196410000003,4.389674732977289,-0.1416015479999997,-6602.0,2.625,0.0,-420.0,0.0,1.875,4.896239733000001,3.0316872062785585,-0.5810546279999995,0.20999999344348907,-2.190000057220459,52.70000076293945,-0.01019287109375,-0.01470947265625,1.02984619140625,36.439998626708984,0.0,2.0,1.8189544677734375,-0.7678375244140625,Closing,0.0,0.0,0.0,0.0,0.0,0.0,0.0,0.125,
4.060709000000003,0.0,0.0,18181.0,1.75,120.0,420.0,0.0,0.25,1.36718736,0.5498168668524888,0.12817381500000002,-11366.0,0.875,-120.0,-420.0,0.0,1.0,2.34374976,1.9285545897722227,0.6091307970000002,-6117.0,3.25,142.5,420.0,0.0,0.0,2.7416989380000003,4.389674732977289,-0.1416015479999997,-6602.0,2.625,-22.5,-420.0,0.0,1.0,4.7656245120000005,3.0316872062785585,-0.5810546279999995,0.1899999976158142,-2.190000057220459,52.290000915527344,-0.06317138671875,-0.0081787109375,1.01043701171875,36.439998626708984,0.0,-24.0,1.8144378662109375,-0.771820068359375,Closing,0.0,0.0,0.0,0.0,0.0,0.0,0.0,0.0,
4.089741000000002,0.0,0.0,18181.0,1.875,142.5,420.0,0.0,0.25,1.3684080630000002,0.5498168668524888,0.017089841999999855,-11385.0,1.625,-97.5,-420.0,0.0,0.25,2.445068109,1.9285545897722227,0.23559567899999978,-6086.0,3.375,157.5,420.0,0.0,0.0,2.727050502,4.389674732977289,-0.014648435999999876,-6617.0,3.125,-45.0,-420.0,0.0,0.25,4.670409678,3.0316872062785585,-0.21556884499999995,0.20999999344348907,-2.309999942779541,51.4900016784668,-0.08624267578125,0.05950927734375,0.910888671875,36.439998626708984,0.0,13.0,1.80731201171875,-0.777435302734375,Closing,0.0,0.0,0.0,0.0,0.0,0.0,0.0,0.0,
4.126395000000004,0.0,0.0,18207.0,1.875,165.0,420.0,0.0,0.125,1.3708494690000002,0.5498168668524888,0.0012207030000002117,-11385.0,1.875,-120.0,-420.0,0.0,0.25,2.495116932,1.9285545897722227,0.211181619,-6086.0,3.375,195.0,420.0,0.0,0.0,2.72216769,4.389674732977289,-0.019531248000000723,-6617.0,3.375,-112.5,-420.0,0.0,0.5,4.621581558,3.0316872062785585,-0.22094724300000035,0.30000001192092896,-2.390000104904175,50.84000015258789,-0.09454345703125,0.04083251953125,1.0869140625,36.439998626708984,0.0,-3.0,1.80731201171875,-0.78070068359375,Closing,0.0,0.0,0.0,0.0,0.0,0.0,0.0,0.0,
4.158687000000006,0.0,0.0,18207.0,2.0,195.0,420.0,0.0,0.125,1.36718736,0.5498168668524888,-0.0024414060000002014,-11385.0,1.75,-165.0,-420.0,0.0,0.25,2.518310289,1.9285545897722227,0.037841793000000123,-6086.0,3.5,217.5,420.0,0.0,0.0,2.7478024530000003,4.389674732977289,0.0024414059999999793,-6617.0,3.125,-172.5,-420.0,0.0,0.25,4.587401874,3.0316872062785585,-0.04516601100000006,0.38999998569488525,-2.390000104904175,49.70000076293945,-0.0606689453125,0.01043701171875,1.01397705078125,36.439998626708984,0.0,-9.0,1.8073577880859375,-0.78369140625,Closing,0.0,0.0,0.0,0.0,0.0,0.0,0.0,0.0,
4.2038199999999994,0.0,0.0,18207.0,2.125,210.0,420.0,0.0,0.125,1.36718736,0.5498168668524888,-0.0024414060000002014,-11385.0,1.75,-195.0,-420.0,0.0,0.25,2.518310289,1.9285545897722227,0.037841793000000123,-6086.0,3.5,232.5,420.0,0.0,0.125,2.7465817500000003,4.389674732977289,0.0024414059999999793,-6660.0,2.875,-232.5,-420.0,0.0,0.25,4.582519062,3.0316872062785585,-0.04516601100000006,0.4099999964237213,-2.3299999237060547,48.810001373291016,-0.0216064453125,-0.0322265625,1.03369140625,36.439998626708984,0.0,-16.0,1.80743408203125,-0.783721923828125,Closing,0.0,0.0,0.0,0.0,0.0,0.0,0.0,0.0,
4.254366000000002,0.0,0.0,18248.0,2.0,247.5,420.0,0.0,0.25,1.36718736,0.5498168668524888,0.0012207029999999897,-11428.0,1.5,-292.5,-420.0,0.0,0.25,2.498779041,1.9285545897722227,0.013427732999999886,-6045.0,3.625,255.0,420.0,0.0,0.125,2.756347374,4.389674732977289,0.021972654000000702,-6660.0,2.75,-292.5,-420.0,0.0,0.25,4.588622577000001,3.0316872062785585,-0.04516601100000006,0.4300000071525574,-2.259999990463257,47.279998779296875,-0.0865478515625,-0.02801513671875,1.01025390625,36.439998626708984,0.0,-57.0,1.80743408203125,-0.783966064453125,Closing,0.0,0.0,0.0,0.0,0.0,0.0,0.0,0.0,
4.281397000000005,0.0,0.0,18248.0,1.875,285.0,420.0,0.0,0.25,1.36718736,0.5498168668524888,-0.0012207029999999897,-11428.0,1.125,-330.0,-420.0,0.0,0.25,2.4792477930000003,1.9285545897722227,-0.013427732999999886,-6045.0,3.75,277.5,420.0,0.0,0.0,2.766112998,4.389674732977289,0.009765623999999917,-6660.0,2.5,-345.0,-420.0,0.0,0.25,4.567870626,3.0316872062785585,-0.007324217999999938,0.5,-2.200000047683716,45.560001373291016,-0.02984619140625,0.09130859375,0.97467041015625,36.439998626708984,0.0,64.0,1.8073883056640625,-0.7841644287109375,Closing,0.0,0.0,0.0,0.0,0.0,0.0,0.0,0.125,
4.326779000000002,0.0,0.0,18248.0,1.875,322.5,420.0,0.0,0.25,1.364745954,0.5498168668524888,0.0,-11491.0,0.875,-367.5,-420.0,0.0,0.25,2.463378654,1.9285545897722227,-0.025634763000000227,-5992.0,3.625,315.0,420.0,0.0,0.0,2.766112998,4.389674732977289,0.008544920999999484,-6724.0,2.375,-390.0,-420.0,0.0,0.25,4.567870626,3.0316872062785585,-0.004882811999999959,0.5899999737739563,-2.1500000953674316,44.36000061035156,-0.04180908203125,0.04638671875,1.05877685546875,36.439998626708984,0.0,23.0,1.8075714111328125,-0.7841949462890625,Closing,0.0,0.0,0.0,0.0,0.0,0.0,0.0,0.0,
4.371631000000002,0.0,0.0,18304.0,1.75,352.5,420.0,0.0,0.25,1.36718736,0.5498168668524888,0.0,-11491.0,0.75,-405.0,-420.0,0.0,0.125,2.449950921,1.9285545897722227,-0.013427732999999886,-5992.0,3.5,345.0,420.0,0.0,0.0,2.766112998,4.389674732977289,0.0012207030000004337,-6724.0,2.25,-412.5,-420.0,0.0,0.25,4.587401874,3.0316872062785585,0.0012207030000004337,0.6600000262260437,-2.0199999809265137,41.83000183105469,-0.01531982421875,-0.0194091796875,0.93780517578125,36.459999084472656,0.0,-6.0,1.8085784912109375,-0.784210205078125,Closing,0.0,0.0,0.0,0.0,0.0,0.0,0.0,0.125,
4.408947,0.0,0.0,18304.0,1.625,382.5,420.0,0.0,0.25,1.362304548,0.5498168668524888,0.0,-11491.0,0.75,-412.5,-420.0,0.0,0.125,2.449950921,1.9285545897722227,-0.013427732999999886,-5992.0,3.375,352.5,420.0,0.0,0.0,2.768554404,4.389674732977289,0.0,-6724.0,2.0,-420.0,-420.0,0.0,0.25,4.606933122,3.0316872062785585,0.019531247999999835,0.6899999976158142,-1.899999976158142,39.83000183105469,-0.0267333984375,-0.04791259765625,1.1513671875,36.459999084472656,0.0,-30.0,1.809722900390625,-0.784698486328125,Closing,0.0,0.0,0.0,0.0,0.0,0.0,0.0,0.125,
4.459407,0.0,0.0,18304.0,1.5,420.0,420.0,0.0,0.125,1.36718736,0.5498168668524888,0.0012207029999999897,-11560.0,0.625,-420.0,-420.0,0.0,0.125,2.449950921,1.9285545897722227,-0.009765623999999917,-5933.0,3.625,352.5,420.0,0.0,0.0,2.767333701,4.389674732977289,0.0,-6795.0,1.875,-435.0,-420.0,0.0,0.25,4.61425734,3.0316872062785585,0.019531247999999835,0.6600000262260437,-1.8600000143051147,38.470001220703125,-0.03900146484375,-0.04718017578125,0.91302490234375,36.459999084472656,0.0,-43.0,1.810394287109375,-0.7852783203125,Closing,0.0,0.0,0.0,0.0,0.0,0.0,0.0,0.0,
4.486508999999998,0.0,0.0,18373.0,1.25,427.5,420.0,0.0,0.125,1.36718736,0.5498168668524888,0.0012207030000002117,-11560.0,0.5,-435.0,-420.0,0.0,0.125,2.449950921,1.9285545897722227,-0.0012207029999999897,-5933.0,3.5,367.5,420.0,0.0,0.0,2.768554404,4.389674732977289,0.0,-6795.0,1.875,-435.0,-420.0,0.0,0.25,4.631347182,3.0316872062785585,0.024414059999999793,0.6700000166893005,-1.8600000143051147,37.099998474121094,0.0303955078125,0.05755615234375,1.1085205078125,36.459999084472656,0.0,79.0,1.81109619140625,-0.7860107421875,Closing,0.0,0.0,0.0,0.0,0.0,0.0,0.0,0.0,
4.524204000000005,0.0,0.0,18373.0,1.125,435.0,420.0,0.0,0.25,1.36718736,0.5498168668524888,-0.0012207030000002117,-11560.0,0.5,-450.0,-420.0,0.0,0.125,2.449950921,1.9285545897722227,0.0012207029999999897,-5933.0,3.125,405.0,420.0,0.0,0.0,2.766112998,4.389674732977289,0.0,-6795.0,1.875,-450.0,-420.0,0.0,0.25,4.637450697,3.0316872062785585,0.01831054500000029,0.6899999976158142,-1.7599999904632568,35.720001220703125,-7.9345703125E-4,0.01202392578125,0.94891357421875,36.459999084472656,0.0,23.0,1.8119049072265625,-0.786865234375,Closing,0.0,0.0,0.0,0.0,0.0,0.0,0.0,0.125,
4.552815999999999,0.0,0.0,18373.0,1.125,435.0,420.0,0.0,0.125,1.364745954,0.5498168668524888,-0.0012207030000002117,-11560.0,0.375,-457.5,-420.0,0.0,0.125,2.45361303,1.9285545897722227,0.0012207029999999897,-5864.0,3.125,427.5,420.0,0.0,0.0,2.766112998,4.389674732977289,0.0,-6869.0,1.625,-457.5,-420.0,0.0,0.25,4.636229994000001,3.0316872062785585,0.006103515000000392,0.7200000286102295,-1.7200000286102295,33.56999969482422,-0.08453369140625,-0.01385498046875,1.0986328125,36.459999084472656,0.0,-58.0,1.8132781982421875,-0.78839111328125,Closing,0.0,0.0,0.0,0.0,0.0,0.0,0.0,0.125,
4.601006000000001,0.0,0.0,18446.0,1.125,450.0,420.0,0.0,0.125,1.3684080630000002,0.5498168668524888,0.0,-11634.0,0.375,-457.5,-420.0,0.0,0.125,2.449950921,1.9285545897722227,-0.0012207029999999897,-5864.0,3.0,435.0,420.0,0.0,0.0,2.766112998,4.389674732977289,0.0,-6869.0,1.375,-465.0,-420.0,0.0,0.125,4.619140152,3.0316872062785585,0.006103515000000392,0.7300000190734863,-1.6699999570846558,32.130001068115234,0.02105712890625,-0.04412841796875,1.04534912109375,36.459999084472656,0.0,13.0,1.8142242431640625,-0.788421630859375,Closing,0.0,0.0,0.0,0.0,0.0,0.0,0.0,0.0,
4.625561000000001,0.0,0.0,18446.0,1.125,450.0,420.0,0.0,0.125,1.36718736,0.5498168668524888,-0.0012207029999999897,-11634.0,0.25,-465.0,-420.0,0.0,0.125,2.449950921,1.9285545897722227,0.0012207029999999897,-5864.0,2.875,435.0,420.0,0.0,0.0,2.766112998,4.389674732977289,-0.0012207030000004337,-6869.0,1.375,-465.0,-420.0,0.0,0.125,4.636229994000001,3.0316872062785585,-0.0012207030000004337,0.7599999904632568,-1.5800000429153442,30.700000762939453,0.02691650390625,0.06988525390625,0.9833984375,36.459999084472656,0.0,75.0,1.8152313232421875,-0.78863525390625,Closing,0.0,0.0,0.0,0.0,0.0,0.0,0.0,0.0,
4.661476999999999,0.0,0.0,18446.0,0.875,457.5,420.0,0.0,0.25,1.363525251,0.5498168668524888,-0.0012207029999999897,-11634.0,0.25,-465.0,-420.0,0.0,0.125,2.448730218,1.9285545897722227,0.0012207029999999897,-5864.0,2.75,442.5,420.0,0.0,0.0,2.766112998,4.389674732977289,-0.0012207030000004337,-6869.0,1.375,-465.0,-420.0,0.0,0.125,4.636229994000001,3.0316872062785585,0.0,0.7900000214576721,-1.5399999618530273,28.549999237060547,-0.0283203125,-0.03533935546875,1.0958251953125,36.459999084472656,0.0,-23.0,1.8158111572265625,-0.789093017578125,Closing,0.0,0.0,0.0,0.0,0.0,0.0,0.0,0.125,
4.692012999999999,0.0,0.0,18446.0,0.875,457.5,420.0,0.0,0.25,1.36718736,0.5498168668524888,0.0024414060000002014,-11707.0,0.25,-450.0,-420.0,0.0,0.125,2.449950921,1.9285545897722227,0.0,-5790.0,2.75,442.5,420.0,0.0,0.0,2.766112998,4.389674732977289,0.0012207030000004337,-6945.0,1.375,-472.5,-420.0,0.0,0.125,4.636229994000001,3.0316872062785585,0.0,0.75,-1.4700000286102295,27.100000381469727,-0.02801513671875,-0.04559326171875,0.9046630859375,36.459999084472656,0.0,-30.0,1.815826416015625,-0.78961181640625,Closing,0.0,0.0,0.0,0.0,0.0,0.0,0.0,0.125,
4.725006000000001,0.0,0.0,18519.0,0.875,457.5,420.0,0.0,0.25,1.36718736,0.5498168668524888,-0.0012207030000002117,-11707.0,0.25,-442.5,-420.0,0.0,0.125,2.449950921,1.9285545897722227,-0.0012207029999999897,-5790.0,2.75,450.0,420.0,0.0,0.0,2.768554404,4.389674732977289,-0.0012207030000004337,-6945.0,1.375,-472.5,-420.0,0.0,0.125,4.635009291,3.0316872062785585,0.0012207030000004337,0.7799999713897705,-1.4600000381469727,25.65999984741211,0.0093994140625,0.0177001953125,1.119384765625,36.459999084472656,0.0,35.0,1.815826416015625,-0.790252685546875,Closing,0.0,0.0,0.0,0.0,0.0,0.0,0.0,0.125,
4.7683919999999995,0.0,0.0,18519.0,0.875,450.0,420.0,0.0,0.25,1.3745115780000001,0.5498168668524888,-0.0012207029999999897,-11707.0,0.25,-450.0,-420.0,0.0,0.125,2.449950921,1.9285545897722227,0.0012207029999999897,-5790.0,2.625,465.0,420.0,0.0,0.0,2.767333701,4.389674732977289,0.0012207030000004337,-6945.0,1.25,-472.5,-420.0,0.0,0.125,4.636229994000001,3.0316872062785585,-0.0012207030000004337,0.8199999928474426,-1.399999976158142,22.770000457763672,-0.04644775390625,-0.00738525390625,1.13397216796875,36.459999084472656,0.0,-26.0,1.81610107421875,-0.7916259765625,Closing,0.0,0.0,0.0,0.0,0.0,0.0,0.0,0.0,
4.809582999999999,0.0,0.0,18519.0,0.875,450.0,420.0,0.0,0.25,1.412353371,0.5498168668524888,-0.0012207029999999897,-11779.0,0.25,-450.0,-420.0,0.0,0.125,2.438964594,1.9285545897722227,0.0012207029999999897,-5716.0,2.625,465.0,420.0,0.0,0.0,2.773437216,4.389674732977289,0.0012207030000004337,-7022.0,1.25,-480.0,-420.0,0.0,0.125,4.637450697,3.0316872062785585,0.0,0.7900000214576721,-1.2799999713897705,21.309999465942383,-0.02783203125,0.01519775390625,0.92425537109375,36.459999084472656,0.0,-5.0,1.816192626953125,-0.7924041748046875,Closing,0.0,0.0,0.0,0.0,0.0,0.0,0.0,0.0,
4.860969000000004,0.0,0.0,18593.0,0.875,457.5,420.0,0.0,0.125,1.36718736,0.5498168668524888,0.0012207029999999897,-11779.0,0.25,-450.0,-420.0,0.0,0.125,2.449950921,1.9285545897722227,-0.0012207029999999897,-5716.0,2.5,465.0,420.0,0.0,0.0,2.766112998,4.389674732977289,0.0,-7022.0,1.25,-480.0,-420.0,0.0,0.125,4.635009291,3.0316872062785585,0.0,0.8199999928474426,-1.2699999809265137,19.149999618530273,-0.0140380859375,-2.44140625E-4,1.04736328125,36.459999084472656,0.0,3.0,1.8161163330078125,-0.793670654296875,Closing,0.0,0.0,0.0,0.0,0.0,0.0,0.0,0.0,
4.8900299999999985,0.0,0.0,18593.0,0.875,457.5,420.0,0.0,0.125,1.359863142,0.5498168668524888,0.0,-11779.0,0.25,-442.5,-420.0,0.0,0.125,2.449950921,1.9285545897722227,0.0012207029999999897,-5716.0,2.5,465.0,420.0,0.0,0.0,2.763671592,4.389674732977289,0.0,-7022.0,1.0,-472.5,-420.0,0.0,0.125,4.641112806000001,3.0316872062785585,0.0012207030000004337,0.800000011920929,-1.2000000476837158,17.719999313354492,-0.01605224609375,0.02764892578125,1.03289794921875,36.43000030517578,0.0,9.0,1.8161163330078125,-0.794158935546875,Closing,0.0,0.0,0.0,0.0,0.0,0.0,0.0,0.125,
4.925586000000003,0.0,0.0,18593.0,0.75,450.0,420.0,0.0,0.125,1.3684080630000002,0.5498168668524888,0.0,-11850.0,0.25,-442.5,-420.0,0.0,0.125,2.449950921,1.9285545897722227,-0.0012207029999999897,-5641.0,2.5,465.0,420.0,0.0,0.0,2.764892295,4.389674732977289,0.0,-7097.0,1.0,-472.5,-420.0,0.0,0.125,4.641112806000001,3.0316872062785585,0.003662108999999525,0.8199999928474426,-1.1399999856948853,15.59000015258789,-0.03564453125,-0.0281982421875,0.97332763671875,36.43000030517578,0.0,-26.0,1.8161468505859375,-0.7941741943359375,Closing,0.0,0.0,0.0,0.0,0.0,0.0,0.0,0.0,
4.962586999999999,0.0,0.0,18665.0,0.75,450.0,420.0,0.0,0.25,1.36718736,0.5498168668524888,-0.0012207029999999897,-11850.0,0.25,-435.0,-420.0,0.0,0.125,2.448730218,1.9285545897722227,0.0,-5641.0,2.5,457.5,420.0,0.0,0.0,2.767333701,4.389674732977289,0.0,-7097.0,1.0,-472.5,-420.0,0.0,0.125,4.654540539,3.0316872062785585,0.0012207030000004337,0.8500000238418579,-1.0800000429153442,13.470000267028809,-0.033935546875,0.0361328125,0.9913330078125,36.43000030517578,0.0,-9.0,1.816253662109375,-0.794342041015625,Closing,0.0,0.0,0.0,0.0,0.0,0.0,0.0,0.125,
5.0138270000000045,0.0,0.0,18665.0,0.75,442.5,420.0,0.0,0.25,1.36718736,0.5498168668524888,-0.0012207029999999897,-11850.0,0.25,-427.5,-420.0,0.0,0.125,2.451171624,1.9285545897722227,0.0,-5641.0,2.375,457.5,420.0,0.0,0.0,2.766112998,4.389674732977289,0.0,-7097.0,1.0,-472.5,-420.0,0.0,0.125,4.6606440540000005,3.0316872062785585,0.013427732999999442,0.8500000238418579,-1.100000023841858,11.369999885559082,-0.0244140625,0.03912353515625,1.1302490234375,36.43000030517578,0.0,1.0,1.8166046142578125,-0.7945709228515625,Closing,0.0,0.0,0.0,0.0,0.0,0.0,0.0,0.0,
