Time,ClimberA1,ClimberA2,FRpos,FRCurrent,FRspeed,FRsetpoint,FRApos,FRACurrent,FREncpos,FREncSetpoint,FREncSpeed,FLpos,FLCurrent,FLspeed,FLsetpoint,FLApos,FLACurrent,FLEncpos,FLEncSetpoint,FLEncSpeed,BRpos,BRCurrent,BRspeed,BRsetpoint,BRApos,BRACurrent,BREncpos,BREncSetpoint,BREncSpeed,BLpos,BLCurrent,BLspeed,BLsetpoint,BLApos,BLACurrent,BLEncpos,BLEncSetpoint,BLEncSpeed,navx_Pitch,navx_Roll,navx_Yaw,navx_XAcc,navx_YAcc,navx_ZAcc,navx_Temp,navx_Bar,navx_Alt,navx_XDis,navx_YDis,GearPlacerState,ShootOutputV,ShootOutputCurrent,ShootEncPos,ShootEncVelocity,ShootSpeed,ShootSetpoint,CarouselSetpoint,CarouselCurrent,
0.1333400000000256,0.0,0.0,5967.0,0.0,0.0,0.0,0.0,0.125,0.823974525,0.01,0.0,-7925.0,0.0,0.0,-0.0,0.0,0.25,0.48095698200000003,0.01,0.0,6206.0,0.125,0.0,0.0,0.0,0.0,3.333739893,0.01,0.0,-8367.0,0.125,0.0,-0.0,0.0,0.25,1.6552732680000002,0.01,0.0,0.1899999976158142,-0.6800000071525574,-14.920000076293945,-0.0146484375,0.0023193359375,1.0169677734375,36.97999954223633,0.0,-2.0,-0.451324462890625,0.33203125,Closing,0.0,0.0,0.0,0.0,0.0,0.0,0.0,0.125,
0.2865900000000256,0.0,0.0,5967.0,0.0,0.0,0.0,0.0,0.125,0.822753822,0.01,0.0,-7925.0,0.0,0.0,-0.0,0.0,0.25,0.482177685,0.01,0.0,6206.0,0.0,0.0,0.0,0.0,0.0,3.334960596,0.01,0.0,-8367.0,0.0,0.0,-0.0,0.0,0.25,1.6564939710000002,0.01,0.0,0.1899999976158142,-0.6800000071525574,-14.920000076293945,-0.01251220703125,0.00146484375,1.01788330078125,36.970001220703125,0.0,0.0,-0.451324462890625,0.33203125,Closing,0.0,0.0,0.0,0.0,0.0,0.0,0.0,0.125,
0.4195290000000387,0.0,0.0,5967.0,0.0,0.0,0.0,0.0,0.125,0.822753822,0.01,0.0,-7925.0,0.0,0.0,-0.0,0.0,0.25,0.482177685,0.01,0.0,6206.0,0.0,0.0,0.0,0.0,0.0,3.333739893,0.01,0.0,-8367.0,0.0,0.0,-0.0,0.0,0.25,1.6564939710000002,0.01,0.0,0.1899999976158142,-0.6800000071525574,-14.920000076293945,-0.01348876953125,0.003173828125,1.01849365234375,36.970001220703125,0.0,-1.0,-0.451324462890625,0.33203125,Closing,0.0,0.0,0.0,0.0,0.0,0.0,0.0,0.0,
0.5464140000000479,0.0,0.0,5967.0,0.0,0.0,0.0,0.0,0.125,0.822753822,0.01,0.0,-7925.0,0.0,0.0,-0.0,0.0,0.25,0.48095698200000003,0.01,0.0,6206.0,0.125,0.0,0.0,0.0,0.0,3.333739893,0.01,0.0,-8367.0,0.125,0.0,-0.0,0.0,0.25,1.6564939710000002,0.01,0.0,0.18000000715255737,-0.6800000071525574,-14.920000076293945,-0.01214599609375,0.004638671875,1.0208740234375,36.970001220703125,0.0,0.0,-0.451324462890625,0.33203125,Closing,0.0,0.0,0.0,0.0,0.0,0.0,0.0,0.125,
0.6739520000000484,0.0,0.0,5967.0,0.0,0.0,0.0,0.0,0.125,0.822753822,0.01,0.0,-7925.0,0.0,0.0,-0.0,0.0,0.25,0.482177685,0.01,0.0,6206.0,0.0,0.0,0.0,0.0,0.0,3.334960596,0.01,0.0,-8367.0,0.0,0.0,-0.0,0.0,0.25,1.6564939710000002,0.01,0.0,0.18000000715255737,-0.6899999976158142,-14.920000076293945,-0.01092529296875,0.00335693359375,1.02166748046875,36.970001220703125,0.0,1.0,-0.451324462890625,0.33203125,Closing,0.0,0.0,0.0,0.0,0.0,0.0,0.0,0.125,
0.8188070000000298,0.0,0.0,5967.0,0.0,0.0,0.0,0.0,0.25,0.822753822,0.01,0.0,-7925.0,0.0,0.0,-0.0,0.0,0.25,0.482177685,0.01,0.0,6206.0,0.0,0.0,0.0,0.0,0.0,3.334960596,0.01,0.0,-8367.0,0.0,0.0,-0.0,0.0,0.25,1.6564939710000002,0.01,0.0,0.18000000715255737,-0.6899999976158142,-14.920000076293945,-0.013671875,0.00439453125,1.02435302734375,36.95000076293945,0.0,-1.0,-0.451324462890625,0.33203125,Closing,0.0,0.0,0.0,0.0,0.0,0.0,0.0,0.125,
0.9542860000000218,0.0,0.0,5967.0,0.0,0.0,0.0,0.0,0.25,0.822753822,0.01,0.0,-7925.0,0.0,0.0,-0.0,0.0,0.25,0.482177685,0.01,0.0,6206.0,0.0,0.0,0.0,0.0,0.0,3.334960596,0.01,0.0,-8367.0,0.125,0.0,-0.0,0.0,0.25,1.6564939710000002,0.01,0.0,0.18000000715255737,-0.6899999976158142,-14.920000076293945,-0.0128173828125,0.008544921875,1.019775390625,36.95000076293945,0.0,-1.0,-0.451324462890625,0.33203125,Closing,0.0,0.0,0.0,0.0,0.0,0.0,0.0,0.125,
1.0894400000000024,0.0,0.0,5967.0,0.0,0.0,0.0,0.0,0.25,0.822753822,0.01,0.0,-7925.0,0.0,0.0,-0.0,0.0,0.25,0.482177685,0.01,0.0,6206.0,0.0,0.0,0.0,0.0,0.0,3.333739893,0.01,0.0,-8367.0,0.125,0.0,-0.0,0.0,0.25,1.6564939710000002,0.01,0.0,0.18000000715255737,-0.6899999976158142,-14.920000076293945,-0.01171875,0.00469970703125,1.01953125,36.95000076293945,0.0,0.0,-0.451324462890625,0.33203125,Closing,0.0,0.0,0.0,0.0,0.0,0.0,0.0,0.0,
1.222176000000036,0.0,0.0,5967.0,0.0,0.0,0.0,0.0,0.25,0.822753822,0.01,0.0,-7925.0,0.0,0.0,-0.0,0.0,0.25,0.482177685,0.01,0.0,6206.0,0.0,0.0,0.0,0.0,0.0,3.333739893,0.01,0.0,-8367.0,0.125,0.0,-0.0,0.0,0.25,1.6552732680000002,0.01,0.0,0.1899999976158142,-0.699999988079071,-14.920000076293945,-0.01171875,0.00469970703125,1.01995849609375,36.95000076293945,0.0,0.0,-0.451324462890625,0.33203125,Closing,0.0,0.0,0.0,0.0,0.0,0.0,0.0,0.0,
1.3585109999999987,0.0,0.0,5959.0,2.75,-30.0,-754.0157639980315,0.0,0.25,0.822753822,4.932250999999998,0.0,-7912.0,5.25,67.5,754.0157639980315,0.0,0.125,0.477294873,4.963769999999998,0.0,6182.0,2.125,-157.5,-754.0157639980315,0.0,0.0,3.354491844,0.01,0.0,-8336.0,2.125,187.5,754.0157639980315,0.0,0.25,1.6369627230000001,0.01,0.0,0.20000000298023224,-1.2599999904632568,-14.970000267028809,-0.07958984375,0.0125732421875,1.26849365234375,36.9900016784668,0.0,-51.0,-0.454498291015625,0.3302154541015625,Closing,0.0,0.0,0.0,0.0,0.0,0.0,0.0,0.125,
1.4896840000000084,0.0,0.0,5923.0,4.125,-240.0,-754.0157639980315,0.0,0.125,0.822753822,4.932250999999998,0.0,-7877.0,6.875,232.5,754.0157639980315,0.0,0.25,0.468749952,4.963769999999998,0.0,6159.0,3.875,-180.0,-754.0157639980315,0.0,0.0,3.3630367650000004,0.01,0.0,-8305.0,3.5,247.5,754.0157639980315,0.0,0.125,1.588134603,0.01,0.0,0.18000000715255737,-1.840000033378601,-14.90999984741211,-0.20318603515625,-0.0185546875,1.0516357421875,36.9900016784668,0.0,-157.0,-0.4706268310546875,0.3220672607421875,Closing,0.0,0.0,0.0,0.0,0.0,0.0,0.0,0.0,
1.6240380000000005,0.0,0.0,5853.0,4.875,-502.5,-853.2283151149749,0.0,0.25,0.823974525,4.932250999999998,0.0,-7806.0,7.625,502.5,853.2283151149749,0.0,0.25,0.468749952,4.963769999999998,0.0,6099.0,4.875,-382.5,-853.2283151149749,0.0,0.0,3.3618160620000004,0.01,0.0,-8239.0,4.125,502.5,853.2283151149749,0.0,0.25,1.588134603,0.01,0.0,0.1899999976158142,-2.5399999618530273,-14.779999732971191,-0.11065673828125,0.00799560546875,1.03546142578125,36.9900016784668,0.0,-63.0,-0.5036773681640625,0.3085479736328125,Closing,0.0,0.0,0.0,0.0,0.0,0.0,0.0,0.0,
1.7442820000000065,0.0,0.0,5748.0,4.25,-682.5,-873.0709004402161,0.0,0.125,0.822753822,4.932250999999998,0.0,-7703.0,6.75,675.0,873.0709004402161,0.0,0.25,0.46630854600000005,4.963769999999998,0.0,6032.0,6.125,-427.5,-873.0709004402161,0.0,0.0,3.3679195770000003,0.01,0.0,-8142.0,3.875,630.0,873.0709004402161,0.0,0.25,1.588134603,0.01,0.0,0.17000000178813934,-2.9100000858306885,-14.5600004196167,-0.1541748046875,-0.0262451171875,1.28033447265625,36.9900016784668,0.0,-78.0,-0.5340728759765625,0.2977294921875,Closing,0.0,0.0,0.0,0.0,0.0,0.0,0.0,0.0,
1.8870510000000358,0.0,0.0,5616.0,2.875,-870.0,-873.0709004402161,0.0,0.125,0.823974525,4.932250999999998,0.0,-7574.0,4.25,855.0,873.0709004402161,0.0,0.25,0.46630854600000005,4.963769999999998,0.0,5929.0,4.75,-840.0,-873.0709004402161,0.0,0.0,3.3679195770000003,0.01,0.0,-8022.0,3.125,810.0,873.0709004402161,0.0,0.25,1.5820310880000001,0.01,0.0,0.25999999046325684,-3.200000047683716,-14.0600004196167,-0.1199951171875,0.07415771484375,1.0050048828125,36.95000076293945,0.0,-78.0,-0.582122802734375,0.2820281982421875,Closing,0.0,0.0,0.0,0.0,0.0,0.0,0.0,0.125,
2.0077110000000102,0.0,0.0,5468.0,3.625,-975.0,-1108.3909620734173,0.0,0.375,0.865478427,0.12124963680975548,0.0,-7433.0,1.5,892.5,711.3715709946595,0.0,0.25,0.550537053,0.19123384290752465,0.0,5790.0,6.625,-892.5,-1108.3909620734173,0.0,0.25,3.3142086450000003,4.818950036140716,0.0,-7887.0,2.25,772.5,711.3715709946595,0.0,0.25,1.5270994530000002,4.766988451693872,0.0,0.2800000011920929,-3.2200000286102295,-13.489999771118164,-0.08258056640625,0.06494140625,1.11669921875,36.95000076293945,0.0,-32.0,-0.60699462890625,0.27264404296875,Closing,0.0,0.0,0.0,0.0,0.0,0.0,0.0,0.125,
2.1435560000000407,0.0,0.0,5302.0,2.75,-1087.5,-1108.3909620734173,0.0,0.25,0.928954983,0.12124963680975548,0.0,-7290.0,1.375,855.0,711.3715709946595,0.0,0.25,0.72021477,0.19123384290752465,0.0,5646.0,6.875,-907.5,-1108.3909620734173,0.0,0.125,3.237304356,4.818950036140716,0.0,-7764.0,1.5,840.0,711.3715709946595,0.0,0.25,1.4221189950000002,4.766988451693872,0.0,0.14000000059604645,-2.950000047683716,-11.789999961853027,0.05609130859375,0.08758544921875,0.77716064453125,36.95000076293945,0.0,76.0,-0.60638427734375,0.27325439453125,Closing,0.0,0.0,0.0,0.0,0.0,0.0,0.0,0.125,
2.285342000000004,0.0,0.0,4906.0,0.75,-1275.0,-1165.424047227503,0.0,0.25,0.966796776,0.1443852194043516,0.0,-7038.0,1.25,757.5,674.6198513776856,0.0,0.25,0.786132732,0.25396189706574884,0.0,5281.0,4.75,-1237.5,-1165.424047227503,0.0,0.125,3.2116695930000003,4.795776229241931,0.0,-7512.0,1.25,750.0,674.6198513776856,0.0,0.25,1.353759627,4.704333314063306,0.0,0.20000000298023224,-2.950000047683716,-5.739999771118164,-0.06268310546875,0.00341796875,1.06707763671875,36.95000076293945,0.0,-7.0,-0.60302734375,0.2764129638671875,Closing,0.0,0.0,0.0,0.0,0.0,0.0,0.0,0.125,
2.4237530000000262,0.0,0.0,4691.0,0.625,-1335.0,-1252.6541840971902,0.0,0.125,0.9619139640000001,0.17509533578532724,0.0,-6920.0,0.875,742.5,628.5784091353579,0.0,0.25,0.832519446,0.3606595514646347,0.0,5064.0,4.0,-1350.0,-1252.6541840971902,0.0,0.125,3.2128902960000003,4.765015374012022,0.0,-7403.0,1.25,682.5,628.5784091353579,0.0,0.25,1.301269398,4.597759687463025,0.0,0.3700000047683716,-2.759999990463257,-0.6200000047683716,-0.1004638671875,0.07568359375,1.07696533203125,36.959999084472656,0.0,-49.0,-0.5996551513671875,0.282257080078125,Closing,0.0,0.0,0.0,0.0,0.0,0.0,0.0,0.125,
2.5510740000000225,0.0,0.0,4480.0,0.375,-1312.5,-1267.363921022989,0.0,0.125,0.9606932610000001,0.17980082072249787,0.0,-6809.0,0.875,682.5,622.1129944551371,0.0,0.25,0.898437408,0.37988670273461317,0.0,4861.0,4.375,-1230.0,-1267.363921022989,0.0,0.125,3.197021157,4.760302114734747,0.0,-7301.0,1.25,630.0,622.1129944551371,0.0,0.25,1.230468624,4.5785548862743015,0.0,0.44999998807907104,-2.25,6.320000171661377,0.139892578125,0.08184814453125,0.1759033203125,36.959999084472656,0.0,154.0,-0.5966339111328125,0.29656982421875,Closing,0.0,0.0,0.0,0.0,0.0,0.0,0.0,0.125,
2.6888130000000237,0.0,0.0,4270.0,0.375,-1312.5,-1267.363921022989,0.0,0.25,0.9619139640000001,0.17980082072249787,0.0,-6705.0,1.0,645.0,622.1129944551371,0.0,0.125,0.9204100620000001,0.37988670273461317,0.0,4663.0,4.25,-1267.5,-1267.363921022989,0.0,0.125,3.188476236,4.760302114734747,0.0,-7191.0,1.5,652.5,622.1129944551371,0.0,0.125,1.2121580790000002,4.5785548862743015,0.0,0.7400000095367432,-2.390000104904175,13.029999732971191,0.02728271484375,-0.01776123046875,1.29388427734375,36.959999084472656,0.0,71.0,-0.585479736328125,0.314056396484375,Closing,0.0,0.0,0.0,0.0,0.0,0.0,0.0,0.125,
2.77358600000001,0.0,0.0,4063.0,0.375,-1297.5,-1267.363921022989,0.0,0.25,0.9606932610000001,0.17980082072249787,0.0,-6603.0,1.0,637.5,622.1129944551371,0.0,0.25,0.914306547,0.37988670273461317,0.0,4455.0,4.125,-1282.5,-1267.363921022989,0.0,0.125,3.188476236,4.760302114734747,0.0,-7096.0,1.625,592.5,622.1129944551371,0.0,0.25,1.207275267,4.5785548862743015,0.0,0.8100000023841858,-2.2200000286102295,18.219999313354492,0.10186767578125,0.0509033203125,0.70489501953125,36.959999084472656,0.0,135.0,-0.5709686279296875,0.331146240234375,Closing,0.0,0.0,0.0,0.0,0.0,0.0,0.0,0.125,
2.9580320000000064,0.0,0.0,3868.0,0.0,-1207.5,-892.9134106636047,0.0,0.375,0.898437408,4.932250999999998,0.0,-6496.0,4.125,667.5,892.9134106636047,0.0,0.25,0.7751464050000001,4.963769999999998,0.0,4251.0,0.625,-1245.0,-892.9134106636047,0.0,0.125,3.240966465,0.01,0.0,-6989.0,3.75,637.5,892.9134106636047,0.0,0.625,1.4208982920000002,0.01,0.0,0.9900000095367432,-2.259999990463257,25.290000915527344,-0.07275390625,0.16217041015625,1.23651123046875,36.90999984741211,0.0,38.0,-0.5422210693359375,0.3593902587890625,Closing,0.0,0.0,0.0,0.0,0.0,0.0,0.0,0.0,
3.050097000000009,0.0,0.0,3671.0,0.0,-1222.5,-892.9134106636047,0.0,0.375,0.821533119,4.932250999999998,0.0,-6389.0,4.625,690.0,892.9134106636047,0.0,0.25,0.521240181,4.963769999999998,0.0,4054.0,0.625,-1207.5,-892.9134106636047,0.0,0.125,3.333739893,0.01,0.0,-6892.0,5.0,607.5,892.9134106636047,0.0,0.375,1.6601560800000001,0.01,0.0,0.9700000286102295,-2.3399999141693115,28.399999618530273,-0.02264404296875,0.0958251953125,1.23419189453125,36.90999984741211,0.0,60.0,-0.5328521728515625,0.379608154296875,Closing,0.0,0.0,0.0,0.0,0.0,0.0,0.0,0.125,
3.130563000000024,0.0,0.0,3521.0,0.125,-915.0,-892.9134106636047,0.0,0.125,0.780029217,4.932250999999998,0.0,-6250.0,2.5,885.0,892.9134106636047,0.0,0.0,0.371093712,4.963769999999998,0.0,3897.0,1.25,-960.0,-892.9134106636047,0.0,0.0,3.3630367650000004,0.01,0.0,-6762.0,3.625,832.5,892.9134106636047,0.0,0.25,1.7089842000000002,0.01,0.0,1.0099999904632568,-1.9800000190734863,28.469999313354492,0.003662109375,0.0296630859375,0.7509765625,36.90999984741211,0.0,33.0,-0.5301971435546875,0.40423583984375,Closing,0.0,0.0,0.0,0.0,0.0,0.0,0.0,0.0,
3.243411000000022,0.0,0.0,3521.0,0.125,-765.0,-892.9134106636047,0.0,0.125,0.7897948410000001,4.932250999999998,0.0,-6094.0,1.5,967.5,892.9134106636047,0.0,0.25,0.367431603,4.963769999999998,0.0,3771.0,3.125,-795.0,-892.9134106636047,0.0,0.0,3.3776852010000002,0.01,0.0,-6604.0,2.625,975.0,892.9134106636047,0.0,0.25,1.671142407,0.01,0.0,1.0700000524520874,-2.0299999713897705,27.309999465942383,-0.04736328125,-0.0689697265625,1.0419921875,36.90999984741211,0.0,-49.0,-0.525848388671875,0.4142303466796875,Closing,0.0,0.0,0.0,0.0,0.0,0.0,0.0,0.125,
3.3262520000000366,0.0,0.0,3397.0,0.375,-817.5,-892.9134106636047,0.0,0.125,0.7897948410000001,4.932250999999998,0.0,-6094.0,1.25,960.0,892.9134106636047,0.0,0.25,0.399169881,4.963769999999998,0.0,3771.0,3.375,-802.5,-892.9134106636047,0.0,0.125,3.391112934,0.01,0.0,-6604.0,2.0,945.0,892.9134106636047,0.0,0.25,1.627197099,0.01,0.0,0.9900000095367432,-1.9800000190734863,26.479999542236328,-0.04736328125,-0.066650390625,1.1058349609375,36.959999084472656,0.0,-46.0,-0.5236663818359375,0.4110260009765625,Closing,0.0,0.0,0.0,0.0,0.0,0.0,0.0,0.125,
3.432118000000017,0.0,0.0,3258.0,0.125,-862.5,-892.9134106636047,0.0,0.25,0.7910155440000001,4.932250999999998,0.0,-5939.0,1.5,915.0,892.9134106636047,0.0,0.25,0.48583979400000005,4.963769999999998,0.0,3635.0,3.375,-832.5,-892.9134106636047,0.0,0.125,3.391112934,0.01,0.0,-6454.0,2.75,892.5,892.9134106636047,0.0,0.125,1.6320799110000002,0.01,0.0,0.7799999713897705,-1.8200000524520874,25.780000686645508,-0.105712890625,-0.02374267578125,1.2264404296875,36.959999084472656,0.0,-77.0,-0.5233306884765625,0.405517578125,Closing,0.0,0.0,0.0,0.0,0.0,0.0,0.0,0.125,
3.5631959999999965,0.0,0.0,3122.0,0.375,-847.5,-892.9134106636047,0.0,0.125,0.7897948410000001,4.932250999999998,0.0,-5798.0,2.125,870.0,892.9134106636047,0.0,0.0,0.539550726,4.963769999999998,0.0,3503.0,3.375,-847.5,-892.9134106636047,0.0,0.125,3.392333637,0.01,0.0,-6315.0,2.75,862.5,892.9134106636047,0.0,0.125,1.619872881,0.01,0.0,0.7300000190734863,-1.7300000190734863,25.65999984741211,-0.05987548828125,-0.09637451171875,0.845947265625,36.959999084472656,0.0,-77.0,-0.5228271484375,0.404083251953125,Closing,0.0,0.0,0.0,0.0,0.0,0.0,0.0,0.125,
3.6475500000000465,0.0,0.0,2987.0,0.375,-847.5,-892.9134106636047,0.0,0.25,0.7897948410000001,4.932250999999998,0.0,-5659.0,2.375,862.5,892.9134106636047,0.0,0.25,0.539550726,4.963769999999998,0.0,3364.0,3.5,-862.5,-892.9134106636047,0.0,0.125,3.392333637,0.01,0.0,-6174.0,2.875,862.5,892.9134106636047,0.0,0.125,1.617431475,0.01,0.0,0.6700000166893005,-1.6799999475479126,25.579999923706055,0.00152587890625,0.057861328125,1.0201416015625,36.959999084472656,0.0,48.0,-0.521942138671875,0.4034881591796875,Closing,0.0,0.0,0.0,0.0,0.0,0.0,0.0,0.0,
3.8085660000000496,0.0,0.0,2849.0,0.375,-862.5,-892.9134106636047,0.0,0.125,0.794677653,4.932250999999998,0.0,-5522.0,2.5,870.0,892.9134106636047,0.0,0.25,0.5407714290000001,4.963769999999998,0.0,3225.0,3.5,-862.5,-892.9134106636047,0.0,0.125,3.391112934,0.01,0.0,-6039.0,3.125,855.0,892.9134106636047,0.0,0.125,1.622314287,0.01,0.0,0.6600000262260437,-1.5399999618530273,25.530000686645508,0.00494384765625,0.1251220703125,0.84613037109375,36.959999084472656,0.0,74.0,-0.5198516845703125,0.403228759765625,Closing,0.0,0.0,0.0,0.0,0.0,0.0,0.0,0.125,
3.9449410000000498,0.0,0.0,2711.0,0.375,-855.0,-892.9134106636047,0.0,0.25,0.8007811680000001,4.932250999999998,0.0,-5382.0,2.75,862.5,892.9134106636047,0.0,0.25,0.539550726,4.963769999999998,0.0,3085.0,3.625,-870.0,-892.9134106636047,0.0,0.125,3.391112934,0.01,0.0,-5899.0,3.25,855.0,892.9134106636047,0.0,0.125,1.622314287,0.01,0.0,0.6499999761581421,-1.5,25.520000457763672,-0.10418701171875,-0.11865234375,1.096923828125,36.95000076293945,0.0,-124.0,-0.5164337158203125,0.4033203125,Closing,0.0,0.0,0.0,0.0,0.0,0.0,0.0,0.0,
4.074248000000021,0.0,0.0,2574.0,0.375,-870.0,-892.9134106636047,0.0,0.125,0.8044432770000001,4.932250999999998,0.0,-5100.0,2.5,885.0,892.9134106636047,0.0,0.25,0.5407714290000001,4.963769999999998,0.0,2800.0,3.375,-900.0,-892.9134106636047,0.0,0.125,3.392333637,0.01,0.0,-5627.0,3.375,862.5,892.9134106636047,0.0,0.125,1.617431475,0.01,0.0,0.5899999737739563,-1.5299999713897705,25.559999465942383,-0.07904052734375,0.1016845703125,1.2073974609375,36.95000076293945,0.0,-3.0,-0.5136260986328125,0.402313232421875,Closing,0.0,0.0,0.0,0.0,0.0,0.0,0.0,0.125,
4.223719000000041,0.0,0.0,2297.0,0.625,-855.0,-892.9134106636047,0.0,0.25,0.8044432770000001,4.932250999999998,0.0,-4955.0,2.375,892.5,892.9134106636047,0.0,0.25,0.5407714290000001,4.963769999999998,0.0,2655.0,3.375,-900.0,-892.9134106636047,0.0,0.125,3.392333637,0.01,0.0,-5481.0,3.125,900.0,892.9134106636047,0.0,0.125,1.622314287,0.01,0.0,0.5699999928474426,-1.399999976158142,25.420000076293945,-0.02471923828125,-0.01953125,1.0068359375,36.95000076293945,0.0,-12.0,-0.51202392578125,0.400634765625,Closing,0.0,0.0,0.0,0.0,0.0,0.0,0.0,0.125,
4.351016000000003,0.0,0.0,2156.0,0.625,-870.0,-892.9134106636047,0.0,0.125,0.8032225740000001,4.932250999999998,0.0,-4811.0,2.375,907.5,892.9134106636047,0.0,0.25,0.539550726,4.963769999999998,0.0,2512.0,3.375,-892.5,-892.9134106636047,0.0,0.125,3.391112934,0.01,0.0,-5335.0,3.0,915.0,892.9134106636047,0.0,0.125,1.617431475,0.01,0.0,0.5400000214576721,-1.5499999523162842,25.3799991607666,-0.1390380859375,0.01171875,1.2298583984375,36.93000030517578,0.0,-95.0,-0.510650634765625,0.39776611328125,Closing,0.0,0.0,0.0,0.0,0.0,0.0,0.0,0.0,
4.492597999999998,0.0,0.0,2016.0,0.625,-870.0,-892.9134106636047,0.0,0.125,0.811767495,4.932250999999998,0.0,-4664.0,2.125,922.5,892.9134106636047,0.0,0.25,0.5407714290000001,4.963769999999998,0.0,2370.0,3.5,-892.5,-892.9134106636047,0.0,0.125,3.392333637,0.01,0.0,-5190.0,3.125,892.5,892.9134106636047,0.0,0.125,1.617431475,0.01,0.0,0.44999998807907104,-1.440000057220459,25.25,-0.01177978515625,-0.06121826171875,1.15643310546875,36.93000030517578,0.0,-14.0,-0.5113983154296875,0.394744873046875,Closing,0.0,0.0,0.0,0.0,0.0,0.0,0.0,0.125,
4.6236900000000025,0.0,0.0,1874.0,0.625,-885.0,-892.9134106636047,0.0,0.125,0.8044432770000001,4.932250999999998,0.0,-4518.0,2.125,900.0,892.9134106636047,0.0,0.25,0.539550726,4.963769999999998,0.0,2224.0,3.25,-915.0,-892.9134106636047,0.0,0.125,3.392333637,0.01,0.0,-5048.0,3.0,892.5,892.9134106636047,0.0,0.125,1.621093584,0.01,0.0,0.49000000953674316,-1.2200000286102295,25.190000534057617,0.0281982421875,0.02142333984375,0.96942138671875,36.93000030517578,0.0,49.0,-0.51171875,0.3927459716796875,Closing,0.0,0.0,0.0,0.0,0.0,0.0,0.0,0.0,
4.751842000000004,0.0,0.0,1735.0,0.625,-870.0,-892.9134106636047,0.0,0.25,0.8032225740000001,4.932250999999998,0.0,-4373.0,2.25,892.5,892.9134106636047,0.0,0.25,0.539550726,4.963769999999998,0.0,2073.0,3.125,-930.0,-892.9134106636047,0.0,0.125,3.392333637,0.01,0.0,-4906.0,3.125,885.0,892.9134106636047,0.0,0.125,1.617431475,0.01,0.0,0.5199999809265137,-1.1799999475479126,25.149999618530273,-0.03509521484375,-0.00152587890625,1.3900146484375,36.93000030517578,0.0,-11.0,-0.511474609375,0.3909454345703125,Closing,0.0,0.0,0.0,0.0,0.0,0.0,0.0,0.125,
4.887082000000053,0.0,0.0,1595.0,0.75,-870.0,-892.9134106636047,0.0,0.25,0.8044432770000001,4.932250999999998,0.0,-4232.0,2.25,877.5,892.9134106636047,0.0,0.25,0.539550726,4.963769999999998,0.0,1927.0,3.125,-915.0,-892.9134106636047,0.0,0.125,3.392333637,0.01,0.0,-4762.0,3.375,877.5,892.9134106636047,0.0,0.125,1.622314287,0.01,0.0,0.49000000953674316,-1.2400000095367432,25.049999237060547,-0.05181884765625,-0.067626953125,1.35491943359375,36.90999984741211,0.0,-53.0,-0.510894775390625,0.3873291015625,Closing,0.0,0.0,0.0,0.0,0.0,0.0,0.0,0.125,
5.022569000000018,0.0,0.0,1452.0,0.625,-885.0,-892.9134106636047,0.0,0.25,0.8044432770000001,4.932250999999998,0.0,-4090.0,2.25,892.5,892.9134106636047,0.0,0.25,0.534667914,4.963769999999998,0.0,1780.0,3.125,-915.0,-892.9134106636047,0.0,0.125,3.391112934,0.01,0.0,-4623.0,3.5,877.5,892.9134106636047,0.0,0.125,1.617431475,0.01,0.0,0.4399999976158142,-1.1399999856948853,25.079999923706055,-0.07659912109375,0.0872802734375,1.11285400390625,36.90999984741211,0.0,-15.0,-0.508758544921875,0.382537841796875,Closing,0.0,0.0,0.0,0.0,0.0,0.0,0.0,0.125,
5.1534900000000485,0.0,0.0,1312.0,0.75,-862.5,-892.9134106636047,0.0,0.125,0.797119059,4.932250999999998,0.0,-3946.0,2.125,900.0,892.9134106636047,0.0,0.25,0.539550726,4.963769999999998,0.0,1490.0,3.125,-892.5,-892.9134106636047,0.0,0.125,3.392333637,0.01,0.0,-4343.0,3.625,870.0,892.9134106636047,0.0,0.125,1.617431475,0.01,0.0,0.41999998688697815,-1.0800000429153442,25.190000534057617,-0.0345458984375,0.05120849609375,0.91943359375,36.90999984741211,0.0,3.0,-0.50799560546875,0.3785552978515625,Closing,0.0,0.0,0.0,0.0,0.0,0.0,0.0,0.0,
5.288885000000009,0.0,0.0,1038.0,1.25,-855.0,-892.9134106636047,0.0,0.125,0.8044432770000001,4.932250999999998,0.0,-3661.0,2.375,885.0,892.9134106636047,0.0,0.25,0.539550726,4.963769999999998,0.0,1346.0,3.0,-907.5,-892.9134106636047,0.0,0.125,3.3728023890000003,0.01,0.0,-4202.0,3.625,877.5,892.9134106636047,0.0,0.125,1.616210772,0.01,0.0,0.3400000035762787,-1.100000023841858,25.31999969482422,-0.134033203125,0.10125732421875,1.5794677734375,36.90999984741211,0.0,-54.0,-0.5081024169921875,0.3765411376953125,Closing,0.0,0.0,0.0,0.0,0.0,0.0,0.0,0.125,
5.424487000000023,0.0,0.0,856.0,26.375,-1132.5,-2728.3427819633634,0.0,0.375,0.989990133,0.3829790363776887,0.0,-3628.0,12.5,195.0,-1423.1115799840568,0.0,1.5,0.20141599500000001,4.081538248971278,0.0,1187.0,27.125,-982.5,-2728.3427819633634,0.0,0.625,3.236083653,4.556788210713459,0.0,-4119.0,7.5,487.5,-1423.1115799840568,0.0,2.0,2.073974397,0.8812062246237043,0.0,-0.03999999910593033,-0.9100000262260437,27.420000076293945,0.06512451171875,-0.387939453125,0.93548583984375,36.91999816894531,0.0,-107.0,-0.5121612548828125,0.37255859375,Closing,0.0,0.0,0.0,0.0,0.0,0.0,0.0,0.125,
5.556982000000018,0.0,0.0,624.0,28.625,-1440.0,-2631.4456648231503,0.0,0.375,1.230468624,0.37673597857179225,0.0,-3722.0,4.75,-615.0,-1332.9775367719565,0.0,0.25,4.566649923,4.0577558087526,0.0,937.0,27.75,-1552.5,-2631.4456648231503,0.0,0.25,3.034667658,4.563041583217058,0.0,-4116.0,9.25,0.0,-1332.9775367719565,0.0,0.75,2.5390622400000002,0.9049610195888628,0.0,-0.44999998807907104,-0.11999999731779099,37.439998626708984,-0.09124755859375,0.1690673828125,0.793212890625,36.91999816894531,0.0,35.0,-0.5146942138671875,0.351348876953125,Closing,0.0,0.0,0.0,0.0,0.0,0.0,0.0,0.125,
5.647195000000007,0.0,0.0,314.0,25.0,-1792.5,-2309.8758273754756,0.0,0.25,1.28173815,0.3521519850569469,0.0,-3873.0,0.25,-960.0,-1044.4856844616481,0.0,0.25,4.414062048,3.9494210956009943,0.0,677.0,27.375,-1605.0,-2309.8758273754756,0.0,0.125,2.989501647,4.587666194081498,0.0,-4210.0,4.5,-540.0,-1044.4856844616481,0.0,0.25,2.7404782350000003,1.0131698019872537,0.0,0.2199999988079071,-1.690000057220459,48.5,-0.57330322265625,0.05645751953125,1.57672119140625,36.91999816894531,0.0,-311.0,-0.51611328125,0.3431549072265625,Closing,0.0,0.0,0.0,0.0,0.0,0.0,0.0,0.125,
5.733771000000008,0.0,0.0,314.0,2.25,-2077.5,-892.9134106636047,0.0,1.125,1.103515512,4.932250999999998,0.0,-3873.0,16.25,-802.5,892.9134106636047,0.0,5.25,4.639892103,4.963769999999998,0.0,677.0,9.0,-1717.5,-892.9134106636047,0.0,0.75,3.134765304,0.01,0.0,-4210.0,1.5,-405.0,892.9134106636047,0.0,6.875,2.3815915530000002,0.01,0.0,0.5600000023841858,-2.309999942779541,59.810001373291016,0.07586669921875,0.360107421875,0.91705322265625,36.91999816894531,0.0,360.0,-0.52154541015625,0.3492889404296875,Closing,0.0,0.0,0.0,0.0,0.0,0.0,0.0,0.0,
5.8329520000000485,0.0,0.0,6.0,3.375,-1612.5,-892.9134106636047,0.0,0.375,0.904540923,4.932250999999998,0.0,-3982.0,14.0,-127.5,892.9134106636047,0.0,1.5,0.216064431,4.963769999999998,0.0,410.0,8.375,-1500.0,-892.9134106636047,0.0,0.25,3.3227535660000003,0.01,0.0,-4267.0,2.5,-225.0,892.9134106636047,0.0,0.875,1.8432615300000001,0.01,0.0,0.8899999856948853,-1.9900000095367432,68.04000091552734,0.16729736328125,-0.2999267578125,0.74468994140625,36.91999816894531,0.0,-216.0,-0.5165557861328125,0.3608856201171875,Closing,0.0,0.0,0.0,0.0,0.0,0.0,0.0,0.125,
5.931329000000027,0.0,0.0,-193.0,0.625,-1260.0,0.0,0.0,0.375,0.847167882,4.932250999999998,-0.18920896500000006,-3927.0,0.75,360.0,0.0,0.0,0.75,0.603027282,4.963769999999998,0.0,194.0,1.0,-1237.5,0.0,0.0,0.0,3.38134731,0.01,0.0,-4262.0,0.25,112.5,0.0,0.0,0.5,1.496581878,0.01,0.0,1.149999976158142,-2.0,71.61000061035156,0.12860107421875,0.28082275390625,1.16961669921875,36.95000076293945,0.0,297.0,-0.5050506591796875,0.36920166015625,Closing,0.0,0.0,0.0,0.0,0.0,0.0,0.0,0.0,
6.033313000000024,0.0,0.0,-248.0,12.0,-292.5,1050.0,0.0,1.75,0.9228514680000001,0.5498168668524888,0.0,-3853.0,1.0,502.5,1050.0,0.0,5.375,0.6457518870000001,4.410439589772222,0.0,145.0,17.875,-270.0,1050.0,0.0,1.625,3.2592770100000004,4.389674732977289,0.0,-4183.0,0.75,525.0,1050.0,0.0,3.875,1.5588377310000001,0.5526872062785588,0.0,1.5,-0.46000000834465027,71.4800033569336,0.41949462890625,-0.31976318359375,0.90814208984375,36.95000076293945,0.0,-190.0,-0.4780120849609375,0.3709716796875,Closing,0.0,0.0,0.0,0.0,0.0,0.0,0.0,0.0,
6.143651000000013,0.0,0.0,-207.0,5.75,180.0,689.0625,0.0,0.5,1.2927244770000001,0.5498168668524888,0.0,-3819.0,3.625,157.5,689.0625,0.0,1.125,0.124511706,4.410439589772222,0.0,145.0,11.875,7.5,689.0625,0.0,0.5,2.8930661100000004,4.389674732977289,0.0,-4152.0,2.25,142.5,689.0625,0.0,0.875,2.083740021,0.5526872062785588,0.0,1.25,0.5699999928474426,70.73999786376953,-0.090087890625,-0.00360107421875,1.46905517578125,36.95000076293945,0.0,-68.0,-0.4464263916015625,0.3426971435546875,Closing,0.0,0.0,0.0,0.0,0.0,0.0,0.0,0.0,
6.287332000000053,0.0,0.0,-205.0,0.0,0.0,0.0,0.0,0.25,1.4270018070000001,0.5498168668524888,0.0,-3813.0,0.0,22.5,0.0,0.0,0.25,4.852294425,4.410439589772222,0.0,154.0,0.0,30.0,0.0,0.0,0.25,2.779540731,4.389674732977289,0.0,-4144.0,0.125,7.5,0.0,0.0,0.25,2.2766110950000003,0.5526872062785588,0.0,1.090000033378601,0.029999999329447746,69.9000015258789,0.06036376953125,0.0859375,1.0755615234375,36.95000076293945,0.0,81.0,-0.4152069091796875,0.3118896484375,Closing,0.0,0.0,0.0,0.0,0.0,0.0,0.0,0.125,
6.4231270000000364,0.0,0.0,-205.0,0.0,0.0,0.0,0.0,0.25,1.4208982920000002,0.5498168668524888,0.0,-3811.0,0.0,0.0,0.0,0.0,0.25,4.835204583,4.410439589772222,0.0,154.0,0.0,0.0,0.0,0.0,0.0,2.780761434,4.389674732977289,0.0,-4144.0,0.0,0.0,0.0,0.0,0.25,2.247314223,0.5526872062785588,0.0,0.8899999856948853,0.09000000357627869,69.52999877929688,-0.0960693359375,0.00885009765625,1.0159912109375,36.880001068115234,0.0,-40.0,-0.385955810546875,0.2813720703125,Closing,0.0,0.0,0.0,0.0,0.0,0.0,0.0,0.125,
6.558358000000007,0.0,0.0,-205.0,0.0,0.0,0.0,0.0,0.25,1.392822123,0.5498168668524888,0.0,-3811.0,0.0,0.0,0.0,0.0,0.25,4.842528801,4.410439589772222,0.0,154.0,0.0,0.0,0.0,0.0,0.0,2.780761434,4.389674732977289,0.0,-4144.0,0.0,0.0,0.0,0.0,0.25,2.213134539,0.5526872062785588,0.0,0.8199999928474426,0.05000000074505806,69.66000366210938,-0.013427734375,-0.03558349609375,0.9871826171875,36.880001068115234,0.0,-51.0,-0.374725341796875,0.269012451171875,Closing,0.0,0.0,0.0,0.0,0.0,0.0,0.0,0.0,
6.691003000000026,0.0,0.0,-205.0,0.0,0.0,0.0,0.0,0.25,1.381835796,0.5498168668524888,0.0,-3812.0,0.0,0.0,0.0,0.0,0.25,4.853515128000001,4.410439589772222,0.0,154.0,0.125,0.0,0.0,0.0,0.0,2.780761434,4.389674732977289,0.0,-4144.0,0.125,0.0,0.0,0.0,0.25,2.198486103,0.5526872062785588,0.0,0.7799999713897705,-0.07999999821186066,69.66000366210938,-0.0299072265625,-0.03192138671875,1.0245361328125,36.880001068115234,0.0,-53.0,-0.3760986328125,0.270050048828125,Closing,0.0,0.0,0.0,0.0,0.0,0.0,0.0,0.125,
6.8242400000000485,0.0,0.0,-205.0,0.0,0.0,0.0,0.0,0.125,1.381835796,0.5498168668524888,0.0,-3812.0,0.0,0.0,0.0,0.0,0.25,4.886474109,4.410439589772222,0.0,154.0,0.0,0.0,0.0,0.0,0.0,2.780761434,4.389674732977289,0.0,-4144.0,0.125,0.0,0.0,0.0,0.25,2.193603291,0.5526872062785588,0.0,0.7300000190734863,-0.1599999964237213,69.68000030517578,-0.0250244140625,-0.008544921875,1.019775390625,36.880001068115234,0.0,-28.0,-0.3766021728515625,0.270233154296875,Closing,0.0,0.0,0.0,0.0,0.0,0.0,0.0,0.125,
6.957909000000043,0.0,0.0,-205.0,0.0,0.0,0.0,0.0,0.25,1.381835796,0.5498168668524888,0.0,-3812.0,0.0,0.0,0.0,0.0,0.25,4.885253406,4.410439589772222,0.0,154.0,0.0,0.0,0.0,0.0,0.0,2.780761434,4.389674732977289,0.0,-4144.0,0.125,0.0,0.0,0.0,0.25,2.193603291,0.5526872062785588,0.0,0.6499999761581421,-0.23999999463558197,69.69999694824219,-0.0267333984375,-0.00921630859375,1.00201416015625,36.869998931884766,0.0,-27.0,-0.3776397705078125,0.270233154296875,Closing,0.0,0.0,0.0,0.0,0.0,0.0,0.0,0.0,
7.088600000000035,0.0,0.0,-205.0,0.0,0.0,0.0,0.0,0.125,1.381835796,0.5498168668524888,0.0,-3812.0,0.0,0.0,0.0,0.0,0.25,4.886474109,4.410439589772222,0.0,154.0,0.0,0.0,0.0,0.0,0.0,2.780761434,4.389674732977289,0.0,-4144.0,0.125,0.0,0.0,0.0,0.25,2.199706806,0.5526872062785588,0.0,0.5699999928474426,-0.3400000035762787,69.69999694824219,-0.03619384765625,-5.4931640625E-4,1.05072021484375,36.869998931884766,0.0,-20.0,-0.3782196044921875,0.270263671875,Closing,0.0,0.0,0.0,0.0,0.0,0.0,0.0,0.0,
7.226021000000008,0.0,0.0,-205.0,0.0,0.0,0.0,0.0,0.125,1.381835796,0.5498168668524888,0.0,-3812.0,0.0,0.0,0.0,0.0,0.25,4.886474109,4.410439589772222,0.0,154.0,0.0,0.0,0.0,0.0,0.0,2.780761434,4.389674732977289,0.0,-4144.0,0.125,0.0,0.0,0.0,0.25,2.199706806,0.5526872062785588,0.0,0.5099999904632568,-0.4099999964237213,69.70999908447266,-0.02545166015625,-0.001220703125,1.00628662109375,36.869998931884766,0.0,-12.0,-0.37841796875,0.270599365234375,Closing,0.0,0.0,0.0,0.0,0.0,0.0,0.0,0.125,
7.344358999999996,0.0,0.0,-205.0,0.0,0.0,0.0,0.0,0.125,1.381835796,0.5498168668524888,0.0,-3812.0,0.0,0.0,0.0,0.0,0.25,4.886474109,4.410439589772222,0.0,154.0,0.0,0.0,0.0,0.0,0.0,2.780761434,4.389674732977289,0.0,-4144.0,0.0,0.0,0.0,0.0,0.25,2.193603291,0.5526872062785588,0.0,0.46000000834465027,-0.46000000834465027,69.70999908447266,-0.0035400390625,-0.001708984375,0.986572265625,36.869998931884766,0.0,-7.0,-0.37896728515625,0.270660400390625,Closing,0.0,0.0,0.0,0.0,0.0,0.0,0.0,0.125,
7.488992000000027,0.0,0.0,-205.0,0.0,0.0,0.0,0.0,0.125,1.381835796,0.5498168668524888,0.0,-3812.0,0.0,0.0,0.0,0.0,0.25,4.887694812,4.410439589772222,0.0,154.0,0.0,0.0,0.0,0.0,0.0,2.780761434,4.389674732977289,0.0,-4144.0,0.0,0.0,0.0,0.0,0.25,2.194823994,0.5526872062785588,0.0,0.4399999976158142,-0.5099999904632568,69.70999908447266,-0.03125,-0.01495361328125,0.9974365234375,36.86000061035156,0.0,-29.0,-0.379364013671875,0.2707977294921875,Closing,0.0,0.0,0.0,0.0,0.0,0.0,0.0,0.0,
7.628251000000048,0.0,0.0,-205.0,0.0,0.0,0.0,0.0,0.25,1.381835796,0.5498168668524888,0.0,-3812.0,0.0,0.0,0.0,0.0,0.25,4.887694812,4.410439589772222,0.0,154.0,0.0,0.0,0.0,0.0,0.0,2.780761434,4.389674732977289,0.0,-4144.0,0.125,0.0,0.0,0.0,0.25,2.193603291,0.5526872062785588,0.0,0.38999998569488525,-0.5699999928474426,69.70999908447266,0.0084228515625,-0.01641845703125,0.99993896484375,36.86000061035156,0.0,-15.0,-0.37969970703125,0.270843505859375,Closing,0.0,0.0,0.0,0.0,0.0,0.0,0.0,0.125,
7.745251000000048,0.0,0.0,-205.0,0.0,0.0,0.0,0.0,0.25,1.3720701720000001,0.5498168668524888,0.0,-3812.0,0.0,0.0,0.0,0.0,0.25,4.886474109,4.410439589772222,0.0,154.0,0.0,0.0,0.0,0.0,0.0,2.780761434,4.389674732977289,0.0,-4144.0,0.125,0.0,0.0,0.0,0.25,2.193603291,0.5526872062785588,0.0,0.33000001311302185,-0.6299999952316284,69.7300033569336,0.19500732421875,-0.16339111328125,0.96868896484375,36.86000061035156,0.0,-87.0,-0.380645751953125,0.27142333984375,Closing,0.0,0.0,0.0,0.0,0.0,0.0,0.0,0.0,
7.887112000000023,0.0,0.0,-205.0,0.0,0.0,0.0,0.0,0.125,1.3720701720000001,0.5498168668524888,0.0,-3812.0,0.0,0.0,0.0,0.0,0.25,4.887694812,4.410439589772222,0.0,154.0,0.0,0.0,0.0,0.0,0.0,2.780761434,4.389674732977289,0.0,-4144.0,0.125,0.0,0.0,0.0,0.25,2.194823994,0.5526872062785588,0.0,0.3499999940395355,-0.6100000143051147,69.72000122070312,-0.17266845703125,0.0059814453125,0.8822021484375,36.86000061035156,0.0,-56.0,-0.3810577392578125,0.274566650390625,Closing,0.0,0.0,0.0,0.0,0.0,0.0,0.0,0.0,
8.021671000000032,0.0,0.0,-205.0,0.0,0.0,0.0,0.0,0.125,1.36718736,0.5498168668524888,0.0,-3812.0,0.0,0.0,0.0,0.0,0.25,4.886474109,4.410439589772222,0.0,154.0,0.0,0.0,0.0,0.0,0.0,2.780761434,4.389674732977289,0.0,-4144.0,0.125,0.0,0.0,0.0,0.25,2.193603291,0.5526872062785588,0.0,0.33000001311302185,-0.6200000047683716,69.7300033569336,0.02703857421875,0.050537109375,0.91485595703125,36.900001525878906,0.0,55.0,-0.3815155029296875,0.2790985107421875,Closing,0.0,0.0,0.0,0.0,0.0,0.0,0.0,0.125,
8.10547100000002,0.0,0.0,-206.0,0.625,-37.5,-555.5905491113663,0.0,2.0,1.247558466,4.932250999999998,0.0,-3812.0,1.5,22.5,555.5905491113663,0.0,3.125,0.111083973,4.963769999999998,0.0,154.0,1.0,0.0,-555.5905491113663,0.0,2.0,2.979736023,0.01,0.0,-4144.0,1.125,0.0,555.5905491113663,0.0,2.25,2.0068357320000003,0.01,0.0,0.3700000047683716,-0.6700000166893005,69.76000213623047,-0.16571044921875,0.0076904296875,1.1287841796875,36.900001525878906,0.0,-52.0,-0.3826904296875,0.2839202880859375,Closing,0.0,0.0,0.0,0.0,0.0,0.0,0.0,0.0,
8.181725000000036,0.0,0.0,-231.0,1.625,-165.0,-615.1181173324585,0.0,0.625,0.95214834,4.932250999999998,0.0,-3797.0,4.125,97.5,615.1181173324585,0.0,1.0,0.397949178,4.963769999999998,0.0,139.0,2.125,-67.5,-615.1181173324585,0.0,0.5,3.276366852,0.01,0.0,-4125.0,1.875,105.0,615.1181173324585,0.0,0.625,1.6845701400000002,0.01,0.0,0.3400000035762787,-0.9599999785423279,70.06999969482422,-0.03350830078125,0.01953125,1.157470703125,36.900001525878906,0.0,7.0,-0.3856964111328125,0.2902984619140625,Closing,0.0,0.0,0.0,0.0,0.0,0.0,0.0,0.0,
8.286787000000011,0.0,0.0,-258.0,3.0,-135.0,-615.1181173324585,0.0,0.5,0.70800774,4.932250999999998,0.0,-3781.0,6.75,52.5,615.1181173324585,0.0,0.75,0.578613222,4.963769999999998,0.0,93.0,2.125,-285.0,-615.1181173324585,0.0,0.125,3.4716793320000003,0.01,0.0,-4104.0,3.375,120.0,615.1181173324585,0.0,0.25,1.496581878,0.01,0.0,0.33000001311302185,-1.4900000095367432,70.5,-0.18817138671875,0.0518798828125,1.0777587890625,36.900001525878906,0.0,-10.0,-0.3927459716796875,0.305877685546875,Closing,0.0,0.0,0.0,0.0,0.0,0.0,0.0,0.125,
8.423260999999998,0.0,0.0,-307.0,3.625,-300.0,-615.1181173324585,0.0,0.375,0.693359304,4.932250999999998,0.0,-3728.0,7.5,345.0,615.1181173324585,0.0,0.25,0.577392519,4.963769999999998,0.0,43.0,2.875,-345.0,-615.1181173324585,0.0,0.125,3.4643551140000004,0.01,0.0,-4055.0,4.25,307.5,615.1181173324585,0.0,0.25,1.486816254,0.01,0.0,0.3400000035762787,-1.850000023841858,70.43000030517578,-0.01873779296875,-0.0086669921875,1.041748046875,36.900001525878906,0.0,-8.0,-0.39654541015625,0.3340911865234375,Closing,0.0,0.0,0.0,0.0,0.0,0.0,0.0,0.0,
8.529206000000006,0.0,0.0,-307.0,3.125,-240.0,1525.78125,0.0,0.875,0.780029217,0.5498168668524888,0.0,-3653.0,19.375,405.0,1525.78125,0.0,1.5,0.578613222,4.410439589772222,0.0,36.0,3.375,-262.5,1525.78125,0.0,2.0,3.2958981,4.389674732977289,0.0,-3986.0,13.0,397.5,1525.78125,0.0,2.5,1.6601560800000001,0.5526872062785588,0.0,0.28999999165534973,-1.899999976158142,70.08999633789062,0.4068603515625,0.00103759765625,1.35614013671875,36.900001525878906,0.0,148.0,-0.3990325927734375,0.3536834716796875,Closing,0.0,0.0,0.0,0.0,0.0,0.0,0.0,0.125,
8.632917000000015,0.0,0.0,-321.0,0.125,-180.0,131.25,0.0,0.625,1.304931507,0.5498168668524888,0.0,-3653.0,5.25,457.5,131.25,0.0,0.875,0.096435537,4.410439589772222,0.0,47.0,0.0,135.0,131.25,0.0,1.0,2.9089352490000002,4.389674732977289,0.0,-3927.0,2.875,442.5,131.25,0.0,0.75,2.16064431,0.5526872062785588,0.0,0.07000000029802322,-1.1399999856948853,68.1500015258789,0.1663818359375,0.01806640625,1.17413330078125,36.900001525878906,0.0,85.0,-0.4002685546875,0.371978759765625,Closing,0.0,0.0,0.0,0.0,0.0,0.0,0.0,0.125,
8.724282999999996,0.0,0.0,-355.0,0.125,-165.0,-218.26772511005402,0.0,2.75,1.53808578,4.932250999999998,0.0,-3585.0,6.5,330.0,218.26772511005402,0.0,3.125,4.80956982,4.963769999999998,0.0,47.0,0.125,7.5,-218.26772511005402,0.0,2.5,2.814941118,0.01,0.0,-3927.0,4.625,217.5,218.26772511005402,0.0,3.375,2.338866948,0.01,0.0,0.30000001192092896,-0.4099999964237213,66.93000030517578,0.09039306640625,0.056884765625,1.01593017578125,36.900001525878906,0.0,85.0,-0.396759033203125,0.376739501953125,Closing,0.0,0.0,0.0,0.0,0.0,0.0,0.0,0.0,
8.80043200000003,0.0,0.0,-347.0,0.125,30.0,-218.26772511005402,0.0,2.125,1.308593616,4.932250999999998,0.0,-3547.0,8.0,240.0,218.26772511005402,0.0,1.5,4.957274883,4.963769999999998,0.0,46.0,0.375,0.0,-218.26772511005402,0.0,0.875,3.0529782030000003,0.01,0.0,-3899.0,5.875,165.0,218.26772511005402,0.0,1.375,2.078857209,0.01,0.0,0.10999999940395355,-0.5400000214576721,65.44000244140625,-0.1473388671875,0.0225830078125,1.06658935546875,36.900001525878906,0.0,-38.0,-0.3922882080078125,0.379638671875,Closing,0.0,0.0,0.0,0.0,0.0,0.0,0.0,0.0,
8.942383000000032,0.0,0.0,-289.0,3.25,345.0,1390.5852435861887,0.0,0.625,0.991210836,0.6511716368388832,0.0,-3481.0,48.875,495.0,1812.6667687496786,0.0,0.25,0.279540987,4.4886008802646336,0.0,53.0,9.875,52.5,1390.5852435861887,0.0,0.5,3.090819996,4.288152505977734,0.0,-3829.0,27.25,615.0,1812.6667687496786,0.0,0.25,1.666259595,0.47461677226139526,0.0,0.550000011920929,-1.6299999952316284,61.88999938964844,-0.05816650390625,0.20556640625,0.9136962890625,36.880001068115234,0.0,158.0,-0.386383056640625,0.4029541015625,Closing,0.0,0.0,0.0,0.0,0.0,0.0,0.0,0.125,
9.031591000000015,0.0,0.0,-286.0,0.125,22.5,-277.79527455568314,0.0,0.625,1.071777234,4.932250999999998,0.0,-3368.0,20.5,712.5,277.79527455568314,0.0,0.5,0.299072235,4.963769999999998,0.0,55.0,0.875,7.5,-277.79527455568314,0.0,1.0,3.070068045,0.01,0.0,-3707.0,11.0,772.5,277.79527455568314,0.0,0.25,1.666259595,0.01,0.0,0.6000000238418579,-1.5800000429153442,59.29999923706055,0.06146240234375,0.1453857421875,0.91510009765625,36.880001068115234,0.0,161.0,-0.3840179443359375,0.42608642578125,Closing,0.0,0.0,0.0,0.0,0.0,0.0,0.0,0.125,
9.128803000000014,0.0,0.0,-286.0,0.125,-15.0,-297.63780355453486,0.0,0.375,0.9704588850000001,4.932250999999998,0.0,-3368.0,15.375,637.5,297.63780355453486,0.0,0.5,0.3662109,4.963769999999998,0.0,55.0,0.5,-7.5,-297.63780355453486,0.0,1.0,3.140868819,0.01,0.0,-3623.0,8.75,577.5,297.63780355453486,0.0,0.25,1.645507644,0.01,0.0,0.49000000953674316,-1.090000033378601,57.27000045776367,0.0377197265625,-0.17962646484375,1.078125,36.880001068115234,0.0,-127.0,-0.3813323974609375,0.442657470703125,Closing,0.0,0.0,0.0,0.0,0.0,0.0,0.0,0.0,
9.194739000000002,0.0,0.0,-286.0,0.125,0.0,-297.63780355453486,0.0,0.375,0.886230378,4.932250999999998,0.0,-3273.0,17.25,495.0,297.63780355453486,0.0,0.5,0.384521445,4.963769999999998,0.0,50.0,0.375,-37.5,-297.63780355453486,0.0,0.875,3.183593424,0.01,0.0,-3623.0,10.125,450.0,297.63780355453486,0.0,0.25,1.641845535,0.01,0.0,0.12999999523162842,-0.8399999737739563,55.900001525878906,0.06951904296875,-0.10284423828125,1.027099609375,36.880001068115234,0.0,-39.0,-0.3789520263671875,0.45562744140625,Closing,0.0,0.0,0.0,0.0,0.0,0.0,0.0,0.0,
9.291406000000018,0.0,0.0,-287.0,0.0,-15.0,0.0,0.0,0.25,0.8044432770000001,4.932250999999998,0.0,-3233.0,4.875,187.5,0.0,0.0,0.5,0.40893550500000003,4.963769999999998,0.0,41.0,0.125,-67.5,0.0,0.0,0.5,3.23486295,0.01,0.0,-3582.0,0.125,120.0,0.0,0.0,0.125,1.643066238,0.01,0.0,-0.10000000149011612,-0.4000000059604645,55.77000045776367,0.13232421875,-0.1219482421875,0.9805908203125,36.880001068115234,0.0,-21.0,-0.376678466796875,0.4702606201171875,Closing,0.0,0.0,0.0,0.0,0.0,0.0,0.0,0.125,
9.414739,0.0,0.0,-293.0,0.0,-7.5,0.0,0.0,0.125,0.794677653,4.932250999999998,0.0,-3242.0,0.0,-67.5,0.0,0.0,0.25,0.489501903,4.963769999999998,0.0,29.0,0.0,-52.5,0.0,0.0,0.125,3.3142086450000003,0.01,0.0,-3593.0,0.125,-67.5,0.0,0.0,0.125,1.640624832,0.01,0.0,-0.03999999910593033,-0.23000000417232513,56.15999984741211,-0.0423583984375,4.2724609375E-4,1.00537109375,36.880001068115234,0.0,-20.0,-0.3718109130859375,0.4782867431640625,Closing,0.0,0.0,0.0,0.0,0.0,0.0,0.0,0.0,
9.552395000000018,0.0,0.0,-293.0,0.0,0.0,0.0,0.0,0.125,0.794677653,4.932250999999998,0.0,-3250.0,0.0,-30.0,0.0,0.0,0.125,0.496826121,4.963769999999998,0.0,28.0,0.0,0.0,0.0,0.0,0.0,3.328857081,0.01,0.0,-3600.0,0.125,-30.0,0.0,0.0,0.125,1.640624832,0.01,0.0,-0.05000000074505806,-0.5199999809265137,56.2599983215332,-0.03631591796875,0.01800537109375,1.02880859375,36.900001525878906,0.0,0.0,-0.3684234619140625,0.48907470703125,Closing,0.0,0.0,0.0,0.0,0.0,0.0,0.0,0.0,
9.691125,0.0,0.0,-298.0,0.125,-127.5,-377.00788199901575,0.0,0.25,0.794677653,4.932250999999998,0.0,-3248.0,1.625,30.0,377.00788199901575,0.0,0.125,0.495605418,4.963769999999998,0.0,28.0,0.875,0.0,-377.00788199901575,0.0,0.0,3.328857081,0.01,0.0,-3600.0,1.25,22.5,377.00788199901575,0.0,0.125,1.640624832,0.01,0.0,-0.029999999329447746,-0.6200000047683716,56.15999984741211,-0.03509521484375,0.03924560546875,1.02862548828125,36.900001525878906,0.0,19.0,-0.3689117431640625,0.4943084716796875,Closing,0.0,0.0,0.0,0.0,0.0,0.0,0.0,0.125,
9.820916000000027,0.0,0.0,-318.0,1.0,-37.5,-377.00788199901575,0.0,0.125,0.79345695,4.932250999999998,0.0,-3242.0,3.75,37.5,377.00788199901575,0.0,0.125,0.495605418,4.963769999999998,0.0,28.0,1.875,0.0,-377.00788199901575,0.0,0.0,3.330077784,0.01,0.0,-3595.0,2.0,45.0,377.00788199901575,0.0,0.125,1.640624832,0.01,0.0,-0.03999999910593033,-0.7099999785423279,56.09000015258789,-0.026123046875,0.02142333984375,1.01458740234375,36.900001525878906,0.0,10.0,-0.369140625,0.4952850341796875,Closing,0.0,0.0,0.0,0.0,0.0,0.0,0.0,0.125,
9.95924000000005,0.0,0.0,-324.0,2.25,-75.0,-377.00788199901575,0.0,0.125,0.794677653,4.932250999999998,0.0,-3235.0,5.0,67.5,377.00788199901575,0.0,0.125,0.49926752700000004,4.963769999999998,0.0,12.0,2.625,-60.0,-377.00788199901575,0.0,0.0,3.352050438,0.01,0.0,-3571.0,3.375,75.0,377.00788199901575,0.0,0.125,1.641845535,0.01,0.0,-0.03999999910593033,-1.0700000524520874,56.13999938964844,-0.1219482421875,0.0433349609375,1.09588623046875,36.900001525878906,0.0,-19.0,-0.3717498779296875,0.4990081787109375,Closing,0.0,0.0,0.0,0.0,0.0,0.0,0.0,0.125,
10.089059000000008,0.0,0.0,-376.0,2.25,-195.0,-377.00788199901575,0.0,0.125,0.798339762,4.932250999999998,0.0,-3185.0,5.375,210.0,377.00788199901575,0.0,0.125,0.5017089330000001,4.963769999999998,0.0,-35.0,2.25,-285.0,-377.00788199901575,0.0,0.0,3.3630367650000004,0.01,0.0,-3536.0,3.0,210.0,377.00788199901575,0.0,0.125,1.641845535,0.01,0.0,-0.03999999910593033,-1.5299999713897705,56.130001068115234,-0.1217041015625,0.03033447265625,1.010498046875,36.900001525878906,0.0,-26.0,-0.378997802734375,0.5097198486328125,Closing,0.0,0.0,0.0,0.0,0.0,0.0,0.0,0.125,
10.22737400000001,0.0,0.0,-427.0,1.875,-322.5,-377.00788199901575,0.0,0.125,0.79345695,4.932250999999998,0.0,-3131.0,3.875,345.0,377.00788199901575,0.0,0.0,0.50048823,4.963769999999998,0.0,-87.0,2.125,-330.0,-377.00788199901575,0.0,0.0,3.3642574680000004,0.01,0.0,-3483.0,2.25,345.0,377.00788199901575,0.0,0.125,1.641845535,0.01,0.0,0.0,-1.840000033378601,55.97999954223633,-0.09490966796875,-0.017333984375,1.11834716796875,36.900001525878906,0.0,-47.0,-0.380279541015625,0.518890380859375,Closing,0.0,0.0,0.0,0.0,0.0,0.0,0.0,0.0,
10.424195999999997,0.0,0.0,-464.0,0.375,-75.0,568.3338271654264,0.0,0.75,1.5026853930000001,0.727988363536826,0.0,-3056.0,12.75,472.5,866.6683865563358,0.0,0.5,0.206298807,4.527445791693945,0.0,-121.0,0.375,22.5,568.3338271654264,0.0,1.75,2.6354977770000003,4.211208863697866,0.0,-3347.0,7.5,442.5,866.6683865563358,0.0,0.625,2.05078104,0.4358170150473167,0.0,0.1599999964237213,-0.5299999713897705,53.5,0.19903564453125,-0.1607666015625,1.0023193359375,36.900001525878906,0.0,-7.0,-0.3725128173828125,0.5162200927734375,Closing,0.0,0.0,0.0,0.0,0.0,0.0,0.0,0.0,
10.545660000000032,0.0,0.0,-468.0,0.125,45.0,-138.89763727784157,0.0,6.5,1.772460756,4.932250999999998,0.0,-2986.0,6.75,247.5,138.89763727784157,0.0,1.75,0.040283199000000006,4.963769999999998,0.0,-121.0,0.375,45.0,-138.89763727784157,0.0,6.375,2.5866696570000003,0.01,0.0,-3323.0,4.125,247.5,138.89763727784157,0.0,2.25,2.133788844,0.01,0.0,-0.019999999552965164,-0.14000000059604645,51.5099983215332,0.0948486328125,0.103759765625,0.88134765625,36.869998931884766,0.0,141.0,-0.356658935546875,0.4947357177734375,Closing,0.0,0.0,0.0,0.0,0.0,0.0,0.0,0.0,
10.692379000000015,0.0,0.0,-472.0,0.0,-15.0,0.0,0.0,1.625,0.798339762,4.932250999999998,0.0,-2980.0,0.0,-112.5,0.0,0.0,0.75,0.482177685,4.963769999999998,0.0,-129.0,0.0,-67.5,0.0,0.0,1.75,3.4692379260000004,0.01,0.0,-3332.0,0.125,-60.0,0.0,0.0,0.875,1.5795896820000002,0.01,0.0,-0.029999999329447746,-0.30000001192092896,52.38999938964844,0.0185546875,0.0186767578125,1.015625,36.869998931884766,0.0,29.0,-0.3380584716796875,0.48468017578125,Closing,0.0,0.0,0.0,0.0,0.0,0.0,0.0,0.125,
10.815530000000027,0.0,0.0,-465.0,0.0,30.0,0.0,0.0,0.5,0.406494099,4.932250999999998,0.0,-2995.0,0.0,-97.5,0.0,0.0,0.125,0.7141112550000001,4.963769999999998,0.0,-131.0,0.0,0.0,0.0,0.0,0.125,3.6376949400000003,0.01,0.0,-3343.0,0.0,-52.5,0.0,0.0,0.25,1.4782713330000001,0.01,0.0,0.0,-0.3400000035762787,52.77000045776367,-0.0909423828125,-0.0013427734375,1.07464599609375,36.869998931884766,0.0,-52.0,-0.32598876953125,0.4847564697265625,Closing,0.0,0.0,0.0,0.0,0.0,0.0,0.0,0.0,
10.960075000000012,0.0,0.0,-465.0,0.0,0.0,0.0,0.0,0.5,0.640869075,4.932250999999998,0.0,-2996.0,0.0,0.0,0.0,0.0,0.25,0.651855402,4.963769999999998,0.0,-131.0,0.0,0.0,0.0,0.0,0.25,3.511962531,0.01,0.0,-3346.0,0.125,-15.0,0.0,0.0,0.375,1.545409998,0.01,0.0,0.03999999910593033,-0.5400000214576721,52.779998779296875,0.0079345703125,0.01776123046875,1.019775390625,36.869998931884766,0.0,24.0,-0.32763671875,0.487274169921875,Closing,0.0,0.0,0.0,0.0,0.0,0.0,0.0,0.0,
11.089099000000045,0.0,0.0,-465.0,0.0,0.0,0.0,0.0,0.375,0.904540923,4.932250999999998,0.0,-2996.0,0.0,0.0,0.0,0.0,0.25,0.5932616580000001,4.963769999999998,0.0,-130.0,0.0,0.0,0.0,0.0,0.125,3.358153953,0.01,0.0,-3346.0,0.125,0.0,0.0,0.0,0.375,1.6027830390000002,0.01,0.0,0.029999999329447746,-0.5400000214576721,52.779998779296875,-0.01654052734375,0.00152587890625,1.00408935546875,36.93000030517578,0.0,-3.0,-0.328094482421875,0.487152099609375,Closing,0.0,0.0,0.0,0.0,0.0,0.0,0.0,0.0,
11.223814000000013,0.0,0.0,-465.0,0.0,0.0,0.0,0.0,0.25,0.8569335060000001,4.932250999999998,0.0,-2996.0,0.0,0.0,0.0,0.0,0.25,0.531005805,4.963769999999998,0.0,-130.0,0.0,0.0,0.0,0.0,0.0,3.342284814,0.01,0.0,-3347.0,0.125,0.0,0.0,0.0,0.25,1.612548663,0.01,0.0,0.05000000074505806,-0.6000000238418579,52.77000045776367,-0.01654052734375,-0.00567626953125,1.0321044921875,36.93000030517578,0.0,-8.0,-0.328094482421875,0.487274169921875,Closing,0.0,0.0,0.0,0.0,0.0,0.0,0.0,0.125,
11.354552000000025,0.0,0.0,-465.0,0.0,0.0,0.0,0.0,0.25,0.821533119,4.932250999999998,0.0,-2996.0,0.0,0.0,0.0,0.0,0.125,0.5163573690000001,4.963769999999998,0.0,-130.0,0.0,0.0,0.0,0.0,0.0,3.339843408,0.01,0.0,-3347.0,0.0,0.0,0.0,0.0,0.125,1.612548663,0.01,0.0,0.05999999865889549,-0.6399999856948853,52.77000045776367,-0.00872802734375,-0.00103759765625,1.01788330078125,36.93000030517578,0.0,0.0,-0.328094482421875,0.487274169921875,Closing,0.0,0.0,0.0,0.0,0.0,0.0,0.0,0.0,
11.482004000000016,0.0,0.0,-465.0,0.0,0.0,0.0,0.0,0.125,0.812988198,4.932250999999998,0.0,-2996.0,0.0,0.0,0.0,0.0,0.125,0.5151366660000001,4.963769999999998,0.0,-130.0,0.0,0.0,0.0,0.0,0.0,3.343505517,0.01,0.0,-3347.0,0.125,0.0,0.0,0.0,0.125,1.612548663,0.01,0.0,0.05999999865889549,-0.6700000166893005,52.77000045776367,-0.01611328125,0.00384521484375,1.0147705078125,36.900001525878906,0.0,0.0,-0.328094482421875,0.487274169921875,Closing,0.0,0.0,0.0,0.0,0.0,0.0,0.0,0.0,
11.613532999999995,0.0,0.0,-465.0,0.0,0.0,0.0,0.0,0.125,0.812988198,4.932250999999998,0.0,-2996.0,0.0,0.0,0.0,0.0,0.125,0.5163573690000001,4.963769999999998,0.0,-130.0,0.0,0.0,0.0,0.0,0.0,3.343505517,0.01,0.0,-3347.0,0.125,0.0,0.0,0.0,0.125,1.612548663,0.01,0.0,0.05000000074505806,-0.699999988079071,52.77000045776367,-0.0177001953125,0.0035400390625,1.01495361328125,36.900001525878906,0.0,-1.0,-0.328094482421875,0.487274169921875,Closing,0.0,0.0,0.0,0.0,0.0,0.0,0.0,0.125,
11.757857000000017,0.0,0.0,-465.0,0.0,0.0,0.0,0.0,0.125,0.8142089010000001,4.932250999999998,0.0,-2996.0,0.0,0.0,0.0,0.0,0.125,0.5151366660000001,4.963769999999998,0.0,-130.0,0.0,0.0,0.0,0.0,0.0,3.34472622,0.01,0.0,-3347.0,0.125,0.0,0.0,0.0,0.125,1.612548663,0.01,0.0,0.05000000074505806,-0.7300000190734863,52.77000045776367,-0.018798828125,-3.662109375E-4,1.02001953125,36.900001525878906,0.0,-4.0,-0.328094482421875,0.487274169921875,Closing,0.0,0.0,0.0,0.0,0.0,0.0,0.0,0.0,
11.891930000000052,0.0,0.0,-465.0,0.0,0.0,0.0,0.0,0.25,0.8142089010000001,4.932250999999998,0.0,-2996.0,0.125,0.0,0.0,0.0,0.125,0.5163573690000001,4.963769999999998,0.0,-130.0,0.0,0.0,0.0,0.0,0.0,3.343505517,0.01,0.0,-3347.0,0.125,0.0,0.0,0.0,0.125,1.612548663,0.01,0.0,0.05999999865889549,-0.7599999904632568,52.779998779296875,-0.0157470703125,-3.0517578125E-4,1.01971435546875,36.900001525878906,0.0,-2.0,-0.328094482421875,0.487274169921875,Closing,0.0,0.0,0.0,0.0,0.0,0.0,0.0,0.125,
12.02893300000002,0.0,0.0,-465.0,0.0,0.0,0.0,0.0,0.125,0.8142089010000001,4.932250999999998,0.0,-2996.0,0.0,0.0,0.0,0.0,0.125,0.5151366660000001,4.963769999999998,0.0,-130.0,0.0,0.0,0.0,0.0,0.0,3.343505517,0.01,0.0,-3347.0,0.125,0.0,0.0,0.0,0.125,1.612548663,0.01,0.0,0.05999999865889549,-0.7799999713897705,52.77000045776367,-0.0169677734375,0.0042724609375,1.0245361328125,36.88999938964844,0.0,0.0,-0.328094482421875,0.487274169921875,Closing,0.0,0.0,0.0,0.0,0.0,0.0,0.0,0.0,
12.15627800000005,0.0,0.0,-465.0,0.0,0.0,0.0,0.0,0.125,0.8142089010000001,4.932250999999998,0.0,-2996.0,0.0,0.0,0.0,0.0,0.125,0.5151366660000001,4.963769999999998,0.0,-130.0,0.0,0.0,0.0,0.0,0.0,3.343505517,0.01,0.0,-3347.0,0.125,0.0,0.0,0.0,0.125,1.612548663,0.01,0.0,0.05999999865889549,-0.7900000214576721,52.77000045776367,-0.015380859375,0.00384521484375,1.02032470703125,36.88999938964844,0.0,1.0,-0.328094482421875,0.487274169921875,Closing,0.0,0.0,0.0,0.0,0.0,0.0,0.0,0.125,
12.289161000000021,0.0,0.0,-465.0,0.0,0.0,0.0,0.0,0.125,0.8142089010000001,4.932250999999998,0.0,-2996.0,0.0,0.0,0.0,0.0,0.125,0.5163573690000001,4.963769999999998,0.0,-130.0,0.0,0.0,0.0,0.0,0.0,3.343505517,0.01,0.0,-3347.0,0.0,0.0,0.0,0.0,0.125,1.612548663,0.01,0.0,0.05999999865889549,-0.8100000023841858,52.7599983215332,-0.01458740234375,0.0040283203125,1.016845703125,36.88999938964844,0.0,2.0,-0.328094482421875,0.487274169921875,Closing,0.0,0.0,0.0,0.0,0.0,0.0,0.0,0.0,
12.425540000000037,0.0,0.0,-465.0,0.0,0.0,0.0,0.0,0.125,0.8142089010000001,4.932250999999998,0.0,-2996.0,0.0,0.0,0.0,0.0,0.125,0.5163573690000001,4.963769999999998,0.0,-130.0,0.0,0.0,0.0,0.0,0.0,3.343505517,0.01,0.0,-3347.0,0.125,0.0,0.0,0.0,0.125,1.612548663,0.01,0.0,0.05999999865889549,-0.8199999928474426,52.7599983215332,-0.01702880859375,0.00177001953125,1.01458740234375,36.88999938964844,0.0,0.0,-0.328094482421875,0.487274169921875,Closing,0.0,0.0,0.0,0.0,0.0,0.0,0.0,0.0,
12.544059000000008,0.0,0.0,-465.0,0.0,0.0,0.0,0.0,0.125,0.812988198,4.932250999999998,0.0,-2996.0,0.0,0.0,0.0,0.0,0.125,0.5151366660000001,4.963769999999998,0.0,-130.0,0.0,0.0,0.0,0.0,0.0,3.343505517,0.01,0.0,-3347.0,0.125,0.0,0.0,0.0,0.125,1.612548663,0.01,0.0,0.07000000029802322,-0.8399999737739563,52.77000045776367,-0.01434326171875,0.00311279296875,1.01971435546875,36.91999816894531,0.0,1.0,-0.328094482421875,0.487274169921875,Closing,0.0,0.0,0.0,0.0,0.0,0.0,0.0,0.0,
12.690458000000042,0.0,0.0,-465.0,0.0,0.0,0.0,0.0,0.125,0.8142089010000001,4.932250999999998,0.0,-2996.0,0.0,0.0,0.0,0.0,0.125,0.5151366660000001,4.963769999999998,0.0,-130.0,0.0,0.0,0.0,0.0,0.0,3.343505517,0.01,0.0,-3347.0,0.125,0.0,0.0,0.0,0.125,1.612548663,0.01,0.0,0.07000000029802322,-0.8500000238418579,52.77000045776367,-0.01824951171875,0.002197265625,1.023681640625,36.91999816894531,0.0,-1.0,-0.328094482421875,0.487274169921875,Closing,0.0,0.0,0.0,0.0,0.0,0.0,0.0,0.0,
12.823838000000046,0.0,0.0,-465.0,0.0,0.0,0.0,0.0,0.125,0.812988198,4.932250999999998,0.0,-2996.0,0.0,0.0,0.0,0.0,0.125,0.5163573690000001,4.963769999999998,0.0,-130.0,0.0,0.0,0.0,0.0,0.0,3.343505517,0.01,0.0,-3347.0,0.125,0.0,0.0,0.0,0.125,1.612548663,0.01,0.0,0.07000000029802322,-0.8700000047683716,52.779998779296875,-0.01654052734375,3.0517578125E-4,1.01995849609375,36.91999816894531,0.0,-1.0,-0.328094482421875,0.487274169921875,Closing,0.0,0.0,0.0,0.0,0.0,0.0,0.0,0.125,
12.958464000000037,0.0,0.0,-465.0,0.0,0.0,0.0,0.0,0.125,0.812988198,4.932250999999998,0.0,-2996.0,0.0,0.0,0.0,0.0,0.125,0.5163573690000001,4.963769999999998,0.0,-130.0,0.0,0.0,0.0,0.0,0.0,3.343505517,0.01,0.0,-3347.0,0.125,0.0,0.0,0.0,0.125,1.613769366,0.01,0.0,0.07000000029802322,-0.8799999952316284,52.77000045776367,-0.0172119140625,6.7138671875E-4,1.0172119140625,36.91999816894531,0.0,-1.0,-0.328094482421875,0.487274169921875,Closing,0.0,0.0,0.0,0.0,0.0,0.0,0.0,0.125,
13.079331000000005,0.0,0.0,-465.0,0.0,0.0,0.0,0.0,0.125,0.812988198,4.932250999999998,0.0,-2996.0,0.0,0.0,0.0,0.0,0.125,0.5163573690000001,4.963769999999998,0.0,-130.0,0.0,0.0,0.0,0.0,0.0,3.343505517,0.01,0.0,-3347.0,0.0,0.0,0.0,0.0,0.125,1.6113279600000001,0.01,0.0,0.07000000029802322,-0.8899999856948853,52.779998779296875,-0.01904296875,0.00103759765625,1.0198974609375,36.900001525878906,0.0,-2.0,-0.328094482421875,0.487274169921875,Closing,0.0,0.0,0.0,0.0,0.0,0.0,0.0,0.125,
13.227498000000022,0.0,0.0,-465.0,0.0,0.0,0.0,0.0,0.125,0.812988198,4.932250999999998,0.0,-2996.0,0.0,0.0,0.0,0.0,0.125,0.5151366660000001,4.963769999999998,0.0,-130.0,0.0,0.0,0.0,0.0,0.0,3.343505517,0.01,0.0,-3347.0,0.125,0.0,0.0,0.0,0.125,1.612548663,0.01,0.0,0.07000000029802322,-0.8899999856948853,52.77000045776367,-0.01654052734375,0.00311279296875,1.0185546875,36.900001525878906,0.0,1.0,-0.328094482421875,0.487274169921875,Closing,0.0,0.0,0.0,0.0,0.0,0.0,0.0,0.125,
13.359123000000022,0.0,0.0,-465.0,0.0,0.0,0.0,0.0,0.25,0.8142089010000001,4.932250999999998,0.0,-2996.0,0.0,0.0,0.0,0.0,0.125,0.5151366660000001,4.963769999999998,0.0,-130.0,0.0,0.0,0.0,0.0,0.0,3.342284814,0.01,0.0,-3347.0,0.125,0.0,0.0,0.0,0.125,1.6113279600000001,0.01,0.0,0.05999999865889549,-0.8999999761581421,52.779998779296875,-0.02130126953125,0.001220703125,1.02679443359375,36.900001525878906,0.0,-3.0,-0.328094482421875,0.487274169921875,Closing,0.0,0.0,0.0,0.0,0.0,0.0,0.0,0.0,
13.47866200000001,0.0,0.0,-465.0,0.0,0.0,0.0,0.0,0.25,0.812988198,4.932250999999998,0.0,-2996.0,0.0,0.0,0.0,0.0,0.125,0.5163573690000001,4.963769999999998,0.0,-130.0,0.0,0.0,0.0,0.0,0.0,3.343505517,0.01,0.0,-3347.0,0.125,0.0,0.0,0.0,0.125,1.612548663,0.01,0.0,0.07000000029802322,-0.9100000262260437,52.779998779296875,-0.02069091796875,0.001953125,1.02374267578125,36.900001525878906,0.0,-2.0,-0.328094482421875,0.487274169921875,Closing,0.0,0.0,0.0,0.0,0.0,0.0,0.0,0.0,
13.625438000000024,0.0,0.0,-465.0,0.0,0.0,0.0,0.0,0.25,0.8142089010000001,4.932250999999998,0.0,-2996.0,0.0,0.0,0.0,0.0,0.125,0.5151366660000001,4.963769999999998,0.0,-130.0,0.0,0.0,0.0,0.0,0.0,3.343505517,0.01,0.0,-3347.0,0.125,0.0,0.0,0.0,0.125,1.612548663,0.01,0.0,0.05999999865889549,-0.9200000166893005,52.779998779296875,-0.018310546875,0.001953125,1.02191162109375,36.939998626708984,0.0,0.0,-0.328094482421875,0.487274169921875,Closing,0.0,0.0,0.0,0.0,0.0,0.0,0.0,0.0,
13.75689200000005,0.0,0.0,-465.0,0.0,0.0,0.0,0.0,0.125,0.8142089010000001,4.932250999999998,0.0,-2996.0,0.0,0.0,0.0,0.0,0.125,0.5163573690000001,4.963769999999998,0.0,-130.0,0.0,0.0,0.0,0.0,0.0,3.34472622,0.01,0.0,-3347.0,0.125,0.0,0.0,0.0,0.125,1.612548663,0.01,0.0,0.05999999865889549,-0.9200000166893005,52.779998779296875,-0.01611328125,0.00213623046875,1.01934814453125,36.939998626708984,0.0,0.0,-0.328094482421875,0.487274169921875,Closing,0.0,0.0,0.0,0.0,0.0,0.0,0.0,0.0,
13.889247000000033,0.0,0.0,-465.0,0.0,0.0,0.0,0.0,0.125,0.812988198,4.932250999999998,0.0,-2996.0,0.0,0.0,0.0,0.0,0.125,0.5163573690000001,4.963769999999998,0.0,-130.0,0.0,0.0,0.0,0.0,0.0,3.343505517,0.01,0.0,-3347.0,0.125,0.0,0.0,0.0,0.125,1.612548663,0.01,0.0,0.05999999865889549,-0.9200000166893005,52.779998779296875,-0.0177001953125,7.32421875E-4,1.016357421875,36.939998626708984,0.0,-1.0,-0.328094482421875,0.487274169921875,Closing,0.0,0.0,0.0,0.0,0.0,0.0,0.0,0.125,
14.017809000000009,0.0,0.0,-465.0,0.0,0.0,0.0,0.0,0.125,0.8142089010000001,4.932250999999998,0.0,-2996.0,0.0,0.0,0.0,0.0,0.125,0.5151366660000001,4.963769999999998,0.0,-130.0,0.0,0.0,0.0,0.0,0.0,3.342284814,0.01,0.0,-3347.0,0.125,0.0,0.0,0.0,0.125,1.612548663,0.01,0.0,0.05999999865889549,-0.9300000071525574,52.779998779296875,-0.0164794921875,4.8828125E-4,1.02252197265625,36.939998626708984,0.0,0.0,-0.328094482421875,0.487274169921875,Closing,0.0,0.0,0.0,0.0,0.0,0.0,0.0,0.125,
14.148852000000014,0.0,0.0,-465.0,0.0,0.0,0.0,0.0,0.125,0.8142089010000001,4.932250999999998,0.0,-2996.0,0.0,0.0,0.0,0.0,0.125,0.5163573690000001,4.963769999999998,0.0,-130.0,0.0,0.0,0.0,0.0,0.0,3.343505517,0.01,0.0,-3347.0,0.0,0.0,0.0,0.0,0.125,1.612548663,0.01,0.0,0.05999999865889549,-0.9300000071525574,52.779998779296875,-0.0174560546875,0.0020751953125,1.015380859375,36.90999984741211,0.0,0.0,-0.328094482421875,0.487274169921875,Closing,0.0,0.0,0.0,0.0,0.0,0.0,0.0,0.125,
14.29116200000001,0.0,0.0,-465.0,0.0,0.0,0.0,0.0,0.25,0.812988198,4.932250999999998,0.0,-2996.0,0.0,0.0,0.0,0.0,0.125,0.5163573690000001,4.963769999999998,0.0,-130.0,0.0,0.0,0.0,0.0,0.0,3.34472622,0.01,0.0,-3347.0,0.125,0.0,0.0,0.0,0.125,1.612548663,0.01,0.0,0.05999999865889549,-0.9300000071525574,52.779998779296875,-0.01641845703125,0.002197265625,1.02142333984375,36.90999984741211,0.0,1.0,-0.328094482421875,0.487274169921875,Closing,0.0,0.0,0.0,0.0,0.0,0.0,0.0,0.125,
14.424052000000025,0.0,0.0,-465.0,0.0,0.0,0.0,0.0,0.125,0.8142089010000001,4.932250999999998,0.0,-2996.0,0.0,0.0,0.0,0.0,0.125,0.5163573690000001,4.963769999999998,0.0,-130.0,0.0,0.0,0.0,0.0,0.0,3.342284814,0.01,0.0,-3347.0,0.125,0.0,0.0,0.0,0.125,1.612548663,0.01,0.0,0.05999999865889549,-0.9399999976158142,52.779998779296875,-0.01947021484375,0.00311279296875,1.02227783203125,36.90999984741211,0.0,0.0,-0.328094482421875,0.487274169921875,Closing,0.0,0.0,0.0,0.0,0.0,0.0,0.0,0.0,
14.559073000000033,0.0,0.0,-465.0,0.0,0.0,0.0,0.0,0.125,0.812988198,4.932250999999998,0.0,-2996.0,0.0,0.0,0.0,0.0,0.125,0.5151366660000001,4.963769999999998,0.0,-130.0,0.0,0.0,0.0,0.0,0.0,3.343505517,0.01,0.0,-3347.0,0.125,0.0,0.0,0.0,0.125,1.6113279600000001,0.01,0.0,0.05999999865889549,-0.9399999976158142,52.779998779296875,-0.0184326171875,0.0015869140625,1.01666259765625,36.95000076293945,0.0,0.0,-0.328094482421875,0.487274169921875,Closing,0.0,0.0,0.0,0.0,0.0,0.0,0.0,0.0,
