Time,ClimberA1,ClimberA2,FRpos,FRCurrent,FRspeed,FRsetpoint,FRApos,FRACurrent,FREncpos,FREncSetpoint,FREncSpeed,FLpos,FLCurrent,FLspeed,FLsetpoint,FLApos,FLACurrent,FLEncpos,FLEncSetpoint,FLEncSpeed,BRpos,BRCurrent,BRspeed,BRsetpoint,BRApos,BRACurrent,BREncpos,BREncSetpoint,BREncSpeed,BLpos,BLCurrent,BLspeed,BLsetpoint,BLApos,BLACurrent,BLEncpos,BLEncSetpoint,BLEncSpeed,navx_Pitch,navx_Roll,navx_Yaw,navx_XAcc,navx_YAcc,navx_ZAcc,navx_Temp,navx_Bar,navx_Alt,navx_XDis,navx_YDis,GearPlacerState,ShootOutputV,ShootOutputCurrent,ShootEncPos,ShootEncVelocity,ShootSpeed,ShootSetpoint,CarouselSetpoint,CarouselCurrent,
0.5943900000000003,0.0,0.0,-16765.0,0.0,0.0,0.0,0.0,0.5,0.92773428,0.01,0.0,16728.0,0.0,0.0,0.0,0.0,0.5,0.6445311840000001,0.01,0.0,-1352.0,0.0,0.0,0.0,0.0,0.25,3.439941054,0.01,0.0,6560.0,0.125,0.0,0.0,0.0,0.625,1.756591617,0.01,0.0,0.6299999952316284,-0.3700000047683716,173.89999389648438,-0.02685546875,-0.01165771484375,1.004638671875,37.189998626708984,0.0,17.0,1.41998291015625,2.2741851806640625,Waiting,0.0,0.0,0.0,0.0,0.0,0.0,0.0,0.125,
0.7782129999999997,0.0,0.0,-16765.0,0.125,0.0,420.0,0.0,0.25,0.886230378,0.01,-0.04394530800000007,16728.0,0.0,0.0,-420.0,0.0,0.25,0.589599549,0.01,-0.04516601100000006,-1352.0,0.125,0.0,420.0,0.0,0.125,3.397216449,0.01,-0.028076168999999762,6560.0,0.375,0.0,-420.0,0.0,0.25,1.6613767830000001,0.01,-0.07324218000000005,0.6299999952316284,-0.3400000035762787,173.88999938964844,-0.00390625,0.0216064453125,1.01739501953125,37.189998626708984,0.0,0.0,1.420379638671875,2.27764892578125,Waiting,0.0,0.0,0.0,0.0,0.0,0.0,0.0,0.125,
0.9385209999999997,0.0,0.0,-16749.0,0.5,97.5,NaN,0.0,0.25,0.810546792,NaN,4.8333740569999994,16706.0,0.875,-150.0,NaN,0.0,0.25,0.550537053,NaN,-0.0805663980000002,-1335.0,0.875,120.0,NaN,0.0,0.125,3.35693325,NaN,4.872040631999999,6540.0,0.625,-127.5,NaN,0.0,0.125,1.6320799110000002,NaN,-0.06591796199999989,0.6100000143051147,-0.23000000417232513,173.86000061035156,-0.02618408203125,0.02777099609375,1.1160888671875,37.189998626708984,0.0,23.0,1.4181671142578125,2.276611328125,Waiting,0.0,0.0,0.0,0.0,0.0,0.0,0.0,0.0,
0.9624030000000002,0.0,0.0,-16749.0,0.375,75.0,NaN,0.0,0.125,0.8178710100000001,NaN,4.8333740569999994,16706.0,0.625,-127.5,NaN,0.0,0.25,0.5419921320000001,NaN,-0.0805663980000002,-1335.0,0.5,105.0,NaN,0.0,0.0,3.352050438,NaN,4.872040631999999,6540.0,0.375,-82.5,NaN,0.0,0.125,1.625976396,NaN,4.947013673,0.5899999737739563,-0.1899999976158142,173.86000061035156,0.0,-4.2724609375E-4,0.92083740234375,37.22999954223633,0.0,-4.0,1.4176025390625,2.2757415771484375,Waiting,0.0,0.0,0.0,0.0,0.0,0.0,0.0,0.125,
1.0646549999999997,0.0,0.0,-16746.0,0.125,0.0,NaN,0.0,0.125,0.808105386,NaN,0.0,16704.0,0.0,-7.5,NaN,0.0,0.0,0.535888617,NaN,0.0,-1331.0,0.125,7.5,NaN,0.0,0.0,3.352050438,NaN,0.0,6539.0,0.375,-7.5,NaN,0.0,0.125,1.625976396,NaN,0.0,0.6100000143051147,-0.4399999976158142,173.86000061035156,-0.02899169921875,0.017578125,1.093994140625,37.22999954223633,0.0,21.0,1.418609619140625,2.272613525390625,Waiting,0.0,0.0,0.0,0.0,0.0,0.0,0.0,0.0,
1.0923270000000003,0.0,0.0,-16746.0,0.125,0.0,NaN,0.0,0.125,0.8044432770000001,NaN,0.0012207030000004337,16704.0,0.0,0.0,NaN,0.0,0.0,0.5419921320000001,NaN,-0.006103514999999504,-1331.0,0.375,7.5,NaN,0.0,0.0,3.350829735,NaN,0.0,6539.0,0.375,-7.5,NaN,0.0,0.125,1.627197099,NaN,0.0,0.6000000238418579,-0.41999998688697815,173.8699951171875,0.01275634765625,-0.022705078125,1.0523681640625,37.22999954223633,0.0,-24.0,1.4194488525390625,2.2709808349609375,Waiting,0.0,0.0,0.0,0.0,0.0,0.0,0.0,0.0,
1.1577070000000003,0.0,0.0,-16746.0,0.125,0.0,NaN,0.0,0.125,0.808105386,NaN,-0.0012207030000004337,16704.0,0.0,0.0,NaN,0.0,0.0,0.5407714290000001,NaN,0.0012207029999995456,-1331.0,0.375,0.0,NaN,0.0,0.0,3.352050438,NaN,0.0,6538.0,0.375,0.0,NaN,0.0,0.125,1.625976396,NaN,0.0,0.5899999737739563,-0.36000001430511475,173.86000061035156,0.0185546875,0.0047607421875,0.97601318359375,37.22999954223633,0.0,-25.0,1.4199981689453125,2.27008056640625,Waiting,0.0,0.0,0.0,0.0,0.0,0.0,0.0,0.125,
1.2028850000000002,0.0,0.0,-16746.0,0.125,0.0,NaN,0.0,0.125,0.8032225740000001,NaN,0.0,16704.0,0.0,0.0,NaN,0.0,0.0,0.535888617,NaN,-0.0012207029999995456,-1331.0,0.375,0.0,NaN,0.0,0.0,3.352050438,NaN,0.0,6538.0,0.375,0.0,NaN,0.0,0.125,1.627197099,NaN,0.0,0.6100000143051147,-0.33000001311302185,173.85000610351562,-0.035400390625,-0.01617431640625,0.98846435546875,37.22999954223633,0.0,26.0,1.420135498046875,2.270111083984375,Waiting,0.0,0.0,0.0,0.0,0.0,0.0,0.0,0.125,
1.2275389999999997,0.0,0.0,-16746.0,0.125,0.0,NaN,0.0,0.125,0.808105386,NaN,0.0,16704.0,0.0,0.0,NaN,0.0,0.0,0.5432128350000001,NaN,-0.0012207030000004337,-1331.0,0.375,0.0,NaN,0.0,0.0,3.353271141,NaN,0.0,6538.0,0.375,0.0,NaN,0.0,0.125,1.625976396,NaN,0.0,0.6100000143051147,-0.3700000047683716,173.86000061035156,-0.05267333984375,-0.0211181640625,1.04791259765625,37.22999954223633,0.0,41.0,1.420318603515625,2.270294189453125,Waiting,0.0,0.0,0.0,0.0,0.0,0.0,0.0,0.0,
1.3356810000000006,0.0,0.0,-16746.0,0.125,0.0,NaN,0.0,0.125,0.8020018710000001,NaN,-0.0024414059999999793,16704.0,0.0,0.0,NaN,0.0,0.0,0.5419921320000001,NaN,0.0012207030000004337,-1331.0,0.375,0.0,NaN,0.0,0.0,3.352050438,NaN,0.0,6538.0,0.375,0.0,NaN,0.0,0.125,1.627197099,NaN,0.0,0.6100000143051147,-0.3499999940395355,173.85000610351562,-0.01544189453125,-0.00518798828125,0.97747802734375,37.22999954223633,0.0,7.0,1.42120361328125,2.2718505859375,Waiting,0.0,0.0,0.0,0.0,0.0,0.0,0.0,0.0,
1.4047550000000002,0.0,0.0,-16746.0,0.125,0.0,423.139578035428,0.0,0.125,0.806884683,4.836566187440436,0.0,16704.0,0.0,0.0,-423.139578035428,0.0,0.0,0.5419921320000001,4.867473724315979,0.0,-1331.0,0.375,0.0,423.139578035428,0.0,0.0,3.353271141,4.844557098256096,0.0,6538.0,0.375,0.0,-423.139578035428,0.0,0.125,1.624755693,4.861815661313603,0.0,0.6100000143051147,-0.3499999940395355,173.8699951171875,-0.0069580078125,0.0078125,1.0413818359375,37.22999954223633,0.0,-1.0,1.42120361328125,2.2718505859375,Waiting,0.0,0.0,0.0,0.0,0.0,0.0,0.0,0.0,
1.4675020000000003,0.0,0.0,-16746.0,1.5,15.0,423.139578035428,0.0,0.125,0.8020018710000001,4.836566187440436,0.0,16704.0,1.125,0.0,-423.139578035428,0.0,0.0,0.5419921320000001,4.867473724315979,-0.0012207030000004337,-1331.0,1.75,7.5,423.139578035428,0.0,0.0,3.352050438,4.844557098256096,0.0,6538.0,1.625,-7.5,-423.139578035428,0.0,0.125,1.624755693,4.861815661313603,0.0,0.6100000143051147,-0.23999999463558197,173.82000732421875,0.0751953125,0.05694580078125,0.95013427734375,37.22999954223633,0.0,-73.0,1.420623779296875,2.2714996337890625,Waiting,0.0,0.0,0.0,0.0,0.0,0.0,0.0,0.0,
1.533469,0.0,0.0,-16740.0,1.875,45.0,423.139578035428,0.0,0.25,0.7897948410000001,4.836566187440436,-0.008544921000000372,16700.0,2.375,-37.5,-423.139578035428,0.0,0.25,0.527343696,4.867473724315979,-0.0024414059999999793,-1327.0,2.125,37.5,423.139578035428,0.0,0.125,3.333739893,4.844557098256096,-0.009765623999999917,6534.0,2.375,-37.5,-423.139578035428,0.0,0.25,1.595458821,4.861815661313603,-0.014648435999999876,0.6000000238418579,-0.12999999523162842,173.82000732421875,0.0633544921875,0.0406494140625,0.9708251953125,37.22999954223633,0.0,-62.0,1.418731689453125,2.2709197998046875,Waiting,0.0,0.0,0.0,0.0,0.0,0.0,0.0,0.0,
1.6011980000000003,0.0,0.0,-16740.0,2.125,52.5,423.9696204936888,0.0,0.25,0.759277266,4.824746445161359,0.0,16700.0,3.0,-67.5,-423.9696204936888,0.0,0.25,0.48095698200000003,4.855578449291936,0.0,-1327.0,2.75,60.0,423.9696204936888,0.0,0.125,3.299560209,4.832717827554839,0.0,6523.0,2.375,-52.5,-423.9696204936888,0.0,0.25,1.568603355,4.849934213629845,0.0,0.6000000238418579,0.0,173.82000732421875,0.0443115234375,0.01141357421875,0.95819091796875,37.22999954223633,0.0,-43.0,1.4156036376953125,2.2707977294921875,Waiting,0.0,0.0,0.0,0.0,0.0,0.0,0.0,0.0,
1.658009,0.0,0.0,-16724.0,2.625,105.0,423.139578035428,0.0,0.25,0.742187424,4.836566187440436,-0.028076169000000206,16687.0,3.5,-82.5,-423.139578035428,0.0,0.25,0.444335892,4.867473724315979,-0.04516601100000006,-1314.0,2.875,82.5,423.139578035428,0.0,0.125,3.2751461490000002,4.844557098256096,-0.03295898099999928,6523.0,2.625,-90.0,-423.139578035428,0.0,0.25,1.549072107,4.861815661313603,-0.03295898099999928,0.6000000238418579,0.15000000596046448,173.74000549316406,0.07574462890625,-0.02392578125,0.9681396484375,37.22999954223633,0.0,-76.0,1.4113311767578125,2.271026611328125,Waiting,0.0,0.0,0.0,0.0,0.0,0.0,0.0,0.125,
1.730371,0.0,0.0,-16724.0,2.75,165.0,423.139578035428,0.0,0.25,0.7397460180000001,4.836566187440436,-0.013427732999999442,16659.0,3.75,-150.0,-423.139578035428,0.0,0.25,0.42236323800000003,4.867473724315979,-0.029296871999999752,-1283.0,3.375,165.0,423.139578035428,0.0,0.125,3.2604977130000004,4.844557098256096,-0.01831054500000029,6494.0,3.0,-172.5,-423.139578035428,0.0,0.25,1.540527186,4.861815661313603,-0.014648435999999876,0.5299999713897705,0.4000000059604645,173.7100067138672,0.1199951171875,0.0068359375,1.05413818359375,37.22999954223633,0.0,-112.0,1.40399169921875,2.271697998046875,Waiting,0.0,0.0,0.0,0.0,0.0,0.0,0.0,0.0,
1.7606720000000005,0.0,0.0,-16692.0,2.875,195.0,423.139578035428,0.0,0.125,0.729980394,4.836566187440436,-0.013427732999999442,16659.0,3.75,-172.5,-423.139578035428,0.0,0.125,0.42114253500000004,4.867473724315979,-0.029296871999999752,-1283.0,3.375,187.5,423.139578035428,0.0,0.0,3.2568356040000004,4.844557098256096,-0.01831054500000029,6494.0,2.875,-195.0,-423.139578035428,0.0,0.25,1.541747889,4.861815661313603,-0.014648435999999876,0.5,0.5099999904632568,173.72999572753906,0.07049560546875,0.062744140625,0.954345703125,37.22999954223633,0.0,-55.0,1.400146484375,2.271636962890625,Waiting,0.0,0.0,0.0,0.0,0.0,0.0,0.0,0.0,
1.8047790000000004,0.0,0.0,-16692.0,2.75,225.0,NaN,0.0,0.125,0.727538988,NaN,0.0,16659.0,3.5,-225.0,NaN,0.0,0.125,0.42114253500000004,NaN,0.0,-1283.0,2.5,240.0,NaN,0.0,0.0,3.250732089,NaN,0.0,6494.0,2.75,-247.5,NaN,0.0,0.25,1.539306483,NaN,0.0,0.5099999904632568,0.5799999833106995,173.75,0.08984375,0.02142333984375,1.06396484375,37.22999954223633,0.0,-77.0,1.3936920166015625,2.271240234375,Waiting,0.0,0.0,0.0,0.0,0.0,0.0,0.0,0.0,
1.8268689999999996,0.0,0.0,-16692.0,2.0,247.5,NaN,0.0,0.125,0.7263182850000001,NaN,0.0,16659.0,2.875,-247.5,NaN,0.0,0.125,0.416259723,NaN,0.0,-1283.0,2.0,255.0,NaN,0.0,0.0,3.240966465,NaN,-0.01342773300000033,6494.0,2.0,-270.0,NaN,0.0,0.25,1.540527186,NaN,0.0,0.5199999809265137,0.6499999761581421,173.75,-0.02362060546875,-0.0072021484375,0.97442626953125,37.22999954223633,0.0,32.0,1.389007568359375,2.27105712890625,Waiting,0.0,0.0,0.0,0.0,0.0,0.0,0.0,0.0,
1.876996,0.0,0.0,-16646.0,0.75,277.5,NaN,0.0,0.125,0.7263182850000001,NaN,0.0,16615.0,0.625,-277.5,NaN,0.0,0.0,0.411376911,NaN,-0.009765624000000805,-1238.0,0.75,292.5,NaN,0.0,0.0,3.2568356040000004,NaN,0.0,6448.0,0.625,-285.0,NaN,0.0,0.125,1.539306483,NaN,0.0,0.5099999904632568,0.5099999904632568,173.69000244140625,-0.07098388671875,-0.03118896484375,0.98016357421875,37.22999954223633,0.0,74.0,1.380218505859375,2.271484375,Waiting,0.0,0.0,0.0,0.0,0.0,0.0,0.0,0.0,
1.9995620000000007,0.0,0.0,-16600.0,0.125,292.5,NaN,0.0,0.125,0.7263182850000001,NaN,0.0,16570.0,0.125,-277.5,NaN,0.0,0.0,0.426025347,NaN,0.0,-1192.0,0.375,277.5,NaN,0.0,0.0,3.2556149010000004,NaN,0.0,6403.0,0.375,-277.5,NaN,0.0,0.125,1.540527186,NaN,0.0,0.5400000214576721,0.25999999046325684,173.60000610351562,-0.0711669921875,0.02130126953125,1.04034423828125,37.15999984741211,0.0,76.0,1.3681182861328125,2.2737274169921875,Waiting,0.0,0.0,0.0,0.0,0.0,0.0,0.0,0.0,
2.067615000000001,0.0,0.0,-16600.0,0.125,247.5,NaN,0.0,0.125,0.731201097,NaN,0.0,16570.0,0.125,-247.5,NaN,0.0,0.0,0.416259723,NaN,0.003662109000000413,-1192.0,0.375,247.5,NaN,0.0,0.0,3.2568356040000004,NaN,0.008544921000000372,6403.0,0.375,-255.0,NaN,0.0,0.125,1.540527186,NaN,-0.0012207029999995456,0.5699999928474426,0.11999999731779099,173.6199951171875,-0.0428466796875,0.0244140625,1.059326171875,37.15999984741211,0.0,46.0,1.36309814453125,2.2737274169921875,Waiting,0.0,0.0,0.0,0.0,0.0,0.0,0.0,0.0,
2.096111,0.0,0.0,-16600.0,0.125,217.5,NaN,0.0,0.125,0.7324218,NaN,0.0,16537.0,0.125,-232.5,NaN,0.0,0.0,0.416259723,NaN,0.0,-1156.0,0.375,232.5,NaN,0.0,0.0,3.2556149010000004,NaN,0.0,6366.0,0.375,-232.5,NaN,0.0,0.125,1.539306483,NaN,0.0012207029999995456,0.5600000023841858,0.09000000357627869,173.6199951171875,-0.00714111328125,0.05523681640625,0.96929931640625,37.15999984741211,0.0,13.0,1.3608856201171875,2.2736358642578125,Waiting,0.0,0.0,0.0,0.0,0.0,0.0,0.0,0.0,
2.1423689999999995,0.0,0.0,-16568.0,0.125,180.0,NaN,0.0,0.125,0.7397460180000001,NaN,0.0,16537.0,0.125,-180.0,NaN,0.0,0.0,0.416259723,NaN,0.0,-1156.0,0.375,210.0,NaN,0.0,0.0,3.2556149010000004,NaN,0.0,6366.0,0.375,-195.0,NaN,0.0,0.125,1.539306483,NaN,0.0,0.5699999928474426,0.0,173.58999633789062,-0.05633544921875,0.04815673828125,1.05865478515625,37.15999984741211,0.0,60.0,1.3579254150390625,2.27313232421875,Waiting,0.0,0.0,0.0,0.0,0.0,0.0,0.0,0.125,
2.1663180000000004,0.0,0.0,-16568.0,0.125,165.0,NaN,0.0,0.125,0.7324218,NaN,0.0,16537.0,0.125,-165.0,NaN,0.0,0.0,0.42114253500000004,NaN,0.0,-1156.0,0.375,180.0,NaN,0.0,0.0,3.2580563070000004,NaN,0.0,6366.0,0.375,-180.0,NaN,0.0,0.125,1.540527186,NaN,0.0,0.5899999737739563,-0.09000000357627869,173.55999755859375,-0.033447265625,0.0518798828125,1.05853271484375,37.15999984741211,0.0,36.0,1.35626220703125,2.2726287841796875,Waiting,0.0,0.0,0.0,0.0,0.0,0.0,0.0,0.125,
2.1994100000000008,0.0,0.0,-16568.0,0.125,135.0,NaN,0.0,0.125,0.734863206,NaN,0.0012207029999995456,16537.0,0.125,-127.5,NaN,0.0,0.0,0.416259723,NaN,0.0012207030000004337,-1156.0,0.375,157.5,NaN,0.0,0.0,3.2556149010000004,NaN,0.0,6346.0,0.375,-135.0,NaN,0.0,0.125,1.540527186,NaN,-0.0012207029999995456,0.6000000238418579,-0.1599999964237213,173.5399932861328,-0.02435302734375,0.03363037109375,1.0244140625,37.15999984741211,0.0,23.0,1.35479736328125,2.27197265625,Waiting,0.0,0.0,0.0,0.0,0.0,0.0,0.0,0.0,
2.2657079999999996,0.0,0.0,-16546.0,0.125,127.5,NaN,0.0,0.125,0.7397460180000001,NaN,-0.0012207029999995456,16519.0,0.125,-97.5,NaN,0.0,0.0,0.41503902000000004,NaN,0.0,-1134.0,0.375,112.5,NaN,0.0,0.0,3.2568356040000004,NaN,0.0,6346.0,0.375,-105.0,NaN,0.0,0.125,1.540527186,NaN,0.0012207029999995456,0.6200000047683716,-0.30000001192092896,173.5399932861328,-0.04150390625,-0.0057373046875,1.010009765625,37.15999984741211,0.0,34.0,1.3523101806640625,2.27056884765625,Waiting,0.0,0.0,0.0,0.0,0.0,0.0,0.0,0.125,
2.3334010000000007,0.0,0.0,-16546.0,0.125,127.5,NaN,0.0,0.125,0.731201097,NaN,-0.0012207030000004337,16507.0,0.125,-75.0,NaN,0.0,0.0,0.416259723,NaN,-0.0012207030000004337,-1118.0,0.375,97.5,NaN,0.0,0.0,3.2556149010000004,NaN,0.0,6331.0,0.375,-82.5,NaN,0.0,0.125,1.539306483,NaN,0.0,0.6499999761581421,-0.4699999988079071,173.57000732421875,-0.095947265625,-0.01885986328125,1.0037841796875,37.15999984741211,0.0,83.0,1.350860595703125,2.2704010009765625,Waiting,0.0,0.0,0.0,0.0,0.0,0.0,0.0,0.125,
2.404259000000001,0.0,0.0,-16529.0,0.125,90.0,423.9696204936888,0.0,0.125,0.7324218,4.824746445161359,0.0,16507.0,0.125,-67.5,-423.9696204936888,0.0,0.0,0.416259723,4.855578449291936,0.0,-1118.0,0.125,82.5,423.9696204936888,0.0,0.0,3.2556149010000004,4.832717827554839,0.0,6331.0,0.375,-75.0,-423.9696204936888,0.0,0.125,1.539306483,4.849934213629845,0.0,0.6700000166893005,-0.6100000143051147,173.52999877929688,-0.07391357421875,-0.02197265625,0.98773193359375,37.15999984741211,0.0,59.0,1.3520660400390625,2.2714691162109375,Waiting,0.0,0.0,0.0,0.0,0.0,0.0,0.0,0.0,
2.4233789999999997,0.0,0.0,-16529.0,0.125,75.0,423.9696204936888,0.0,0.125,0.729980394,4.824746445161359,0.0,16507.0,0.5,-67.5,-423.9696204936888,0.0,0.0,0.41503902000000004,4.855578449291936,0.0,-1118.0,0.5,75.0,423.9696204936888,0.0,0.0,3.2568356040000004,4.832717827554839,0.0,6331.0,0.375,-67.5,-423.9696204936888,0.0,0.125,1.539306483,4.849934213629845,0.0,0.6700000166893005,-0.6399999856948853,173.52999877929688,-0.07147216796875,-0.01849365234375,0.99346923828125,37.15999984741211,0.0,56.0,1.352569580078125,2.2718048095703125,Waiting,0.0,0.0,0.0,0.0,0.0,0.0,0.0,0.125,
2.4579800000000005,0.0,0.0,-16513.0,0.875,75.0,NaN,0.0,0.125,0.731201097,NaN,0.0,16481.0,0.75,-90.0,NaN,0.0,0.0,0.416259723,NaN,0.0,-1105.0,0.875,67.5,NaN,0.0,0.0,3.245849277,NaN,0.0,6315.0,1.0,-82.5,NaN,0.0,0.125,1.536865077,NaN,0.0,0.6499999761581421,-0.6499999761581421,173.5399932861328,0.0699462890625,0.0145263671875,1.05059814453125,37.15999984741211,0.0,-81.0,1.3536376953125,2.272186279296875,Waiting,0.0,0.0,0.0,0.0,0.0,0.0,0.0,0.125,
2.4810700000000008,0.0,0.0,-16513.0,0.875,90.0,NaN,0.0,0.125,0.7324218,NaN,0.0,16481.0,1.0,-157.5,NaN,0.0,0.0,0.416259723,NaN,0.0,-1105.0,0.75,82.5,NaN,0.0,0.0,3.2568356040000004,NaN,-0.01342773300000033,6315.0,0.875,-97.5,NaN,0.0,0.125,1.539306483,NaN,0.0,0.6399999856948853,-0.41999998688697815,173.5500030517578,-0.0390625,-0.028564453125,0.69696044921875,37.15999984741211,0.0,29.0,1.3545074462890625,2.2722015380859375,Waiting,0.0,0.0,0.0,0.0,0.0,0.0,0.0,0.0,
2.5039309999999997,0.0,0.0,-16513.0,0.75,97.5,NaN,0.0,0.125,0.731201097,NaN,0.0012207029999995456,16481.0,0.625,-165.0,NaN,0.0,0.0,0.417480426,NaN,0.0012207030000004337,-1105.0,0.375,90.0,NaN,0.0,0.0,3.2556149010000004,NaN,-0.01342773300000033,6315.0,0.375,-105.0,NaN,0.0,0.125,1.539306483,NaN,0.0,0.6000000238418579,-0.6200000047683716,173.57000732421875,-0.01861572265625,0.05224609375,1.1197509765625,37.150001525878906,0.0,10.0,1.3558349609375,2.272064208984375,Waiting,0.0,0.0,0.0,0.0,0.0,0.0,0.0,0.0,
2.5529610000000003,0.0,0.0,-16513.0,0.375,75.0,NaN,0.0,0.125,0.7324218,NaN,-0.0012207029999995456,16481.0,0.125,-105.0,NaN,0.0,0.0,0.416259723,NaN,-0.0012207030000004337,-1105.0,0.375,75.0,NaN,0.0,0.0,3.2556149010000004,NaN,0.01831054500000029,6315.0,0.375,-90.0,NaN,0.0,0.125,1.540527186,NaN,0.0,0.6100000143051147,-0.5299999713897705,173.5800018310547,-0.02325439453125,0.05517578125,0.9171142578125,37.150001525878906,0.0,19.0,1.3558349609375,2.2716522216796875,Waiting,0.0,0.0,0.0,0.0,0.0,0.0,0.0,0.0,
2.581937000000001,0.0,0.0,-16510.0,0.375,30.0,NaN,0.0,0.125,0.731201097,NaN,0.0,16480.0,0.125,-7.5,NaN,0.0,0.0,0.417480426,NaN,0.0012207030000004337,-1100.0,0.375,22.5,NaN,0.0,0.0,3.2556149010000004,NaN,-0.004882811999999959,6309.0,0.375,-15.0,NaN,0.0,0.125,1.539306483,NaN,0.0,0.6399999856948853,-0.6499999761581421,173.5500030517578,-0.03411865234375,0.02490234375,0.97613525390625,37.150001525878906,0.0,24.0,1.356109619140625,2.2713775634765625,Waiting,0.0,0.0,0.0,0.0,0.0,0.0,0.0,0.0,
2.666356000000001,0.0,0.0,-16510.0,0.375,15.0,NaN,0.0,0.125,0.731201097,NaN,0.0,16480.0,0.25,0.0,NaN,0.0,0.0,0.416259723,NaN,0.0,-1100.0,0.375,7.5,NaN,0.0,0.0,3.2568356040000004,NaN,0.0,6309.0,0.625,-7.5,NaN,0.0,0.125,1.539306483,NaN,0.0,0.6200000047683716,-0.699999988079071,173.52999877929688,0.014892578125,0.00616455078125,1.0,37.150001525878906,0.0,-27.0,1.3567352294921875,2.271453857421875,Waiting,0.0,0.0,0.0,0.0,0.0,0.0,0.0,0.0,
2.6962210000000004,0.0,0.0,-16510.0,0.375,15.0,NaN,0.0,0.125,0.731201097,NaN,0.0012207029999995456,16480.0,0.25,0.0,NaN,0.0,0.0,0.416259723,NaN,0.0,-1099.0,0.375,0.0,NaN,0.0,0.0,3.2568356040000004,NaN,0.0,6308.0,0.625,-7.5,NaN,0.0,0.125,1.540527186,NaN,0.0,0.6299999952316284,-0.6899999976158142,173.5500030517578,0.0076904296875,0.023193359375,1.06878662109375,37.150001525878906,0.0,-19.0,1.35699462890625,2.2716064453125,Waiting,0.0,0.0,0.0,0.0,0.0,0.0,0.0,0.0,
2.7255559999999996,0.0,0.0,-16509.0,0.375,7.5,NaN,0.0,0.125,0.729980394,NaN,0.0012207029999995456,16480.0,0.25,0.0,NaN,0.0,0.0,0.423583941,NaN,0.0,-1099.0,0.5,0.0,NaN,0.0,0.0,3.2556149010000004,NaN,0.0,6308.0,0.625,0.0,NaN,0.0,0.125,1.539306483,NaN,0.0,0.6299999952316284,-0.6700000166893005,173.57000732421875,0.00592041015625,7.9345703125E-4,0.97698974609375,37.150001525878906,0.0,-7.0,1.35699462890625,2.271697998046875,Waiting,0.0,0.0,0.0,0.0,0.0,0.0,0.0,0.125,
2.7588660000000007,0.0,0.0,-16509.0,0.375,0.0,NaN,0.0,0.125,0.7324218,NaN,0.0,16480.0,0.25,0.0,NaN,0.0,0.0,0.410156208,NaN,0.0,-1099.0,0.5,0.0,NaN,0.0,0.0,3.2556149010000004,NaN,0.0,6308.0,0.625,0.0,NaN,0.0,0.125,1.536865077,NaN,0.0,0.6499999761581421,-0.6399999856948853,173.5500030517578,-0.02911376953125,-0.02734375,1.05975341796875,37.150001525878906,0.0,12.0,1.35699462890625,2.271759033203125,Waiting,0.0,0.0,0.0,0.0,0.0,0.0,0.0,0.0,
2.783911000000001,0.0,0.0,-16509.0,0.375,0.0,NaN,0.0,0.125,0.733642503,NaN,0.0,16480.0,0.25,0.0,NaN,0.0,0.0,0.416259723,NaN,0.0,-1099.0,0.5,0.0,NaN,0.0,0.0,3.2556149010000004,NaN,-0.0012207030000004337,6308.0,0.625,0.0,NaN,0.0,0.125,1.540527186,NaN,0.0,0.6299999952316284,-0.6200000047683716,173.5399932861328,-0.02362060546875,-0.02081298828125,0.9891357421875,37.150001525878906,0.0,9.0,1.35699462890625,2.27203369140625,Waiting,0.0,0.0,0.0,0.0,0.0,0.0,0.0,0.0,
2.8683380000000005,0.0,0.0,-16509.0,0.375,0.0,NaN,0.0,0.125,0.731201097,NaN,0.0,16480.0,0.25,0.0,NaN,0.0,0.0,0.416259723,NaN,0.0,-1099.0,0.5,0.0,NaN,0.0,0.0,3.2568356040000004,NaN,0.0,6308.0,0.625,0.0,NaN,0.0,0.125,1.533202968,NaN,0.0,0.6200000047683716,-0.6299999952316284,173.55999755859375,-0.00567626953125,0.0362548828125,0.9796142578125,37.150001525878906,0.0,-2.0,1.357177734375,2.27276611328125,Waiting,0.0,0.0,0.0,0.0,0.0,0.0,0.0,0.0,
2.930937000000001,0.0,0.0,-16509.0,0.375,0.0,NaN,0.0,0.125,0.7324218,NaN,0.0012207029999995456,16480.0,0.25,0.0,NaN,0.0,0.0,0.416259723,NaN,0.0,-1099.0,0.5,0.0,NaN,0.0,0.0,3.2556149010000004,NaN,0.0012207030000004337,6308.0,0.625,0.0,NaN,0.0,0.125,1.539306483,NaN,0.0,0.6100000143051147,-0.6100000143051147,173.5500030517578,0.02593994140625,0.0579833984375,1.0107421875,37.150001525878906,0.0,-31.0,1.3570709228515625,2.2725677490234375,Waiting,0.0,0.0,0.0,0.0,0.0,0.0,0.0,0.0,
2.959205999999999,0.0,0.0,-16509.0,0.375,0.0,423.9696204936888,0.0,0.125,0.731201097,4.824746445161359,0.0012207029999995456,16480.0,0.25,0.0,-423.9696204936888,0.0,0.0,0.416259723,4.855578449291936,0.0,-1099.0,0.5,0.0,423.9696204936888,0.0,0.0,3.2556149010000004,4.832717827554839,0.0012207030000004337,6308.0,0.625,0.0,-423.9696204936888,0.0,0.125,1.539306483,4.849934213629845,0.0,0.6100000143051147,-0.6000000238418579,173.5500030517578,0.0174560546875,0.058349609375,1.005859375,37.150001525878906,0.0,-22.0,1.3569488525390625,2.272430419921875,Waiting,0.0,0.0,0.0,0.0,0.0,0.0,0.0,0.0,
2.9861809999999998,0.0,0.0,-16509.0,0.875,0.0,423.9696204936888,0.0,0.125,0.731201097,4.824746445161359,-0.0012207029999995456,16480.0,0.875,0.0,-423.9696204936888,0.0,0.0,0.416259723,4.855578449291936,0.0,-1099.0,1.5,0.0,423.9696204936888,0.0,0.0,3.2604977130000004,4.832717827554839,0.0,6308.0,2.0,-7.5,-423.9696204936888,0.0,0.125,1.53808578,4.849934213629845,-0.0012207029999995456,0.6200000047683716,-0.5099999904632568,173.57000732421875,0.14678955078125,0.04217529296875,1.1383056640625,37.18000030517578,0.0,-152.0,1.35595703125,2.27197265625,Waiting,0.0,0.0,0.0,0.0,0.0,0.0,0.0,0.0,
3.0328980000000003,0.0,0.0,-16509.0,1.875,0.0,NaN,0.0,0.125,0.731201097,NaN,-0.0012207029999995456,16480.0,2.25,-37.5,NaN,0.0,0.0,0.42114253500000004,NaN,0.0,-1099.0,2.0,15.0,NaN,0.0,0.0,3.249511386,NaN,-0.004882811999999959,6302.0,2.0,-30.0,NaN,0.0,0.125,1.539306483,NaN,0.0012207029999995456,0.6000000238418579,-0.33000001311302185,173.61000061035156,-0.04742431640625,-0.0147705078125,1.025146484375,37.18000030517578,0.0,38.0,1.3538970947265625,2.27178955078125,Waiting,0.0,0.0,0.0,0.0,0.0,0.0,0.0,0.0,
3.076871,0.0,0.0,-16506.0,1.25,15.0,NaN,0.0,0.125,0.731201097,NaN,0.0,16471.0,1.25,-60.0,NaN,0.0,0.0,0.416259723,NaN,-0.0012207030000004337,-1092.0,1.5,37.5,NaN,0.0,0.0,3.2568356040000004,NaN,-0.004882811999999959,6302.0,1.5,-37.5,NaN,0.0,0.125,1.539306483,NaN,0.0012207029999995456,0.6100000143051147,-0.3700000047683716,173.58999633789062,-0.035400390625,-0.00469970703125,1.0926513671875,37.18000030517578,0.0,26.0,1.353179931640625,2.271759033203125,Waiting,0.0,0.0,0.0,0.0,0.0,0.0,0.0,0.0,
3.098247,0.0,0.0,-16506.0,1.0,22.5,NaN,0.0,0.125,0.731201097,NaN,0.0,16471.0,0.625,-60.0,NaN,0.0,0.0,0.416259723,NaN,0.0,-1092.0,1.0,52.5,NaN,0.0,0.0,3.2556149010000004,NaN,0.004882811999999959,6302.0,1.0,-45.0,NaN,0.0,0.125,1.540527186,NaN,0.0,0.5899999737739563,-0.3499999940395355,173.57000732421875,-0.0401611328125,0.00640869140625,1.05450439453125,37.18000030517578,0.0,32.0,1.352508544921875,2.271759033203125,Waiting,0.0,0.0,0.0,0.0,0.0,0.0,0.0,0.0,
3.1358010000000003,0.0,0.0,-16506.0,0.5,37.5,NaN,0.0,0.125,0.7324218,NaN,0.0,16471.0,0.375,-37.5,NaN,0.0,0.0,0.412597614,NaN,0.0,-1092.0,0.5,52.5,NaN,0.0,0.0,3.2556149010000004,NaN,-0.0012207030000004337,6302.0,0.625,-37.5,NaN,0.0,0.125,1.539306483,NaN,0.0,0.6200000047683716,-0.4000000059604645,173.52000427246094,-0.08282470703125,-0.00604248046875,1.05023193359375,37.18000030517578,0.0,72.0,1.3508453369140625,2.2719879150390625,Waiting,0.0,0.0,0.0,0.0,0.0,0.0,0.0,0.0,
3.158345,0.0,0.0,-16506.0,0.5,45.0,NaN,0.0,0.125,0.7324218,NaN,0.0,16471.0,0.5,-37.5,NaN,0.0,0.0,0.416259723,NaN,0.0,-1092.0,0.5,52.5,NaN,0.0,0.0,3.2580563070000004,NaN,-0.0012207030000004337,6302.0,0.625,-37.5,NaN,0.0,0.125,1.540527186,NaN,0.0,0.6200000047683716,-0.4000000059604645,173.50999450683594,-0.04827880859375,-1.8310546875E-4,0.9957275390625,37.18000030517578,0.0,39.0,1.350433349609375,2.272125244140625,Waiting,0.0,0.0,0.0,0.0,0.0,0.0,0.0,0.0,
3.1787969999999994,0.0,0.0,-16506.0,0.5,52.5,NaN,0.0,0.125,0.731201097,NaN,0.0,16464.0,0.5,-37.5,NaN,0.0,0.0,0.41503902000000004,NaN,0.0,-1084.0,0.75,45.0,NaN,0.0,0.0,3.2568356040000004,NaN,-0.0012207030000004337,6296.0,0.625,-37.5,NaN,0.0,0.125,1.539306483,NaN,0.0,0.6200000047683716,-0.4099999964237213,173.50999450683594,-0.04266357421875,-0.00537109375,0.99951171875,37.18000030517578,0.0,33.0,1.3500823974609375,2.2722930908203125,Waiting,0.0,0.0,0.0,0.0,0.0,0.0,0.0,0.0,
3.2067120000000005,0.0,0.0,-16498.0,0.5,45.0,NaN,0.0,0.125,0.7324218,NaN,0.0,16464.0,0.5,-37.5,NaN,0.0,0.0,0.417480426,NaN,0.0,-1084.0,0.75,45.0,NaN,0.0,0.0,3.2568356040000004,NaN,0.0012207030000004337,6296.0,0.625,-37.5,NaN,0.0,0.125,1.540527186,NaN,0.0,0.6100000143051147,-0.47999998927116394,173.5399932861328,-0.01727294921875,0.0069580078125,0.94830322265625,37.18000030517578,0.0,8.0,1.3493499755859375,2.2727203369140625,Waiting,0.0,0.0,0.0,0.0,0.0,0.0,0.0,0.0,
3.2278810000000004,0.0,0.0,-16498.0,0.5,45.0,NaN,0.0,0.125,0.7324218,NaN,0.0,16464.0,0.375,-30.0,NaN,0.0,0.0,0.41503902000000004,NaN,0.0,-1084.0,0.75,45.0,NaN,0.0,0.0,3.2568356040000004,NaN,0.0,6296.0,0.625,-37.5,NaN,0.0,0.125,1.540527186,NaN,0.0,0.6100000143051147,-0.5299999713897705,173.57000732421875,0.00946044921875,0.05511474609375,0.96844482421875,37.18000030517578,0.0,-13.0,1.34918212890625,2.2726898193359375,Waiting,0.0,0.0,0.0,0.0,0.0,0.0,0.0,0.0,
3.3374970000000004,0.0,0.0,-16495.0,0.5,15.0,NaN,0.0,0.125,0.729980394,NaN,0.0,16462.0,0.375,-15.0,NaN,0.0,0.0,0.416259723,NaN,0.0,-1081.0,0.75,15.0,NaN,0.0,0.0,3.2556149010000004,NaN,0.0,6291.0,0.75,-15.0,NaN,0.0,0.125,1.539306483,NaN,0.0,0.6200000047683716,-0.5099999904632568,173.5399932861328,-4.2724609375E-4,0.0308837890625,1.02508544921875,37.18000030517578,0.0,-6.0,1.34918212890625,2.2716522216796875,Waiting,0.0,0.0,0.0,0.0,0.0,0.0,0.0,0.0,
3.361192,0.0,0.0,-16495.0,0.5,15.0,NaN,0.0,0.125,0.731201097,NaN,0.0012207030000004337,16462.0,0.375,-15.0,NaN,0.0,0.0,0.416259723,NaN,0.0012207030000004337,-1081.0,0.75,15.0,NaN,0.0,0.0,3.2556149010000004,NaN,0.0,6291.0,0.75,-15.0,NaN,0.0,0.125,1.540527186,NaN,0.0,0.6100000143051147,-0.5199999809265137,173.5399932861328,-4.8828125E-4,0.0460205078125,1.03338623046875,37.18000030517578,0.0,-5.0,1.34918212890625,2.2713470458984375,Waiting,0.0,0.0,0.0,0.0,0.0,0.0,0.0,0.0,
3.4020199999999994,0.0,0.0,-16495.0,0.5,15.0,NaN,0.0,0.125,0.7324218,NaN,0.0,16462.0,0.375,-7.5,NaN,0.0,0.0,0.416259723,NaN,-0.0012207030000004337,-1081.0,0.75,15.0,NaN,0.0,0.0,3.2568356040000004,NaN,0.0,6290.0,0.625,-7.5,NaN,0.0,0.125,1.539306483,NaN,0.0,0.6100000143051147,-0.5299999713897705,173.52999877929688,-0.00177001953125,0.00640869140625,1.039306640625,37.18000030517578,0.0,-8.0,1.34918212890625,2.2710113525390625,Waiting,0.0,0.0,0.0,0.0,0.0,0.0,0.0,0.0,
3.4651729999999996,0.0,0.0,-16493.0,0.75,7.5,NaN,0.0,0.125,0.731201097,NaN,0.0,16461.0,0.5,-7.5,NaN,0.0,0.0,0.412597614,NaN,0.0,-1079.0,0.75,7.5,NaN,0.0,0.0,3.2556149010000004,NaN,0.0,6290.0,0.625,0.0,NaN,0.0,0.125,1.540527186,NaN,0.0,0.6299999952316284,-0.5299999713897705,173.5500030517578,-0.03009033203125,-0.01416015625,1.01202392578125,37.18000030517578,0.0,17.0,1.34918212890625,2.271026611328125,Waiting,0.0,0.0,0.0,0.0,0.0,0.0,0.0,0.0,
3.4845209999999995,0.0,0.0,-16493.0,0.75,0.0,NaN,0.0,0.125,0.731201097,NaN,0.0,16461.0,0.5,-7.5,NaN,0.0,0.0,0.416259723,NaN,0.0,-1079.0,0.75,7.5,NaN,0.0,0.0,3.2556149010000004,NaN,0.0,6290.0,0.75,0.0,NaN,0.0,0.125,1.541747889,NaN,0.0,0.6200000047683716,-0.5299999713897705,173.5500030517578,-0.03070068359375,-0.01654052734375,1.02728271484375,37.18000030517578,0.0,17.0,1.349273681640625,2.271209716796875,Waiting,0.0,0.0,0.0,0.0,0.0,0.0,0.0,0.0,
3.5064260000000003,0.0,0.0,-16493.0,0.75,0.0,NaN,0.0,0.125,0.7324218,NaN,0.0,16461.0,0.5,-7.5,NaN,0.0,0.0,0.416259723,NaN,0.0,-1079.0,0.75,0.0,NaN,0.0,0.0,3.2556149010000004,NaN,0.0,6289.0,0.75,-7.5,NaN,0.0,0.125,1.539306483,NaN,0.0,0.6200000047683716,-0.5199999809265137,173.5500030517578,-0.02362060546875,-0.02685546875,0.990478515625,37.13999938964844,0.0,10.0,1.349365234375,2.2718048095703125,Waiting,0.0,0.0,0.0,0.0,0.0,0.0,0.0,0.0,
3.5537030000000005,0.0,0.0,-16493.0,0.75,0.0,NaN,0.0,0.125,0.7324218,NaN,0.0012207029999995456,16459.0,0.625,0.0,NaN,0.0,0.0,0.416259723,NaN,0.0,-1079.0,0.75,0.0,NaN,0.0,0.0,3.2556149010000004,NaN,0.0,6289.0,0.625,-7.5,NaN,0.0,0.125,1.540527186,NaN,0.0,0.6200000047683716,-0.5099999904632568,173.5399932861328,-0.0225830078125,-0.01251220703125,0.96832275390625,37.13999938964844,0.0,11.0,1.349365234375,2.2720947265625,Waiting,0.0,0.0,0.0,0.0,0.0,0.0,0.0,0.0,
3.5725890000000007,0.0,0.0,-16493.0,0.75,0.0,NaN,0.0,0.125,0.7324218,NaN,-0.0012207029999995456,16459.0,0.75,-7.5,NaN,0.0,0.0,0.416259723,NaN,0.0,-1079.0,0.75,0.0,NaN,0.0,0.0,3.2568356040000004,NaN,0.0,6289.0,0.625,0.0,NaN,0.0,0.125,1.540527186,NaN,0.0,0.6200000047683716,-0.5199999809265137,173.5399932861328,0.00347900390625,0.015625,1.03558349609375,37.13999938964844,0.0,-12.0,1.349365234375,2.27294921875,Waiting,0.0,0.0,0.0,0.0,0.0,0.0,0.0,0.125,
3.618244,0.0,0.0,-16493.0,0.75,0.0,NaN,0.0,0.125,0.731201097,NaN,-0.0012207029999995456,16459.0,0.75,-7.5,NaN,0.0,0.0,0.416259723,NaN,0.0,-1079.0,0.75,0.0,NaN,0.0,0.0,3.2556149010000004,NaN,0.0,6289.0,0.75,0.0,NaN,0.0,0.125,1.539306483,NaN,0.0,0.6299999952316284,-0.5199999809265137,173.5399932861328,0.009765625,0.001708984375,1.04925537109375,37.13999938964844,0.0,-20.0,1.3493499755859375,2.273223876953125,Waiting,0.0,0.0,0.0,0.0,0.0,0.0,0.0,0.125,
3.635469,0.0,0.0,-16493.0,0.75,0.0,NaN,0.0,0.125,0.731201097,NaN,-0.0012207029999995456,16459.0,0.75,0.0,NaN,0.0,0.0,0.416259723,NaN,0.0012207030000004337,-1079.0,0.75,0.0,NaN,0.0,0.0,3.2556149010000004,NaN,0.0,6289.0,0.75,0.0,NaN,0.0,0.125,1.539306483,NaN,0.0,0.6100000143051147,-0.5099999904632568,173.5399932861328,0.0093994140625,0.06134033203125,0.97772216796875,37.13999938964844,0.0,-12.0,1.3492279052734375,2.273834228515625,Waiting,0.0,0.0,0.0,0.0,0.0,0.0,0.0,0.0,
3.738764,0.0,0.0,-16492.0,0.75,0.0,NaN,0.0,0.125,0.7324218,NaN,0.0,16459.0,0.75,0.0,NaN,0.0,0.0,0.416259723,NaN,0.0,-1079.0,0.875,0.0,NaN,0.0,0.0,3.2556149010000004,NaN,0.0,6289.0,0.75,0.0,NaN,0.0,0.125,1.534423671,NaN,0.0,0.6100000143051147,-0.5099999904632568,173.5399932861328,0.006103515625,0.01275634765625,1.03436279296875,37.13999938964844,0.0,-15.0,1.3492279052734375,2.27374267578125,Waiting,0.0,0.0,0.0,0.0,0.0,0.0,0.0,0.0,
3.7615289999999995,0.0,0.0,-16492.0,0.75,0.0,NaN,0.0,0.125,0.731201097,NaN,0.0,16459.0,0.75,0.0,NaN,0.0,0.0,0.416259723,NaN,-0.0012207030000004337,-1079.0,0.875,0.0,NaN,0.0,0.0,3.2568356040000004,NaN,0.0,6289.0,0.75,0.0,NaN,0.0,0.125,1.540527186,NaN,0.0,0.6100000143051147,-0.49000000953674316,173.5399932861328,0.00750732421875,0.0018310546875,1.0389404296875,37.13999938964844,0.0,-17.0,1.3492279052734375,2.27374267578125,Waiting,0.0,0.0,0.0,0.0,0.0,0.0,0.0,0.0,
3.8047560000000002,0.0,0.0,-16492.0,0.75,0.0,NaN,0.0,0.125,0.7324218,NaN,0.0,16459.0,0.75,0.0,NaN,0.0,0.0,0.416259723,NaN,0.0,-1079.0,0.75,0.0,NaN,0.0,0.0,3.2556149010000004,NaN,0.0,6289.0,0.75,0.0,NaN,0.0,0.125,1.539306483,NaN,0.0,0.6200000047683716,-0.49000000953674316,173.5399932861328,-0.00836181640625,-0.00347900390625,1.0177001953125,37.13999938964844,0.0,-1.0,1.3492279052734375,2.27374267578125,Waiting,0.0,0.0,0.0,0.0,0.0,0.0,0.0,0.0,
3.823056,0.0,0.0,-16492.0,0.75,0.0,NaN,0.0,0.125,0.7324218,NaN,0.0,16459.0,0.75,0.0,NaN,0.0,0.0,0.416259723,NaN,0.0,-1079.0,0.75,0.0,NaN,0.0,0.0,3.2556149010000004,NaN,0.0,6289.0,0.75,0.0,NaN,0.0,0.125,1.539306483,NaN,0.0,0.6200000047683716,-0.49000000953674316,173.5399932861328,-0.0260009765625,-0.01495361328125,1.0008544921875,37.13999938964844,0.0,14.0,1.3492279052734375,2.273773193359375,Waiting,0.0,0.0,0.0,0.0,0.0,0.0,0.0,0.0,
3.842986,0.0,0.0,-16492.0,0.75,0.0,NaN,0.0,0.125,0.7263182850000001,NaN,0.0,16459.0,0.75,0.0,NaN,0.0,0.0,0.419921832,NaN,0.0,-1079.0,0.75,0.0,NaN,0.0,0.0,3.2556149010000004,NaN,0.0,6289.0,0.75,0.0,NaN,0.0,0.125,1.540527186,NaN,0.0,0.6200000047683716,-0.49000000953674316,173.5399932861328,-0.0362548828125,-0.02276611328125,1.0240478515625,37.13999938964844,0.0,23.0,1.3493194580078125,2.2739715576171875,Waiting,0.0,0.0,0.0,0.0,0.0,0.0,0.0,0.0,
3.8660639999999993,0.0,0.0,-16492.0,0.75,0.0,NaN,0.0,0.125,0.7324218,NaN,0.0,16459.0,0.75,0.0,NaN,0.0,0.0,0.416259723,NaN,0.0,-1079.0,0.75,0.0,NaN,0.0,0.0,3.2568356040000004,NaN,0.0,6289.0,0.75,0.0,NaN,0.0,0.125,1.540527186,NaN,0.0,0.6200000047683716,-0.49000000953674316,173.5399932861328,-0.0299072265625,-0.01513671875,1.03460693359375,37.13999938964844,0.0,17.0,1.3494110107421875,2.274139404296875,Waiting,0.0,0.0,0.0,0.0,0.0,0.0,0.0,0.125,
3.894704000000001,0.0,0.0,-16492.0,0.75,0.0,NaN,0.0,0.125,0.7324218,NaN,0.0,16459.0,0.75,0.0,NaN,0.0,0.0,0.416259723,NaN,0.0,-1079.0,0.75,0.0,NaN,0.0,0.0,3.2556149010000004,NaN,0.0,6289.0,0.75,0.0,NaN,0.0,0.125,1.53808578,NaN,0.0,0.6200000047683716,-0.4699999988079071,173.5399932861328,-0.02496337890625,-0.02703857421875,1.00390625,37.13999938964844,0.0,12.0,1.3494110107421875,2.274627685546875,Waiting,0.0,0.0,0.0,0.0,0.0,0.0,0.0,0.125,
3.9194910000000007,0.0,0.0,-16492.0,0.75,0.0,NaN,0.0,0.125,0.731201097,NaN,0.0,16459.0,0.75,0.0,NaN,0.0,0.0,0.416259723,NaN,0.0,-1079.0,0.75,0.0,NaN,0.0,0.0,3.2568356040000004,NaN,0.0,6289.0,0.75,0.0,NaN,0.0,0.125,1.540527186,NaN,0.0,0.6200000047683716,-0.4699999988079071,173.5399932861328,-0.02349853515625,-0.0054931640625,0.97967529296875,37.13999938964844,0.0,13.0,1.3494110107421875,2.274932861328125,Waiting,0.0,0.0,0.0,0.0,0.0,0.0,0.0,0.125,
3.938741999999999,0.0,0.0,-16492.0,0.75,0.0,NaN,0.0,0.125,0.731201097,NaN,0.0,16459.0,0.75,0.0,NaN,0.0,0.0,0.416259723,NaN,0.0,-1079.0,0.75,0.0,NaN,0.0,0.0,3.2568356040000004,NaN,0.0,6289.0,0.75,0.0,NaN,0.0,0.125,1.540527186,NaN,0.0,0.6100000143051147,-0.4699999988079071,173.5399932861328,-0.00201416015625,0.02301025390625,1.0015869140625,37.13999938964844,0.0,-4.0,1.3494110107421875,2.274932861328125,Waiting,0.0,0.0,0.0,0.0,0.0,0.0,0.0,0.125,
3.9619129999999996,0.0,0.0,-16492.0,0.75,0.0,NaN,0.0,0.125,0.7324218,NaN,0.0,16459.0,0.75,0.0,NaN,0.0,0.0,0.41503902000000004,NaN,0.0,-1079.0,0.75,0.0,NaN,0.0,0.0,3.2568356040000004,NaN,0.0,6289.0,0.75,0.0,NaN,0.0,0.125,1.539306483,NaN,0.0,0.6200000047683716,-0.4699999988079071,173.5399932861328,0.00250244140625,0.0064697265625,1.0382080078125,37.13999938964844,0.0,-11.0,1.3494110107421875,2.274932861328125,Waiting,0.0,0.0,0.0,0.0,0.0,0.0,0.0,0.125,
3.986093,0.0,0.0,-16492.0,0.75,0.0,NaN,0.0,0.125,0.731201097,NaN,0.0012207029999995456,16459.0,0.75,0.0,NaN,0.0,0.0,0.417480426,NaN,0.0,-1078.0,0.75,7.5,NaN,0.0,0.0,3.2556149010000004,NaN,0.0,6289.0,0.75,0.0,NaN,0.0,0.125,1.539306483,NaN,0.0,0.6000000238418579,-0.4699999988079071,173.5399932861328,0.01751708984375,0.06573486328125,0.981201171875,37.13999938964844,0.0,-19.0,1.3494110107421875,2.27484130859375,Waiting,0.0,0.0,0.0,0.0,0.0,0.0,0.0,0.0,
4.067938999999999,0.0,0.0,-16492.0,0.75,0.0,NaN,0.0,0.125,0.731201097,NaN,0.0,16458.0,0.75,-7.5,NaN,0.0,0.0,0.416259723,NaN,0.0,-1078.0,0.75,0.0,NaN,0.0,0.0,3.2556149010000004,NaN,0.0,6289.0,0.75,0.0,NaN,0.0,0.125,1.534423671,NaN,0.0,0.6100000143051147,-0.46000000834465027,173.5399932861328,0.00689697265625,0.04840087890625,1.0562744140625,37.16999816894531,0.0,-11.0,1.3494110107421875,2.273712158203125,Waiting,0.0,0.0,0.0,0.0,0.0,0.0,0.0,0.125,
4.135087,0.0,0.0,-16492.0,0.75,0.0,NaN,0.0,0.125,0.7250975820000001,NaN,0.0,16458.0,0.75,0.0,NaN,0.0,0.0,0.418701129,NaN,0.0,-1078.0,0.75,0.0,NaN,0.0,0.0,3.2580563070000004,NaN,0.0,6289.0,0.75,0.0,NaN,0.0,0.125,1.540527186,NaN,0.0,0.6100000143051147,-0.44999998807907104,173.52999877929688,0.01116943359375,0.00384521484375,1.0419921875,37.16999816894531,0.0,-20.0,1.3493194580078125,2.2733612060546875,Waiting,0.0,0.0,0.0,0.0,0.0,0.0,0.0,0.0,
4.2037249999999995,0.0,0.0,-16492.0,0.75,0.0,423.9696204936888,0.0,0.125,0.7324218,4.824746445161359,0.0024414059999999793,16458.0,0.875,0.0,-423.9696204936888,0.0,0.0,0.416259723,4.855578449291936,0.0,-1078.0,0.875,0.0,423.9696204936888,0.0,0.0,3.2556149010000004,4.832717827554839,0.0,6289.0,0.75,0.0,-423.9696204936888,0.0,0.125,1.540527186,4.849934213629845,0.0,0.6200000047683716,-0.4399999976158142,173.52999877929688,-0.034912109375,-0.02056884765625,1.00836181640625,37.16999816894531,0.0,23.0,1.349273681640625,2.2734832763671875,Waiting,0.0,0.0,0.0,0.0,0.0,0.0,0.0,0.125,
4.224049,0.0,0.0,-16492.0,1.125,0.0,423.9696204936888,0.0,0.125,0.7324218,4.824746445161359,0.0024414059999999793,16458.0,0.875,0.0,-423.9696204936888,0.0,0.0,0.416259723,4.855578449291936,0.0,-1078.0,1.5,0.0,423.9696204936888,0.0,0.0,3.2556149010000004,4.832717827554839,0.0,6289.0,1.375,0.0,-423.9696204936888,0.0,0.125,1.5307615620000001,4.849934213629845,0.0,0.6200000047683716,-0.4300000071525574,173.52000427246094,0.053955078125,-0.014404296875,1.05035400390625,37.16999816894531,0.0,-64.0,1.349365234375,2.2737579345703125,Waiting,0.0,0.0,0.0,0.0,0.0,0.0,0.0,0.0,
4.265251999999999,0.0,0.0,-16486.0,2.375,22.5,423.9696204936888,0.0,0.125,0.7324218,4.824746445161359,-0.0012207029999995456,16453.0,3.125,-22.5,-423.9696204936888,0.0,0.0,0.416259723,4.855578449291936,0.0,-1075.0,2.625,7.5,423.9696204936888,0.0,0.0,3.237304356,4.832717827554839,-0.004882811999999959,6286.0,2.5,-15.0,-423.9696204936888,0.0,0.125,1.540527186,4.849934213629845,0.0,0.6200000047683716,-0.23000000417232513,173.52999877929688,0.02508544921875,-0.04864501953125,0.94354248046875,37.16999816894531,0.0,-35.0,1.3489532470703125,2.274078369140625,Waiting,0.0,0.0,0.0,0.0,0.0,0.0,0.0,0.0,
4.335435,0.0,0.0,-16486.0,2.625,60.0,NaN,0.0,0.25,0.731201097,NaN,0.0,16453.0,3.75,-67.5,NaN,0.0,0.125,0.416259723,NaN,0.0,-1075.0,3.25,60.0,NaN,0.0,0.0,3.237304356,NaN,0.0,6286.0,2.875,-52.5,NaN,0.0,0.25,1.539306483,NaN,0.0,0.5699999928474426,0.029999999329447746,173.50999450683594,0.11578369140625,0.015869140625,0.9627685546875,37.16999816894531,0.0,-113.0,1.3456268310546875,2.2746734619140625,Waiting,0.0,0.0,0.0,0.0,0.0,0.0,0.0,0.0,
4.404502,0.0,0.0,-16468.0,0.875,120.0,NaN,0.0,0.125,0.731201097,NaN,-0.0012207029999995456,16438.0,1.125,-97.5,NaN,0.0,0.0,0.417480426,NaN,0.0012207030000004337,-1059.0,1.25,105.0,NaN,0.0,0.0,3.236083653,NaN,0.0,6269.0,1.25,-112.5,NaN,0.0,0.125,1.540527186,NaN,0.0,0.5600000023841858,0.05999999865889549,173.50999450683594,0.02728271484375,-0.02081298828125,1.0645751953125,37.16999816894531,0.0,-29.0,1.3411865234375,2.2745513916015625,Waiting,0.0,0.0,0.0,0.0,0.0,0.0,0.0,0.0,
4.417830000000001,0.0,0.0,-16468.0,0.875,120.0,423.9696204936888,0.0,0.125,0.731201097,4.824746445161359,-0.0012207029999995456,16438.0,0.875,-112.5,-423.9696204936888,0.0,0.0,0.416259723,4.855578449291936,0.0012207030000004337,-1059.0,1.0,120.0,423.9696204936888,0.0,0.0,3.239745762,4.832717827554839,0.0,6269.0,0.75,-127.5,-423.9696204936888,0.0,0.125,1.53808578,4.849934213629845,0.0,0.5899999737739563,0.07000000029802322,173.49000549316406,0.00787353515625,0.03155517578125,1.0089111328125,37.16999816894531,0.0,-4.0,1.338958740234375,2.2744140625,Waiting,0.0,0.0,0.0,0.0,0.0,0.0,0.0,0.0,
4.457223000000001,0.0,0.0,-16468.0,1.5,142.5,423.9696204936888,0.0,0.125,0.734863206,4.824746445161359,0.0,16438.0,2.125,-142.5,-423.9696204936888,0.0,0.0,0.416259723,4.855578449291936,-0.0012207030000004337,-1059.0,2.0,135.0,423.9696204936888,0.0,0.0,3.232421544,4.832717827554839,0.0,6269.0,1.875,-142.5,-423.9696204936888,0.0,0.125,1.547851404,4.849934213629845,0.0,0.5899999737739563,0.03999999910593033,173.49000549316406,0.08349609375,-0.03436279296875,1.02349853515625,37.16999816894531,0.0,-87.0,1.33673095703125,2.274261474609375,Waiting,0.0,0.0,0.0,0.0,0.0,0.0,0.0,0.0,
4.534765,0.0,0.0,-16440.0,2.625,172.5,NaN,0.0,0.25,0.7324218,NaN,0.0,16408.0,3.125,-195.0,NaN,0.0,0.125,0.416259723,NaN,0.0,-1031.0,2.25,195.0,NaN,0.0,0.0,3.232421544,NaN,0.0,6242.0,2.0,-187.5,NaN,0.0,0.25,1.539306483,NaN,0.0,0.5600000023841858,0.23999999463558197,173.49000549316406,0.05877685546875,-3.662109375E-4,0.89813232421875,37.189998626708984,0.0,-86.0,1.328460693359375,2.2746734619140625,Waiting,0.0,0.0,0.0,0.0,0.0,0.0,0.0,0.0,
4.607096,0.0,0.0,-16440.0,0.75,210.0,NaN,0.0,0.125,0.733642503,NaN,0.0,16373.0,0.5,-210.0,NaN,0.0,0.0,0.417480426,NaN,0.0012207030000004337,-994.0,0.75,217.5,NaN,0.0,0.0,3.231200841,NaN,0.0,6205.0,0.625,-217.5,NaN,0.0,0.125,1.539306483,NaN,0.0,0.5600000023841858,0.27000001072883606,173.44000244140625,-0.00323486328125,0.0029296875,1.0357666015625,37.189998626708984,0.0,7.0,1.320648193359375,2.27471923828125,Waiting,0.0,0.0,0.0,0.0,0.0,0.0,0.0,0.0,
4.675076,0.0,0.0,-16403.0,0.375,232.5,423.9696204936888,0.0,0.125,0.7385253150000001,4.824746445161359,0.0,16373.0,0.25,-210.0,-423.9696204936888,0.0,0.0,0.41503902000000004,4.855578449291936,0.0,-994.0,0.5,232.5,423.9696204936888,0.0,0.0,3.249511386,4.832717827554839,0.0,6205.0,0.375,-217.5,-423.9696204936888,0.0,0.125,1.540527186,4.849934213629845,0.0,0.5600000023841858,0.17000000178813934,173.39999389648438,-0.03289794921875,0.0101318359375,1.0736083984375,37.189998626708984,0.0,35.0,1.314971923828125,2.274810791015625,Waiting,0.0,0.0,0.0,0.0,0.0,0.0,0.0,0.125,
4.727735,0.0,0.0,-16403.0,1.5,247.5,425.9162806985224,0.0,0.125,0.731201097,4.801258457807891,0.0,16334.0,2.125,-232.5,-425.9162806985224,0.0,0.0,0.416259723,4.831940364574527,-0.0012207030000004337,-960.0,1.875,210.0,425.9162806985224,0.0,0.0,3.237304356,4.809191033658689,0.009765623999999917,6167.0,2.0,-225.0,-425.9162806985224,0.0,0.125,1.540527186,4.826323606363813,0.0,0.5699999928474426,0.27000001072883606,173.41000366210938,-0.0126953125,-0.01141357421875,0.97418212890625,37.189998626708984,0.0,14.0,1.309600830078125,2.2748260498046875,Waiting,0.0,0.0,0.0,0.0,0.0,0.0,0.0,0.125,
4.805748,0.0,0.0,-16365.0,2.0,240.0,424.8953961344487,0.0,0.25,0.7324218,4.812975549907741,0.0012207030000004337,16334.0,2.375,-262.5,-424.8953961344487,0.0,0.25,0.416259723,4.84373233344482,0.0,-960.0,2.25,210.0,424.8953961344487,0.0,0.0,3.233642247,4.82092748458345,-0.014648435999999876,6167.0,2.25,-247.5,-424.8953961344487,0.0,0.25,1.5307615620000001,4.838101867979261,0.0,0.5400000214576721,0.4300000071525574,173.4199981689453,0.0819091796875,0.00457763671875,0.8226318359375,37.189998626708984,0.0,-75.0,1.3021087646484375,2.27545166015625,Waiting,0.0,0.0,0.0,0.0,0.0,0.0,0.0,0.0,
4.861876,0.0,0.0,-16365.0,2.0,262.5,424.8953961344487,0.0,0.25,0.74462883,4.812975549907741,0.0,16289.0,2.625,-270.0,-424.8953961344487,0.0,0.25,0.411376911,4.84373233344482,0.0,-917.0,2.375,255.0,424.8953961344487,0.0,0.0,3.232421544,4.82092748458345,0.0,6124.0,2.375,-262.5,-424.8953961344487,0.0,0.25,1.516113126,4.838101867979261,-0.004882811999999959,0.5400000214576721,0.5400000214576721,173.3699951171875,0.072265625,-0.03515625,0.8724365234375,37.189998626708984,0.0,-68.0,1.294677734375,2.27581787109375,Waiting,0.0,0.0,0.0,0.0,0.0,0.0,0.0,0.0,
4.881080000000001,0.0,0.0,-16317.0,2.0,285.0,424.8953961344487,0.0,0.25,0.721435473,4.812975549907741,0.0,16289.0,2.625,-277.5,-424.8953961344487,0.0,0.25,0.411376911,4.84373233344482,0.0,-917.0,2.375,277.5,424.8953961344487,0.0,0.0,3.231200841,4.82092748458345,0.0,6124.0,2.375,-270.0,-424.8953961344487,0.0,0.25,1.523437344,4.838101867979261,-0.004882811999999959,0.5400000214576721,0.5400000214576721,173.33999633789062,0.08612060546875,0.0302734375,1.015380859375,37.189998626708984,0.0,-73.0,1.2925567626953125,2.27581787109375,Waiting,0.0,0.0,0.0,0.0,0.0,0.0,0.0,0.125,
4.9038390000000005,0.0,0.0,-16317.0,2.0,307.5,NaN,0.0,0.25,0.721435473,NaN,-0.009765623999999917,16289.0,2.625,-292.5,NaN,0.0,0.25,0.412597614,NaN,-0.004882811999999959,-917.0,2.5,292.5,NaN,0.0,0.0,3.232421544,NaN,0.0,6124.0,1.875,-292.5,NaN,0.0,0.25,1.5258787500000002,NaN,-0.009765623999999917,0.5,0.5600000023841858,173.3000030517578,0.02740478515625,-0.00274658203125,0.96551513671875,37.189998626708984,0.0,-18.0,1.285675048828125,2.2757110595703125,Waiting,0.0,0.0,0.0,0.0,0.0,0.0,0.0,0.0,
4.944493,0.0,0.0,-16317.0,1.125,330.0,NaN,0.0,0.25,0.718994067,NaN,-0.009765623999999917,16289.0,1.75,-307.5,NaN,0.0,0.125,0.410156208,NaN,-0.004882811999999959,-917.0,1.375,322.5,NaN,0.0,0.0,3.231200841,NaN,0.0,6124.0,1.625,-300.0,NaN,0.0,0.25,1.522216641,NaN,0.0,0.5099999904632568,0.5799999833106995,173.25999450683594,-0.05511474609375,-0.06756591796875,0.9097900390625,37.189998626708984,0.0,55.0,1.2833099365234375,2.2757415771484375,Waiting,0.0,0.0,0.0,0.0,0.0,0.0,0.0,0.0,
4.965241999999999,0.0,0.0,-16317.0,0.75,330.0,NaN,0.0,0.125,0.7238768790000001,NaN,-0.003662109000000413,16289.0,1.0,-307.5,NaN,0.0,0.0,0.412597614,NaN,0.0012207029999995456,-865.0,0.875,330.0,NaN,0.0,0.0,3.237304356,NaN,0.0,6075.0,0.375,-315.0,NaN,0.0,0.125,1.520995938,NaN,0.0,0.49000000953674316,0.49000000953674316,173.24000549316406,-0.0452880859375,0.038330078125,1.0386962890625,37.189998626708984,0.0,57.0,1.278778076171875,2.27581787109375,Waiting,0.0,0.0,0.0,0.0,0.0,0.0,0.0,0.125,
5.070849999999999,0.0,0.0,-16268.0,0.125,270.0,NaN,0.0,0.125,0.717773364,NaN,0.0,16240.0,0.125,-285.0,NaN,0.0,0.0,0.406494099,NaN,0.0,-865.0,0.375,277.5,NaN,0.0,0.0,3.24706998,NaN,0.0,6075.0,0.375,-292.5,NaN,0.0,0.125,1.520995938,NaN,0.0,0.550000011920929,0.28999999165534973,173.11000061035156,-0.09320068359375,0.009521484375,0.9722900390625,37.16999816894531,0.0,97.0,1.267822265625,2.27606201171875,Waiting,0.0,0.0,0.0,0.0,0.0,0.0,0.0,0.125,
5.134622,0.0,0.0,-16228.0,0.125,247.5,NaN,0.0,0.125,0.717773364,NaN,-0.0012207029999995456,16196.0,0.125,-247.5,NaN,0.0,0.0,0.406494099,NaN,-0.003662109000000413,-825.0,0.375,225.0,NaN,0.0,0.0,3.251952792,NaN,0.004882811999999959,6030.0,0.375,-262.5,NaN,0.0,0.125,1.520995938,NaN,0.0,0.5899999737739563,0.12999999523162842,173.08999633789062,0.00994873046875,0.03570556640625,1.03118896484375,37.16999816894531,0.0,-4.0,1.2626800537109375,2.2764739990234375,Waiting,0.0,0.0,0.0,0.0,0.0,0.0,0.0,0.125,
5.158309,0.0,0.0,-16228.0,0.125,232.5,425.9162806985224,0.0,0.125,0.716552661,4.801258457807891,0.0,16196.0,0.125,-225.0,-425.9162806985224,0.0,0.0,0.406494099,4.831940364574527,-0.0012207029999995456,-825.0,0.375,202.5,425.9162806985224,0.0,0.0,3.250732089,4.809191033658689,0.004882811999999959,6030.0,0.375,-240.0,-425.9162806985224,0.0,0.125,1.5258787500000002,4.826323606363813,0.0,0.5899999737739563,0.05000000074505806,173.11000061035156,-0.03741455078125,0.0489501953125,1.02215576171875,37.16999816894531,0.0,42.0,1.2603912353515625,2.2765960693359375,Waiting,0.0,0.0,0.0,0.0,0.0,0.0,0.0,0.125,
5.189310000000001,0.0,0.0,-16228.0,0.375,210.0,425.9162806985224,0.0,0.125,0.717773364,4.801258457807891,0.0,16196.0,0.625,-180.0,-425.9162806985224,0.0,0.0,0.405273396,4.831940364574527,0.0012207029999995456,-795.0,0.75,165.0,425.9162806985224,0.0,0.0,3.250732089,4.809191033658689,0.004882811999999959,5993.0,0.75,-202.5,-425.9162806985224,0.0,0.125,1.5270994530000002,4.826323606363813,-0.0012207030000004337,0.5899999737739563,-0.029999999329447746,173.1199951171875,-0.0299072265625,0.05316162109375,1.03460693359375,37.16999816894531,0.0,34.0,1.2574462890625,2.2763824462890625,Waiting,0.0,0.0,0.0,0.0,0.0,0.0,0.0,0.125,
5.273567,0.0,0.0,-16184.0,0.5,330.0,NaN,0.0,0.125,0.717773364,NaN,0.0,16157.0,1.125,-307.5,NaN,0.0,0.0,0.410156208,NaN,0.0,-795.0,1.75,225.0,NaN,0.0,0.125,3.236083653,NaN,0.0,5993.0,0.875,-307.5,NaN,0.0,0.25,1.5258787500000002,NaN,0.0,0.6700000166893005,0.10000000149011612,173.08999633789062,0.01983642578125,0.06903076171875,0.94366455078125,37.16999816894531,0.0,-10.0,1.253326416015625,2.275054931640625,Waiting,0.0,0.0,0.0,0.0,0.0,0.0,0.0,0.0,
5.336277999999999,0.0,0.0,-16184.0,0.125,322.5,NaN,0.0,0.125,0.717773364,NaN,0.0024414059999999793,16122.0,0.0,-240.0,NaN,0.0,0.0,0.406494099,NaN,0.004882811999999959,-766.0,0.5,195.0,NaN,0.0,0.0,3.245849277,NaN,-0.014648435999999876,5955.0,0.375,-247.5,NaN,0.0,0.125,1.5258787500000002,NaN,0.0012207030000004337,0.6700000166893005,0.0,173.0,-0.096435546875,-0.006591796875,0.8829345703125,37.16999816894531,0.0,93.0,1.246917724609375,2.27191162109375,Waiting,0.0,0.0,0.0,0.0,0.0,0.0,0.0,0.0,
5.405272,0.0,0.0,-16150.0,0.125,82.5,424.8953961344487,0.0,0.125,0.717773364,4.812975549907741,0.0,16122.0,0.125,-67.5,-424.8953961344487,0.0,0.0,0.406494099,4.84373233344482,0.0,-766.0,0.5,112.5,424.8953961344487,0.0,0.0,3.250732089,4.82092748458345,0.004882811999999959,5955.0,0.375,-127.5,-424.8953961344487,0.0,0.125,1.5246580470000002,4.838101867979261,-0.0012207030000004337,0.699999988079071,-0.15000000596046448,172.97999572753906,-0.0948486328125,-0.001953125,1.014404296875,37.16999816894531,0.0,89.0,1.2435302734375,2.270233154296875,Waiting,0.0,0.0,0.0,0.0,0.0,0.0,0.0,0.0,
5.4722,0.0,0.0,-16109.0,0.875,135.0,424.8953961344487,0.0,0.25,0.717773364,4.812975549907741,0.0,16084.0,1.125,-202.5,-424.8953961344487,0.0,0.125,0.411376911,4.84373233344482,0.0,-738.0,2.0,157.5,424.8953961344487,0.0,0.0,3.236083653,4.82092748458345,0.0,5923.0,1.0,-180.0,-424.8953961344487,0.0,0.125,1.5258787500000002,4.838101867979261,0.0,0.7300000190734863,-0.2199999988079071,172.99000549316406,0.0120849609375,0.06329345703125,1.04486083984375,37.16999816894531,0.0,-10.0,1.2415924072265625,2.26898193359375,Waiting,0.0,0.0,0.0,0.0,0.0,0.0,0.0,0.0,
5.533353,0.0,0.0,-16109.0,0.875,360.0,425.9162806985224,0.0,0.25,0.716552661,4.801258457807891,-0.0024414059999999793,16084.0,1.25,-367.5,-425.9162806985224,0.0,0.125,0.411376911,4.831940364574527,0.0,-738.0,2.125,225.0,425.9162806985224,0.0,0.0,3.232421544,4.809191033658689,-0.01586913900000031,5923.0,1.375,-300.0,-425.9162806985224,0.0,0.25,1.5246580470000002,4.826323606363813,0.0012207030000004337,0.75,-0.10999999940395355,172.97000122070312,0.0181884765625,-0.02825927734375,1.1378173828125,37.16999816894531,0.0,-25.0,1.2385711669921875,2.26690673828125,Waiting,0.0,0.0,0.0,0.0,0.0,0.0,0.0,0.0,
5.561022,0.0,0.0,-16109.0,0.875,315.0,424.8953961344487,0.0,0.25,0.717773364,4.812975549907741,0.003662109000000413,16084.0,1.125,-337.5,-424.8953961344487,0.0,0.125,0.411376911,4.84373233344482,0.004882811999999959,-738.0,2.25,225.0,424.8953961344487,0.0,0.0,3.231200841,4.82092748458345,0.006103515000000392,5923.0,1.375,-292.5,-424.8953961344487,0.0,0.25,1.5246580470000002,4.838101867979261,0.0012207030000004337,0.7200000286102295,-0.07999999821186066,172.9499969482422,0.0162353515625,-0.00665283203125,1.032958984375,37.16999816894531,0.0,-20.0,1.2378997802734375,2.26654052734375,Waiting,0.0,0.0,0.0,0.0,0.0,0.0,0.0,0.0,
5.587268999999999,0.0,0.0,-16068.0,0.75,270.0,424.8953961344487,0.0,0.25,0.709228443,4.812975549907741,0.003662109000000413,16044.0,1.125,-240.0,-424.8953961344487,0.0,0.25,0.411376911,4.84373233344482,0.0012207029999995456,-701.0,2.375,225.0,424.8953961344487,0.0,0.125,3.232421544,4.82092748458345,-0.009765623999999917,5883.0,1.375,-232.5,-424.8953961344487,0.0,0.25,1.5246580470000002,4.838101867979261,-0.0012207030000004337,0.7300000190734863,-0.019999999552965164,172.89999389648438,0.0428466796875,0.01837158203125,1.1182861328125,37.15999984741211,0.0,-42.0,1.2357177734375,2.2661895751953125,Waiting,0.0,0.0,0.0,0.0,0.0,0.0,0.0,0.0,
5.671606000000001,0.0,0.0,-16068.0,1.5,277.5,NaN,0.0,0.25,0.717773364,NaN,0.0,16044.0,1.875,-255.0,NaN,0.0,0.125,0.411376911,NaN,0.0,-701.0,2.5,255.0,NaN,0.0,0.0,3.232421544,NaN,0.0,5883.0,2.125,-247.5,NaN,0.0,0.25,1.5258787500000002,NaN,0.0,0.7400000095367432,0.07999999821186066,172.8800048828125,0.0,-0.05255126953125,1.02984619140625,37.15999984741211,0.0,-6.0,1.23114013671875,2.2659912109375,Waiting,0.0,0.0,0.0,0.0,0.0,0.0,0.0,0.0,
5.689260999999999,0.0,0.0,-16068.0,0.75,277.5,NaN,0.0,0.25,0.717773364,NaN,0.0,16001.0,1.875,-255.0,NaN,0.0,0.125,0.410156208,NaN,0.0,-659.0,1.75,262.5,NaN,0.0,0.0,3.232421544,NaN,0.0,5841.0,1.25,-255.0,NaN,0.0,0.25,1.5319822650000001,NaN,0.0,0.7200000286102295,0.12999999523162842,172.89999389648438,-0.0230712890625,-0.029296875,0.96807861328125,37.15999984741211,0.0,20.0,1.230194091796875,2.266082763671875,Waiting,0.0,0.0,0.0,0.0,0.0,0.0,0.0,0.0,
5.8011539999999995,0.0,0.0,-16025.0,0.125,195.0,NaN,0.0,0.125,0.7226561760000001,NaN,0.0,16001.0,0.125,-202.5,NaN,0.0,0.0,0.411376911,NaN,-0.0012207029999995456,-659.0,0.375,255.0,NaN,0.0,0.0,3.232421544,NaN,0.0,5803.0,0.375,-240.0,NaN,0.0,0.125,1.5258787500000002,NaN,0.0,0.7300000190734863,-0.09000000357627869,172.77000427246094,-0.03997802734375,0.06976318359375,0.99114990234375,37.15999984741211,0.0,45.0,1.22430419921875,2.2671356201171875,Waiting,0.0,0.0,0.0,0.0,0.0,0.0,0.0,0.0,
5.87003,0.0,0.0,-16002.0,0.125,135.0,424.8953961344487,0.0,0.125,0.72021477,4.812975549907741,0.0,15970.0,0.125,-195.0,-424.8953961344487,0.0,0.0,0.41503902000000004,4.84373233344482,0.0,-619.0,0.375,240.0,424.8953961344487,0.0,0.0,3.242187168,4.82092748458345,0.0,5803.0,0.375,-217.5,-424.8953961344487,0.0,0.125,1.520995938,4.838101867979261,0.0,0.7699999809265137,-0.2199999988079071,172.72999572753906,-0.03228759765625,0.03143310546875,1.01666259765625,37.15999984741211,0.0,30.0,1.2224273681640625,2.266265869140625,Waiting,0.0,0.0,0.0,0.0,0.0,0.0,0.0,0.0,
5.933561000000001,0.0,0.0,-16002.0,0.75,172.5,425.9162806985224,0.0,0.125,0.716552661,4.801258457807891,-0.0012207030000004337,15927.0,0.875,-202.5,-425.9162806985224,0.0,0.0,0.410156208,4.831940364574527,0.0012207029999995456,-581.0,1.75,225.0,425.9162806985224,0.0,0.0,3.233642247,4.809191033658689,0.004882811999999959,5765.0,1.0,-217.5,-425.9162806985224,0.0,0.125,1.517333829,4.826323606363813,0.0012207029999995456,0.7900000214576721,-0.28999999165534973,172.72000122070312,0.0994873046875,-0.02337646484375,1.0457763671875,37.15999984741211,0.0,-108.0,1.2208404541015625,2.2651824951171875,Waiting,0.0,0.0,0.0,0.0,0.0,0.0,0.0,0.0,
5.9761,0.0,0.0,-15950.0,0.5,307.5,425.9162806985224,0.0,0.125,0.718994067,4.801258457807891,-0.0012207029999995456,15927.0,1.125,-277.5,-425.9162806985224,0.0,0.0,0.411376911,4.831940364574527,-0.0012207029999995456,-581.0,1.875,240.0,425.9162806985224,0.0,0.125,3.237304356,4.809191033658689,0.0,5765.0,1.375,-240.0,-425.9162806985224,0.0,0.25,1.520995938,4.826323606363813,0.0012207029999995456,0.7599999904632568,-0.1599999964237213,172.72000122070312,0.0260009765625,0.036865234375,1.09429931640625,37.15999984741211,0.0,-26.0,1.2188568115234375,2.26544189453125,Waiting,0.0,0.0,0.0,0.0,0.0,0.0,0.0,0.0,
6.019303000000001,0.0,0.0,-15950.0,0.75,375.0,425.9162806985224,0.0,0.25,0.7250975820000001,4.801258457807891,0.0012207029999995456,15927.0,1.25,-292.5,-425.9162806985224,0.0,0.25,0.412597614,4.831940364574527,0.0,-581.0,2.125,247.5,425.9162806985224,0.0,0.125,3.232421544,4.809191033658689,0.0,5765.0,1.375,-262.5,-425.9162806985224,0.0,0.25,1.5295408590000001,4.826323606363813,-0.004882811999999959,0.7599999904632568,-0.14000000059604645,172.6999969482422,0.0098876953125,-0.028564453125,0.9818115234375,37.15999984741211,0.0,-17.0,1.2171630859375,2.265716552734375,Waiting,0.0,0.0,0.0,0.0,0.0,0.0,0.0,0.0,
6.075087000000001,0.0,0.0,-15912.0,0.875,247.5,NaN,0.0,0.25,0.716552661,NaN,0.0,15889.0,1.375,-240.0,NaN,0.0,0.25,0.40771480200000004,NaN,0.0012207029999995456,-542.0,2.5,240.0,NaN,0.0,0.0,3.233642247,NaN,-0.004882811999999959,5728.0,1.625,-232.5,NaN,0.0,0.25,1.5295408590000001,NaN,0.01342773300000033,0.75,-0.05000000074505806,172.6999969482422,0.01446533203125,-1.8310546875E-4,0.98101806640625,37.13999938964844,0.0,-17.0,1.2170867919921875,2.2666168212890625,Waiting,0.0,0.0,0.0,0.0,0.0,0.0,0.0,0.125,
6.138408,0.0,0.0,-15912.0,0.375,247.5,NaN,0.0,0.125,0.718994067,NaN,0.0,15889.0,0.125,-225.0,NaN,0.0,0.0,0.412597614,NaN,-0.0012207029999995456,-542.0,0.875,255.0,NaN,0.0,0.0,3.237304356,NaN,0.0,5728.0,0.375,-240.0,NaN,0.0,0.125,1.5258787500000002,NaN,-0.006103515000000392,0.7200000286102295,-0.09000000357627869,172.61000061035156,-0.0634765625,0.06011962890625,1.03863525390625,37.13999938964844,0.0,67.0,1.216888427734375,2.2667083740234375,Waiting,0.0,0.0,0.0,0.0,0.0,0.0,0.0,0.0,
6.207192,0.0,0.0,-15881.0,0.375,172.5,428.24059247000696,0.0,0.125,0.717773364,4.778004792092225,0.0012207029999995456,15859.0,0.125,-172.5,-428.24059247000696,0.0,0.0,0.411376911,4.808538098901216,-0.0012207029999995456,-502.0,0.375,240.0,428.24059247000696,0.0,0.0,3.236083653,4.785898948543459,0.004882811999999959,5694.0,0.375,-210.0,-428.24059247000696,0.0,0.125,1.5270994530000002,4.802948544020418,0.0,0.7699999809265137,-0.23000000417232513,172.5500030517578,-0.06292724609375,0.0079345703125,0.980712890625,37.13999938964844,0.0,57.0,1.21807861328125,2.2667236328125,Waiting,0.0,0.0,0.0,0.0,0.0,0.0,0.0,0.0,
6.276375999999999,0.0,0.0,-15881.0,0.875,195.0,427.0315920690178,0.0,0.25,0.716552661,4.789599983969735,0.0,15859.0,1.125,-240.0,-427.0315920690178,0.0,0.25,0.411376911,4.820207388559393,0.0,-502.0,1.875,232.5,427.0315920690178,0.0,0.125,3.232421544,4.797513297843942,0.0,5694.0,1.375,-247.5,-427.0315920690178,0.0,0.125,1.5246580470000002,4.814604269028877,0.0,0.7699999809265137,-0.15000000596046448,172.58999633789062,0.030029296875,0.022705078125,0.9285888671875,37.13999938964844,0.0,-30.0,1.2197113037109375,2.2666015625,Waiting,0.0,0.0,0.0,0.0,0.0,0.0,0.0,0.125,
6.338112,0.0,0.0,-15830.0,1.125,352.5,427.0315920690178,0.0,0.25,0.703124928,4.789599983969735,0.0,15813.0,1.5,-300.0,-427.0315920690178,0.0,0.25,0.397949178,4.820207388559393,0.0,-463.0,2.25,247.5,427.0315920690178,0.0,0.125,3.237304356,4.797513297843942,-0.004882811999999959,5653.0,1.625,-270.0,-427.0315920690178,0.0,0.25,1.520995938,4.814604269028877,-0.004882811999999959,0.7200000286102295,-0.05000000074505806,172.5399932861328,0.0655517578125,-0.01763916015625,0.96942138671875,37.13999938964844,0.0,-69.0,1.2195587158203125,2.26654052734375,Waiting,0.0,0.0,0.0,0.0,0.0,0.0,0.0,0.0,
6.406254,0.0,0.0,-15830.0,0.875,292.5,427.0315920690178,0.0,0.25,0.7141112550000001,4.789599983969735,0.0,15769.0,1.75,-255.0,-427.0315920690178,0.0,0.25,0.391845663,4.820207388559393,-0.009765623999999917,-418.0,2.25,270.0,427.0315920690178,0.0,0.125,3.227538732,4.797513297843942,0.0,5609.0,2.0,-255.0,-427.0315920690178,0.0,0.25,1.5063475020000001,4.814604269028877,-0.014648435999999876,0.7200000286102295,0.009999999776482582,172.4600067138672,0.03179931640625,-0.00537109375,0.98870849609375,37.13999938964844,0.0,-33.0,1.219024658203125,2.2665863037109375,Waiting,0.0,0.0,0.0,0.0,0.0,0.0,0.0,0.0,
