Time,ClimberA1,ClimberA2,FRpos,FRCurrent,FRspeed,FRsetpoint,FRApos,FRACurrent,FREncpos,FREncSetpoint,FREncSpeed,FLpos,FLCurrent,FLspeed,FLsetpoint,FLApos,FLACurrent,FLEncpos,FLEncSetpoint,FLEncSpeed,BRpos,BRCurrent,BRspeed,BRsetpoint,BRApos,BRACurrent,BREncpos,BREncSetpoint,BREncSpeed,BLpos,BLCurrent,BLspeed,BLsetpoint,BLApos,BLACurrent,BLEncpos,BLEncSetpoint,BLEncSpeed,navx_Pitch,navx_Roll,navx_Yaw,navx_XAcc,navx_YAcc,navx_ZAcc,navx_Temp,navx_Bar,navx_Alt,navx_XDis,navx_YDis,GearPlacerState,ShootOutputV,ShootOutputCurrent,ShootEncPos,ShootEncVelocity,ShootSpeed,ShootSetpoint,CarouselSetpoint,CarouselCurrent,
0.17996700000000418,0.0,0.0,3815.0,0.0,0.0,0.0,0.0,0.125,0.8178710100000001,0.01,0.0,-8062.0,0.0,0.0,0.0,0.0,0.25,0.47851557600000005,0.01,0.0,29405.0,0.0,0.0,0.0,0.0,0.0,3.348388329,0.01,0.0,-22569.0,0.125,0.0,0.0,0.0,0.25,1.6894529520000001,0.01,0.0,0.33000001311302185,-0.699999988079071,162.4499969482422,-0.0135498046875,0.00421142578125,1.013427734375,36.65999984741211,0.0,0.0,2.8222503662109375,2.4260406494140625,Closing,0.0,0.0,0.0,0.0,0.0,0.0,0.0,0.0,
0.23405400000000373,0.0,0.0,3815.0,3.875,37.5,1470.0,0.0,0.125,0.819091713,0.01,0.0012207029999995456,-8062.0,2.5,0.0,-1470.0,0.0,0.25,0.484619091,0.01,0.019531248000000723,29405.0,3.25,0.0,1470.0,0.0,0.0,3.34472622,0.01,0.0,-22569.0,4.125,-22.5,-1470.0,0.0,0.5,1.665038892,0.01,-0.04394530800000007,0.3199999928474426,-0.699999988079071,162.4499969482422,-0.053955078125,0.01513671875,1.00494384765625,36.65999984741211,0.0,42.0,2.8222808837890625,2.4260406494140625,Closing,0.0,0.0,0.0,0.0,0.0,0.0,0.0,0.0,
0.28833000000000175,0.0,0.0,3854.0,7.75,187.5,1470.0,0.0,0.125,0.8178710100000001,0.01,0.0,-8094.0,11.25,-187.5,-1470.0,0.0,0.25,0.483398388,0.01,0.004882811999999959,29411.0,10.5,30.0,1470.0,0.0,0.0,3.3154293480000003,0.01,-0.030517575000000186,-22591.0,9.125,-127.5,-1470.0,0.0,0.25,1.666259595,0.01,-0.024414060000000015,0.4300000071525574,0.1599999964237213,162.47000122070312,0.2657470703125,0.1822509765625,1.092041015625,36.65999984741211,0.0,-198.0,2.8190765380859375,2.4227294921875,Closing,0.0,0.0,0.0,0.0,0.0,0.0,0.0,0.0,
0.3394830000000075,0.0,0.0,3854.0,10.125,300.0,1470.0,0.0,0.125,0.8178710100000001,0.01,0.0,-8094.0,13.25,-292.5,-1470.0,0.0,0.25,0.484619091,0.01,0.0,29411.0,15.25,52.5,1470.0,0.0,0.0,3.3166500510000003,0.01,-0.0024414059999999793,-22591.0,11.875,-240.0,-1470.0,0.0,0.25,1.665038892,0.01,-0.0012207029999999897,0.4099999964237213,0.6200000047683716,162.4199981689453,0.18389892578125,-0.02960205078125,0.90460205078125,36.63999938964844,0.0,-176.0,2.8134307861328125,2.41900634765625,Closing,0.0,0.0,0.0,0.0,0.0,0.0,0.0,0.125,
0.3924950000000099,0.0,0.0,3854.0,11.375,330.0,1470.0,0.0,0.125,0.8178710100000001,4.931839995807818,0.0,-8170.0,15.25,-375.0,-1470.0,0.0,0.25,0.483398388,4.96335636933136,0.0,29430.0,19.375,75.0,1470.0,0.0,0.0,3.3129879420000004,4.939988316752116,-0.0012207029999995456,-22655.0,13.5,-315.0,-1470.0,0.0,0.25,1.677245922,4.957586850145128,0.0012207029999999897,0.4699999988079071,0.949999988079071,162.4600067138672,0.13671875,0.0413818359375,1.38690185546875,36.63999938964844,0.0,-99.0,2.8048095703125,2.414154052734375,Closing,0.0,0.0,0.0,0.0,0.0,0.0,0.0,0.125,
0.4484120000000112,0.0,0.0,3933.0,13.125,547.5,1470.0,0.0,0.125,0.8178710100000001,0.01,0.0,-8170.0,15.5,-630.0,-1470.0,0.0,0.125,0.483398388,0.01,0.0,29430.0,24.375,202.5,1470.0,0.0,0.0,3.3154293480000003,0.01,0.0,-22655.0,14.75,-525.0,-1470.0,0.0,0.25,1.665038892,0.01,0.0,0.5799999833106995,1.5700000524520874,162.4499969482422,0.0738525390625,-0.0299072265625,1.166015625,36.63999938964844,0.0,-52.0,2.7893218994140625,2.40582275390625,Closing,0.0,0.0,0.0,0.0,0.0,0.0,0.0,0.0,
0.5014890000000014,0.0,0.0,3933.0,12.25,705.0,1470.0,0.0,0.125,0.8178710100000001,0.01,-0.0012207029999995456,-8170.0,14.5,-772.5,-1470.0,0.0,0.25,0.483398388,0.01,0.0,29488.0,26.5,292.5,1470.0,0.0,0.0,3.3154293480000003,0.01,0.0012207029999995456,-22781.0,13.625,-727.5,-1470.0,0.0,0.25,1.666259595,0.01,0.0,0.6100000143051147,2.1600000858306885,162.38999938964844,0.1248779296875,-0.09417724609375,1.0364990234375,36.63999938964844,0.0,-113.0,2.769927978515625,2.3959808349609375,Closing,0.0,0.0,0.0,0.0,0.0,0.0,0.0,0.0,
0.5556010000000097,0.0,0.0,4080.0,11.125,922.5,1470.0,0.0,0.125,0.8178710100000001,4.931428991615634,0.0012207029999995456,-8312.0,13.5,-945.0,-1470.0,0.0,0.125,0.48583979400000005,4.962942738662719,0.0,29488.0,29.75,405.0,1470.0,0.0,0.0,3.3081051300000004,4.939576633504232,-0.0012207029999995456,-22781.0,12.75,-870.0,-1470.0,0.0,0.25,1.665038892,4.957173700290256,0.0,0.550000011920929,2.609999895095825,162.33999633789062,0.3450927734375,0.04736328125,0.93243408203125,36.63999938964844,0.0,-276.0,2.752960205078125,2.3879852294921875,Closing,0.0,0.0,0.0,0.0,0.0,0.0,0.0,0.125,
0.6124670000000042,0.0,0.0,4080.0,10.0,1057.5,1470.0,0.0,0.125,0.8178710100000001,4.930606983231269,0.0,-8312.0,12.25,-1057.5,-1470.0,0.0,0.125,0.5664061920000001,4.9621154773254394,0.004882811999999959,29488.0,31.625,495.0,1470.0,0.0,0.0,3.3166500510000003,4.9387532670084635,0.0,-22781.0,11.0,-1042.5,-1470.0,0.0,0.25,1.665038892,4.956347400580512,0.0,0.5799999833106995,2.9200000762939453,162.27000427246094,0.0191650390625,0.1331787109375,1.08563232421875,36.63999938964844,0.0,71.0,2.728240966796875,2.376373291015625,Closing,0.0,0.0,0.0,0.0,0.0,0.0,0.0,0.125,
0.6669000000000087,0.0,0.0,4280.0,8.75,1215.0,1470.0,0.0,0.125,0.8178710100000001,4.929784974846903,0.0,-8507.0,10.125,-1245.0,-1470.0,0.0,0.25,0.604247985,4.9612882159881595,0.10253905200000002,29587.0,33.75,622.5,1470.0,0.0,0.0,3.3166500510000003,4.937929900512695,0.0012207029999995456,-22963.0,10.125,-1147.5,-1470.0,0.0,0.25,1.668701001,4.955521100870768,0.0,0.7200000286102295,3.190000057220459,162.08999633789062,0.16339111328125,-0.08489990234375,0.88336181640625,36.63999938964844,0.0,-137.0,2.7088165283203125,2.3669891357421875,Closing,0.0,0.0,0.0,0.0,0.0,0.0,0.0,0.125,
0.7195299999999988,0.0,0.0,4280.0,6.5,1395.0,1470.0,0.0,0.25,0.819091713,4.925811655581072,0.0,-8507.0,8.375,-1372.5,-1470.0,0.0,0.25,0.5957030640000001,4.957289505668641,0.013427732999999442,29587.0,35.625,742.5,1470.0,0.0,0.0,3.3154293480000003,4.933950016581218,-0.0012207029999995456,-22963.0,8.875,-1297.5,-1470.0,0.0,0.25,1.665038892,4.951527038743761,0.0,0.8199999928474426,3.4600000381469727,161.5500030517578,-0.03131103515625,0.10711669921875,0.6630859375,36.63999938964844,0.0,98.0,2.681304931640625,2.3531646728515625,Closing,0.0,0.0,0.0,0.0,0.0,0.0,0.0,0.0,
0.7751320000000124,0.0,0.0,4530.0,5.25,1507.5,1470.0,0.0,0.25,0.8178710100000001,4.917454221913275,0.0,-8736.0,7.625,-1417.5,-1470.0,0.0,0.25,0.5664061920000001,4.94887866475296,0.0,29719.0,36.25,810.0,1470.0,0.0,0.0,3.3154293480000003,4.925578774871826,0.0,-23184.0,8.25,-1372.5,-1470.0,0.0,0.25,1.665038892,4.9431259747823075,0.0,0.7699999809265137,3.559999942779541,160.7899932861328,0.20458984375,0.052734375,0.7891845703125,36.63999938964844,0.0,-132.0,2.6533050537109375,2.3394622802734375,Closing,0.0,0.0,0.0,0.0,0.0,0.0,0.0,0.0,
0.8300940000000119,0.0,0.0,4530.0,3.75,1620.0,1470.0,0.0,0.125,0.8178710100000001,4.90950779243766,-0.0012207029999995456,-8736.0,6.625,-1485.0,-1470.0,0.0,0.25,0.53710932,4.94088145450592,-0.014648435999999876,29719.0,35.125,900.0,1470.0,0.0,0.0,3.3154293480000003,4.917619216410319,0.0,-23184.0,7.125,-1447.5,-1470.0,0.0,0.25,1.666259595,4.935138060675727,-0.003662108999999969,0.8199999928474426,3.5899999141693115,159.99000549316406,-0.00738525390625,-0.01800537109375,1.27923583984375,36.540000915527344,0.0,69.0,2.6240997314453125,2.3257904052734375,Closing,0.0,0.0,0.0,0.0,0.0,0.0,0.0,0.0,
0.8867070000000095,0.0,0.0,4530.0,2.25,1695.0,1470.0,0.0,0.25,0.8166503070000001,4.898547401904721,-0.0012207029999995456,-8990.0,5.125,-1567.5,-1470.0,0.0,0.25,0.51269526,4.929851022819519,-0.026855465999999772,29879.0,34.875,990.0,1470.0,0.0,0.0,3.3154293480000003,4.906640717264811,-0.0012207029999995456,-23429.0,6.25,-1530.0,-1470.0,0.0,0.25,1.651611159,4.924120451015896,0.003662108999999969,0.7099999785423279,3.9100000858306885,159.32000732421875,0.11773681640625,0.1572265625,1.17022705078125,36.540000915527344,0.0,15.0,2.59381103515625,2.312530517578125,Closing,0.0,0.0,0.0,0.0,0.0,0.0,0.0,0.0,
0.939747000000003,0.0,0.0,4803.0,1.5,1717.5,1470.0,0.0,0.25,0.8166503070000001,4.889367959852558,0.0012207029999995456,-8990.0,4.25,-1612.5,-1470.0,0.0,0.25,0.498046824,4.920612920566559,-0.021972653999999814,29879.0,34.375,1057.5,1470.0,0.0,0.0,3.3166500510000003,4.8974461090596515,0.0012207029999995456,-23429.0,5.0,-1597.5,-1470.0,0.0,0.25,1.6308592080000002,4.9148930873447,-0.014648436000000098,0.9399999976158142,4.079999923706055,158.92999267578125,0.26324462890625,0.3857421875,0.964111328125,36.540000915527344,0.0,-48.0,2.5701751708984375,2.3002471923828125,Closing,0.0,0.0,0.0,0.0,0.0,0.0,0.0,0.0,
0.9935970000000088,0.0,0.0,4803.0,0.875,1747.5,1470.0,0.0,0.25,0.8166503070000001,4.884024487242084,-0.0012207029999995456,-9255.0,2.875,-1665.0,-1470.0,0.0,0.25,0.4882812,4.915235301090241,-0.014648435999999876,30065.0,33.875,1140.0,1470.0,0.0,0.0,3.3166500510000003,4.892093808034261,0.0,-23698.0,4.5,-1657.5,-1470.0,0.0,0.25,1.612548663,4.909521718936496,-0.019531247999999835,1.159999966621399,4.349999904632568,158.47000122070312,-0.25701904296875,-0.01116943359375,1.4498291015625,36.540000915527344,0.0,326.0,2.5382232666015625,2.2806396484375,Closing,0.0,0.0,0.0,0.0,0.0,0.0,0.0,0.125,
1.0491540000000095,0.0,0.0,5087.0,0.5,1777.5,1470.0000000000002,0.0,0.25,0.8166503070000001,4.8777222835912495,0.0024414059999999793,-9255.0,2.125,-1695.0,-1470.0000000000002,0.0,0.25,0.47973627900000004,4.90889282390976,-0.010986327000000351,30065.0,33.625,1207.5,1470.0000000000002,0.0,0.125,3.3142086450000003,4.885781191965739,0.0,-23698.0,2.625,-1732.5,-1470.0000000000002,0.0,0.25,1.597900227,4.903186614396837,4.937248049,1.0499999523162842,4.360000133514404,158.1199951171875,0.21697998046875,0.1739501953125,1.2484130859375,36.540000915527344,0.0,-56.0,2.5150146484375,2.2659912109375,Closing,0.0,0.0,0.0,0.0,0.0,0.0,0.0,0.0,
1.1039260000000068,0.0,0.0,5087.0,0.375,1785.0,1470.0,0.0,0.25,0.8288573370000001,4.870871934980138,-4.928588891,-9533.0,1.25,-1732.5,-1470.0,0.0,0.25,0.47973627900000004,4.901998698909759,-0.008544920999999484,30280.0,33.625,1297.5,1470.0,0.0,0.125,3.3154293480000003,4.8789195252990725,0.0,-23980.0,2.0,-1755.0,-1470.0,0.0,0.25,1.588134603,4.896300503285726,-0.01342773300000033,1.1100000143051147,4.340000152587891,157.55999755859375,0.27447509765625,0.10296630859375,0.77886962890625,36.540000915527344,0.0,-165.0,2.4844512939453125,2.245269775390625,Closing,0.0,0.0,0.0,0.0,0.0,0.0,0.0,0.125,
1.1552430000000022,0.0,0.0,5389.0,0.125,1860.0,1470.0,0.0,0.25,0.8154296040000001,4.865254598945575,0.003662108999999969,-9533.0,1.125,-1710.0,-1470.0,0.0,0.25,0.47973627900000004,4.89634546591568,0.0,30280.0,33.875,1372.5,1470.0,0.0,0.125,3.3166500510000003,4.873292908376058,0.0,-23980.0,1.375,-1747.5,-1470.0,0.0,0.25,1.589355306,4.890653841739231,-0.008544920999999484,0.9399999976158142,4.099999904632568,156.85000610351562,0.1207275390625,0.15234375,1.097412109375,36.540000915527344,0.0,14.0,2.4550933837890625,2.2260894775390625,Closing,0.0,0.0,0.0,0.0,0.0,0.0,0.0,0.0,
1.2119040000000096,0.0,0.0,5389.0,0.0,1972.5,1470.0,0.0,0.375,0.8032225740000001,4.8555272209891855,4.917602564,-9533.0,0.5,-1725.0,-1470.0,0.0,0.25,0.47973627900000004,4.886555926235199,0.0,30280.0,32.75,1425.0,1470.0,0.0,0.125,3.304443021,4.8635494589742025,-0.0012207029999995456,-23980.0,1.25,-1725.0,-1470.0,0.0,0.25,1.5832517910000001,4.8808756816440155,0.0,0.8799999952316284,3.990000009536743,156.22000122070312,0.1749267578125,-0.0428466796875,0.78814697265625,36.540000915527344,0.0,-131.0,2.4341278076171875,2.2119598388671875,Closing,0.0,0.0,0.0,0.0,0.0,0.0,0.0,0.0,
1.267720000000001,0.0,0.0,5703.0,0.0,1957.5,1470.0,0.0,0.25,0.798339762,4.843881544727877,-0.012207030000000785,-9816.0,0.25,-1785.0,-1470.0,0.0,0.25,0.47363276400000004,4.8748358295784,0.0,30518.0,33.5,1515.0,1470.0,0.0,0.125,3.292235991,4.85188454188029,-0.003662109000000413,-24256.0,0.75,-1725.0,-1470.0,0.0,0.25,1.57470687,4.869169208696153,-0.004882811999999959,0.8399999737739563,3.819999933242798,155.38999938964844,-0.093017578125,-0.115234375,0.5045166015625,36.540000915527344,0.0,64.0,2.40704345703125,2.1937255859375,Closing,0.0,0.0,0.0,0.0,0.0,0.0,0.0,0.125,
1.3178709999999991,0.0,0.0,5703.0,0.0,1957.5,1470.0,0.0,0.375,0.7751464050000001,4.835524111060079,-0.006103514999999504,-9816.0,0.0,-1785.0,-1470.0,0.0,0.25,0.45532221900000003,4.86642498866272,-0.004882811999999959,30518.0,33.5,1575.0,1470.0,0.0,0.125,3.276366852,4.8435133001708985,-0.019531247999999835,-24256.0,0.625,-1762.5,-1470.0,0.0,0.25,1.560058434,4.860768144734701,-0.009765624000000805,0.7599999904632568,3.640000104904175,154.75,0.01788330078125,-0.10687255859375,1.45367431640625,36.540000915527344,0.0,13.0,2.3879852294921875,2.180938720703125,Closing,0.0,0.0,0.0,0.0,0.0,0.0,0.0,0.125,
1.3749199999999981,0.0,0.0,6016.0,0.0,1965.0,1470.0,0.0,0.25,0.767822187,4.826755673200099,-0.01586913900000031,-10102.0,0.0,-1777.5,-1470.0,0.0,0.25,0.445556595,4.857600517078399,0.0,30786.0,31.875,1657.5,1470.0,0.0,0.125,3.276366852,4.834730375213623,0.0,-24538.0,0.375,-1755.0,-1470.0,0.0,0.25,1.546630701,4.851953930918375,0.0,0.6499999761581421,3.5,153.5800018310547,0.06439208984375,0.01806640625,0.72613525390625,36.38999938964844,0.0,-13.0,2.3597412109375,2.16070556640625,Closing,0.0,0.0,0.0,0.0,0.0,0.0,0.0,0.125,
1.4354460000000109,0.0,0.0,6016.0,0.0,1950.0,1470.0,0.0,0.25,0.761718672,4.810725882536825,-0.008544920999999484,-10102.0,0.0,-1770.0,-1470.0,0.0,0.25,0.432128862,4.841468289825439,-0.014648435999999876,30786.0,29.125,1740.0,1470.0,0.0,0.125,3.2666012280000003,4.818674100341797,-0.009765623999999917,-24538.0,0.375,-1747.5,-1470.0,0.0,0.25,1.53808578,4.835840456136068,-0.008544921000000372,0.5400000214576721,2.9100000858306885,152.6300048828125,0.09588623046875,0.08935546875,0.767822265625,36.38999938964844,0.0,-12.0,2.3402252197265625,2.1457366943359375,Closing,0.0,0.0,0.0,0.0,0.0,0.0,0.0,0.0,
1.4909940000000061,0.0,0.0,6322.0,0.0,1935.0,1470.0,0.0,0.25,0.7507323450000001,4.797710261986923,-0.008544921000000372,-10382.0,0.0,-1755.0,-1470.0,0.0,0.25,0.416259723,4.828369494403839,-0.019531247999999835,31074.0,27.25,1792.5,1470.0,0.0,0.125,3.2568356040000004,4.80563697555542,0.0,-24819.0,0.125,-1755.0,-1470.0,0.0,0.25,1.5246580470000002,4.822756887054443,-0.013427732999999442,0.6200000047683716,2.700000047683716,151.97000122070312,-0.114990234375,0.05194091796875,1.61737060546875,36.38999938964844,0.0,184.0,2.326385498046875,2.1353759765625,Closing,0.0,0.0,0.0,0.0,0.0,0.0,0.0,0.0,
1.5442459999999991,0.0,0.0,6322.0,0.0,1875.0,1470.0,0.0,0.375,0.7373046120000001,4.788667751646805,-0.010986326999999463,-10382.0,0.0,-1725.0,-1470.0,0.0,0.25,0.393066366,4.819269198909759,-0.009765623999999917,31074.0,24.375,1867.5,1470.0,0.0,0.125,3.237304356,4.796579525299072,-0.008544920999999484,-24819.0,0.125,-1747.5,-1470.0,0.0,0.25,1.511230314,4.813667169952392,-0.010986327000000351,0.49000000953674316,2.5299999713897705,151.24000549316406,-0.01947021484375,-0.0931396484375,1.09759521484375,36.38999938964844,0.0,10.0,2.310150146484375,2.122650146484375,Closing,0.0,0.0,0.0,0.0,0.0,0.0,0.0,0.0,
1.5963369999999995,0.0,0.0,6322.0,0.125,1830.0,1470.0,0.0,0.375,0.7263182850000001,4.778666301210277,-0.01586913900000031,-10653.0,0.0,-1702.5,-1470.0,0.0,0.25,0.39062496,4.8092038353195194,-0.01342773300000033,31385.0,22.125,1935.0,1470.0,0.0,0.125,3.2189938110000003,4.786561550598145,-0.019531248000000723,-25094.0,0.125,-1725.0,-1470.0,0.0,0.25,1.5026853930000001,4.803613506571452,-0.01342773300000033,0.5400000214576721,2.450000047683716,150.8000030517578,-0.1112060546875,-0.1217041015625,0.9127197265625,36.38999938964844,0.0,67.0,2.299163818359375,2.1133880615234375,Closing,0.0,0.0,0.0,0.0,0.0,0.0,0.0,0.0,
1.651520000000004,0.0,0.0,6608.0,4.625,1755.0,0.0,0.0,0.375,0.717773364,0.01,-0.010986327000000351,-10653.0,1.75,-1657.5,-0.0,0.0,0.25,0.38208003900000004,0.01,-0.014648435999999876,31385.0,11.5,1965.0,0.0,0.0,0.125,3.2104488900000003,0.01,-0.019531247999999835,-25094.0,0.875,-1687.5,-0.0,0.0,0.25,1.463622897,0.01,-0.009765623999999917,0.4300000071525574,2.0999999046325684,150.38999938964844,-0.37762451171875,-0.1976318359375,0.81964111328125,36.38999938964844,0.0,253.0,2.28924560546875,2.1047210693359375,Closing,0.0,0.0,0.0,0.0,0.0,0.0,0.0,0.125,
1.708798999999999,0.0,0.0,6608.0,14.75,1515.0,0.0,0.0,0.375,0.745849533,0.01,0.0,-10870.0,7.75,-1455.0,-0.0,0.0,0.25,0.383300742,0.01,-0.006103514999999504,31693.0,0.375,1950.0,0.0,0.0,0.125,3.2666012280000003,0.01,-0.004882811999999959,-25315.0,3.625,-1485.0,-0.0,0.0,0.375,1.467285006,0.01,-0.04760741700000004,0.5799999833106995,0.7699999809265137,149.8699951171875,-0.5731201171875,-0.14752197265625,0.84503173828125,36.38999938964844,0.0,427.0,2.283172607421875,2.0988922119140625,Closing,0.0,0.0,0.0,0.0,0.0,0.0,0.0,0.0,
1.765529999999999,0.0,0.0,6816.0,16.25,1297.5,0.0,0.0,0.375,0.7897948410000001,0.01,0.032958981000000165,-10870.0,8.625,-1230.0,-0.0,0.0,0.25,0.386962851,0.01,0.006103514999999504,31693.0,0.125,1815.0,0.0,0.0,0.125,3.3203121600000003,0.01,0.052490229,-25315.0,4.25,-1132.5,-0.0,0.0,0.375,1.5307615620000001,0.01,0.01342773300000033,0.7599999904632568,-0.5799999833106995,149.3300018310547,-0.546630859375,0.2757568359375,1.05023193359375,36.38999938964844,0.0,594.0,2.286712646484375,2.0984039306640625,Closing,0.0,0.0,0.0,0.0,0.0,0.0,0.0,0.125,
1.8166470000000117,0.0,0.0,6816.0,16.125,982.5,0.0,0.0,0.25,0.8044432770000001,0.01,0.03173827799999973,-10870.0,8.125,-892.5,-0.0,0.0,0.25,0.396728475,0.01,0.0,31693.0,0.0,1665.0,0.0,0.0,0.125,3.34472622,0.01,0.05371093200000043,-25315.0,4.0,-915.0,-0.0,0.0,0.375,1.5844724940000001,0.01,0.06225585299999992,1.0299999713897705,-1.2000000476837158,149.1300048828125,-0.4293212890625,0.14569091796875,1.044677734375,36.38999938964844,0.0,414.0,2.2924652099609375,2.099578857421875,Closing,0.0,0.0,0.0,0.0,0.0,0.0,0.0,0.125,
1.8721830000000046,0.0,0.0,6922.0,14.875,750.0,0.0,0.0,0.125,0.8044432770000001,0.01,0.017089842000000743,-10984.0,7.25,-690.0,-0.0,0.0,0.25,0.418701129,0.01,0.01342773300000033,31938.0,0.125,1507.5,0.0,0.0,0.0,3.348388329,0.01,0.02563476299999934,-25434.0,3.375,-622.5,-0.0,0.0,0.25,1.6015623360000002,0.01,0.05371093200000043,1.2699999809265137,-2.440000057220459,149.0,-0.4776611328125,0.16473388671875,1.06927490234375,36.33000183105469,0.0,442.0,2.3113555908203125,2.1038055419921875,Closing,0.0,0.0,0.0,0.0,0.0,0.0,0.0,0.0,
1.929343000000008,0.0,0.0,6922.0,11.875,397.5,0.0,0.0,0.125,0.8044432770000001,0.01,-0.0012207030000004337,-10984.0,5.375,-405.0,-0.0,0.0,0.25,0.44067378300000004,0.01,0.023193357000000248,31938.0,0.375,1252.5,0.0,0.0,0.0,3.3691402800000003,0.01,0.003662109000000413,-25434.0,2.625,-442.5,-0.0,0.0,0.25,1.6076658510000001,0.01,0.019531247999999835,1.350000023841858,-3.369999885559082,149.19000244140625,-0.39599609375,0.03765869140625,1.21759033203125,36.33000183105469,0.0,282.0,2.3388214111328125,2.111083984375,Closing,0.0,0.0,0.0,0.0,0.0,0.0,0.0,0.0,
1.9806190000000061,0.0,0.0,6938.0,10.125,127.5,0.0,0.0,0.125,0.8032225740000001,0.01,0.0,-11015.0,4.125,-225.0,-0.0,0.0,0.25,0.45288081300000005,0.01,0.01586913899999942,32099.0,0.375,930.0,0.0,0.0,0.0,3.339843408,0.01,0.0,-25470.0,1.5,-180.0,-0.0,0.0,0.25,1.6076658510000001,0.01,0.004882811999999959,1.2699999809265137,-3.9100000858306885,149.27999877929688,-0.117919921875,-0.013427734375,1.031005859375,36.33000183105469,0.0,22.0,2.37139892578125,2.12176513671875,Closing,0.0,0.0,0.0,0.0,0.0,0.0,0.0,0.0,
2.0369140000000043,0.0,0.0,6938.0,6.375,-22.5,0.0,0.0,0.25,0.772704999,0.01,0.0,-11015.0,2.125,-15.0,-0.0,0.0,0.25,0.47851557600000005,0.01,0.024414059999999793,32099.0,0.375,577.5,0.0,0.0,0.0,3.349609032,0.01,4.922089455,-25470.0,0.75,15.0,-0.0,0.0,0.25,1.6052244450000002,0.01,-0.0012207030000004337,1.2699999809265137,-3.890000104904175,149.2100067138672,-0.07086181640625,0.0374755859375,0.8736572265625,36.33000183105469,0.0,18.0,2.404998779296875,2.1246490478515625,Closing,0.0,0.0,0.0,0.0,0.0,0.0,0.0,0.0,
2.0935620000000053,0.0,0.0,6920.0,4.75,-82.5,0.0,0.0,0.25,0.8032225740000001,0.01,0.0012207030000004337,-10999.0,1.0,97.5,-0.0,0.0,0.25,0.48583979400000005,0.01,0.019531248000000723,32156.0,0.125,367.5,0.0,0.0,0.0,3.348388329,0.01,0.0,-25454.0,0.375,120.0,-0.0,0.0,0.25,1.6076658510000001,0.01,0.0,1.2100000381469727,-3.8499999046325684,149.19000244140625,-0.02252197265625,0.01708984375,0.9835205078125,36.33000183105469,0.0,-39.0,2.4046173095703125,2.1247100830078125,Closing,0.0,0.0,0.0,0.0,0.0,0.0,0.0,0.125,
2.155142000000007,0.0,0.0,6920.0,3.625,-142.5,0.0,0.0,0.125,0.8032225740000001,0.01,-0.0024414059999999793,-10999.0,0.75,127.5,-0.0,0.0,0.25,0.505371042,0.01,0.004882811999999959,32156.0,0.0,135.0,0.0,0.0,0.0,3.348388329,0.01,0.0,-25454.0,0.375,97.5,-0.0,0.0,0.25,1.6076658510000001,0.01,0.0,1.1399999856948853,-3.7300000190734863,149.32000732421875,0.0166015625,9.1552734375E-4,0.9993896484375,36.33000183105469,0.0,-79.0,2.403045654296875,2.1248016357421875,Closing,0.0,0.0,0.0,0.0,0.0,0.0,0.0,0.0,
2.2112810000000027,0.0,0.0,6897.0,1.625,-165.0,525.0,0.0,1.75,0.8422850700000001,0.5498168668524888,0.0012207029999995456,-10979.0,0.25,112.5,-525.0,0.0,3.375,0.584716737,1.9285545897722227,0.0,32159.0,1.5,7.5,525.0,0.0,1.25,3.3105465360000004,4.389674732977289,-0.0012207029999995456,-25446.0,0.375,37.5,-525.0,0.0,4.625,1.5588377310000001,3.0316872062785585,0.0,1.1399999856948853,-3.490000009536743,149.32000732421875,0.1181640625,-0.00213623046875,1.0184326171875,36.33000183105469,0.0,-166.0,2.39990234375,2.1238250732421875,Closing,0.0,0.0,0.0,0.0,0.0,0.0,0.0,0.0,
2.2687890000000044,0.0,0.0,6897.0,0.125,-120.0,525.0,0.0,2.0,1.0571287980000001,0.5498168668524888,-4.84680179,-10979.0,0.0,75.0,-525.0,0.0,6.625,0.9973143510000001,1.9285545897722227,0.15380857799999959,32159.0,2.375,-7.5,525.0,0.0,0.75,3.090819996,4.389674732977289,-0.05981444699999994,-25446.0,0.625,15.0,-525.0,0.0,4.0,1.158447147,3.0316872062785585,-0.08056639799999932,1.1100000143051147,-3.109999895095825,149.1300048828125,0.14605712890625,0.1702880859375,0.92724609375,36.33000183105469,0.0,-90.0,2.3954010009765625,2.1216583251953125,Closing,0.0,0.0,0.0,0.0,0.0,0.0,0.0,0.125,
2.3254089999999996,0.0,0.0,6893.0,0.125,-45.0,525.0,0.0,0.5,1.2158201880000001,0.5498168668524888,0.184326153,-10981.0,0.25,0.0,-525.0,0.0,1.25,1.461181491,1.9285545897722227,0.38818355400000026,32161.0,3.75,0.0,525.0,0.0,0.25,2.911376655,4.389674732977289,-0.21118161900000043,-25437.0,0.75,60.0,-525.0,0.0,2.125,0.716552661,3.0316872062785585,0.0,1.0499999523162842,-2.549999952316284,149.07000732421875,0.05474853515625,-0.025634765625,1.05145263671875,36.33000183105469,0.0,-110.0,2.38446044921875,2.1156768798828125,Closing,0.0,0.0,0.0,0.0,0.0,0.0,0.0,0.0,
2.3883050000000074,0.0,0.0,6893.0,0.0,0.0,525.0,0.0,0.625,1.329345567,0.5498168668524888,0.16601560800000015,-10981.0,0.25,-82.5,-525.0,0.0,1.5,1.934814255,1.9285545897722227,0.4968261209999998,32161.0,4.375,60.0,525.0,0.0,0.25,2.7941891670000003,4.389674732977289,-0.1794433409999998,-25437.0,1.375,30.0,-525.0,0.0,2.125,0.281982393,3.0316872062785585,-0.4638671399999996,0.9599999785423279,-2.4700000286102295,148.9600067138672,-0.03076171875,0.00927734375,0.9810791015625,36.290000915527344,0.0,-13.0,2.3734283447265625,2.1157684326171875,Closing,0.0,0.0,0.0,0.0,0.0,0.0,0.0,0.0,
2.444729000000007,0.0,0.0,6909.0,0.125,75.0,525.0,0.0,0.5,1.380615093,0.5498168668524888,0.10009764599999982,-11011.0,0.5,-180.0,-525.0,0.0,1.5,2.3718259290000003,1.9285545897722227,0.42846675300000037,32182.0,4.875,120.0,525.0,0.0,0.125,2.7465817500000003,4.389674732977289,-0.10742186399999998,-25442.0,1.875,-22.5,-525.0,0.0,2.125,4.801024899000001,3.0316872062785585,-0.40893550500000053,0.949999988079071,-2.4000000953674316,148.4199981689453,-0.02935791015625,0.019287109375,1.1263427734375,36.290000915527344,0.0,-14.0,2.3731842041015625,2.116058349609375,Closing,0.0,0.0,0.0,0.0,0.0,0.0,0.0,0.0,
2.5001910000000063,0.0,0.0,6909.0,0.125,105.0,525.0,0.0,0.125,1.3708494690000002,0.5498168668524888,0.04150390200000009,-11011.0,0.75,-142.5,-525.0,0.0,0.25,2.658691134,1.9285545897722227,0.44921870399999975,32182.0,5.125,172.5,525.0,0.0,0.0,2.707519254,4.389674732977289,-0.048828119999999586,-25442.0,2.25,-82.5,-525.0,0.0,0.625,4.537353051,3.0316872062785585,-0.4267504639999995,0.9900000095367432,-2.4200000762939453,147.64999389648438,-0.10101318359375,0.0435791015625,1.08575439453125,36.290000915527344,0.0,59.0,2.3731689453125,2.1160125732421875,Closing,0.0,0.0,0.0,0.0,0.0,0.0,0.0,0.125,
2.5567970000000058,0.0,0.0,6909.0,0.125,120.0,525.0,0.0,0.125,1.381835796,0.5498168668524888,0.0012207029999999897,-11031.0,1.125,-112.5,-525.0,0.0,0.25,2.764892295,1.9285545897722227,0.261230442,32215.0,5.75,195.0,525.0,0.0,0.0,2.729491908,4.389674732977289,-0.032958981000000165,-25465.0,2.5,-135.0,-525.0,0.0,0.375,4.5056147730000005,3.0316872062785585,-0.26367184799999954,1.1299999952316284,-2.4600000381469727,146.5500030517578,-0.0562744140625,-0.01165771484375,1.06866455078125,36.290000915527344,0.0,-9.0,2.3739776611328125,2.115570068359375,Closing,0.0,0.0,0.0,0.0,0.0,0.0,0.0,0.0,
2.6151169999999984,0.0,0.0,6932.0,0.125,157.5,525.0,0.0,0.125,1.380615093,0.5498168668524888,-0.0012207029999999897,-11031.0,1.5,-172.5,-525.0,0.0,0.5,2.7478024530000003,1.9285545897722227,0.09765624000000006,32215.0,6.5,210.0,525.0,0.0,0.125,2.7453610470000003,4.389674732977289,0.0183105449999994,-25465.0,2.625,-210.0,-525.0,0.0,0.25,4.538573754000001,3.0316872062785585,-0.0341796840000006,1.090000033378601,-2.4100000858306885,145.49000549316406,-0.0308837890625,-0.046630859375,0.988037109375,36.290000915527344,0.0,-45.0,2.374786376953125,2.1155242919921875,Closing,0.0,0.0,0.0,0.0,0.0,0.0,0.0,0.125,
2.6737050000000018,0.0,0.0,6932.0,0.125,180.0,525.0,0.0,0.125,1.376952984,0.5498168668524888,-0.0012207029999999897,-11075.0,1.625,-262.5,-525.0,0.0,0.25,2.657470431,1.9285545897722227,-0.018310544999999845,32249.0,7.875,210.0,525.0,0.0,0.0,2.756347374,4.389674732977289,0.0,-25513.0,2.75,-300.0,-525.0,0.0,0.375,4.5581050020000005,3.0316872062785585,0.0,1.0,-2.3499999046325684,143.57000732421875,-0.0281982421875,0.015380859375,0.97515869140625,36.290000915527344,0.0,-10.0,2.375244140625,2.11651611328125,Closing,0.0,0.0,0.0,0.0,0.0,0.0,0.0,0.0,
2.7374590000000025,0.0,0.0,6964.0,0.375,210.0,525.0,0.0,0.125,1.380615093,0.5498168668524888,0.0,-11075.0,1.75,-277.5,-525.0,0.0,0.5,2.5378415370000003,1.9285545897722227,-0.10986326999999996,32249.0,9.0,225.0,525.0,0.0,0.0,2.756347374,4.389674732977289,0.009765623999999917,-25513.0,2.5,-337.5,-525.0,0.0,0.25,4.606933122,3.0316872062785585,0.02075195099999938,1.1100000143051147,-2.2100000381469727,142.36000061035156,0.01483154296875,0.08538818359375,1.07440185546875,36.290000915527344,0.0,-5.0,2.37493896484375,2.1168365478515625,Closing,0.0,0.0,0.0,0.0,0.0,0.0,0.0,0.0,
2.7925950000000013,0.0,0.0,6964.0,0.375,255.0,525.0,0.0,0.25,1.381835796,0.5498168668524888,0.0,-11126.0,1.875,-292.5,-525.0,0.0,0.25,2.4353024850000002,1.9285545897722227,-0.11962889400000032,32292.0,9.0,240.0,525.0,0.0,0.0,2.766112998,4.389674732977289,0.0,-25571.0,2.5,-367.5,-525.0,0.0,0.25,4.645995618000001,3.0316872062785585,0.04760741700000004,1.25,-1.9800000190734863,140.47999572753906,0.04931640625,0.03826904296875,1.0689697265625,36.290000915527344,0.0,-57.0,2.37396240234375,2.115997314453125,Closing,0.0,0.0,0.0,0.0,0.0,0.0,0.0,0.125,
2.8500860000000103,0.0,0.0,7017.0,0.125,337.5,525.0,0.0,0.125,1.385497905,0.5498168668524888,0.0012207029999999897,-11126.0,2.125,-345.0,-525.0,0.0,0.25,2.3828122560000002,1.9285545897722227,-0.09277342799999966,32292.0,9.25,300.0,525.0,0.0,0.0,2.756347374,4.389674732977289,0.0,-25571.0,2.625,-375.0,-525.0,0.0,0.25,4.6582026480000005,3.0316872062785585,0.037841793000000123,1.2899999618530273,-1.7400000095367432,138.19000244140625,0.0430908203125,-0.05938720703125,0.99163818359375,36.290000915527344,0.0,-109.0,2.3716888427734375,2.1142425537109375,Closing,0.0,0.0,0.0,0.0,0.0,0.0,0.0,0.0,
2.907745999999999,0.0,0.0,7017.0,0.375,360.0,525.0,0.0,0.25,1.385497905,0.5498168668524888,0.0024414059999999793,-11193.0,2.0,-397.5,-525.0,0.0,0.25,2.351073978,1.9285545897722227,-0.04638671400000005,32361.0,8.75,390.0,525.0,0.0,0.0,2.760009483,4.389674732977289,0.0,-25641.0,2.625,-412.5,-525.0,0.0,0.125,4.6606440540000005,3.0316872062785585,0.01586913900000031,1.3300000429153442,-1.5,135.47000122070312,0.00811767578125,0.0604248046875,0.97705078125,36.29999923706055,0.0,2.0,2.368194580078125,2.112091064453125,Closing,0.0,0.0,0.0,0.0,0.0,0.0,0.0,0.0,
2.96456700000001,0.0,0.0,7077.0,0.375,382.5,525.0,0.0,0.25,1.385497905,0.5498168668524888,0.0024414059999999793,-11193.0,1.75,-442.5,-525.0,0.0,0.25,2.342529057,1.9285545897722227,-0.024414060000000237,32361.0,7.25,487.5,525.0,0.0,0.0,2.761230186,4.389674732977289,0.004882811999999959,-25641.0,2.5,-465.0,-525.0,0.0,0.125,4.659423351,3.0316872062785585,-0.0012207030000004337,1.3899999856948853,-1.3300000429153442,132.35000610351562,-0.04046630859375,0.07208251953125,1.0205078125,36.29999923706055,0.0,46.0,2.3683319091796875,2.10906982421875,Closing,0.0,0.0,0.0,0.0,0.0,0.0,0.0,0.0,
3.023191000000006,0.0,0.0,7077.0,0.375,420.0,525.0,0.0,0.25,1.378173687,0.5498168668524888,0.0,-11275.0,1.5,-472.5,-525.0,0.0,0.25,2.36816382,1.9285545897722227,-0.009765623999999917,32455.0,6.625,540.0,525.0,0.0,0.0,2.761230186,4.389674732977289,-0.0012207030000004337,-25726.0,2.25,-517.5,-525.0,0.0,0.125,4.661864757,3.0316872062785585,0.0,1.399999976158142,-1.2400000095367432,130.64999389648438,0.0084228515625,0.01800537109375,0.98779296875,36.29999923706055,0.0,-24.0,2.36834716796875,2.1071929931640625,Closing,0.0,0.0,0.0,0.0,0.0,0.0,0.0,0.0,
3.083321000000011,0.0,0.0,7151.0,0.125,465.0,525.0,0.0,0.25,1.386718608,0.5498168668524888,0.0,-11275.0,1.125,-532.5,-525.0,0.0,0.25,2.3828122560000002,1.9285545897722227,0.028076169000000206,32455.0,5.625,615.0,525.0,0.0,0.0,2.761230186,4.389674732977289,0.0,-25726.0,2.0,-555.0,-525.0,0.0,0.125,4.665526866,3.0316872062785585,0.0,1.3700000047683716,-1.1299999952316284,126.16000366210938,-0.03948974609375,0.01336669921875,1.0164794921875,36.29999923706055,0.0,2.0,2.3673553466796875,2.1024169921875,Closing,0.0,0.0,0.0,0.0,0.0,0.0,0.0,0.0,
3.1459830000000073,0.0,0.0,7151.0,0.125,570.0,525.0,0.0,0.25,1.386718608,0.5498168668524888,0.0,-11368.0,0.875,-570.0,-525.0,0.0,0.25,2.3742673350000003,1.9285545897722227,0.010986326999999907,32561.0,4.75,645.0,525.0,0.0,0.0,2.761230186,4.389674732977289,0.0,-25823.0,1.375,-592.5,-525.0,0.0,0.125,4.665526866,3.0316872062785585,-0.0012207029999995456,1.3600000143051147,-1.059999942779541,122.3499984741211,-0.01898193359375,0.01788330078125,1.148681640625,36.29999923706055,0.0,-9.0,2.3656463623046875,2.0996551513671875,Closing,0.0,0.0,0.0,0.0,0.0,0.0,0.0,0.0,
3.207411000000007,0.0,0.0,7248.0,0.375,600.0,525.0,0.0,0.25,1.386718608,0.5498168668524888,0.0,-11368.0,0.75,-585.0,-525.0,0.0,0.25,2.3815915530000002,1.9285545897722227,-0.004882811999999959,32561.0,4.375,667.5,525.0,0.0,0.0,2.760009483,4.389674732977289,0.0012207030000004337,-25823.0,1.25,-607.5,-525.0,0.0,0.125,4.669188975,3.0316872062785585,0.0012207029999995456,1.3799999952316284,-0.9599999785423279,118.51000213623047,-0.04571533203125,0.021484375,1.1007080078125,36.29999923706055,0.0,8.0,2.363006591796875,2.0976409912109375,Closing,0.0,0.0,0.0,0.0,0.0,0.0,0.0,0.0,
3.264715000000011,0.0,0.0,7248.0,0.375,607.5,525.0,0.0,0.25,1.386718608,0.5498168668524888,0.0,-11465.0,0.5,-600.0,-525.0,0.0,0.25,2.401122801,1.9285545897722227,0.013427732999999886,32666.0,4.0,660.0,525.0,0.0,0.0,2.761230186,4.389674732977289,0.0,-25922.0,1.0,-622.5,-525.0,0.0,0.125,4.664306163,3.0316872062785585,0.0,1.3600000143051147,-0.8399999737739563,114.69000244140625,-0.00146484375,-0.03240966796875,0.89447021484375,36.29999923706055,0.0,-53.0,2.359619140625,2.0958709716796875,Closing,0.0,0.0,0.0,0.0,0.0,0.0,0.0,0.0,
3.316471000000005,0.0,0.0,7344.0,0.375,600.0,525.0,0.0,0.25,1.385497905,0.5498168668524888,0.0,-11465.0,0.5,-600.0,-525.0,0.0,0.25,2.407226316,1.9285545897722227,0.010986326999999907,32666.0,3.75,645.0,525.0,0.0,0.0,2.761230186,4.389674732977289,-0.0012207030000004337,-25922.0,0.75,-615.0,-525.0,0.0,0.125,4.666747569,3.0316872062785585,0.0,1.3700000047683716,-0.7599999904632568,111.83999633789062,0.0191650390625,-0.0626220703125,0.9193115234375,36.29999923706055,0.0,-90.0,2.356689453125,2.094818115234375,Closing,0.0,0.0,0.0,0.0,0.0,0.0,0.0,0.125,
3.3718870000000023,0.0,0.0,7344.0,0.375,592.5,525.0,0.0,0.25,1.385497905,0.5498168668524888,0.0,-11465.0,0.5,-585.0,-525.0,0.0,0.25,2.407226316,1.9285545897722227,0.004882811999999959,32666.0,3.625,637.5,525.0,0.0,0.0,2.761230186,4.389674732977289,0.0,-25922.0,0.75,-615.0,-525.0,0.0,0.125,4.664306163,3.0316872062785585,0.0,1.3799999952316284,-0.6299999952316284,108.08999633789062,-0.0537109375,-0.02593994140625,1.01708984375,36.29999923706055,0.0,-34.0,2.35235595703125,2.0935211181640625,Closing,0.0,0.0,0.0,0.0,0.0,0.0,0.0,0.125,
3.4297130000000036,0.0,0.0,7438.0,0.375,585.0,525.0,0.0,0.25,1.385497905,0.5498168668524888,0.0,-11558.0,0.5,-577.5,-525.0,0.0,0.25,2.406005613,1.9285545897722227,0.0012207029999999897,32767.0,3.375,622.5,525.0,0.0,0.0,2.764892295,4.389674732977289,0.0,-26021.0,0.75,-607.5,-525.0,0.0,0.125,4.665526866,3.0316872062785585,0.0,1.350000023841858,-0.5600000023841858,104.38999938964844,0.03076171875,0.05511474609375,1.01458740234375,36.34000015258789,0.0,20.0,2.348052978515625,2.092254638671875,Closing,0.0,0.0,0.0,0.0,0.0,0.0,0.0,0.125,
3.4898859999999985,0.0,0.0,7438.0,0.375,570.0,525.0,0.0,0.25,1.385497905,0.5498168668524888,-0.0012207029999999897,-11558.0,0.375,-577.5,-525.0,0.0,0.25,2.406005613,1.9285545897722227,-0.0012207029999999897,32767.0,3.375,607.5,525.0,0.0,0.0,2.761230186,4.389674732977289,0.0012207030000004337,-26021.0,0.75,-592.5,-525.0,0.0,0.125,4.664306163,3.0316872062785585,0.0,1.3700000047683716,-0.41999998688697815,100.77999877929688,0.02545166015625,-0.03240966796875,1.06787109375,36.34000015258789,0.0,-63.0,2.34375,2.090789794921875,Closing,0.0,0.0,0.0,0.0,0.0,0.0,0.0,0.0,
3.5477119999999998,0.0,0.0,7528.0,0.375,562.5,525.0,0.0,0.25,1.385497905,0.5498168668524888,0.0012207029999999897,-11650.0,0.375,-577.5,-525.0,0.0,0.25,2.407226316,1.9285545897722227,0.0,32864.0,3.25,600.0,525.0,0.0,0.0,2.761230186,4.389674732977289,-0.0012207030000004337,-26114.0,0.75,-577.5,-525.0,0.0,0.125,4.665526866,3.0316872062785585,0.0,1.309999942779541,-0.36000001430511475,97.30000305175781,0.02545166015625,0.02423095703125,0.996337890625,36.34000015258789,0.0,-2.0,2.341278076171875,2.090423583984375,Closing,0.0,0.0,0.0,0.0,0.0,0.0,0.0,0.0,
3.6087660000000032,0.0,0.0,7528.0,0.375,540.0,0.0,0.0,0.375,1.380615093,0.01,0.0012207029999999897,-11650.0,0.25,-547.5,-0.0,0.0,2.375,2.391357177,0.01,0.0,32864.0,2.125,585.0,0.0,0.0,2.125,2.823486039,0.01,0.0012207030000004337,-26114.0,0.375,-555.0,-0.0,0.0,5.625,4.747313967,0.01,0.0,1.25,-0.30000001192092896,93.91000366210938,-0.1029052734375,-0.03118896484375,0.9788818359375,36.34000015258789,0.0,-45.0,2.34112548828125,2.09063720703125,Closing,0.0,0.0,0.0,0.0,0.0,0.0,0.0,0.125,
3.669876000000004,0.0,0.0,7605.0,0.625,480.0,0.0,0.0,2.125,1.152343632,0.01,-0.0378417929999999,-11714.0,0.0,-375.0,-0.0,0.0,8.0,2.073974397,0.01,-0.024414059999999793,32951.0,0.5,525.0,0.0,0.0,2.5,3.085937184,0.01,0.10131834899999959,-26194.0,0.375,-465.0,-0.0,0.0,7.375,0.23925778800000003,0.01,0.12207029999999985,1.1100000143051147,-0.20000000298023224,91.0199966430664,0.0560302734375,-0.01812744140625,0.87713623046875,36.34000015258789,0.0,-36.0,2.3397674560546875,2.0916900634765625,Closing,0.0,0.0,0.0,0.0,0.0,0.0,0.0,0.0,
3.724697,0.0,0.0,7605.0,0.75,420.0,0.0,0.0,0.5,0.9704588850000001,0.01,-0.21728513400000016,-11714.0,0.0,-247.5,-0.0,0.0,1.125,1.6369627230000001,0.01,-0.31738278,32951.0,0.5,375.0,0.0,0.0,0.25,3.2714840400000003,0.01,0.2221679459999999,-26194.0,0.125,-292.5,-0.0,0.0,1.5,0.664062432,0.01,0.4047778100000001,1.1399999856948853,0.10999999940395355,89.29000091552734,0.00360107421875,0.02044677734375,1.12200927734375,36.34000015258789,0.0,-2.0,2.3383026123046875,2.09149169921875,Closing,0.0,0.0,0.0,0.0,0.0,0.0,0.0,0.0,
3.7798250000000118,0.0,0.0,7651.0,0.75,345.0,0.0,0.0,0.25,0.902099517,0.01,-0.17578123199999995,-11748.0,0.0,-210.0,-0.0,0.0,1.125,1.229247921,0.01,-0.45654292200000013,32994.0,0.75,270.0,0.0,0.0,0.125,3.339843408,0.01,0.0,-26230.0,0.375,-217.5,-0.0,0.0,1.875,1.1108397300000001,0.01,0.42480464399999995,1.0800000429153442,-0.029999999329447746,88.86000061035156,-0.14984130859375,0.045654296875,1.11859130859375,36.34000015258789,0.0,21.0,2.33843994140625,2.0910491943359375,Closing,0.0,0.0,0.0,0.0,0.0,0.0,0.0,0.0,
3.838551000000007,0.0,0.0,7651.0,0.625,187.5,0.0,0.0,0.375,0.8801268630000001,0.01,0.0,-11748.0,0.0,-52.5,-0.0,0.0,1.75,0.832519446,0.01,0.0,32994.0,1.0,172.5,0.0,0.0,0.125,3.3642574680000004,0.01,0.07202147699999983,-26230.0,0.375,-142.5,-0.0,0.0,1.875,1.516113126,0.01,0.4589843280000001,1.0,-0.23999999463558197,88.7300033569336,-0.095703125,0.03167724609375,0.99755859375,36.34000015258789,0.0,12.0,2.3383636474609375,2.092071533203125,Closing,0.0,0.0,0.0,0.0,0.0,0.0,0.0,0.0,
3.894270000000004,0.0,0.0,7662.0,0.125,90.0,0.0,0.0,0.375,0.865478427,0.01,-0.028076168999999984,-11748.0,0.125,0.0,-0.0,0.0,1.125,0.483398388,0.01,-0.4077148020000001,33009.0,1.25,90.0,0.0,0.0,0.0,3.3618160620000004,0.01,-4.9208687520000005,-26246.0,0.375,-97.5,-0.0,0.0,1.0,1.826171688,0.01,0.44311518900000024,0.9599999785423279,-0.3400000035762787,88.58999633789062,-0.0576171875,-0.04119873046875,0.970458984375,36.369998931884766,0.0,-58.0,2.3379669189453125,2.094573974609375,Closing,0.0,0.0,0.0,0.0,0.0,0.0,0.0,0.0,
3.9475660000000063,0.0,0.0,7662.0,0.125,45.0,8.4,0.0,0.25,0.8666991300000001,4.931428991615634,-0.00366210900000008,-11748.0,0.125,-15.0,-8.4,0.0,0.25,0.347900355,4.962942738662719,-0.29785153200000014,33009.0,1.5,45.0,8.4,0.0,0.0,3.3642574680000004,4.939576633504232,0.0,-26246.0,0.375,-90.0,-8.4,0.0,0.375,1.8920896500000002,4.957173700290256,-4.676017607,0.9300000071525574,-0.36000001430511475,88.72000122070312,0.04229736328125,0.009033203125,1.0201416015625,36.369998931884766,0.0,-6.0,2.3375701904296875,2.09765625,Closing,0.0,0.0,0.0,0.0,0.0,0.0,0.0,0.0,
4.007471000000005,0.0,0.0,7662.0,0.125,0.0,8.4,0.0,0.25,0.8666991300000001,0.01,-0.0012207029999999897,-11757.0,0.125,-45.0,-8.4,0.0,0.25,0.358886682,0.01,-0.10131834900000047,33010.0,1.75,7.5,8.4,0.0,0.0,3.3605953590000004,0.01,0.0,-26258.0,0.375,-82.5,-8.4,0.0,0.5,1.805419737,0.01,0.05004882300000002,0.9300000071525574,-0.28999999165534973,88.77999877929688,-9.765625E-4,0.02044677734375,1.00128173828125,36.369998931884766,0.0,4.0,2.3375701904296875,2.0989990234375,Closing,0.0,0.0,0.0,0.0,0.0,0.0,0.0,0.0,
4.057063999999999,0.0,0.0,7662.0,0.125,7.5,8.4,0.0,0.25,0.8666991300000001,0.01,0.0012207029999999897,-11757.0,0.125,-45.0,-8.4,0.0,0.25,0.40893550500000003,0.01,0.017089841999999855,33010.0,1.75,15.0,8.4,0.0,0.0,3.3654781710000004,0.01,0.0,-26258.0,0.375,-37.5,-8.4,0.0,0.5,1.7382810720000001,0.01,-0.08666991300000015,0.8899999856948853,-0.30000001192092896,88.76000213623047,-0.01171875,-0.00836181640625,0.98138427734375,36.369998931884766,0.0,-23.0,2.3375396728515625,2.0989990234375,Closing,0.0,0.0,0.0,0.0,0.0,0.0,0.0,0.0,
4.11210100000001,0.0,0.0,7662.0,0.125,15.0,8.4,0.0,0.25,0.865478427,0.01,-0.0012207029999999897,-11757.0,0.125,-7.5,-8.4,0.0,0.25,0.430908159,0.01,0.05737304099999996,33014.0,1.75,22.5,8.4,0.0,0.0,3.3630367650000004,0.01,0.0,-26259.0,0.375,0.0,-8.4,0.0,0.25,1.6601560800000001,0.01,-0.06958007099999985,0.8799999952316284,-0.3499999940395355,88.75,-0.0125732421875,-0.00360107421875,1.028564453125,36.369998931884766,0.0,-19.0,2.3372039794921875,2.0989990234375,Closing,0.0,0.0,0.0,0.0,0.0,0.0,0.0,0.125,
4.168119000000006,0.0,0.0,7665.0,0.125,7.5,8.4,0.0,0.25,0.865478427,0.01,0.0,-11757.0,0.125,0.0,-8.4,0.0,0.25,0.430908159,0.01,0.010986327000000351,33014.0,1.75,7.5,8.4,0.0,0.0,3.3618160620000004,0.01,0.0,-26259.0,0.375,0.0,-8.4,0.0,0.25,1.6308592080000002,0.01,-0.078124992,0.8600000143051147,-0.4000000059604645,88.77999877929688,-0.0032958984375,0.00927734375,1.0029296875,36.369998931884766,0.0,-5.0,2.337066650390625,2.0990753173828125,Closing,0.0,0.0,0.0,0.0,0.0,0.0,0.0,0.125,
4.228597999999998,0.0,0.0,7665.0,0.125,0.0,0.0,0.0,0.25,0.865478427,0.01,0.0012207029999999897,-11758.0,0.125,-7.5,-0.0,0.0,0.25,0.449218704,0.01,0.0,33014.0,1.75,0.0,0.0,0.0,0.0,3.3630367650000004,0.01,0.0,-26259.0,0.375,0.0,-0.0,0.0,0.125,1.6369627230000001,0.01,-0.026855465999999995,0.8399999737739563,-0.4099999964237213,88.7699966430664,-0.006591796875,0.0079345703125,0.99285888671875,36.369998931884766,0.0,-6.0,2.337066650390625,2.0991058349609375,Closing,0.0,0.0,0.0,0.0,0.0,0.0,0.0,0.0,
4.288706000000006,0.0,0.0,7665.0,0.125,0.0,420.0,0.0,0.25,0.865478427,0.01,0.0,-11758.0,1.125,-15.0,-420.0,0.0,0.25,0.47363276400000004,0.01,0.0,33014.0,3.5,0.0,420.0,0.0,0.0,3.3642574680000004,0.01,0.0,-26259.0,1.25,-37.5,-420.0,0.0,0.125,1.6357420200000001,0.01,0.0,0.8399999737739563,-0.3499999940395355,88.76000213623047,0.14495849609375,-0.04541015625,1.03369140625,36.369998931884766,0.0,-57.0,2.3370208740234375,2.098876953125,Closing,0.0,0.0,0.0,0.0,0.0,0.0,0.0,0.0,
4.475363000000012,0.0,0.0,7702.0,0.125,157.5,NaN,0.0,0.125,0.865478427,NaN,0.0,-11791.0,1.5,-120.0,NaN,0.0,0.0,0.5285643990000001,NaN,0.0,33042.0,3.375,142.5,NaN,0.0,0.0,3.3630367650000004,NaN,0.0,-26295.0,1.0,-112.5,NaN,0.0,0.125,1.6369627230000001,NaN,0.0,0.8299999833106995,0.10999999940395355,88.69999694824219,-0.04132080078125,-0.0191650390625,0.99542236328125,36.38999938964844,0.0,-34.0,2.33770751953125,2.0902099609375,Closing,0.0,0.0,0.0,0.0,0.0,0.0,0.0,0.0,
4.6721570000000066,0.0,0.0,7721.0,0.375,142.5,715.1390844837458,0.0,0.125,0.860595615,4.191941004272547,0.0,-11814.0,1.875,-150.0,-715.1390844837458,0.0,0.0,0.532226508,4.218729135799848,0.019531247999999835,33066.0,5.5,142.5,715.1390844837458,0.0,0.0,3.3630367650000004,4.198866873869171,0.0,-26319.0,1.625,-157.5,-715.1390844837458,0.0,0.125,1.6369627230000001,4.213825188374088,0.0,0.7900000214576721,-0.009999999776482582,88.69999694824219,0.1683349609375,-0.02227783203125,1.013671875,36.38999938964844,0.0,-32.0,2.338348388671875,2.0917205810546875,Closing,0.0,0.0,0.0,0.0,0.0,0.0,0.0,0.125,
4.752240000000005,0.0,0.0,7769.0,0.5,307.5,709.9438677469948,0.0,4.75,0.490722606,4.19611736021905,-0.007324217999999938,-11847.0,5.0,-225.0,-709.9438677469948,0.0,6.0,0.31005856200000004,4.222932180283306,0.02075195099999938,33094.0,8.875,195.0,709.9438677469948,0.0,1.25,2.989501647,4.203050129935844,4.935517188,-26348.0,4.25,-202.5,-709.9438677469948,0.0,5.0,1.302490101,4.218023347142319,0.0,0.75,0.47999998927116394,88.66999816894531,0.17596435546875,6.7138671875E-4,0.9090576171875,36.38999938964844,0.0,-7.0,2.338226318359375,2.08880615234375,Closing,0.0,0.0,0.0,0.0,0.0,0.0,0.0,0.0,
4.946343000000008,0.0,0.0,7831.0,0.125,427.5,NaN,0.0,0.625,4.291991748,NaN,3.789062112,-11955.0,3.875,-390.0,NaN,0.0,1.125,4.0832515350000005,NaN,3.941649987000001,33239.0,2.875,525.0,NaN,0.0,0.375,1.8920896500000002,NaN,-1.1242674629999998,-26443.0,2.75,-337.5,NaN,0.0,0.625,0.11962889400000001,NaN,3.894767687,-0.550000011920929,-0.6600000262260437,88.94000244140625,-0.411376953125,0.10333251953125,1.01318359375,36.38999938964844,0.0,105.0,2.3155059814453125,2.0842742919921875,Closing,0.0,0.0,0.0,0.0,0.0,0.0,0.0,0.0,
5.152619000000006,0.0,0.0,7951.0,0.375,337.5,725.588937088349,0.0,0.125,4.278564015000001,4.183768283550635,-0.3637694939999996,-12009.0,2.125,-322.5,-725.588937088349,0.0,0.0,3.508300422,4.210504188217537,-0.9423827160000009,33300.0,4.0,345.0,725.588937088349,0.0,0.0,1.857909966,4.190680650285956,-0.3515624640000006,-26492.0,2.0,-337.5,-725.588937088349,0.0,0.125,4.582519062,4.2056098016593335,-0.9077074459999999,0.18000000715255737,-1.1200000047683716,88.04000091552734,-0.07623291015625,-0.0159912109375,0.941162109375,36.38999938964844,0.0,-21.0,2.2941436767578125,2.11553955078125,Closing,0.0,0.0,0.0,0.0,0.0,0.0,0.0,0.0,
5.227095000000001,0.0,0.0,7989.0,1.125,247.5,822.7197678470172,0.0,2.625,4.4531245440000005,4.1197622032637415,0.0,-12066.0,5.625,-375.0,-822.7197678470172,0.0,7.625,3.666991812,4.14608908421215,0.0,33358.0,8.125,367.5,822.7197678470172,0.0,3.5,2.1166990020000003,4.126568819998047,0.0,-26556.0,4.5,-442.5,-822.7197678470172,0.0,6.625,4.804687008,4.141269575247008,0.0,0.03999999910593033,-1.1799999475479126,87.08000183105469,0.01318359375,-0.12945556640625,0.89678955078125,36.38999938964844,0.0,-128.0,2.288543701171875,2.1205596923828125,Closing,0.0,0.0,0.0,0.0,0.0,0.0,0.0,0.0,
5.307283999999999,0.0,0.0,8016.0,0.75,277.5,NaN,0.0,0.625,4.802245602,NaN,0.2319335699999998,-12124.0,3.125,-375.0,NaN,0.0,0.375,4.227294489,NaN,0.2380370850000002,33417.0,4.75,367.5,NaN,0.0,0.625,2.4316403760000003,NaN,0.2856445019999998,-26638.0,1.75,-502.5,NaN,0.0,0.625,0.43334956500000005,NaN,0.2563476300000005,0.009999999776482582,-0.550000011920929,85.66000366210938,0.27142333984375,0.048828125,0.9573974609375,36.38999938964844,0.0,69.0,2.279937744140625,2.1180267333984375,Closing,0.0,0.0,0.0,0.0,0.0,0.0,0.0,0.125,
5.473566000000006,0.0,0.0,8042.0,0.125,150.0,NaN,0.0,0.125,4.819335444,NaN,0.29541012600000016,-12167.0,0.625,-262.5,NaN,0.0,0.0,4.62646437,NaN,0.8337401489999996,33477.0,1.375,345.0,NaN,0.0,0.0,2.4304196730000003,NaN,0.0,-26684.0,0.375,-217.5,NaN,0.0,0.125,0.925292874,NaN,0.0,0.25999999046325684,-0.029999999329447746,85.04000091552734,0.023193359375,-0.004638671875,1.04888916015625,36.380001068115234,0.0,-7.0,2.2745361328125,2.0941009521484375,Closing,0.0,0.0,0.0,0.0,0.0,0.0,0.0,0.125,
5.554066000000006,0.0,0.0,8094.0,0.75,277.5,709.9438677469948,0.0,0.125,4.8181147410000005,4.19611736021905,0.014648435999999432,-12220.0,3.75,-315.0,-709.9438677469948,0.0,0.0,4.637450697,4.222932180283306,0.052490229,33516.0,6.0,232.5,709.9438677469948,0.0,0.0,2.4316403760000003,4.203050129935844,-0.0012207030000004337,-26743.0,1.625,-375.0,-709.9438677469948,0.0,0.125,0.977783103,4.218023347142319,0.09399413100000054,0.25,0.05999999865889549,85.16000366210938,0.1121826171875,-0.29559326171875,1.12530517578125,36.380001068115234,0.0,-290.0,2.274505615234375,2.082794189453125,Closing,0.0,0.0,0.0,0.0,0.0,0.0,0.0,0.0,
5.750553,0.0,0.0,8167.0,0.375,382.5,NaN,0.0,0.25,0.07934569500000001,NaN,0.10620116100000132,-12287.0,1.125,-495.0,NaN,0.0,0.0,4.737548343,NaN,0.052490229,33568.0,4.375,375.0,NaN,0.0,0.125,2.62451145,NaN,0.10864256700000041,-26808.0,0.375,-382.5,NaN,0.0,0.125,0.9716795880000001,NaN,0.052490229,-0.25999999046325684,0.49000000953674316,86.30999755859375,0.00494384765625,0.0474853515625,1.04632568359375,36.380001068115234,0.0,51.0,2.258575439453125,2.0445709228515625,Closing,0.0,0.0,0.0,0.0,0.0,0.0,0.0,0.0,
5.944471000000005,0.0,0.0,8282.0,0.125,420.0,828.256356586874,0.0,0.125,0.09399413100000001,4.116650526971667,0.10070852599999913,-12417.0,1.0,-397.5,-828.256356586874,0.0,0.0,4.7656245120000005,4.142957523099727,0.06591796200000033,33701.0,4.375,397.5,828.256356586874,0.0,0.0,2.617187232,4.123452002635475,0.08911131899999969,-26928.0,1.0,-390.0,-828.256356586874,0.0,0.125,0.9765624,4.138141654332986,0.0,0.1899999976158142,0.09000000357627869,86.6500015258789,-0.0430908203125,-0.11224365234375,1.17852783203125,36.380001068115234,0.0,-118.0,2.24713134765625,2.047760009765625,Closing,0.0,0.0,0.0,0.0,0.0,0.0,0.0,0.125,
6.16305200000001,0.0,0.0,8459.0,0.875,555.0,694.4823846983091,0.0,0.25,0.023193357,4.209019612982328,0.0,-12601.0,3.0,-577.5,-694.4823846983091,0.0,0.25,4.7607417000000005,4.235916883454084,0.02075195100000027,33856.0,6.5,585.0,694.4823846983091,0.0,0.0,2.518310289,4.215973699630836,0.0,-27098.0,2.5,-570.0,-694.4823846983091,0.0,0.25,0.759277266,4.230992956596568,0.0,-0.5600000023841858,0.4099999964237213,86.94000244140625,-0.09185791015625,-0.13189697265625,1.20819091796875,36.380001068115234,0.0,-125.0,2.218353271484375,2.05084228515625,Closing,0.0,0.0,0.0,0.0,0.0,0.0,0.0,0.0,
6.340061000000001,0.0,0.0,8560.0,0.5,637.5,620.403645098546,0.0,0.25,0.03662109,4.282947421502145,0.0,-12699.0,2.625,-622.5,-620.403645098546,0.0,0.25,4.7631831060000005,4.3103171193902545,-0.009765623999999917,33967.0,4.875,712.5,620.403645098546,0.0,0.0,2.55126927,4.290023650700096,-0.029296871999999752,-27200.0,1.625,-667.5,-620.403645098546,0.0,0.625,0.76904289,4.3053067079934975,-0.10986326999999996,-0.6399999856948853,0.36000001430511475,86.47000122070312,-0.0220947265625,0.0234375,1.1568603515625,36.380001068115234,0.0,34.0,2.2024078369140625,2.052703857421875,Closing,0.0,0.0,0.0,0.0,0.0,0.0,0.0,0.0,
6.486827000000004,0.0,0.0,8668.0,0.375,660.0,704.7690419562994,0.0,0.375,0.137939439,4.200355168079424,0.0,-12803.0,2.125,-652.5,-704.7690419562994,0.0,0.25,4.771728027,4.227197069382235,0.006103514999999504,34086.0,3.75,735.0,704.7690419562994,0.0,0.125,2.702636442,4.207294939446428,0.0,-27312.0,1.0,-720.0,-704.7690419562994,0.0,0.125,0.9729002910000001,4.222283278636424,0.14282225100000012,-0.47999998927116394,0.7599999904632568,85.88999938964844,0.037109375,0.038818359375,0.82415771484375,36.38999938964844,0.0,47.0,2.205047607421875,2.0536041259765625,Closing,0.0,0.0,0.0,0.0,0.0,0.0,0.0,0.0,
6.546561000000001,0.0,0.0,8777.0,0.375,675.0,561.7279814610005,0.0,0.375,0.192871074,4.362177585436317,0.05737304099999996,-12913.0,1.5,-697.5,-561.7279814610005,0.0,0.25,4.8156733350000005,4.390053594851769,0.0,34204.0,2.75,735.0,561.7279814610005,0.0,0.0,2.7368161260000003,4.369384717665339,0.06958007099999985,-27426.0,0.625,-712.5,-561.7279814610005,0.0,0.375,1.043701065,4.384950495948657,0.0,-0.23000000417232513,0.8799999952316284,85.8499984741211,-0.0125732421875,0.13287353515625,1.0736083984375,36.38999938964844,0.0,134.0,2.2099456787109375,2.0521087646484375,Closing,0.0,0.0,0.0,0.0,0.0,0.0,0.0,0.0,
6.747595000000001,0.0,0.0,8872.0,0.125,615.0,NaN,0.0,0.25,0.27099606600000004,NaN,0.0866699130000006,-13024.0,0.375,-697.5,NaN,0.0,0.0,4.953612774000001,NaN,0.13671873599999973,34430.0,0.875,682.5,NaN,0.0,0.0,2.7954098700000003,NaN,0.05493163499999998,-27639.0,0.25,-660.0,NaN,0.0,0.125,1.125488166,NaN,0.09765624000000006,0.20000000298023224,0.9300000071525574,85.94999694824219,0.128173828125,0.15667724609375,0.5438232421875,36.38999938964844,0.0,162.0,2.227569580078125,2.051239013671875,Closing,0.0,0.0,0.0,0.0,0.0,0.0,0.0,0.0,
6.887431000000012,0.0,0.0,9060.0,0.25,517.5,506.4334612019628,0.0,0.125,0.29052731400000004,4.466836679194237,0.0,-13211.0,0.0,-577.5,-506.4334612019628,0.0,0.0,0.019531248,4.495381500877384,-4.897460436,34502.0,0.5,435.0,506.4334612019628,0.0,0.0,2.833251663,4.474216727796539,0.06347655600000035,-27726.0,0.375,-562.5,-506.4334612019628,0.0,0.125,1.156005741,4.4901559664025665,0.06958007099999985,0.8100000023841858,0.1599999964237213,86.43000030517578,-0.02093505859375,-0.0150146484375,0.79693603515625,36.38999938964844,0.0,-27.0,2.2467498779296875,2.0608673095703125,Closing,0.0,0.0,0.0,0.0,0.0,0.0,0.0,0.125,
6.957416000000012,0.0,0.0,9060.0,0.125,487.5,464.9170877442155,0.0,0.375,0.295410126,4.5843477222967755,0.0,-13211.0,0.125,-450.0,-464.9170877442155,0.0,0.25,0.028076169,4.613643485196731,0.004882811999999959,34573.0,1.5,405.0,464.9170877442155,0.0,0.125,2.83203096,4.59192192109343,0.0,-27797.0,0.375,-457.5,-464.9170877442155,0.0,0.125,1.1633299590000001,4.608280480281197,0.0,0.9100000262260437,-0.009999999776482582,86.38999938964844,-0.094970703125,-0.0830078125,0.9095458984375,36.40999984741211,0.0,-103.0,2.24652099609375,2.0692596435546875,Closing,0.0,0.0,0.0,0.0,0.0,0.0,0.0,0.125,
7.042578999999998,0.0,0.0,9129.0,0.375,390.0,NaN,0.0,0.25,0.39062496,NaN,0.0,-13283.0,0.0,-420.0,NaN,0.0,0.0,0.039062496,NaN,0.0,34573.0,0.25,450.0,NaN,0.0,0.125,2.921142279,NaN,0.0,-27797.0,0.25,-412.5,NaN,0.0,0.125,1.197509643,NaN,0.0,1.0499999523162842,-0.1899999976158142,86.4800033569336,-0.15167236328125,0.10797119140625,1.183837890625,36.40999984741211,0.0,76.0,2.2462158203125,2.079193115234375,Closing,0.0,0.0,0.0,0.0,0.0,0.0,0.0,0.125,
7.207383000000002,0.0,0.0,9175.0,0.375,232.5,NaN,0.0,0.125,0.410156208,NaN,0.104980458,-13343.0,0.125,-285.0,NaN,0.0,0.0,0.054931635000000006,NaN,0.0,34623.0,0.125,165.0,NaN,0.0,0.0,2.921142279,NaN,0.08789061600000014,-27858.0,0.375,-247.5,NaN,0.0,0.125,1.226806515,NaN,0.0,1.3300000429153442,-0.8799999952316284,86.6500015258789,-0.09564208984375,0.03717041015625,1.0013427734375,36.40999984741211,0.0,9.0,2.2503204345703125,2.108551025390625,Closing,0.0,0.0,0.0,0.0,0.0,0.0,0.0,0.0,
7.350523000000001,0.0,0.0,9201.0,0.125,52.5,435.66151586552843,0.0,0.125,0.418701129,4.721129584569014,0.0,-13384.0,0.125,-75.0,-435.66151586552843,0.0,0.0,0.063476556,4.751299436706716,0.0,34667.0,1.125,90.0,435.66151586552843,0.0,0.0,2.921142279,4.728929772553091,0.0,-27896.0,0.375,-67.5,-435.66151586552843,0.0,0.125,1.231689327,4.745776417358559,0.0,1.5099999904632568,-1.2599999904632568,86.77999877929688,-0.03668212890625,0.053466796875,0.944091796875,36.40999984741211,0.0,27.0,2.2537384033203125,2.15020751953125,Closing,0.0,0.0,0.0,0.0,0.0,0.0,0.0,0.125,
7.551379000000001,0.0,0.0,9231.0,0.375,150.0,421.768888321851,0.0,0.375,0.5541991620000001,4.860331751986741,0.0,-13406.0,1.25,-105.0,-421.768888321851,0.0,0.5,0.35400387,4.891391160052322,0.0,34679.0,4.375,45.0,421.768888321851,0.0,0.25,3.1689449880000002,4.8683619279544565,0.11840819099999944,-27919.0,1.0,-82.5,-421.768888321851,0.0,0.375,1.444091649,4.885705294874543,0.0,1.159999966621399,-0.7599999904632568,86.77999877929688,0.08953857421875,0.007080078125,0.965576171875,36.38999938964844,0.0,-6.0,2.2569580078125,2.20501708984375,Closing,0.0,0.0,0.0,0.0,0.0,0.0,0.0,0.0,
7.754558000000005,0.0,0.0,9283.0,0.875,210.0,421.768888321851,0.0,0.375,0.8947752990000001,4.860331751986741,0.29541012600000016,-13460.0,1.875,-240.0,-421.768888321851,0.0,0.25,0.5810546280000001,4.891391160052322,0.0,34720.0,5.5,172.5,421.768888321851,0.0,0.375,3.450927381,4.8683619279544565,-4.603485972,-27969.0,1.875,-225.0,-421.768888321851,0.0,0.5,1.669921704,4.885705294874543,0.0,1.309999942779541,-0.18000000715255737,86.68000030517578,0.0635986328125,0.0672607421875,0.983154296875,36.38999938964844,0.0,48.0,2.2608642578125,2.240875244140625,Closing,0.0,0.0,0.0,0.0,0.0,0.0,0.0,0.0,
7.949532000000007,0.0,0.0,9327.0,0.75,337.5,423.9696204936888,0.0,0.25,0.8947752990000001,4.824746445161359,0.0,-13504.0,2.125,-315.0,-423.9696204936888,0.0,0.25,0.532226508,4.855578449291936,0.009765623999999917,34760.0,5.25,345.0,423.9696204936888,0.0,0.125,3.334960596,4.832717827554839,-0.013427732999999886,-28066.0,1.625,-322.5,-423.9696204936888,0.0,0.25,1.6113279600000001,4.849934213629845,0.0,1.2799999713897705,0.10999999940395355,86.55000305175781,0.0780029296875,0.05072021484375,1.03759765625,36.38999938964844,0.0,31.0,2.26593017578125,2.2579193115234375,Closing,0.0,0.0,0.0,0.0,0.0,0.0,0.0,0.125,
8.143759000000005,0.0,0.0,9460.0,0.375,457.5,421.2291827664158,0.0,0.25,0.6982421160000001,4.872267062553982,4.7784424219999995,-13622.0,1.625,-405.0,-421.2291827664158,0.0,0.25,0.324706998,4.903402741890788,-0.20507810400000004,34892.0,3.5,480.0,421.2291827664158,0.0,0.0,3.146972334,4.880316957884279,4.7804879069999995,-28128.0,1.25,-420.0,-421.2291827664158,0.0,0.375,1.457519382,4.897702914175017,4.798087907,0.7699999809265137,0.38999998569488525,85.73999786376953,0.01177978515625,-0.05352783203125,0.92041015625,36.400001525878906,0.0,-65.0,2.261810302734375,2.2714080810546875,Closing,0.0,0.0,0.0,0.0,0.0,0.0,0.0,0.125,
8.339903000000005,0.0,0.0,9607.0,0.375,442.5,421.768888321851,0.0,0.25,0.721435473,4.860331751986741,0.0,-13773.0,0.875,-495.0,-421.768888321851,0.0,0.25,0.429687456,4.891391160052322,0.04150390199999965,35058.0,2.5,510.0,421.768888321851,0.0,0.0,3.239745762,4.8683619279544565,0.004882811999999959,-28279.0,0.625,-487.5,-421.768888321851,0.0,0.375,1.535644374,4.885705294874543,0.0,0.7200000286102295,0.3100000023841858,85.43000030517578,-0.03228759765625,-0.0252685546875,1.0411376953125,36.400001525878906,0.0,-41.0,2.261871337890625,2.272186279296875,Closing,0.0,0.0,0.0,0.0,0.0,0.0,0.0,0.125,
8.55047,0.0,0.0,9681.0,0.125,480.0,427.0315920690178,0.0,0.25,0.6982421160000001,4.789599983969735,0.0,-13932.0,0.5,-495.0,-427.0315920690178,0.0,0.25,0.435790971,4.820207388559393,0.0,35221.0,2.125,495.0,427.0315920690178,0.0,0.25,3.3117672390000004,4.797513297843942,0.08789061600000014,-28440.0,0.375,-495.0,-427.0315920690178,0.0,0.25,1.560058434,4.814604269028877,0.0,0.6800000071525574,0.14000000059604645,85.48999786376953,-0.0675048828125,0.03662109375,0.85333251953125,36.380001068115234,0.0,20.0,2.26275634765625,2.2760162353515625,Closing,0.0,0.0,0.0,0.0,0.0,0.0,0.0,0.0,
8.75108600000001,0.0,0.0,9831.0,0.125,442.5,427.0315920690178,0.0,0.25,0.69580071,4.789599983969735,0.0,-14010.0,0.5,-465.0,-427.0315920690178,0.0,0.125,0.36865230600000004,4.820207388559393,-0.048828119999999586,35296.0,2.125,465.0,427.0315920690178,0.0,0.125,3.19824186,4.797513297843942,-0.05859374400000039,-28517.0,0.375,-450.0,-427.0315920690178,0.0,0.25,1.4978025810000002,4.814604269028877,0.0,0.5400000214576721,-0.09000000357627869,85.69999694824219,-0.02532958984375,0.03912353515625,1.0421142578125,36.380001068115234,0.0,27.0,2.2617950439453125,2.285980224609375,Closing,0.0,0.0,0.0,0.0,0.0,0.0,0.0,0.0,
8.955269,0.0,0.0,9972.0,0.125,435.0,428.24059247000696,0.0,0.25,0.6970214130000001,4.778004792092225,-0.0012207029999995456,-14151.0,0.625,-420.0,-428.24059247000696,0.0,0.125,0.363769494,4.808538098901216,0.0,35443.0,2.125,442.5,428.24059247000696,0.0,0.0,3.19824186,4.785898948543459,-0.03906249599999967,-28658.0,0.625,-435.0,-428.24059247000696,0.0,0.25,1.483154145,4.802948544020418,0.0,0.5600000023841858,-0.15000000596046448,85.5999984741211,-0.0186767578125,-0.02752685546875,1.05926513671875,36.380001068115234,0.0,-39.0,2.26177978515625,2.2889404296875,Closing,0.0,0.0,0.0,0.0,0.0,0.0,0.0,0.0,
9.151314,0.0,0.0,10110.0,0.125,420.0,424.8953961344487,0.0,0.125,0.6982421160000001,4.812975549907741,0.0,-14288.0,0.625,-420.0,-424.8953961344487,0.0,0.125,0.363769494,4.84373233344482,0.0,35584.0,2.125,435.0,424.8953961344487,0.0,0.0,3.19824186,4.82092748458345,0.0,-28795.0,0.625,-412.5,-424.8953961344487,0.0,0.125,1.486816254,4.838101867979261,0.0,0.550000011920929,-0.1899999976158142,85.55000305175781,0.04864501953125,0.0137939453125,0.86810302734375,36.38999938964844,0.0,9.0,2.26104736328125,2.2898101806640625,Closing,0.0,0.0,0.0,0.0,0.0,0.0,0.0,0.125,
9.350896000000008,0.0,0.0,10176.0,0.125,412.5,423.9696204936888,0.0,0.25,0.69580071,4.824746445161359,0.0,-14355.0,0.625,-412.5,-423.9696204936888,0.0,0.25,0.367431603,4.855578449291936,0.0,35653.0,2.125,412.5,423.9696204936888,0.0,0.0,3.19824186,4.832717827554839,0.0,-28928.0,0.625,-420.0,-423.9696204936888,0.0,0.25,1.488036957,4.849934213629845,0.0,0.5400000214576721,-0.23000000417232513,85.4800033569336,-0.04229736328125,-0.04278564453125,0.85003662109375,36.38999938964844,0.0,-53.0,2.260345458984375,2.2912139892578125,Closing,0.0,0.0,0.0,0.0,0.0,0.0,0.0,0.125,
9.487447,0.0,0.0,10242.0,0.125,405.0,422.40583311735,0.0,0.25,0.701904225,4.848429690877773,0.0012207029999995456,-14486.0,0.75,-397.5,-422.40583311735,0.0,0.25,0.36865230600000004,4.8794130401490845,0.002441405999999091,35785.0,2.25,420.0,422.40583311735,0.0,0.0,3.2226559200000002,4.856440202417223,0.0,-28994.0,0.625,-405.0,-422.40583311735,0.0,0.25,1.491699066,4.873741098612378,0.0,0.5299999713897705,-0.20999999344348907,85.43000030517578,-0.0018310546875,0.00933837890625,1.03228759765625,36.380001068115234,0.0,0.0,2.2599029541015625,2.291748046875,Closing,0.0,0.0,0.0,0.0,0.0,0.0,0.0,0.0,
