Time,ClimberA1,ClimberA2,FRpos,FRCurrent,FRspeed,FRsetpoint,FRApos,FRACurrent,FREncpos,FREncSetpoint,FREncSpeed,FLpos,FLCurrent,FLspeed,FLsetpoint,FLApos,FLACurrent,FLEncpos,FLEncSetpoint,FLEncSpeed,BRpos,BRCurrent,BRspeed,BRsetpoint,BRApos,BRACurrent,BREncpos,BREncSetpoint,BREncSpeed,BLpos,BLCurrent,BLspeed,BLsetpoint,BLApos,BLACurrent,BLEncpos,BLEncSetpoint,BLEncSpeed,navx_Pitch,navx_Roll,navx_Yaw,navx_XAcc,navx_YAcc,navx_ZAcc,navx_Temp,navx_Bar,navx_Alt,navx_XDis,navx_YDis,GearPlacerState,ShootOutputV,ShootOutputCurrent,ShootEncPos,ShootEncVelocity,ShootSpeed,ShootSetpoint,CarouselSetpoint,CarouselCurrent,
0.256475999999966,0.0,0.0,-12646.0,0.0,0.0,NaN,0.0,0.125,0.808105386,NaN,0.0,12548.0,0.0,0.0,NaN,0.0,0.0,0.47851557600000005,NaN,0.0,-6959.0,0.0,0.0,NaN,0.0,0.0,3.3203121600000003,NaN,0.0,11895.0,0.125,0.0,NaN,0.0,0.125,1.589355306,NaN,0.0,0.2199999988079071,-0.699999988079071,176.88999938964844,0.0189208984375,0.05255126953125,1.009521484375,37.119998931884766,0.0,-28.0,1.415191650390625,2.0723419189453125,Closing,0.0,0.0,0.0,0.0,0.0,0.0,0.0,0.0,
0.47225799999997253,0.0,0.0,-12646.0,0.0,0.0,0.0,0.0,0.125,0.808105386,0.01,0.0,12548.0,0.0,0.0,-0.0,0.0,0.25,0.47851557600000005,0.01,0.0,-6959.0,0.0,0.0,0.0,0.0,0.0,3.3203121600000003,0.01,0.0,11895.0,0.125,0.0,-0.0,0.0,0.25,1.589355306,0.01,0.0,0.2199999988079071,-0.6800000071525574,176.88999938964844,0.01617431640625,0.0550537109375,0.99560546875,37.119998931884766,0.0,-25.0,1.4112701416015625,2.0592041015625,Closing,0.0,0.0,0.0,0.0,0.0,0.0,0.0,0.125,
0.5646359999999986,0.0,0.0,-12646.0,0.0,0.0,0.0,0.0,0.125,0.808105386,0.01,0.0,12548.0,0.0,0.0,-0.0,0.0,0.25,0.47851557600000005,0.01,0.0,-6959.0,0.0,0.0,0.0,0.0,0.0,3.330077784,0.01,0.0,11895.0,0.125,0.0,-0.0,0.0,0.25,1.594238118,0.01,0.0,0.20999999344348907,-0.6800000071525574,176.88999938964844,0.00933837890625,0.04534912109375,0.971923828125,37.11000061035156,0.0,-18.0,1.4069366455078125,2.044158935546875,Closing,0.0,0.0,0.0,0.0,0.0,0.0,0.0,0.0,
0.6549719999999506,0.0,0.0,-12638.0,1.875,90.0,728.4375,0.0,0.125,0.8007811680000001,0.01,0.0,12545.0,1.5,-67.5,-728.4375,0.0,0.25,0.47851557600000005,0.01,0.0,-6958.0,2.375,22.5,728.4375,0.0,0.0,3.331298487,0.01,0.0,11892.0,1.375,-120.0,-728.4375,0.0,0.25,1.618652178,0.01,0.0,0.2800000011920929,-0.4699999988079071,176.85000610351562,0.489013671875,-0.2393798828125,1.1285400390625,37.11000061035156,0.0,-510.0,1.4058990478515625,2.028961181640625,Closing,0.0,0.0,0.0,0.0,0.0,0.0,0.0,0.0,
0.7490179999999819,0.0,0.0,-12610.0,5.0,172.5,1043.4375,0.0,0.125,0.798339762,0.01,0.0,12510.0,6.75,-195.0,-1043.4375,0.0,0.25,0.4882812,0.01,0.0,-6937.0,8.625,127.5,1043.4375,0.0,0.0,3.330077784,0.01,0.0,11859.0,5.625,-180.0,-1043.4375,0.0,0.125,1.6613767830000001,0.01,0.0,0.1899999976158142,0.2199999988079071,176.80999755859375,0.1939697265625,-0.0211181640625,0.64373779296875,37.11000061035156,0.0,-192.0,1.3963623046875,2.014251708984375,Closing,0.0,0.0,0.0,0.0,0.0,0.0,0.0,0.0,
0.8445579999999608,0.0,0.0,-12610.0,7.5,247.5,1043.4375,0.0,0.125,0.798339762,0.01,0.0,12510.0,9.25,-315.0,-1043.4375,0.0,0.25,0.49316401200000004,0.01,0.0,-6883.0,10.375,262.5,1043.4375,0.0,0.0,3.330077784,0.01,0.0,11802.0,7.75,-285.0,-1043.4375,0.0,0.25,1.666259595,0.01,0.0,0.25,0.9300000071525574,176.75,0.2376708984375,0.04864501953125,0.9163818359375,37.11000061035156,0.0,-219.0,1.37548828125,2.0067291259765625,Closing,0.0,0.0,0.0,0.0,0.0,0.0,0.0,0.0,
0.9330609999999869,0.0,0.0,-12545.0,4.125,510.0,669.375,0.0,0.125,0.799560465,0.01,0.0,12446.0,5.25,-510.0,-669.375,0.0,0.25,0.49316401200000004,0.01,0.0,-6883.0,6.25,465.0,669.375,0.0,0.0,3.330077784,0.01,0.0,11802.0,5.125,-465.0,-669.375,0.0,0.25,1.6613767830000001,0.01,0.0,0.23999999463558197,1.2899999618530273,176.7100067138672,0.11566162109375,-0.07745361328125,0.9825439453125,37.11000061035156,0.0,-97.0,1.3534393310546875,2.005889892578125,Closing,0.0,0.0,0.0,0.0,0.0,0.0,0.0,0.0,
1.0297679999999818,0.0,0.0,-12453.0,0.125,570.0,0.0,0.0,0.125,0.8178710100000001,0.01,0.0,12349.0,0.0,-532.5,0.0,0.0,0.125,0.4882812,0.01,0.0,-6789.0,0.125,607.5,0.0,0.0,0.0,3.339843408,0.01,0.0,11710.0,0.125,-487.5,0.0,0.0,0.25,1.6320799110000002,0.01,0.0,0.20999999344348907,1.0800000429153442,176.58999633789062,-0.1644287109375,-0.20660400390625,0.99072265625,37.08000183105469,0.0,170.0,1.3199615478515625,2.006103515625,Closing,0.0,0.0,0.0,0.0,0.0,0.0,0.0,0.125,
1.1165799999999582,0.0,0.0,-12374.0,0.0,487.5,0.0,0.0,0.125,0.819091713,0.01,0.0,12275.0,0.0,-465.0,0.0,0.0,0.25,0.489501903,0.01,0.0,-6710.0,0.0,480.0,0.0,0.0,0.0,3.3642574680000004,0.01,0.0,11635.0,0.125,-525.0,0.0,0.0,0.125,1.641845535,0.01,0.0,0.20000000298023224,0.41999998688697815,176.4499969482422,0.02001953125,-0.03863525390625,0.97894287109375,37.08000183105469,0.0,-15.0,1.2969512939453125,2.0082244873046875,Closing,0.0,0.0,0.0,0.0,0.0,0.0,0.0,0.0,
1.210301999999967,0.0,0.0,-12312.0,0.0,487.5,0.0,0.0,0.125,0.8178710100000001,0.01,0.0,12205.0,0.0,-442.5,0.0,0.0,0.25,0.4882812,0.01,0.0,-6636.0,0.0,465.0,0.0,0.0,0.0,3.3642574680000004,0.01,0.0,11574.0,0.125,-390.0,0.0,0.0,0.125,1.651611159,0.01,0.0,0.23000000417232513,0.20999999344348907,176.3800048828125,-0.0487060546875,-0.04425048828125,0.8438720703125,37.08000183105469,0.0,48.0,1.278228759765625,2.00970458984375,Closing,0.0,0.0,0.0,0.0,0.0,0.0,0.0,0.125,
1.3056239999999526,0.0,0.0,-12312.0,0.0,375.0,0.0,0.0,0.125,0.8178710100000001,0.01,0.0,12205.0,0.0,-397.5,0.0,0.0,0.25,0.4882812,0.01,0.0,-6636.0,0.0,390.0,0.0,0.0,0.0,3.3642574680000004,0.01,0.0,11574.0,0.0,-390.0,0.0,0.0,0.25,1.6613767830000001,0.01,0.0,0.2199999988079071,-0.23000000417232513,176.42999267578125,-0.0850830078125,0.01983642578125,0.91412353515625,37.08000183105469,0.0,82.0,1.261566162109375,2.009735107421875,Closing,0.0,0.0,0.0,0.0,0.0,0.0,0.0,0.0,
1.3942669999999926,0.0,0.0,-12255.0,0.0,292.5,0.0,0.0,0.125,0.8166503070000001,0.01,0.0,12148.0,0.0,-315.0,0.0,0.0,0.25,0.489501903,0.01,0.0,-6580.0,0.0,292.5,0.0,0.0,0.0,3.3630367650000004,0.01,0.0,11518.0,0.125,-292.5,0.0,0.0,0.25,1.6625974860000001,0.01,0.0,0.20000000298023224,-0.5699999928474426,176.4600067138672,-0.09588623046875,-0.0050048828125,1.05450439453125,37.08000183105469,0.0,84.0,1.2514801025390625,2.0098724365234375,Closing,0.0,0.0,0.0,0.0,0.0,0.0,0.0,0.0,
1.4894959999999846,0.0,0.0,-12221.0,0.0,210.0,0.0,0.0,0.125,0.8178710100000001,0.01,0.0012207029999995456,12110.0,0.0,-217.5,0.0,0.0,0.25,0.489501903,0.01,0.0,-6544.0,0.0,202.5,0.0,0.0,0.0,3.3642574680000004,0.01,0.0,11480.0,0.0,-210.0,0.0,0.0,0.25,1.6613767830000001,0.01,0.0,0.25,-0.8700000047683716,176.5399932861328,-0.11181640625,-0.05126953125,1.0089111328125,37.08000183105469,0.0,92.0,1.2454376220703125,2.010986328125,Closing,0.0,0.0,0.0,0.0,0.0,0.0,0.0,0.0,
1.580023999999976,0.0,0.0,-12203.0,0.0,135.0,0.0,0.0,0.125,0.8178710100000001,0.01,-0.0012207029999995456,12092.0,0.0,-120.0,0.0,0.0,0.25,0.4882812,0.01,0.0,-6525.0,0.0,127.5,0.0,0.0,0.0,3.3642574680000004,0.01,0.0,11462.0,0.125,-127.5,0.0,0.0,0.25,1.6613767830000001,0.01,0.0,0.20000000298023224,-1.1100000143051147,176.50999450683594,-0.12799072265625,-0.04473876953125,1.10675048828125,37.04999923706055,0.0,103.0,1.2442474365234375,2.0138397216796875,Closing,0.0,0.0,0.0,0.0,0.0,0.0,0.0,0.0,
1.6689719999999506,0.0,0.0,-12203.0,0.0,37.5,0.0,0.0,0.125,0.8178710100000001,0.01,0.0,12092.0,0.0,-45.0,0.0,0.0,0.25,0.489501903,0.01,0.0,-6525.0,0.0,45.0,0.0,0.0,0.0,3.3642574680000004,0.01,0.0,11462.0,0.125,-30.0,0.0,0.0,0.25,1.6613767830000001,0.01,0.0,0.2199999988079071,-1.399999976158142,176.52999877929688,-0.05096435546875,-9.765625E-4,0.93890380859375,37.04999923706055,0.0,27.0,1.2471771240234375,2.0180206298828125,Closing,0.0,0.0,0.0,0.0,0.0,0.0,0.0,0.0,
1.7594099999999744,0.0,0.0,-12202.0,0.0,0.0,0.0,0.0,0.125,0.8178710100000001,0.01,0.0,12090.0,0.0,0.0,0.0,0.0,0.25,0.4882812,0.01,0.0,-6523.0,0.0,0.0,0.0,0.0,0.0,3.3630367650000004,0.01,0.0,11459.0,0.125,0.0,0.0,0.0,0.25,1.6625974860000001,0.01,0.0,0.20000000298023224,-1.3799999952316284,176.52999877929688,0.025146484375,0.05462646484375,1.06207275390625,37.04999923706055,0.0,-47.0,1.2492523193359375,2.01776123046875,Closing,0.0,0.0,0.0,0.0,0.0,0.0,0.0,0.0,
1.8529869999999646,0.0,0.0,-12203.0,0.125,-7.5,-157.5,0.0,6.375,0.526122993,3.6991882500000015,0.0,12090.0,0.125,0.0,157.5,0.0,9.125,0.156249984,3.7228275000000015,0.0,-6523.0,0.375,0.0,157.5,0.0,5.5,3.648681267,1.2351000000000012,0.0,11459.0,0.375,0.0,-157.5,0.0,6.75,1.926269334,1.2395000000000012,0.0,0.20999999344348907,-1.2799999713897705,176.5500030517578,0.09991455078125,0.1041259765625,1.09527587890625,37.04999923706055,0.0,-118.0,1.2469482421875,2.0156402587890625,Closing,0.0,0.0,0.0,0.0,0.0,0.0,0.0,0.0,
1.9476939999999594,0.0,0.0,-12202.0,0.125,0.0,-216.5625,0.0,1.875,4.7583002940000005,3.6991882500000015,0.0,12093.0,0.25,15.0,216.5625,0.0,1.5,4.429931187,3.7228275000000015,0.0,-6521.0,0.375,7.5,216.5625,0.0,1.75,4.378661661000001,1.2351000000000012,0.0,11448.0,0.375,-67.5,-216.5625,0.0,1.875,2.6440426980000002,1.2395000000000012,0.0,0.23999999463558197,-1.149999976158142,176.52999877929688,-0.024169921875,-0.0750732421875,0.89703369140625,37.04999923706055,0.0,1.0,1.2413177490234375,2.0141754150390625,Closing,0.0,0.0,0.0,0.0,0.0,0.0,0.0,0.0,
2.045737999999954,0.0,0.0,-12202.0,1.75,0.0,-472.49999999999994,0.0,1.25,4.244384331,3.6991882500000015,0.0,12093.0,1.25,112.5,472.49999999999994,0.0,0.5,4.034423415,3.7228275000000015,0.0,-6513.0,1.75,45.0,472.49999999999994,0.0,0.125,4.849853019,1.2351000000000012,0.0,11426.0,1.0,-142.5,-472.49999999999994,0.0,0.25,3.146972334,1.2395000000000012,0.0,0.6000000238418579,-1.149999976158142,176.63999938964844,-0.05780029296875,0.12347412109375,1.08526611328125,37.029998779296875,0.0,42.0,1.238311767578125,2.011199951171875,Closing,0.0,0.0,0.0,0.0,0.0,0.0,0.0,0.0,
2.165804999999993,0.0,0.0,-12205.0,2.875,-97.5,-570.9375,0.0,1.0,4.261474173,3.6991882500000015,0.0,12136.0,3.0,127.5,570.9375,0.0,0.5,4.007567949,3.7228275000000015,0.0,-6492.0,3.375,105.0,570.9375,0.0,0.625,4.807128414,1.2351000000000012,0.0,11399.0,1.875,-135.0,-570.9375,0.0,0.875,3.129882492,1.2395000000000012,0.0,0.7599999904632568,-1.0800000429153442,176.52000427246094,-0.05517578125,-0.01617431640625,0.98095703125,37.029998779296875,0.0,34.0,1.2386016845703125,2.0045166015625,Closing,0.0,0.0,0.0,0.0,0.0,0.0,0.0,0.0,
2.2557729999999867,0.0,0.0,-12228.0,4.0,-165.0,-590.625,0.0,0.375,4.429931187,3.6991882500000015,0.0,12136.0,4.75,180.0,590.625,0.0,0.5,4.0881343470000004,3.7228275000000015,0.0,-6492.0,4.5,157.5,590.625,0.0,0.25,4.647216321,1.2351000000000012,0.0,11399.0,3.375,-187.5,-590.625,0.0,0.5,2.934570012,1.2395000000000012,0.0,0.7900000214576721,-1.1100000143051147,176.47000122070312,0.0343017578125,0.0457763671875,1.017333984375,37.029998779296875,0.0,-51.0,1.238922119140625,2.0,Closing,0.0,0.0,0.0,0.0,0.0,0.0,0.0,0.125,
2.348648999999976,0.0,0.0,-12261.0,4.75,-217.5,-590.625,0.0,0.375,4.572753438,3.6991882500000015,0.0,12166.0,5.625,210.0,590.625,0.0,0.5,4.172362854,3.7228275000000015,0.0,-6461.0,5.625,225.0,590.625,0.0,0.125,4.554442893,1.2351000000000012,0.0,11372.0,3.875,-195.0,-590.625,0.0,0.25,2.824706742,1.2395000000000012,0.0,1.1299999952316284,-1.0499999523162842,176.44000244140625,0.01153564453125,0.13250732421875,1.06939697265625,37.029998779296875,0.0,-24.0,1.2386016845703125,1.993896484375,Closing,0.0,0.0,0.0,0.0,0.0,0.0,0.0,0.0,
2.4445469999999623,0.0,0.0,-12318.0,4.875,-330.0,-590.625,0.0,0.25,4.609374528,3.6991882500000015,0.0,12218.0,6.125,330.0,590.625,0.0,0.25,4.227294489,3.7228275000000015,0.0,-6408.0,5.25,337.5,590.625,0.0,0.0,4.5056147730000005,1.2351000000000012,0.0,11325.0,4.125,-300.0,-590.625,0.0,0.25,2.806396197,1.2395000000000012,0.0,1.5399999618530273,-1.0399999618530273,176.4199981689453,0.02642822265625,0.0413818359375,0.7911376953125,37.029998779296875,0.0,-39.0,1.238525390625,1.9820098876953125,Closing,0.0,0.0,0.0,0.0,0.0,0.0,0.0,0.125,
2.531869999999995,0.0,0.0,-12318.0,4.125,-465.0,-590.625,0.0,0.25,4.583739765000001,3.6991882500000015,0.0,12300.0,5.0,472.5,590.625,0.0,0.0,4.232177301,3.7228275000000015,0.0,-6327.0,4.625,472.5,590.625,0.0,0.0,4.514159694,1.2351000000000012,0.0,11247.0,3.5,-472.5,-590.625,0.0,0.25,2.824706742,1.2395000000000012,0.0,1.899999976158142,-0.9900000095367432,176.47999572753906,-0.01055908203125,0.09716796875,1.045166015625,37.040000915527344,0.0,-3.0,1.23834228515625,1.96490478515625,Closing,0.0,0.0,0.0,0.0,0.0,0.0,0.0,0.0,
2.6276479999999864,0.0,0.0,-12400.0,3.375,-562.5,-590.625,0.0,0.25,4.543456566000001,3.6991882500000015,0.0,12300.0,3.875,577.5,590.625,0.0,0.0,4.232177301,3.7228275000000015,0.0,-6327.0,3.875,570.0,590.625,0.0,0.125,4.544677269,1.2351000000000012,0.0,11247.0,3.0,-525.0,-590.625,0.0,0.25,2.8491208020000003,1.2395000000000012,0.0,2.0,-0.9800000190734863,176.39999389648438,-0.0037841796875,0.0125732421875,0.95587158203125,37.040000915527344,0.0,-13.0,1.2375335693359375,1.9456024169921875,Closing,0.0,0.0,0.0,0.0,0.0,0.0,0.0,0.0,
2.7126570000000063,0.0,0.0,-12497.0,2.625,-637.5,-590.625,0.0,0.25,4.526366724,3.6991882500000015,0.0,12398.0,3.125,630.0,590.625,0.0,0.0,4.232177301,3.7228275000000015,0.0,-6231.0,3.375,615.0,590.625,0.0,0.0,4.554442893,1.2351000000000012,0.0,11156.0,2.625,-615.0,-590.625,0.0,0.125,2.8515622080000003,1.2395000000000012,0.0,2.109999895095825,-1.0099999904632568,176.27999877929688,-0.03863525390625,0.0704345703125,1.18646240234375,37.040000915527344,0.0,19.0,1.2372283935546875,1.925445556640625,Closing,0.0,0.0,0.0,0.0,0.0,0.0,0.0,0.0,
2.806445999999996,0.0,0.0,-12608.0,2.0,-690.0,-590.625,0.0,0.125,4.526366724,3.6991882500000015,0.0,12510.0,2.25,705.0,590.625,0.0,0.0,4.232177301,3.7228275000000015,0.0,-6125.0,2.5,667.5,590.625,0.0,0.0,4.559325705,1.2351000000000012,0.0,11054.0,2.0,-652.5,-590.625,0.0,0.125,2.8540036140000002,1.2395000000000012,0.0,2.180000066757202,-0.8899999856948853,176.02000427246094,-0.0487060546875,0.0048828125,1.0523681640625,37.040000915527344,0.0,29.0,1.2371063232421875,1.9012451171875,Closing,0.0,0.0,0.0,0.0,0.0,0.0,0.0,0.0,
2.900247999999963,0.0,0.0,-12723.0,1.375,-712.5,-590.625,0.0,0.125,4.517821803,3.6991882500000015,0.0,12624.0,1.75,705.0,590.625,0.0,0.0,4.232177301,3.7228275000000015,0.0,-6013.0,2.25,690.0,590.625,0.0,0.0,4.560546408,1.2351000000000012,0.0,10942.0,1.875,-682.5,-590.625,0.0,0.125,2.8540036140000002,1.2395000000000012,0.0,2.140000104904175,-0.9300000071525574,175.7899932861328,0.03759765625,-0.06378173828125,1.062255859375,37.040000915527344,0.0,-62.0,1.2382354736328125,1.88397216796875,Closing,0.0,0.0,0.0,0.0,0.0,0.0,0.0,0.0,
2.993887999999977,0.0,0.0,-12723.0,0.0,-652.5,0.0,0.0,0.125,4.510497585,3.6991882500000015,0.0012207029999995456,12624.0,0.125,637.5,0.0,0.0,0.0,4.232177301,3.7228275000000015,0.0012207029999995456,-6013.0,0.125,675.0,0.0,0.0,0.0,4.5581050020000005,1.2351000000000012,0.0,10942.0,0.125,-547.5,0.0,0.0,0.125,2.857665723,1.2395000000000012,0.0,1.8200000524520874,-0.9399999976158142,175.63999938964844,-0.03778076171875,-0.0738525390625,1.11981201171875,37.040000915527344,0.0,10.0,1.238189697265625,1.869293212890625,Closing,0.0,0.0,0.0,0.0,0.0,0.0,0.0,0.0,
3.0894799999999814,0.0,0.0,-12802.0,0.0,-435.0,0.0,0.0,0.125,4.512938991,3.6991882500000015,-0.014648435999999876,12703.0,0.0,480.0,0.0,0.0,0.0,4.232177301,3.7228275000000015,-0.0012207029999995456,-5920.0,0.0,487.5,0.0,0.0,0.0,4.576415547,1.2351000000000012,0.0,10856.0,0.125,-517.5,0.0,0.0,0.125,2.857665723,1.2395000000000012,0.004882811999999959,1.2899999618530273,-0.9300000071525574,175.57000732421875,0.02398681640625,-0.22344970703125,1.03155517578125,37.02000045776367,0.0,-59.0,1.2369384765625,1.861236572265625,Closing,0.0,0.0,0.0,0.0,0.0,0.0,0.0,0.0,
3.1808839999999616,0.0,0.0,-12887.0,0.0,-495.0,0.0,0.0,0.125,4.512938991,3.6991882500000015,0.0,12785.0,0.0,457.5,0.0,0.0,0.0,4.232177301,3.7228275000000015,0.0,-5841.0,0.0,480.0,0.0,0.0,0.0,4.57763625,1.2351000000000012,0.0183105449999994,10778.0,0.125,-450.0,0.0,0.0,0.125,2.858886426,1.2395000000000012,0.0,0.7200000286102295,-0.8600000143051147,175.52000427246094,-0.068115234375,-0.0675048828125,1.0364990234375,37.02000045776367,0.0,45.0,1.2343292236328125,1.861175537109375,Closing,0.0,0.0,0.0,0.0,0.0,0.0,0.0,0.0,
3.2713279999999796,0.0,0.0,-12935.0,0.125,-315.0,-213.28125,0.0,3.375,4.252929252,3.0159423668524887,0.0,12838.0,0.0,322.5,213.28125,0.0,4.5,4.533690942000001,4.410439589772222,0.0,-5790.0,1.75,315.0,-213.28125,0.0,2.625,4.9157709810000005,1.9194747329772885,0.0,10726.0,1.75,-307.5,213.28125,0.0,4.0,2.574462627,0.5526872062785588,0.0,0.07000000029802322,-0.8199999928474426,175.41000366210938,-0.0020751953125,-0.158203125,0.95562744140625,37.02000045776367,0.0,-24.0,1.2333526611328125,1.8691253662109375,Closing,0.0,0.0,0.0,0.0,0.0,0.0,0.0,0.125,
3.3664379999999654,0.0,0.0,-12935.0,0.125,-165.0,-442.96875,0.0,0.5,3.8415523410000003,3.0159423668524887,0.0,12858.0,0.125,150.0,442.96875,0.0,0.5,4.9255366050000005,4.410439589772222,0.0,-5781.0,3.5,135.0,-442.96875,0.0,0.25,0.32226559200000005,1.9194747329772885,0.0,10724.0,2.875,-37.5,442.96875,0.0,0.625,2.192382588,0.5526872062785588,0.0,-0.6700000166893005,-0.7699999809265137,174.9499969482422,0.03375244140625,-0.07647705078125,1.03948974609375,37.02000045776367,0.0,-53.0,1.23101806640625,1.8858489990234375,Closing,0.0,0.0,0.0,0.0,0.0,0.0,0.0,0.0,
3.462621999999974,0.0,0.0,-12953.0,0.375,-52.5,-541.40625,0.0,0.25,3.72314415,3.0159423668524887,0.0,12858.0,0.75,165.0,541.40625,0.0,0.125,0.12573240900000002,4.410439589772222,0.0,-5781.0,4.375,-120.0,-541.40625,0.0,0.0,0.426025347,1.9194747329772885,0.0,10724.0,3.25,157.5,541.40625,0.0,0.375,1.9726560480000002,0.5526872062785588,0.0,-0.38999998569488525,-0.800000011920929,173.77999877929688,-0.06439208984375,0.1126708984375,1.09771728515625,37.02000045776367,0.0,61.0,1.227813720703125,1.9055328369140625,Closing,0.0,0.0,0.0,0.0,0.0,0.0,0.0,0.0,
3.558548999999999,0.0,0.0,-12988.0,0.375,-352.5,-557.8125,0.0,0.375,3.7268062590000004,3.0159423668524887,0.0,12898.0,1.25,232.5,557.8125,0.0,0.25,0.117187488,4.410439589772222,0.0,-5810.0,5.0,-202.5,-557.8125,0.0,0.125,0.430908159,1.9194747329772885,0.0,10757.0,4.0,225.0,557.8125,0.0,0.625,1.954345503,0.5526872062785588,0.0,-0.25999999046325684,-0.7599999904632568,171.35000610351562,0.0064697265625,-0.0667724609375,0.9652099609375,37.040000915527344,0.0,-28.0,1.2255096435546875,1.924835205078125,Closing,0.0,0.0,0.0,0.0,0.0,0.0,0.0,0.0,
3.6531989999999643,0.0,0.0,-13034.0,0.625,-262.5,-574.21875,0.0,0.25,3.7841793000000004,3.0159423668524887,0.0,12931.0,2.375,217.5,574.21875,0.0,0.25,0.078124992,4.410439589772222,0.0,-5848.0,5.75,-247.5,-574.21875,0.0,0.25,0.397949178,1.9194747329772885,0.0,10797.0,4.625,255.0,574.21875,0.0,0.375,2.083740021,0.5526872062785588,0.0,-0.25999999046325684,-0.8700000047683716,169.14999389648438,-0.0733642578125,-0.00439453125,1.09417724609375,37.040000915527344,0.0,55.0,1.2224578857421875,1.9276885986328125,Closing,0.0,0.0,0.0,0.0,0.0,0.0,0.0,0.125,
3.747283999999985,0.0,0.0,-13073.0,2.125,-232.5,-574.21875,0.0,0.25,3.8317867170000004,3.0159423668524887,0.0,12973.0,2.75,240.0,574.21875,0.0,0.25,4.940185041,4.410439589772222,0.0,-5888.0,7.375,-247.5,-574.21875,0.0,0.125,0.384521445,1.9194747329772885,0.0,10843.0,5.625,285.0,574.21875,0.0,0.375,2.186279073,0.5526872062785588,0.0,-0.20000000298023224,-0.8199999928474426,166.80999755859375,0.0345458984375,0.0303955078125,0.93701171875,37.040000915527344,0.0,-39.0,1.2196044921875,1.9277496337890625,Closing,0.0,0.0,0.0,0.0,0.0,0.0,0.0,0.0,
3.8397939999999946,0.0,0.0,-13073.0,2.25,-322.5,-574.21875,0.0,0.125,3.853759371,3.0159423668524887,0.0,13038.0,2.875,375.0,574.21875,0.0,0.125,4.829101068,4.410439589772222,0.0,-5951.0,7.25,-345.0,-574.21875,0.0,0.125,0.379638633,1.9194747329772885,0.0,10908.0,5.875,360.0,574.21875,0.0,0.25,2.213134539,0.5526872062785588,0.0,-0.05000000074505806,-0.6800000071525574,163.49000549316406,0.0167236328125,0.02911376953125,1.0858154296875,37.040000915527344,0.0,-19.0,1.216796875,1.9264068603515625,Closing,0.0,0.0,0.0,0.0,0.0,0.0,0.0,0.0,
3.939315999999992,0.0,0.0,-13137.0,2.0,-480.0,-639.84375,0.0,0.25,3.854980074,3.0159423668524887,0.0,13038.0,2.5,502.5,639.84375,0.0,0.25,4.766845215,4.410439589772222,0.0,-5951.0,6.875,-495.0,-639.84375,0.0,0.125,0.37475582100000004,1.9194747329772885,0.0,10908.0,6.0,472.5,639.84375,0.0,0.25,2.213134539,0.5526872062785588,0.0,0.20999999344348907,-0.5699999928474426,158.80999755859375,0.03326416015625,0.01904296875,1.19598388671875,37.040000915527344,0.0,-36.0,1.21746826171875,1.923614501953125,Closing,0.0,0.0,0.0,0.0,0.0,0.0,0.0,0.125,
4.032372999999963,0.0,0.0,-13235.0,1.0,-652.5,-705.46875,0.0,0.25,3.852538668,3.0159423668524887,0.0,13134.0,2.125,622.5,705.46875,0.0,0.25,4.837645989,4.410439589772222,0.0,-6049.0,5.75,-667.5,-705.46875,0.0,0.125,0.363769494,1.9194747329772885,0.0,10996.0,5.75,600.0,705.46875,0.0,0.25,2.183837667,0.5526872062785588,0.0,0.3400000035762787,-0.4000000059604645,151.72999572753906,-0.0146484375,-0.01141357421875,1.1429443359375,37.040000915527344,0.0,-2.0,1.21734619140625,1.9167327880859375,Closing,0.0,0.0,0.0,0.0,0.0,0.0,0.0,0.125,
4.126348999999988,0.0,0.0,-13361.0,0.375,-787.5,-721.875,0.0,0.25,3.8403316380000003,3.0159423668524887,0.0,13245.0,1.75,705.0,721.875,0.0,0.25,4.892577624,4.410439589772222,0.0,-6171.0,4.625,-765.0,-721.875,0.0,0.125,0.364990197,1.9194747329772885,0.0,11107.0,4.875,697.5,721.875,0.0,0.125,2.178954855,0.5526872062785588,0.0,0.36000001430511475,-0.3499999940395355,144.61000061035156,-0.0048828125,-0.01953125,0.832763671875,36.97999954223633,0.0,-14.0,1.217315673828125,1.9110565185546875,Closing,0.0,0.0,0.0,0.0,0.0,0.0,0.0,0.125,
4.212326000000001,0.0,0.0,-13478.0,0.0,-802.5,0.0,0.0,0.125,3.8391109350000003,3.0159423668524887,0.0,13344.0,0.0,667.5,0.0,0.0,0.125,4.908446763000001,4.410439589772222,0.0,-6294.0,0.0,-780.0,0.0,0.0,0.125,0.33569332500000004,1.9194747329772885,0.0,11205.0,0.0,667.5,0.0,0.0,0.125,2.183837667,0.5526872062785588,0.0,0.38999998569488525,-0.4399999976158142,137.1300048828125,0.0225830078125,-0.066162109375,1.18280029296875,36.97999954223633,0.0,-73.0,1.21832275390625,1.9050140380859375,Closing,0.0,0.0,0.0,0.0,0.0,0.0,0.0,0.125,
4.3069929999999585,0.0,0.0,-13478.0,0.0,-577.5,0.0,0.0,0.125,3.8391109350000003,3.0159423668524887,0.0,13344.0,0.0,577.5,0.0,0.0,0.125,4.908446763000001,4.410439589772222,0.0,-6294.0,0.0,-637.5,0.0,0.0,0.0,0.324706998,1.9194747329772885,0.0,11205.0,0.125,577.5,0.0,0.0,0.125,2.182616964,0.5526872062785588,0.0,0.30000001192092896,-0.4399999976158142,131.11000061035156,-0.06231689453125,-0.0440673828125,1.0020751953125,36.97999954223633,0.0,-1.0,1.2188262939453125,1.9002685546875,Closing,0.0,0.0,0.0,0.0,0.0,0.0,0.0,0.0,
4.394910999999964,0.0,0.0,-13567.0,0.0,-540.0,0.0,0.0,0.125,3.8378902320000003,3.0159423668524887,0.0,13439.0,0.0,502.5,0.0,0.0,0.125,4.909667466,4.410439589772222,0.0,-6390.0,0.0,-555.0,0.0,0.0,0.0,0.319824186,1.9194747329772885,-0.009765623999999917,11297.0,0.125,480.0,0.0,0.0,0.125,2.182616964,0.5526872062785588,-0.0012207029999999897,0.3700000047683716,-0.4300000071525574,126.58000183105469,-0.05419921875,0.03924560546875,1.07843017578125,36.97999954223633,0.0,53.0,1.21942138671875,1.897308349609375,Closing,0.0,0.0,0.0,0.0,0.0,0.0,0.0,0.125,
4.488255999999994,0.0,0.0,-13629.0,0.0,-382.5,0.0,0.0,0.125,3.8391109350000003,3.0159423668524887,0.0,13501.0,0.0,345.0,0.0,0.0,0.125,4.908446763000001,4.410439589772222,0.0,-6451.0,0.0,-337.5,0.0,0.0,0.0,0.321044889,1.9194747329772885,-0.004882811999999959,11359.0,0.125,352.5,0.0,0.0,0.125,2.183837667,0.5526872062785588,0.0,0.3100000023841858,-0.47999998927116394,123.0199966430664,-0.02734375,0.1070556640625,0.9412841796875,36.97999954223633,0.0,95.0,1.2207183837890625,1.896087646484375,Closing,0.0,0.0,0.0,0.0,0.0,0.0,0.0,0.0,
4.5851379999999775,0.0,0.0,-13662.0,0.0,-217.5,0.0,0.0,0.125,3.8391109350000003,3.0159423668524887,0.0,13534.0,0.0,225.0,0.0,0.0,0.125,4.908446763000001,4.410439589772222,0.0,-6484.0,0.0,-187.5,0.0,0.0,0.0,0.321044889,1.9194747329772885,0.0,11394.0,0.125,187.5,0.0,0.0,0.125,2.18505837,0.5526872062785588,0.0,0.3700000047683716,-0.4300000071525574,121.18000030517578,2.44140625E-4,0.010498046875,0.99432373046875,37.0,0.0,0.0,1.2223052978515625,1.8947906494140625,Closing,0.0,0.0,0.0,0.0,0.0,0.0,0.0,0.125,
4.688348999999987,0.0,0.0,-13662.0,0.0,-60.0,0.0,0.0,0.125,3.8391109350000003,3.0159423668524887,0.0,13539.0,0.0,60.0,0.0,0.0,0.125,4.909667466,4.410439589772222,0.0,-6490.0,0.0,-67.5,0.0,0.0,0.0,0.321044889,1.9194747329772885,0.0,11402.0,0.125,75.0,0.0,0.0,0.125,2.183837667,0.5526872062785588,0.0,0.30000001192092896,-0.5099999904632568,121.0,-0.0185546875,0.01824951171875,1.11505126953125,37.0,0.0,14.0,1.2222137451171875,1.8948974609375,Closing,0.0,0.0,0.0,0.0,0.0,0.0,0.0,0.125,
4.78532699999999,0.0,0.0,-13667.0,0.0,0.0,0.0,0.0,0.125,3.8403316380000003,3.0159423668524887,0.0,13539.0,0.0,0.0,0.0,0.0,0.125,4.90722606,4.410439589772222,0.0,-6490.0,0.0,0.0,0.0,0.0,0.0,0.321044889,1.9194747329772885,0.0,11402.0,0.125,0.0,0.0,0.0,0.125,2.183837667,0.5526872062785588,0.0,0.3799999952316284,-0.5099999904632568,121.37000274658203,-0.02227783203125,-0.03863525390625,0.96533203125,37.0,0.0,-31.0,1.222259521484375,1.8950042724609375,Closing,0.0,0.0,0.0,0.0,0.0,0.0,0.0,0.125,
4.871744000000006,0.0,0.0,-13667.0,0.0,0.0,0.0,0.0,0.125,3.8403316380000003,3.0159423668524887,0.0,13539.0,0.0,0.0,0.0,0.0,0.125,4.909667466,4.410439589772222,0.0,-6490.0,0.0,0.0,0.0,0.0,0.0,0.319824186,1.9194747329772885,0.0,11402.0,0.125,0.0,0.0,0.0,0.125,2.183837667,0.5526872062785588,0.0,0.3499999940395355,-0.5,121.52999877929688,-0.04669189453125,0.00128173828125,1.0244140625,37.0,0.0,15.0,1.2214202880859375,1.8965911865234375,Closing,0.0,0.0,0.0,0.0,0.0,0.0,0.0,0.0,
4.97299099999998,0.0,0.0,-13667.0,0.125,0.0,132.28346407413483,0.0,0.125,3.8293453110000004,3.0159423668524865,0.0,13539.0,0.0,0.0,-132.28346407413483,0.0,0.125,4.90722606,4.41043958977222,0.0,-6490.0,0.125,0.0,132.28346407413483,0.0,0.0,0.319824186,1.919474732977291,0.0,11402.0,0.375,0.0,-132.28346407413483,0.0,0.125,2.182616964,0.552687206278561,0.0,0.38999998569488525,-0.5199999809265137,121.44000244140625,0.01812744140625,0.05548095703125,1.0255126953125,37.0,0.0,26.0,1.2214508056640625,1.8968048095703125,Closing,0.0,0.0,0.0,0.0,0.0,0.0,0.0,0.0,
5.0719869999999645,0.0,0.0,-13651.0,2.125,60.0,744.0945088863373,0.0,0.125,3.8342281230000004,3.0159423668524865,0.0,13531.0,3.25,-52.5,-744.0945088863373,0.0,0.125,4.93164012,4.41043958977222,0.0,-6486.0,2.875,22.5,744.0945088863373,0.0,0.0,0.311279265,1.919474732977291,0.0,11392.0,2.5,-60.0,-744.0945088863373,0.0,0.125,2.193603291,0.552687206278561,0.0,0.3100000023841858,-0.5299999713897705,121.69999694824219,-3.0517578125E-4,0.126220703125,0.8509521484375,37.0,0.0,99.0,1.221710205078125,1.8952789306640625,Closing,0.0,0.0,0.0,0.0,0.0,0.0,0.0,0.0,
5.172612999999954,0.0,0.0,-13617.0,4.125,195.0,909.4488233327866,0.0,0.125,3.8354488260000004,3.015942366852486,0.0,13495.0,6.0,-217.5,-909.4488233327866,0.0,0.125,4.951171368000001,4.41043958977222,0.0,-6457.0,6.0,172.5,909.4488233327866,0.0,0.0,0.312499968,1.9194747329772914,0.0,11360.0,4.75,-202.5,-909.4488233327866,0.0,0.25,2.231445084,0.552687206278561,0.0,0.41999998688697815,-0.5899999737739563,124.2300033569336,-0.011962890625,0.04925537109375,1.08905029296875,37.0,0.0,34.0,1.222076416015625,1.894683837890625,Closing,0.0,0.0,0.0,0.0,0.0,0.0,0.0,0.0,
5.275464999999968,0.0,0.0,-13617.0,5.0,405.0,909.4488233327866,0.0,0.125,3.8354488260000004,3.015942366852486,0.0,13415.0,6.625,-457.5,-909.4488233327866,0.0,0.25,4.952392071,4.41043958977222,0.0,-6378.0,5.75,442.5,909.4488233327866,0.0,0.0,0.31005856200000004,1.9194747329772914,0.0,11275.0,4.5,-480.0,-909.4488233327866,0.0,0.25,2.2216794600000003,0.552687206278561,0.0,0.4000000059604645,-0.6800000071525574,129.4499969482422,-0.01806640625,0.0772705078125,1.0335693359375,37.0,0.0,57.0,1.222320556640625,1.893798828125,Closing,0.0,0.0,0.0,0.0,0.0,0.0,0.0,0.0,
5.379568999999959,0.0,0.0,-13538.0,4.5,615.0,909.4488233327866,0.0,0.125,3.8342281230000004,3.015942366852486,0.0,13415.0,5.625,-637.5,-909.4488233327866,0.0,0.25,4.951171368000001,4.41043958977222,0.0,-6378.0,5.125,645.0,909.4488233327866,0.0,0.0,0.31616207700000004,1.9194747329772914,0.0,11275.0,3.75,-660.0,-909.4488233327866,0.0,0.25,2.1972654,0.552687206278561,0.0,0.36000001430511475,-0.7400000095367432,135.77999877929688,-0.04022216796875,-0.00970458984375,0.92974853515625,37.0,0.0,9.0,1.2237091064453125,1.8934326171875,Closing,0.0,0.0,0.0,0.0,0.0,0.0,0.0,0.0,
5.4735019999999786,0.0,0.0,-13423.0,3.75,772.5,925.9842485189438,0.0,0.125,3.8342281230000004,3.015942366852486,0.0,13296.0,4.25,-817.5,-925.9842485189438,0.0,0.25,4.949950665,4.41043958977222,0.0,-6258.0,3.875,825.0,925.9842485189438,0.0,0.0,0.311279265,1.9194747329772914,0.0,11155.0,3.0,-825.0,-925.9842485189438,0.0,0.25,2.194823994,0.5526872062785609,0.0,0.3700000047683716,-0.800000011920929,144.66000366210938,-0.076904296875,-0.04486083984375,1.005615234375,37.0,0.0,21.0,1.2259368896484375,1.892364501953125,Closing,0.0,0.0,0.0,0.0,0.0,0.0,0.0,0.125,
5.574920999999973,0.0,0.0,-13290.0,3.5,847.5,925.9842485189438,0.0,0.125,3.8342281230000004,3.015942366852486,0.0,13150.0,3.125,-915.0,-925.9842485189438,0.0,0.25,4.949950665,4.41043958977222,0.0,-6112.0,3.25,907.5,925.9842485189438,0.0,0.0,0.311279265,1.9194747329772914,0.0,11008.0,2.25,-930.0,-925.9842485189438,0.0,0.25,2.193603291,0.5526872062785609,0.0,0.25,-0.8799999952316284,153.05999755859375,-0.05267333984375,0.08990478515625,0.99310302734375,37.0,0.0,71.0,1.2274627685546875,1.89227294921875,Closing,0.0,0.0,0.0,0.0,0.0,0.0,0.0,0.125,
5.667338999999978,0.0,0.0,-13173.0,0.0,727.5,0.0,0.0,0.125,3.8488765590000003,3.015942366852486,0.0,13013.0,0.0,-870.0,0.0,0.0,0.25,4.951171368000001,4.41043958977222,0.0,-5964.0,0.0,937.5,0.0,0.0,0.0,0.31616207700000004,1.9194747329772914,0.0,10870.0,0.125,-817.5,0.0,0.0,0.25,2.193603291,0.5526872062785609,0.0,0.2199999988079071,-1.0399999618530273,163.0800018310547,-0.083984375,-0.09130859375,1.1790771484375,36.97999954223633,0.0,31.0,1.2269439697265625,1.89068603515625,Closing,0.0,0.0,0.0,0.0,0.0,0.0,0.0,0.0,
5.770701000000001,0.0,0.0,-13063.0,0.0,682.5,0.0,0.0,0.125,3.8391109350000003,3.015942366852486,0.0,12896.0,0.0,-757.5,0.0,0.0,0.25,4.949950665,4.41043958977222,0.0,-5845.0,0.0,765.0,0.0,0.0,0.0,0.311279265,1.9194747329772914,0.0,10748.0,0.125,-780.0,0.0,0.0,0.25,2.192382588,0.5526872062785609,0.0,0.15000000596046448,-0.9900000095367432,171.0500030517578,0.07452392578125,0.04693603515625,1.17840576171875,36.97999954223633,0.0,-87.0,1.2241668701171875,1.8883514404296875,Closing,0.0,0.0,0.0,0.0,0.0,0.0,0.0,0.0,
5.8675799999999585,0.0,0.0,-13063.0,0.0,562.5,0.0,0.0,0.125,3.8342281230000004,3.015942366852486,0.0,12896.0,0.0,-622.5,0.0,0.0,0.25,4.949950665,4.41043958977222,0.0,-5845.0,0.0,622.5,0.0,0.0,0.0,0.31616207700000004,1.9194747329772914,0.0,10748.0,0.125,-622.5,0.0,0.0,0.25,2.192382588,0.5526872062785609,0.0,0.11999999731779099,-1.0800000429153442,176.3800048828125,-0.02191162109375,-0.04962158203125,1.24853515625,36.97999954223633,0.0,-5.0,1.2216033935546875,1.88739013671875,Closing,0.0,0.0,0.0,0.0,0.0,0.0,0.0,0.125,
5.9671030000000025,0.0,0.0,-12982.0,0.0,420.0,0.0,0.0,0.125,3.8342281230000004,3.015942366852486,0.0,12810.0,0.0,-420.0,0.0,0.0,0.25,4.952392071,4.41043958977222,0.0,-5752.0,0.0,442.5,0.0,0.0,0.0,0.311279265,1.9194747329772914,0.0,10656.0,0.125,-442.5,0.0,0.0,0.25,2.192382588,0.5526872062785609,0.0,0.07999999821186066,-1.0399999618530273,-179.19000244140625,-0.02520751953125,4.8828125E-4,0.9073486328125,36.97999954223633,0.0,8.0,1.21929931640625,1.8874359130859375,Closing,0.0,0.0,0.0,0.0,0.0,0.0,0.0,0.125,
6.070353999999992,0.0,0.0,-12931.0,0.0,255.0,0.0,0.0,0.125,3.8342281230000004,3.015942366852486,0.0,12753.0,0.0,-285.0,0.0,0.0,0.25,4.951171368000001,4.41043958977222,0.0,-5694.0,0.0,285.0,0.0,0.0,0.0,0.311279265,1.9194747329772914,0.0,10597.0,0.125,-255.0,0.0,0.0,0.25,2.193603291,0.5526872062785609,0.0,0.029999999329447746,-1.0,-177.0399932861328,-0.025390625,0.0135498046875,0.83135986328125,36.97999954223633,0.0,10.0,1.2159576416015625,1.8860626220703125,Closing,0.0,0.0,0.0,0.0,0.0,0.0,0.0,0.125,
6.169472999999998,0.0,0.0,-12913.0,0.0,75.0,0.0,0.0,0.125,3.8342281230000004,3.015942366852486,0.0,12730.0,0.0,-97.5,0.0,0.0,0.25,4.953612774000001,4.41043958977222,0.0,-5671.0,0.0,105.0,0.0,0.0,0.0,0.311279265,1.9194747329772914,0.0,10573.0,0.125,-105.0,0.0,0.0,0.25,2.193603291,0.5526872062785609,0.0,0.05000000074505806,-1.0099999904632568,-176.3300018310547,0.0064697265625,-0.01312255859375,1.08221435546875,37.029998779296875,0.0,-24.0,1.2162628173828125,1.8832855224609375,Closing,0.0,0.0,0.0,0.0,0.0,0.0,0.0,0.0,
6.269986999999965,0.0,0.0,-12916.0,0.125,0.0,-278.90625,0.0,0.125,3.8354488260000004,3.0159423668524887,0.0,12731.0,0.375,7.5,278.90625,0.0,0.25,4.952392071,4.410439589772222,0.0,-5673.0,0.375,-15.0,-278.90625,0.0,0.0,0.306396453,1.9194747329772885,0.0,10573.0,0.5,0.0,278.90625,0.0,0.25,2.193603291,0.5526872062785588,0.0,0.07000000029802322,-0.9599999785423279,-176.6999969482422,-0.0145263671875,-0.00335693359375,1.05340576171875,37.029998779296875,0.0,-3.0,1.216094970703125,1.8810882568359375,Closing,0.0,0.0,0.0,0.0,0.0,0.0,0.0,0.0,
6.366699999999954,0.0,0.0,-12916.0,2.5,-90.0,-803.90625,0.0,0.125,3.8500972620000002,3.0159423668524887,0.0,12750.0,4.125,82.5,803.90625,0.0,0.25,4.937743635,4.410439589772222,0.0,-5690.0,3.0,-82.5,-803.90625,0.0,0.0,0.311279265,1.9194747329772885,0.0,10591.0,3.375,67.5,803.90625,0.0,0.25,2.1740720430000002,0.5526872062785588,0.0,0.09000000357627869,-0.9599999785423279,-177.36000061035156,0.06829833984375,-0.0909423828125,1.02801513671875,37.029998779296875,0.0,-81.0,1.2160491943359375,1.8799896240234375,Closing,0.0,0.0,0.0,0.0,0.0,0.0,0.0,0.125,
6.456802999999956,0.0,0.0,-12938.0,1.25,-187.5,-442.96875,0.0,0.25,3.853759371,3.0159423668524887,0.0,12750.0,2.125,187.5,442.96875,0.0,0.125,4.9182123870000005,4.410439589772222,0.0,-5690.0,2.0,-172.5,-442.96875,0.0,0.0,0.312499968,1.9194747329772885,0.0,10591.0,1.75,217.5,442.96875,0.0,0.125,2.144775171,0.5526872062785588,0.0,0.20999999344348907,-0.9100000262260437,-179.47999572753906,0.00244140625,0.0306396484375,0.97821044921875,37.029998779296875,0.0,-18.0,1.215484619140625,1.880615234375,Closing,0.0,0.0,0.0,0.0,0.0,0.0,0.0,0.125,
6.541076000000001,0.0,0.0,-12974.0,0.0,-202.5,0.0,0.0,0.25,3.8488765590000003,3.0159423668524887,0.0012207029999999897,12791.0,0.25,240.0,0.0,0.0,0.0,4.912108872,4.410439589772222,-0.019531247999999835,-5730.0,0.125,-247.5,0.0,0.0,0.0,0.311279265,1.9194747329772885,0.0012207029999999897,10635.0,0.25,247.5,0.0,0.0,0.25,2.141113062,0.5526872062785588,-0.031738278000000175,0.3499999940395355,-0.8799999952316284,177.8800048828125,-0.00439453125,0.0283203125,1.139892578125,37.029998779296875,0.0,-12.0,1.215484619140625,1.879241943359375,Closing,0.0,0.0,0.0,0.0,0.0,0.0,0.0,0.0,
6.628232999999949,0.0,0.0,-12988.0,0.0,-60.0,0.0,0.0,0.125,3.8439937470000003,3.0159423668524887,0.0,12807.0,0.0,82.5,0.0,0.0,0.0,4.914550278,4.410439589772222,0.0,-5744.0,0.0,-75.0,0.0,0.0,0.0,0.311279265,1.9194747329772885,0.0,10650.0,0.125,90.0,0.0,0.0,0.25,2.141113062,0.5526872062785588,0.0,0.23000000417232513,-0.8299999833106995,176.16000366210938,-0.0548095703125,-0.03497314453125,1.06396484375,37.04999923706055,0.0,36.0,1.2152099609375,1.8776092529296875,Closing,0.0,0.0,0.0,0.0,0.0,0.0,0.0,0.0,
6.719171999999962,0.0,0.0,-12988.0,0.0,-112.5,0.0,0.0,0.125,3.8488765590000003,3.0159423668524887,0.0,12807.0,0.0,67.5,0.0,0.0,0.0,4.912108872,4.410439589772222,0.0,-5754.0,0.0,-82.5,0.0,0.0,0.0,0.311279265,1.9194747329772885,0.0,10657.0,0.125,97.5,0.0,0.0,0.25,2.139892359,0.5526872062785588,0.0,0.25999999046325684,-0.7599999904632568,175.66000366210938,-0.01544189453125,-0.01702880859375,0.9677734375,37.04999923706055,0.0,0.0,1.214508056640625,1.87750244140625,Closing,0.0,0.0,0.0,0.0,0.0,0.0,0.0,0.125,
6.811715999999957,0.0,0.0,-12993.0,0.0,0.0,0.0,0.0,0.125,3.8488765590000003,3.0159423668524887,0.0,12811.0,0.0,7.5,0.0,0.0,0.0,4.913329575000001,4.410439589772222,0.0,-5754.0,0.0,-7.5,0.0,0.0,0.0,0.311279265,1.9194747329772885,0.0,10657.0,0.125,0.0,0.0,0.0,0.25,2.139892359,0.5526872062785588,0.0,0.25,-0.8199999928474426,175.97000122070312,-0.02117919921875,0.00140380859375,1.0360107421875,37.04999923706055,0.0,5.0,1.214447021484375,1.8775482177734375,Closing,0.0,0.0,0.0,0.0,0.0,0.0,0.0,0.125,
6.905369000000006,0.0,0.0,-12993.0,0.0,0.0,0.0,0.0,0.125,3.8500972620000002,3.0159423668524887,0.0,12811.0,0.0,0.0,0.0,0.0,0.0,4.912108872,4.410439589772222,0.0,-5754.0,0.0,0.0,0.0,0.0,0.0,0.31616207700000004,1.9194747329772885,0.0,10657.0,0.125,0.0,0.0,0.0,0.25,2.141113062,0.5526872062785588,0.0,0.25999999046325684,-0.7699999809265137,176.1699981689453,0.00286865234375,0.00677490234375,0.96734619140625,37.04999923706055,0.0,-15.0,1.214447021484375,1.8775482177734375,Closing,0.0,0.0,0.0,0.0,0.0,0.0,0.0,0.0,
6.996282000000006,0.0,0.0,-12993.0,0.0,0.0,0.0,0.0,0.125,3.8476558560000003,3.0159423668524887,0.0,12811.0,0.0,0.0,0.0,0.0,0.0,4.912108872,4.410439589772222,0.0,-5754.0,0.0,0.0,0.0,0.0,0.0,0.31616207700000004,1.9194747329772885,-0.0012207029999999897,10657.0,0.125,0.0,0.0,0.0,0.25,2.141113062,0.5526872062785588,0.0,0.28999999165534973,-0.7699999809265137,176.17999267578125,-0.02142333984375,0.00286865234375,1.03607177734375,37.04999923706055,0.0,7.0,1.214447021484375,1.8775482177734375,Closing,0.0,0.0,0.0,0.0,0.0,0.0,0.0,0.0,
7.091121999999974,0.0,0.0,-12993.0,0.0,0.0,0.0,0.0,0.125,3.8500972620000002,3.0159423668524887,0.0,12811.0,0.0,0.0,0.0,0.0,0.0,4.913329575000001,4.410439589772222,0.0,-5754.0,0.0,0.0,0.0,0.0,0.0,0.31616207700000004,1.9194747329772885,0.0,10657.0,0.125,0.0,0.0,0.0,0.25,2.141113062,0.5526872062785588,0.0,0.30000001192092896,-0.7699999809265137,176.1199951171875,-0.0062255859375,0.01025390625,1.0213623046875,37.04999923706055,0.0,-7.0,1.214447021484375,1.8775482177734375,Closing,0.0,0.0,0.0,0.0,0.0,0.0,0.0,0.125,
7.1849229999999515,0.0,0.0,-12993.0,0.125,0.0,-275.625,0.0,3.25,4.111327704,3.6991882500000015,0.0,12811.0,0.375,0.0,275.625,0.0,4.75,4.694823738,3.7228275000000015,0.0,-5754.0,0.375,0.0,275.625,0.0,3.125,0.037841793,1.2351000000000012,0.0,10657.0,0.375,-15.0,-275.625,0.0,4.75,2.517089586,1.2395000000000012,0.0,0.30000001192092896,-0.7300000190734863,176.14999389648438,-0.01300048828125,0.04229736328125,0.94866943359375,37.040000915527344,0.0,3.0,1.214447021484375,1.8774261474609375,Closing,0.0,0.0,0.0,0.0,0.0,0.0,0.0,0.0,
7.273030999999959,0.0,0.0,-12998.0,0.375,-120.0,-472.49999999999994,0.0,0.625,4.486083525000001,3.6991882500000015,0.0,12816.0,0.875,90.0,472.49999999999994,0.0,0.5,4.300536669,3.7228275000000015,0.0,-5751.0,1.125,60.0,472.49999999999994,0.0,0.375,4.645995618000001,1.2351000000000012,0.0,10646.0,0.75,-82.5,-472.49999999999994,0.0,0.625,2.861327832,1.2395000000000012,0.0,0.41999998688697815,-0.7699999809265137,176.1999969482422,-0.025390625,0.1533203125,0.9605712890625,37.040000915527344,0.0,22.0,1.2143707275390625,1.8765106201171875,Closing,0.0,0.0,0.0,0.0,0.0,0.0,0.0,0.0,
7.36943399999995,0.0,0.0,-13032.0,0.75,-202.5,-531.5625,0.0,0.25,4.620360855,3.6991882500000015,0.0,12846.0,1.625,165.0,531.5625,0.0,0.25,4.1308589520000005,3.7228275000000015,0.0,-5726.0,2.0,150.0,531.5625,0.0,0.25,4.511718288,1.2351000000000012,0.0,10636.0,2.0,-75.0,-531.5625,0.0,0.25,2.965087587,1.2395000000000012,0.0,0.7900000214576721,-0.699999988079071,176.16000366210938,-0.0074462890625,0.08599853515625,0.93524169921875,37.040000915527344,0.0,0.0,1.2142333984375,1.87042236328125,Closing,0.0,0.0,0.0,0.0,0.0,0.0,0.0,0.0,
7.464915999999969,0.0,0.0,-13060.0,3.125,-150.0,-669.375,0.0,0.25,4.616698746,3.6991882500000015,0.0,12874.0,4.625,187.5,669.375,0.0,0.25,4.111327704,3.7228275000000015,0.0,-5699.0,4.25,172.5,669.375,0.0,0.0,4.490966337000001,1.2351000000000012,0.0,10607.0,3.5,-187.5,-669.375,0.0,0.25,2.983398132,1.2395000000000012,0.0,1.149999976158142,-0.7400000095367432,176.17999267578125,-0.05853271484375,0.14404296875,1.01983642578125,37.040000915527344,0.0,53.0,1.2145233154296875,1.8603668212890625,Closing,0.0,0.0,0.0,0.0,0.0,0.0,0.0,0.0,
7.567047999999952,0.0,0.0,-13060.0,4.25,-285.0,-708.7499999999999,0.0,0.375,4.573974141,3.6991882500000015,0.0,12927.0,5.625,285.0,708.7499999999999,0.0,0.25,4.122314031,3.7228275000000015,0.0,-5649.0,4.875,262.5,708.7499999999999,0.0,0.0,4.530028833,1.2351000000000012,0.0,10555.0,4.75,-277.5,-708.7499999999999,0.0,0.25,2.921142279,1.2395000000000012,0.0,1.5299999713897705,-0.8100000023841858,176.14999389648438,-0.0328369140625,0.14154052734375,1.07525634765625,37.040000915527344,0.0,25.0,1.2154693603515625,1.845611572265625,Closing,0.0,0.0,0.0,0.0,0.0,0.0,0.0,0.0,
7.656588999999978,0.0,0.0,-13113.0,4.75,-412.5,-748.125,0.0,0.25,4.536132348000001,3.6991882500000015,0.0,12927.0,5.5,412.5,748.125,0.0,0.25,4.154052309,3.7228275000000015,0.0,-5649.0,5.5,390.0,748.125,0.0,0.125,4.566649923,1.2351000000000012,0.0,10555.0,5.0,-390.0,-748.125,0.0,0.25,2.872314159,1.2395000000000012,0.0,1.940000057220459,-0.7300000190734863,176.10000610351562,0.00616455078125,0.15753173828125,0.90203857421875,37.040000915527344,0.0,-9.0,1.2162628173828125,1.8255157470703125,Closing,0.0,0.0,0.0,0.0,0.0,0.0,0.0,0.0,
7.748182999999961,0.0,0.0,-13195.0,4.25,-532.5,-748.125,0.0,0.25,4.536132348000001,3.6991882500000015,0.0,13010.0,4.875,570.0,748.125,0.0,0.25,4.202880429,3.7228275000000015,0.0,-5569.0,4.875,555.0,748.125,0.0,0.0,4.567870626,1.2351000000000012,0.0,10475.0,4.5,-555.0,-748.125,0.0,0.125,2.862548535,1.2395000000000012,0.0,2.3499999046325684,-0.6800000071525574,176.1999969482422,-0.02398681640625,0.14837646484375,0.99517822265625,37.040000915527344,0.0,19.0,1.216278076171875,1.7957611083984375,Closing,0.0,0.0,0.0,0.0,0.0,0.0,0.0,0.125,
7.845766999999992,0.0,0.0,-13302.0,3.25,-675.0,-748.125,0.0,0.25,4.534911645,3.6991882500000015,0.0,13117.0,4.25,667.5,748.125,0.0,0.125,4.213866756,3.7228275000000015,0.0,-5463.0,4.0,667.5,748.125,0.0,0.0,4.567870626,1.2351000000000012,0.0,10371.0,3.75,-667.5,-748.125,0.0,0.125,2.862548535,1.2395000000000012,0.0,2.5399999618530273,-0.699999988079071,176.22999572753906,-0.0247802734375,0.08062744140625,1.16357421875,37.040000915527344,0.0,12.0,1.216583251953125,1.766937255859375,Closing,0.0,0.0,0.0,0.0,0.0,0.0,0.0,0.125,
7.932883999999961,0.0,0.0,-13428.0,2.75,-757.5,-748.125,0.0,0.25,4.531249536000001,3.6991882500000015,0.0,13241.0,3.375,742.5,748.125,0.0,0.125,4.21142535,3.7228275000000015,0.0,-5341.0,3.375,750.0,748.125,0.0,0.0,4.566649923,1.2351000000000012,0.0,10250.0,3.125,-742.5,-748.125,0.0,0.125,2.8515622080000003,1.2395000000000012,0.0,2.6600000858306885,-0.6800000071525574,176.19000244140625,-0.08587646484375,-0.029296875,1.0433349609375,37.040000915527344,0.0,68.0,1.217041015625,1.7359619140625,Closing,0.0,0.0,0.0,0.0,0.0,0.0,0.0,0.0,
8.026883999999962,0.0,0.0,-13428.0,1.875,-817.5,-748.125,0.0,0.25,4.534911645,3.6991882500000015,0.0,13241.0,2.5,817.5,748.125,0.0,0.125,4.213866756,3.7228275000000015,0.0,-5341.0,2.875,802.5,748.125,0.0,0.0,4.567870626,1.2351000000000012,0.0,10250.0,2.75,-795.0,-748.125,0.0,0.125,2.863769238,1.2395000000000012,0.0,2.5899999141693115,-0.6100000143051147,176.11000061035156,-0.02685546875,0.11102294921875,1.23883056640625,37.040000915527344,0.0,17.0,1.217193603515625,1.698822021484375,Closing,0.0,0.0,0.0,0.0,0.0,0.0,0.0,0.125,
8.119430999999983,0.0,0.0,-13561.0,1.25,-840.0,-748.125,0.0,0.25,4.536132348000001,3.6991882500000015,0.0,13375.0,2.125,840.0,748.125,0.0,0.125,4.21142535,3.7228275000000015,0.0,-5208.0,2.375,840.0,748.125,0.0,0.0,4.567870626,1.2351000000000012,0.0,10120.0,2.25,-825.0,-748.125,0.0,0.125,2.866210644,1.2395000000000012,0.0,2.559999942779541,-0.6200000047683716,176.08999633789062,-3.0517578125E-4,0.02154541015625,1.02197265625,37.040000915527344,0.0,-12.0,1.217376708984375,1.6720428466796875,Closing,0.0,0.0,0.0,0.0,0.0,0.0,0.0,0.0,
8.210471999999951,0.0,0.0,-13699.0,1.0,-855.0,-748.125,0.0,0.25,4.536132348000001,3.6991882500000015,0.0,13510.0,1.625,832.5,748.125,0.0,0.125,4.212646053,3.7228275000000015,0.0,-5070.0,2.125,847.5,748.125,0.0,0.0,4.569091329,1.2351000000000012,0.0,9983.0,1.875,-840.0,-748.125,0.0,0.125,2.862548535,1.2395000000000012,0.0,2.4200000762939453,-0.6399999856948853,176.05999755859375,-0.03912353515625,-0.05230712890625,0.98992919921875,37.040000915527344,0.0,21.0,1.21728515625,1.640838623046875,Closing,0.0,0.0,0.0,0.0,0.0,0.0,0.0,0.0,
8.305351999999955,0.0,0.0,-13833.0,0.75,-840.0,-748.125,0.0,0.25,4.536132348000001,3.6991882500000015,0.0,13646.0,1.5,847.5,748.125,0.0,0.125,4.212646053,3.7228275000000015,0.0,-4938.0,1.875,840.0,748.125,0.0,0.0,4.562987814,1.2351000000000012,0.0,9854.0,1.625,-817.5,-748.125,0.0,0.125,2.862548535,1.2395000000000012,0.0,2.1600000858306885,-0.5699999928474426,176.02000427246094,0.02838134765625,-0.03875732421875,0.99609375,37.040000915527344,0.0,-43.0,1.21636962890625,1.606719970703125,Closing,0.0,0.0,0.0,0.0,0.0,0.0,0.0,0.0,
8.397180999999982,0.0,0.0,-13833.0,0.625,-832.5,-748.125,0.0,0.25,4.534911645,3.6991882500000015,0.0,13646.0,1.375,825.0,748.125,0.0,0.125,4.213866756,3.7228275000000015,0.0,-4938.0,1.75,817.5,748.125,0.0,0.0,4.567870626,1.2351000000000012,0.0,9854.0,1.625,-802.5,-748.125,0.0,0.125,2.862548535,1.2395000000000012,0.0,2.0,-0.6299999952316284,176.00999450683594,-0.01165771484375,-0.03936767578125,0.9976806640625,37.040000915527344,0.0,-4.0,1.21539306640625,1.597625732421875,Closing,0.0,0.0,0.0,0.0,0.0,0.0,0.0,0.125,
8.48824099999998,0.0,0.0,-13965.0,0.625,-810.0,-748.125,0.0,0.25,4.532470239,3.6991882500000015,0.0,13776.0,1.25,810.0,748.125,0.0,0.125,4.213866756,3.7228275000000015,0.0,-4807.0,1.75,810.0,748.125,0.0,0.0,4.569091329,1.2351000000000012,0.0,9722.0,1.375,-810.0,-748.125,0.0,0.125,2.862548535,1.2395000000000012,0.0,1.8300000429153442,-0.550000011920929,175.99000549316406,-0.03094482421875,0.0037841796875,0.98553466796875,37.040000915527344,0.0,19.0,1.215057373046875,1.599151611328125,Closing,0.0,0.0,0.0,0.0,0.0,0.0,0.0,0.0,
8.575638999999967,0.0,0.0,-14092.0,0.625,-787.5,-748.125,0.0,0.125,4.531249536000001,3.6991882500000015,0.0,13906.0,1.25,802.5,748.125,0.0,0.125,4.212646053,3.7228275000000015,0.0,-4678.0,1.5,795.0,748.125,0.0,0.0,4.567870626,1.2351000000000012,0.0,9596.0,1.375,-780.0,-748.125,0.0,0.125,2.862548535,1.2395000000000012,0.0,1.6799999475479126,-0.49000000953674316,175.9199981689453,-0.0325927734375,-0.0020751953125,0.9215087890625,37.040000915527344,0.0,22.0,1.215057373046875,1.6023712158203125,Closing,0.0,0.0,0.0,0.0,0.0,0.0,0.0,0.0,
8.669168000000004,0.0,0.0,-14217.0,0.625,-780.0,-748.125,0.0,0.125,4.527587427,3.6991882500000015,0.0,14031.0,1.25,780.0,748.125,0.0,0.125,4.212646053,3.7228275000000015,0.0,-4553.0,1.5,780.0,748.125,0.0,0.0,4.569091329,1.2351000000000012,0.0,9470.0,1.375,-780.0,-748.125,0.0,0.125,2.860107129,1.2395000000000012,0.0,1.5299999713897705,-0.5199999809265137,175.89999389648438,-0.0111083984375,0.0509033203125,0.946044921875,37.0,0.0,4.0,1.2149658203125,1.6072998046875,Closing,0.0,0.0,0.0,0.0,0.0,0.0,0.0,0.0,
8.763098999999988,0.0,0.0,-14217.0,0.125,-735.0,-433.125,0.0,0.125,4.532470239,3.6991882500000015,0.0,14031.0,0.25,712.5,433.125,0.0,0.125,4.212646053,3.7228275000000015,0.0,-4553.0,0.375,742.5,433.125,0.0,0.0,4.569091329,1.2351000000000012,0.0,9373.0,0.625,-712.5,-433.125,0.0,0.125,2.861327832,1.2395000000000012,0.0,1.2699999809265137,-0.4699999988079071,175.83999633789062,0.01312255859375,-0.1053466796875,1.19488525390625,37.0,0.0,-32.0,1.214630126953125,1.6154022216796875,Closing,0.0,0.0,0.0,0.0,0.0,0.0,0.0,0.0,
8.852446999999986,0.0,0.0,-14322.0,0.125,-562.5,-255.9375,0.0,0.125,4.522704615,3.6991882500000015,0.0,14132.0,0.25,562.5,255.9375,0.0,0.125,4.213866756,3.7228275000000015,0.0,-4441.0,0.375,600.0,255.9375,0.0,0.0,4.569091329,1.2351000000000012,0.0,9373.0,0.375,-562.5,-255.9375,0.0,0.125,2.869872753,1.2395000000000012,0.0,0.9800000190734863,-0.44999998807907104,175.80999755859375,-0.02911376953125,-0.106689453125,1.16912841796875,37.0,0.0,10.0,1.2145233154296875,1.6245574951171875,Closing,0.0,0.0,0.0,0.0,0.0,0.0,0.0,0.0,
8.946353000000002,0.0,0.0,-14411.0,0.125,-555.0,-196.875,0.0,0.125,4.523925318,3.6991882500000015,0.0,14229.0,0.125,570.0,196.875,0.0,0.125,4.212646053,3.7228275000000015,0.0,-4357.0,0.375,525.0,196.875,0.0,0.0,4.567870626,1.2351000000000012,0.0,9272.0,0.125,-570.0,-196.875,0.0,0.125,2.862548535,1.2395000000000012,0.0,0.38999998569488525,-0.44999998807907104,175.8000030517578,-0.00665283203125,-0.12042236328125,0.98724365234375,37.0,0.0,-10.0,1.2142333984375,1.642913818359375,Closing,0.0,0.0,0.0,0.0,0.0,0.0,0.0,0.125,
9.033934999999998,0.0,0.0,-14485.0,0.125,-457.5,-196.875,0.0,0.125,4.521483912,3.6991882500000015,0.0,14304.0,0.0,465.0,196.875,0.0,0.125,4.21142535,3.7228275000000015,0.0,-4280.0,0.375,472.5,196.875,0.0,0.0,4.57763625,1.2351000000000012,0.0,9197.0,0.125,-465.0,-196.875,0.0,0.125,2.862548535,1.2395000000000012,0.0,0.0,-0.41999998688697815,175.77000427246094,5.4931640625E-4,-0.02764892578125,0.87933349609375,37.0,0.0,-9.0,1.2142333984375,1.6639404296875,Closing,0.0,0.0,0.0,0.0,0.0,0.0,0.0,0.0,
9.126985999999976,0.0,0.0,-14485.0,0.125,-367.5,-196.875,0.0,0.125,4.522704615,3.6991882500000015,0.0,14356.0,0.0,345.0,196.875,0.0,0.125,4.212646053,3.7228275000000015,0.0,-4228.0,0.375,337.5,196.875,0.0,0.0,4.57763625,1.2351000000000012,0.0,9144.0,0.375,-345.0,-196.875,0.0,0.125,2.8552243170000002,1.2395000000000012,0.0,-0.30000001192092896,-0.4399999976158142,175.7899932861328,0.001220703125,-0.12213134765625,0.98406982421875,37.0,0.0,-17.0,1.2142333984375,1.68927001953125,Closing,0.0,0.0,0.0,0.0,0.0,0.0,0.0,0.0,
9.221407000000006,0.0,0.0,-14536.0,0.125,-240.0,-196.875,0.0,0.125,4.521483912,3.6991882500000015,0.0,14356.0,0.0,247.5,196.875,0.0,0.125,4.212646053,3.7228275000000015,0.0,-4228.0,0.125,255.0,196.875,0.0,0.0,4.583739765000001,1.2351000000000012,0.0,9144.0,0.375,-232.5,-196.875,0.0,0.125,2.862548535,1.2395000000000012,0.0,-0.5899999737739563,-0.38999998569488525,175.82000732421875,0.0057373046875,-0.04742431640625,1.0064697265625,36.97999954223633,0.0,-15.0,1.2141571044921875,1.7188568115234375,Closing,0.0,0.0,0.0,0.0,0.0,0.0,0.0,0.0,
9.319723999999987,0.0,0.0,-14568.0,0.125,-172.5,-196.875,0.0,0.125,4.521483912,3.6991882500000015,0.0,14388.0,0.125,150.0,196.875,0.0,0.125,4.212646053,3.7228275000000015,0.0,-4195.0,0.375,172.5,196.875,0.0,0.0,4.583739765000001,1.2351000000000012,0.0,9111.0,0.375,-150.0,-196.875,0.0,0.125,2.863769238,1.2395000000000012,0.0,-0.7799999713897705,-0.4000000059604645,175.8300018310547,-0.0069580078125,-0.0567626953125,1.03350830078125,36.97999954223633,0.0,-3.0,1.2141571044921875,1.7513427734375,Closing,0.0,0.0,0.0,0.0,0.0,0.0,0.0,0.0,
9.410492999999958,0.0,0.0,-14587.0,0.125,-120.0,-196.875,0.0,0.125,4.522704615,3.6991882500000015,0.0,14406.0,0.25,105.0,196.875,0.0,0.125,4.213866756,3.7228275000000015,0.0,-4169.0,0.375,165.0,196.875,0.0,0.0,4.582519062,1.2351000000000012,0.0,9095.0,0.375,-90.0,-196.875,0.0,0.125,2.861327832,1.2395000000000012,0.0,-0.8799999952316284,-0.38999998569488525,175.8000030517578,-0.011474609375,-0.03704833984375,1.0224609375,36.97999954223633,0.0,2.0,1.2141571044921875,1.785797119140625,Closing,0.0,0.0,0.0,0.0,0.0,0.0,0.0,0.0,
9.506381999999983,0.0,0.0,-14617.0,1.625,-180.0,-610.3124999999999,0.0,0.125,4.531249536000001,3.6991882500000015,0.0,14440.0,1.75,142.5,610.3124999999999,0.0,0.125,4.212646053,3.7228275000000015,0.0,-4147.0,2.5,135.0,610.3124999999999,0.0,0.0,4.572753438,1.2351000000000012,0.0,9070.0,2.625,-142.5,-610.3124999999999,0.0,0.125,2.863769238,1.2395000000000012,0.0,-0.6700000166893005,-0.4000000059604645,175.82000732421875,0.03143310546875,0.0579833984375,0.98291015625,36.97999954223633,0.0,-33.0,1.2141571044921875,1.8264007568359375,Closing,0.0,0.0,0.0,0.0,0.0,0.0,0.0,0.125,
9.598859999999986,0.0,0.0,-14617.0,2.75,-142.5,-649.6875,0.0,0.125,4.531249536000001,3.6991882500000015,0.0,14440.0,4.0,187.5,649.6875,0.0,0.125,4.212646053,3.7228275000000015,0.0,-4147.0,4.625,105.0,649.6875,0.0,0.0,4.571532735,1.2351000000000012,0.0,9070.0,4.0,-217.5,-649.6875,0.0,0.125,2.862548535,1.2395000000000012,0.0,-0.10999999940395355,-0.38999998569488525,175.82000732421875,-0.02020263671875,0.05078125,0.9454345703125,36.97999954223633,0.0,17.0,1.2140655517578125,1.85650634765625,Closing,0.0,0.0,0.0,0.0,0.0,0.0,0.0,0.0,
9.68340499999997,0.0,0.0,-14645.0,3.75,-255.0,-649.6875,0.0,0.125,4.531249536000001,3.6991882500000015,0.0,14465.0,5.125,247.5,649.6875,0.0,0.125,4.213866756,3.7228275000000015,0.0,-4123.0,5.0,232.5,649.6875,0.0,0.0,4.573974141,1.2351000000000012,0.0,9039.0,5.125,-240.0,-649.6875,0.0,0.125,2.862548535,1.2395000000000012,0.0,0.44999998807907104,-0.44999998807907104,175.8000030517578,0.00469970703125,0.13507080078125,0.97833251953125,36.939998626708984,0.0,-3.0,1.2144622802734375,1.8795928955078125,Closing,0.0,0.0,0.0,0.0,0.0,0.0,0.0,0.125,
9.77857699999999,0.0,0.0,-14704.0,3.625,-390.0,-649.6875,0.0,0.125,4.531249536000001,3.6991882500000015,0.0,14523.0,4.875,405.0,649.6875,0.0,0.125,4.212646053,3.7228275000000015,0.0,-4068.0,4.75,397.5,649.6875,0.0,0.0,4.572753438,1.2351000000000012,0.0,8982.0,5.0,-405.0,-649.6875,0.0,0.125,2.862548535,1.2395000000000012,0.0,0.9300000071525574,-0.4099999964237213,175.8300018310547,0.04205322265625,0.2510986328125,1.042724609375,36.939998626708984,0.0,-32.0,1.2150421142578125,1.8978729248046875,Closing,0.0,0.0,0.0,0.0,0.0,0.0,0.0,0.0,
9.873311999999975,0.0,0.0,-14789.0,3.0,-525.0,-649.6875,0.0,0.125,4.531249536000001,3.6991882500000015,0.0,14609.0,4.125,532.5,649.6875,0.0,0.125,4.212646053,3.7228275000000015,0.0,-3984.0,4.0,517.5,649.6875,0.0,0.0,4.573974141,1.2351000000000012,0.0,8897.0,4.125,-525.0,-649.6875,0.0,0.125,2.862548535,1.2395000000000012,0.0,1.2799999713897705,-0.3799999952316284,175.88999938964844,-0.00469970703125,0.141357421875,0.885009765625,36.939998626708984,0.0,7.0,1.215423583984375,1.9126739501953125,Closing,0.0,0.0,0.0,0.0,0.0,0.0,0.0,0.125,
9.967587,0.0,0.0,-14789.0,2.625,-615.0,-649.6875,0.0,0.125,4.531249536000001,3.6991882500000015,0.0,14713.0,3.125,637.5,649.6875,0.0,0.125,4.212646053,3.7228275000000015,0.0,-3881.0,3.125,637.5,649.6875,0.0,0.0,4.572753438,1.2351000000000012,0.0,8794.0,3.375,-630.0,-649.6875,0.0,0.125,2.862548535,1.2395000000000012,0.0,1.4900000095367432,-0.3799999952316284,175.9199981689453,0.0103759765625,0.083984375,1.01556396484375,36.939998626708984,0.0,-13.0,1.2160797119140625,1.920806884765625,Closing,0.0,0.0,0.0,0.0,0.0,0.0,0.0,0.0,
10.060445999999997,0.0,0.0,-14893.0,2.0,-675.0,-649.6875,0.0,0.125,4.531249536000001,3.6991882500000015,0.0,14713.0,2.5,690.0,649.6875,0.0,0.125,4.212646053,3.7228275000000015,0.0,-3881.0,2.625,690.0,649.6875,0.0,0.0,4.572753438,1.2351000000000012,0.0,8794.0,2.875,-690.0,-649.6875,0.0,0.125,2.862548535,1.2395000000000012,0.0,1.600000023841858,-0.3700000047683716,176.00999450683594,-0.0238037109375,0.09375,1.14361572265625,36.939998626708984,0.0,20.0,1.2171478271484375,1.9250946044921875,Closing,0.0,0.0,0.0,0.0,0.0,0.0,0.0,0.0,
10.150962,0.0,0.0,-15006.0,1.25,-720.0,-649.6875,0.0,0.125,4.532470239,3.6991882500000015,0.0,14828.0,2.0,720.0,649.6875,0.0,0.125,4.213866756,3.7228275000000015,0.0,-3766.0,2.25,727.5,649.6875,0.0,0.0,4.570312032,1.2351000000000012,0.0,8679.0,2.5,-735.0,-649.6875,0.0,0.125,2.874755565,1.2395000000000012,0.0,1.5700000524520874,-0.3700000047683716,176.0800018310547,-0.0574951171875,0.01702880859375,1.00384521484375,36.939998626708984,0.0,50.0,1.21734619140625,1.9288330078125,Closing,0.0,0.0,0.0,0.0,0.0,0.0,0.0,0.125,
10.245226999999955,0.0,0.0,-15124.0,1.0,-735.0,-649.6875,0.0,0.125,4.526366724,3.6991882500000015,0.0,14947.0,1.5,742.5,649.6875,0.0,0.125,4.212646053,3.7228275000000015,0.0,-3647.0,1.875,742.5,649.6875,0.0,0.0,4.572753438,1.2351000000000012,0.0,8560.0,2.0,-735.0,-649.6875,0.0,0.125,2.864989941,1.2395000000000012,0.0,1.4800000190734863,-0.36000001430511475,176.10000610351562,0.02764892578125,-0.1414794921875,0.929443359375,36.970001220703125,0.0,-44.0,1.2175445556640625,1.933807373046875,Closing,0.0,0.0,0.0,0.0,0.0,0.0,0.0,0.0,
10.334658999999984,0.0,0.0,-15241.0,0.75,-735.0,-669.375,0.0,0.125,4.532470239,3.6991882500000015,0.0,15065.0,1.5,727.5,669.375,0.0,0.125,4.212646053,3.7228275000000015,0.0,-3527.0,1.75,742.5,669.375,0.0,0.0,4.573974141,1.2351000000000012,0.0,8440.0,1.875,-742.5,-669.375,0.0,0.125,2.862548535,1.2395000000000012,0.0,1.4500000476837158,-0.4099999964237213,176.17999267578125,-0.114013671875,0.00640869140625,1.06536865234375,36.970001220703125,0.0,104.0,1.21783447265625,1.94061279296875,Closing,0.0,0.0,0.0,0.0,0.0,0.0,0.0,0.125,
10.42950099999999,0.0,0.0,-15241.0,0.375,-712.5,-511.875,0.0,0.125,4.532470239,3.6991882500000015,0.0,15065.0,0.75,682.5,511.875,0.0,0.125,4.212646053,3.7228275000000015,0.0,-3527.0,0.75,727.5,511.875,0.0,0.0,4.572753438,1.2351000000000012,0.0,8440.0,0.75,-727.5,-511.875,0.0,0.125,2.862548535,1.2395000000000012,0.0,1.340000033378601,-0.36000001430511475,176.22999572753906,-0.023193359375,-0.00537109375,0.80975341796875,36.970001220703125,0.0,16.0,1.2183837890625,1.949127197265625,Closing,0.0,0.0,0.0,0.0,0.0,0.0,0.0,0.125,
10.525257999999972,0.0,0.0,-15354.0,0.0,-637.5,0.0,0.0,0.125,4.521483912,3.6991882500000015,0.0,15168.0,0.0,570.0,0.0,0.0,0.125,4.212646053,3.7228275000000015,0.0,-3414.0,0.0,645.0,0.0,0.0,0.0,4.572753438,1.2351000000000012,0.0,8334.0,0.125,-547.5,0.0,0.0,0.125,2.834472366,1.2395000000000012,0.0,0.9700000286102295,-0.4000000059604645,176.2100067138672,0.02044677734375,-0.07147216796875,0.90203857421875,36.970001220703125,0.0,-32.0,1.2188262939453125,1.9635772705078125,Closing,0.0,0.0,0.0,0.0,0.0,0.0,0.0,0.0,
10.615763999999967,0.0,0.0,-15424.0,0.0,-420.0,0.0,0.0,0.125,4.521483912,3.6991882500000015,-0.008544921000000372,15259.0,0.0,562.5,0.0,0.0,0.125,4.213866756,3.7228275000000015,0.0012207030000004337,-3333.0,0.0,480.0,0.0,0.0,0.0,4.572753438,1.2351000000000012,0.0,8247.0,0.125,-555.0,0.0,0.0,0.25,2.816161821,1.2395000000000012,0.0,0.46000000834465027,-0.41999998688697815,176.32000732421875,0.01019287109375,-0.2001953125,0.89630126953125,36.970001220703125,0.0,-30.0,1.21807861328125,1.9828033447265625,Closing,0.0,0.0,0.0,0.0,0.0,0.0,0.0,0.0,
10.708666999999958,0.0,0.0,-15499.0,0.0,-495.0,0.0,0.0,0.125,4.521483912,3.6991882500000015,0.0,15327.0,0.0,420.0,0.0,0.0,0.125,4.212646053,3.7228275000000015,0.0,-3259.0,0.0,457.5,0.0,0.0,0.0,4.573974141,1.2351000000000012,0.0,8174.0,0.125,-450.0,0.0,0.0,0.25,2.816161821,1.2395000000000012,-0.013427732999999886,0.03999999910593033,-0.36000001430511475,176.47999572753906,0.01556396484375,-0.0616455078125,0.8909912109375,36.959999084472656,0.0,-24.0,1.217254638671875,2.008270263671875,Closing,0.0,0.0,0.0,0.0,0.0,0.0,0.0,0.0,
10.80586499999999,0.0,0.0,-15499.0,0.0,-270.0,0.0,0.0,0.125,4.521483912,3.6991882500000015,0.0,15368.0,0.0,315.0,0.0,0.0,0.125,4.212646053,3.7228275000000015,0.0,-3214.0,0.0,300.0,0.0,0.0,0.0,4.572753438,1.2351000000000012,0.0,8128.0,0.125,-300.0,0.0,0.0,0.25,2.824706742,1.2395000000000012,0.0,-0.4300000071525574,-0.47999998927116394,176.5399932861328,-0.05023193359375,-0.13836669921875,1.11334228515625,36.959999084472656,0.0,32.0,1.2168121337890625,2.0445404052734375,Closing,0.0,0.0,0.0,0.0,0.0,0.0,0.0,0.125,
10.904008999999961,0.0,0.0,-15538.0,0.0,-195.0,0.0,0.0,0.125,4.520263209,3.6991882500000015,0.0,15368.0,0.0,165.0,0.0,0.0,0.125,4.212646053,3.7228275000000015,0.0,-3214.0,0.0,180.0,0.0,0.0,0.0,4.573974141,1.2351000000000012,0.0,8128.0,0.125,-180.0,0.0,0.0,0.25,2.829589554,1.2395000000000012,0.0,-0.8399999737739563,-0.4399999976158142,176.5800018310547,-0.00689697265625,-0.11383056640625,1.0198974609375,36.959999084472656,0.0,-6.0,1.216796875,2.0810394287109375,Closing,0.0,0.0,0.0,0.0,0.0,0.0,0.0,0.125,
