Time,ClimberA1,ClimberA2,FRpos,FRCurrent,FRspeed,FRsetpoint,FRApos,FRACurrent,FREncpos,FREncSetpoint,FREncSpeed,FLpos,FLCurrent,FLspeed,FLsetpoint,FLApos,FLACurrent,FLEncpos,FLEncSetpoint,FLEncSpeed,BRpos,BRCurrent,BRspeed,BRsetpoint,BRApos,BRACurrent,BREncpos,BREncSetpoint,BREncSpeed,BLpos,BLCurrent,BLspeed,BLsetpoint,BLApos,BLACurrent,BLEncpos,BLEncSetpoint,BLEncSpeed,navx_Pitch,navx_Roll,navx_Yaw,navx_XAcc,navx_YAcc,navx_ZAcc,navx_Temp,navx_Bar,navx_Alt,navx_XDis,navx_YDis,GearPlacerState,ShootOutputV,ShootOutputCurrent,ShootEncPos,ShootEncVelocity,ShootSpeed,ShootSetpoint,CarouselSetpoint,CarouselCurrent,
0.24294600000001082,0.0,0.0,15949.0,1.75,60.0,420.0,0.0,0.125,3.2714840400000003,2.4661255000000026,0.0,-46220.0,2.125,-67.5,-420.0,0.0,0.0,3.0004879740000003,2.4818850000000023,0.0,43249.0,1.875,45.0,420.0,0.0,0.0,0.8422850700000001,2.470199999999998,0.0,-62354.0,1.75,-67.5,-420.0,0.0,0.125,4.079589426,2.4789999999999974,0.0,0.44999998807907104,-0.6600000262260437,88.23999786376953,-0.082763671875,0.04351806640625,1.00689697265625,36.5099983215332,0.0,33.0,2.585662841796875,0.0384063720703125,Closing,0.0,0.0,0.0,0.0,0.0,0.0,0.0,0.0,
0.3149270000000106,0.0,0.0,15963.0,1.25,90.0,0.0,0.0,0.125,3.277587555,0.01,-0.009765623999999917,-46220.0,2.0,-75.0,-0.0,0.0,6.125,3.018798519,0.01,0.01464843600000032,43249.0,1.625,90.0,0.0,0.0,4.625,0.819091713,0.01,0.004882811999999959,-62354.0,1.0,-75.0,-0.0,0.0,5.25,4.074706614,0.01,-0.0012207029999995456,0.44999998807907104,-0.8100000023841858,88.37000274658203,0.07470703125,-0.00897216796875,1.016845703125,36.52000045776367,0.0,-14.0,2.5857086181640625,0.040924072265625,Closing,0.0,0.0,0.0,0.0,0.0,0.0,0.0,0.0,
0.3722300000000105,0.0,0.0,15963.0,0.375,105.0,0.0,0.0,6.75,2.9992672710000003,0.01,-0.006103514999999948,-46236.0,0.25,-82.5,-0.0,0.0,8.25,3.402099261,0.01,0.03417968399999971,43268.0,0.5,105.0,0.0,0.0,6.25,0.43945308000000005,0.01,-0.031738278000000175,-62366.0,0.375,-67.5,-0.0,0.0,7.75,3.708495714,0.01,-0.0024414059999999793,0.47999998927116394,-0.6800000071525574,88.30999755859375,0.03253173828125,-0.16851806640625,0.95538330078125,36.52000045776367,0.0,-175.0,2.585693359375,0.043365478515625,Closing,0.0,0.0,0.0,0.0,0.0,0.0,0.0,0.0,
0.4161490000000049,0.0,0.0,15980.0,0.375,105.0,0.0,0.0,1.75,2.672118867,0.01,-0.30761715600000006,-46236.0,0.125,-112.5,-0.0,0.0,1.5,3.7414546950000003,0.01,0.3942870690000002,43268.0,0.5,112.5,0.0,0.0,1.375,0.09765624,0.01,-0.3710937119999995,-62366.0,0.375,-60.0,-0.0,0.0,1.875,3.3666988740000003,0.01,-0.3613280880000005,0.47999998927116394,-0.5199999809265137,88.2300033569336,0.15447998046875,0.0955810546875,1.06072998046875,36.52000045776367,0.0,91.0,2.58563232421875,0.04449462890625,Closing,0.0,0.0,0.0,0.0,0.0,0.0,0.0,0.0,
0.46761700000001294,0.0,0.0,15980.0,0.375,112.5,0.0,0.0,1.75,2.364501711,0.01,-0.33081051299999986,-46236.0,0.125,-127.5,-0.0,0.0,1.75,4.071044505000001,0.01,0.3466796519999997,43268.0,0.375,127.5,0.0,0.0,1.5,4.748534670000001,0.01,-0.36865230600000043,-62366.0,0.375,-52.5,-0.0,0.0,2.125,3.032226252,0.01,-0.3479003549999997,0.5099999904632568,-0.3700000047683716,88.20999908447266,0.0303955078125,0.0877685546875,1.25396728515625,36.52000045776367,0.0,77.0,2.5865020751953125,0.0445404052734375,Closing,0.0,0.0,0.0,0.0,0.0,0.0,0.0,0.0,
0.5115510000000068,0.0,0.0,15991.0,0.375,90.0,0.0,0.0,1.75,1.9958494050000002,0.01,-0.34912105800000015,-46251.0,0.125,-105.0,-0.0,0.0,1.5,4.471435089,0.01,0.3710937120000004,43286.0,0.375,120.0,0.0,0.0,1.625,4.372558146,0.01,-0.32736336300000035,-62367.0,0.625,0.0,-0.0,0.0,2.25,2.672118867,0.01,-0.3564452760000001,0.5699999928474426,-0.25,88.18000030517578,-0.029296875,0.0489501953125,1.31622314453125,36.52000045776367,0.0,34.0,2.5881805419921875,0.0435791015625,Closing,0.0,0.0,0.0,0.0,0.0,0.0,0.0,0.0,
0.5576330000000016,0.0,0.0,15991.0,0.375,60.0,0.0,0.0,1.875,1.665038892,0.01,-0.33325191900000006,-46251.0,0.125,-52.5,-0.0,0.0,1.5,4.8156733350000005,0.01,0.3369140279999998,43286.0,0.375,75.0,0.0,0.0,1.75,4.051513257,0.01,-0.314941374,-62367.0,0.625,15.0,-0.0,0.0,2.125,2.337646245,0.01,-0.33569332500000026,0.5899999737739563,-0.17000000178813934,88.1500015258789,-0.07806396484375,0.09136962890625,0.8751220703125,36.52000045776367,0.0,79.0,2.5901031494140625,0.042572021484375,Closing,0.0,0.0,0.0,0.0,0.0,0.0,0.0,0.0,
0.6071650000000082,0.0,0.0,15991.0,0.125,82.5,0.0,0.0,1.625,1.3220213490000001,0.01,-0.3320312160000001,-46251.0,0.25,-15.0,-0.0,0.0,1.5,0.22705075800000002,0.01,0.37597652400000037,43286.0,0.375,75.0,0.0,0.0,1.75,3.6926265750000002,0.01,-0.3552245729999992,-62366.0,0.625,7.5,-0.0,0.0,1.875,1.9494626910000001,0.01,-0.3662109,0.7099999785423279,-0.25999999046325684,88.0999984741211,0.03131103515625,0.00360107421875,1.01220703125,36.52000045776367,0.0,-7.0,2.5916595458984375,0.04205322265625,Closing,0.0,0.0,0.0,0.0,0.0,0.0,0.0,0.0,
0.6530720000000001,0.0,0.0,16013.0,0.125,127.5,0.0,0.0,1.125,0.994872945,0.01,-0.3527831669999999,-46255.0,0.25,-22.5,-0.0,0.0,0.75,0.527343696,0.01,-4.578856953000001,43300.0,0.375,97.5,0.0,0.0,0.875,3.4167476970000004,0.01,-0.3503417610000006,-62366.0,0.625,0.0,-0.0,0.0,1.25,1.6809080310000002,0.01,-0.3613280879999998,0.6499999761581421,-0.20000000298023224,88.04000091552734,0.08892822265625,-0.07232666015625,1.15899658203125,36.52000045776367,0.0,-82.0,2.59124755859375,0.041412353515625,Closing,0.0,0.0,0.0,0.0,0.0,0.0,0.0,0.125,
0.7072630000000063,0.0,0.0,16013.0,0.125,127.5,0.0,0.0,0.75,0.783691326,0.01,-0.3527831669999999,-46255.0,0.25,-22.5,-0.0,0.0,0.5,0.643310481,0.01,0.2722167689999999,43300.0,0.375,112.5,0.0,0.0,0.25,3.291015288,0.01,-0.25024411499999966,-62366.0,0.625,0.0,-0.0,0.0,0.625,1.5539549190000002,0.01,-0.264892551,0.46000000834465027,-0.17000000178813934,88.04000091552734,0.00927734375,-0.0494384765625,0.97705078125,36.52000045776367,0.0,-56.0,2.589752197265625,0.040252685546875,Closing,0.0,0.0,0.0,0.0,0.0,0.0,0.0,0.0,
0.7511750000000029,0.0,0.0,16013.0,0.125,82.5,0.0,0.0,0.25,0.676269462,0.01,-0.3186034830000001,-46256.0,0.25,-7.5,-0.0,0.0,0.25,0.664062432,0.01,0.2722167689999999,43314.0,0.375,82.5,0.0,0.0,0.125,3.2666012280000003,0.01,4.807343373,-62366.0,0.375,0.0,-0.0,0.0,0.5,1.5307615620000001,0.01,4.8163984520000005,0.4099999964237213,-0.18000000715255737,88.06999969482422,-0.00775146484375,0.0260009765625,0.96185302734375,36.52000045776367,0.0,18.0,2.5875396728515625,0.0398406982421875,Closing,0.0,0.0,0.0,0.0,0.0,0.0,0.0,0.125,
0.796273000000001,0.0,0.0,16021.0,0.125,45.0,0.0,0.0,0.25,0.678710868,0.01,4.7259521929999995,-46256.0,0.375,0.0,-0.0,0.0,0.25,0.627441342,0.01,0.104980458,43314.0,0.375,45.0,0.0,0.0,0.0,3.281249664,0.01,4.807343373,-62366.0,0.375,0.0,-0.0,0.0,0.25,1.5502928100000002,0.01,-0.014648435999999876,0.46000000834465027,-0.23000000417232513,88.0999984741211,-0.0579833984375,0.03759765625,1.06671142578125,36.52000045776367,0.0,27.0,2.5854949951171875,0.039886474609375,Closing,0.0,0.0,0.0,0.0,0.0,0.0,0.0,0.0,
0.8486820000000007,0.0,0.0,16021.0,0.375,30.0,0.0,0.0,0.375,0.716552661,0.01,-0.06713866499999988,-46256.0,0.375,0.0,-0.0,0.0,0.25,0.590820252,0.01,0.0,43314.0,0.375,30.0,0.0,0.0,0.0,3.3154293480000003,0.01,-0.014648435999999876,-62367.0,0.375,0.0,-0.0,0.0,0.375,1.597900227,0.01,0.028076168999999318,0.4699999988079071,-0.27000001072883606,88.05999755859375,-0.0166015625,-0.0174560546875,1.0465087890625,36.5,0.0,-26.0,2.5831756591796875,0.0404510498046875,Closing,0.0,0.0,0.0,0.0,0.0,0.0,0.0,0.0,
0.8938510000000096,0.0,0.0,16025.0,0.375,22.5,0.0,0.0,0.375,0.770263593,0.01,0.008544920999999484,-46256.0,0.375,0.0,-0.0,0.0,0.25,0.5810546280000001,0.01,-0.0402831990000001,43319.0,0.375,30.0,0.0,0.0,0.125,3.349609032,0.01,0.024414059999999793,-62367.0,0.625,-7.5,-0.0,0.0,0.375,1.640624832,0.01,0.028076168999999318,0.4300000071525574,-0.30000001192092896,88.02999877929688,-0.02362060546875,-0.00958251953125,1.05303955078125,36.5,0.0,-18.0,2.5819244384765625,0.0404510498046875,Closing,0.0,0.0,0.0,0.0,0.0,0.0,0.0,0.0,
0.947419000000009,0.0,0.0,16025.0,0.375,15.0,0.0,0.0,0.375,0.797119059,0.01,0.05371093200000043,-46256.0,0.375,0.0,-0.0,0.0,0.25,0.574951113,0.01,-0.030517574999999297,43319.0,0.375,15.0,0.0,0.0,0.125,3.3642574680000004,0.01,0.0341796840000006,-62367.0,0.625,-7.5,-0.0,0.0,0.375,1.6613767830000001,0.01,0.046386714000000495,0.41999998688697815,-0.30000001192092896,88.04000091552734,-0.0318603515625,0.00830078125,1.0089111328125,36.5,0.0,0.0,2.5819244384765625,0.0405426025390625,Closing,0.0,0.0,0.0,0.0,0.0,0.0,0.0,0.0,
0.9924619999999995,0.0,0.0,16025.0,0.375,7.5,0.0,0.0,0.25,0.811767495,0.01,0.04150390199999965,-46256.0,0.375,0.0,-0.0,0.0,0.25,0.576171816,0.01,-0.006103515000000392,43320.0,0.375,0.0,0.0,0.0,0.0,3.3630367650000004,0.01,0.024414059999999793,-62368.0,0.625,-7.5,-0.0,0.0,0.125,1.666259595,0.01,-4.922599613,0.4399999976158142,-0.33000001311302185,88.08000183105469,-0.006591796875,0.02081298828125,1.05242919921875,36.5,0.0,12.0,2.5819244384765625,0.0406341552734375,Closing,0.0,0.0,0.0,0.0,0.0,0.0,0.0,0.0,
1.0367060000000057,0.0,0.0,16026.0,0.375,0.0,0.0,0.0,0.125,0.8178710100000001,0.01,0.035400387000000144,-46256.0,0.375,0.0,-0.0,0.0,0.25,0.5664061920000001,0.01,-0.004882811999999959,43320.0,0.375,7.5,0.0,0.0,0.0,3.3691402800000003,0.01,-4.9257515640000005,-62368.0,0.625,0.0,-0.0,0.0,0.25,1.674804516,0.01,0.029296871999999974,0.46000000834465027,-0.33000001311302185,88.08999633789062,-6.103515625E-5,0.02294921875,1.0234375,36.5,0.0,14.0,2.5819244384765625,0.040679931640625,Closing,0.0,0.0,0.0,0.0,0.0,0.0,0.0,0.0,
1.0884610000000103,0.0,0.0,16026.0,0.375,0.0,0.0,0.0,0.125,0.8178710100000001,0.01,0.004882811999999959,-46256.0,0.375,0.0,-0.0,0.0,0.25,0.550537053,0.01,-0.009765623999999917,43320.0,0.375,7.5,0.0,0.0,0.0,3.3679195770000003,0.01,0.0024414059999999793,-62368.0,0.625,0.0,-0.0,0.0,0.25,1.669921704,0.01,0.0,0.44999998807907104,-0.3499999940395355,88.05000305175781,-0.01251220703125,0.00543212890625,1.01470947265625,36.5,0.0,-2.0,2.5819244384765625,0.0406951904296875,Closing,0.0,0.0,0.0,0.0,0.0,0.0,0.0,0.0,
1.129893000000011,0.0,0.0,16027.0,0.375,7.5,0.0,0.0,0.125,0.8166503070000001,0.01,-0.0012207029999995456,-46256.0,0.375,0.0,-0.0,0.0,0.25,0.562744083,0.01,-0.004882811999999959,43321.0,0.375,0.0,0.0,0.0,0.0,3.3679195770000003,0.01,0.0024414059999999793,-62368.0,0.625,0.0,-0.0,0.0,0.25,1.666259595,0.01,0.0,0.4399999976158142,-0.3499999940395355,88.05000305175781,-0.01495361328125,0.010986328125,0.97076416015625,36.5,0.0,3.0,2.5819244384765625,0.0406951904296875,Closing,0.0,0.0,0.0,0.0,0.0,0.0,0.0,0.0,
1.175248000000007,0.0,0.0,16027.0,0.375,0.0,0.0,0.0,0.125,0.8166503070000001,0.01,0.0,-46256.0,0.375,0.0,-0.0,0.0,0.25,0.5566405680000001,0.01,-0.003662109000000413,43321.0,0.375,0.0,0.0,0.0,0.0,3.3679195770000003,0.01,-0.0012207029999999897,-62368.0,0.625,0.0,-0.0,0.0,0.25,1.665038892,0.01,0.0,0.44999998807907104,-0.36000001430511475,88.06999969482422,-0.00299072265625,0.015869140625,1.034423828125,36.5,0.0,7.0,2.5819244384765625,0.0406951904296875,Closing,0.0,0.0,0.0,0.0,0.0,0.0,0.0,0.125,
1.2231090000000113,0.0,0.0,16027.0,0.375,0.0,0.0,0.0,0.25,0.8178710100000001,0.01,0.0012207029999995456,-46256.0,0.375,0.0,-0.0,0.0,0.25,0.557861271,0.01,-0.0012207029999995456,43321.0,0.5,0.0,0.0,0.0,0.0,3.3691402800000003,0.01,0.0012207029999999897,-62368.0,0.625,0.0,-0.0,0.0,0.25,1.667480298,0.01,0.0,0.46000000834465027,-0.36000001430511475,88.05999755859375,-0.0103759765625,0.0091552734375,1.058837890625,36.5,0.0,0.0,2.5819244384765625,0.0406951904296875,Closing,0.0,0.0,0.0,0.0,0.0,0.0,0.0,0.0,
1.2711019999999988,0.0,0.0,16027.0,0.375,0.0,0.0,0.0,0.125,0.8166503070000001,0.01,-0.0012207029999995456,-46256.0,0.375,0.0,-0.0,0.0,0.25,0.5566405680000001,0.01,0.0012207029999995456,43321.0,0.5,0.0,0.0,0.0,0.0,3.3679195770000003,0.01,0.0,-62368.0,0.625,0.0,-0.0,0.0,0.25,1.666259595,0.01,0.0,0.46000000834465027,-0.36000001430511475,88.05999755859375,-0.01300048828125,0.0037841796875,0.99407958984375,36.5,0.0,-4.0,2.5819244384765625,0.0406951904296875,Closing,0.0,0.0,0.0,0.0,0.0,0.0,0.0,0.0,
1.3172490000000108,0.0,0.0,16027.0,0.375,0.0,0.0,0.0,0.25,0.8178710100000001,0.01,0.0,-46256.0,0.375,0.0,-0.0,0.0,0.25,0.5566405680000001,0.01,-0.0012207029999995456,43321.0,0.5,0.0,0.0,0.0,0.0,3.3666988740000003,0.01,0.0,-62368.0,0.625,0.0,-0.0,0.0,0.25,1.666259595,0.01,0.0,0.44999998807907104,-0.3499999940395355,88.05999755859375,-0.0030517578125,0.01153564453125,1.00042724609375,36.5,0.0,3.0,2.5819244384765625,0.0406951904296875,Closing,0.0,0.0,0.0,0.0,0.0,0.0,0.0,0.0,
1.3679400000000024,0.0,0.0,16027.0,0.375,0.0,0.0,0.0,0.125,0.8178710100000001,0.01,0.0,-46256.0,0.375,0.0,-0.0,0.0,0.25,0.5554198650000001,0.01,0.0012207029999995456,43321.0,0.5,0.0,0.0,0.0,0.0,3.3679195770000003,0.01,0.0,-62368.0,0.75,0.0,-0.0,0.0,0.25,1.6613767830000001,0.01,0.0,0.46000000834465027,-0.36000001430511475,88.05000305175781,-0.015869140625,0.0145263671875,1.01654052734375,36.4900016784668,0.0,5.0,2.5819244384765625,0.0406951904296875,Closing,0.0,0.0,0.0,0.0,0.0,0.0,0.0,0.0,
1.411974000000002,0.0,0.0,16027.0,0.375,0.0,0.0,0.0,0.125,0.820312416,0.01,0.0,-46256.0,0.375,0.0,-0.0,0.0,0.25,0.557861271,0.01,-0.0012207029999995456,43321.0,0.375,0.0,0.0,0.0,0.0,3.3679195770000003,0.01,0.0,-62368.0,0.625,0.0,-0.0,0.0,0.25,1.665038892,0.01,0.0,0.46000000834465027,-0.36000001430511475,88.05000305175781,-0.00445556640625,0.0069580078125,1.03094482421875,36.4900016784668,0.0,-1.0,2.5819244384765625,0.0406951904296875,Closing,0.0,0.0,0.0,0.0,0.0,0.0,0.0,0.0,
1.4566570000000065,0.0,0.0,16027.0,0.375,0.0,0.0,0.0,0.125,0.8178710100000001,0.01,0.0012207029999995456,-46256.0,0.375,0.0,-0.0,0.0,0.25,0.5566405680000001,0.01,0.0,43321.0,0.5,0.0,0.0,0.0,0.0,3.3691402800000003,0.01,0.0,-62368.0,0.625,0.0,-0.0,0.0,0.25,1.666259595,0.01,0.0,0.46000000834465027,-0.36000001430511475,88.05999755859375,-0.0013427734375,0.00408935546875,1.01763916015625,36.4900016784668,0.0,-3.0,2.5819244384765625,0.0406951904296875,Closing,0.0,0.0,0.0,0.0,0.0,0.0,0.0,0.0,
1.5071200000000098,0.0,0.0,16027.0,0.375,0.0,0.0,0.0,0.25,0.8178710100000001,0.01,-0.0012207029999995456,-46256.0,0.375,0.0,-0.0,0.0,0.25,0.5566405680000001,0.01,0.0012207029999995456,43321.0,0.5,0.0,0.0,0.0,0.0,3.3679195770000003,0.01,0.0,-62368.0,0.75,0.0,-0.0,0.0,0.25,1.665038892,0.01,0.0,0.46000000834465027,-0.3700000047683716,88.05000305175781,-0.0069580078125,0.01080322265625,1.01019287109375,36.4900016784668,0.0,2.0,2.5819244384765625,0.0406951904296875,Closing,0.0,0.0,0.0,0.0,0.0,0.0,0.0,0.0,
1.5733670000000128,0.0,0.0,16027.0,0.375,0.0,0.0,0.0,0.25,0.820312416,0.01,0.0012207029999995456,-46256.0,0.375,0.0,-0.0,0.0,0.25,0.548095647,0.01,-0.0012207029999995456,43321.0,0.5,0.0,0.0,0.0,0.0,3.3679195770000003,0.01,0.0,-62368.0,0.625,0.0,-0.0,0.0,0.25,1.665038892,0.01,0.0,0.46000000834465027,-0.36000001430511475,88.05000305175781,-0.006591796875,0.00140380859375,1.01068115234375,36.4900016784668,0.0,-6.0,2.5819244384765625,0.0406951904296875,Closing,0.0,0.0,0.0,0.0,0.0,0.0,0.0,0.0,
1.6196820000000007,0.0,0.0,16027.0,0.375,0.0,-575.433059334755,0.0,0.25,0.8178710100000001,4.932250999999998,0.0,-46256.0,0.375,0.0,575.433059334755,0.0,0.25,0.5554198650000001,4.963769999999998,0.0,43321.0,0.375,0.0,-575.433059334755,0.0,0.0,3.3691402800000003,0.01,0.0,-62368.0,0.375,0.0,575.433059334755,0.0,0.25,1.665038892,0.01,0.0,0.4699999988079071,-0.36000001430511475,88.05000305175781,-0.01995849609375,0.0079345703125,1.0267333984375,36.4900016784668,0.0,0.0,2.5819244384765625,0.0406951904296875,Closing,0.0,0.0,0.0,0.0,0.0,0.0,0.0,0.0,
1.668726999999999,0.0,0.0,16027.0,1.0,-7.5,-1349.291296005249,0.0,0.25,0.8178710100000001,4.932250999999998,0.0,-46256.0,1.0,0.0,1349.291296005249,0.0,0.25,0.5554198650000001,4.963769999999998,0.0,43321.0,1.875,-15.0,-1349.291296005249,0.0,0.0,3.3691402800000003,0.01,0.0,-62368.0,2.25,7.5,1349.291296005249,0.0,0.25,1.6638181890000001,0.01,0.0,0.4699999988079071,-0.3799999952316284,88.06999969482422,-0.016357421875,0.014892578125,1.01318359375,36.4900016784668,0.0,6.0,2.5819244384765625,0.0406951904296875,Closing,0.0,0.0,0.0,0.0,0.0,0.0,0.0,0.0,
1.7127930000000051,0.0,0.0,15989.0,4.75,-120.0,-1845.3543519973755,0.0,0.25,0.833740149,4.932250999999998,0.0,-46237.0,6.25,60.0,1845.3543519973755,0.0,0.25,0.551757756,4.963769999999998,0.0,43301.0,9.125,-135.0,-1845.3543519973755,0.0,0.0,3.3740230920000003,0.01,0.0,-62350.0,7.5,97.5,1845.3543519973755,0.0,0.25,1.641845535,0.01,0.0,0.4099999964237213,-1.059999942779541,88.13999938964844,-0.37286376953125,0.07647705078125,0.81146240234375,36.4900016784668,0.0,58.0,2.58258056640625,0.0422515869140625,Closing,0.0,0.0,0.0,0.0,0.0,0.0,0.0,0.0,
1.759666000000012,0.0,0.0,15989.0,10.875,-270.0,-2004.0944337844849,0.0,0.125,0.837402258,4.932250999999998,0.0,-46237.0,15.875,165.0,2004.0944337844849,0.0,0.25,0.551757756,4.963769999999998,0.0,43301.0,17.375,-225.0,-2004.0944337844849,0.0,0.0,3.3666988740000003,0.01,0.0,-62350.0,14.25,202.5,2004.0944337844849,0.0,0.25,1.6027830390000002,0.01,0.0,0.41999998688697815,-1.5700000524520874,88.2300033569336,-0.2972412109375,0.0819091796875,1.13409423828125,36.4900016784668,0.0,65.0,2.583984375,0.0485382080078125,Closing,0.0,0.0,0.0,0.0,0.0,0.0,0.0,0.0,
1.804803,0.0,0.0,15989.0,13.125,-330.0,-972.2834515571594,0.0,0.25,0.836181555,4.932250999999998,0.0,-46237.0,21.0,270.0,972.2834515571594,0.0,0.25,0.53710932,4.963769999999998,0.0,43301.0,13.625,-277.5,-972.2834515571594,0.0,0.0,3.3740230920000003,0.01,0.0,-62350.0,13.125,300.0,972.2834515571594,0.0,0.125,1.600341633,0.01,0.0,0.4699999988079071,-2.190000057220459,88.22000122070312,-0.0274658203125,0.03436279296875,0.80010986328125,36.4900016784668,0.0,27.0,2.585723876953125,0.058746337890625,Closing,0.0,0.0,0.0,0.0,0.0,0.0,0.0,0.0,
1.8522880000000004,0.0,0.0,15918.0,2.875,-397.5,0.0,0.0,0.25,0.836181555,4.932250999999998,0.0,-46176.0,5.25,420.0,0.0,0.0,0.25,0.498046824,4.963769999999998,0.0,43248.0,5.375,-345.0,0.0,0.0,0.0,3.3691402800000003,0.01,0.0,-62293.0,5.25,405.0,0.0,0.0,0.25,1.597900227,0.01,0.0,0.5299999713897705,-2.4100000858306885,88.2699966430664,-0.25341796875,-0.09405517578125,1.33795166015625,36.5099983215332,0.0,-112.0,2.58782958984375,0.0711517333984375,Closing,0.0,0.0,0.0,0.0,0.0,0.0,0.0,0.0,
1.896092000000004,0.0,0.0,15918.0,0.25,-450.0,0.0,0.0,0.25,0.8312987430000001,4.932250999999998,0.0012207029999999897,-46176.0,0.5,435.0,0.0,0.0,0.125,0.498046824,4.963769999999998,-0.030517575000000186,43248.0,1.0,-405.0,0.0,0.0,0.0,3.353271141,0.01,0.0,-62293.0,1.0,465.0,0.0,0.0,0.25,1.6076658510000001,0.01,-0.006103514999999504,0.47999998927116394,-2.259999990463257,88.41000366210938,0.11126708984375,0.13934326171875,1.0274658203125,36.5099983215332,0.0,134.0,2.589874267578125,0.084808349609375,Closing,0.0,0.0,0.0,0.0,0.0,0.0,0.0,0.0,
1.9461200000000098,0.0,0.0,15918.0,0.0,-375.0,0.0,0.0,0.25,0.821533119,4.932250999999998,0.0,-46117.0,0.0,337.5,0.0,0.0,0.0,0.498046824,4.963769999999998,-0.021972653999999814,43201.0,0.0,-352.5,0.0,0.0,0.0,3.339843408,0.01,4.919648048999999,-62227.0,0.125,352.5,0.0,0.0,0.25,1.6027830390000002,0.01,0.013427732999999442,0.5600000023841858,-1.7599999904632568,88.52999877929688,0.1829833984375,0.0885009765625,0.92510986328125,36.5099983215332,0.0,84.0,2.5927886962890625,0.0968780517578125,Closing,0.0,0.0,0.0,0.0,0.0,0.0,0.0,0.0,
1.990645000000004,0.0,0.0,15851.0,0.0,-405.0,0.0,0.0,0.125,0.822753822,4.932250999999998,-0.014648435999999987,-46117.0,0.0,345.0,0.0,0.0,0.0,0.498046824,4.963769999999998,0.0,43201.0,0.0,-240.0,0.0,0.0,0.0,3.339843408,0.01,-0.013427732999999442,-62227.0,0.125,442.5,0.0,0.0,0.25,1.6027830390000002,0.01,-0.008544920999999484,0.6299999952316284,-1.7100000381469727,88.47000122070312,0.04315185546875,0.072021484375,1.318603515625,36.5099983215332,0.0,59.0,2.5956878662109375,0.1076812744140625,Closing,0.0,0.0,0.0,0.0,0.0,0.0,0.0,0.0,
2.030495999999999,0.0,0.0,15851.0,0.0,-517.5,0.0,0.0,0.125,0.821533119,4.932250999999998,0.0,-46117.0,0.0,435.0,0.0,0.0,0.0,0.498046824,4.963769999999998,0.0,43201.0,0.0,-195.0,0.0,0.0,0.0,3.339843408,0.01,0.0,-62227.0,0.125,510.0,0.0,0.0,0.25,1.6027830390000002,0.01,0.003662108999999525,0.5799999833106995,-1.5199999809265137,88.5199966430664,0.020751953125,0.0054931640625,0.99383544921875,36.5099983215332,0.0,-3.0,2.5966796875,0.11767578125,Closing,0.0,0.0,0.0,0.0,0.0,0.0,0.0,0.0,
2.073196000000011,0.0,0.0,15851.0,0.0,-457.5,0.0,0.0,0.125,0.822753822,4.932250999999998,0.0,-46053.0,0.0,427.5,0.0,0.0,0.0,0.498046824,4.963769999999998,0.0,43161.0,0.0,-247.5,0.0,0.0,0.0,3.339843408,0.01,0.0,-62166.0,0.125,375.0,0.0,0.0,0.25,1.617431475,0.01,0.0,0.6100000143051147,-1.2400000095367432,88.6500015258789,0.1400146484375,-0.0318603515625,1.05108642578125,36.5099983215332,0.0,-39.0,2.5966644287109375,0.12646484375,Closing,0.0,0.0,0.0,0.0,0.0,0.0,0.0,0.0,
2.1170149999999994,0.0,0.0,15795.0,0.0,-322.5,0.0,0.0,0.25,0.822753822,4.932250999999998,0.0,-46053.0,0.0,360.0,0.0,0.0,0.0,0.498046824,4.963769999999998,0.0,43161.0,0.0,-262.5,0.0,0.0,0.0,3.338622705,0.01,0.0,-62166.0,0.125,300.0,0.0,0.0,0.25,1.6040037420000002,0.01,0.014648435999999876,0.5699999928474426,-1.149999976158142,88.69999694824219,0.0596923828125,0.0478515625,1.0252685546875,36.5099983215332,0.0,39.0,2.59649658203125,0.133575439453125,Closing,0.0,0.0,0.0,0.0,0.0,0.0,0.0,0.0,
2.164597000000009,0.0,0.0,15795.0,0.0,-345.0,0.0,0.0,0.25,0.821533119,4.932250999999998,0.0,-46053.0,0.0,315.0,0.0,0.0,0.0,0.498046824,4.963769999999998,0.0,43161.0,0.0,-247.5,0.0,0.0,0.0,3.339843408,0.01,0.0,-62166.0,0.125,307.5,0.0,0.0,0.125,1.597900227,0.01,-0.013427732999999442,0.5699999928474426,-0.949999988079071,88.70999908447266,0.061279296875,0.012451171875,1.0518798828125,36.5099983215332,0.0,3.0,2.5964508056640625,0.1397247314453125,Closing,0.0,0.0,0.0,0.0,0.0,0.0,0.0,0.0,
2.2082820000000067,0.0,0.0,15747.0,0.0,-307.5,0.0,0.0,0.25,0.822753822,4.932250999999998,0.0,-46007.0,0.0,277.5,0.0,0.0,0.0,0.498046824,4.963769999999998,0.0,43121.0,0.125,-240.0,0.0,0.0,0.0,3.338622705,0.01,0.0,-62117.0,0.125,285.0,0.0,0.0,0.25,1.597900227,0.01,-0.004882811999999959,0.5699999928474426,-0.8299999833106995,88.73999786376953,0.0906982421875,0.02740478515625,0.96026611328125,36.5099983215332,0.0,20.0,2.596466064453125,0.14324951171875,Closing,0.0,0.0,0.0,0.0,0.0,0.0,0.0,0.0,
2.251423999999999,0.0,0.0,15747.0,0.0,-240.0,0.0,0.0,0.125,0.822753822,4.932250999999998,0.0,-46007.0,0.0,232.5,0.0,0.0,0.0,0.507812448,4.963769999999998,0.0,43121.0,0.0,-225.0,0.0,0.0,0.0,3.338622705,0.01,0.0,-62117.0,0.125,225.0,0.0,0.0,0.25,1.597900227,0.01,-0.004882811999999959,0.5799999833106995,-0.6700000166893005,88.79000091552734,0.07513427734375,0.033447265625,1.07623291015625,36.5099983215332,0.0,24.0,2.5965576171875,0.1475677490234375,Closing,0.0,0.0,0.0,0.0,0.0,0.0,0.0,0.0,
2.2917830000000103,0.0,0.0,15747.0,0.0,-202.5,0.0,0.0,0.125,0.821533119,4.932250999999998,0.0,-46007.0,0.0,187.5,0.0,0.0,0.0,0.507812448,4.963769999999998,0.009765623999999917,43121.0,0.0,-195.0,0.0,0.0,0.0,3.339843408,0.01,0.0,-62092.0,0.125,180.0,0.0,0.0,0.25,1.597900227,0.01,0.0,0.5699999928474426,-0.5,88.8499984741211,0.073486328125,0.04339599609375,1.0350341796875,36.5099983215332,0.0,34.0,2.596923828125,0.1508331298828125,Closing,0.0,0.0,0.0,0.0,0.0,0.0,0.0,0.0,
2.3349370000000054,0.0,0.0,15721.0,0.125,-165.0,-347.2440853714943,0.0,1.375,0.875244051,0.5498168668524864,0.0,-45981.0,0.25,142.5,-347.2440853714943,0.0,2.0,0.507812448,4.41043958977222,0.0,43094.0,0.125,-157.5,-347.2440853714943,0.0,0.5,3.3251949720000002,4.389674732977291,0.0,-62092.0,0.375,142.5,-347.2440853714943,0.0,2.5,1.6845701400000002,0.552687206278561,0.0,0.5699999928474426,-0.30000001192092896,88.87999725341797,0.09796142578125,-0.0062255859375,0.94744873046875,36.5099983215332,0.0,-13.0,2.5975341796875,0.1529083251953125,Closing,0.0,0.0,0.0,0.0,0.0,0.0,0.0,0.0,
2.380022000000012,0.0,0.0,15721.0,0.125,-120.0,-628.3464699983597,0.0,2.25,1.022949114,0.5498168668524864,0.0,-45981.0,1.5,90.0,-628.3464699983597,0.0,2.625,0.318603483,4.41043958977222,0.0,43094.0,0.375,-120.0,-628.3464699983597,0.0,1.75,3.144530928,4.389674732977291,0.0,-62092.0,1.0,60.0,-628.3464699983597,0.0,1.625,1.877441214,0.552687206278561,0.0,0.5699999928474426,-0.05999999865889549,88.93000030517578,0.11865234375,-0.0611572265625,0.9296875,36.4900016784668,0.0,-68.0,2.5975189208984375,0.153778076171875,Closing,0.0,0.0,0.0,0.0,0.0,0.0,0.0,0.0,
2.4260869999999994,0.0,0.0,15721.0,0.625,-135.0,-909.4488233327866,0.0,0.75,1.176757692,0.5498168668524864,0.0,-45980.0,3.875,37.5,-909.4488233327866,0.0,0.5,0.147705063,4.41043958977222,0.0,43070.0,1.0,-112.5,-909.4488233327866,0.0,0.5,2.979736023,4.389674732977291,0.0,-62093.0,3.75,-7.5,-909.4488233327866,0.0,0.625,2.03857401,0.552687206278561,0.0,0.5299999713897705,0.05000000074505806,89.05999755859375,0.0714111328125,-0.04559326171875,1.02838134765625,36.4900016784668,0.0,-54.0,2.5972442626953125,0.1534881591796875,Closing,0.0,0.0,0.0,0.0,0.0,0.0,0.0,0.0,
2.469162000000011,0.0,0.0,15679.0,2.25,-232.5,-942.519673705101,0.0,0.625,1.282958853,0.5498168668524864,0.0,-45980.0,6.75,-22.5,-942.519673705101,0.0,0.25,0.032958981,4.41043958977222,0.0,43070.0,3.0,-165.0,-942.519673705101,0.0,0.375,2.874755565,4.389674732977291,0.0,-62093.0,5.75,-97.5,-942.519673705101,0.0,0.625,2.131347438,0.552687206278561,0.0,0.550000011920929,0.0,89.56999969482422,0.02337646484375,0.056396484375,0.94403076171875,36.4900016784668,0.0,-69.0,2.59698486328125,0.1526947021484375,Closing,0.0,0.0,0.0,0.0,0.0,0.0,0.0,0.0,
2.5135330000000105,0.0,0.0,15679.0,2.375,-270.0,-429.9212738871575,0.0,0.5,1.331786973,0.5498168668524864,0.0,-45980.0,7.0,-120.0,-429.9212738871575,0.0,0.25,4.927978011,4.41043958977222,0.0,43070.0,3.125,-187.5,-429.9212738871575,0.0,0.25,2.827148148,4.389674732977291,0.0,-62093.0,4.625,-172.5,-429.9212738871575,0.0,0.375,2.1643064190000003,0.552687206278561,0.0,0.5199999809265137,-0.009999999776482582,90.55999755859375,-0.01959228515625,-0.01422119140625,1.115966796875,36.4900016784668,0.0,-24.0,2.5967254638671875,0.152496337890625,Closing,0.0,0.0,0.0,0.0,0.0,0.0,0.0,0.0,
2.561047000000006,0.0,0.0,15670.0,0.375,-112.5,0.0,0.0,0.375,1.351318221,0.5498168668524864,0.03906249600000011,-46018.0,1.625,-232.5,0.0,0.0,0.25,4.903563951000001,4.41043958977222,4.903563951000001,43049.0,0.5,-120.0,0.0,0.0,0.125,2.8076169,4.389674732977291,-0.04150390199999965,-62129.0,0.875,-225.0,0.0,0.0,0.375,2.180175558,0.552687206278561,0.031738278000000175,0.5699999928474426,-0.1599999964237213,91.79000091552734,-0.0411376953125,-0.01953125,1.0194091796875,36.4900016784668,0.0,-28.0,2.5963897705078125,0.15264892578125,Closing,0.0,0.0,0.0,0.0,0.0,0.0,0.0,0.0,
2.604952000000005,0.0,0.0,15670.0,0.25,-67.5,0.0,0.0,0.125,1.36718736,0.5498168668524864,0.03906249600000011,-46018.0,0.75,-232.5,0.0,0.0,0.0,4.897460436,4.41043958977222,4.903563951000001,43049.0,0.0,-82.5,0.0,0.0,0.125,2.8039547910000002,4.389674732977291,-0.04150390199999965,-62129.0,0.125,-202.5,0.0,0.0,0.125,2.183837667,0.552687206278561,0.031738278000000175,0.6399999856948853,-0.2199999988079071,92.98999786376953,-0.0537109375,0.02734375,1.0491943359375,36.4900016784668,0.0,18.0,2.5964202880859375,0.1529693603515625,Closing,0.0,0.0,0.0,0.0,0.0,0.0,0.0,0.0,
2.64799500000001,0.0,0.0,15670.0,0.0,-142.5,0.0,0.0,0.125,1.3708494690000002,0.5498168668524864,0.023193356999999803,-46018.0,0.0,-82.5,0.0,0.0,0.125,4.897460436,4.41043958977222,-0.02075195100000027,43049.0,0.0,-52.5,0.0,0.0,0.0,2.8039547910000002,4.389674732977291,-0.019531247999999835,-62144.0,0.125,-112.5,0.0,0.0,0.125,2.188720479,0.552687206278561,0.018310544999999845,0.5400000214576721,-0.2199999988079071,94.0,-0.0296630859375,-0.01629638671875,1.045166015625,36.4900016784668,0.0,-24.0,2.5962677001953125,0.1535797119140625,Closing,0.0,0.0,0.0,0.0,0.0,0.0,0.0,0.0,
2.693372000000003,0.0,0.0,15636.0,0.0,-202.5,0.0,0.0,0.125,1.3708494690000002,0.5498168668524864,0.0,-46022.0,0.0,-30.0,0.0,0.0,0.125,4.899901842,4.41043958977222,0.0,43042.0,0.0,-37.5,0.0,0.0,0.0,2.805175494,4.389674732977291,0.0,-62144.0,0.125,-75.0,0.0,0.0,0.25,2.213134539,0.552687206278561,0.012207029999999897,0.5400000214576721,-0.17000000178813934,94.68000030517578,0.0594482421875,0.05853271484375,0.98907470703125,36.4900016784668,0.0,43.0,2.59588623046875,0.15423583984375,Closing,0.0,0.0,0.0,0.0,0.0,0.0,0.0,0.0,
2.7333950000000042,0.0,0.0,15636.0,0.0,-172.5,0.0,0.0,0.125,1.3708494690000002,0.5498168668524864,0.004882812000000181,-46022.0,0.0,-67.5,0.0,0.0,0.125,4.897460436,4.41043958977222,0.0,43042.0,0.0,-90.0,0.0,0.0,0.0,2.805175494,4.389674732977291,0.0,-62144.0,0.125,-105.0,0.0,0.0,0.25,2.213134539,0.552687206278561,0.017089841999999855,0.6000000238418579,-0.20999999344348907,95.11000061035156,-0.0343017578125,0.03173828125,1.06097412109375,36.4900016784668,0.0,23.0,2.5957794189453125,0.1543731689453125,Closing,0.0,0.0,0.0,0.0,0.0,0.0,0.0,0.0,
2.7760060000000086,0.0,0.0,15636.0,0.0,-105.0,0.0,0.0,0.125,1.3708494690000002,0.5498168668524864,0.0,-46036.0,0.0,-90.0,0.0,0.0,0.125,4.897460436,4.41043958977222,0.0,43026.0,0.0,-112.5,0.0,0.0,0.0,2.8039547910000002,4.389674732977291,0.0,-62157.0,0.125,-75.0,0.0,0.0,0.25,2.211913836,0.552687206278561,0.0,0.6299999952316284,-0.2199999988079071,95.27999877929688,-0.0101318359375,-0.025634765625,1.0560302734375,36.4900016784668,0.0,-36.0,2.5959320068359375,0.1544647216796875,Closing,0.0,0.0,0.0,0.0,0.0,0.0,0.0,0.0,
2.8293090000000083,0.0,0.0,15627.0,0.0,-60.0,0.0,0.0,0.125,1.3708494690000002,0.5498168668524864,0.0,-46036.0,0.0,-52.5,0.0,0.0,0.125,4.897460436,4.41043958977222,0.0,43026.0,0.0,-30.0,0.0,0.0,0.0,2.8039547910000002,4.389674732977291,0.0,-62157.0,0.125,-37.5,0.0,0.0,0.25,2.211913836,0.552687206278561,0.0,0.5799999833106995,-0.20999999344348907,95.2300033569336,0.00286865234375,-0.0146484375,1.01275634765625,36.4900016784668,0.0,-25.0,2.595916748046875,0.1544647216796875,Closing,0.0,0.0,0.0,0.0,0.0,0.0,0.0,0.0,
2.873646000000008,0.0,0.0,15627.0,0.0,-7.5,0.0,0.0,0.25,1.3708494690000002,0.5498168668524864,0.0,-46036.0,0.0,0.0,0.0,0.0,0.125,4.898681139000001,4.41043958977222,0.0,43026.0,0.0,0.0,0.0,0.0,0.0,2.8039547910000002,4.389674732977291,0.0,-62157.0,0.125,-15.0,0.0,0.0,0.25,2.207031024,0.552687206278561,0.0,0.5699999928474426,-0.2199999988079071,95.16000366210938,-0.005859375,0.0167236328125,1.04718017578125,36.41999816894531,0.0,6.0,2.5958099365234375,0.1544647216796875,Closing,0.0,0.0,0.0,0.0,0.0,0.0,0.0,0.0,
2.9169840000000113,0.0,0.0,15627.0,0.0,0.0,0.0,0.0,0.25,1.3708494690000002,0.5498168668524864,0.0,-46036.0,0.0,0.0,0.0,0.0,0.125,4.897460436,4.41043958977222,0.0,43026.0,0.125,0.0,0.0,0.0,0.0,2.8039547910000002,4.389674732977291,0.0,-62158.0,0.125,0.0,0.0,0.0,0.25,2.203368915,0.552687206278561,-0.004882811999999959,0.5799999833106995,-0.20999999344348907,95.05000305175781,-0.01971435546875,0.0179443359375,1.069580078125,36.41999816894531,0.0,8.0,2.5958099365234375,0.1544647216796875,Closing,0.0,0.0,0.0,0.0,0.0,0.0,0.0,0.0,
2.964722000000009,0.0,0.0,15627.0,0.0,0.0,0.0,0.0,0.25,1.3708494690000002,0.5498168668524864,0.0,-46036.0,0.0,0.0,0.0,0.0,0.125,4.897460436,4.41043958977222,0.0,43026.0,0.0,0.0,0.0,0.0,0.0,2.8039547910000002,4.389674732977291,0.0,-62158.0,0.125,0.0,0.0,0.0,0.25,2.203368915,0.552687206278561,-0.004882811999999959,0.5899999737739563,-0.2199999988079071,94.97000122070312,-0.02410888671875,0.00250244140625,0.96942138671875,36.41999816894531,0.0,-5.0,2.5958099365234375,0.15447998046875,Closing,0.0,0.0,0.0,0.0,0.0,0.0,0.0,0.0,
3.007673999999999,0.0,0.0,15627.0,0.0,0.0,0.0,0.0,0.125,1.3708494690000002,0.5498168668524864,0.0,-46036.0,0.0,0.0,0.0,0.0,0.125,4.898681139000001,4.41043958977222,0.0,43026.0,0.0,0.0,0.0,0.0,0.0,2.805175494,4.389674732977291,0.0,-62158.0,0.125,0.0,0.0,0.0,0.25,2.203368915,0.552687206278561,-0.004882811999999959,0.5799999833106995,-0.25,94.94000244140625,-0.01727294921875,9.765625E-4,1.01910400390625,36.41999816894531,0.0,-8.0,2.5958099365234375,0.15460205078125,Closing,0.0,0.0,0.0,0.0,0.0,0.0,0.0,0.0,
3.051321000000011,0.0,0.0,15627.0,0.0,0.0,0.0,0.0,0.125,1.3720701720000001,0.5498168668524864,0.0,-46036.0,0.0,0.0,0.0,0.0,0.125,4.897460436,4.41043958977222,0.0,43026.0,0.0,0.0,0.0,0.0,0.0,2.805175494,4.389674732977291,0.0,-62158.0,0.125,0.0,0.0,0.0,0.25,2.203368915,0.552687206278561,0.0,0.5600000023841858,-0.25999999046325684,94.95999908447266,-0.00408935546875,0.014892578125,1.0404052734375,36.41999816894531,0.0,4.0,2.5958099365234375,0.15460205078125,Closing,0.0,0.0,0.0,0.0,0.0,0.0,0.0,0.0,
3.0931800000000074,0.0,0.0,15627.0,0.0,0.0,0.0,0.0,0.125,1.3708494690000002,0.5498168668524864,0.0,-46036.0,0.0,0.0,0.0,0.0,0.125,4.897460436,4.41043958977222,0.0,43026.0,0.0,0.0,0.0,0.0,0.0,2.8027340880000002,4.389674732977291,-0.0012207030000004337,-62158.0,0.125,0.0,0.0,0.0,0.25,2.203368915,0.552687206278561,0.0,0.5699999928474426,-0.25,95.0,-0.00390625,0.016845703125,0.999267578125,36.41999816894531,0.0,6.0,2.5958099365234375,0.15460205078125,Closing,0.0,0.0,0.0,0.0,0.0,0.0,0.0,0.0,
3.1329690000000117,0.0,0.0,15627.0,0.0,0.0,0.0,0.0,0.25,1.3708494690000002,0.5498168668524864,0.0,-46036.0,0.0,0.0,0.0,0.0,0.125,4.898681139000001,4.41043958977222,0.0,43026.0,0.0,0.0,0.0,0.0,0.0,2.805175494,4.389674732977291,0.0012207030000004337,-62158.0,0.125,0.0,0.0,0.0,0.25,2.202148212,0.552687206278561,0.0,0.5799999833106995,-0.25,95.0,-0.009521484375,0.0126953125,1.03765869140625,36.41999816894531,0.0,2.0,2.5958099365234375,0.15460205078125,Closing,0.0,0.0,0.0,0.0,0.0,0.0,0.0,0.0,
3.1757980000000097,0.0,0.0,15627.0,0.0,0.0,0.0,0.0,0.125,1.3708494690000002,0.5498168668524864,0.0,-46036.0,0.0,0.0,0.0,0.0,0.125,4.897460436,4.41043958977222,0.0,43026.0,0.0,0.0,0.0,0.0,0.0,2.805175494,4.389674732977291,0.0,-62158.0,0.125,0.0,0.0,0.0,0.25,2.203368915,0.552687206278561,0.0,0.5699999928474426,-0.25999999046325684,94.98999786376953,-0.004150390625,-0.004150390625,1.010009765625,36.41999816894531,0.0,-14.0,2.5958099365234375,0.15460205078125,Closing,0.0,0.0,0.0,0.0,0.0,0.0,0.0,0.0,
3.219866000000009,0.0,0.0,15627.0,0.0,0.0,0.0,0.0,0.125,1.3708494690000002,0.5498168668524864,0.0,-46036.0,0.0,0.0,0.0,0.0,0.125,4.899901842,4.41043958977222,-0.0012207029999995456,43026.0,0.0,0.0,0.0,0.0,0.0,2.8002926820000003,4.389674732977291,0.0,-62158.0,0.125,0.0,0.0,0.0,0.25,2.203368915,0.552687206278561,0.0,0.550000011920929,-0.25999999046325684,94.97000122070312,-0.0015869140625,0.0093994140625,1.01092529296875,36.41999816894531,0.0,0.0,2.5958099365234375,0.15460205078125,Closing,0.0,0.0,0.0,0.0,0.0,0.0,0.0,0.0,
3.266789000000004,0.0,0.0,15627.0,0.0,0.0,0.0,0.0,0.125,1.3720701720000001,0.5498168668524864,0.0,-46036.0,0.0,0.0,0.0,0.0,0.125,4.899901842,4.41043958977222,0.0012207029999995456,43026.0,0.0,0.0,0.0,0.0,0.0,2.8039547910000002,4.389674732977291,0.0,-62158.0,0.125,0.0,0.0,0.0,0.25,2.203368915,0.552687206278561,0.0,0.5699999928474426,-0.27000001072883606,94.97000122070312,-0.01324462890625,0.0147705078125,1.02850341796875,36.41999816894531,0.0,5.0,2.5958099365234375,0.15460205078125,Closing,0.0,0.0,0.0,0.0,0.0,0.0,0.0,0.0,
3.3109200000000127,0.0,0.0,15627.0,0.0,0.0,0.0,0.0,0.25,1.3708494690000002,0.5498168668524864,0.0,-46036.0,0.0,0.0,0.0,0.0,0.125,4.897460436,4.41043958977222,0.0012207029999995456,43026.0,0.0,0.0,0.0,0.0,0.0,2.8039547910000002,4.389674732977291,-0.0012207030000004337,-62158.0,0.125,0.0,0.0,0.0,0.25,2.202148212,0.552687206278561,0.0,0.5699999928474426,-0.28999999165534973,94.9800033569336,-0.01434326171875,0.00421142578125,1.01336669921875,36.41999816894531,0.0,-5.0,2.5958099365234375,0.15460205078125,Closing,0.0,0.0,0.0,0.0,0.0,0.0,0.0,0.0,
3.3550740000000077,0.0,0.0,15627.0,0.0,0.0,0.0,0.0,0.25,1.3708494690000002,0.5498168668524864,0.0,-46036.0,0.0,0.0,0.0,0.0,0.125,4.898681139000001,4.41043958977222,0.0,43026.0,0.0,0.0,0.0,0.0,0.0,2.8039547910000002,4.389674732977291,0.0,-62158.0,0.125,0.0,0.0,0.0,0.25,2.202148212,0.552687206278561,0.0,0.550000011920929,-0.28999999165534973,94.98999786376953,-7.9345703125E-4,0.005615234375,1.00665283203125,36.41999816894531,0.0,-4.0,2.5958099365234375,0.15460205078125,Closing,0.0,0.0,0.0,0.0,0.0,0.0,0.0,0.0,
3.4034900000000055,0.0,0.0,15627.0,0.0,0.0,0.0,0.0,0.125,1.3708494690000002,0.5498168668524864,0.0,-46036.0,0.0,0.0,0.0,0.0,0.125,4.898681139000001,4.41043958977222,0.0,43026.0,0.0,0.0,0.0,0.0,0.0,2.8039547910000002,4.389674732977291,0.0,-62158.0,0.125,0.0,0.0,0.0,0.25,2.202148212,0.552687206278561,0.0,0.550000011920929,-0.28999999165534973,94.98999786376953,-0.00274658203125,0.0142822265625,1.01678466796875,36.439998626708984,0.0,4.0,2.5958099365234375,0.15460205078125,Closing,0.0,0.0,0.0,0.0,0.0,0.0,0.0,0.0,
3.4478800000000045,0.0,0.0,15627.0,0.0,0.0,0.0,0.0,0.125,1.3708494690000002,0.5498168668524864,0.0,-46036.0,0.0,0.0,0.0,0.0,0.125,4.898681139000001,4.41043958977222,0.0,43026.0,0.0,0.0,0.0,0.0,0.0,2.8039547910000002,4.389674732977291,0.0012207030000004337,-62158.0,0.125,0.0,0.0,0.0,0.25,2.203368915,0.552687206278561,0.0,0.550000011920929,-0.28999999165534973,94.9800033569336,-0.01519775390625,0.010009765625,1.01617431640625,36.439998626708984,0.0,0.0,2.5958099365234375,0.15460205078125,Closing,0.0,0.0,0.0,0.0,0.0,0.0,0.0,0.0,
3.4898300000000018,0.0,0.0,15627.0,0.0,0.0,0.0,0.0,0.25,1.3720701720000001,0.5498168668524864,0.0,-46036.0,0.0,0.0,0.0,0.0,0.125,4.899901842,4.41043958977222,0.0,43026.0,0.0,0.0,0.0,0.0,0.0,2.7990719790000003,4.389674732977291,0.0,-62158.0,0.125,0.0,0.0,0.0,0.25,2.203368915,0.552687206278561,0.0,0.550000011920929,-0.3100000023841858,94.97000122070312,-0.01422119140625,0.00775146484375,1.00958251953125,36.439998626708984,0.0,-1.0,2.5958099365234375,0.15460205078125,Closing,0.0,0.0,0.0,0.0,0.0,0.0,0.0,0.0,
3.5309890000000013,0.0,0.0,15627.0,0.0,0.0,0.0,0.0,0.25,1.3708494690000002,0.5498168668524864,0.0,-46036.0,0.0,0.0,0.0,0.0,0.125,4.898681139000001,4.41043958977222,0.0,43026.0,0.0,0.0,0.0,0.0,0.0,2.8039547910000002,4.389674732977291,-0.0024414059999999793,-62158.0,0.125,0.0,0.0,0.0,0.25,2.203368915,0.552687206278561,0.0,0.550000011920929,-0.3199999928474426,94.9800033569336,-0.00897216796875,0.0123291015625,1.02764892578125,36.439998626708984,0.0,2.0,2.5958099365234375,0.15460205078125,Closing,0.0,0.0,0.0,0.0,0.0,0.0,0.0,0.0,
3.5730750000000118,0.0,0.0,15627.0,0.0,0.0,0.0,0.0,0.25,1.3720701720000001,0.5498168668524864,0.0,-46036.0,0.0,0.0,0.0,0.0,0.125,4.896239733000001,4.41043958977222,0.0,43026.0,0.0,0.0,0.0,0.0,0.0,2.805175494,4.389674732977291,0.0024414059999999793,-62158.0,0.125,0.0,0.0,0.0,0.25,2.203368915,0.552687206278561,0.0,0.5299999713897705,-0.33000001311302185,94.9800033569336,-0.01385498046875,0.0384521484375,1.04132080078125,36.439998626708984,0.0,29.0,2.5958404541015625,0.154510498046875,Closing,0.0,0.0,0.0,0.0,0.0,0.0,0.0,0.0,
3.614873000000007,0.0,0.0,15627.0,0.0,0.0,0.0,0.0,0.125,1.3708494690000002,0.5498168668524864,0.0,-46036.0,0.0,0.0,0.0,0.0,0.125,4.897460436,4.41043958977222,0.0,43026.0,0.0,0.0,0.0,0.0,0.0,2.8039547910000002,4.389674732977291,-0.0012207030000004337,-62158.0,0.125,0.0,0.0,0.0,0.25,2.203368915,0.552687206278561,0.0,0.5400000214576721,-0.33000001311302185,94.9800033569336,-0.00616455078125,0.0115966796875,1.007568359375,36.439998626708984,0.0,2.0,2.595916748046875,0.1544647216796875,Closing,0.0,0.0,0.0,0.0,0.0,0.0,0.0,0.0,
3.6642079999999986,0.0,0.0,15627.0,0.0,0.0,0.0,0.0,0.125,1.3708494690000002,0.5498168668524864,0.0,-46036.0,0.0,0.0,0.0,0.0,0.125,4.898681139000001,4.41043958977222,0.0,43026.0,0.0,0.0,0.0,0.0,0.0,2.805175494,4.389674732977291,0.0012207030000004337,-62158.0,0.125,0.0,0.0,0.0,0.25,2.203368915,0.552687206278561,0.0,0.5299999713897705,-0.3199999928474426,94.9800033569336,0.00732421875,-0.00238037109375,0.96026611328125,36.439998626708984,0.0,-12.0,2.595916748046875,0.1544647216796875,Closing,0.0,0.0,0.0,0.0,0.0,0.0,0.0,0.0,
3.708252000000008,0.0,0.0,15627.0,0.0,0.0,0.0,0.0,0.125,1.3708494690000002,0.5498168668524864,0.0,-46036.0,0.0,0.0,0.0,0.0,0.125,4.897460436,4.41043958977222,0.0,43026.0,0.125,0.0,0.0,0.0,0.0,2.8039547910000002,4.389674732977291,0.0012207030000004337,-62158.0,0.125,0.0,0.0,0.0,0.25,2.202148212,0.552687206278561,0.0,0.550000011920929,-0.3400000035762787,94.97000122070312,-0.02508544921875,0.01654052734375,1.09014892578125,36.439998626708984,0.0,7.0,2.595916748046875,0.1544647216796875,Closing,0.0,0.0,0.0,0.0,0.0,0.0,0.0,0.0,
3.7511240000000106,0.0,0.0,15627.0,0.0,0.0,0.0,0.0,0.125,1.3708494690000002,0.5498168668524864,0.0,-46036.0,0.0,0.0,0.0,0.0,0.125,4.897460436,4.41043958977222,0.0,43026.0,0.0,0.0,0.0,0.0,0.0,2.8039547910000002,4.389674732977291,0.0,-62158.0,0.125,0.0,0.0,0.0,0.25,2.202148212,0.552687206278561,0.0,0.550000011920929,-0.3499999940395355,94.97000122070312,-0.00457763671875,0.016357421875,1.01043701171875,36.439998626708984,0.0,6.0,2.595916748046875,0.1544647216796875,Closing,0.0,0.0,0.0,0.0,0.0,0.0,0.0,0.0,
3.793617000000013,0.0,0.0,15627.0,0.0,0.0,0.0,0.0,0.25,1.3708494690000002,0.5498168668524864,0.0,-46036.0,0.0,0.0,0.0,0.0,0.125,4.898681139000001,4.41043958977222,0.0,43026.0,0.0,0.0,0.0,0.0,0.0,2.8039547910000002,4.389674732977291,-0.003662109000000413,-62158.0,0.125,0.0,0.0,0.0,0.25,2.203368915,0.552687206278561,0.0,0.5600000023841858,-0.3400000035762787,94.97000122070312,-0.0078125,-0.0023193359375,1.03125,36.439998626708984,0.0,-12.0,2.595916748046875,0.1544647216796875,Closing,0.0,0.0,0.0,0.0,0.0,0.0,0.0,0.0,
3.832968000000008,0.0,0.0,15627.0,0.0,0.0,0.0,0.0,0.25,1.3708494690000002,0.5498168668524864,0.0,-46036.0,0.0,0.0,0.0,0.0,0.125,4.898681139000001,4.41043958977222,0.0,43026.0,0.0,0.0,0.0,0.0,0.0,2.8039547910000002,4.389674732977291,0.003662109000000413,-62158.0,0.125,0.0,0.0,0.0,0.25,2.203368915,0.552687206278561,0.0,0.550000011920929,-0.33000001311302185,94.97000122070312,0.00372314453125,-0.0086669921875,1.0123291015625,36.439998626708984,0.0,-19.0,2.595916748046875,0.1544647216796875,Closing,0.0,0.0,0.0,0.0,0.0,0.0,0.0,0.0,
3.8760869999999996,0.0,0.0,15627.0,0.0,0.0,0.0,0.0,0.25,1.3708494690000002,0.5498168668524864,0.0,-46036.0,0.0,0.0,0.0,0.0,0.125,4.897460436,4.41043958977222,0.0,43026.0,0.0,0.0,0.0,0.0,0.0,2.8027340880000002,4.389674732977291,0.0,-62158.0,0.125,0.0,0.0,0.0,0.25,2.202148212,0.552687206278561,0.0,0.5299999713897705,-0.33000001311302185,94.95999908447266,-0.0140380859375,0.01531982421875,1.00872802734375,36.470001220703125,0.0,6.0,2.5957794189453125,0.1545562744140625,Closing,0.0,0.0,0.0,0.0,0.0,0.0,0.0,0.0,
3.924498000000007,0.0,0.0,15627.0,0.0,0.0,0.0,0.0,0.125,1.3708494690000002,0.5498168668524864,0.0,-46036.0,0.0,0.0,0.0,0.0,0.125,4.898681139000001,4.41043958977222,0.0,43026.0,0.0,0.0,0.0,0.0,0.0,2.7990719790000003,4.389674732977291,0.0,-62158.0,0.125,0.0,0.0,0.0,0.25,2.203368915,0.552687206278561,0.0,0.550000011920929,-0.3499999940395355,94.97000122070312,-0.02001953125,0.013427734375,0.99627685546875,36.470001220703125,0.0,5.0,2.5957794189453125,0.1545562744140625,Closing,0.0,0.0,0.0,0.0,0.0,0.0,0.0,0.0,
3.967152000000002,0.0,0.0,15627.0,0.0,0.0,0.0,0.0,0.25,1.3720701720000001,0.5498168668524864,0.0,-46036.0,0.0,0.0,0.0,0.0,0.125,4.899901842,4.41043958977222,0.0,43026.0,0.0,0.0,0.0,0.0,0.0,2.8039547910000002,4.389674732977291,-0.0012207030000004337,-62158.0,0.125,0.0,0.0,0.0,0.25,2.203368915,0.552687206278561,0.0,0.5400000214576721,-0.3400000035762787,94.97000122070312,-0.00482177734375,-6.103515625E-4,1.005859375,36.470001220703125,0.0,-10.0,2.5957794189453125,0.1545562744140625,Closing,0.0,0.0,0.0,0.0,0.0,0.0,0.0,0.0,
4.0133010000000064,0.0,0.0,15627.0,0.0,0.0,0.0,0.0,0.25,1.3708494690000002,0.5498168668524864,0.0,-46036.0,0.0,0.0,0.0,0.0,0.125,4.89501903,4.41043958977222,-0.0024414059999999793,43026.0,0.0,0.0,0.0,0.0,0.0,2.7990719790000003,4.389674732977291,0.0,-62158.0,0.125,0.0,0.0,0.0,0.25,2.203368915,0.552687206278561,0.0,0.5600000023841858,-0.3400000035762787,94.95999908447266,-0.019287109375,0.02178955078125,1.03460693359375,36.470001220703125,0.0,12.0,2.595703125,0.1545562744140625,Closing,0.0,0.0,0.0,0.0,0.0,0.0,0.0,0.0,
4.057417000000001,0.0,0.0,15627.0,0.0,0.0,0.0,0.0,0.25,1.3708494690000002,0.5498168668524864,0.0,-46036.0,0.0,0.0,0.0,0.0,0.125,4.897460436,4.41043958977222,-0.0024414059999999793,43026.0,0.0,0.0,0.0,0.0,0.0,2.8039547910000002,4.389674732977291,0.0,-62158.0,0.125,0.0,0.0,0.0,0.25,2.203368915,0.552687206278561,0.0,0.5400000214576721,-0.3499999940395355,94.94000244140625,-0.00830078125,-0.03277587890625,0.9686279296875,36.470001220703125,0.0,-41.0,2.5956878662109375,0.1545562744140625,Closing,0.0,0.0,0.0,0.0,0.0,0.0,0.0,0.0,
4.099997000000003,0.0,0.0,15627.0,0.0,0.0,0.0,0.0,0.125,1.3708494690000002,0.5498168668524864,0.0,-46036.0,0.0,0.0,0.0,0.0,0.125,4.892577624,4.41043958977222,0.0012207030000004337,43026.0,0.0,0.0,0.0,0.0,0.0,2.8039547910000002,4.389674732977291,0.0012207030000004337,-62158.0,0.125,0.0,0.0,0.0,0.25,2.203368915,0.552687206278561,0.0,0.5400000214576721,-0.3400000035762787,94.94999694824219,-0.00897216796875,0.0164794921875,1.01898193359375,36.470001220703125,0.0,6.0,2.59552001953125,0.1545562744140625,Closing,0.0,0.0,0.0,0.0,0.0,0.0,0.0,0.0,
4.146919000000009,0.0,0.0,15627.0,0.0,0.0,0.0,0.0,0.125,1.3708494690000002,0.5498168668524864,0.0,-46036.0,0.0,0.0,0.0,0.0,0.125,4.897460436,4.41043958977222,0.0,43026.0,0.0,0.0,0.0,0.0,0.0,2.8039547910000002,4.389674732977291,-0.0012207030000004337,-62158.0,0.125,0.0,0.0,0.0,0.25,2.203368915,0.552687206278561,0.0,0.5699999928474426,-0.3499999940395355,94.95999908447266,-0.01678466796875,0.032470703125,1.066162109375,36.470001220703125,0.0,22.0,2.5955352783203125,0.1545562744140625,Closing,0.0,0.0,0.0,0.0,0.0,0.0,0.0,0.0,
4.18863900000001,0.0,0.0,15627.0,0.0,0.0,0.0,0.0,0.125,1.3708494690000002,0.5498168668524864,0.0,-46036.0,0.0,0.0,0.0,0.0,0.125,4.896239733000001,4.41043958977222,-0.0012207030000004337,43026.0,0.125,0.0,0.0,0.0,0.0,2.8039547910000002,4.389674732977291,0.0012207030000004337,-62158.0,0.125,0.0,0.0,0.0,0.25,2.203368915,0.552687206278561,0.0,0.5699999928474426,-0.3499999940395355,94.97000122070312,0.0018310546875,-0.0135498046875,0.97601318359375,36.470001220703125,0.0,-23.0,2.595703125,0.1545562744140625,Closing,0.0,0.0,0.0,0.0,0.0,0.0,0.0,0.0,
4.229612000000008,0.0,0.0,15627.0,0.0,0.0,0.0,0.0,0.125,1.3708494690000002,0.5498168668524864,0.0,-46036.0,0.0,0.0,0.0,0.0,0.125,4.899901842,4.41043958977222,0.0024414059999999793,43026.0,0.0,0.0,0.0,0.0,0.0,2.8039547910000002,4.389674732977291,-0.0012207030000004337,-62158.0,0.125,0.0,0.0,0.0,0.25,2.202148212,0.552687206278561,0.0,0.5400000214576721,-0.3400000035762787,94.97000122070312,-0.00555419921875,-0.01031494140625,1.03466796875,36.470001220703125,0.0,-20.0,2.5957183837890625,0.1545562744140625,Closing,0.0,0.0,0.0,0.0,0.0,0.0,0.0,0.0,
4.273264999999999,0.0,0.0,15627.0,0.0,0.0,0.0,0.0,0.25,1.3708494690000002,0.5498168668524864,0.0,-46036.0,0.0,0.0,0.0,0.0,0.125,4.892577624,4.41043958977222,-0.0024414059999999793,43026.0,0.0,0.0,0.0,0.0,0.0,2.8039547910000002,4.389674732977291,-0.0012207029999995456,-62158.0,0.125,0.0,0.0,0.0,0.25,2.203368915,0.552687206278561,0.0,0.5400000214576721,-0.36000001430511475,94.95999908447266,-0.01824951171875,0.0152587890625,1.00799560546875,36.470001220703125,0.0,6.0,2.595672607421875,0.154632568359375,Closing,0.0,0.0,0.0,0.0,0.0,0.0,0.0,0.125,
4.31938900000001,0.0,0.0,15627.0,0.0,0.0,0.0,0.0,0.125,1.3708494690000002,0.5498168668524864,0.0,-46036.0,0.0,0.0,0.0,0.0,0.125,4.891356921,4.41043958977222,0.0012207030000004337,43026.0,0.0,0.0,0.0,0.0,0.0,2.805175494,4.389674732977291,0.0,-62158.0,0.125,0.0,0.0,0.0,0.25,2.203368915,0.552687206278561,0.0,0.550000011920929,-0.3499999940395355,94.95999908447266,0.01171875,0.005615234375,0.98114013671875,36.470001220703125,0.0,-5.0,2.595672607421875,0.1546783447265625,Closing,0.0,0.0,0.0,0.0,0.0,0.0,0.0,0.125,
4.368973000000013,0.0,0.0,15627.0,0.0,0.0,0.0,0.0,0.125,1.3708494690000002,0.5498168668524864,0.0,-46036.0,0.0,0.0,0.0,0.0,0.125,4.899901842,4.41043958977222,-0.0012207030000004337,43026.0,0.125,0.0,0.0,0.0,0.0,2.805175494,4.389674732977291,0.0024414059999999793,-62158.0,0.125,0.0,0.0,0.0,0.25,2.203368915,0.552687206278561,0.0,0.5400000214576721,-0.3700000047683716,94.95999908447266,-0.0106201171875,0.00146484375,0.99761962890625,36.470001220703125,0.0,-7.0,2.595672607421875,0.1546783447265625,Closing,0.0,0.0,0.0,0.0,0.0,0.0,0.0,0.0,
4.4125760000000005,0.0,0.0,15627.0,0.0,0.0,0.0,0.0,0.125,1.3708494690000002,0.5498168668524864,0.0,-46036.0,0.0,0.0,0.0,0.0,0.125,4.899901842,4.41043958977222,0.0,43026.0,0.0,0.0,0.0,0.0,0.0,2.805175494,4.389674732977291,-0.0012207030000004337,-62158.0,0.125,0.0,0.0,0.0,0.25,2.203368915,0.552687206278561,0.0,0.5400000214576721,-0.3799999952316284,94.95999908447266,-0.0032958984375,0.0194091796875,1.02960205078125,36.439998626708984,0.0,-8.0,2.595672607421875,0.1546783447265625,Closing,0.0,0.0,0.0,0.0,0.0,0.0,0.0,0.0,
4.5155130000000065,0.0,0.0,15627.0,0.0,0.0,0.0,0.0,0.25,1.3708494690000002,0.5498168668524864,0.0,-46036.0,0.0,0.0,0.0,0.0,0.125,4.898681139000001,4.41043958977222,-0.0012207030000004337,43026.0,0.125,0.0,0.0,0.0,0.0,2.8002926820000003,4.389674732977291,0.0,-62158.0,0.125,0.0,0.0,0.0,0.25,2.203368915,0.552687206278561,0.0,0.5400000214576721,-0.3700000047683716,94.95999908447266,-0.00201416015625,0.00396728515625,1.00079345703125,36.439998626708984,0.0,-5.0,2.595672607421875,0.1546783447265625,Closing,0.0,0.0,0.0,0.0,0.0,0.0,0.0,0.0,
4.564179000000004,0.0,0.0,15627.0,0.0,0.0,0.0,0.0,0.25,1.3720701720000001,0.5498168668524864,0.0,-46036.0,0.0,0.0,0.0,0.0,0.125,4.898681139000001,4.41043958977222,0.0024414060000008675,43026.0,0.0,0.0,0.0,0.0,0.0,2.7990719790000003,4.389674732977291,0.0,-62158.0,0.125,0.0,0.0,0.0,0.25,2.203368915,0.552687206278561,0.0,0.5400000214576721,-0.38999998569488525,94.95999908447266,-0.0098876953125,0.01336669921875,1.03131103515625,36.439998626708984,0.0,3.0,2.5956268310546875,0.1546783447265625,Closing,0.0,0.0,0.0,0.0,0.0,0.0,0.0,0.0,
4.611464000000007,0.0,0.0,15627.0,0.0,0.0,0.0,0.0,0.25,1.3720701720000001,0.5498168668524864,0.0,-46036.0,0.0,0.0,0.0,0.0,0.125,4.899901842,4.41043958977222,0.0024414060000008675,43026.0,0.125,0.0,0.0,0.0,0.0,2.8039547910000002,4.389674732977291,0.0,-62158.0,0.125,0.0,0.0,0.0,0.25,2.202148212,0.552687206278561,0.0,0.5400000214576721,-0.38999998569488525,94.95999908447266,-0.0098876953125,0.01336669921875,1.03131103515625,36.439998626708984,0.0,3.0,2.5956268310546875,0.1546783447265625,Closing,0.0,0.0,0.0,0.0,0.0,0.0,0.0,0.0,
4.652568,0.0,0.0,15627.0,0.0,0.0,0.0,0.0,0.25,1.3708494690000002,0.5498168668524864,0.0,-46036.0,0.0,0.0,0.0,0.0,0.125,4.898681139000001,4.41043958977222,-0.0012207030000004337,43026.0,0.0,0.0,0.0,0.0,0.0,2.7990719790000003,4.389674732977291,0.0012207030000004337,-62158.0,0.125,0.0,0.0,0.0,0.25,2.203368915,0.552687206278561,0.0,0.550000011920929,-0.3799999952316284,94.94000244140625,-0.0086669921875,-0.01190185546875,1.02508544921875,36.439998626708984,0.0,-21.0,2.5955657958984375,0.1546783447265625,Closing,0.0,0.0,0.0,0.0,0.0,0.0,0.0,0.0,
4.697202000000005,0.0,0.0,15627.0,0.0,0.0,0.0,0.0,0.125,1.3708494690000002,0.5498168668524864,0.0,-46036.0,0.0,0.0,0.0,0.0,0.125,4.892577624,4.41043958977222,0.0024414059999999793,43026.0,0.0,0.0,0.0,0.0,0.0,2.8039547910000002,4.389674732977291,-0.0012207030000004337,-62158.0,0.125,0.0,0.0,0.0,0.25,2.202148212,0.552687206278561,0.0,0.5400000214576721,-0.3799999952316284,94.94000244140625,-0.01025390625,0.02325439453125,1.03070068359375,36.439998626708984,0.0,13.0,2.59552001953125,0.1546783447265625,Closing,0.0,0.0,0.0,0.0,0.0,0.0,0.0,0.0,
4.736184000000009,0.0,0.0,15627.0,0.0,0.0,0.0,0.0,0.125,1.3708494690000002,0.5498168668524864,0.0,-46036.0,0.0,0.0,0.0,0.0,0.125,4.890136218,4.41043958977222,-0.003662109000000413,43026.0,0.0,0.0,0.0,0.0,0.0,2.8039547910000002,4.389674732977291,-0.0012207029999995456,-62158.0,0.125,0.0,0.0,0.0,0.25,2.203368915,0.552687206278561,0.0,0.5400000214576721,-0.4000000059604645,94.94000244140625,-9.765625E-4,0.015380859375,1.03424072265625,36.439998626708984,0.0,5.0,2.59552001953125,0.1546783447265625,Closing,0.0,0.0,0.0,0.0,0.0,0.0,0.0,0.0,
4.7801320000000125,0.0,0.0,15627.0,0.0,0.0,0.0,0.0,0.125,1.3720701720000001,0.5498168668524864,0.0,-46036.0,0.0,0.0,0.0,0.0,0.125,4.892577624,4.41043958977222,0.0,43026.0,0.0,0.0,0.0,0.0,0.0,2.8039547910000002,4.389674732977291,0.0024414059999999793,-62158.0,0.125,0.0,0.0,0.0,0.25,2.203368915,0.552687206278561,0.0,0.5299999713897705,-0.38999998569488525,94.94000244140625,-0.00262451171875,0.0067138671875,1.0029296875,36.439998626708984,0.0,-3.0,2.59552001953125,0.1546783447265625,Closing,0.0,0.0,0.0,0.0,0.0,0.0,0.0,0.0,
4.8277110000000105,0.0,0.0,15627.0,0.0,0.0,0.0,0.0,0.25,1.3708494690000002,0.01,0.0,-46036.0,0.0,0.0,-0.0,0.0,0.125,4.893798327,0.01,-0.0012207029999995456,43026.0,0.0,0.0,0.0,0.0,0.5,2.8039547910000002,0.01,0.0,-62158.0,0.125,0.0,-0.0,0.0,0.25,2.193603291,0.01,0.0,0.5400000214576721,-0.38999998569488525,94.94999694824219,-0.02044677734375,0.01898193359375,1.009033203125,36.439998626708984,0.0,10.0,2.59552001953125,0.1546783447265625,Closing,0.0,0.0,0.0,0.0,0.0,0.0,0.0,0.0,
4.871270000000004,0.0,0.0,15627.0,0.0,0.0,0.0,0.0,2.125,1.252441278,0.01,-0.0024414059999999793,-46036.0,0.0,0.0,-0.0,0.0,3.125,0.032958981,0.01,0.006103515000000392,43026.0,0.0,0.0,0.0,0.0,2.125,2.979736023,0.01,0.0012207029999995456,-62158.0,0.125,0.0,-0.0,0.0,2.625,2.0153806530000002,0.01,-0.012207029999999897,0.5299999713897705,-0.38999998569488525,94.94999694824219,-0.03582763671875,0.05279541015625,0.9925537109375,36.439998626708984,0.0,45.0,2.5955352783203125,0.154693603515625,Closing,0.0,0.0,0.0,0.0,0.0,0.0,0.0,0.0,
4.913659,0.0,0.0,15627.0,0.0,0.0,0.0,0.0,2.25,1.101074106,0.01,-0.0024414059999999793,-46036.0,0.0,0.0,-0.0,0.0,1.0,0.208740213,0.01,0.006103515000000392,43026.0,0.0,0.0,0.0,0.0,0.875,3.145751631,0.01,0.0012207029999995456,-62158.0,0.125,0.0,-0.0,0.0,1.25,1.8383787180000002,0.01,-0.17456052899999985,0.5400000214576721,-0.4000000059604645,94.91000366210938,0.01123046875,-3.0517578125E-4,0.93353271484375,36.45000076293945,0.0,-10.0,2.5960540771484375,0.1548309326171875,Closing,0.0,0.0,0.0,0.0,0.0,0.0,0.0,0.0,
4.954820000000007,0.0,0.0,15627.0,0.0,0.0,0.0,0.0,0.625,0.937499904,0.01,-0.15380857800000003,-46036.0,0.0,0.0,-0.0,0.0,0.75,0.40161128700000004,0.01,-4.843749504000001,43026.0,0.0,0.0,0.0,0.0,0.5,3.305663724,0.01,0.17700193499999983,-62158.0,0.125,0.0,-0.0,0.0,0.625,1.7150877150000001,0.01,-0.17822263800000004,0.550000011920929,-0.4099999964237213,94.7699966430664,0.00286865234375,0.0390625,1.03656005859375,36.45000076293945,0.0,28.0,2.5967254638671875,0.155120849609375,Closing,0.0,0.0,0.0,0.0,0.0,0.0,0.0,0.0,
5.001776000000013,0.0,0.0,15627.0,0.0,0.0,0.0,0.0,0.5,0.8410643670000001,0.01,-0.3015136410000001,-46036.0,0.0,0.0,-0.0,0.0,0.5,0.53710932,0.01,0.20507810400000004,43026.0,0.125,0.0,0.0,0.0,0.25,3.3679195770000003,0.01,0.3247069979999999,-62158.0,0.125,0.0,-0.0,0.0,0.5,1.646728347,0.01,-0.17822263800000004,0.5600000023841858,-0.4099999964237213,94.55999755859375,-0.00421142578125,0.01971435546875,1.1270751953125,36.45000076293945,0.0,8.0,2.59735107421875,0.155120849609375,Closing,0.0,0.0,0.0,0.0,0.0,0.0,0.0,0.0,
5.041283000000011,0.0,0.0,15627.0,0.0,0.0,0.0,0.0,0.125,0.836181555,0.01,-0.07690428900000001,-46036.0,0.0,0.0,-0.0,0.0,0.25,0.5944823610000001,0.01,0.2807616900000003,43026.0,0.125,0.0,0.0,0.0,0.125,3.3679195770000003,0.01,-4.87936485,-62158.0,0.125,0.0,-0.0,0.0,0.25,1.6113279600000001,0.01,-0.19531248000000012,0.550000011920929,-0.38999998569488525,94.44000244140625,-0.037353515625,-0.01348876953125,1.0155029296875,36.45000076293945,0.0,-20.0,2.5973358154296875,0.1551361083984375,Closing,0.0,0.0,0.0,0.0,0.0,0.0,0.0,0.0,
5.086138000000006,0.0,0.0,15627.0,0.0,0.0,0.0,0.0,0.125,0.8410643670000001,0.01,0.0,-46036.0,0.0,0.0,-0.0,0.0,0.125,0.599365173,0.01,0.056152337999999524,43026.0,0.0,0.0,0.0,0.0,0.0,3.3691402800000003,0.01,0.0,-62158.0,0.125,0.0,-0.0,0.0,0.25,1.625976396,0.01,4.927482425,0.5299999713897705,-0.3499999940395355,94.48999786376953,0.02691650390625,-0.071533203125,1.00335693359375,36.45000076293945,0.0,-83.0,2.5971527099609375,0.155426025390625,Closing,0.0,0.0,0.0,0.0,0.0,0.0,0.0,0.0,
5.127960000000006,0.0,0.0,15627.0,0.0,0.0,0.0,0.0,0.125,0.8410643670000001,0.01,0.00488281200000007,-46036.0,0.0,0.0,-0.0,0.0,0.25,0.574951113,0.01,0.0012207030000004337,43026.0,0.0,0.0,0.0,0.0,0.0,3.3715816860000003,0.01,0.0,-62158.0,0.125,0.0,-0.0,0.0,0.125,1.6601560800000001,0.01,0.017089842000000743,0.5600000023841858,-0.3400000035762787,94.52999877929688,-0.0174560546875,0.02032470703125,0.9569091796875,36.45000076293945,0.0,11.0,2.596588134765625,0.1556396484375,Closing,0.0,0.0,0.0,0.0,0.0,0.0,0.0,0.125,
5.169364000000002,0.0,0.0,15627.0,0.0,0.0,0.0,0.0,0.125,0.845947179,0.01,0.00488281200000007,-46036.0,0.0,0.0,-0.0,0.0,0.25,0.54931635,0.01,-0.025634763000000227,43026.0,0.125,0.0,0.0,0.0,0.0,3.3679195770000003,0.01,0.0,-62158.0,0.125,0.0,-0.0,0.0,0.125,1.694335764,0.01,-4.9262617220000005,0.5600000023841858,-0.38999998569488525,94.51000213623047,-0.0072021484375,0.04595947265625,1.10064697265625,36.45000076293945,0.0,27.0,2.5960845947265625,0.155731201171875,Closing,0.0,0.0,0.0,0.0,0.0,0.0,0.0,0.125,
5.211991000000009,0.0,0.0,15627.0,0.0,0.0,0.0,0.0,0.125,0.8447264760000001,0.01,0.0,-46036.0,0.0,0.0,-0.0,0.0,0.25,0.527343696,0.01,-0.026855465999999772,43026.0,0.0,0.0,0.0,0.0,0.0,3.3679195770000003,0.01,0.0,-62158.0,0.125,0.0,-0.0,0.0,0.25,1.728515448,0.01,0.0378417929999999,0.5600000023841858,-0.36000001430511475,94.47000122070312,-0.03021240234375,-0.028076171875,1.0357666015625,36.45000076293945,0.0,-36.0,2.5958099365234375,0.155731201171875,Closing,0.0,0.0,0.0,0.0,0.0,0.0,0.0,0.0,
5.261908999999999,0.0,0.0,15627.0,0.0,0.0,0.0,0.0,0.25,0.845947179,0.01,0.004882811999999959,-46036.0,0.0,0.0,-0.0,0.0,0.25,0.522460884,0.01,-0.026855465999999772,43026.0,0.0,0.0,0.0,0.0,0.0,3.3679195770000003,0.01,0.0,-62158.0,0.125,0.0,-0.0,0.0,0.25,1.729736151,0.01,0.030517574999999963,0.550000011920929,-0.36000001430511475,94.51000213623047,-0.0023193359375,0.043701171875,1.01318359375,36.45000076293945,0.0,33.0,2.59527587890625,0.1558380126953125,Closing,0.0,0.0,0.0,0.0,0.0,0.0,0.0,0.0,
5.307863000000012,0.0,0.0,15627.0,0.0,0.0,0.0,0.0,0.25,0.845947179,0.01,0.0,-46036.0,0.0,0.0,-0.0,0.0,0.125,0.522460884,0.01,-0.01831054500000029,43026.0,0.0,0.0,0.0,0.0,0.0,3.3691402800000003,0.01,0.0,-62158.0,0.125,0.0,-0.0,0.0,0.25,1.7138670120000001,0.01,0.030517574999999963,0.5600000023841858,-0.3700000047683716,94.5199966430664,-0.00146484375,0.00311279296875,1.01373291015625,36.45000076293945,0.0,-7.0,2.594970703125,0.1558380126953125,Closing,0.0,0.0,0.0,0.0,0.0,0.0,0.0,0.0,
5.351018000000011,0.0,0.0,15627.0,0.0,0.0,0.0,0.0,0.25,0.847167882,0.01,0.0,-46036.0,0.0,0.0,-0.0,0.0,0.0,0.522460884,0.01,-0.004882811999999959,43026.0,0.0,0.0,0.0,0.0,0.0,3.3691402800000003,0.01,0.0,-62158.0,0.125,0.0,-0.0,0.0,0.5,1.6894529520000001,0.01,0.0,0.5600000023841858,-0.3700000047683716,94.5,-0.00567626953125,0.00250244140625,0.99896240234375,36.45000076293945,0.0,-7.0,2.594970703125,0.1558380126953125,Closing,0.0,0.0,0.0,0.0,0.0,0.0,0.0,0.0,
5.395641000000003,0.0,0.0,15627.0,0.0,0.0,0.0,0.0,0.25,0.845947179,0.01,0.0,-46036.0,0.0,0.0,-0.0,0.0,0.0,0.522460884,0.01,0.0,43026.0,0.0,0.0,0.0,0.0,0.0,3.3691402800000003,0.01,0.0,-62158.0,0.125,0.0,-0.0,0.0,0.25,1.6809080310000002,0.01,-0.03906249599999989,0.550000011920929,-0.3700000047683716,94.5,-0.00848388671875,0.01593017578125,0.998046875,36.45000076293945,0.0,6.0,2.594970703125,0.1558380126953125,Closing,0.0,0.0,0.0,0.0,0.0,0.0,0.0,0.0,
5.435986000000004,0.0,0.0,15627.0,0.0,0.0,0.0,0.0,0.25,0.845947179,0.01,0.0,-46036.0,0.0,0.0,-0.0,0.0,0.0,0.522460884,0.01,0.0,43026.0,0.0,0.0,0.0,0.0,0.0,3.3679195770000003,0.01,0.0,-62158.0,0.125,0.0,-0.0,0.0,0.25,1.679687328,0.01,-0.00976562400000014,0.5600000023841858,-0.3799999952316284,94.5199966430664,-0.00506591796875,0.00665283203125,1.0439453125,36.45000076293945,0.0,-3.0,2.594970703125,0.1558380126953125,Closing,0.0,0.0,0.0,0.0,0.0,0.0,0.0,0.0,
