Time,ClimberA1,ClimberA2,FRpos,FRCurrent,FRspeed,FRsetpoint,FRApos,FRACurrent,FREncpos,FREncSetpoint,FREncSpeed,FLpos,FLCurrent,FLspeed,FLsetpoint,FLApos,FLACurrent,FLEncpos,FLEncSetpoint,FLEncSpeed,BRpos,BRCurrent,BRspeed,BRsetpoint,BRApos,BRACurrent,BREncpos,BREncSetpoint,BREncSpeed,BLpos,BLCurrent,BLspeed,BLsetpoint,BLApos,BLACurrent,BLEncpos,BLEncSetpoint,BLEncSpeed,navx_Pitch,navx_Roll,navx_Yaw,navx_XAcc,navx_YAcc,navx_ZAcc,navx_Temp,navx_Bar,navx_Alt,navx_XDis,navx_YDis,GearPlacerState,ShootOutputV,ShootOutputCurrent,ShootEncPos,ShootEncVelocity,ShootSpeed,ShootSetpoint,CarouselSetpoint,CarouselCurrent,
0.40520399999999973,0.0,0.0,-16828.0,0.0,0.0,0.0,0.0,0.125,0.8032225740000001,0.01,0.0,16539.0,0.0,0.0,0.0,0.0,0.125,0.5419921320000001,0.01,0.0,-1552.0,0.0,0.0,0.0,0.0,0.0,3.348388329,0.01,0.0,4063.0,0.125,0.0,0.0,0.0,0.125,1.622314287,0.01,0.0,0.5899999737739563,-0.3499999940395355,173.86000061035156,-0.00640869140625,0.00994873046875,1.018310546875,37.09000015258789,0.0,0.0,1.2458038330078125,2.3029937744140625,Closing,0.0,0.0,0.0,0.0,0.0,0.0,0.0,0.125,
0.45196600000000037,0.0,0.0,-16828.0,0.125,0.0,630.0,0.0,0.125,0.7775878110000001,0.01,0.0,16539.0,0.0,0.0,-630.0,0.0,0.125,0.5407714290000001,0.01,0.0,-1552.0,0.5,0.0,630.0,0.0,0.0,3.349609032,0.01,0.0012207030000004337,4063.0,0.375,0.0,-630.0,0.0,0.125,1.622314287,0.01,0.0,0.5899999737739563,-0.3499999940395355,173.86000061035156,-0.00811767578125,0.0111083984375,1.01763916015625,37.09000015258789,0.0,1.0,1.2458038330078125,2.3029937744140625,Closing,0.0,0.0,0.0,0.0,0.0,0.0,0.0,0.0,
0.4889300000000003,0.0,0.0,-16813.0,0.375,60.0,NaN,0.0,0.125,0.8032225740000001,NaN,0.0,16530.0,0.5,-30.0,NaN,0.0,0.0,0.5419921320000001,NaN,0.0012207029999995456,-1546.0,0.5,7.5,NaN,0.0,0.0,3.348388329,NaN,0.0,4048.0,0.25,-67.5,NaN,0.0,0.125,1.622314287,NaN,0.0,0.5799999833106995,-0.33000001311302185,173.85000610351562,0.09136962890625,-0.03839111328125,0.986083984375,37.09000015258789,0.0,-101.0,1.2456207275390625,2.302978515625,Closing,0.0,0.0,0.0,0.0,0.0,0.0,0.0,0.0,
0.718003999999999,0.0,0.0,-16814.0,0.125,0.0,NaN,0.0,0.125,0.8032225740000001,NaN,0.0,16530.0,0.0,0.0,NaN,0.0,0.0,0.5419921320000001,NaN,0.0,-1544.0,0.125,0.0,NaN,0.0,0.0,3.348388329,NaN,0.0,4050.0,0.25,0.0,NaN,0.0,0.125,1.617431475,NaN,0.0,0.5699999928474426,-0.38999998569488525,173.83999633789062,0.025146484375,0.00872802734375,0.99273681640625,37.09000015258789,0.0,-31.0,1.2440948486328125,2.302947998046875,Closing,0.0,0.0,0.0,0.0,0.0,0.0,0.0,0.0,
0.8506849999999995,0.0,0.0,-16814.0,0.5,0.0,630.2953663077831,0.0,0.125,0.79345695,0.024032872372424734,0.0,16530.0,0.0,0.0,-630.2953663077831,0.0,0.0,0.5419921320000001,0.024186451763316734,0.0,-1544.0,0.125,0.0,630.2953663077831,0.0,0.0,3.349609032,0.02407257916694166,0.0,4049.0,0.375,0.0,-630.2953663077831,0.0,0.125,1.6076658510000001,0.02415833687751938,0.0,0.5600000023841858,-0.3799999952316284,173.85000610351562,-0.02301025390625,0.02215576171875,1.04156494140625,37.09000015258789,0.0,17.0,1.24395751953125,2.302947998046875,Closing,0.0,0.0,0.0,0.0,0.0,0.0,0.0,0.0,
0.9901589999999997,0.0,0.0,-16810.0,2.875,60.0,630.2953663077831,0.0,0.25,0.799560465,0.024032872372424734,0.0,16508.0,3.0,-97.5,-630.2953663077831,0.0,0.125,0.550537053,0.024186451763316734,0.0,-1530.0,3.125,60.0,630.2953663077831,0.0,0.0,3.347167626,0.02407257916694166,-0.006103515000000392,4037.0,2.625,-60.0,-630.2953663077831,0.0,0.25,1.645507644,0.02415833687751938,-4.9287031279999995,0.5199999809265137,0.029999999329447746,173.80999755859375,0.08685302734375,0.0047607421875,0.9427490234375,37.099998474121094,0.0,-86.0,1.2392425537109375,2.3022918701171875,Closing,0.0,0.0,0.0,0.0,0.0,0.0,0.0,0.0,
1.1232530000000005,0.0,0.0,-16761.0,4.25,210.0,630.2953663077831,0.0,0.25,0.8178710100000001,0.024032872372424734,0.0,16473.0,5.125,-195.0,-630.2953663077831,0.0,0.125,0.5566405680000001,0.024186451763316734,0.0,-1498.0,4.625,187.5,630.2953663077831,0.0,0.0,3.343505517,0.02407257916694166,0.0,4004.0,3.5,-210.0,-630.2953663077831,0.0,0.125,1.665038892,0.02415833687751938,0.0,0.6100000143051147,0.5699999928474426,173.74000549316406,0.12127685546875,0.04583740234375,1.08807373046875,37.099998474121094,0.0,-105.0,1.2245941162109375,2.3011322021484375,Closing,0.0,0.0,0.0,0.0,0.0,0.0,0.0,0.0,
1.2479359999999997,0.0,0.0,-16694.0,4.25,397.5,630.5250000000001,0.0,0.25,0.799560465,0.032036047884503926,-0.0012207029999995456,16411.0,4.875,-375.0,-630.5250000000001,0.0,0.25,0.559081974,0.032240770676039004,-0.0012207029999995456,-1439.0,4.75,352.5,630.5250000000001,0.0,0.0,3.343505517,0.03208897741996569,0.0012207029999995456,3945.0,3.75,-382.5,-630.5250000000001,0.0,0.125,1.6638181890000001,0.03220329326536108,0.0,0.6800000071525574,1.100000023841858,173.64999389648438,0.08380126953125,-0.0194091796875,1.01531982421875,37.099998474121094,0.0,-67.0,1.202392578125,2.30023193359375,Closing,0.0,0.0,0.0,0.0,0.0,0.0,0.0,0.0,
1.3267759999999997,0.0,0.0,-16694.0,3.625,480.0,630.5250000000001,0.0,0.25,0.798339762,0.032036047884503926,0.0,16411.0,4.25,-480.0,-630.5250000000001,0.0,0.125,0.5566405680000001,0.032240770676039004,0.0,-1439.0,4.5,465.0,630.5250000000001,0.0,0.0,3.348388329,0.03208897741996569,0.0,3945.0,3.375,-472.5,-630.5250000000001,0.0,0.125,1.665038892,0.03220329326536108,0.0,0.6899999976158142,1.2999999523162842,173.5500030517578,0.0701904296875,-0.021728515625,0.9459228515625,37.099998474121094,0.0,-52.0,1.1849822998046875,2.299713134765625,Closing,0.0,0.0,0.0,0.0,0.0,0.0,0.0,0.125,
1.3531579999999994,0.0,0.0,-16604.0,3.375,562.5,630.5250000000001,0.0,0.25,0.799560465,0.032036047884503926,0.0,16325.0,4.0,-525.0,-630.5250000000001,0.0,0.125,0.557861271,0.032240770676039004,0.0,-1354.0,4.125,517.5,630.5250000000001,0.0,0.0,3.348388329,0.03208897741996569,0.0012207030000004337,3860.0,3.125,-547.5,-630.5250000000001,0.0,0.125,1.6638181890000001,0.03220329326536108,0.0,0.7099999785423279,1.4199999570846558,173.4600067138672,0.00531005859375,-6.7138671875E-4,1.02362060546875,37.099998474121094,0.0,18.0,1.173553466796875,2.2995452880859375,Closing,0.0,0.0,0.0,0.0,0.0,0.0,0.0,0.125,
1.4710830000000006,0.0,0.0,-16604.0,1.75,630.0,NaN,0.0,0.125,0.798339762,NaN,0.0,16226.0,2.125,-615.0,NaN,0.0,0.0,0.551757756,NaN,0.0012207029999995456,-1253.0,2.375,622.5,NaN,0.0,0.0,3.353271141,NaN,0.009765623999999917,3760.0,1.625,-615.0,NaN,0.0,0.125,1.666259595,NaN,0.0,0.7400000095367432,1.559999942779541,173.35000610351562,-0.04345703125,0.0242919921875,0.96783447265625,37.09000015258789,0.0,70.0,1.1459808349609375,2.2992401123046875,Closing,0.0,0.0,0.0,0.0,0.0,0.0,0.0,0.125,
1.496822,0.0,0.0,-16507.0,0.5,607.5,NaN,0.0,0.125,0.798339762,NaN,0.0012207029999995456,16226.0,1.25,-615.0,NaN,0.0,0.0,0.54931635,NaN,-0.004882811999999959,-1253.0,1.625,637.5,NaN,0.0,0.0,3.3679195770000003,NaN,0.0,3760.0,0.375,-600.0,NaN,0.0,0.125,1.665038892,NaN,0.0,0.7599999904632568,1.3700000047683716,173.33999633789062,-0.05560302734375,-0.02191162109375,1.08935546875,37.09000015258789,0.0,76.0,1.1383819580078125,2.299163818359375,Closing,0.0,0.0,0.0,0.0,0.0,0.0,0.0,0.0,
1.544431999999999,0.0,0.0,-16507.0,0.125,570.0,NaN,0.0,0.125,0.8056639800000001,NaN,0.0012207029999995456,16226.0,0.125,-540.0,NaN,0.0,0.0,0.551757756,NaN,-0.004882811999999959,-1253.0,0.375,615.0,NaN,0.0,0.0,3.3776852010000002,NaN,-4.9208687520000005,3760.0,0.125,-465.0,NaN,0.0,0.125,1.6552732680000002,NaN,0.0,0.75,1.1699999570846558,173.33999633789062,-0.1627197265625,0.0333251953125,0.97406005859375,37.09000015258789,0.0,183.0,1.1246337890625,2.299072265625,Closing,0.0,0.0,0.0,0.0,0.0,0.0,0.0,0.125,
1.7263060000000006,0.0,0.0,-16364.0,0.0,465.0,NaN,0.0,0.125,0.812988198,NaN,0.014648435999999876,16084.0,0.125,-435.0,NaN,0.0,0.0,0.546874944,NaN,0.0,-1117.0,0.25,405.0,NaN,0.0,0.0,3.382568013,NaN,0.0,3617.0,0.125,-457.5,NaN,0.0,0.125,1.6564939710000002,NaN,0.0,0.6700000166893005,0.2199999988079071,173.33999633789062,-0.05987548828125,0.03680419921875,0.8863525390625,37.09000015258789,0.0,66.0,1.103607177734375,2.2996826171875,Closing,0.0,0.0,0.0,0.0,0.0,0.0,0.0,0.0,
1.7540649999999987,0.0,0.0,-16364.0,0.375,390.0,630.0,0.0,0.125,0.812988198,0.01,0.0,16084.0,0.125,-375.0,-630.0,0.0,0.0,0.546874944,0.01,-0.004882811999999959,-1117.0,0.5,397.5,630.0,0.0,0.0,3.382568013,0.01,0.009765623999999917,3617.0,0.375,-367.5,-630.0,0.0,0.125,1.6601560800000001,0.01,-0.009765623999999917,0.6700000166893005,-0.029999999329447746,173.2899932861328,-0.03704833984375,-0.00653076171875,1.07537841796875,37.09000015258789,0.0,33.0,1.1016693115234375,2.3003692626953125,Closing,0.0,0.0,0.0,0.0,0.0,0.0,0.0,0.0,
1.8653469999999979,0.0,0.0,-16286.0,0.375,480.0,NaN,0.0,0.125,0.808105386,NaN,-0.0012207029999995456,16012.0,0.5,-480.0,NaN,0.0,0.25,0.551757756,NaN,0.004882811999999959,-1052.0,1.0,427.5,NaN,0.0,0.0,3.3728023890000003,NaN,4.9159859400000006,3548.0,0.375,-457.5,NaN,0.0,0.25,1.6589353770000002,NaN,0.013427732999999886,0.699999988079071,0.029999999329447746,173.32000732421875,0.00341796875,-0.0579833984375,1.042724609375,37.09000015258789,0.0,-11.0,1.0993499755859375,2.3011322021484375,Closing,0.0,0.0,0.0,0.0,0.0,0.0,0.0,0.0,
1.893221999999998,0.0,0.0,-16286.0,0.25,472.5,NaN,0.0,0.125,0.808105386,NaN,-0.0012207029999995456,16012.0,0.375,-457.5,NaN,0.0,0.25,0.551757756,NaN,0.0,-1052.0,0.25,442.5,NaN,0.0,0.0,3.3740230920000003,NaN,-4.9257515640000005,3548.0,0.125,-397.5,NaN,0.0,0.125,1.669921704,NaN,-0.003662108999999969,0.6200000047683716,-0.11999999731779099,173.3300018310547,-0.1182861328125,0.0069580078125,1.06787109375,37.09000015258789,0.0,114.0,1.0981903076171875,2.301971435546875,Closing,0.0,0.0,0.0,0.0,0.0,0.0,0.0,0.0,
2.0497920000000014,0.0,0.0,-16272.0,0.0,210.0,NaN,0.0,0.125,0.808105386,NaN,0.0,15993.0,0.0,-195.0,NaN,0.0,0.0,0.551757756,NaN,0.0,-1000.0,0.125,90.0,NaN,0.0,0.0,3.387450825,NaN,0.014648435999999876,3493.0,0.125,-187.5,NaN,0.0,0.125,1.665038892,NaN,0.0,0.5600000023841858,-0.6299999952316284,173.30999755859375,-0.05633544921875,0.0030517578125,0.99029541015625,37.04999923706055,0.0,44.0,1.1009979248046875,2.304962158203125,Closing,0.0,0.0,0.0,0.0,0.0,0.0,0.0,0.125,
2.0863960000000006,0.0,0.0,-16245.0,0.375,180.0,630.1312910070806,0.0,0.125,0.810546792,4.916226303734761,0.0,15963.0,0.5,-157.5,-630.1312910070806,0.0,0.0,0.550537053,4.947642899700257,0.0012207029999995456,-984.0,0.75,105.0,630.1312910070806,0.0,0.0,3.387450825,4.924348827943105,0.0,3493.0,0.625,-157.5,-630.1312910070806,0.0,0.125,1.665038892,4.9418916462112215,0.0,0.5400000214576721,-0.7699999809265137,173.3000030517578,-0.06756591796875,1.8310546875E-4,1.13946533203125,37.04999923706055,0.0,50.0,1.104339599609375,2.3050689697265625,Closing,0.0,0.0,0.0,0.0,0.0,0.0,0.0,0.125,
2.1359919999999986,0.0,0.0,-16245.0,0.75,127.5,NaN,0.0,0.125,0.806884683,NaN,0.0,15963.0,0.875,-135.0,NaN,0.0,0.0,0.551757756,NaN,0.0012207029999995456,-984.0,1.375,127.5,NaN,0.0,0.0,3.387450825,NaN,0.0,3493.0,0.75,-142.5,NaN,0.0,0.125,1.666259595,NaN,0.0,0.5199999809265137,-0.7799999713897705,173.25999450683594,-0.07281494140625,-0.00762939453125,0.86859130859375,37.04999923706055,0.0,58.0,1.106597900390625,2.3052215576171875,Closing,0.0,0.0,0.0,0.0,0.0,0.0,0.0,0.0,
2.181702000000001,0.0,0.0,-16245.0,0.375,225.0,NaN,0.0,0.125,0.808105386,NaN,-0.0012207029999995456,15928.0,0.125,-247.5,NaN,0.0,0.0,0.551757756,NaN,-0.0012207029999995456,-951.0,0.5,187.5,NaN,0.0,0.0,3.382568013,NaN,0.0,3460.0,0.25,-225.0,NaN,0.0,0.125,1.6601560800000001,NaN,0.0,0.6499999761581421,-0.6100000143051147,173.27000427246094,-0.07879638671875,-0.0164794921875,0.88330078125,37.04999923706055,0.0,65.0,1.1097412109375,2.305328369140625,Closing,0.0,0.0,0.0,0.0,0.0,0.0,0.0,0.0,
2.257138999999999,0.0,0.0,-16209.0,0.125,105.0,NaN,0.0,0.125,0.809326089,NaN,0.0,15928.0,0.0,-127.5,NaN,0.0,0.0,0.559081974,NaN,0.0012207029999995456,-951.0,0.125,142.5,NaN,0.0,0.0,3.382568013,NaN,0.019531247999999835,3460.0,0.375,-67.5,NaN,0.0,0.125,1.665038892,NaN,-0.004882811999999959,0.6000000238418579,-0.699999988079071,173.27999877929688,1.220703125E-4,-0.0177001953125,0.8380126953125,37.04999923706055,0.0,-13.0,1.114990234375,2.304718017578125,Closing,0.0,0.0,0.0,0.0,0.0,0.0,0.0,0.0,
2.2912299999999997,0.0,0.0,-16209.0,0.125,37.5,NaN,0.0,0.125,0.820312416,NaN,0.0,15928.0,0.0,0.0,NaN,0.0,0.0,0.551757756,NaN,-0.0012207029999995456,-951.0,0.375,90.0,NaN,0.0,0.0,3.382568013,NaN,0.0,3460.0,0.375,0.0,NaN,0.0,0.125,1.67236311,NaN,0.0,0.6299999952316284,-0.8399999737739563,173.27000427246094,-0.06268310546875,0.0242919921875,1.15557861328125,37.04999923706055,0.0,46.0,1.1151580810546875,2.3045196533203125,Closing,0.0,0.0,0.0,0.0,0.0,0.0,0.0,0.0,
2.451021000000001,0.0,0.0,-16204.0,0.125,22.5,NaN,0.0,0.125,0.808105386,NaN,-0.0012207029999995456,15928.0,0.0,0.0,NaN,0.0,0.0,0.551757756,NaN,0.0012207029999995456,-947.0,0.5,0.0,NaN,0.0,0.0,3.383788716,NaN,0.0,3460.0,0.375,0.0,NaN,0.0,0.125,1.665038892,NaN,-0.0012207029999999897,0.6100000143051147,-0.9700000286102295,173.27999877929688,-0.02569580078125,0.00909423828125,1.0771484375,37.029998779296875,0.0,6.0,1.1165618896484375,2.3045196533203125,Closing,0.0,0.0,0.0,0.0,0.0,0.0,0.0,0.125,
2.5874039999999985,0.0,0.0,-16204.0,0.125,0.0,630.5249999999999,0.0,0.125,0.809326089,4.900214952115497,0.0,15928.0,0.25,0.0,-630.5249999999999,0.0,0.0,0.552978459,4.931529229323962,0.0,-947.0,0.875,0.0,630.5249999999999,0.0,0.0,3.382568013,4.908311022580035,0.0,3460.0,0.375,0.0,-630.5249999999999,0.0,0.125,1.665038892,4.92579670673464,0.0012207029999999897,0.6000000238418579,-0.8999999761581421,173.27999877929688,0.00213623046875,0.0147705078125,1.01947021484375,37.029998779296875,0.0,-17.0,1.116424560546875,2.3045196533203125,Closing,0.0,0.0,0.0,0.0,0.0,0.0,0.0,0.125,
2.6636889999999984,0.0,0.0,-16204.0,3.125,75.0,630.8201204892425,0.0,0.25,0.809326089,4.892218434357367,0.0012207029999995456,15903.0,3.375,-150.0,-630.8201204892425,0.0,0.25,0.560302677,4.923481610710823,0.0012207029999995456,-937.0,3.875,45.0,630.8201204892425,0.0,0.125,3.358153953,4.900301293080814,4.9159859400000006,3440.0,2.75,-112.5,-630.8201204892425,0.0,0.25,1.665038892,4.917758442857799,0.004882811999999959,0.6399999856948853,-0.38999998569488525,173.30999755859375,0.138427734375,-0.04022216796875,0.9306640625,37.029998779296875,0.0,-149.0,1.1129302978515625,2.3037567138671875,Closing,0.0,0.0,0.0,0.0,0.0,0.0,0.0,0.125,
2.707918999999998,0.0,0.0,-16188.0,3.375,105.0,630.5249999999999,0.0,0.25,0.808105386,4.900214952115497,0.0,15903.0,3.75,-187.5,-630.5249999999999,0.0,0.25,0.5419921320000001,4.931529229323962,0.0,-937.0,4.875,82.5,630.5249999999999,0.0,0.125,3.352050438,4.908311022580035,-0.003662109000000413,3440.0,3.25,-157.5,-630.5249999999999,0.0,0.25,1.645507644,4.92579670673464,-0.004882811999999959,0.6499999761581421,-0.1599999964237213,173.30999755859375,0.22735595703125,0.0369873046875,0.932861328125,37.029998779296875,0.0,-225.0,1.108612060546875,2.30328369140625,Closing,0.0,0.0,0.0,0.0,0.0,0.0,0.0,0.0,
2.847547999999999,0.0,0.0,-16146.0,2.75,307.5,NaN,0.0,0.25,0.806884683,NaN,0.0,15868.0,3.625,-292.5,NaN,0.0,0.25,0.498046824,NaN,-0.04516601100000006,-902.0,3.875,307.5,NaN,0.0,0.125,3.3251949720000002,NaN,-0.02563476299999934,3407.0,2.875,-277.5,NaN,0.0,0.25,1.593017415,NaN,4.899406256,0.6499999761581421,0.5899999737739563,173.1300048828125,0.06884765625,0.0267333984375,0.90966796875,37.029998779296875,0.0,-57.0,1.0854644775390625,2.29974365234375,Closing,0.0,0.0,0.0,0.0,0.0,0.0,0.0,0.0,
2.929487000000001,0.0,0.0,-16092.0,0.375,330.0,630.2953663077831,0.0,0.125,0.809326089,4.908218127627576,0.0,15817.0,0.25,-315.0,-630.2953663077831,0.0,0.0,0.482177685,4.939583548236683,0.0,-844.0,0.875,352.5,630.2953663077831,0.0,0.0,3.3251949720000002,4.916327420833059,0.0,3353.0,0.375,-337.5,-630.2953663077831,0.0,0.125,1.588134603,4.933841663122481,0.0,0.6299999952316284,0.4000000059604645,173.08999633789062,0.0015869140625,0.01104736328125,0.9549560546875,37.029998779296875,0.0,5.0,1.069854736328125,2.2975006103515625,Closing,0.0,0.0,0.0,0.0,0.0,0.0,0.0,0.0,
2.954883999999998,0.0,0.0,-16092.0,2.125,367.5,630.1312910070806,0.0,0.125,0.8044432770000001,4.916226303734761,-0.0012207029999995456,15817.0,2.125,-337.5,-630.1312910070806,0.0,0.0,0.489501903,4.947642899700257,-0.0183105449999994,-844.0,3.125,382.5,630.1312910070806,0.0,0.0,3.3239742690000003,4.924348827943105,-0.004882811999999959,3353.0,2.625,-360.0,-630.1312910070806,0.0,0.125,1.588134603,4.9418916462112215,-0.0183105449999994,0.6499999761581421,0.4300000071525574,172.99000549316406,0.08148193359375,0.02490234375,1.16259765625,37.04999923706055,0.0,-70.0,1.060791015625,2.297576904296875,Closing,0.0,0.0,0.0,0.0,0.0,0.0,0.0,0.125,
3.0082920000000013,0.0,0.0,-16092.0,2.5,405.0,NaN,0.0,0.125,0.797119059,NaN,-0.007324218000000826,15817.0,3.125,-405.0,NaN,0.0,0.0,0.4882812,NaN,0.0,-844.0,3.625,397.5,NaN,0.0,0.0,3.3239742690000003,NaN,0.0,3353.0,2.875,-375.0,NaN,0.0,0.125,1.588134603,NaN,0.0,0.6700000166893005,0.5799999833106995,172.92999267578125,0.07940673828125,0.001953125,0.85040283203125,37.04999923706055,0.0,-71.0,1.0543975830078125,2.297607421875,Closing,0.0,0.0,0.0,0.0,0.0,0.0,0.0,0.0,
3.044954999999998,0.0,0.0,-16020.0,1.25,450.0,NaN,0.0,0.125,0.798339762,NaN,-0.007324218000000826,15751.0,1.0,-412.5,NaN,0.0,0.0,0.484619091,NaN,0.0,-775.0,1.625,427.5,NaN,0.0,0.0,3.3251949720000002,NaN,0.0,3288.0,1.5,-397.5,NaN,0.0,0.125,1.5832517910000001,NaN,-0.0012207030000004337,0.6800000071525574,0.550000011920929,172.8300018310547,-0.0869140625,-0.05731201171875,0.99822998046875,37.04999923706055,0.0,87.0,1.041351318359375,2.2977447509765625,Closing,0.0,0.0,0.0,0.0,0.0,0.0,0.0,0.0,
3.1288139999999984,0.0,0.0,-16020.0,0.125,322.5,NaN,0.0,0.125,0.8044432770000001,NaN,0.0,15751.0,0.125,-240.0,NaN,0.0,0.0,0.484619091,NaN,0.0,-775.0,0.375,375.0,NaN,0.0,0.0,3.3239742690000003,NaN,0.0,3288.0,0.375,-315.0,NaN,0.0,0.125,1.572265464,NaN,0.0,0.6600000262260437,0.3700000047683716,172.7100067138672,-0.072998046875,-0.0302734375,0.99603271484375,37.04999923706055,0.0,73.0,1.030029296875,2.2989044189453125,Closing,0.0,0.0,0.0,0.0,0.0,0.0,0.0,0.125,
3.1559919999999986,0.0,0.0,-15980.0,0.125,255.0,NaN,0.0,0.125,0.8178710100000001,NaN,0.006103515000000392,15708.0,0.0,-262.5,NaN,0.0,0.0,0.483398388,NaN,-0.006103515000000392,-722.0,0.375,330.0,NaN,0.0,0.0,3.3251949720000002,NaN,0.0,3244.0,0.375,-270.0,NaN,0.0,0.125,1.5832517910000001,NaN,-0.003662108999999525,0.6499999761581421,0.18000000715255737,172.64999389648438,-0.08935546875,-0.0213623046875,0.924072265625,37.04999923706055,0.0,87.0,1.0228424072265625,2.3004302978515625,Closing,0.0,0.0,0.0,0.0,0.0,0.0,0.0,0.125,
3.319573,0.0,0.0,-15929.0,0.125,292.5,NaN,0.0,0.125,0.808105386,NaN,0.003662108999999525,15660.0,0.0,-262.5,NaN,0.0,0.0,0.482177685,NaN,-0.003662108999999525,-679.0,0.125,277.5,NaN,0.0,0.0,3.338622705,NaN,0.014648435999999876,3198.0,0.125,-277.5,NaN,0.0,0.125,1.589355306,NaN,0.0012207029999995456,0.6800000071525574,-0.44999998807907104,172.52000427246094,-0.11126708984375,0.0289306640625,1.08642578125,37.04999923706055,0.0,103.0,1.005523681640625,2.30340576171875,Closing,0.0,0.0,0.0,0.0,0.0,0.0,0.0,0.0,
3.450203999999998,0.0,0.0,-15898.0,0.375,150.0,631.1806359167318,0.0,0.125,0.808105386,4.884230223231326,0.0,15629.0,0.125,-150.0,-631.1806359167318,0.0,0.0,0.47851557600000005,4.91544235181238,0.0,-646.0,0.125,157.5,631.1806359167318,0.0,0.0,3.338622705,4.89229988393779,0.0,3166.0,0.375,-127.5,-631.1806359167318,0.0,0.125,1.585693197,4.909728528978131,0.0,0.6700000166893005,-0.8999999761581421,172.4600067138672,-0.09002685546875,0.0125732421875,1.00250244140625,37.060001373291016,0.0,73.0,1.0017547607421875,2.3036041259765625,Closing,0.0,0.0,0.0,0.0,0.0,0.0,0.0,0.0,
3.589101999999999,0.0,0.0,-15855.0,1.75,277.5,631.6064343019018,0.0,0.25,0.7885741380000001,4.876251957312977,0.0,15585.0,2.25,-255.0,-631.6064343019018,0.0,0.125,0.483398388,4.907413101675368,0.0,-621.0,3.375,217.5,631.6064343019018,0.0,0.125,3.3105465360000004,4.884308436433797,0.0,3132.0,2.125,-255.0,-631.6064343019018,0.0,0.125,1.589355306,4.901708612225481,0.0,0.7300000190734863,-0.5799999833106995,172.4499969482422,0.01983642578125,-0.02606201171875,1.185546875,37.060001373291016,0.0,-37.0,0.9989166259765625,2.3013916015625,Closing,0.0,0.0,0.0,0.0,0.0,0.0,0.0,0.0,
3.722066999999999,0.0,0.0,-15827.0,3.25,240.0,632.6533324827765,0.0,0.25,0.799560465,4.860331751986742,0.0,15561.0,4.875,-247.5,-632.6533324827765,0.0,0.25,0.483398388,4.891391160052322,0.0,-588.0,4.75,240.0,632.6533324827765,0.0,0.125,3.3105465360000004,4.8683619279544565,-0.004882811999999959,3104.0,3.5,-232.5,-632.6533324827765,0.0,0.25,1.589355306,4.885705294874544,0.0,0.699999988079071,0.05000000074505806,172.3699951171875,0.1552734375,-0.02130126953125,1.05194091796875,37.060001373291016,0.0,-157.0,0.9857330322265625,2.299407958984375,Closing,0.0,0.0,0.0,0.0,0.0,0.0,0.0,0.125,
3.752766,0.0,0.0,-15774.0,3.125,315.0,632.6533324827765,0.0,0.25,0.7897948410000001,4.860331751986742,0.0,15511.0,4.75,-330.0,-632.6533324827765,0.0,0.25,0.483398388,4.891391160052322,0.0,-538.0,5.0,322.5,632.6533324827765,0.0,0.125,3.3093258330000004,4.8683619279544565,0.0,3055.0,3.875,-322.5,-632.6533324827765,0.0,0.25,1.5832517910000001,4.885705294874544,-0.0012207030000004337,0.6800000071525574,0.36000001430511475,172.30999755859375,0.049072265625,-0.02301025390625,0.94049072265625,37.060001373291016,0.0,-47.0,0.975616455078125,2.2996063232421875,Closing,0.0,0.0,0.0,0.0,0.0,0.0,0.0,0.125,
3.8080099999999986,0.0,0.0,-15774.0,2.25,420.0,NaN,0.0,0.25,0.786132732,NaN,0.0012207029999995456,15511.0,3.0,-382.5,NaN,0.0,0.0,0.47363276400000004,NaN,0.0,-538.0,3.125,390.0,NaN,0.0,0.0,3.3105465360000004,NaN,0.0,3055.0,1.5,-390.0,NaN,0.0,0.125,1.5783689790000002,NaN,-0.003662108999999525,0.6700000166893005,0.5,172.1300048828125,-0.02728271484375,0.06402587890625,0.865478515625,37.060001373291016,0.0,41.0,0.9634857177734375,2.29931640625,Closing,0.0,0.0,0.0,0.0,0.0,0.0,0.0,0.125,
3.9893919999999996,0.0,0.0,-15661.0,0.125,285.0,NaN,0.0,0.125,0.8007811680000001,NaN,0.0,15403.0,0.125,-300.0,NaN,0.0,0.0,0.47607417,NaN,0.0,-412.0,0.125,367.5,NaN,0.0,0.0,3.333739893,NaN,0.0,2942.0,0.375,-330.0,NaN,0.0,0.125,1.5783689790000002,NaN,0.0,0.7699999809265137,0.03999999910593033,171.99000549316406,-0.1387939453125,0.02923583984375,1.069580078125,37.06999969482422,0.0,140.0,0.936737060546875,2.2985076904296875,Closing,0.0,0.0,0.0,0.0,0.0,0.0,0.0,0.0,
4.056928,0.0,0.0,-15661.0,0.25,337.5,633.2741094157016,0.0,0.125,0.79345695,4.852393020501836,0.0,15403.0,0.125,-322.5,-633.2741094157016,0.0,0.0,0.47485346700000003,4.883401696989143,-0.004882811999999959,-412.0,0.375,270.0,633.2741094157016,0.0,0.0,3.334960596,4.860410080202177,0.004882811999999959,2942.0,0.75,-307.5,-633.2741094157016,0.0,0.125,1.5832517910000001,4.877725118946319,0.0024414059999999793,0.7699999809265137,-0.27000001072883606,171.97000122070312,-0.08441162109375,0.01251220703125,1.02313232421875,37.06999969482422,0.0,78.0,0.9271392822265625,2.2985076904296875,Closing,0.0,0.0,0.0,0.0,0.0,0.0,0.0,0.0,
4.091405999999999,0.0,0.0,-15661.0,0.75,352.5,635.52341029978,0.0,0.125,0.794677653,4.828681180404442,0.0,15403.0,1.0,-360.0,-635.52341029978,0.0,0.0,0.47485346700000003,4.859538329021811,-0.004882811999999959,-412.0,1.5,240.0,635.52341029978,0.0,0.0,3.333739893,4.836659063715554,0.004882811999999959,2876.0,1.0,-330.0,-635.52341029978,0.0,0.125,1.5844724940000001,4.853889490304776,0.0024414059999999793,0.7599999904632568,-0.28999999165534973,171.97000122070312,-0.05902099609375,0.0330810546875,0.85894775390625,37.06999969482422,0.0,57.0,0.925567626953125,2.2985076904296875,Closing,0.0,0.0,0.0,0.0,0.0,0.0,0.0,0.0,
4.246872,0.0,0.0,-15528.0,1.25,420.0,NaN,0.0,0.25,0.740966721,NaN,0.0,15273.0,2.0,-352.5,NaN,0.0,0.25,0.44067378300000004,NaN,0.0,-300.0,2.875,405.0,NaN,0.0,0.125,3.251952792,NaN,-0.07812499200000023,2818.0,1.5,-352.5,NaN,0.0,0.25,1.544189295,NaN,-0.02441406000000068,0.7599999904632568,-0.07000000029802322,171.77000427246094,0.0545654296875,0.0340576171875,1.0970458984375,37.06999969482422,0.0,-52.0,0.9064788818359375,2.299957275390625,Closing,0.0,0.0,0.0,0.0,0.0,0.0,0.0,0.0,
4.389906999999999,0.0,0.0,-15500.0,0.375,172.5,635.52341029978,0.0,0.125,0.731201097,4.828681180404442,0.0,15239.0,0.625,-180.0,-635.52341029978,0.0,0.0,0.435790971,4.859538329021811,0.0,-252.0,0.5,262.5,635.52341029978,0.0,0.0,3.24706998,4.836659063715554,0.0,2779.0,0.625,-217.5,-635.52341029978,0.0,0.125,1.539306483,4.853889490304776,0.0,0.7799999713897705,-0.4099999964237213,171.5399932861328,-0.08148193359375,0.0355224609375,0.88580322265625,37.06999969482422,0.0,77.0,0.8892822265625,2.2991943359375,Closing,0.0,0.0,0.0,0.0,0.0,0.0,0.0,0.125,
4.513273000000001,0.0,0.0,-15423.0,1.5,495.0,636.4014074515,0.0,0.25,0.7226561760000001,4.820817138434254,-0.006103515000000392,15169.0,2.25,-487.5,-636.4014074515,0.0,0.25,0.44067378300000004,4.851624032768364,0.0024414059999999793,-204.0,3.625,337.5,636.4014074515,0.0,0.0,3.2177731080000003,4.828782028879023,-0.01586913899999942,2715.0,2.25,-450.0,-636.4014074515,0.0,0.25,1.533202968,4.845984393810662,0.0,0.7699999809265137,-0.11999999731779099,171.49000549316406,-0.07318115234375,0.02392578125,1.09222412109375,37.06999969482422,0.0,71.0,0.8799591064453125,2.2989501953125,Closing,0.0,0.0,0.0,0.0,0.0,0.0,0.0,0.0,
4.649296999999999,0.0,0.0,-15357.0,2.0,442.5,637.3430942016728,0.0,0.25,0.721435473,4.812975549907741,0.0,15106.0,3.25,-412.5,-637.3430942016728,0.0,0.25,0.426025347,4.84373233344482,-0.008544920999999484,-140.0,3.75,442.5,637.3430942016728,0.0,0.0,3.2177731080000003,4.82092748458345,-0.01342773300000033,2654.0,2.875,-420.0,-637.3430942016728,0.0,0.25,1.539306483,4.838101867979261,0.0,0.7200000286102295,0.30000001192092896,171.25999450683594,0.05303955078125,-0.01763916015625,0.93267822265625,37.06999969482422,0.0,-51.0,0.8624420166015625,2.2997283935546875,Closing,0.0,0.0,0.0,0.0,0.0,0.0,0.0,0.125,
4.688593000000001,0.0,0.0,-15357.0,2.0,472.5,638.3481886870205,0.0,0.25,0.727538988,4.805157876797849,-0.0012207029999995456,15106.0,3.25,-450.0,-638.3481886870205,0.0,0.25,0.426025347,4.8358647023667,-0.006103515000000392,-59.0,3.625,480.0,638.3481886870205,0.0,0.0,3.2177731080000003,4.8130968952172335,-0.0012207029999995456,2577.0,2.875,-457.5,-638.3481886870205,0.0,0.25,1.535644374,4.830243382415805,0.0,0.6700000166893005,0.33000001311302185,171.19000244140625,0.13311767578125,0.01971435546875,1.0703125,37.06999969482422,0.0,-124.0,0.8558349609375,2.29998779296875,Closing,0.0,0.0,0.0,0.0,0.0,0.0,0.0,0.0,
4.85191,0.0,0.0,-15176.0,1.5,600.0,NaN,0.0,0.25,0.69580071,NaN,0.0,14933.0,2.0,-592.5,NaN,0.0,0.25,0.406494099,NaN,-0.014648435999999876,38.0,2.125,615.0,NaN,0.0,0.0,3.2177731080000003,NaN,0.0012207029999995456,2485.0,1.375,-585.0,NaN,0.0,0.25,1.511230314,NaN,-0.019531247999999835,0.6100000143051147,0.5600000023841858,170.77000427246094,0.02862548828125,0.1380615234375,0.86065673828125,37.06999969482422,0.0,0.0,0.8274688720703125,2.300933837890625,Closing,0.0,0.0,0.0,0.0,0.0,0.0,0.0,0.0,
4.988614999999998,0.0,0.0,-15105.0,0.375,420.0,640.5473881035266,0.0,0.125,0.7263182850000001,4.789599983969735,0.0,14864.0,0.0,-405.0,-640.5473881035266,0.0,0.0,0.40161128700000004,4.820207388559392,0.0,123.0,0.375,502.5,640.5473881035266,0.0,0.0,3.248290683,4.797513297843941,0.0,2416.0,0.625,-390.0,-640.5473881035266,0.0,0.125,1.511230314,4.814604269028876,0.0,0.6899999976158142,-0.07000000029802322,170.4499969482422,-0.17047119140625,-0.03619384765625,0.92431640625,37.040000915527344,0.0,159.0,0.809539794921875,2.300750732421875,Closing,0.0,0.0,0.0,0.0,0.0,0.0,0.0,0.0,
5.115297999999999,0.0,0.0,-15002.0,0.375,652.5,640.5473881035266,0.0,0.25,0.721435473,4.789599983969735,-0.0012207029999995456,14756.0,0.75,-645.0,-640.5473881035266,0.0,0.25,0.397949178,4.820207388559392,0.006103514999999504,203.0,2.125,532.5,640.5473881035266,0.0,0.0,3.2177731080000003,4.797513297843941,-0.029296871999999752,2314.0,1.25,-615.0,-640.5473881035266,0.0,0.25,1.511230314,4.814604269028876,0.004882811999999959,0.7099999785423279,-0.14000000059604645,170.22000122070312,0.0382080078125,-0.029541015625,1.22845458984375,37.040000915527344,0.0,-48.0,0.796356201171875,2.300811767578125,Closing,0.0,0.0,0.0,0.0,0.0,0.0,0.0,0.0,
5.247457999999999,0.0,0.0,-14917.0,0.75,517.5,644.3137362062541,0.0,0.25,0.668945244,4.766477385014434,0.0,14679.0,1.5,-525.0,-644.3137362062541,0.0,0.25,0.391845663,4.796937027213962,0.0,276.0,2.875,427.5,644.3137362062541,0.0,0.0,3.2128902960000003,4.774352496035848,0.0,2237.0,2.0,-502.5,-644.3137362062541,0.0,0.25,1.511230314,4.7913609576847485,0.0,0.7200000286102295,-0.07000000029802322,169.9199981689453,-0.037353515625,5.4931640625E-4,0.992431640625,37.040000915527344,0.0,33.0,0.780487060546875,2.301361083984375,Closing,0.0,0.0,0.0,0.0,0.0,0.0,0.0,0.125,
5.39005,0.0,0.0,-14829.0,0.75,570.0,642.9964157170707,0.0,0.25,0.689697195,4.774154573861388,0.0,14590.0,1.625,-555.0,-642.9964157170707,0.0,0.25,0.367431603,4.804663276280129,0.0,357.0,2.875,577.5,642.9964157170707,0.0,0.125,3.2092281870000003,4.782042369032882,0.0,2154.0,2.25,-547.5,-642.9964157170707,0.0,0.25,1.491699066,4.799078225581942,0.0,0.6200000047683716,0.05000000074505806,169.63999938964844,0.05218505859375,0.01495361328125,1.07220458984375,37.040000915527344,0.0,-49.0,0.7632598876953125,2.3016815185546875,Closing,0.0,0.0,0.0,0.0,0.0,0.0,0.0,0.125,
5.513832999999999,0.0,0.0,-14732.0,0.75,615.0,645.6924288360907,0.0,0.25,0.6872557890000001,4.758832252386074,-0.004882811999999959,14498.0,1.5,-600.0,-645.6924288360907,0.0,0.25,0.357665979,4.789243039218082,-0.01831054500000029,452.0,2.625,622.5,645.6924288360907,0.0,0.125,3.2080074840000004,4.76669473222027,0.0,2062.0,2.0,-607.5,-645.6924288360907,0.0,0.25,1.4721678180000002,4.783675913356833,-0.019531247999999835,0.6000000238418579,0.10000000149011612,169.47999572753906,-0.080078125,0.0120849609375,1.22772216796875,37.0099983215332,0.0,80.0,0.761810302734375,2.3017120361328125,Closing,0.0,0.0,0.0,0.0,0.0,0.0,0.0,0.0,
5.663098999999998,0.0,0.0,-14631.0,0.5,645.0,648.6323477132481,0.0,0.25,0.678710868,4.743643082438357,0.0,14296.0,1.375,-630.0,-648.6323477132481,0.0,0.25,0.360107385,4.77395680457362,-0.0012207029999995456,663.0,2.25,667.5,648.6323477132481,0.0,0.125,3.189696939,4.751480466926451,-0.014648435999999876,1860.0,1.875,-637.5,-648.6323477132481,0.0,0.25,1.4721678180000002,4.768407447781828,0.0,0.6000000238418579,0.09000000357627869,169.27000427246094,0.0079345703125,0.07635498046875,1.19659423828125,37.0099983215332,0.0,6.0,0.76153564453125,2.301544189453125,Closing,0.0,0.0,0.0,0.0,0.0,0.0,0.0,0.0,
5.792738000000001,0.0,0.0,-14525.0,0.375,675.0,650.1927486150261,0.0,0.25,0.654296808,4.7361014181080066,0.0,14193.0,1.125,-645.0,-650.1927486150261,0.0,0.25,0.358886682,4.766366946078369,0.0,773.0,2.125,690.0,650.1927486150261,0.0,0.125,3.179931315,4.74392634235784,0.0,1754.0,1.625,-660.0,-650.1927486150261,0.0,0.25,1.457519382,4.760826411912025,0.0,0.6399999856948853,0.05000000074505806,169.0,0.00390625,0.01568603515625,1.065185546875,37.0099983215332,0.0,-2.0,0.760223388671875,2.29803466796875,Closing,0.0,0.0,0.0,0.0,0.0,0.0,0.0,0.0,
5.916798999999999,0.0,0.0,-14307.0,0.375,675.0,651.812872039399,0.0,0.25,0.640869075,4.728596554492267,-0.019531248000000723,14086.0,1.125,-660.0,-651.812872039399,0.0,0.25,0.35034176100000003,4.758814123468591,-0.004882811999999959,883.0,1.875,682.5,651.812872039399,0.0,0.125,3.175048503,4.736409079305493,-0.009765623999999917,1644.0,1.25,-682.5,-651.812872039399,0.0,0.25,1.4489744610000002,4.753282368876333,-0.014648435999999876,0.6100000143051147,0.029999999329447746,168.8699951171875,-0.03631591796875,0.01690673828125,0.9241943359375,37.0099983215332,0.0,37.0,0.757965087890625,2.2960205078125,Closing,0.0,0.0,0.0,0.0,0.0,0.0,0.0,0.125,
6.065940999999999,0.0,0.0,-14199.0,0.375,675.0,651.812872039399,0.0,0.25,0.640869075,4.728596554492267,0.0012207030000004337,13979.0,1.0,-667.5,-651.812872039399,0.0,0.125,0.31005856200000004,4.758814123468591,-0.032958981000000165,992.0,1.875,675.0,651.812872039399,0.0,0.125,3.175048503,4.736409079305493,0.0,1534.0,1.25,-690.0,-651.812872039399,0.0,0.25,1.4489744610000002,4.753282368876333,0.0,0.5299999713897705,0.0,168.8300018310547,0.01971435546875,0.0950927734375,1.0255126953125,36.97999954223633,0.0,-2.0,0.7570953369140625,2.29669189453125,Closing,0.0,0.0,0.0,0.0,0.0,0.0,0.0,0.125,
6.192301,0.0,0.0,-14091.0,0.375,667.5,653.4922737982924,0.0,0.25,0.640869075,4.721129584569014,0.0,13871.0,1.0,-667.5,-653.4922737982924,0.0,0.125,0.314941374,4.751299436706716,0.0,1100.0,1.875,667.5,653.4922737982924,0.0,0.125,3.1701656910000002,4.728929772553091,0.0,1422.0,1.0,-690.0,-653.4922737982924,0.0,0.25,1.4477537580000002,4.745776417358559,0.0,0.5899999737739563,-0.03999999910593033,168.8800048828125,0.03765869140625,0.02728271484375,1.083984375,36.97999954223633,0.0,-34.0,0.7573394775390625,2.2946929931640625,Closing,0.0,0.0,0.0,0.0,0.0,0.0,0.0,0.0,
6.312153999999999,0.0,0.0,-13987.0,0.375,645.0,648.6323477132481,0.0,0.25,0.640869075,4.743643082438357,0.0,13765.0,1.0,-660.0,-648.6323477132481,0.0,0.0,0.31005856200000004,4.77395680457362,0.004882811999999959,1208.0,1.75,667.5,648.6323477132481,0.0,0.0,3.1689449880000002,4.751480466926451,0.0,1313.0,1.0,-675.0,-648.6323477132481,0.0,0.25,1.4489744610000002,4.768407447781828,0.0,0.6399999856948853,-0.05000000074505806,168.85000610351562,0.03729248046875,0.0013427734375,0.89044189453125,36.97999954223633,0.0,-39.0,0.754180908203125,2.2928009033203125,Closing,0.0,0.0,0.0,0.0,0.0,0.0,0.0,0.0,
6.353973999999998,0.0,0.0,-13987.0,0.375,652.5,648.6323477132481,0.0,0.125,0.640869075,4.743643082438357,0.0,13765.0,1.0,-660.0,-648.6323477132481,0.0,0.0,0.314941374,4.77395680457362,0.0,1208.0,1.75,667.5,648.6323477132481,0.0,0.0,3.1689449880000002,4.751480466926451,0.0,1205.0,1.0,-667.5,-648.6323477132481,0.0,0.25,1.4477537580000002,4.768407447781828,0.0,0.6700000166893005,-0.11999999731779099,168.82000732421875,0.05706787109375,-0.019287109375,1.07354736328125,36.97999954223633,0.0,-64.0,0.75201416015625,2.29254150390625,Closing,0.0,0.0,0.0,0.0,0.0,0.0,0.0,0.125,
6.408657999999999,0.0,0.0,-13881.0,0.375,660.0,NaN,0.0,0.125,0.640869075,NaN,0.0,13659.0,0.75,-645.0,NaN,0.0,0.0,0.312499968,NaN,0.0012207030000004337,1314.0,0.875,667.5,NaN,0.0,0.0,3.1689449880000002,NaN,-0.0012207030000004337,1205.0,0.5,-667.5,NaN,0.0,0.125,1.4489744610000002,NaN,0.0,0.6899999976158142,-0.11999999731779099,168.80999755859375,-0.01287841796875,-0.044921875,0.9769287109375,36.97999954223633,0.0,0.0,0.74932861328125,2.2925872802734375,Closing,0.0,0.0,0.0,0.0,0.0,0.0,0.0,0.0,
6.46684,0.0,0.0,-13881.0,0.125,607.5,NaN,0.0,0.25,0.639648372,NaN,0.0,13659.0,0.0,-540.0,NaN,0.0,0.0,0.31005856200000004,NaN,-0.006103515000000392,1314.0,0.25,645.0,NaN,0.0,0.0,3.178710612,NaN,0.006103515000000392,1205.0,0.25,-615.0,NaN,0.0,0.125,1.4489744610000002,NaN,0.0,0.6700000166893005,-0.25,168.7899932861328,-0.06781005859375,0.0584716796875,1.27313232421875,36.97999954223633,0.0,69.0,0.7463226318359375,2.2930908203125,Closing,0.0,0.0,0.0,0.0,0.0,0.0,0.0,0.0,
6.516415000000001,0.0,0.0,-13808.0,0.0,427.5,NaN,0.0,0.125,0.640869075,NaN,0.0012207030000004337,13588.0,0.125,-405.0,NaN,0.0,0.0,0.31005856200000004,NaN,0.0,1397.0,0.125,495.0,NaN,0.0,0.0,3.193359048,NaN,0.013427732999999442,1132.0,0.125,-420.0,NaN,0.0,0.125,1.439208837,NaN,-0.007324218000000826,0.6899999976158142,-0.7200000286102295,168.75999450683594,-0.11279296875,-0.014404296875,0.97137451171875,36.900001525878906,0.0,93.0,0.7447052001953125,2.2945556640625,Closing,0.0,0.0,0.0,0.0,0.0,0.0,0.0,0.0,
6.557516,0.0,0.0,-13808.0,0.0,427.5,NaN,0.0,0.25,0.640869075,NaN,0.0,13588.0,0.125,-420.0,NaN,0.0,0.0,0.30395504700000003,NaN,0.0012207030000004337,1397.0,0.125,390.0,NaN,0.0,0.0,3.193359048,NaN,0.006103515000000392,1132.0,0.125,-412.5,NaN,0.0,0.125,1.444091649,NaN,0.0012207030000004337,0.6800000071525574,-0.8199999928474426,168.77000427246094,-0.1077880859375,0.03607177734375,1.1485595703125,36.900001525878906,0.0,93.0,0.74517822265625,2.2950897216796875,Closing,0.0,0.0,0.0,0.0,0.0,0.0,0.0,0.0,
6.605725999999999,0.0,0.0,-13808.0,0.125,457.5,NaN,0.0,0.125,0.640869075,NaN,0.0,13588.0,0.125,-465.0,NaN,0.0,0.0,0.30517575,NaN,-0.006103515000000392,1397.0,0.125,367.5,NaN,0.0,0.0,3.193359048,NaN,-0.0012207030000004337,1066.0,0.125,-435.0,NaN,0.0,0.125,1.4489744610000002,NaN,-0.0024414059999999793,0.7599999904632568,-1.190000057220459,168.77999877929688,-0.078369140625,0.0140380859375,1.07080078125,36.900001525878906,0.0,54.0,0.748260498046875,2.295745849609375,Closing,0.0,0.0,0.0,0.0,0.0,0.0,0.0,0.125,
6.648801,0.0,0.0,-13750.0,0.125,375.0,NaN,0.0,0.125,0.640869075,NaN,0.0,13525.0,0.125,-382.5,NaN,0.0,0.0,0.300292938,NaN,-0.006103515000000392,1456.0,0.0,367.5,NaN,0.0,0.0,3.193359048,NaN,-0.0012207030000004337,1066.0,0.125,-375.0,NaN,0.0,0.125,1.4477537580000002,NaN,-0.0024414059999999793,0.7699999809265137,-1.3700000047683716,168.8000030517578,-0.1705322265625,-0.01702880859375,1.00048828125,36.900001525878906,0.0,137.0,0.750701904296875,2.2960357666015625,Closing,0.0,0.0,0.0,0.0,0.0,0.0,0.0,0.0,
6.689385999999999,0.0,0.0,-13750.0,0.125,270.0,NaN,0.0,0.125,0.639648372,NaN,0.0,13525.0,0.125,-307.5,NaN,0.0,0.0,0.300292938,NaN,0.0012207029999995456,1456.0,0.125,322.5,NaN,0.0,0.0,3.193359048,NaN,0.0,1066.0,0.125,-270.0,NaN,0.0,0.125,1.4489744610000002,NaN,0.0,0.8500000238418579,-2.0799999237060547,168.89999389648438,-0.3790283203125,0.1163330078125,1.14434814453125,36.900001525878906,0.0,349.0,0.7593994140625,2.2970733642578125,Closing,0.0,0.0,0.0,0.0,0.0,0.0,0.0,0.0,
6.745059000000001,0.0,0.0,-13750.0,0.125,217.5,NaN,0.0,0.125,0.639648372,NaN,0.0,13502.0,0.0,-150.0,NaN,0.0,0.0,0.300292938,NaN,0.0,1484.0,0.0,180.0,NaN,0.0,0.0,3.193359048,NaN,0.0012207030000004337,1042.0,0.125,-105.0,NaN,0.0,0.125,1.4477537580000002,NaN,0.0,1.090000033378601,-2.6700000762939453,168.94000244140625,-0.06817626953125,0.1260986328125,1.05023193359375,36.900001525878906,0.0,38.0,0.77459716796875,2.2973785400390625,Closing,0.0,0.0,0.0,0.0,0.0,0.0,0.0,0.0,
6.810716,0.0,0.0,-13735.0,0.125,45.0,NaN,0.0,0.125,0.635986263,NaN,-0.0012207030000004337,13502.0,0.0,-15.0,NaN,0.0,0.0,0.300292938,NaN,-0.0012207029999995456,1484.0,0.125,45.0,NaN,0.0,0.0,3.193359048,NaN,-0.0012207030000004337,1042.0,0.25,0.0,NaN,0.0,0.125,1.434326025,NaN,0.0,1.1200000047683716,-2.609999895095825,168.85000610351562,0.02288818359375,-0.0279541015625,0.96282958984375,36.900001525878906,0.0,-74.0,0.7910919189453125,2.296600341796875,Closing,0.0,0.0,0.0,0.0,0.0,0.0,0.0,0.0,
6.868973999999998,0.0,0.0,-13735.0,0.125,0.0,NaN,0.0,0.125,0.635986263,NaN,-0.004882811999999959,13502.0,0.0,0.0,NaN,0.0,0.0,0.300292938,NaN,0.0,1484.0,0.125,0.0,NaN,0.0,0.0,3.184814127,NaN,0.0012207030000004337,1045.0,0.25,0.0,NaN,0.0,0.125,1.435546728,NaN,-0.01342773300000033,0.9800000190734863,-2.4000000953674316,168.77000427246094,0.10418701171875,-0.02655029296875,1.00701904296875,36.900001525878906,0.0,-151.0,0.80218505859375,2.29644775390625,Closing,0.0,0.0,0.0,0.0,0.0,0.0,0.0,0.0,
6.922885999999998,0.0,0.0,-13735.0,0.125,0.0,NaN,0.0,0.125,0.626220639,NaN,-0.004882811999999959,13502.0,0.0,22.5,NaN,0.0,0.0,0.300292938,NaN,-0.0012207030000004337,1484.0,0.25,0.0,NaN,0.0,0.0,3.1738278,NaN,-0.014648435999999876,1045.0,0.375,45.0,NaN,0.0,0.125,1.434326025,NaN,0.0,0.9200000166893005,-2.0399999618530273,168.80999755859375,0.1318359375,0.0228271484375,1.07183837890625,36.900001525878906,0.0,-165.0,0.8141632080078125,2.296356201171875,Closing,0.0,0.0,0.0,0.0,0.0,0.0,0.0,0.0,
6.990175999999999,0.0,0.0,-13735.0,0.125,-15.0,NaN,0.0,0.125,0.6188964210000001,NaN,0.0,13507.0,0.0,22.5,NaN,0.0,0.0,0.300292938,NaN,0.0,1484.0,0.125,0.0,NaN,0.0,0.0,3.175048503,NaN,0.0,1050.0,0.375,30.0,NaN,0.0,0.125,1.434326025,NaN,0.0,0.9200000166893005,-1.7999999523162842,168.8300018310547,0.0540771484375,-0.01177978515625,1.01373291015625,36.900001525878906,0.0,-89.0,0.821075439453125,2.2958526611328125,Closing,0.0,0.0,0.0,0.0,0.0,0.0,0.0,0.0,
7.0166689999999985,0.0,0.0,-13737.0,0.125,-7.5,NaN,0.0,0.125,0.626220639,NaN,-0.004882811999999959,13507.0,0.0,15.0,NaN,0.0,0.0,0.301513641,NaN,0.0012207030000004337,1484.0,0.125,0.0,NaN,0.0,0.0,3.1738278,NaN,-0.004882811999999959,1050.0,0.375,0.0,NaN,0.0,0.125,1.434326025,NaN,0.0,0.8399999737739563,-1.7100000381469727,168.80999755859375,-0.0130615234375,-0.01226806640625,0.9781494140625,36.91999816894531,0.0,-21.0,0.8270721435546875,2.295501708984375,Closing,0.0,0.0,0.0,0.0,0.0,0.0,0.0,0.0,
7.065776999999998,0.0,0.0,-13737.0,0.125,0.0,NaN,0.0,0.125,0.626220639,NaN,0.0,13507.0,0.0,0.0,NaN,0.0,0.0,0.300292938,NaN,0.0,1484.0,0.125,0.0,NaN,0.0,0.0,3.178710612,NaN,0.0,1050.0,0.375,0.0,NaN,0.0,0.125,1.434326025,NaN,0.0,0.8199999928474426,-1.690000057220459,168.8000030517578,-0.01617431640625,0.023681640625,1.03082275390625,36.91999816894531,0.0,-12.0,0.8308868408203125,2.2953948974609375,Closing,0.0,0.0,0.0,0.0,0.0,0.0,0.0,0.0,
7.109392,0.0,0.0,-13737.0,0.125,0.0,NaN,0.0,0.125,0.627441342,NaN,-0.0012207030000004337,13507.0,0.0,0.0,NaN,0.0,0.0,0.299072235,NaN,-0.0012207030000004337,1484.0,0.125,0.0,NaN,0.0,0.0,3.179931315,NaN,0.004882811999999959,1049.0,0.375,0.0,NaN,0.0,0.125,1.434326025,NaN,-0.0012207029999995456,0.8700000047683716,-1.6699999570846558,168.82000732421875,-0.0205078125,0.032470703125,1.04388427734375,36.91999816894531,0.0,-6.0,0.830810546875,2.2951812744140625,Closing,0.0,0.0,0.0,0.0,0.0,0.0,0.0,0.125,
7.148208999999999,0.0,0.0,-13737.0,0.125,0.0,NaN,0.0,0.125,0.626220639,NaN,-0.0012207030000004337,13507.0,0.0,0.0,NaN,0.0,0.0,0.300292938,NaN,0.0012207030000004337,1484.0,0.25,0.0,NaN,0.0,0.0,3.179931315,NaN,0.0,1049.0,0.375,0.0,NaN,0.0,0.125,1.434326025,NaN,0.0,0.8799999952316284,-1.6699999570846558,168.8300018310547,-0.03912353515625,-6.7138671875E-4,1.01812744140625,36.91999816894531,0.0,5.0,0.830810546875,2.29473876953125,Closing,0.0,0.0,0.0,0.0,0.0,0.0,0.0,0.125,
7.209073,0.0,0.0,-13737.0,0.125,0.0,NaN,0.0,0.125,0.626220639,NaN,0.0,13507.0,0.0,0.0,NaN,0.0,0.0,0.301513641,NaN,0.0,1484.0,0.25,0.0,NaN,0.0,0.0,3.179931315,NaN,0.0,1049.0,0.125,0.0,NaN,0.0,0.125,1.435546728,NaN,0.0,0.8600000143051147,-1.6699999570846558,168.82000732421875,-0.03900146484375,-0.00177001953125,1.00579833984375,36.91999816894531,0.0,6.0,0.830810546875,2.29473876953125,Closing,0.0,0.0,0.0,0.0,0.0,0.0,0.0,0.125,
7.249512999999999,0.0,0.0,-13737.0,0.125,0.0,NaN,0.0,0.125,0.626220639,NaN,0.0012207030000004337,13507.0,0.0,0.0,NaN,0.0,0.0,0.300292938,NaN,0.0,1484.0,0.25,0.0,NaN,0.0,0.0,3.178710612,NaN,0.0,1049.0,0.125,0.0,NaN,0.0,0.125,1.434326025,NaN,0.0,0.8500000238418579,-1.6699999570846558,168.80999755859375,-0.02215576171875,0.02880859375,0.98828125,36.91999816894531,0.0,-3.0,0.830810546875,2.29473876953125,Closing,0.0,0.0,0.0,0.0,0.0,0.0,0.0,0.0,
7.284853999999999,0.0,0.0,-13737.0,0.125,0.0,NaN,0.0,0.125,0.6201171240000001,NaN,0.0,13507.0,0.0,0.0,NaN,0.0,0.0,0.300292938,NaN,0.0,1484.0,0.125,0.0,NaN,0.0,0.0,3.179931315,NaN,0.0,1049.0,0.375,0.0,NaN,0.0,0.125,1.434326025,NaN,0.0,0.8799999952316284,-1.6699999570846558,168.80999755859375,-0.0203857421875,0.03326416015625,1.05987548828125,36.91999816894531,0.0,-7.0,0.830810546875,2.29473876953125,Closing,0.0,0.0,0.0,0.0,0.0,0.0,0.0,0.0,
7.343446,0.0,0.0,-13737.0,0.125,0.0,NaN,0.0,0.125,0.628662045,NaN,0.0,13507.0,0.0,0.0,NaN,0.0,0.0,0.300292938,NaN,0.0,1484.0,0.125,0.0,NaN,0.0,0.0,3.179931315,NaN,0.0,1049.0,0.375,0.0,NaN,0.0,0.125,1.434326025,NaN,0.0012207029999995456,0.8700000047683716,-1.6299999952316284,168.8300018310547,-0.02423095703125,-0.00640869140625,1.04461669921875,36.91999816894531,0.0,-9.0,0.8307342529296875,2.2946014404296875,Closing,0.0,0.0,0.0,0.0,0.0,0.0,0.0,0.0,
7.369205999999998,0.0,0.0,-13737.0,0.125,0.0,420.0,0.0,0.125,0.6347655600000001,0.01,0.0,13507.0,0.0,0.0,-420.0,0.0,0.25,0.299072235,0.01,0.0,1484.0,0.375,0.0,420.0,0.0,0.0,3.178710612,0.01,0.0,1049.0,0.375,0.0,-420.0,0.0,0.125,1.434326025,0.01,0.0,0.8399999737739563,-1.590000033378601,168.82000732421875,6.103515625E-5,-0.005615234375,0.98077392578125,36.91999816894531,0.0,-30.0,0.8305511474609375,2.29461669921875,Closing,0.0,0.0,0.0,0.0,0.0,0.0,0.0,0.0,
7.401352999999999,0.0,0.0,-13737.0,0.125,0.0,420.0,0.0,0.375,0.668945244,0.01,0.0,13507.0,0.25,0.0,-420.0,0.0,0.25,0.313720671,0.01,0.0,1484.0,0.75,0.0,420.0,0.0,0.125,3.192138345,0.01,0.0,1049.0,0.375,0.0,-420.0,0.0,0.375,1.439208837,0.01,0.0,0.8299999833106995,-1.5700000524520874,168.82000732421875,0.0037841796875,0.01141357421875,1.0418701171875,36.91999816894531,0.0,-32.0,0.8302001953125,2.29461669921875,Closing,0.0,0.0,0.0,0.0,0.0,0.0,0.0,0.0,
7.433275999999998,0.0,0.0,-13737.0,0.375,22.5,420.0,0.0,0.5,0.677490165,0.01,0.026855465999999772,13507.0,0.625,-37.5,-420.0,0.0,0.5,0.319824186,0.01,0.0,1484.0,1.5,7.5,420.0,0.0,0.25,3.228759435,0.01,0.0,1049.0,0.75,-37.5,-420.0,0.0,0.375,1.4721678180000002,0.01,-0.0012207029999995456,0.800000011920929,-1.4800000190734863,168.8000030517578,0.13970947265625,0.0045166015625,1.05291748046875,36.91999816894531,0.0,-165.0,0.8295745849609375,2.29461669921875,Closing,0.0,0.0,0.0,0.0,0.0,0.0,0.0,0.125,
7.461947,0.0,0.0,-13737.0,0.375,45.0,420.0,0.0,0.375,0.6994628190000001,4.932114068287955,0.026855465999999772,13507.0,0.875,-67.5,-420.0,0.0,0.25,0.344238246,4.96363219324112,0.01831054500000029,1488.0,1.75,15.0,420.0,0.0,0.125,3.2653805250000003,4.9402628420511885,0.053710931999999545,1037.0,1.0,-67.5,-420.0,0.0,0.375,1.520995938,4.957862353430854,0.040283198999999215,0.7799999713897705,-1.2699999809265137,168.77000427246094,0.071044921875,-0.01617431640625,0.79327392578125,36.91999816894531,0.0,-92.0,0.8282470703125,2.294525146484375,Closing,0.0,0.0,0.0,0.0,0.0,0.0,0.0,0.125,
7.491298999999999,0.0,0.0,-13723.0,0.5,90.0,420.00000000000006,0.0,0.375,0.7263182850000001,4.931703064095773,0.025634763000000227,13493.0,1.125,-90.0,-420.00000000000006,0.0,0.25,0.39550777200000004,4.96321856257248,0.01831054500000029,1488.0,2.125,30.0,420.00000000000006,0.0,0.125,3.292235991,4.939851158803304,0.053710931999999545,1037.0,1.25,-90.0,-420.00000000000006,0.0,0.25,1.549072107,4.957449203575982,0.040283198999999215,0.7599999904632568,-1.2699999809265137,168.77999877929688,2.44140625E-4,0.02239990234375,1.1378173828125,36.91999816894531,0.0,-23.0,0.8265380859375,2.29437255859375,Closing,0.0,0.0,0.0,0.0,0.0,0.0,0.0,0.0,
7.521543999999998,0.0,0.0,-13723.0,0.75,90.0,420.00000000000006,0.0,0.375,0.7507323450000001,4.931839995807818,0.052490229,13493.0,1.125,-105.0,-420.00000000000006,0.0,0.25,0.43945308000000005,4.96335636933136,0.07934569499999977,1488.0,2.375,37.5,420.00000000000006,0.0,0.125,3.3154293480000003,4.939988316752116,0.06103515000000037,1037.0,1.375,-90.0,-420.00000000000006,0.0,0.375,1.573486167,4.957586850145128,0.07568358600000025,0.7099999785423279,-1.1799999475479126,168.8000030517578,-0.0147705078125,-0.01055908203125,0.8751220703125,36.91999816894531,0.0,-7.0,0.824676513671875,2.294189453125,Closing,0.0,0.0,0.0,0.0,0.0,0.0,0.0,0.0,
7.551482,0.0,0.0,-13723.0,0.875,67.5,420.0,0.0,0.375,0.7531737510000001,4.932114068287955,0.052490229,13493.0,1.125,-97.5,-420.0,0.0,0.25,0.46386714,4.96363219324112,0.07934569499999977,1488.0,2.5,45.0,420.0,0.0,0.125,3.3166500510000003,4.9402628420511885,0.06103515000000037,1037.0,2.0,-75.0,-420.0,0.0,0.375,1.5832517910000001,4.957862353430854,0.07568358600000025,0.7300000190734863,-1.2300000190734863,168.83999633789062,-0.0968017578125,0.041259765625,1.1138916015625,36.880001068115234,0.0,76.0,0.8228607177734375,2.2940521240234375,Closing,0.0,0.0,0.0,0.0,0.0,0.0,0.0,0.0,
7.58368,0.0,0.0,-13723.0,1.125,60.0,420.00000000000006,0.0,0.375,0.770263593,0.01,0.032958981000000165,13478.0,1.875,-90.0,-420.00000000000006,0.0,0.375,0.484619091,0.01,0.06713866499999988,1498.0,3.0,52.5,420.00000000000006,0.0,0.0,3.3154293480000003,0.01,0.021972653999999814,1023.0,2.25,-82.5,-420.00000000000006,0.0,0.375,1.588134603,0.01,0.032958981000000165,0.7599999904632568,-1.2400000095367432,168.88999938964844,-0.07049560546875,0.06280517578125,0.96197509765625,36.880001068115234,0.0,58.0,0.82135009765625,2.294036865234375,Closing,0.0,0.0,0.0,0.0,0.0,0.0,0.0,0.0,
7.61123,0.0,0.0,-13715.0,1.375,52.5,420.0,0.0,0.25,0.770263593,0.01,0.032958981000000165,13478.0,2.25,-97.5,-420.0,0.0,0.25,0.489501903,0.01,0.01831054500000029,1498.0,3.375,52.5,420.0,0.0,0.0,3.3129879420000004,0.01,-0.0012207029999995456,1023.0,2.625,-75.0,-420.0,0.0,0.25,1.588134603,0.01,0.004882811999999959,0.800000011920929,-1.3600000143051147,168.92999267578125,-0.07489013671875,0.0406494140625,1.066162109375,36.880001068115234,0.0,53.0,0.8201446533203125,2.2939453125,Closing,0.0,0.0,0.0,0.0,0.0,0.0,0.0,0.0,
7.644048999999999,0.0,0.0,-13715.0,1.75,45.0,420.0,0.0,0.25,0.770263593,0.01,0.004882811999999959,13478.0,3.125,-67.5,-420.0,0.0,0.25,0.489501903,0.01,0.01831054500000029,1498.0,4.0,37.5,420.0,0.0,0.0,3.3142086450000003,0.01,-0.0012207029999995456,1023.0,2.875,-60.0,-420.0,0.0,0.25,1.5869139,0.01,0.004882811999999959,0.800000011920929,-1.3799999952316284,168.91000366210938,-0.03973388671875,-0.01556396484375,1.0040283203125,36.880001068115234,0.0,9.0,0.8192138671875,2.293975830078125,Closing,0.0,0.0,0.0,0.0,0.0,0.0,0.0,0.125,
7.670269,0.0,0.0,-13715.0,2.0,37.5,420.0,0.0,0.25,0.766601484,0.01,0.0,13478.0,3.625,-45.0,-420.0,0.0,0.25,0.489501903,0.01,0.004882811999999959,1498.0,4.5,30.0,420.0,0.0,0.0,3.3129879420000004,0.01,0.0,1023.0,3.5,-37.5,-420.0,0.0,0.25,1.588134603,0.01,0.0012207030000004337,0.7699999809265137,-1.3799999952316284,168.8800048828125,-2.44140625E-4,-0.01141357421875,1.03076171875,36.880001068115234,0.0,-29.0,0.818267822265625,2.2941131591796875,Closing,0.0,0.0,0.0,0.0,0.0,0.0,0.0,0.0,
7.702481,0.0,0.0,-13715.0,2.75,7.5,420.0,0.0,0.25,0.770263593,0.01,0.0,13478.0,4.25,-22.5,-420.0,0.0,0.25,0.489501903,0.01,0.004882811999999959,1499.0,5.5,15.0,420.0,0.0,0.0,3.3129879420000004,0.01,0.0,1022.0,4.5,-7.5,-420.0,0.0,0.25,1.585693197,0.01,0.0012207030000004337,0.75,-1.309999942779541,168.8800048828125,0.0159912109375,0.01861572265625,1.00244140625,36.880001068115234,0.0,-37.0,0.817108154296875,2.2942962646484375,Closing,0.0,0.0,0.0,0.0,0.0,0.0,0.0,0.0,
7.732364999999998,0.0,0.0,-13713.0,3.0,0.0,420.0,0.0,0.25,0.7653807810000001,0.01,0.0,13477.0,5.125,0.0,-420.0,0.0,0.25,0.4882812,0.01,0.0,1499.0,5.875,7.5,420.0,0.0,0.0,3.3154293480000003,0.01,0.0,1022.0,4.875,0.0,-420.0,0.0,0.25,1.589355306,0.01,-0.0012207030000004337,0.7599999904632568,-1.2699999809265137,168.89999389648438,0.01751708984375,0.023193359375,1.03564453125,36.880001068115234,0.0,-38.0,0.81573486328125,2.2942962646484375,Closing,0.0,0.0,0.0,0.0,0.0,0.0,0.0,0.0,
7.761474999999998,0.0,0.0,-13713.0,3.75,7.5,420.0,0.0,0.25,0.770263593,0.01,0.0,13477.0,5.75,0.0,-420.0,0.0,0.25,0.495605418,0.01,0.0,1499.0,6.25,0.0,420.0,0.0,0.0,3.3142086450000003,0.01,0.0012207029999995456,1022.0,5.5,0.0,-420.0,0.0,0.25,1.591796712,0.01,0.0,0.7699999809265137,-1.2100000381469727,168.91000366210938,0.0262451171875,0.008544921875,1.00506591796875,36.880001068115234,0.0,-47.0,0.8141632080078125,2.2942962646484375,Closing,0.0,0.0,0.0,0.0,0.0,0.0,0.0,0.0,
7.792043000000001,0.0,0.0,-13713.0,3.875,15.0,420.0,0.0,0.25,0.767822187,0.01,0.0,13477.0,7.0,-15.0,-420.0,0.0,0.25,0.489501903,0.01,0.0,1499.0,6.75,7.5,420.0,0.0,0.0,3.3154293480000003,0.01,0.0012207029999995456,1022.0,5.875,-7.5,-420.0,0.0,0.25,1.593017415,0.01,0.0,0.7599999904632568,-1.159999966621399,168.89999389648438,-0.00225830078125,0.00299072265625,1.01336669921875,36.880001068115234,0.0,-20.0,0.8123779296875,2.2942962646484375,Closing,0.0,0.0,0.0,0.0,0.0,0.0,0.0,0.0,
7.821720000000001,0.0,0.0,-13713.0,4.125,22.5,420.0,0.0,0.25,0.770263593,0.01,0.0012207029999995456,13471.0,7.375,-30.0,-420.0,0.0,0.25,0.489501903,0.01,0.0,1503.0,7.0,15.0,420.0,0.0,0.0,3.3142086450000003,0.01,-0.0012207029999995456,1018.0,6.25,-15.0,-420.0,0.0,0.25,1.594238118,0.01,0.006103515000000392,0.7400000095367432,-1.149999976158142,168.88999938964844,-0.01873779296875,0.00677490234375,1.01129150390625,36.880001068115234,0.0,-2.0,0.81146240234375,2.2942962646484375,Closing,0.0,0.0,0.0,0.0,0.0,0.0,0.0,0.0,
7.852617999999999,0.0,0.0,-13708.0,4.5,30.0,420.0,0.0,0.25,0.76904289,0.01,0.0012207029999995456,13471.0,7.875,-30.0,-420.0,0.0,0.25,0.4882812,0.01,0.0,1503.0,7.625,22.5,420.0,0.0,0.0,3.3154293480000003,0.01,-0.0012207029999995456,1018.0,7.5,-30.0,-420.0,0.0,0.25,1.595458821,0.01,0.006103515000000392,0.7300000190734863,-1.1399999856948853,168.89999389648438,-0.00555419921875,0.01324462890625,1.01837158203125,36.880001068115234,0.0,-14.0,0.81146240234375,2.2942962646484375,Closing,0.0,0.0,0.0,0.0,0.0,0.0,0.0,0.0,
7.885285,0.0,0.0,-13708.0,5.0,22.5,420.0,0.0,0.25,0.771484296,0.01,-0.0012207029999995456,13471.0,8.375,-37.5,-420.0,0.0,0.125,0.4882812,0.01,0.0012207029999995456,1503.0,8.0,22.5,420.0,0.0,0.0,3.3142086450000003,0.01,0.0,1018.0,9.25,-30.0,-420.0,0.0,0.25,1.597900227,0.01,0.004882811999999959,0.7300000190734863,-1.1299999952316284,168.94000244140625,-0.00262451171875,0.0208740234375,1.01092529296875,36.880001068115234,0.0,-15.0,0.81146240234375,2.2942962646484375,Closing,0.0,0.0,0.0,0.0,0.0,0.0,0.0,0.0,
7.913583999999999,0.0,0.0,-13708.0,5.25,22.5,420.00000000000006,0.0,0.25,0.770263593,0.01,-0.0012207029999995456,13471.0,9.625,-45.0,-420.00000000000006,0.0,0.125,0.49316401200000004,0.01,0.0,1503.0,9.5,15.0,420.00000000000006,0.0,0.0,3.3166500510000003,0.01,0.0,1018.0,9.75,-37.5,-420.00000000000006,0.0,0.25,1.6027830390000002,0.01,-0.0012207030000004337,0.7400000095367432,-1.1200000047683716,168.97999572753906,-0.039794921875,0.01910400390625,1.01861572265625,36.880001068115234,0.0,20.0,0.81146240234375,2.2942962646484375,Closing,0.0,0.0,0.0,0.0,0.0,0.0,0.0,0.0,
7.9480699999999995,0.0,0.0,-13708.0,5.75,22.5,419.99999999999994,0.0,0.25,0.770263593,0.01,0.0012207029999995456,13464.0,10.375,-45.0,-419.99999999999994,0.0,0.125,0.49316401200000004,0.01,0.0,1506.0,10.25,15.0,419.99999999999994,0.0,0.0,3.3129879420000004,0.01,0.0,1012.0,10.625,-30.0,-419.99999999999994,0.0,0.25,1.612548663,0.01,-0.0012207030000004337,0.7300000190734863,-1.100000023841858,168.9600067138672,-0.01861572265625,0.0274658203125,1.039306640625,36.880001068115234,0.0,1.0,0.8114166259765625,2.2942962646484375,Closing,0.0,0.0,0.0,0.0,0.0,0.0,0.0,0.0,
7.974166000000001,0.0,0.0,-13704.0,7.0,22.5,420.00000000000006,0.0,0.25,0.76904289,0.01,0.0,13464.0,11.25,-37.5,-420.00000000000006,0.0,0.125,0.49316401200000004,0.01,0.003662109000000413,1506.0,11.0,15.0,420.00000000000006,0.0,0.0,3.3203121600000003,0.01,0.0012207029999995456,1012.0,11.0,-30.0,-420.00000000000006,0.0,0.25,1.617431475,0.01,0.014648435999999876,0.7400000095367432,-1.059999942779541,168.9199981689453,0.0374755859375,-0.003173828125,0.9951171875,36.880001068115234,0.0,-58.0,0.811370849609375,2.2942962646484375,Closing,0.0,0.0,0.0,0.0,0.0,0.0,0.0,0.0,
8.008917000000002,0.0,0.0,-13704.0,7.625,30.0,420.0,0.0,0.25,0.770263593,0.01,0.0,13464.0,11.5,-37.5,-420.0,0.0,0.125,0.49926752700000004,0.01,-0.0012207030000004337,1506.0,11.375,22.5,420.0,0.0,0.0,3.3166500510000003,0.01,0.0012207030000004337,1012.0,11.5,-22.5,-420.0,0.0,0.125,1.621093584,0.01,0.004882811999999959,0.7300000190734863,-1.0099999904632568,168.91000366210938,-0.004150390625,0.0,1.0052490234375,36.880001068115234,0.0,-15.0,0.8111419677734375,2.2942962646484375,Closing,0.0,0.0,0.0,0.0,0.0,0.0,0.0,0.0,
8.042358,0.0,0.0,-13704.0,7.75,37.5,420.0,0.0,0.25,0.770263593,0.01,-0.0024414059999999793,13464.0,13.5,-37.5,-420.0,0.0,0.125,0.49316401200000004,0.01,-0.0012207030000004337,1506.0,13.625,30.0,420.0,0.0,0.0,3.3264156750000002,0.01,0.0012207030000004337,1012.0,11.375,-22.5,-420.0,0.0,0.125,1.625976396,0.01,0.004882811999999959,0.7300000190734863,-0.9900000095367432,168.9199981689453,-0.026611328125,0.00201416015625,1.01446533203125,36.95000076293945,0.0,6.0,0.810821533203125,2.2942962646484375,Closing,0.0,0.0,0.0,0.0,0.0,0.0,0.0,0.0,
8.069198,0.0,0.0,-13704.0,7.875,37.5,420.0,0.0,0.25,0.771484296,0.01,0.0012207030000004337,13454.0,14.5,-52.5,-420.0,0.0,0.125,0.49438471500000003,0.01,0.0012207030000004337,1512.0,14.625,37.5,420.0,0.0,0.0,3.3215328630000003,0.01,0.0024414059999999793,1007.0,11.25,-22.5,-420.0,0.0,0.125,1.62353499,0.01,0.009765623999999917,0.7200000286102295,-0.9900000095367432,168.92999267578125,-0.0189208984375,0.011962890625,1.0162353515625,36.95000076293945,0.0,1.0,0.8106536865234375,2.2942962646484375,Closing,0.0,0.0,0.0,0.0,0.0,0.0,0.0,0.125,
8.102694,0.0,0.0,-13697.0,9.25,37.5,420.0,0.0,0.25,0.770263593,0.01,0.0012207030000004337,13454.0,15.0,-60.0,-420.0,0.0,0.125,0.49316401200000004,0.01,0.0012207030000004337,1512.0,15.5,37.5,420.0,0.0,0.0,3.3203121600000003,0.01,0.0024414059999999793,1007.0,12.375,-30.0,-420.0,0.0,0.125,1.6296385050000002,0.01,0.009765623999999917,0.7200000286102295,-0.9599999785423279,168.94000244140625,-0.0145263671875,0.02105712890625,1.0196533203125,36.95000076293945,0.0,0.0,0.8105926513671875,2.2942962646484375,Closing,0.0,0.0,0.0,0.0,0.0,0.0,0.0,0.0,
8.131497999999999,0.0,0.0,-13697.0,9.875,37.5,420.00000000000006,0.0,0.25,0.770263593,0.01,0.0,13454.0,16.125,-67.5,-420.00000000000006,0.0,0.125,0.49316401200000004,0.01,0.0,1512.0,16.125,37.5,420.00000000000006,0.0,0.0,3.3203121600000003,0.01,0.0,1007.0,13.25,-30.0,-420.00000000000006,0.0,0.125,1.645507644,0.01,-4.943351563999999,0.7300000190734863,-0.9599999785423279,168.94000244140625,-0.01849365234375,0.0194091796875,1.00469970703125,36.95000076293945,0.0,2.0,0.810546875,2.2942962646484375,Closing,0.0,0.0,0.0,0.0,0.0,0.0,0.0,0.0,
8.162353,0.0,0.0,-13697.0,11.125,37.5,420.00000000000006,0.0,0.25,0.76904289,0.01,0.0,13454.0,17.375,-67.5,-420.00000000000006,0.0,0.125,0.49438471500000003,0.01,-0.0012207030000004337,1519.0,17.875,37.5,420.00000000000006,0.0,0.0,3.3203121600000003,0.01,0.0,999.0,15.5,-45.0,-420.00000000000006,0.0,0.25,1.650390456,0.01,0.004882811999999959,0.7300000190734863,-0.8899999856948853,168.97000122070312,0.03045654296875,0.006103515625,0.968994140625,36.95000076293945,0.0,-46.0,0.8103485107421875,2.294219970703125,Closing,0.0,0.0,0.0,0.0,0.0,0.0,0.0,0.0,
8.206263,0.0,0.0,-13689.0,11.5,37.5,420.0,0.0,0.25,0.760497969,0.01,0.0,13442.0,18.0,-67.5,-420.0,0.0,0.125,0.49316401200000004,0.01,-0.0012207030000004337,1519.0,18.875,37.5,420.0,0.0,0.0,3.3190914570000003,0.01,0.0,999.0,16.75,-45.0,-420.0,0.0,0.25,1.651611159,0.01,0.004882811999999959,0.7200000286102295,-0.8600000143051147,169.0,-0.00897216796875,0.02020263671875,1.05419921875,36.95000076293945,0.0,-5.0,0.8100128173828125,2.294219970703125,Closing,0.0,0.0,0.0,0.0,0.0,0.0,0.0,0.125,
8.235897000000001,0.0,0.0,-13689.0,12.125,45.0,420.0,0.0,0.25,0.771484296,0.01,0.0,13442.0,18.75,-82.5,-420.0,0.0,0.125,0.49316401200000004,0.01,0.0012207030000004337,1519.0,20.875,30.0,420.0,0.0,0.0,3.3117672390000004,0.01,0.0,999.0,17.5,-52.5,-420.0,0.0,0.25,1.650390456,0.01,0.004882811999999959,0.7200000286102295,-0.8600000143051147,169.00999450683594,-0.0306396484375,0.0224609375,1.0062255859375,36.95000076293945,0.0,17.0,0.8100128173828125,2.2942962646484375,Closing,0.0,0.0,0.0,0.0,0.0,0.0,0.0,0.125,
8.265829999999998,0.0,0.0,-13689.0,13.0,52.5,420.0,0.0,0.25,0.770263593,0.01,0.0,13442.0,18.5,-97.5,-420.0,0.0,0.125,0.49194330900000005,0.01,0.0,1519.0,21.625,30.0,420.0,0.0,0.0,3.3203121600000003,0.01,0.0,999.0,20.375,-52.5,-420.0,0.0,0.25,1.651611159,0.01,0.0,0.7400000095367432,-0.8700000047683716,169.02999877929688,-0.05126953125,0.00946044921875,1.0423583984375,36.95000076293945,0.0,34.0,0.810028076171875,2.2943267822265625,Closing,0.0,0.0,0.0,0.0,0.0,0.0,0.0,0.125,
8.294928,0.0,0.0,-13689.0,14.0,52.5,420.0,0.0,0.25,0.76904289,0.01,0.0,13442.0,16.875,-157.5,-420.0,0.0,0.125,0.49316401200000004,0.01,0.0,1519.0,21.875,30.0,420.0,0.0,0.0,3.3190914570000003,0.01,0.0,999.0,22.75,-52.5,-420.0,0.0,0.25,1.6552732680000002,0.01,0.0,0.7300000190734863,-0.8600000143051147,169.08999633789062,-0.0174560546875,-0.01715087890625,0.93927001953125,36.95000076293945,0.0,-2.0,0.810150146484375,2.294403076171875,Closing,0.0,0.0,0.0,0.0,0.0,0.0,0.0,0.125,
