Time,ClimberA1,ClimberA2,FRpos,FRCurrent,FRspeed,FRsetpoint,FRApos,FRACurrent,FREncpos,FREncSetpoint,FREncSpeed,FLpos,FLCurrent,FLspeed,FLsetpoint,FLApos,FLACurrent,FLEncpos,FLEncSetpoint,FLEncSpeed,BRpos,BRCurrent,BRspeed,BRsetpoint,BRApos,BRACurrent,BREncpos,BREncSetpoint,BREncSpeed,BLpos,BLCurrent,BLspeed,BLsetpoint,BLApos,BLACurrent,BLEncpos,BLEncSetpoint,BLEncSpeed,navx_Pitch,navx_Roll,navx_Yaw,navx_XAcc,navx_YAcc,navx_ZAcc,navx_Temp,navx_Bar,navx_Alt,navx_XDis,navx_YDis,GearPlacerState,ShootOutputV,ShootOutputCurrent,ShootEncPos,ShootEncVelocity,ShootSpeed,ShootSetpoint,CarouselSetpoint,CarouselCurrent,
0.1527280000000028,0.0,0.0,24794.0,0.0,0.0,0.0,0.0,1.5,1.491699066,0.01,0.0,-67073.0,0.0,30.0,-0.0,0.0,1.5,4.7680659180000005,0.01,0.0,54453.0,0.125,-7.5,0.0,0.0,1.5,4.4482417320000005,0.01,0.0,-82501.0,0.25,52.5,-0.0,0.0,1.75,0.704345631,0.01,0.0,0.5400000214576721,-0.10999999940395355,83.27999877929688,0.06201171875,0.04803466796875,1.0185546875,36.0,0.0,45.0,2.8646392822265625,-0.1150970458984375,Closing,0.0,0.0,0.0,0.0,0.0,0.0,0.0,0.0,
0.3222779999999911,0.0,0.0,24794.0,0.0,0.0,0.0,0.0,0.875,1.385497905,0.01,0.0,-67065.0,0.0,7.5,-0.0,0.0,1.0,4.832763177,0.01,0.0,54448.0,0.25,-22.5,0.0,0.0,1.25,4.178466369000001,0.01,0.0,-82491.0,0.125,7.5,-0.0,0.0,1.25,1.1328123840000002,0.01,0.0,0.5099999904632568,-0.41999998688697815,83.23999786376953,0.08197021484375,0.09466552734375,0.8843994140625,35.970001220703125,0.0,96.0,2.8661041259765625,-0.1186676025390625,Closing,0.0,0.0,0.0,0.0,0.0,0.0,0.0,0.0,
0.48741499999997906,0.0,0.0,24794.0,0.0,0.0,0.0,0.0,1.125,0.721435473,0.01,0.0,-67065.0,0.0,0.0,-0.0,0.0,1.0,0.729980394,0.01,0.0,54448.0,0.125,0.0,0.0,0.0,1.5,3.146972334,0.01,0.0,-82491.0,0.125,0.0,-0.0,0.0,1.25,1.835937312,0.01,0.0,0.46000000834465027,-0.23999999463558197,83.1500015258789,-0.0634765625,-0.007568359375,1.04595947265625,35.970001220703125,0.0,-22.0,2.867095947265625,-0.1264801025390625,Closing,0.0,0.0,0.0,0.0,0.0,0.0,0.0,0.0,
0.6538399999999674,0.0,0.0,24796.0,0.0,15.0,0.0,0.0,0.375,0.5175780720000001,0.01,0.0,-67065.0,0.0,0.0,-0.0,0.0,0.25,0.96435537,0.01,0.0,54449.0,0.125,7.5,0.0,0.0,0.125,2.8503415050000003,0.01,0.0,-82491.0,0.125,0.0,-0.0,0.0,0.5,1.926269334,0.01,0.0,0.49000000953674316,-0.38999998569488525,83.04000091552734,-0.006591796875,-0.00811767578125,1.06158447265625,35.970001220703125,0.0,-17.0,2.8677978515625,-0.129180908203125,Closing,0.0,0.0,0.0,0.0,0.0,0.0,0.0,0.0,
0.8171609999999637,0.0,0.0,24797.0,0.0,0.0,0.0,0.0,0.5,0.75683586,0.01,0.0,-67065.0,0.125,0.0,-0.0,0.0,0.5,0.6091307970000001,0.01,0.0,54449.0,0.125,0.0,0.0,0.0,0.625,3.341064111,0.01,0.0,-82491.0,0.125,0.0,-0.0,0.0,0.5,1.6577146740000002,0.01,0.0,0.49000000953674316,-0.3199999928474426,83.05000305175781,-0.0135498046875,0.00677490234375,1.03289794921875,35.939998626708984,0.0,-3.0,2.866790771484375,-0.1290130615234375,Closing,0.0,0.0,0.0,0.0,0.0,0.0,0.0,0.0,
0.9715590000000084,0.0,0.0,24797.0,0.0,0.0,0.0,0.0,0.25,0.860595615,0.01,0.0,-67065.0,0.0,0.0,-0.0,0.0,0.25,0.410156208,0.01,0.0,54449.0,0.125,0.0,0.0,0.0,0.0,3.5241695610000003,0.01,0.0,-82491.0,0.125,0.0,-0.0,0.0,0.25,1.564941246,0.01,0.0,0.46000000834465027,-0.36000001430511475,83.05000305175781,0.01171875,0.00897216796875,0.9537353515625,35.939998626708984,0.0,3.0,2.86773681640625,-0.12896728515625,Closing,0.0,0.0,0.0,0.0,0.0,0.0,0.0,0.0,
1.1283219999999856,0.0,0.0,24797.0,0.0,0.0,0.0,0.0,0.25,0.8410643670000001,0.01,0.0,-67065.0,0.0,0.0,-0.0,0.0,0.25,0.47851557600000005,0.01,0.0,54449.0,0.125,0.0,0.0,0.0,0.125,3.4179684000000004,0.01,0.0,-82491.0,0.125,0.0,-0.0,0.0,0.25,1.638183426,0.01,0.0,0.47999998927116394,-0.3700000047683716,83.05000305175781,0.00921630859375,0.00164794921875,1.0189208984375,35.939998626708984,0.0,-4.0,2.8663787841796875,-0.128387451171875,Closing,0.0,0.0,0.0,0.0,0.0,0.0,0.0,0.0,
1.2867859999999636,0.0,0.0,24797.0,0.0,0.0,0.0,0.0,0.125,0.836181555,0.01,0.0,-67065.0,0.0,0.0,-0.0,0.0,0.25,0.498046824,0.01,0.0,54449.0,0.125,0.0,0.0,0.0,0.125,3.359374656,0.01,0.0,-82491.0,0.125,0.0,-0.0,0.0,0.125,1.64794905,0.01,0.0,0.47999998927116394,-0.3700000047683716,83.04000091552734,-0.04168701171875,-0.01544189453125,1.01947021484375,35.939998626708984,0.0,-28.0,2.869049072265625,-0.12847900390625,Closing,0.0,0.0,0.0,0.0,0.0,0.0,0.0,0.0,
1.4515569999999716,0.0,0.0,24797.0,0.0,0.0,0.0,0.0,0.125,0.836181555,0.01,0.0,-67065.0,0.0,0.0,-0.0,0.0,0.125,0.498046824,0.01,0.0,54449.0,0.125,0.0,0.0,0.0,0.0,3.3605953590000004,0.01,0.0,-82491.0,0.125,0.0,-0.0,0.0,0.25,1.64794905,0.01,0.0,0.47999998927116394,-0.36000001430511475,83.04000091552734,0.00811767578125,0.047119140625,1.00482177734375,35.97999954223633,0.0,40.0,2.8706207275390625,-0.1280364990234375,Closing,0.0,0.0,0.0,0.0,0.0,0.0,0.0,0.0,
1.625375,0.0,0.0,24797.0,0.0,0.0,0.0,0.0,0.125,0.836181555,0.01,0.0,-67065.0,0.0,0.0,-0.0,0.0,0.125,0.498046824,0.01,0.0,54449.0,0.125,0.0,0.0,0.0,0.0,3.3605953590000004,0.01,0.0,-82491.0,0.125,0.0,-0.0,0.0,0.25,1.64794905,0.01,0.0,0.49000000953674316,-0.3499999940395355,83.04000091552734,-0.024169921875,-0.04193115234375,1.05389404296875,35.97999954223633,0.0,-52.0,2.870819091796875,-0.1279754638671875,Closing,0.0,0.0,0.0,0.0,0.0,0.0,0.0,0.0,
1.7832179999999935,0.0,0.0,24797.0,0.0,0.0,0.0,0.0,0.25,0.836181555,0.01,0.0,-67065.0,0.0,0.0,-0.0,0.0,0.125,0.49926752700000004,0.01,0.0,54449.0,0.125,0.0,0.0,0.0,0.0,3.3605953590000004,0.01,0.0,-82491.0,0.125,0.0,-0.0,0.0,0.25,1.64794905,0.01,0.0,0.49000000953674316,-0.36000001430511475,83.04000091552734,0.00238037109375,0.046142578125,1.02459716796875,35.97999954223633,0.0,38.0,2.871063232421875,-0.1279754638671875,Closing,0.0,0.0,0.0,0.0,0.0,0.0,0.0,0.0,
1.9310709999999962,0.0,0.0,24797.0,0.0,0.0,0.0,0.0,0.125,0.836181555,0.01,0.0,-67065.0,0.0,0.0,-0.0,0.0,0.125,0.49926752700000004,0.01,0.0,54449.0,0.125,0.0,0.0,0.0,0.0,3.359374656,0.01,0.0,-82491.0,0.125,0.0,-0.0,0.0,0.25,1.64794905,0.01,0.0,0.49000000953674316,-0.36000001430511475,83.04000091552734,-0.010498046875,-0.0040283203125,1.05230712890625,35.9900016784668,0.0,-13.0,2.870849609375,-0.1279144287109375,Closing,0.0,0.0,0.0,0.0,0.0,0.0,0.0,0.0,
2.0860449999999835,0.0,0.0,24797.0,0.0,0.0,0.0,0.0,0.25,0.836181555,0.01,0.0,-67065.0,0.0,0.0,-0.0,0.0,0.125,0.49926752700000004,0.01,0.0,54449.0,0.125,0.0,0.0,0.0,0.0,3.359374656,0.01,0.0,-82491.0,0.125,0.0,-0.0,0.0,0.25,1.652831862,0.01,0.0,0.47999998927116394,-0.36000001430511475,83.04000091552734,5.4931640625E-4,0.03082275390625,0.9896240234375,35.9900016784668,0.0,23.0,2.871612548828125,-0.1280517578125,Closing,0.0,0.0,0.0,0.0,0.0,0.0,0.0,0.0,
2.249021000000008,0.0,0.0,24794.0,0.125,-15.0,-181.889770925045,0.0,1.125,1.251220575,0.5498168668524864,0.0,-67065.0,0.25,0.0,-181.889770925045,0.0,0.875,0.09399413100000001,4.41043958977222,0.0,54449.0,0.375,0.0,-181.889770925045,0.0,0.75,2.835693069,4.389674732977291,0.0,-82499.0,0.375,-67.5,-181.889770925045,0.0,1.0,2.093505645,0.552687206278561,0.0,0.47999998927116394,-0.3799999952316284,83.01000213623047,0.01397705078125,0.04217529296875,0.976318359375,35.9900016784668,0.0,36.0,2.8705902099609375,-0.1282806396484375,Closing,0.0,0.0,0.0,0.0,0.0,0.0,0.0,0.0,
2.4092029999999793,0.0,0.0,24761.0,10.75,-240.0,-1471.6535925865173,0.0,0.375,1.4001463410000001,0.5498168668524864,0.0,-67089.0,16.625,-330.0,-1471.6535925865173,0.0,0.25,4.903563951000001,4.41043958977222,0.0,54443.0,14.875,-150.0,-1471.6535925865173,0.0,0.125,2.557372785,4.389674732977291,0.0,-82527.0,11.25,-322.5,-1471.6535925865173,0.0,0.375,2.463378654,0.552687206278561,0.0,0.4300000071525574,-0.4000000059604645,85.75,-0.110595703125,0.09765625,0.7994384765625,36.0,0.0,83.0,2.869781494140625,-0.128021240234375,Closing,0.0,0.0,0.0,0.0,0.0,0.0,0.0,0.125,
2.568809999999998,0.0,0.0,24664.0,12.5,-750.0,-1488.1890177726746,0.0,0.25,1.414794777,0.5498168668524864,0.0,-67177.0,19.625,-735.0,-1488.1890177726746,0.0,0.125,4.903563951000001,4.41043958977222,0.0,54374.0,16.0,-630.0,-1488.1890177726746,0.0,0.125,2.718505581,4.389674732977291,0.0,-82773.0,10.625,-892.5,-1488.1890177726746,0.0,0.5,2.333984136,0.552687206278561,0.0,0.5899999737739563,-0.6899999976158142,97.93000030517578,0.0150146484375,-0.0791015625,0.658203125,36.0,0.0,-88.0,2.8725433349609375,-0.12762451171875,Closing,0.0,0.0,0.0,0.0,0.0,0.0,0.0,0.0,
2.726377999999968,0.0,0.0,24300.0,9.25,-1305.0,-1488.1890177726746,0.0,0.25,1.414794777,0.5498168668524864,0.0,-67511.0,14.75,-1267.5,-1488.1890177726746,0.0,0.125,4.899901842,4.41043958977222,0.0,54053.0,12.5,-1290.0,-1488.1890177726746,0.0,0.0,2.874755565,4.389674732977291,0.0,-82972.0,8.375,-1297.5,-1488.1890177726746,0.0,0.5,2.1179197050000003,0.552687206278561,0.0,-0.14000000059604645,-0.8100000023841858,120.5999984741211,0.025390625,-0.0718994140625,0.76751708984375,36.0,0.0,-78.0,2.86785888671875,-0.1267547607421875,Closing,0.0,0.0,0.0,0.0,0.0,0.0,0.0,0.0,
2.889560999999987,0.0,0.0,24088.0,0.0,-1215.0,-257.95276433229446,0.0,0.75,0.9753416970000001,4.932250999999998,0.0,-67726.0,0.75,-1275.0,257.95276433229446,0.0,0.75,0.300292938,4.963769999999998,0.0,53820.0,0.125,-1177.5,-257.95276433229446,0.0,0.25,3.337402002,0.01,0.0,-83171.0,0.75,-1162.5,257.95276433229446,0.0,0.625,1.6296385050000002,0.01,0.0,-0.5,-0.6299999952316284,142.50999450683594,-0.114501953125,-0.235107421875,0.88018798828125,35.9900016784668,0.0,-55.0,2.85601806640625,-0.1262359619140625,Closing,0.0,0.0,0.0,0.0,0.0,0.0,0.0,0.0,
3.0509189999999946,0.0,0.0,23934.0,15.0,-540.0,-1508.031527996063,0.0,0.375,0.784912029,4.932250999999998,0.0,-67866.0,11.25,97.5,1508.031527996063,0.0,0.5,0.551757756,4.963769999999998,0.0,53585.0,18.375,-705.0,-1508.031527996063,0.0,0.0,3.496093392,0.01,0.0,-83252.0,7.75,225.0,1508.031527996063,0.0,0.125,1.336669785,0.01,0.0,0.4300000071525574,-2.509999990463257,146.8000030517578,-0.34124755859375,-0.2437744140625,1.198486328125,35.9900016784668,0.0,102.0,2.8684234619140625,-0.1297149658203125,Closing,0.0,0.0,0.0,0.0,0.0,0.0,0.0,0.0,
3.211289999999979,0.0,0.0,23712.0,20.75,-922.5,-1547.7165484428406,0.0,0.125,0.75683586,4.932250999999998,0.0,-67713.0,11.625,622.5,1547.7165484428406,0.0,0.25,0.5664061920000001,4.963769999999998,0.0,53497.0,31.25,-570.0,-1547.7165484428406,0.0,0.25,3.4765621440000003,0.01,0.0,-83162.0,10.25,630.0,1547.7165484428406,0.0,0.375,1.431884619,0.01,0.0,0.5600000023841858,-3.490000009536743,149.1999969482422,-0.29278564453125,-0.00341796875,0.99072265625,35.9900016784668,0.0,192.0,2.9071807861328125,-0.1209716796875,Closing,0.0,0.0,0.0,0.0,0.0,0.0,0.0,0.0,
3.371679999999993,0.0,0.0,23503.0,16.625,-1350.0,-1547.7165484428406,0.0,0.25,0.773925702,4.932250999999998,0.0,-67562.0,10.0,1132.5,1547.7165484428406,0.0,0.25,0.507812448,4.963769999999998,0.0,53342.0,29.375,-1117.5,-1547.7165484428406,0.0,0.25,3.447265272,0.01,0.0,-83019.0,9.375,1072.5,1547.7165484428406,0.0,0.375,1.667480298,0.01,0.0,0.4000000059604645,-4.619999885559082,151.63999938964844,-0.535888671875,-0.0430908203125,1.0013427734375,35.959999084472656,0.0,375.0,2.972564697265625,-0.10076904296875,Closing,0.0,0.0,0.0,0.0,0.0,0.0,0.0,0.0,
3.5303549999999815,0.0,0.0,23261.0,13.5,-1605.0,-1547.7165484428406,0.0,0.25,0.8032225740000001,4.932250999999998,0.0,-67342.0,4.625,1560.0,1547.7165484428406,0.0,0.0,0.483398388,4.963769999999998,0.0,53130.0,23.875,-1642.5,-1547.7165484428406,0.0,0.125,3.4228512120000003,0.01,0.0,-82557.0,5.125,1582.5,1547.7165484428406,0.0,0.25,1.700439279,0.01,0.0,0.46000000834465027,-5.21999979019165,151.60000610351562,-0.1048583984375,-0.01287841796875,0.70770263671875,35.959999084472656,0.0,26.0,3.0511016845703125,-0.069732666015625,Closing,0.0,0.0,0.0,0.0,0.0,0.0,0.0,0.0,
3.689418000000005,0.0,0.0,22731.0,0.375,-1650.0,-685.3572989126092,0.0,0.5,1.022949114,0.3029148674699224,0.0,-66835.0,0.0,1485.0,685.3572989126092,0.0,0.5,0.740966721,0.30485061115121204,0.0,52570.0,2.625,-1702.5,-685.3572989126092,0.0,0.125,3.603515256,0.30341533941569576,0.0,-82304.0,0.375,1522.5,685.3572989126092,0.0,0.375,1.878661917,0.3044962458147153,0.0,-0.28999999165534973,-4.559999942779541,150.9600067138672,-0.035888671875,-0.0654296875,1.02099609375,35.959999084472656,0.0,-68.0,3.1351776123046875,-0.0272369384765625,Closing,0.0,0.0,0.0,0.0,0.0,0.0,0.0,0.0,
3.849994000000006,0.0,0.0,22511.0,0.0,-1335.0,-589.9605352105755,0.0,0.5,1.4208982920000002,0.5791789967339367,0.0,-66619.0,0.0,1305.0,589.9605352105755,0.0,0.5,1.146240117,0.582880175525944,0.0,52324.0,0.375,-1440.0,-589.9605352105755,0.0,0.25,3.97949178,0.5801359086275902,0.0,-82080.0,0.25,1230.0,589.9605352105755,0.0,0.375,2.2265622720000002,0.5822026222523666,0.0,-1.9299999475479126,-2.25,152.1699981689453,0.23193359375,-0.11871337890625,1.02239990234375,35.959999084472656,0.0,-279.0,3.1678619384765625,0.021087646484375,Closing,0.0,0.0,0.0,0.0,0.0,0.0,0.0,0.125,
4.008897999999986,0.0,0.0,22310.0,0.125,-1102.5,-722.2786201143074,0.0,0.375,1.6845701400000002,0.7236063231635462,0.0,-66260.0,0.0,1057.5,722.2786201143074,0.0,0.25,1.302490101,0.7282304486794194,0.0,51950.0,0.625,-1132.5,-722.2786201143074,0.0,0.125,4.21142535,0.7248018559795889,0.0,-81743.0,0.375,960.0,722.2786201143074,0.0,0.25,2.493896229,0.727383936917416,0.0,-1.9500000476837158,-0.25,152.6199951171875,0.02545166015625,0.16259765625,1.1116943359375,35.81999969482422,0.0,65.0,3.14715576171875,0.05633544921875,Closing,0.0,0.0,0.0,0.0,0.0,0.0,0.0,0.125,
4.17510599999997,0.0,0.0,21998.0,0.375,-945.0,-969.0384721093485,0.0,0.375,1.517333829,0.5824227380362478,0.0,-66124.0,0.125,832.5,969.0384721093485,0.0,0.25,1.2927244770000001,0.5861446455953246,0.0,51803.0,3.5,-900.0,-969.0384721093485,0.0,0.25,4.053954663,0.5833850091964661,0.0,-81601.0,0.5,855.0,969.0384721093485,0.0,0.5,2.337646245,0.5854632976269287,0.0,-1.149999976158142,-0.029999999329447746,152.24000549316406,-0.16058349609375,0.08306884765625,1.036376953125,35.81999969482422,0.0,189.0,3.14105224609375,0.06658935546875,Closing,0.0,0.0,0.0,0.0,0.0,0.0,0.0,0.0,
4.333398999999976,0.0,0.0,21862.0,4.375,-840.0,-1272.7085537945968,0.0,0.375,1.2158201880000001,0.4242250451643907,0.0,-65993.0,0.875,832.5,1272.7085537945968,0.0,0.25,0.938720607,0.42693600800844234,0.0,51672.0,9.625,-840.0,-1272.7085537945968,0.0,0.25,3.749999616,0.4249259441845429,0.0,-81471.0,2.0,802.5,1272.7085537945968,0.0,0.5,1.978759563,0.4264397278088745,0.0,-0.23000000417232513,-1.100000023841858,153.17999267578125,-0.267578125,0.0718994140625,0.8837890625,35.81999969482422,0.0,257.0,3.1638946533203125,0.0578155517578125,Closing,0.0,0.0,0.0,0.0,0.0,0.0,0.0,0.0,
4.488755999999994,0.0,0.0,21720.0,7.875,-967.5,-1412.168548969652,0.0,0.375,1.052245986,0.27001305626898114,0.0,-65846.0,2.375,1027.5,1412.168548969652,0.0,0.25,0.706787037,0.27173854459480684,0.0,51531.0,14.75,-907.5,-1412.168548969652,0.0,0.25,3.609618771,0.27045916827656874,0.0,-81178.0,3.75,982.5,1412.168548969652,0.0,0.25,1.822509579,0.2714226694832863,0.0,0.3199999928474426,-1.7599999904632568,153.6699981689453,-0.2261962890625,0.05572509765625,1.15277099609375,35.77000045776367,0.0,192.0,3.1949615478515625,0.047027587890625,Closing,0.0,0.0,0.0,0.0,0.0,0.0,0.0,0.0,
4.645801999999967,0.0,0.0,21354.0,7.5,-1192.5,-1424.3833206879708,0.0,0.125,1.022949114,0.2560297563897192,0.0,-65498.0,3.125,1140.0,1424.3833206879708,0.0,0.25,0.667724541,0.25766588599700146,0.0,51181.0,13.75,-1207.5,-1424.3833206879708,0.0,0.0,3.592528929,0.2564527653738159,0.0,-81001.0,4.625,1117.5,1424.3833206879708,0.0,0.25,1.7639158350000002,0.2573663692663305,0.0,0.6000000238418579,-2.450000047683716,154.3000030517578,-0.1707763671875,-0.01873779296875,1.05322265625,35.77000045776367,0.0,100.0,3.2760162353515625,0.027587890625,Closing,0.0,0.0,0.0,0.0,0.0,0.0,0.0,0.0,
4.8111649999999795,0.0,0.0,21134.0,5.625,-1387.5,-1424.3833206879708,0.0,0.25,1.027831926,0.2560297563897192,0.0,-65297.0,2.625,1290.0,1424.3833206879708,0.0,0.25,0.6726073530000001,0.25766588599700146,0.0,50958.0,10.5,-1440.0,-1424.3833206879708,0.0,0.0,3.592528929,0.2564527653738159,0.0,-80806.0,4.125,1290.0,1424.3833206879708,0.0,0.25,1.8725584020000001,0.2573663692663305,0.0,0.3400000035762787,-2.7200000286102295,154.91000366210938,0.02606201171875,0.08349609375,0.805908203125,35.77000045776367,0.0,-24.0,3.350189208984375,0.019317626953125,Closing,0.0,0.0,0.0,0.0,0.0,0.0,0.0,0.0,
4.972967999999994,0.0,0.0,20907.0,4.625,-1470.0,-1424.3833206879708,0.0,0.25,1.043701065,0.2560297563897192,0.0,-64848.0,1.5,1432.5,1424.3833206879708,0.0,0.25,0.760497969,0.25766588599700146,0.0,50478.0,8.625,-1522.5,-1424.3833206879708,0.0,0.0,3.5839840080000003,0.2564527653738159,0.0,-80357.0,3.125,1440.0,1424.3833206879708,0.0,0.125,1.9177244130000002,0.2573663692663305,0.0,-0.03999999910593033,-2.7799999713897705,154.8300018310547,-0.0206298828125,-0.04364013671875,1.0772705078125,35.779998779296875,0.0,-46.0,3.4257049560546875,0.0146026611328125,Closing,0.0,0.0,0.0,0.0,0.0,0.0,0.0,0.0,
5.131065000000002,0.0,0.0,20405.0,3.125,-1605.0,-1482.8881615773162,0.0,0.25,1.0986327,0.3357685515278499,0.0,-64611.0,1.5,1477.5,1482.8881615773162,0.0,0.25,0.838622961,0.3379142430134629,0.0,50220.0,7.125,-1605.0,-1482.8881615773162,0.0,0.125,3.654784782,0.3363233038967785,0.0,-80123.0,3.375,1470.0,1482.8881615773162,0.0,0.25,1.9177244130000002,0.33752144375358833,0.0,-0.3400000035762787,-2.809999942779541,155.52999877929688,-0.09698486328125,-0.0157470703125,1.424560546875,35.779998779296875,0.0,21.0,3.494903564453125,0.011932373046875,Closing,0.0,0.0,0.0,0.0,0.0,0.0,0.0,0.0,
5.2914039999999805,0.0,0.0,20179.0,0.0,-1327.5,0.0,0.0,0.25,1.1340330870000002,0.3357685515278499,0.0,-64395.0,0.125,1297.5,0.0,0.0,0.0,0.863037021,0.3379142430134629,0.0,49984.0,0.0,-1305.0,0.0,0.0,0.0,3.64990197,0.3363233038967785,0.0,-79914.0,0.125,1230.0,0.0,0.0,0.25,1.9165037100000002,0.33752144375358833,0.0,-0.10000000149011612,-1.9299999475479126,156.6300048828125,0.09814453125,0.010009765625,0.93359375,35.779998779296875,0.0,-114.0,3.5483856201171875,0.00592041015625,Closing,0.0,0.0,0.0,0.0,0.0,0.0,0.0,0.0,
5.450105999999971,0.0,0.0,19956.0,0.0,-1327.5,0.0,0.0,0.125,1.1340330870000002,0.3357685515278499,0.0,-64184.0,0.0,1192.5,0.0,0.0,0.125,0.863037021,0.3379142430134629,0.0,49779.0,0.0,-1207.5,0.0,0.0,0.0,3.654784782,0.3363233038967785,0.0,-79539.0,0.125,1102.5,0.0,0.0,0.25,1.926269334,0.33752144375358833,0.0,0.2199999988079071,-1.2000000476837158,158.00999450683594,0.163818359375,0.03179931640625,0.8912353515625,35.72999954223633,0.0,-158.0,3.567596435546875,-0.018096923828125,Closing,0.0,0.0,0.0,0.0,0.0,0.0,0.0,0.0,
5.608098999999988,0.0,0.0,19604.0,0.0,-1035.0,0.0,0.0,0.25,1.14746082,0.3357685515278499,0.0,-63845.0,0.0,975.0,0.0,0.0,0.125,0.861816318,0.3379142430134629,0.0,49429.0,0.125,-1005.0,0.0,0.0,0.0,3.654784782,0.3363233038967785,0.0,-79385.0,0.125,952.5,0.0,0.0,0.25,1.926269334,0.33752144375358833,0.0,0.9700000286102295,0.2800000011920929,158.27000427246094,0.73968505859375,0.43145751953125,0.983642578125,35.72999954223633,0.0,-529.0,3.5519561767578125,-0.052490234375,Closing,0.0,0.0,0.0,0.0,0.0,0.0,0.0,0.0,
5.765803000000014,0.0,0.0,19611.0,0.0,135.0,0.0,0.0,0.125,1.148681523,0.3357685515278499,0.0,-63805.0,0.0,-120.0,0.0,0.0,0.125,0.8947752990000001,0.3379142430134629,0.0,49396.0,0.125,15.0,0.0,0.0,0.0,3.654784782,0.3363233038967785,0.0,-79322.0,0.125,-45.0,0.0,0.0,0.25,1.960449018,0.33752144375358833,0.0,1.909999966621399,3.490000009536743,157.0,-0.143798828125,0.11871337890625,0.97607421875,35.72999954223633,0.0,220.0,3.471343994140625,-0.150726318359375,Closing,0.0,0.0,0.0,0.0,0.0,0.0,0.0,0.125,
5.926687999999966,0.0,0.0,19667.0,0.0,345.0,0.0,0.0,0.125,1.148681523,0.3357685515278499,0.0,-63863.0,0.0,-307.5,0.0,0.0,0.25,0.8959960020000001,0.3379142430134629,0.0,49416.0,0.0,225.0,0.0,0.0,0.0,3.659667594,0.3363233038967785,0.0,-79426.0,0.125,-277.5,0.0,0.0,0.125,1.9689939390000002,0.33752144375358833,0.0,1.690000057220459,2.5799999237060547,156.6999969482422,-0.1094970703125,-0.056396484375,1.10919189453125,35.75,0.0,111.0,3.3852386474609375,-0.2479248046875,Closing,0.0,0.0,0.0,0.0,0.0,0.0,0.0,0.0,
6.085594999999972,0.0,0.0,19739.0,0.0,157.5,0.0,0.0,0.25,1.148681523,0.3357685515278499,0.0,-63933.0,0.0,-157.5,0.0,0.0,0.25,0.8959960020000001,0.3379142430134629,0.0,49487.0,0.125,165.0,0.0,0.0,0.0,3.659667594,0.3363233038967785,0.0,-79453.0,0.125,-157.5,0.0,0.0,0.125,1.9738767510000002,0.33752144375358833,0.0,1.2599999904632568,1.6299999952316284,156.5800018310547,-0.08721923828125,-0.06414794921875,1.07452392578125,35.75,0.0,73.0,3.3153076171875,-0.3264007568359375,Closing,0.0,0.0,0.0,0.0,0.0,0.0,0.0,0.0,
6.246929999999993,0.0,0.0,19744.0,0.0,22.5,0.0,0.0,0.25,1.14746082,0.3357685515278499,0.0,-63939.0,0.0,-7.5,0.0,0.0,0.25,0.872802645,0.3379142430134629,0.0,49495.0,0.125,7.5,0.0,0.0,0.0,3.660888297,0.3363233038967785,0.0,-79459.0,0.125,-7.5,0.0,0.0,0.25,1.978759563,0.33752144375358833,0.0,0.9700000286102295,1.0099999904632568,156.5500030517578,-0.01165771484375,-0.00958251953125,1.00262451171875,35.75,0.0,16.0,3.2589569091796875,-0.3896942138671875,Closing,0.0,0.0,0.0,0.0,0.0,0.0,0.0,0.0,
6.403823999999964,0.0,0.0,19744.0,0.0,0.0,0.0,0.0,0.25,1.14746082,0.3357685515278499,0.0,-63939.0,0.125,0.0,0.0,0.0,0.25,0.8679198330000001,0.3379142430134629,0.0,49495.0,0.125,0.0,0.0,0.0,0.0,3.660888297,0.3363233038967785,0.0,-79459.0,0.125,0.0,0.0,0.0,0.25,1.978759563,0.33752144375358833,0.0,0.9300000071525574,0.8799999952316284,156.57000732421875,0.0111083984375,0.00372314453125,1.00909423828125,35.75,0.0,-1.0,3.230865478515625,-0.3948822021484375,Closing,0.0,0.0,0.0,0.0,0.0,0.0,0.0,0.0,
6.568261999999988,0.0,0.0,19744.0,0.0,0.0,0.0,0.0,0.125,1.14746082,0.3357685515278499,0.0,-63939.0,0.0,0.0,0.0,0.0,0.125,0.8679198330000001,0.3379142430134629,0.0,49495.0,0.125,0.0,0.0,0.0,0.0,3.659667594,0.3363233038967785,0.0,-79459.0,0.125,0.0,0.0,0.0,0.25,1.978759563,0.33752144375358833,0.0,0.8700000047683716,0.7200000286102295,156.57000732421875,-0.0184326171875,0.005859375,1.01824951171875,35.709999084472656,0.0,24.0,3.2309417724609375,-0.3943939208984375,Closing,0.0,0.0,0.0,0.0,0.0,0.0,0.0,0.0,
6.739782999999996,0.0,0.0,19744.0,0.0,0.0,0.0,0.0,0.25,1.14746082,0.3357685515278499,0.0,-63939.0,0.0,0.0,0.0,0.0,0.125,0.8679198330000001,0.3379142430134629,0.0,49495.0,0.0,0.0,0.0,0.0,0.0,3.659667594,0.3363233038967785,0.0,-79459.0,0.125,0.0,0.0,0.0,0.25,1.978759563,0.33752144375358833,0.0,0.7900000214576721,0.5099999904632568,156.57000732421875,-0.0125732421875,0.014404296875,1.01507568359375,35.709999084472656,0.0,20.0,3.232330322265625,-0.39068603515625,Closing,0.0,0.0,0.0,0.0,0.0,0.0,0.0,0.0,
6.9127760000000125,0.0,0.0,19744.0,0.0,0.0,0.0,0.0,0.25,1.14746082,0.3357685515278499,0.0,-63939.0,0.0,0.0,0.0,0.0,0.125,0.8679198330000001,0.3379142430134629,0.0,49495.0,0.125,0.0,0.0,0.0,0.0,3.660888297,0.3363233038967785,0.0,-79459.0,0.125,0.0,0.0,0.0,0.25,1.978759563,0.33752144375358833,0.0,0.7400000095367432,0.3799999952316284,156.55999755859375,-0.01678466796875,0.00555419921875,1.013916015625,35.709999084472656,0.0,18.0,3.232452392578125,-0.39068603515625,Closing,0.0,0.0,0.0,0.0,0.0,0.0,0.0,0.0,
7.086978999999992,0.0,0.0,19744.0,0.0,0.0,0.0,0.0,0.125,1.14746082,0.3357685515278499,0.0,-63939.0,0.0,0.0,0.0,0.0,0.125,0.8679198330000001,0.3379142430134629,0.0,49495.0,0.125,0.0,0.0,0.0,0.0,3.659667594,0.3363233038967785,0.0,-79459.0,0.125,0.0,0.0,0.0,0.25,1.978759563,0.33752144375358833,0.0,0.6800000071525574,0.23999999463558197,156.57000732421875,-0.01226806640625,0.00543212890625,1.01617431640625,35.75,0.0,12.0,3.232452392578125,-0.390533447265625,Closing,0.0,0.0,0.0,0.0,0.0,0.0,0.0,0.0,
7.258336000000011,0.0,0.0,19744.0,0.0,0.0,0.0,0.0,0.125,1.14746082,0.3357685515278499,0.0,-63939.0,0.0,0.0,0.0,0.0,0.125,0.8679198330000001,0.3379142430134629,0.0,49495.0,0.125,0.0,0.0,0.0,0.0,3.659667594,0.3363233038967785,0.0,-79459.0,0.125,0.0,0.0,0.0,0.25,1.978759563,0.33752144375358833,0.0,0.6299999952316284,0.12999999523162842,156.55999755859375,-0.01202392578125,0.00567626953125,1.0166015625,35.75,0.0,11.0,3.232452392578125,-0.390533447265625,Closing,0.0,0.0,0.0,0.0,0.0,0.0,0.0,0.0,
7.400571999999985,0.0,0.0,19744.0,0.0,0.0,0.0,0.0,0.125,1.14746082,0.3357685515278499,0.0,-63939.0,0.0,0.0,0.0,0.0,0.125,0.8679198330000001,0.3379142430134629,0.0,49495.0,0.125,0.0,0.0,0.0,0.0,3.660888297,0.3363233038967785,0.0,-79459.0,0.125,0.0,0.0,0.0,0.25,1.978759563,0.33752144375358833,0.0,0.5899999737739563,0.03999999910593033,156.55999755859375,-0.01422119140625,0.00445556640625,1.01715087890625,35.75,0.0,11.0,3.232452392578125,-0.390533447265625,Closing,0.0,0.0,0.0,0.0,0.0,0.0,0.0,0.125,
7.557304000000004,0.0,0.0,19744.0,0.0,0.0,0.0,0.0,0.25,1.148681523,0.3357685515278499,0.0,-63939.0,0.0,0.0,0.0,0.0,0.125,0.8679198330000001,0.3379142430134629,0.0,49495.0,0.125,0.0,0.0,0.0,0.0,3.659667594,0.3363233038967785,0.0,-79459.0,0.125,0.0,0.0,0.0,0.25,1.978759563,0.33752144375358833,0.0,0.5600000023841858,-0.029999999329447746,156.5500030517578,-0.0130615234375,0.0052490234375,1.0218505859375,35.790000915527344,0.0,9.0,3.232452392578125,-0.390533447265625,Closing,0.0,0.0,0.0,0.0,0.0,0.0,0.0,0.0,
7.706191999999981,0.0,0.0,19757.0,0.875,105.0,492.1875,0.0,1.875,1.805419737,1.2330627500000013,0.0,-63943.0,0.75,-112.5,-492.1875,0.0,1.25,1.456298679,1.2409425000000012,0.0,49502.0,1.25,112.5,492.1875,0.0,2.0,4.379882364,1.2351000000000012,0.0,-79466.0,1.0,-135.0,-492.1875,0.0,1.5,2.712402066,1.2395000000000012,0.0,0.6000000238418579,0.09000000357627869,156.5500030517578,0.1199951171875,0.07464599609375,1.07623291015625,35.790000915527344,0.0,-83.0,3.233184814453125,-0.390106201171875,Closing,0.0,0.0,0.0,0.0,0.0,0.0,0.0,0.0,
7.850142999999981,0.0,0.0,19764.0,2.625,67.5,511.875,0.0,0.5,2.2229001630000003,1.2330627500000013,0.0,-63998.0,2.625,-127.5,-511.875,0.0,0.5,2.027587683,1.2409425000000012,0.0,49529.0,3.875,75.0,511.875,0.0,0.25,4.827880365,1.2351000000000012,0.0,-79511.0,2.875,-127.5,-511.875,0.0,0.375,3.1018063230000004,1.2395000000000012,0.0,1.0199999809265137,-0.3400000035762787,156.52999877929688,-0.007568359375,0.0782470703125,1.0072021484375,35.790000915527344,0.0,25.0,3.2402496337890625,-0.3941802978515625,Closing,0.0,0.0,0.0,0.0,0.0,0.0,0.0,0.0,
8.028391999999993,0.0,0.0,19823.0,3.125,270.0,531.5625,0.0,0.375,2.200927509,1.2330627500000013,0.0,-64037.0,3.875,-270.0,-531.5625,0.0,0.25,1.877441214,1.2409425000000012,0.0,49561.0,4.5,240.0,531.5625,0.0,0.25,4.732665531,1.2351000000000012,0.0,-79544.0,4.25,-232.5,-531.5625,0.0,0.5,3.038329767,1.2395000000000012,0.0,1.4700000286102295,-0.6100000143051147,156.27999877929688,0.027587890625,0.04345703125,0.9371337890625,35.86000061035156,0.0,-26.0,3.258392333984375,-0.3980712890625,Closing,0.0,0.0,0.0,0.0,0.0,0.0,0.0,0.0,
8.202956000000006,0.0,0.0,19862.0,0.0,150.0,0.0,0.0,0.375,2.0141599500000003,1.2330627500000013,0.0,-64082.0,0.0,-150.0,0.0,0.0,0.25,1.669921704,1.2409425000000012,0.0,49612.0,0.125,97.5,0.0,0.0,0.125,4.525146021,1.2351000000000012,0.0,-79613.0,0.125,-165.0,0.0,0.0,0.5,2.8027340880000002,1.2395000000000012,0.0,1.0299999713897705,-0.3100000023841858,156.1199951171875,-0.002685546875,-0.0582275390625,1.10797119140625,35.86000061035156,0.0,-34.0,3.27301025390625,-0.399444580078125,Closing,0.0,0.0,0.0,0.0,0.0,0.0,0.0,0.0,
8.361926999999968,0.0,0.0,19920.0,0.0,165.0,0.0,0.0,0.25,1.9775388600000001,1.2330627500000013,0.0,-64133.0,0.0,-157.5,0.0,0.0,0.25,1.6638181890000001,1.2409425000000012,0.0,49618.0,0.125,0.0,0.0,0.0,0.0,4.5007319610000005,1.2351000000000012,0.0,-79638.0,0.125,-135.0,0.0,0.0,0.25,2.7929684640000003,1.2395000000000012,0.0,0.38999998569488525,-0.25999999046325684,156.0500030517578,-0.043701171875,-0.11761474609375,0.95977783203125,35.86000061035156,0.0,-14.0,3.2772216796875,-0.387451171875,Closing,0.0,0.0,0.0,0.0,0.0,0.0,0.0,0.0,
8.524053000000015,0.0,0.0,19922.0,0.0,0.0,0.0,0.0,0.25,1.990966593,1.2330627500000013,0.0,-64139.0,0.0,0.0,0.0,0.0,0.25,1.678466625,1.2409425000000012,0.0,49618.0,0.0,0.0,0.0,0.0,0.125,4.552001487,1.2351000000000012,0.0,-79645.0,0.125,-15.0,0.0,0.0,0.25,2.811279009,1.2395000000000012,0.0,0.0,-0.3799999952316284,156.07000732421875,-0.02783203125,-0.002685546875,1.0712890625,35.849998474121094,0.0,17.0,3.2768402099609375,-0.3609771728515625,Closing,0.0,0.0,0.0,0.0,0.0,0.0,0.0,0.0,
8.683133999999962,0.0,0.0,19922.0,0.0,0.0,0.0,0.0,0.25,2.0153806530000002,1.2330627500000013,0.0,-64139.0,0.125,0.0,0.0,0.0,0.25,1.722411933,1.2409425000000012,0.0,49618.0,0.125,0.0,0.0,0.0,0.0,4.56542922,1.2351000000000012,0.0,-79645.0,0.125,-7.5,0.0,0.0,0.25,2.835693069,1.2395000000000012,0.0,0.09000000357627869,-0.41999998688697815,156.08999633789062,-0.0216064453125,0.0208740234375,1.00787353515625,35.849998474121094,0.0,20.0,3.27685546875,-0.3611297607421875,Closing,0.0,0.0,0.0,0.0,0.0,0.0,0.0,0.0,
8.832360999999976,0.0,0.0,19922.0,0.0,0.0,0.0,0.0,0.125,2.023925574,1.2330627500000013,0.0,-64139.0,0.0,0.0,0.0,0.0,0.125,1.7370603690000002,1.2409425000000012,0.0,49618.0,0.0,0.0,0.0,0.0,0.0,4.564208517,1.2351000000000012,0.0,-79646.0,0.125,0.0,0.0,0.0,0.25,2.835693069,1.2395000000000012,0.0,0.18000000715255737,-0.46000000834465027,156.08999633789062,-0.01385498046875,0.0068359375,1.01318359375,35.849998474121094,0.0,6.0,3.2769927978515625,-0.3611297607421875,Closing,0.0,0.0,0.0,0.0,0.0,0.0,0.0,0.0,
8.989853999999992,0.0,0.0,19922.0,0.0,0.0,0.0,0.0,0.125,2.020263465,1.2330627500000013,0.0,-64139.0,0.0,0.0,0.0,0.0,0.125,1.7358396660000002,1.2409425000000012,0.0,49618.0,0.0,0.0,0.0,0.0,0.0,4.564208517,1.2351000000000012,0.0,-79646.0,0.125,0.0,0.0,0.0,0.25,2.835693069,1.2395000000000012,0.0,0.1599999964237213,-0.5,156.08999633789062,-0.015380859375,0.0018310546875,1.01568603515625,35.849998474121094,0.0,5.0,3.2769927978515625,-0.3611297607421875,Closing,0.0,0.0,0.0,0.0,0.0,0.0,0.0,0.125,
9.148093999999983,0.0,0.0,19913.0,1.0,-67.5,-436.53545022010803,0.0,1.625,1.351318221,4.932250999999998,0.0,-64136.0,1.25,82.5,436.53545022010803,0.0,1.5,1.1071776210000002,4.963769999999998,0.0,49618.0,1.625,-7.5,-436.53545022010803,0.0,1.75,3.8513179650000002,0.01,0.0,-79645.0,1.125,82.5,436.53545022010803,0.0,1.5,2.055663852,0.01,0.0,-0.07000000029802322,-0.6700000166893005,156.00999450683594,-0.03253173828125,-0.04638671875,1.09576416015625,35.849998474121094,0.0,0.0,3.2776031494140625,-0.358673095703125,Closing,0.0,0.0,0.0,0.0,0.0,0.0,0.0,0.125,
9.306893999999971,0.0,0.0,19899.0,22.375,-352.5,-1944.5669031143188,0.0,0.625,0.6982421160000001,4.932250999999998,0.0,-64033.0,27.75,412.5,1944.5669031143188,0.0,0.5,0.377197227,4.963769999999998,0.0,49532.0,22.625,-427.5,-1944.5669031143188,0.0,0.5,3.2202145140000002,0.01,0.0,-79543.0,20.5,465.0,1944.5669031143188,0.0,0.5,1.3732908750000001,0.01,0.0,0.2800000011920929,-2.9000000953674316,156.3800048828125,-0.43609619140625,0.247802734375,0.832763671875,35.849998474121094,0.0,457.0,3.2962646484375,-0.3420867919921875,Closing,0.0,0.0,0.0,0.0,0.0,0.0,0.0,0.0,
9.468097999999998,0.0,0.0,19631.0,20.125,-1155.0,-1984.2519235610962,0.0,0.25,0.690917898,4.932250999999998,0.0,-63864.0,29.5,1147.5,1984.2519235610962,0.0,0.25,0.28076169,4.963769999999998,0.0,49400.0,25.625,-997.5,-1984.2519235610962,0.0,0.0,3.239745762,0.01,0.0,-79380.0,21.25,1102.5,1984.2519235610962,0.0,0.375,1.258544793,0.01,0.0,1.1399999856948853,-4.369999885559082,157.58999633789062,1.6290283203125,-0.332763671875,1.37872314453125,35.86000061035156,0.0,-1735.0,3.3677215576171875,-0.329803466796875,Closing,0.0,0.0,0.0,0.0,0.0,0.0,0.0,0.0,
9.630343999999983,0.0,0.0,19420.0,0.0,-1140.0,0.0,0.0,0.25,0.812988198,4.932250999999998,0.0,-63657.0,0.0,1087.5,0.0,0.0,0.25,0.5041503390000001,4.963769999999998,0.0,49180.0,0.125,-120.0,0.0,0.0,0.0,3.38134731,0.01,0.0,-79274.0,0.125,-577.5,0.0,0.0,0.375,1.645507644,0.01,0.0,-0.4099999964237213,-0.1599999964237213,157.00999450683594,-0.15911865234375,0.5386962890625,1.99993896484375,35.86000061035156,0.0,357.0,3.3409881591796875,-0.34539794921875,Closing,0.0,0.0,0.0,0.0,0.0,0.0,0.0,0.0,
9.786015000000013,0.0,0.0,19476.0,0.0,585.0,0.0,0.0,0.125,0.852050694,4.932250999999998,0.0,-63684.0,0.0,-570.0,0.0,0.0,0.125,0.6726073530000001,4.963769999999998,0.0,49305.0,0.0,382.5,0.0,0.0,0.125,3.4252926180000003,0.01,0.0,-79480.0,0.125,-615.0,0.0,0.0,0.25,1.990966593,0.01,0.0,0.0,-0.5699999928474426,156.72000122070312,-0.4111328125,0.1427001953125,0.97503662109375,35.86000061035156,0.0,425.0,3.308380126953125,-0.360015869140625,Closing,0.0,0.0,0.0,0.0,0.0,0.0,0.0,0.0,
9.931752999999969,0.0,0.0,19606.0,0.0,292.5,0.0,0.0,0.25,0.852050694,4.932250999999998,0.0,-63820.0,0.0,-390.0,0.0,0.0,0.25,0.662841729,4.963769999999998,0.0,49370.0,0.125,390.0,0.0,0.0,0.125,3.397216449,0.01,0.0,-79547.0,0.125,-345.0,0.0,0.0,0.5,1.7907713010000001,0.01,0.0,-0.1599999964237213,-1.059999942779541,156.74000549316406,-0.158447265625,-0.08380126953125,0.72991943359375,35.86000061035156,0.0,100.0,3.28582763671875,-0.37200927734375,Closing,0.0,0.0,0.0,0.0,0.0,0.0,0.0,0.0,
10.088966000000015,0.0,0.0,19640.0,0.0,172.5,0.0,0.0,0.25,0.850829991,4.932250999999998,0.0,-63853.0,0.0,-157.5,0.0,0.0,0.25,0.5175780720000001,4.963769999999998,0.0,49405.0,0.125,150.0,0.0,0.0,0.125,3.3776852010000002,0.01,0.0,-79578.0,0.125,-135.0,0.0,0.0,0.5,1.544189295,0.01,0.0,-0.25,-1.6100000143051147,156.69000244140625,-0.10174560546875,0.01397705078125,0.987548828125,35.7599983215332,0.0,75.0,3.277557373046875,-0.3710174560546875,Closing,0.0,0.0,0.0,0.0,0.0,0.0,0.0,0.0,
10.246224999999976,0.0,0.0,19651.0,0.0,15.0,0.0,0.0,0.25,0.850829991,4.932250999999998,0.0,-63865.0,0.0,-22.5,0.0,0.0,0.0,0.458984328,4.963769999999998,0.0,49419.0,0.125,15.0,0.0,0.0,0.125,3.382568013,0.01,0.0,-79593.0,0.125,-30.0,0.0,0.0,0.25,1.5588377310000001,0.01,0.0,-0.20000000298023224,-1.8600000143051147,156.7100067138672,-0.00579833984375,0.0091552734375,0.98309326171875,35.7599983215332,0.0,-19.0,3.2765350341796875,-0.3675384521484375,Closing,0.0,0.0,0.0,0.0,0.0,0.0,0.0,0.0,
10.405619999999995,0.0,0.0,19651.0,0.0,0.0,0.0,0.0,0.25,0.850829991,4.932250999999998,0.0,-63866.0,0.0,0.0,0.0,0.0,0.25,0.468749952,4.963769999999998,0.0,49420.0,0.125,0.0,0.0,0.0,0.125,3.383788716,0.01,0.0,-79593.0,0.125,0.0,0.0,0.0,0.25,1.597900227,0.01,0.0,-0.15000000596046448,-1.659999966621399,156.72000122070312,0.00103759765625,4.2724609375E-4,1.0001220703125,35.7599983215332,0.0,-26.0,3.2745819091796875,-0.3685760498046875,Closing,0.0,0.0,0.0,0.0,0.0,0.0,0.0,0.0,
10.565728999999992,0.0,0.0,19651.0,0.0,0.0,0.0,0.0,0.25,0.850829991,4.932250999999998,0.0,-63866.0,0.0,0.0,0.0,0.0,0.25,0.47363276400000004,4.963769999999998,0.0,49420.0,0.125,0.0,0.0,0.0,0.125,3.383788716,0.01,0.0,-79593.0,0.125,0.0,0.0,0.0,0.25,1.6027830390000002,0.01,0.0,-0.10000000149011612,-1.600000023841858,156.7100067138672,-0.01611328125,0.00311279296875,1.0054931640625,35.75,0.0,-9.0,3.2741851806640625,-0.3686981201171875,Closing,0.0,0.0,0.0,0.0,0.0,0.0,0.0,0.0,
10.725842000000004,0.0,0.0,19651.0,0.0,0.0,0.0,0.0,0.25,0.852050694,4.932250999999998,0.0,-63866.0,0.0,0.0,0.0,0.0,0.25,0.47363276400000004,4.963769999999998,0.0,49420.0,0.125,0.0,0.0,0.0,0.125,3.382568013,0.01,0.0,-79593.0,0.125,0.0,0.0,0.0,0.25,1.6015623360000002,0.01,0.0,-0.05999999865889549,-1.5,156.6999969482422,-0.0147705078125,-0.00421142578125,1.01910400390625,35.75,0.0,-12.0,3.274017333984375,-0.3686981201171875,Closing,0.0,0.0,0.0,0.0,0.0,0.0,0.0,0.125,
10.883883999999961,0.0,0.0,19651.0,0.0,0.0,0.0,0.0,0.25,0.850829991,4.932250999999998,0.0,-63866.0,0.0,0.0,0.0,0.0,0.25,0.47851557600000005,4.963769999999998,0.0,49420.0,0.0,0.0,0.0,0.0,0.125,3.382568013,0.01,0.0,-79593.0,0.125,0.0,0.0,0.0,0.25,1.6027830390000002,0.01,0.0,-0.019999999552965164,-1.399999976158142,156.69000244140625,-0.01751708984375,0.00823974609375,1.0166015625,35.75,0.0,-3.0,3.274017333984375,-0.3686981201171875,Closing,0.0,0.0,0.0,0.0,0.0,0.0,0.0,0.0,
11.042720999999961,0.0,0.0,19651.0,0.0,0.0,0.0,0.0,0.25,0.850829991,4.932250999999998,0.0,-63866.0,0.0,0.0,0.0,0.0,0.25,0.47973627900000004,4.963769999999998,0.0,49420.0,0.0,0.0,0.0,0.0,0.125,3.383788716,0.01,0.0,-79593.0,0.125,0.0,0.0,0.0,0.25,1.6027830390000002,0.01,0.0,0.0,-1.3300000429153442,156.69000244140625,-0.0111083984375,0.001708984375,1.01812744140625,35.81999969482422,0.0,-10.0,3.274017333984375,-0.3686981201171875,Closing,0.0,0.0,0.0,0.0,0.0,0.0,0.0,0.0,
11.195910999999963,0.0,0.0,19651.0,0.0,0.0,0.0,0.0,0.25,0.850829991,4.932250999999998,0.0,-63866.0,0.0,0.0,0.0,0.0,0.25,0.47851557600000005,4.963769999999998,0.0,49420.0,0.125,0.0,0.0,0.0,0.125,3.382568013,0.01,0.0,-79593.0,0.125,0.0,0.0,0.0,0.25,1.6027830390000002,0.01,0.0,0.029999999329447746,-1.2599999904632568,156.69000244140625,-0.0078125,0.005859375,1.0240478515625,35.81999969482422,0.0,-11.0,3.274017333984375,-0.3686981201171875,Closing,0.0,0.0,0.0,0.0,0.0,0.0,0.0,0.0,
11.352986999999965,0.0,0.0,19651.0,0.0,0.0,0.0,0.0,0.25,0.849609288,4.932250999999998,0.0,-63866.0,0.0,0.0,0.0,0.0,0.25,0.47851557600000005,4.963769999999998,0.0,49420.0,0.125,0.0,0.0,0.0,0.125,3.383788716,0.01,0.0,-79593.0,0.125,0.0,0.0,0.0,0.25,1.6015623360000002,0.01,0.0,0.05000000074505806,-1.2100000381469727,156.69000244140625,-0.013671875,0.00494384765625,1.0101318359375,35.81999969482422,0.0,-5.0,3.274017333984375,-0.3686981201171875,Closing,0.0,0.0,0.0,0.0,0.0,0.0,0.0,0.0,
11.511565999999991,0.0,0.0,19651.0,0.0,0.0,0.0,0.0,0.25,0.850829991,4.932250999999998,0.0,-63866.0,0.125,0.0,0.0,0.0,0.25,0.47851557600000005,4.963769999999998,0.0,49420.0,0.0,0.0,0.0,0.0,0.125,3.382568013,0.01,0.0,-79593.0,0.125,0.0,0.0,0.0,0.25,1.6027830390000002,0.01,0.0,0.07999999821186066,-1.149999976158142,156.67999267578125,-0.01336669921875,0.0040283203125,1.0191650390625,35.81999969482422,0.0,-5.0,3.274017333984375,-0.3686981201171875,Closing,0.0,0.0,0.0,0.0,0.0,0.0,0.0,0.0,
11.666603000000002,0.0,0.0,19651.0,0.0,0.0,0.0,0.0,0.25,0.850829991,4.932250999999998,0.0,-63866.0,0.0,0.0,0.0,0.0,0.25,0.47851557600000005,4.963769999999998,0.0,49420.0,0.125,0.0,0.0,0.0,0.125,3.382568013,0.01,0.0,-79593.0,0.125,0.0,0.0,0.0,0.25,1.600341633,0.01,0.0,0.10000000149011612,-1.1100000143051147,156.6699981689453,-0.013916015625,0.00543212890625,1.0216064453125,35.81999969482422,0.0,-4.0,3.274017333984375,-0.3686981201171875,Closing,0.0,0.0,0.0,0.0,0.0,0.0,0.0,0.0,
11.82621100000001,0.0,0.0,19645.0,2.625,-90.0,-714.3307435512543,0.0,0.25,0.850829991,4.932250999999998,0.0,-63848.0,4.25,75.0,714.3307435512543,0.0,0.25,0.47851557600000005,4.963769999999998,0.0,49400.0,2.875,-105.0,-714.3307435512543,0.0,0.125,3.383788716,0.01,0.0,-79577.0,3.75,90.0,714.3307435512543,0.0,0.25,1.6052244450000002,0.01,0.0,0.10999999940395355,-1.600000023841858,156.7100067138672,-0.13507080078125,0.0345458984375,0.9583740234375,35.81999969482422,0.0,112.0,3.27691650390625,-0.3680419921875,Closing,0.0,0.0,0.0,0.0,0.0,0.0,0.0,0.125,
11.985859999999986,0.0,0.0,19560.0,9.375,-427.5,-1230.236234664917,0.0,0.25,0.850829991,4.932250999999998,0.0,-63794.0,14.875,412.5,1230.236234664917,0.0,0.25,0.477294873,4.963769999999998,0.0,49361.0,12.0,-337.5,-1230.236234664917,0.0,0.125,3.38134731,0.01,0.0,-79524.0,10.0,465.0,1230.236234664917,0.0,0.25,1.6015623360000002,0.01,0.0,0.11999999731779099,-3.009999990463257,156.77000427246094,-0.23272705078125,0.0233154296875,1.0340576171875,35.81999969482422,0.0,171.0,3.29913330078125,-0.35955810546875,Closing,0.0,0.0,0.0,0.0,0.0,0.0,0.0,0.0,
12.149081999999995,0.0,0.0,19448.0,0.375,-727.5,-337.32282400131226,0.0,0.25,0.850829991,4.932250999999998,0.0,-63688.0,1.125,705.0,337.32282400131226,0.0,0.25,0.477294873,4.963769999999998,0.0,49253.0,0.875,-682.5,-337.32282400131226,0.0,0.125,3.3728023890000003,0.01,0.0,-79422.0,1.5,660.0,337.32282400131226,0.0,0.25,1.6027830390000002,0.01,0.0,0.18000000715255737,-2.9800000190734863,157.02000427246094,0.15545654296875,0.00897216796875,1.02313232421875,35.83000183105469,0.0,-189.0,3.340850830078125,-0.3431854248046875,Closing,0.0,0.0,0.0,0.0,0.0,0.0,0.0,0.0,
12.307195999999996,0.0,0.0,19336.0,0.0,-427.5,0.0,0.0,0.25,0.852050694,4.932250999999998,0.0,-63548.0,0.0,300.0,0.0,0.0,0.25,0.47363276400000004,4.963769999999998,0.0,49083.0,0.125,-450.0,0.0,0.0,0.0,3.382568013,0.01,0.0,-79275.0,0.125,420.0,0.0,0.0,0.25,1.6027830390000002,0.01,0.0,-0.029999999329447746,0.8399999737739563,158.27999877929688,-0.01812744140625,0.48681640625,0.83209228515625,35.83000183105469,0.0,208.0,3.341217041015625,-0.3402862548828125,Closing,0.0,0.0,0.0,0.0,0.0,0.0,0.0,0.0,
12.459434000000009,0.0,0.0,19357.0,0.0,292.5,0.0,0.0,0.25,0.849609288,4.932250999999998,0.0,-63592.0,0.0,-225.0,0.0,0.0,0.25,0.46752924900000004,4.963769999999998,0.0,49104.0,0.0,202.5,0.0,0.0,0.125,3.383788716,0.01,0.0,-79320.0,0.125,-187.5,0.0,0.0,0.25,1.6369627230000001,0.01,0.0,0.1899999976158142,0.14000000059604645,157.94000244140625,-0.0838623046875,0.1475830078125,1.09832763671875,35.83000183105469,0.0,134.0,3.3048095703125,-0.364898681640625,Closing,0.0,0.0,0.0,0.0,0.0,0.0,0.0,0.0,
12.614252999999968,0.0,0.0,19376.0,0.0,82.5,0.0,0.0,0.25,0.872802645,4.932250999999998,0.0,-63618.0,0.0,-90.0,0.0,0.0,0.25,0.482177685,4.963769999999998,0.0,49135.0,0.125,82.5,0.0,0.0,0.125,3.382568013,0.01,0.0,-79347.0,0.125,-105.0,0.0,0.0,0.125,1.646728347,0.01,0.0,0.25,-0.5299999713897705,158.00999450683594,-0.0628662109375,0.01971435546875,1.04205322265625,35.7599983215332,0.0,54.0,3.286865234375,-0.3860321044921875,Closing,0.0,0.0,0.0,0.0,0.0,0.0,0.0,0.0,
12.777570999999996,0.0,0.0,19380.0,0.0,0.0,0.0,0.0,0.25,0.850829991,4.932250999999998,0.0,-63621.0,0.0,0.0,0.0,0.0,0.125,0.484619091,4.963769999999998,0.0,49144.0,0.125,0.0,0.0,0.0,0.125,3.383788716,0.01,0.0,-79351.0,0.125,0.0,0.0,0.0,0.25,1.646728347,0.01,0.0,0.2800000011920929,-0.6700000166893005,158.02999877929688,0.00469970703125,-0.009521484375,1.02435302734375,35.7599983215332,0.0,-21.0,3.2791748046875,-0.4017333984375,Closing,0.0,0.0,0.0,0.0,0.0,0.0,0.0,0.0,
12.940518999999972,0.0,0.0,19380.0,0.0,0.0,0.0,0.0,0.25,0.852050694,4.932250999999998,0.0,-63621.0,0.0,0.0,0.0,0.0,0.125,0.47363276400000004,4.963769999999998,0.0,49144.0,0.0,0.0,0.0,0.0,0.125,3.383788716,0.01,0.0,-79351.0,0.125,0.0,0.0,0.0,0.25,1.641845535,0.01,0.0,0.27000001072883606,-0.5899999737739563,158.02000427246094,-0.00335693359375,0.0157470703125,1.05224609375,35.7599983215332,0.0,-3.0,3.27752685546875,-0.417083740234375,Closing,0.0,0.0,0.0,0.0,0.0,0.0,0.0,0.0,
13.092640000000014,0.0,0.0,19380.0,0.0,0.0,0.0,0.0,0.25,0.850829991,4.932250999999998,0.0,-63621.0,0.0,0.0,0.0,0.0,0.25,0.47485346700000003,4.963769999999998,0.0,49144.0,0.125,0.0,0.0,0.0,0.125,3.382568013,0.01,0.0,-79351.0,0.125,0.0,0.0,0.0,0.125,1.641845535,0.01,0.0,0.25999999046325684,-0.5299999713897705,158.02000427246094,-0.013671875,0.01861572265625,1.032958984375,35.7599983215332,0.0,8.0,3.27691650390625,-0.4171905517578125,Closing,0.0,0.0,0.0,0.0,0.0,0.0,0.0,0.0,
13.249282000000006,0.0,0.0,19380.0,0.0,0.0,0.0,0.0,0.25,0.850829991,4.932250999999998,0.0,-63621.0,0.125,0.0,0.0,0.0,0.25,0.47363276400000004,4.963769999999998,0.0,49144.0,0.125,0.0,0.0,0.0,0.125,3.383788716,0.01,0.0,-79351.0,0.125,0.0,0.0,0.0,0.125,1.641845535,0.01,0.0,0.25999999046325684,-0.5699999928474426,158.00999450683594,-0.01300048828125,-0.00408935546875,1.01495361328125,35.7599983215332,0.0,0.0,3.27691650390625,-0.4171600341796875,Closing,0.0,0.0,0.0,0.0,0.0,0.0,0.0,0.0,
13.410033999999985,0.0,0.0,19380.0,0.0,0.0,0.0,0.0,0.25,0.850829991,4.932250999999998,0.0,-63621.0,0.0,0.0,0.0,0.0,0.25,0.47363276400000004,4.963769999999998,0.0,49144.0,0.125,0.0,0.0,0.0,0.125,3.383788716,0.01,0.0,-79351.0,0.125,0.0,0.0,0.0,0.125,1.641845535,0.01,0.0,0.25999999046325684,-0.5699999928474426,158.00999450683594,-0.00970458984375,0.004150390625,1.017333984375,35.7599983215332,0.0,0.0,3.27691650390625,-0.4171600341796875,Closing,0.0,0.0,0.0,0.0,0.0,0.0,0.0,0.0,
13.569738000000012,0.0,0.0,19380.0,0.0,0.0,0.0,0.0,0.25,0.852050694,4.932250999999998,0.0,-63621.0,0.125,0.0,0.0,0.0,0.25,0.47363276400000004,4.963769999999998,0.0,49144.0,0.125,0.0,0.0,0.0,0.125,3.383788716,0.01,0.0,-79351.0,0.125,0.0,0.0,0.0,0.125,1.641845535,0.01,0.0,0.27000001072883606,-0.5899999737739563,158.0,-0.00970458984375,-4.8828125E-4,1.02020263671875,35.81999969482422,0.0,-2.0,3.27691650390625,-0.4171600341796875,Closing,0.0,0.0,0.0,0.0,0.0,0.0,0.0,0.0,
13.730165999999969,0.0,0.0,19380.0,0.0,0.0,0.0,0.0,0.25,0.852050694,4.932250999999998,0.0,-63621.0,0.0,0.0,0.0,0.0,0.25,0.47241206100000005,4.963769999999998,0.0,49144.0,0.125,0.0,0.0,0.0,0.125,3.385009419,0.01,0.0,-79351.0,0.125,0.0,0.0,0.0,0.125,1.641845535,0.01,0.0,0.27000001072883606,-0.6000000238418579,158.0,-0.01171875,-0.00244140625,1.01629638671875,35.81999969482422,0.0,-1.0,3.27691650390625,-0.4171600341796875,Closing,0.0,0.0,0.0,0.0,0.0,0.0,0.0,0.0,
13.903957999999983,0.0,0.0,19358.0,0.625,-150.0,-496.06298089027405,0.0,1.875,1.5832517910000001,1.2330627499999984,0.0,-63635.0,1.75,-97.5,-496.06298089027405,0.0,2.0,4.790038572,3.7228274999999984,0.0,49130.0,1.5,-112.5,-496.06298089027405,0.0,1.25,4.16259723,1.2350999999999985,0.0,-79339.0,1.875,52.5,496.06298089027405,0.0,2.0,2.467040763,1.2394999999999985,0.0,0.07999999821186066,-0.699999988079071,158.22000122070312,0.0054931640625,0.01495361328125,1.1053466796875,35.81999969482422,0.0,-12.0,3.277252197265625,-0.416717529296875,Closing,0.0,0.0,0.0,0.0,0.0,0.0,0.0,0.0,
14.068020000000018,0.0,0.0,19323.0,5.0,-255.0,-916.2003120284106,0.0,0.375,1.9958494050000002,0.9912437518831847,0.0,-63647.0,9.375,-195.0,-916.2003120284106,0.0,1.75,3.8464351530000003,3.4794631845419457,0.0,49106.0,7.625,-150.0,-916.2003120284106,0.0,0.125,4.665526866,0.9928814717263347,0.0,-79342.0,8.625,135.0,916.2003120284106,0.0,0.375,2.810058306,0.9964185767992808,0.0,-0.8299999833106995,-0.7599999904632568,158.91000366210938,-0.03936767578125,-0.26422119140625,0.970947265625,35.84000015258789,0.0,-65.0,3.2745208740234375,-0.4095001220703125,Closing,0.0,0.0,0.0,0.0,0.0,0.0,0.0,0.0,
14.240534999999975,0.0,0.0,19208.0,9.5,-397.5,-1003.9609038031751,0.0,0.375,1.987304484,0.9804910978699819,0.0,-63750.0,17.5,-360.0,-1003.9609038031751,0.0,0.25,3.7927242210000003,3.468641816892344,0.0,49039.0,14.5,-270.0,-1003.9609038031751,0.0,0.375,4.427489781,0.9821110523200985,0.0,-79218.0,10.0,525.0,1003.9609038031751,0.0,0.25,2.724609096,0.9856097881554223,0.0,-0.5899999737739563,-0.75,157.2899932861328,0.0198974609375,0.25054931640625,1.00408935546875,35.84000015258789,0.0,70.0,3.2647857666015625,-0.3847503662109375,Closing,0.0,0.0,0.0,0.0,0.0,0.0,0.0,0.0,
14.410108000000008,0.0,0.0,19199.0,0.0,97.5,0.0,0.0,0.375,1.7895505980000002,0.9804910978699819,0.0,-63775.0,0.125,52.5,0.0,0.0,0.5,3.9062496,3.468641816892344,0.0,49018.0,0.125,67.5,0.0,0.0,0.125,4.26025347,0.9821110523200985,0.0,-79182.0,0.125,-52.5,0.0,0.0,0.5,2.608642311,0.9856097881554223,0.0,1.25,-0.4000000059604645,157.1300048828125,0.1414794921875,0.0501708984375,0.9732666015625,35.84000015258789,0.0,-125.0,3.2674407958984375,-0.39752197265625,Closing,0.0,0.0,0.0,0.0,0.0,0.0,0.0,0.0,
14.582364000000002,0.0,0.0,19268.0,0.0,202.5,0.0,0.0,0.25,1.7419431810000001,0.9804910978699819,0.0,-63718.0,0.0,187.5,0.0,0.0,0.25,3.9990230280000003,3.468641816892344,0.0,49075.0,0.0,165.0,0.0,0.0,0.0,4.26025347,0.9821110523200985,0.0,-79241.0,0.125,-150.0,0.0,0.0,0.125,2.574462627,0.9856097881554223,0.0,0.7900000214576721,-0.5600000023841858,157.0,-0.06103515625,-0.11761474609375,1.15191650390625,35.84000015258789,0.0,-6.0,3.268310546875,-0.4261474609375,Closing,0.0,0.0,0.0,0.0,0.0,0.0,0.0,0.0,
14.768110999999974,0.0,0.0,19271.0,0.625,0.0,-297.63780355453486,0.0,1.75,0.865478427,4.932250999999998,0.0,-63711.0,1.125,7.5,-297.63780355453486,0.0,1.75,3.3203121600000003,2.481884999999998,0.0,49082.0,1.25,0.0,-297.63780355453486,0.0,1.5,3.4704586290000004,0.01,0.0,-79247.0,0.875,45.0,297.63780355453486,0.0,1.75,1.6369627230000001,0.01,0.0,0.07999999821186066,-0.8600000143051147,157.02999877929688,-0.01104736328125,0.02569580078125,0.888427734375,35.84000015258789,0.0,7.0,3.2685546875,-0.4362335205078125,Closing,0.0,0.0,0.0,0.0,0.0,0.0,0.0,0.0,
14.941321999999985,0.0,0.0,19270.0,4.25,-60.0,-575.433059334755,0.0,0.125,0.3662109,4.932250999999998,0.0,-63725.0,6.0,-67.5,-575.433059334755,0.0,0.875,2.869872753,2.481884999999998,0.0,49068.0,4.625,-67.5,-575.433059334755,0.0,0.25,3.2568356040000004,0.01,0.0,-79206.0,2.875,142.5,575.433059334755,0.0,0.125,0.690917898,0.01,0.0,0.38999998569488525,-0.9200000166893005,157.11000061035156,0.03240966796875,0.00982666015625,0.9344482421875,35.84000015258789,0.0,-42.0,3.2698211669921875,-0.4429168701171875,Closing,0.0,0.0,0.0,0.0,0.0,0.0,0.0,0.0,
15.111045999999973,0.0,0.0,19247.0,9.875,-82.5,-654.8031377792358,0.0,0.5,0.734863206,4.932250999999998,0.0,-63734.0,14.0,-45.0,-654.8031377792358,0.0,0.25,2.8076169,2.481884999999998,0.0,49058.0,8.625,-52.5,-654.8031377792358,0.0,0.0,3.2958981,0.01,0.0,-79196.0,9.125,22.5,654.8031377792358,0.0,1.5,1.4208982920000002,0.01,0.0,0.4099999964237213,-0.9599999785423279,157.2100067138672,-0.1531982421875,0.037353515625,1.01397705078125,35.84000015258789,0.0,137.0,3.267791748046875,-0.4459075927734375,Closing,0.0,0.0,0.0,0.0,0.0,0.0,0.0,0.125,
15.289993000000017,0.0,0.0,19216.0,7.875,-225.0,-377.00788199901575,0.0,0.375,0.993652242,4.932250999999998,0.0,-63754.0,11.0,-240.0,-377.00788199901575,0.0,0.25,2.922362982,2.481884999999998,0.0,49011.0,8.625,-180.0,-377.00788199901575,0.0,0.0,3.3679195770000003,0.01,0.0,-79159.0,8.25,180.0,377.00788199901575,0.0,0.375,2.033691198,0.01,0.0,0.14000000059604645,-0.5299999713897705,157.16000366210938,0.21124267578125,0.0400390625,1.0238037109375,35.84000015258789,0.0,-188.0,3.27276611328125,-0.4478607177734375,Closing,0.0,0.0,0.0,0.0,0.0,0.0,0.0,0.0,
15.455406000000018,0.0,0.0,19193.0,14.25,0.0,-218.26772511005402,0.0,0.375,0.926513577,4.932250999999998,0.0,-63784.0,15.25,0.0,-218.26772511005402,0.0,0.25,2.969970399,2.481884999999998,0.0,49011.0,12.125,0.0,-218.26772511005402,0.0,0.0,3.388671528,0.01,0.0,-79159.0,10.875,7.5,218.26772511005402,0.0,0.5,1.8115232520000002,0.01,0.0,0.3100000023841858,-0.6100000143051147,157.17999267578125,0.00811767578125,0.0242919921875,1.0350341796875,35.84000015258789,0.0,-10.0,3.267791748046875,-0.4534149169921875,Closing,0.0,0.0,0.0,0.0,0.0,0.0,0.0,0.0,
15.614145000000018,0.0,0.0,19192.0,20.5,-7.5,-476.2204706668854,0.0,0.375,0.89111319,4.932250999999998,0.0,-63784.0,25.875,0.0,-476.2204706668854,0.0,0.125,2.971191102,2.481884999999998,0.0,49011.0,23.375,0.0,-476.2204706668854,0.0,0.125,3.387450825,0.01,0.0,-79153.0,16.375,30.0,476.2204706668854,0.0,0.5,1.57470687,0.01,0.0,0.28999999165534973,-0.6700000166893005,157.2100067138672,-0.0087890625,-0.01593017578125,1.0098876953125,35.81999969482422,0.0,-11.0,3.2677154541015625,-0.4570465087890625,Closing,0.0,0.0,0.0,0.0,0.0,0.0,0.0,0.0,
15.774880000000005,0.0,0.0,19213.0,0.0,262.5,0.0,0.0,0.25,0.836181555,4.932250999999998,0.0,-63756.0,0.0,150.0,0.0,0.0,0.125,2.973632508,2.481884999999998,0.0,49033.0,0.125,142.5,0.0,0.0,0.125,3.4130855880000004,0.01,0.0,-79178.0,0.125,-157.5,0.0,0.0,0.25,1.589355306,0.01,0.0,0.2800000011920929,-0.11999999731779099,157.0500030517578,-0.11395263671875,-0.0556640625,1.241943359375,35.81999969482422,0.0,78.0,3.2607421875,-0.461181640625,Closing,0.0,0.0,0.0,0.0,0.0,0.0,0.0,0.0,
15.943016999999992,0.0,0.0,19246.0,0.0,90.0,0.0,0.0,0.25,0.822753822,4.932250999999998,0.0,-63738.0,0.125,82.5,0.0,0.0,0.125,2.985839538,2.481884999999998,0.0,49050.0,0.0,105.0,0.0,0.0,0.125,3.385009419,0.01,0.0,-79198.0,0.125,-67.5,0.0,0.0,0.25,1.6076658510000001,0.01,0.0,0.30000001192092896,-0.6700000166893005,157.02999877929688,-0.09002685546875,-0.041015625,0.96588134765625,35.81999969482422,0.0,54.0,3.2678680419921875,-0.4615020751953125,Closing,0.0,0.0,0.0,0.0,0.0,0.0,0.0,0.0,
16.108668000000005,0.0,0.0,19248.0,0.0,0.0,0.0,0.0,0.25,0.822753822,4.932250999999998,0.0,-63738.0,0.125,0.0,0.0,0.0,0.0,2.984618835,2.481884999999998,0.0,49054.0,0.125,0.0,0.0,0.0,0.125,3.3740230920000003,0.01,0.0,-79199.0,0.125,0.0,0.0,0.0,0.25,1.6076658510000001,0.01,0.0,0.2800000011920929,-0.699999988079071,157.0399932861328,-2.44140625E-4,-0.0159912109375,1.01214599609375,35.810001373291016,0.0,-19.0,3.273956298828125,-0.458740234375,Closing,0.0,0.0,0.0,0.0,0.0,0.0,0.0,0.0,
16.268353,0.0,0.0,19248.0,0.0,0.0,0.0,0.0,0.25,0.822753822,4.932250999999998,0.0,-63738.0,0.0,0.0,0.0,0.0,0.0,2.985839538,2.481884999999998,0.0,49054.0,0.125,0.0,0.0,0.0,0.0,3.3728023890000003,0.01,0.0,-79199.0,0.125,0.0,0.0,0.0,0.25,1.6076658510000001,0.01,0.0,0.27000001072883606,-0.7099999785423279,157.0500030517578,-0.02471923828125,0.00103759765625,1.03253173828125,35.810001373291016,0.0,9.0,3.273956298828125,-0.458740234375,Closing,0.0,0.0,0.0,0.0,0.0,0.0,0.0,0.125,
16.42444,0.0,0.0,19248.0,0.0,0.0,0.0,0.0,0.25,0.822753822,4.932250999999998,0.0,-63738.0,0.125,0.0,0.0,0.0,0.0,2.985839538,2.481884999999998,0.0,49054.0,0.125,0.0,0.0,0.0,0.0,3.3740230920000003,0.01,0.0,-79199.0,0.125,0.0,0.0,0.0,0.25,1.6088865540000001,0.01,0.0,0.27000001072883606,-0.699999988079071,157.0399932861328,-0.0118408203125,-3.662109375E-4,1.02508544921875,35.810001373291016,0.0,-2.0,3.273956298828125,-0.458740234375,Closing,0.0,0.0,0.0,0.0,0.0,0.0,0.0,0.0,
16.572847999999997,0.0,0.0,19248.0,0.0,0.0,0.0,0.0,0.125,0.822753822,4.932250999999998,0.0,-63738.0,0.0,0.0,0.0,0.0,0.0,2.984618835,2.481884999999998,0.0,49054.0,0.0,0.0,0.0,0.0,0.0,3.3740230920000003,0.01,0.0,-79199.0,0.125,0.0,0.0,0.0,0.25,1.6076658510000001,0.01,0.0,0.27000001072883606,-0.7099999785423279,157.0399932861328,-0.010498046875,-4.2724609375E-4,1.02410888671875,35.810001373291016,0.0,-4.0,3.273956298828125,-0.458740234375,Closing,0.0,0.0,0.0,0.0,0.0,0.0,0.0,0.0,
16.730045999999973,0.0,0.0,19248.0,0.0,0.0,0.0,0.0,0.125,0.822753822,4.932250999999998,0.0,-63738.0,0.0,0.0,0.0,0.0,0.0,2.984618835,2.481884999999998,0.0,49054.0,0.0,0.0,0.0,0.0,0.0,3.3740230920000003,0.01,0.0,-79199.0,0.125,0.0,0.0,0.0,0.25,1.6088865540000001,0.01,0.0,0.27000001072883606,-0.7099999785423279,157.02999877929688,-0.01275634765625,1.8310546875E-4,1.02069091796875,35.86000061035156,0.0,-1.0,3.273956298828125,-0.458740234375,Closing,0.0,0.0,0.0,0.0,0.0,0.0,0.0,0.0,
16.893160999999964,0.0,0.0,19248.0,0.0,0.0,0.0,0.0,0.125,0.822753822,4.932250999999998,0.0,-63738.0,0.125,0.0,0.0,0.0,0.0,2.984618835,2.481884999999998,0.0,49054.0,0.0,0.0,0.0,0.0,0.0,3.3728023890000003,0.01,0.0,-79199.0,0.125,0.0,0.0,0.0,0.25,1.6088865540000001,0.01,0.0,0.27000001072883606,-0.699999988079071,157.02999877929688,-0.01507568359375,0.00408935546875,1.025146484375,35.86000061035156,0.0,1.0,3.273956298828125,-0.458740234375,Closing,0.0,0.0,0.0,0.0,0.0,0.0,0.0,0.0,
17.050167000000016,0.0,0.0,19248.0,0.0,0.0,0.0,0.0,0.125,0.821533119,4.932250999999998,0.0,-63738.0,0.0,0.0,0.0,0.0,0.0,2.984618835,2.481884999999998,0.0,49054.0,0.125,0.0,0.0,0.0,0.0,3.3740230920000003,0.01,0.0,-79199.0,0.125,0.0,0.0,0.0,0.25,1.6076658510000001,0.01,0.0,0.27000001072883606,-0.7099999785423279,157.02999877929688,-0.0113525390625,0.00213623046875,1.02069091796875,35.86000061035156,0.0,-2.0,3.273956298828125,-0.458740234375,Closing,0.0,0.0,0.0,0.0,0.0,0.0,0.0,0.0,
17.205238000000012,0.0,0.0,19248.0,0.0,0.0,0.0,0.0,0.125,0.821533119,4.932250999999998,0.0,-63738.0,0.0,0.0,0.0,0.0,0.0,2.984618835,2.481884999999998,0.0,49054.0,0.0,0.0,0.0,0.0,0.0,3.3740230920000003,0.01,0.0,-79199.0,0.125,0.0,0.0,0.0,0.25,1.6076658510000001,0.01,0.0,0.2800000011920929,-0.699999988079071,157.02999877929688,-0.01214599609375,0.0057373046875,1.0191650390625,35.869998931884766,0.0,0.0,3.273956298828125,-0.458740234375,Closing,0.0,0.0,0.0,0.0,0.0,0.0,0.0,0.0,
17.36042599999998,0.0,0.0,19248.0,0.0,0.0,0.0,0.0,0.25,0.822753822,4.932250999999998,0.0,-63738.0,0.125,0.0,0.0,0.0,0.0,2.985839538,2.481884999999998,0.0,49054.0,0.0,0.0,0.0,0.0,0.0,3.3740230920000003,0.01,0.0,-79199.0,0.125,0.0,0.0,0.0,0.25,1.6088865540000001,0.01,0.0,0.2800000011920929,-0.7099999785423279,157.02000427246094,-0.0125732421875,0.006103515625,1.02276611328125,35.869998931884766,0.0,0.0,3.273956298828125,-0.458740234375,Closing,0.0,0.0,0.0,0.0,0.0,0.0,0.0,0.125,
17.523550999999976,0.0,0.0,19248.0,0.0,0.0,0.0,0.0,0.25,0.822753822,4.932250999999998,0.0,-63738.0,0.0,0.0,0.0,0.0,0.0,2.984618835,2.481884999999998,0.0,49054.0,0.0,0.0,0.0,0.0,0.0,3.3740230920000003,0.01,0.0,-79199.0,0.125,0.0,0.0,0.0,0.25,1.6076658510000001,0.01,0.0,0.2800000011920929,-0.699999988079071,157.02000427246094,-0.0133056640625,0.00592041015625,1.0152587890625,35.869998931884766,0.0,1.0,3.273956298828125,-0.458740234375,Closing,0.0,0.0,0.0,0.0,0.0,0.0,0.0,0.0,
17.676352000000012,0.0,0.0,19248.0,0.0,0.0,0.0,0.0,0.125,0.821533119,4.932250999999998,0.0,-63738.0,0.0,0.0,0.0,0.0,0.0,2.984618835,2.481884999999998,0.0,49054.0,0.125,0.0,0.0,0.0,0.0,3.3740230920000003,0.01,0.0,-79199.0,0.125,0.0,0.0,0.0,0.25,1.6076658510000001,0.01,0.0,0.28999999165534973,-0.7099999785423279,157.00999450683594,-0.009765625,0.00146484375,1.0211181640625,35.880001068115234,0.0,-4.0,3.273956298828125,-0.458740234375,Closing,0.0,0.0,0.0,0.0,0.0,0.0,0.0,0.0,
17.83124900000001,0.0,0.0,19248.0,0.0,0.0,0.0,0.0,0.25,0.822753822,4.932250999999998,0.0,-63738.0,0.0,0.0,0.0,0.0,0.0,2.984618835,2.481884999999998,0.0,49054.0,0.125,0.0,0.0,0.0,0.0,3.3740230920000003,0.01,0.0,-79199.0,0.125,0.0,0.0,0.0,0.25,1.6076658510000001,0.01,0.0,0.2800000011920929,-0.699999988079071,157.00999450683594,-0.0107421875,0.00543212890625,1.01446533203125,35.880001068115234,0.0,-1.0,3.273956298828125,-0.458740234375,Closing,0.0,0.0,0.0,0.0,0.0,0.0,0.0,0.0,
17.986583999999972,0.0,0.0,19248.0,0.0,0.0,0.0,0.0,0.25,0.822753822,4.932250999999998,0.0,-63738.0,0.0,0.0,0.0,0.0,0.0,2.984618835,2.481884999999998,0.0,49054.0,0.125,0.0,0.0,0.0,0.0,3.3740230920000003,0.01,0.0,-79199.0,0.125,0.0,0.0,0.0,0.25,1.6088865540000001,0.01,0.0,0.2800000011920929,-0.699999988079071,157.00999450683594,-0.01287841796875,0.00421142578125,1.01904296875,35.880001068115234,0.0,0.0,3.273956298828125,-0.458740234375,Closing,0.0,0.0,0.0,0.0,0.0,0.0,0.0,0.125,
18.14898099999997,0.0,0.0,19248.0,0.0,0.0,0.0,0.0,0.125,0.821533119,4.932250999999998,0.0,-63738.0,0.0,0.0,0.0,0.0,0.0,2.985839538,2.481884999999998,0.0,49054.0,0.125,0.0,0.0,0.0,0.0,3.3740230920000003,0.01,0.0,-79199.0,0.125,0.0,0.0,0.0,0.25,1.6076658510000001,0.01,0.0,0.27000001072883606,-0.699999988079071,157.00999450683594,-0.01141357421875,0.005859375,1.0196533203125,35.900001525878906,0.0,0.0,3.273956298828125,-0.458740234375,Closing,0.0,0.0,0.0,0.0,0.0,0.0,0.0,0.0,
18.307944000000017,0.0,0.0,19248.0,0.0,0.0,0.0,0.0,0.25,0.821533119,4.932250999999998,0.0,-63738.0,0.0,0.0,0.0,0.0,0.0,2.984618835,2.481884999999998,0.0,49054.0,0.125,0.0,0.0,0.0,0.0,3.3728023890000003,0.01,0.0,-79199.0,0.125,0.0,0.0,0.0,0.25,1.6076658510000001,0.01,0.0,0.27000001072883606,-0.7099999785423279,157.0,-0.00982666015625,0.005126953125,1.018310546875,35.900001525878906,0.0,-2.0,3.273956298828125,-0.458740234375,Closing,0.0,0.0,0.0,0.0,0.0,0.0,0.0,0.0,
18.465597999999996,0.0,0.0,19248.0,0.0,0.0,0.0,0.0,0.25,0.822753822,4.932250999999998,0.0,-63738.0,0.0,0.0,0.0,0.0,0.0,2.985839538,2.481884999999998,0.0,49054.0,0.0,0.0,0.0,0.0,0.0,3.3728023890000003,0.01,0.0,-79199.0,0.125,0.0,0.0,0.0,0.25,1.6076658510000001,0.01,0.0,0.27000001072883606,-0.7099999785423279,157.0,-0.0120849609375,0.00341796875,1.0126953125,35.900001525878906,0.0,-1.0,3.273956298828125,-0.458740234375,Closing,0.0,0.0,0.0,0.0,0.0,0.0,0.0,0.0,
18.61425899999996,0.0,0.0,19248.0,0.0,0.0,0.0,0.0,0.25,0.822753822,4.932250999999998,0.0,-63738.0,0.0,0.0,0.0,0.0,0.0,2.985839538,2.481884999999998,0.0,49054.0,0.0,0.0,0.0,0.0,0.0,3.3728023890000003,0.01,0.0,-79199.0,0.125,0.0,0.0,0.0,0.25,1.6076658510000001,0.01,0.0,0.27000001072883606,-0.699999988079071,157.0,-0.0146484375,0.00592041015625,1.0206298828125,35.900001525878906,0.0,2.0,3.273956298828125,-0.458740234375,Closing,0.0,0.0,0.0,0.0,0.0,0.0,0.0,0.0,
