Time,ClimberA1,ClimberA2,FRpos,FRCurrent,FRspeed,FRsetpoint,FRApos,FRACurrent,FREncpos,FREncSetpoint,FREncSpeed,FLpos,FLCurrent,FLspeed,FLsetpoint,FLApos,FLACurrent,FLEncpos,FLEncSetpoint,FLEncSpeed,BRpos,BRCurrent,BRspeed,BRsetpoint,BRApos,BRACurrent,BREncpos,BREncSetpoint,BREncSpeed,BLpos,BLCurrent,BLspeed,BLsetpoint,BLApos,BLACurrent,BLEncpos,BLEncSetpoint,BLEncSpeed,navx_Pitch,navx_Roll,navx_Yaw,navx_XAcc,navx_YAcc,navx_ZAcc,navx_Temp,navx_Bar,navx_Alt,navx_XDis,navx_YDis,GearPlacerState,ShootOutputV,ShootOutputCurrent,ShootEncPos,ShootEncVelocity,ShootSpeed,ShootSetpoint,CarouselSetpoint,CarouselCurrent,
0.15080899999999384,0.0,0.0,424.0,0.0,0.0,0.0,0.0,0.25,0.865478427,0.01,0.0,173.0,0.0,0.0,-0.0,0.0,0.25,0.47973627900000004,0.01,0.0,-441.0,0.0,0.0,0.0,0.0,0.0,3.3251949720000002,0.01,0.0,408.0,0.0,0.0,-0.0,0.0,0.25,1.748046696,0.01,0.0,0.47999998927116394,-0.5199999809265137,1.659999966621399,-0.00836181640625,0.00927734375,1.022216796875,36.779998779296875,0.0,0.0,-0.2178497314453125,-0.094207763671875,Closing,0.0,0.0,0.0,0.0,0.0,0.0,0.0,0.0,
0.2088179999999993,0.0,0.0,424.0,0.0,0.0,0.0,0.0,0.25,0.864257724,0.01,0.0,173.0,0.0,0.0,-0.0,0.0,0.25,0.47973627900000004,0.01,0.0,-441.0,0.0,0.0,0.0,0.0,0.0,3.3264156750000002,0.01,0.0,408.0,0.0,0.0,-0.0,0.0,0.25,1.749267399,0.01,0.0,0.47999998927116394,-0.5199999809265137,1.659999966621399,-0.008056640625,0.0113525390625,1.02105712890625,36.779998779296875,0.0,1.0,-0.2178497314453125,-0.094207763671875,Closing,0.0,0.0,0.0,0.0,0.0,0.0,0.0,0.0,
0.23369999999999708,0.0,0.0,424.0,0.0,0.0,0.0,0.0,0.25,0.8666991300000001,0.01,0.0,173.0,0.0,0.0,-0.0,0.0,0.25,0.47851557600000005,0.01,0.0,-441.0,0.0,0.0,0.0,0.0,0.0,3.3251949720000002,0.01,-0.0012207030000004337,408.0,0.0,0.0,-0.0,0.0,0.25,1.748046696,0.01,0.0634765559999999,0.49000000953674316,-0.5199999809265137,1.659999966621399,-0.00823974609375,0.0047607421875,1.01629638671875,36.7599983215332,0.0,0.0,-0.2178497314453125,-0.094207763671875,Closing,0.0,0.0,0.0,0.0,0.0,0.0,0.0,0.0,
0.2672569999999978,0.0,0.0,424.0,0.0,0.0,0.0,0.0,0.25,0.865478427,0.01,0.0,173.0,0.0,0.0,-0.0,0.0,0.25,0.47851557600000005,0.01,0.0,-441.0,0.0,0.0,0.0,0.0,0.0,3.330077784,0.01,-0.0012207030000004337,408.0,0.0,0.0,-0.0,0.0,0.25,1.7346189630000002,0.01,0.0634765559999999,0.47999998927116394,-0.5099999904632568,1.659999966621399,-0.01397705078125,0.0054931640625,1.0181884765625,36.7599983215332,0.0,-4.0,-0.2178497314453125,-0.094207763671875,Closing,0.0,0.0,0.0,0.0,0.0,0.0,0.0,0.0,
0.2960009999999893,0.0,0.0,424.0,0.0,0.0,0.0,0.0,0.25,0.865478427,0.01,0.0,173.0,0.0,0.0,-0.0,0.0,0.25,0.47851557600000005,0.01,0.0,-441.0,0.0,0.0,0.0,0.0,0.0,3.331298487,0.01,0.0012207030000004337,408.0,0.0,0.0,-0.0,0.0,0.25,1.718749824,0.01,-0.014648435999999876,0.47999998927116394,-0.5199999809265137,1.659999966621399,-0.0120849609375,0.0101318359375,1.0216064453125,36.7599983215332,0.0,-2.0,-0.2178497314453125,-0.094207763671875,Closing,0.0,0.0,0.0,0.0,0.0,0.0,0.0,0.0,
0.32696199999999953,0.0,0.0,424.0,0.0,0.0,0.0,0.0,0.25,0.865478427,0.01,0.0,173.0,0.0,0.0,-0.0,0.0,0.25,0.47851557600000005,0.01,0.0,-441.0,0.0,0.0,0.0,0.0,0.0,3.330077784,0.01,0.0012207030000004337,408.0,0.0,0.0,-0.0,0.0,0.25,1.7089842000000002,0.01,-0.014648436000000098,0.49000000953674316,-0.5199999809265137,1.659999966621399,-0.01251220703125,0.00860595703125,1.0108642578125,36.7599983215332,0.0,-3.0,-0.2178497314453125,-0.094207763671875,Closing,0.0,0.0,0.0,0.0,0.0,0.0,0.0,0.0,
0.3560439999999944,0.0,0.0,424.0,0.0,0.0,0.0,0.0,0.25,0.865478427,0.01,0.0,173.0,0.0,0.0,-0.0,0.0,0.25,0.47973627900000004,0.01,0.0,-441.0,0.0,0.0,0.0,0.0,0.0,3.331298487,0.01,0.0,408.0,0.0,0.0,-0.0,0.0,0.25,1.704101388,0.01,-0.014648436000000098,0.49000000953674316,-0.5199999809265137,1.659999966621399,-0.00994873046875,0.0074462890625,1.01531982421875,36.7599983215332,0.0,0.0,-0.2178497314453125,-0.094207763671875,Closing,0.0,0.0,0.0,0.0,0.0,0.0,0.0,0.0,
0.38670999999999184,0.0,0.0,424.0,0.0,0.0,0.0,0.0,0.25,0.865478427,0.01,0.0,173.0,0.0,0.0,-0.0,0.0,0.25,0.47851557600000005,0.01,0.0,-441.0,0.0,0.0,0.0,0.0,0.0,3.330077784,0.01,-0.0024414059999999793,408.0,0.0,0.0,-0.0,0.0,0.25,1.699218576,0.01,-0.014648436000000098,0.49000000953674316,-0.5199999809265137,1.659999966621399,-0.00689697265625,0.00750732421875,1.01690673828125,36.7599983215332,0.0,2.0,-0.2178497314453125,-0.094207763671875,Closing,0.0,0.0,0.0,0.0,0.0,0.0,0.0,0.0,
0.41472399999998744,0.0,0.0,424.0,0.0,0.0,0.0,0.0,0.25,0.864257724,0.01,0.0,173.0,0.0,0.0,-0.0,0.0,0.25,0.47851557600000005,0.01,0.0,-441.0,0.0,0.0,0.0,0.0,0.0,3.331298487,0.01,-0.0024414059999999793,408.0,0.0,0.0,-0.0,0.0,0.25,1.699218576,0.01,-0.014648436000000098,0.49000000953674316,-0.5199999809265137,1.659999966621399,-0.00848388671875,0.012451171875,1.025146484375,36.7599983215332,0.0,0.0,-0.2178497314453125,-0.094207763671875,Closing,0.0,0.0,0.0,0.0,0.0,0.0,0.0,0.0,
0.4447619999999879,0.0,0.0,424.0,0.0,0.0,0.0,0.0,0.25,0.865478427,0.01,0.0012207029999999897,173.0,0.0,0.0,-0.0,0.0,0.25,0.47851557600000005,0.01,0.0,-441.0,0.0,0.0,0.0,0.0,0.0,3.3264156750000002,0.01,0.0024414059999999793,408.0,0.0,0.0,-0.0,0.0,0.25,1.699218576,0.01,-0.004882811999999959,0.49000000953674316,-0.5199999809265137,1.659999966621399,-0.00897216796875,0.0101318359375,1.020751953125,36.7599983215332,0.0,0.0,-0.2178497314453125,-0.094207763671875,Closing,0.0,0.0,0.0,0.0,0.0,0.0,0.0,0.0,
0.4743929999999964,0.0,0.0,424.0,0.0,0.0,0.0,0.0,0.25,0.864257724,0.01,0.0012207029999999897,173.0,0.0,0.0,-0.0,0.0,0.25,0.47851557600000005,0.01,0.0,-441.0,0.0,0.0,0.0,0.0,0.0,3.3264156750000002,0.01,0.0024414059999999793,408.0,0.0,0.0,-0.0,0.0,0.25,1.700439279,0.01,0.0,0.49000000953674316,-0.5199999809265137,1.659999966621399,-0.01068115234375,0.009765625,1.02099609375,36.7599983215332,0.0,-1.0,-0.2178497314453125,-0.094207763671875,Closing,0.0,0.0,0.0,0.0,0.0,0.0,0.0,0.0,
0.5074879999999976,0.0,0.0,424.0,0.0,0.0,0.0,0.0,0.25,0.864257724,0.01,-0.0012207029999999897,173.0,0.0,0.0,-0.0,0.0,0.25,0.47973627900000004,0.01,0.0,-441.0,0.0,0.0,0.0,0.0,0.0,3.331298487,0.01,-0.0012207030000004337,408.0,0.0,0.0,-0.0,0.0,0.25,1.699218576,0.01,0.0,0.49000000953674316,-0.5199999809265137,1.659999966621399,-0.01318359375,0.00823974609375,1.01708984375,36.7599983215332,0.0,-3.0,-0.2178497314453125,-0.094207763671875,Closing,0.0,0.0,0.0,0.0,0.0,0.0,0.0,0.0,
0.5325169999999926,0.0,0.0,424.0,0.0,0.0,0.0,0.0,0.25,0.864257724,0.01,0.0,173.0,0.0,0.0,-0.0,0.0,0.25,0.47851557600000005,0.01,0.0,-441.0,0.0,0.0,0.0,0.0,0.0,3.3264156750000002,0.01,0.0,408.0,0.0,0.0,-0.0,0.0,0.25,1.699218576,0.01,0.0,0.49000000953674316,-0.5199999809265137,1.659999966621399,-0.00970458984375,0.006103515625,1.0155029296875,36.7599983215332,0.0,0.0,-0.2178497314453125,-0.094207763671875,Closing,0.0,0.0,0.0,0.0,0.0,0.0,0.0,0.0,
0.563476999999999,0.0,0.0,424.0,0.0,0.0,0.0,0.0,0.25,0.864257724,0.01,0.0,173.0,0.0,0.0,-0.0,0.0,0.25,0.47973627900000004,0.01,0.0,-441.0,0.0,0.0,0.0,0.0,0.0,3.3264156750000002,0.01,0.0,408.0,0.0,0.0,-0.0,0.0,0.25,1.700439279,0.01,0.0,0.49000000953674316,-0.5199999809265137,1.659999966621399,-0.0076904296875,0.01043701171875,1.02484130859375,36.7599983215332,0.0,1.0,-0.2178497314453125,-0.094207763671875,Closing,0.0,0.0,0.0,0.0,0.0,0.0,0.0,0.0,
0.5907799999999989,0.0,0.0,424.0,0.0,0.0,0.0,0.0,0.25,0.8679198330000001,0.01,0.0,173.0,0.0,0.0,-0.0,0.0,0.25,0.47973627900000004,0.01,0.0,-441.0,0.0,0.0,0.0,0.0,0.0,3.331298487,0.01,0.0012207030000004337,408.0,0.0,0.0,-0.0,0.0,0.25,1.699218576,0.01,0.0,0.49000000953674316,-0.5199999809265137,1.659999966621399,-0.01068115234375,0.0064697265625,1.0211181640625,36.7599983215332,0.0,-1.0,-0.2178497314453125,-0.094207763671875,Closing,0.0,0.0,0.0,0.0,0.0,0.0,0.0,0.0,
0.6267299999999959,0.0,0.0,424.0,0.0,0.0,0.0,0.0,0.25,0.864257724,0.01,0.0,173.0,0.0,0.0,-0.0,0.0,0.25,0.47851557600000005,0.01,0.0,-441.0,0.0,0.0,0.0,0.0,0.0,3.3264156750000002,0.01,0.0012207030000004337,408.0,0.0,0.0,-0.0,0.0,0.25,1.700439279,0.01,0.0,0.49000000953674316,-0.5199999809265137,1.659999966621399,-0.00958251953125,0.01055908203125,1.0196533203125,36.7599983215332,0.0,0.0,-0.2178497314453125,-0.094207763671875,Closing,0.0,0.0,0.0,0.0,0.0,0.0,0.0,0.0,
0.6563429999999935,0.0,0.0,424.0,0.0,0.0,0.0,0.0,0.25,0.865478427,0.01,0.0,173.0,0.0,0.0,-0.0,0.0,0.25,0.47851557600000005,0.01,0.0,-441.0,0.0,0.0,0.0,0.0,0.0,3.330077784,0.01,-0.0024414059999999793,408.0,0.0,0.0,-0.0,0.0,0.25,1.700439279,0.01,0.0,0.49000000953674316,-0.5199999809265137,1.659999966621399,-0.00689697265625,0.0101318359375,1.022705078125,36.7599983215332,0.0,2.0,-0.2178497314453125,-0.094207763671875,Closing,0.0,0.0,0.0,0.0,0.0,0.0,0.0,0.0,
0.6887909999999975,0.0,0.0,424.0,0.0,0.0,0.0,0.0,0.25,0.865478427,0.01,0.0,173.0,0.0,0.0,-0.0,0.0,0.25,0.47851557600000005,0.01,0.0,-441.0,0.0,0.0,0.0,0.0,0.0,3.3264156750000002,0.01,0.0,408.0,0.0,0.0,-0.0,0.0,0.25,1.699218576,0.01,0.0,0.49000000953674316,-0.5199999809265137,1.659999966621399,-0.0091552734375,0.007080078125,1.01904296875,36.7599983215332,0.0,0.0,-0.2178497314453125,-0.094207763671875,Closing,0.0,0.0,0.0,0.0,0.0,0.0,0.0,0.0,
0.7182409999999946,0.0,0.0,424.0,0.0,0.0,0.0,0.0,0.25,0.864257724,0.01,0.0,173.0,0.0,0.0,-0.0,0.0,0.25,0.47851557600000005,0.01,0.0,-441.0,0.0,0.0,0.0,0.0,0.0,3.331298487,0.01,0.0,408.0,0.0,0.0,-0.0,0.0,0.25,1.699218576,0.01,0.0,0.49000000953674316,-0.5199999809265137,1.659999966621399,-0.01007080078125,0.00811767578125,1.01593017578125,36.7599983215332,0.0,0.0,-0.2178497314453125,-0.094207763671875,Closing,0.0,0.0,0.0,0.0,0.0,0.0,0.0,0.0,
0.752076000000001,0.0,0.0,424.0,0.0,0.0,0.0,0.0,0.25,0.865478427,0.01,0.0,173.0,0.0,0.0,-0.0,0.0,0.25,0.47851557600000005,0.01,0.0,-441.0,0.0,0.0,0.0,0.0,0.0,3.3264156750000002,0.01,0.0012207029999995456,408.0,0.0,0.0,-0.0,0.0,0.25,1.700439279,0.01,0.0,0.49000000953674316,-0.5199999809265137,1.659999966621399,-0.01104736328125,0.01092529296875,1.02032470703125,36.75,0.0,-1.0,-0.2178497314453125,-0.094207763671875,Closing,0.0,0.0,0.0,0.0,0.0,0.0,0.0,0.0,
0.777125,0.0,0.0,424.0,0.0,0.0,0.0,0.0,0.25,0.865478427,0.01,0.0,173.0,0.0,0.0,-0.0,0.0,0.25,0.47851557600000005,0.01,0.0,-441.0,0.0,0.0,0.0,0.0,0.0,3.3264156750000002,0.01,-0.0012207029999995456,408.0,0.0,0.0,-0.0,0.0,0.25,1.699218576,0.01,0.0,0.49000000953674316,-0.5199999809265137,1.659999966621399,-0.00885009765625,0.00811767578125,1.0250244140625,36.75,0.0,0.0,-0.2178497314453125,-0.094207763671875,Closing,0.0,0.0,0.0,0.0,0.0,0.0,0.0,0.0,
0.8117589999999909,0.0,0.0,424.0,0.0,0.0,0.0,0.0,0.25,0.864257724,0.01,0.0,173.0,0.0,0.0,-0.0,0.0,0.25,0.482177685,0.01,0.0,-441.0,0.0,0.0,0.0,0.0,0.0,3.331298487,0.01,-0.0012207029999995456,408.0,0.0,0.0,-0.0,0.0,0.25,1.700439279,0.01,0.0,0.49000000953674316,-0.5199999809265137,1.659999966621399,-0.0098876953125,0.0096435546875,1.01837158203125,36.75,0.0,0.0,-0.2178497314453125,-0.094207763671875,Closing,0.0,0.0,0.0,0.0,0.0,0.0,0.0,0.0,
0.837833999999988,0.0,0.0,424.0,0.0,0.0,0.0,0.0,0.25,0.8691405360000001,0.01,0.0,173.0,0.0,0.0,-0.0,0.0,0.25,0.47851557600000005,0.01,0.0,-441.0,0.0,0.0,0.0,0.0,0.0,3.331298487,0.01,0.0,408.0,0.0,0.0,-0.0,0.0,0.25,1.699218576,0.01,0.0,0.47999998927116394,-0.5199999809265137,1.659999966621399,-0.00860595703125,0.0078125,1.01678466796875,36.75,0.0,0.0,-0.2178497314453125,-0.094207763671875,Closing,0.0,0.0,0.0,0.0,0.0,0.0,0.0,0.0,
0.8719719999999943,0.0,0.0,424.0,0.0,0.0,0.0,0.0,0.25,0.865478427,0.01,0.0,173.0,0.0,0.0,-0.0,0.0,0.25,0.47851557600000005,0.01,0.0,-441.0,0.0,0.0,0.0,0.0,0.0,3.3264156750000002,0.01,0.0,408.0,0.0,0.0,-0.0,0.0,0.25,1.699218576,0.01,0.0,0.47999998927116394,-0.5199999809265137,1.659999966621399,-0.00750732421875,0.00653076171875,1.02545166015625,36.75,0.0,1.0,-0.2178497314453125,-0.094207763671875,Closing,0.0,0.0,0.0,0.0,0.0,0.0,0.0,0.0,
0.9063940000000003,0.0,0.0,424.0,0.0,0.0,0.0,0.0,0.25,0.864257724,0.01,0.0012207029999999897,173.0,0.0,0.0,-0.0,0.0,0.25,0.47851557600000005,0.01,0.0,-441.0,0.0,0.0,0.0,0.0,0.0,3.330077784,0.01,0.0012207029999995456,408.0,0.0,0.0,-0.0,0.0,0.25,1.699218576,0.01,0.0,0.49000000953674316,-0.5199999809265137,1.659999966621399,-0.009765625,0.00921630859375,1.02191162109375,36.75,0.0,0.0,-0.2178497314453125,-0.094207763671875,Closing,0.0,0.0,0.0,0.0,0.0,0.0,0.0,0.0,
0.9328569999999891,0.0,0.0,424.0,0.0,0.0,0.0,0.0,0.25,0.864257724,0.01,-0.0012207029999999897,173.0,0.0,0.0,-0.0,0.0,0.25,0.47851557600000005,0.01,0.0,-441.0,0.0,0.0,0.0,0.0,0.0,3.330077784,0.01,0.0,408.0,0.0,0.0,-0.0,0.0,0.25,1.700439279,0.01,0.0,0.49000000953674316,-0.5199999809265137,1.659999966621399,-0.00762939453125,0.00927734375,1.01605224609375,36.75,0.0,0.0,-0.2178497314453125,-0.094207763671875,Closing,0.0,0.0,0.0,0.0,0.0,0.0,0.0,0.0,
0.9698499999999912,0.0,0.0,424.0,0.0,0.0,0.0,0.0,0.25,0.8666991300000001,0.01,-0.0012207029999999897,173.0,0.0,0.0,-0.0,0.0,0.25,0.47973627900000004,0.01,0.0,-441.0,0.0,0.0,0.0,0.0,0.0,3.330077784,0.01,0.0,408.0,0.0,0.0,-0.0,0.0,0.25,1.699218576,0.01,0.0,0.47999998927116394,-0.5199999809265137,1.659999966621399,-0.01019287109375,0.0091552734375,1.01971435546875,36.75,0.0,0.0,-0.2178497314453125,-0.094207763671875,Closing,0.0,0.0,0.0,0.0,0.0,0.0,0.0,0.0,
1.0033070000000006,0.0,0.0,424.0,0.0,0.0,0.0,0.0,0.25,0.865478427,0.01,0.0,173.0,0.0,0.0,-0.0,0.0,0.25,0.47973627900000004,0.01,0.0,-441.0,0.0,0.0,0.0,0.0,0.0,3.3264156750000002,0.01,0.0012207030000004337,408.0,0.0,0.0,-0.0,0.0,0.25,1.699218576,0.01,0.0,0.47999998927116394,-0.5199999809265137,1.659999966621399,-0.00994873046875,0.00927734375,1.02001953125,36.75,0.0,0.0,-0.2178497314453125,-0.094207763671875,Closing,0.0,0.0,0.0,0.0,0.0,0.0,0.0,0.0,
1.0323719999999885,0.0,0.0,424.0,0.0,0.0,0.0,0.0,0.25,0.8666991300000001,0.01,0.0,173.0,0.0,0.0,-0.0,0.0,0.25,0.47851557600000005,0.01,0.0,-441.0,0.0,0.0,0.0,0.0,0.0,3.3251949720000002,0.01,0.0,408.0,0.0,0.0,-0.0,0.0,0.25,1.699218576,0.01,0.0,0.47999998927116394,-0.5199999809265137,1.659999966621399,-0.00787353515625,0.00830078125,1.0140380859375,36.75,0.0,1.0,-0.2178497314453125,-0.094207763671875,Closing,0.0,0.0,0.0,0.0,0.0,0.0,0.0,0.0,
1.0678029999999998,0.0,0.0,424.0,0.0,0.0,0.0,0.0,0.25,0.8813475660000001,0.01,0.0,173.0,0.0,0.0,-0.0,0.0,0.25,0.47851557600000005,0.01,0.0,-441.0,0.0,0.0,0.0,0.0,0.0,3.3264156750000002,0.01,0.0,408.0,0.0,0.0,-0.0,0.0,0.25,1.699218576,0.01,0.0,0.47999998927116394,-0.5199999809265137,1.659999966621399,-0.01092529296875,0.0086669921875,1.02252197265625,36.75,0.0,-1.0,-0.2178497314453125,-0.094207763671875,Closing,0.0,0.0,0.0,0.0,0.0,0.0,0.0,0.0,
1.0950589999999938,0.0,0.0,424.0,0.0,0.0,0.0,0.0,0.25,0.864257724,0.01,0.0012207029999999897,173.0,0.0,0.0,-0.0,0.0,0.25,0.47851557600000005,0.01,-0.0012207030000004337,-441.0,0.0,0.0,0.0,0.0,0.0,3.3251949720000002,0.01,-0.0012207030000004337,408.0,0.0,0.0,-0.0,0.0,0.25,1.700439279,0.01,0.0,0.47999998927116394,-0.5199999809265137,1.659999966621399,-0.0079345703125,0.007080078125,1.0194091796875,36.75,0.0,1.0,-0.2178497314453125,-0.094207763671875,Closing,0.0,0.0,0.0,0.0,0.0,0.0,0.0,0.0,
1.133402999999991,0.0,0.0,424.0,0.0,0.0,0.0,0.0,0.25,0.860595615,0.01,-0.0012207029999999897,173.0,0.0,0.0,-0.0,0.0,0.25,0.47851557600000005,0.01,0.0012207030000004337,-441.0,0.0,0.0,0.0,0.0,0.0,3.330077784,0.01,-0.0012207029999995456,408.0,0.0,0.0,-0.0,0.0,0.25,1.700439279,0.01,0.0,0.47999998927116394,-0.5199999809265137,1.659999966621399,-0.010009765625,0.0057373046875,1.02203369140625,36.75,0.0,0.0,-0.2178497314453125,-0.094207763671875,Closing,0.0,0.0,0.0,0.0,0.0,0.0,0.0,0.0,
1.169284999999989,0.0,0.0,424.0,0.0,0.0,0.0,0.0,0.25,0.8666991300000001,0.01,-0.0012207029999999897,173.0,0.0,0.0,-0.0,0.0,0.25,0.47973627900000004,0.01,0.0012207030000004337,-441.0,0.0,0.0,0.0,0.0,0.0,3.331298487,0.01,-0.0012207029999995456,408.0,0.0,0.0,-0.0,0.0,0.25,1.699218576,0.01,0.0,0.49000000953674316,-0.5199999809265137,1.659999966621399,-0.0086669921875,0.00640869140625,1.01812744140625,36.75,0.0,0.0,-0.2178497314453125,-0.094207763671875,Closing,0.0,0.0,0.0,0.0,0.0,0.0,0.0,0.0,
1.195560999999987,0.0,0.0,424.0,0.0,0.0,0.0,0.0,0.25,0.864257724,0.01,0.0012207029999999897,173.0,0.0,0.0,-0.0,0.0,0.25,0.47851557600000005,0.01,0.0,-441.0,0.0,0.0,0.0,0.0,0.0,3.330077784,0.01,0.0,408.0,0.0,0.0,-0.0,0.0,0.25,1.704101388,0.01,0.0,0.49000000953674316,-0.5199999809265137,1.659999966621399,-0.00848388671875,0.008544921875,1.01678466796875,36.75,0.0,0.0,-0.2178497314453125,-0.094207763671875,Closing,0.0,0.0,0.0,0.0,0.0,0.0,0.0,0.0,
1.2332779999999912,0.0,0.0,424.0,0.0,0.0,0.0,0.0,0.25,0.864257724,0.01,-0.0012207029999999897,173.0,0.0,0.0,-0.0,0.0,0.25,0.47851557600000005,0.01,0.0,-441.0,0.0,0.0,0.0,0.0,0.0,3.3264156750000002,0.01,0.0,408.0,0.0,0.0,-0.0,0.0,0.25,1.699218576,0.01,0.0,0.49000000953674316,-0.5199999809265137,1.659999966621399,-0.01153564453125,0.00830078125,1.0198974609375,36.75,0.0,-2.0,-0.2178497314453125,-0.094207763671875,Closing,0.0,0.0,0.0,0.0,0.0,0.0,0.0,0.0,
1.2683109999999869,0.0,0.0,424.0,0.0,0.0,0.0,0.0,0.25,0.865478427,0.01,-0.0012207029999999897,173.0,0.0,0.0,-0.0,0.0,0.25,0.47973627900000004,0.01,0.0,-441.0,0.0,0.0,0.0,0.0,0.0,3.3264156750000002,0.01,0.0,408.0,0.0,0.0,-0.0,0.0,0.25,1.699218576,0.01,0.0,0.49000000953674316,-0.5199999809265137,1.659999966621399,-0.01068115234375,0.01025390625,1.01116943359375,36.790000915527344,0.0,-1.0,-0.2178497314453125,-0.094207763671875,Closing,0.0,0.0,0.0,0.0,0.0,0.0,0.0,0.0,
1.29548599999999,0.0,0.0,424.0,0.0,0.0,0.0,0.0,0.25,0.865478427,0.01,0.0,173.0,0.0,0.0,-0.0,0.0,0.25,0.47851557600000005,0.01,0.0,-441.0,0.0,0.0,0.0,0.0,0.0,3.3264156750000002,0.01,0.0012207029999995456,408.0,0.0,0.0,-0.0,0.0,0.25,1.699218576,0.01,0.0,0.49000000953674316,-0.5199999809265137,1.659999966621399,-0.00946044921875,0.008544921875,1.01763916015625,36.790000915527344,0.0,0.0,-0.2178497314453125,-0.094207763671875,Closing,0.0,0.0,0.0,0.0,0.0,0.0,0.0,0.0,
1.3372519999999932,0.0,0.0,424.0,0.0,0.0,0.0,0.0,0.25,0.8691405360000001,0.01,0.0,173.0,0.0,0.0,-0.0,0.0,0.25,0.47363276400000004,0.01,0.0,-441.0,0.0,0.0,0.0,0.0,0.0,3.3264156750000002,0.01,-0.0012207029999995456,408.0,0.0,0.0,-0.0,0.0,0.25,1.700439279,0.01,0.0,0.49000000953674316,-0.5199999809265137,1.659999966621399,-0.0086669921875,0.01019287109375,1.021728515625,36.790000915527344,0.0,0.0,-0.2178497314453125,-0.094207763671875,Closing,0.0,0.0,0.0,0.0,0.0,0.0,0.0,0.0,
1.3717649999999995,0.0,0.0,424.0,0.0,0.0,0.0,0.0,0.25,0.865478427,0.01,0.0,173.0,0.0,0.0,-0.0,0.0,0.25,0.477294873,0.01,0.0,-441.0,0.0,0.0,0.0,0.0,0.0,3.3251949720000002,0.01,-0.0012207029999995456,408.0,0.0,0.0,-0.0,0.0,0.25,1.699218576,0.01,0.0,0.49000000953674316,-0.5199999809265137,1.659999966621399,-0.00714111328125,0.0078125,1.020751953125,36.790000915527344,0.0,2.0,-0.2178497314453125,-0.094207763671875,Closing,0.0,0.0,0.0,0.0,0.0,0.0,0.0,0.0,
1.4054579999999988,0.0,0.0,424.0,0.0,0.0,0.0,0.0,0.25,0.865478427,0.01,0.0,173.0,0.0,0.0,-0.0,0.0,0.25,0.47607417,0.01,-0.0012207030000004337,-441.0,0.0,0.0,0.0,0.0,0.0,3.3264156750000002,0.01,0.0,408.0,0.0,0.0,-0.0,0.0,0.25,1.699218576,0.01,0.0,0.49000000953674316,-0.5199999809265137,1.659999966621399,-0.01416015625,0.008544921875,1.01654052734375,36.790000915527344,0.0,-4.0,-0.2178497314453125,-0.094207763671875,Closing,0.0,0.0,0.0,0.0,0.0,0.0,0.0,0.0,
1.4343739999999963,0.0,0.0,424.0,0.0,0.0,0.0,0.0,0.25,0.864257724,0.01,0.0,173.0,0.0,0.0,-0.0,0.0,0.25,0.47851557600000005,0.01,0.0012207030000004337,-441.0,0.0,0.0,0.0,0.0,0.0,3.328857081,0.01,0.0024414059999999793,408.0,0.0,0.0,-0.0,0.0,0.25,1.700439279,0.01,0.0,0.49000000953674316,-0.5199999809265137,1.659999966621399,-0.009521484375,0.0093994140625,1.02044677734375,36.790000915527344,0.0,0.0,-0.2178497314453125,-0.094207763671875,Closing,0.0,0.0,0.0,0.0,0.0,0.0,0.0,0.0,
1.469107999999993,0.0,0.0,424.0,0.0,0.0,0.0,0.0,0.25,0.865478427,0.01,0.0,173.0,0.0,0.0,-0.0,0.0,0.25,0.47851557600000005,0.01,0.0012207030000004337,-441.0,0.0,0.0,0.0,0.0,0.0,3.330077784,0.01,0.0024414059999999793,408.0,0.0,0.0,-0.0,0.0,0.25,1.699218576,0.01,0.0,0.49000000953674316,-0.5199999809265137,1.659999966621399,-0.00970458984375,0.008544921875,1.0157470703125,36.790000915527344,0.0,0.0,-0.2178497314453125,-0.094207763671875,Closing,0.0,0.0,0.0,0.0,0.0,0.0,0.0,0.0,
1.4961459999999933,0.0,0.0,424.0,0.0,0.0,0.0,0.0,0.25,0.865478427,0.01,0.0012207029999999897,173.0,0.0,0.0,-0.0,0.0,0.25,0.47973627900000004,0.01,-0.0012207030000004337,-441.0,0.0,0.0,0.0,0.0,0.0,3.3264156750000002,0.01,-0.0012207030000004337,408.0,0.0,0.0,-0.0,0.0,0.25,1.699218576,0.01,0.0,0.49000000953674316,-0.5199999809265137,1.659999966621399,-0.00933837890625,0.01165771484375,1.0166015625,36.790000915527344,0.0,0.0,-0.2178497314453125,-0.094207763671875,Closing,0.0,0.0,0.0,0.0,0.0,0.0,0.0,0.0,
1.530205999999991,0.0,0.0,424.0,0.0,0.0,0.0,0.0,0.25,0.865478427,0.01,0.0012207029999999897,173.0,0.0,0.0,-0.0,0.0,0.25,0.47851557600000005,0.01,-0.0012207030000004337,-441.0,0.0,0.0,0.0,0.0,0.0,3.330077784,0.01,0.0,408.0,0.0,0.0,-0.0,0.0,0.25,1.700439279,0.01,0.0,0.49000000953674316,-0.5199999809265137,1.659999966621399,-0.00927734375,0.00701904296875,1.0220947265625,36.790000915527344,0.0,0.0,-0.2178497314453125,-0.094207763671875,Closing,0.0,0.0,0.0,0.0,0.0,0.0,0.0,0.0,
1.5630149999999994,0.0,0.0,424.0,0.0,0.0,0.0,0.0,0.25,0.865478427,0.01,0.0,173.0,0.0,0.0,-0.0,0.0,0.25,0.47973627900000004,0.01,0.0012207030000004337,-441.0,0.0,0.0,0.0,0.0,0.0,3.331298487,0.01,0.0,408.0,0.0,0.0,-0.0,0.0,0.25,1.700439279,0.01,0.0,0.49000000953674316,-0.5299999713897705,1.659999966621399,-0.0098876953125,0.0108642578125,1.01763916015625,36.790000915527344,0.0,0.0,-0.2178497314453125,-0.094207763671875,Closing,0.0,0.0,0.0,0.0,0.0,0.0,0.0,0.0,
1.5918919999999925,0.0,0.0,424.0,0.0,0.0,0.0,0.0,0.25,0.865478427,0.01,-0.0012207029999999897,173.0,0.0,0.0,-0.0,0.0,0.25,0.47607417,0.01,0.0,-441.0,0.0,0.0,0.0,0.0,0.0,3.33251919,0.01,0.0,408.0,0.0,0.0,-0.0,0.0,0.25,1.699218576,0.01,0.0,0.49000000953674316,-0.5299999713897705,1.659999966621399,-0.00921630859375,0.01019287109375,1.02227783203125,36.790000915527344,0.0,0.0,-0.2178497314453125,-0.094207763671875,Closing,0.0,0.0,0.0,0.0,0.0,0.0,0.0,0.0,
1.627947,0.0,0.0,424.0,0.0,0.0,0.0,0.0,0.25,0.863037021,0.01,-0.0012207029999999897,173.0,0.0,0.0,-0.0,0.0,0.25,0.47851557600000005,0.01,0.0,-441.0,0.0,0.0,0.0,0.0,0.0,3.3264156750000002,0.01,0.0,408.0,0.0,0.0,-0.0,0.0,0.25,1.699218576,0.01,0.0,0.49000000953674316,-0.5299999713897705,1.659999966621399,-0.0103759765625,0.0074462890625,1.02154541015625,36.790000915527344,0.0,0.0,-0.2178497314453125,-0.094207763671875,Closing,0.0,0.0,0.0,0.0,0.0,0.0,0.0,0.0,
1.6618410000000003,0.0,0.0,424.0,0.0,0.0,-611.8110448122025,0.0,0.25,0.865478427,0.5498168668524864,0.0,173.0,0.25,0.0,-611.8110448122025,0.0,0.25,0.47851557600000005,4.41043958977222,-0.0012207030000004337,-441.0,0.125,0.0,-611.8110448122025,0.0,0.0,3.337402002,4.389674732977291,0.0,408.0,0.125,0.0,-611.8110448122025,0.0,0.25,1.705322091,0.552687206278561,0.0,0.49000000953674316,-0.5199999809265137,1.659999966621399,-0.0089111328125,0.01416015625,1.0177001953125,36.790000915527344,0.0,0.0,-0.2178497314453125,-0.094207763671875,Closing,0.0,0.0,0.0,0.0,0.0,0.0,0.0,0.0,
1.6922569999999977,0.0,0.0,424.0,0.75,0.0,-1570.8661437034607,0.0,0.25,0.861816318,0.5498168668524864,0.0,173.0,0.625,-7.5,-1570.8661437034607,0.0,0.25,0.47851557600000005,4.41043958977222,0.0,-441.0,0.625,0.0,-1570.8661437034607,0.0,0.625,3.3215328630000003,4.389674732977291,0.0,395.0,4.0,-15.0,-1570.8661437034607,0.0,1.0,1.718749824,0.5526872062785609,0.0,0.49000000953674316,-0.550000011920929,1.659999966621399,-0.03863525390625,-0.0712890625,1.027587890625,36.790000915527344,0.0,-31.0,-0.2178802490234375,-0.094268798828125,Closing,0.0,0.0,0.0,0.0,0.0,0.0,0.0,0.0,
1.7274709999999904,0.0,0.0,412.0,4.625,-22.5,-1719.68509554863,0.0,1.375,0.937499904,0.5498168668524864,0.009765624000000028,149.0,7.25,-120.0,-1719.68509554863,0.0,1.75,0.469970655,4.41043958977222,0.0012207030000004337,-447.0,7.625,-22.5,-1719.68509554863,0.0,1.375,3.2568356040000004,4.389674732977291,-0.007324217999999938,395.0,8.125,-60.0,-1719.68509554863,0.0,1.375,1.849365045,0.552687206278561,0.0,0.5199999809265137,-0.5799999833106995,2.009999990463257,0.09259033203125,-0.14593505859375,0.92852783203125,36.790000915527344,0.0,96.0,-0.2179718017578125,-0.0938720703125,Closing,0.0,0.0,0.0,0.0,0.0,0.0,0.0,0.0,
1.7575339999999997,0.0,0.0,412.0,12.875,-97.5,-1488.1890177726746,0.0,1.5,1.0314940350000001,0.5498168668524864,0.10742186399999998,149.0,12.875,-202.5,-1488.1890177726746,0.0,1.75,0.412597614,4.41043958977222,-0.010986327000000351,-447.0,12.5,-90.0,-1488.1890177726746,0.0,1.25,3.1518551460000004,4.389674732977291,-0.07812499200000023,395.0,16.0,-157.5,-1488.1890177726746,0.0,0.75,1.8725584020000001,0.552687206278561,0.11596678500000013,0.44999998807907104,-0.5299999713897705,2.3499999046325684,-0.0684814453125,-0.0362548828125,0.73944091796875,36.790000915527344,0.0,-63.0,-0.2179718017578125,-0.0937347412109375,Closing,0.0,0.0,0.0,0.0,0.0,0.0,0.0,0.0,
1.7908929999999963,0.0,0.0,412.0,13.75,-187.5,-1041.7322874069216,0.0,0.5,1.148681523,0.5498168668524864,0.0,149.0,14.875,-330.0,-1041.7322874069216,0.0,0.5,0.28076169,4.41043958977222,0.0,-447.0,15.875,-135.0,-1041.7322874069216,0.0,0.625,3.024902034,4.389674732977291,0.0,395.0,17.0,-202.5,-1041.7322874069216,0.0,0.375,1.9934079990000002,0.552687206278561,0.0,0.5099999904632568,-0.6800000071525574,3.200000047683716,0.0421142578125,-0.0352783203125,1.33209228515625,36.7599983215332,0.0,55.0,-0.21807861328125,-0.093353271484375,Closing,0.0,0.0,0.0,0.0,0.0,0.0,0.0,0.0,
1.828833999999988,0.0,0.0,412.0,12.0,-202.5,0.0,0.0,0.5,1.2402342480000002,0.5498168668524864,0.0,81.0,7.5,-397.5,0.0,0.0,0.5,0.17089842,4.41043958977222,0.0,-498.0,9.375,-277.5,0.0,0.0,0.375,2.922362982,4.389674732977291,0.0,349.0,11.25,-270.0,0.0,0.0,0.625,2.088622833,0.552687206278561,0.12817381500000002,0.46000000834465027,-0.5799999833106995,4.659999847412109,0.10784912109375,-0.0537109375,1.11181640625,36.7599983215332,0.0,113.0,-0.2178192138671875,-0.0931549072265625,Closing,0.0,0.0,0.0,0.0,0.0,0.0,0.0,0.0,
1.8605219999999971,0.0,0.0,377.0,3.125,-210.0,0.0,0.0,0.5,1.2951658830000001,0.5498168668524864,0.12573240900000004,81.0,4.0,-405.0,0.0,0.0,0.5,0.057373041,4.41043958977222,-0.13061522099999934,-498.0,5.5,-337.5,0.0,0.0,0.25,2.8503415050000003,4.389674732977291,-0.1269531119999998,349.0,6.375,-292.5,0.0,0.0,0.375,2.141113062,0.552687206278561,0.12817381500000002,0.46000000834465027,-0.47999998927116394,5.71999979019165,0.01055908203125,0.01434326171875,1.0274658203125,36.7599983215332,0.0,19.0,-0.217193603515625,-0.09307861328125,Closing,0.0,0.0,0.0,0.0,0.0,0.0,0.0,0.0,
1.8901489999999903,0.0,0.0,377.0,0.25,-187.5,0.0,0.0,0.5,1.328124864,0.5498168668524864,0.13305662699999998,81.0,0.0,-330.0,0.0,0.0,0.25,4.9230951990000005,4.41043958977222,-0.23437497600000068,-498.0,0.0,-375.0,0.0,0.0,0.125,2.7917477610000003,4.389674732977291,-0.17822263800000027,349.0,0.0,-262.5,0.0,0.0,0.375,2.178954855,0.552687206278561,0.14526365699999988,0.5400000214576721,-0.6000000238418579,6.679999828338623,-0.045654296875,0.170166015625,1.25030517578125,36.7599983215332,0.0,-13.0,-0.216705322265625,-0.09307861328125,Closing,0.0,0.0,0.0,0.0,0.0,0.0,0.0,0.0,
1.9216619999999967,0.0,0.0,377.0,0.0,-127.5,0.0,0.0,0.5,1.337890488,0.5498168668524864,0.13305662699999998,81.0,0.0,-232.5,0.0,0.0,0.25,4.877929188,4.41043958977222,-0.23437497600000068,-498.0,0.0,-337.5,0.0,0.0,0.125,2.779540731,4.389674732977291,-0.17822263800000027,349.0,0.0,-217.5,0.0,0.0,0.25,2.203368915,0.552687206278561,0.14526365699999988,0.5099999904632568,-0.6200000047683716,7.409999847412109,0.042724609375,0.09515380859375,0.925048828125,36.7599983215332,0.0,63.0,-0.2166748046875,-0.0931549072265625,Closing,0.0,0.0,0.0,0.0,0.0,0.0,0.0,0.0,
1.9538829999999872,0.0,0.0,359.0,0.0,-120.0,0.0,0.0,0.25,1.3464354090000001,0.5498168668524864,0.03906249600000011,73.0,0.0,-67.5,0.0,0.0,0.25,4.862060049,4.41043958977222,4.838866692000001,-524.0,0.0,-187.5,0.0,0.0,0.0,2.77099581,4.389674732977291,-0.06591796199999944,322.0,0.0,-165.0,0.0,0.0,0.125,2.2180173510000003,0.552687206278561,0.036621090000000134,0.5400000214576721,-0.7300000190734863,7.96999979019165,-0.04779052734375,-0.05242919921875,1.1517333984375,36.7599983215332,0.0,-41.0,-0.2166748046875,-0.0931243896484375,Closing,0.0,0.0,0.0,0.0,0.0,0.0,0.0,0.0,
1.9854689999999973,0.0,0.0,359.0,0.0,-127.5,0.0,0.0,0.125,1.3708494690000002,0.5498168668524864,0.009765623999999917,73.0,0.0,-52.5,0.0,0.0,0.25,4.8706049700000005,4.41043958977222,-0.01342773300000033,-524.0,0.0,-127.5,0.0,0.0,0.0,2.77099581,4.389674732977291,0.0,322.0,0.0,-172.5,0.0,0.0,0.25,2.2167966480000003,0.552687206278561,0.036621090000000134,0.4300000071525574,-0.6899999976158142,8.5600004196167,-0.00628662109375,-0.02972412109375,1.00830078125,36.7599983215332,0.0,0.0,-0.2167510986328125,-0.093292236328125,Closing,0.0,0.0,0.0,0.0,0.0,0.0,0.0,0.0,
2.017572,0.0,0.0,359.0,0.0,-150.0,0.0,0.0,0.125,1.3708494690000002,0.5498168668524864,0.009765623999999917,73.0,0.0,-90.0,0.0,0.0,0.25,4.8681635640000005,4.41043958977222,-0.01342773300000033,-524.0,0.0,-37.5,0.0,0.0,0.0,2.772216513,4.389674732977291,0.0,322.0,0.0,-165.0,0.0,0.0,0.25,2.2180173510000003,0.552687206278561,0.036621090000000134,0.4399999976158142,-0.7099999785423279,8.829999923706055,-0.033203125,-0.01947021484375,1.0118408203125,36.7599983215332,0.0,-24.0,-0.2167510986328125,-0.0935211181640625,Closing,0.0,0.0,0.0,0.0,0.0,0.0,0.0,0.0,
2.052798999999999,0.0,0.0,359.0,0.0,-127.5,0.0,0.0,0.125,1.3708494690000002,0.5498168668524864,0.019531248000000057,73.0,0.0,-97.5,0.0,0.0,0.25,4.877929188,4.41043958977222,0.012207029999999897,-524.0,0.0,-22.5,0.0,0.0,0.0,2.767333701,4.389674732977291,0.0,312.0,0.0,-97.5,0.0,0.0,0.25,2.2167966480000003,0.552687206278561,0.0024414059999999793,0.4300000071525574,-0.6700000166893005,8.989999771118164,0.01446533203125,0.02069091796875,1.0606689453125,36.7599983215332,0.0,28.0,-0.21673583984375,-0.093780517578125,Closing,0.0,0.0,0.0,0.0,0.0,0.0,0.0,0.0,
2.078367999999988,0.0,0.0,346.0,0.0,-97.5,0.0,0.0,0.125,1.3708494690000002,0.5498168668524864,0.019531248000000057,62.0,0.0,-67.5,0.0,0.0,0.25,4.879149891,4.41043958977222,0.012207029999999897,-528.0,0.0,-22.5,0.0,0.0,0.0,2.766112998,4.389674732977291,0.0,312.0,0.0,-67.5,0.0,0.0,0.25,2.2180173510000003,0.552687206278561,0.0,0.44999998807907104,-0.6600000262260437,9.039999961853027,0.016357421875,0.04022216796875,0.9862060546875,36.7599983215332,0.0,32.0,-0.216552734375,-0.09375,Closing,0.0,0.0,0.0,0.0,0.0,0.0,0.0,0.0,
2.1143369999999995,0.0,0.0,346.0,0.125,-52.5,-347.2440853714943,0.0,0.125,1.3720701720000001,0.5498168668524864,0.0,62.0,0.0,-37.5,-347.2440853714943,0.0,0.25,4.882812,4.41043958977222,0.0,-528.0,0.0,-22.5,-347.2440853714943,0.0,0.0,2.767333701,4.389674732977291,0.0,312.0,0.125,-22.5,-347.2440853714943,0.0,0.25,2.2155759450000003,0.552687206278561,0.0,0.49000000953674316,-0.6399999856948853,9.010000228881836,0.00732421875,0.0234375,1.0255126953125,36.7599983215332,0.0,20.0,-0.216278076171875,-0.0935821533203125,Closing,0.0,0.0,0.0,0.0,0.0,0.0,0.0,0.0,
2.1455069999999976,0.0,0.0,346.0,0.375,-22.5,-595.2756196260452,0.0,0.125,1.364745954,0.5498168668524864,0.0,62.0,0.125,-22.5,-595.2756196260452,0.0,0.25,4.888915515,4.41043958977222,0.0,-528.0,0.375,-7.5,-595.2756196260452,0.0,0.0,2.767333701,4.389674732977291,0.0,312.0,0.375,-7.5,-595.2756196260452,0.0,0.25,2.2180173510000003,0.552687206278561,0.0,0.5,-0.6499999761581421,8.9399995803833,-0.0250244140625,-1.220703125E-4,1.04058837890625,36.7599983215332,0.0,-14.0,-0.2159576416015625,-0.0935821533203125,Closing,0.0,0.0,0.0,0.0,0.0,0.0,0.0,0.0,
2.1776809999999966,0.0,0.0,346.0,0.625,-30.0,-1124.4094133377075,0.0,0.125,1.350097518,0.5498168668524864,0.0,33.0,0.5,-37.5,-1124.4094133377075,0.0,0.25,4.89501903,4.41043958977222,0.004882811999999959,-537.0,0.625,-22.5,-1124.4094133377075,0.0,0.0,2.767333701,4.389674732977291,0.0,302.0,2.0,-30.0,-1124.4094133377075,0.0,0.25,2.2180173510000003,0.552687206278561,0.0,0.4699999988079071,-0.6299999952316284,8.850000381469727,-0.0228271484375,-0.0806884765625,1.01416015625,36.7599983215332,0.0,-25.0,-0.215972900390625,-0.093719482421875,Closing,0.0,0.0,0.0,0.0,0.0,0.0,0.0,0.0,
2.2126489999999905,0.0,0.0,326.0,3.75,-112.5,-1174.0156888961792,0.0,0.125,1.390380717,0.5498168668524864,0.0,33.0,4.25,-165.0,-1174.0156888961792,0.0,0.25,4.893798327,4.41043958977222,0.004882811999999959,-537.0,4.0,-52.5,-1174.0156888961792,0.0,0.0,2.772216513,4.389674732977291,0.004882811999999959,302.0,3.75,-67.5,-1174.0156888961792,0.0,0.25,2.232665787,0.552687206278561,-0.0012207029999999897,0.2800000011920929,-0.6899999976158142,8.989999771118164,0.09149169921875,-0.0665283203125,1.00079345703125,36.7599983215332,0.0,91.0,-0.2162933349609375,-0.09393310546875,Closing,0.0,0.0,0.0,0.0,0.0,0.0,0.0,0.0,
2.2512149999999966,0.0,0.0,326.0,4.625,-232.5,-644.8818951845169,0.0,0.125,1.3757322810000001,0.5498168668524864,0.0,33.0,7.25,-285.0,-644.8818951845169,0.0,0.125,4.893798327,4.41043958977222,0.0,-537.0,6.0,-112.5,-644.8818951845169,0.0,0.0,2.77099581,4.389674732977291,0.0,302.0,5.875,-180.0,-644.8818951845169,0.0,0.25,2.232665787,0.552687206278561,0.0,0.33000001311302185,-0.7300000190734863,9.649999618530273,-0.07611083984375,0.0426025390625,0.9254150390625,36.7599983215332,0.0,-57.0,-0.216156005859375,-0.093841552734375,Closing,0.0,0.0,0.0,0.0,0.0,0.0,0.0,0.0,
2.284570999999996,0.0,0.0,326.0,2.875,-262.5,0.0,0.0,0.125,1.3757322810000001,0.5498168668524864,0.0,33.0,5.625,-300.0,0.0,0.0,0.125,4.908446763000001,4.41043958977222,0.004882811999999959,-537.0,2.125,-142.5,0.0,0.0,0.0,2.77099581,4.389674732977291,0.0,302.0,2.375,-247.5,0.0,0.0,0.25,2.2241208660000003,0.552687206278561,-0.0012207029999999897,0.4099999964237213,-0.7400000095367432,11.15999984741211,-0.00274658203125,0.00701904296875,0.78448486328125,36.7400016784668,0.0,7.0,-0.2159576416015625,-0.0930328369140625,Closing,0.0,0.0,0.0,0.0,0.0,0.0,0.0,0.0,
2.315530999999988,0.0,0.0,285.0,0.25,-262.5,0.0,0.0,0.125,1.376952984,0.5498168668524864,0.0012207029999999897,-2.0,0.875,-255.0,0.0,0.0,0.125,4.90722606,4.41043958977222,0.004882811999999959,-561.0,0.875,-150.0,0.0,0.0,0.0,2.772216513,4.389674732977291,0.0,260.0,0.875,-255.0,0.0,0.0,0.25,2.2192380540000003,0.552687206278561,-0.0012207029999999897,0.41999998688697815,-0.7799999713897705,11.699999809265137,0.00555419921875,0.16424560546875,1.12774658203125,36.7400016784668,0.0,52.0,-0.2158203125,-0.092620849609375,Closing,0.0,0.0,0.0,0.0,0.0,0.0,0.0,0.0,
2.346254000000001,0.0,0.0,285.0,0.0,-247.5,0.0,0.0,0.125,1.3757322810000001,0.5498168668524864,0.0,-2.0,0.0,-210.0,0.0,0.0,0.125,4.908446763000001,4.41043958977222,0.009765623999999917,-561.0,0.0,-135.0,0.0,0.0,0.0,2.772216513,4.389674732977291,0.0,260.0,0.0,-187.5,0.0,0.0,0.25,2.208251727,0.552687206278561,-0.013427732999999886,0.41999998688697815,-0.699999988079071,13.199999809265137,0.036865234375,0.01031494140625,0.98980712890625,36.7400016784668,0.0,48.0,-0.215240478515625,-0.0912322998046875,Closing,0.0,0.0,0.0,0.0,0.0,0.0,0.0,0.0,
2.3748489999999873,0.0,0.0,285.0,0.0,-217.5,0.0,0.0,0.125,1.3708494690000002,0.5498168668524864,0.0,-2.0,0.0,-120.0,0.0,0.0,0.125,4.908446763000001,4.41043958977222,0.009765623999999917,-561.0,0.0,-120.0,0.0,0.0,0.0,2.766112998,4.389674732977291,0.0,260.0,0.0,-157.5,0.0,0.0,0.25,2.204589618,0.552687206278561,-0.013427732999999886,0.4099999964237213,-0.7400000095367432,13.65999984741211,-0.1187744140625,-0.1136474609375,1.08837890625,36.7400016784668,0.0,-130.0,-0.215057373046875,-0.0908050537109375,Closing,0.0,0.0,0.0,0.0,0.0,0.0,0.0,0.0,
2.409827999999994,0.0,0.0,285.0,0.0,-127.5,0.0,0.0,0.125,1.3708494690000002,0.5498168668524864,-0.004882811999999959,-2.0,0.0,-90.0,0.0,0.0,0.125,4.909667466,4.41043958977222,0.0,-561.0,0.0,-97.5,0.0,0.0,0.0,2.767333701,4.389674732977291,-0.004882811999999959,260.0,0.0,-157.5,0.0,0.0,0.25,2.199706806,0.552687206278561,-0.009765624000000361,0.3799999952316284,-0.6600000262260437,14.680000305175781,0.0523681640625,-0.0936279296875,1.01666259765625,36.7400016784668,0.0,36.0,-0.214141845703125,-0.0895843505859375,Closing,0.0,0.0,0.0,0.0,0.0,0.0,0.0,0.0,
2.4358179999999994,0.0,0.0,265.0,0.0,-97.5,0.0,0.0,0.125,1.3708494690000002,0.5498168668524864,0.0,-24.0,0.0,-127.5,0.0,0.0,0.125,4.90722606,4.41043958977222,0.0,-572.0,0.0,-60.0,0.0,0.0,0.0,2.766112998,4.389674732977291,0.0,231.0,0.0,-187.5,0.0,0.0,0.25,2.199706806,0.552687206278561,-0.009765623999999917,0.3400000035762787,-0.699999988079071,15.1899995803833,-0.05224609375,0.0892333984375,1.03558349609375,36.7400016784668,0.0,-16.0,-0.2132720947265625,-0.0888824462890625,Closing,0.0,0.0,0.0,0.0,0.0,0.0,0.0,0.0,
2.4686599999999888,0.0,0.0,265.0,0.0,-127.5,0.0,0.0,0.125,1.3708494690000002,0.5498168668524864,0.0,-24.0,0.0,-157.5,0.0,0.0,0.125,4.909667466,4.41043958977222,0.0,-572.0,0.0,-67.5,0.0,0.0,0.0,2.766112998,4.389674732977291,0.0,231.0,0.0,-195.0,0.0,0.0,0.25,2.194823994,0.552687206278561,-0.009765623999999917,0.3199999928474426,-0.7400000095367432,15.609999656677246,-0.07391357421875,-0.024169921875,0.9493408203125,36.7400016784668,0.0,-67.0,-0.2126312255859375,-0.088104248046875,Closing,0.0,0.0,0.0,0.0,0.0,0.0,0.0,0.0,
2.506653999999995,0.0,0.0,265.0,0.0,-150.0,-297.63780355453486,0.0,0.125,1.3708494690000002,4.932250999999998,0.0,-24.0,0.125,-150.0,297.63780355453486,0.0,0.75,4.913329575000001,4.963769999999998,0.0,-572.0,0.125,-82.5,-297.63780355453486,0.0,0.0,2.767333701,0.01,0.0,231.0,0.125,-157.5,297.63780355453486,0.0,0.25,2.193603291,0.01,0.0,0.33000001311302185,-0.7099999785423279,15.890000343322754,-0.03070068359375,-6.103515625E-5,1.09375,36.7400016784668,0.0,-18.0,-0.21209716796875,-0.088104248046875,Closing,0.0,0.0,0.0,0.0,0.0,0.0,0.0,0.0,
2.533934999999998,0.0,0.0,265.0,0.0,-127.5,-416.69290244579315,0.0,0.125,1.3708494690000002,4.932250999999998,0.0,-24.0,0.5,-120.0,416.69290244579315,0.0,2.625,4.935302229,4.963769999999998,0.0,-572.0,0.125,-75.0,-416.69290244579315,0.0,2.25,2.873534862,0.01,0.0,225.0,0.75,-67.5,416.69290244579315,0.0,0.25,2.193603291,0.01,0.0,0.3499999940395355,-0.7799999713897705,16.049999237060547,-0.00457763671875,0.0528564453125,1.02740478515625,36.7400016784668,0.0,21.0,-0.2116546630859375,-0.088165283203125,Closing,0.0,0.0,0.0,0.0,0.0,0.0,0.0,0.0,
2.567326000000001,0.0,0.0,254.0,0.0,-97.5,-416.69290244579315,0.0,1.75,1.350097518,4.932250999999998,-0.0024414059999999793,-32.0,1.375,-60.0,416.69290244579315,0.0,2.625,0.117187488,4.963769999999998,-3.594970335,-585.0,0.125,-67.5,-416.69290244579315,0.0,2.5,3.0102535980000003,0.01,0.1269531119999998,225.0,1.125,-45.0,416.69290244579315,0.0,2.125,2.083740021,0.01,-0.004882811999999959,0.3400000035762787,-0.75,16.049999237060547,0.001708984375,-0.0513916015625,1.029541015625,36.7400016784668,0.0,-1.0,-0.2113189697265625,-0.0881500244140625,Closing,0.0,0.0,0.0,0.0,0.0,0.0,0.0,0.0,
2.5927200000000012,0.0,0.0,254.0,0.125,-60.0,-436.53545022010803,0.0,2.25,1.2158201880000001,4.932250999999998,0.0,-32.0,1.625,-37.5,436.53545022010803,0.0,0.75,0.261230442,4.963769999999998,0.0,-585.0,0.125,-75.0,-436.53545022010803,0.0,1.125,3.1555172550000004,0.01,0.0,225.0,1.25,-22.5,436.53545022010803,0.0,2.5,1.954345503,0.01,0.0,0.3400000035762787,-0.7200000286102295,15.949999809265137,-0.009521484375,-0.01409912109375,1.029052734375,36.7400016784668,0.0,-2.0,-0.2111968994140625,-0.088348388671875,Closing,0.0,0.0,0.0,0.0,0.0,0.0,0.0,0.0,
2.6260739999999934,0.0,0.0,254.0,0.125,-75.0,-456.37796044349665,0.0,2.375,1.1132811360000001,4.932250999999998,-0.11840819100000011,-32.0,2.125,0.0,456.37796044349665,0.0,0.5,0.35400387,4.963769999999998,0.11596678500000035,-585.0,0.375,-157.5,-456.37796044349665,0.0,0.5,3.2678219310000003,0.01,0.13549803300000018,225.0,1.625,22.5,456.37796044349665,0.0,0.875,1.8444822330000001,0.01,-0.12573240900000004,0.3100000023841858,-0.7599999904632568,15.760000228881836,-0.0985107421875,-0.0133056640625,1.01708984375,36.7400016784668,0.0,-86.0,-0.2113037109375,-0.0887298583984375,Closing,0.0,0.0,0.0,0.0,0.0,0.0,0.0,0.0,
2.6548159999999914,0.0,0.0,254.0,0.625,-135.0,-496.06298089027405,0.0,0.75,0.9985350540000001,4.932250999999998,0.0,-32.0,2.375,22.5,496.06298089027405,0.0,0.5,0.435790971,4.963769999999998,0.0,-585.0,0.625,-210.0,-496.06298089027405,0.0,0.375,3.339843408,0.01,0.0,241.0,1.75,60.0,496.06298089027405,0.0,0.5,1.748046696,0.01,-0.12695311200000003,0.3100000023841858,-0.8999999761581421,15.569999694824219,-0.11785888671875,-7.32421875E-4,1.15692138671875,36.7400016784668,0.0,-97.0,-0.211822509765625,-0.088958740234375,Closing,0.0,0.0,0.0,0.0,0.0,0.0,0.0,0.0,
2.686097999999998,0.0,0.0,233.0,1.0,-142.5,-496.06298089027405,0.0,0.625,0.963134667,4.932250999999998,-0.078124992,-23.0,2.875,37.5,496.06298089027405,0.0,0.5,0.46386714,4.963769999999998,0.06713866499999988,-622.0,0.875,-232.5,-496.06298089027405,0.0,0.125,3.3654781710000004,0.01,0.0,241.0,1.75,105.0,496.06298089027405,0.0,0.5,1.666259595,0.01,0.0,0.3100000023841858,-1.0299999713897705,15.470000267028809,-0.07659912109375,-0.04254150390625,1.0911865234375,36.7400016784668,0.0,-67.0,-0.213470458984375,-0.089080810546875,Closing,0.0,0.0,0.0,0.0,0.0,0.0,0.0,0.0,
2.713703999999998,0.0,0.0,233.0,1.375,-112.5,-496.06298089027405,0.0,0.375,0.911865141,4.932250999999998,-0.05615233799999997,-23.0,3.5,75.0,496.06298089027405,0.0,0.25,0.468749952,4.963769999999998,0.02075195099999938,-622.0,0.875,-195.0,-496.06298089027405,0.0,0.125,3.3703609830000003,0.01,-4.922089455,241.0,2.0,120.0,496.06298089027405,0.0,0.25,1.6369627230000001,0.01,-0.078124992,0.3100000023841858,-1.059999942779541,15.449999809265137,-0.09466552734375,0.02886962890625,1.050048828125,36.7400016784668,0.0,-66.0,-0.2142333984375,-0.0891571044921875,Closing,0.0,0.0,0.0,0.0,0.0,0.0,0.0,0.0,
2.74295199999999,0.0,0.0,233.0,1.375,-90.0,-496.06298089027405,0.0,0.375,0.8813475660000001,4.932250999999998,0.0,-23.0,3.875,90.0,496.06298089027405,0.0,0.25,0.46142573400000003,4.963769999999998,0.0,-622.0,1.25,-97.5,-496.06298089027405,0.0,0.0,3.3691402800000003,0.01,0.0,241.0,2.125,127.5,496.06298089027405,0.0,0.125,1.622314287,0.01,0.0,0.33000001311302185,-1.159999966621399,15.40999984741211,-0.108154296875,0.0179443359375,1.02532958984375,36.7400016784668,0.0,-80.0,-0.2169342041015625,-0.0890960693359375,Closing,0.0,0.0,0.0,0.0,0.0,0.0,0.0,0.0,
2.773375999999989,0.0,0.0,233.0,1.625,-75.0,-496.06298089027405,0.0,0.375,0.864257724,4.932250999999998,-0.029296872000000085,-23.0,3.875,112.5,496.06298089027405,0.0,0.25,0.47363276400000004,4.963769999999998,0.006103515000000392,-622.0,1.75,-75.0,-496.06298089027405,0.0,0.0,3.3703609830000003,0.01,-0.0012207029999999897,241.0,2.125,135.0,496.06298089027405,0.0,0.125,1.622314287,0.01,4.943351564,0.3400000035762787,-1.2000000476837158,15.420000076293945,-0.07769775390625,0.00213623046875,1.008056640625,36.7400016784668,0.0,-55.0,-0.218017578125,-0.0889739990234375,Closing,0.0,0.0,0.0,0.0,0.0,0.0,0.0,0.0,
2.7998450000000012,0.0,0.0,212.0,2.0,-112.5,-496.06298089027405,0.0,0.375,0.8691405360000001,4.932250999999998,0.0,-2.0,3.625,127.5,496.06298089027405,0.0,0.25,0.47363276400000004,4.963769999999998,0.0,-636.0,2.0,-75.0,-496.06298089027405,0.0,0.0,3.3703609830000003,0.01,0.0,264.0,2.375,142.5,496.06298089027405,0.0,0.125,1.617431475,0.01,0.0,0.3400000035762787,-1.2799999713897705,15.470000267028809,-0.0869140625,0.0045166015625,1.0411376953125,36.72999954223633,0.0,-61.0,-0.2204132080078125,-0.0888519287109375,Closing,0.0,0.0,0.0,0.0,0.0,0.0,0.0,0.0,
2.8312869999999966,0.0,0.0,212.0,2.125,-142.5,-496.06298089027405,0.0,0.25,0.859374912,4.932250999999998,-0.010986327000000018,-2.0,3.75,135.0,496.06298089027405,0.0,0.25,0.47485346700000003,4.963769999999998,0.0,-636.0,2.125,-135.0,-496.06298089027405,0.0,0.0,3.385009419,0.01,0.0012207029999999897,264.0,2.875,165.0,496.06298089027405,0.0,0.125,1.5832517910000001,0.01,0.0,0.3199999928474426,-1.3899999856948853,15.520000457763672,-0.14263916015625,0.038818359375,0.988037109375,36.72999954223633,0.0,-105.0,-0.223236083984375,-0.08880615234375,Closing,0.0,0.0,0.0,0.0,0.0,0.0,0.0,0.0,
2.8636049999999957,0.0,0.0,212.0,2.125,-172.5,-496.06298089027405,0.0,0.25,0.8666991300000001,4.932250999999998,0.0012207029999999897,-2.0,4.5,172.5,496.06298089027405,0.0,0.25,0.47485346700000003,4.963769999999998,0.0,-636.0,2.125,-172.5,-496.06298089027405,0.0,0.0,3.39355434,0.01,0.019531247999999835,264.0,3.125,180.0,496.06298089027405,0.0,0.125,1.560058434,0.01,-0.032958981000000165,0.33000001311302185,-1.559999942779541,15.510000228881836,-0.13702392578125,-0.00396728515625,0.99774169921875,36.72999954223633,0.0,-108.0,-0.2283935546875,-0.0882415771484375,Closing,0.0,0.0,0.0,0.0,0.0,0.0,0.0,0.0,
2.890574999999997,0.0,0.0,212.0,2.125,-210.0,-496.06298089027405,0.0,0.25,0.863037021,4.932250999999998,0.0,-2.0,4.75,202.5,496.06298089027405,0.0,0.25,0.47607417,4.963769999999998,0.0,-636.0,2.25,-202.5,-496.06298089027405,0.0,0.0,3.398437152,0.01,0.0,264.0,2.875,225.0,496.06298089027405,0.0,0.125,1.5563963250000001,0.01,0.0,0.3199999928474426,-1.6299999952316284,15.489999771118164,-0.08233642578125,-0.003662109375,1.009033203125,36.72999954223633,0.0,-54.0,-0.2303466796875,-0.0879669189453125,Closing,0.0,0.0,0.0,0.0,0.0,0.0,0.0,0.0,
2.922773000000001,0.0,0.0,171.0,2.25,-232.5,-496.06298089027405,0.0,0.25,0.865478427,4.932250999999998,-0.0012207029999999897,41.0,4.125,262.5,496.06298089027405,0.0,0.25,0.47363276400000004,4.963769999999998,0.0,-676.0,2.25,-240.0,-496.06298089027405,0.0,0.125,3.398437152,0.01,0.003662108999999969,307.0,2.875,255.0,496.06298089027405,0.0,0.25,1.560058434,0.01,-0.004882811999999959,0.3199999928474426,-1.7100000381469727,15.470000267028809,-0.05859375,-0.0013427734375,1.00616455078125,36.72999954223633,0.0,-29.0,-0.2345123291015625,-0.0879669189453125,Closing,0.0,0.0,0.0,0.0,0.0,0.0,0.0,0.0,
2.95337999999999,0.0,0.0,171.0,2.25,-277.5,-496.06298089027405,0.0,0.25,0.865478427,4.932250999999998,0.0,41.0,4.0,292.5,496.06298089027405,0.0,0.25,0.47363276400000004,4.963769999999998,0.0,-676.0,2.25,-262.5,-496.06298089027405,0.0,0.125,3.397216449,0.01,0.0,307.0,3.0,292.5,496.06298089027405,0.0,0.25,1.572265464,0.01,0.0,0.3199999928474426,-1.7599999904632568,15.489999771118164,-0.08026123046875,0.03472900390625,1.0552978515625,36.72999954223633,0.0,-38.0,-0.23895263671875,-0.08782958984375,Closing,0.0,0.0,0.0,0.0,0.0,0.0,0.0,0.0,
2.9824479999999896,0.0,0.0,171.0,2.125,-300.0,-496.06298089027405,0.0,0.25,0.865478427,4.932250999999998,0.0,41.0,4.25,330.0,496.06298089027405,0.0,0.25,0.47363276400000004,4.963769999999998,0.0,-676.0,2.125,-315.0,-496.06298089027405,0.0,0.125,3.404540667,0.01,0.0,307.0,2.875,307.5,496.06298089027405,0.0,0.25,1.5832517910000001,0.01,0.0,0.3400000035762787,-1.809999942779541,15.569999694824219,-0.012939453125,-0.03204345703125,0.94036865234375,36.72999954223633,0.0,6.0,-0.2436370849609375,-0.08758544921875,Closing,0.0,0.0,0.0,0.0,0.0,0.0,0.0,0.0,
3.0141739999999992,0.0,0.0,171.0,2.0,-352.5,-496.06298089027405,0.0,0.25,0.864257724,4.932250999999998,0.0,41.0,4.125,345.0,496.06298089027405,0.0,0.25,0.47363276400000004,4.963769999999998,0.0,-676.0,2.0,-345.0,-496.06298089027405,0.0,0.125,3.398437152,0.01,0.0,363.0,2.875,322.5,496.06298089027405,0.0,0.25,1.588134603,0.01,0.01342773300000033,0.3499999940395355,-1.8200000524520874,15.680000305175781,-0.0159912109375,-0.03192138671875,1.09478759765625,36.72999954223633,0.0,7.0,-0.248382568359375,-0.0873870849609375,Closing,0.0,0.0,0.0,0.0,0.0,0.0,0.0,0.0,
3.0448299999999873,0.0,0.0,107.0,1.875,-375.0,-496.06298089027405,0.0,0.25,0.8666991300000001,4.932250999999998,0.0,102.0,4.0,375.0,496.06298089027405,0.0,0.25,0.47363276400000004,4.963769999999998,0.0,-739.0,1.875,-397.5,-496.06298089027405,0.0,0.125,3.394775043,0.01,0.0,363.0,2.875,352.5,496.06298089027405,0.0,0.25,1.597900227,0.01,0.0,0.3199999928474426,-1.9299999475479126,15.729999542236328,-0.10009765625,0.0526123046875,1.04351806640625,36.72999954223633,0.0,-49.0,-0.253326416015625,-0.0872802734375,Closing,0.0,0.0,0.0,0.0,0.0,0.0,0.0,0.0,
3.0747350000000004,0.0,0.0,107.0,1.875,-405.0,-496.06298089027405,0.0,0.25,0.864257724,4.932250999999998,0.0,102.0,3.625,390.0,496.06298089027405,0.0,0.25,0.47485346700000003,4.963769999999998,-0.0012207030000004337,-739.0,1.75,-412.5,-496.06298089027405,0.0,0.125,3.394775043,0.01,-0.003662108999999969,363.0,2.75,367.5,496.06298089027405,0.0,0.25,1.6027830390000002,0.01,0.009765623999999917,0.3199999928474426,-1.899999976158142,15.729999542236328,0.004638671875,-0.03192138671875,0.9013671875,36.72999954223633,0.0,23.0,-0.2584991455078125,-0.0871429443359375,Closing,0.0,0.0,0.0,0.0,0.0,0.0,0.0,0.0,
3.1086809999999967,0.0,0.0,107.0,1.875,-412.5,-496.06298089027405,0.0,0.25,0.8666991300000001,4.932250999999998,0.0,102.0,3.25,435.0,496.06298089027405,0.0,0.25,0.47363276400000004,4.963769999999998,0.0,-739.0,1.75,-427.5,-496.06298089027405,0.0,0.125,3.394775043,0.01,0.0,363.0,2.625,405.0,496.06298089027405,0.0,0.25,1.6040037420000002,0.01,0.0,0.33000001311302185,-1.9500000476837158,15.729999542236328,-0.07513427734375,-0.00482177734375,1.19708251953125,36.72999954223633,0.0,-36.0,-0.2637176513671875,-0.08697509765625,Closing,0.0,0.0,0.0,0.0,0.0,0.0,0.0,0.0,
3.134708999999988,0.0,0.0,107.0,1.625,-435.0,-496.06298089027405,0.0,0.25,0.864257724,4.932250999999998,0.0012207029999999897,102.0,3.25,450.0,496.06298089027405,0.0,0.25,0.47363276400000004,4.963769999999998,0.0,-739.0,1.5,-442.5,-496.06298089027405,0.0,0.125,3.394775043,0.01,0.0,434.0,2.5,420.0,496.06298089027405,0.0,0.25,1.6027830390000002,0.01,0.0,0.3499999940395355,-1.9600000381469727,15.760000228881836,0.02520751953125,6.103515625E-4,0.870361328125,36.72999954223633,0.0,51.0,-0.2689361572265625,-0.08697509765625,Closing,0.0,0.0,0.0,0.0,0.0,0.0,0.0,0.0,
3.168555999999997,0.0,0.0,34.0,1.375,-450.0,-496.06298089027405,0.0,0.25,0.8789061600000001,4.932250999999998,0.0,178.0,3.0,465.0,496.06298089027405,0.0,0.25,0.47241206100000005,4.963769999999998,0.0012207030000004337,-812.0,1.25,-457.5,-496.06298089027405,0.0,0.125,3.39355434,0.01,-0.0012207029999999897,434.0,2.375,450.0,496.06298089027405,0.0,0.25,1.6040037420000002,0.01,0.0,0.3799999952316284,-1.9800000190734863,15.800000190734863,-0.0546875,0.00555419921875,1.1912841796875,36.72999954223633,0.0,-13.0,-0.274078369140625,-0.0870513916015625,Closing,0.0,0.0,0.0,0.0,0.0,0.0,0.0,0.0,
3.194449999999997,0.0,0.0,34.0,1.375,-472.5,-496.06298089027405,0.0,0.25,0.864257724,4.932250999999998,0.0,178.0,2.75,487.5,496.06298089027405,0.0,0.25,0.47851557600000005,4.963769999999998,0.0,-812.0,1.25,-472.5,-496.06298089027405,0.0,0.125,3.39355434,0.01,0.0,434.0,2.375,465.0,496.06298089027405,0.0,0.25,1.6088865540000001,0.01,0.0,0.3700000047683716,-2.0,15.829999923706055,-0.00677490234375,0.0751953125,0.8861083984375,36.72999954223633,0.0,42.0,-0.27923583984375,-0.08709716796875,Closing,0.0,0.0,0.0,0.0,0.0,0.0,0.0,0.0,
3.229361999999994,0.0,0.0,34.0,1.25,-480.0,-496.06298089027405,0.0,0.25,0.859374912,4.932250999999998,-0.0024414059999999793,178.0,2.625,495.0,496.06298089027405,0.0,0.25,0.47851557600000005,4.963769999999998,0.004882811999999959,-812.0,1.0,-495.0,-496.06298089027405,0.0,0.125,3.39355434,0.01,0.0,434.0,2.125,487.5,496.06298089027405,0.0,0.25,1.6027830390000002,0.01,0.0,0.4300000071525574,-2.0,15.859999656677246,-0.07696533203125,-0.04010009765625,1.0899658203125,36.72999954223633,0.0,-50.0,-0.2843170166015625,-0.0870819091796875,Closing,0.0,0.0,0.0,0.0,0.0,0.0,0.0,0.0,
3.2646499999999943,0.0,0.0,34.0,1.25,-502.5,-496.06298089027405,0.0,0.25,0.863037021,4.932250999999998,-0.0012207029999999897,262.0,2.625,510.0,496.06298089027405,0.0,0.25,0.47851557600000005,4.963769999999998,0.0,-895.0,1.0,-502.5,-496.06298089027405,0.0,0.125,3.388671528,0.01,0.0,514.0,2.125,495.0,496.06298089027405,0.0,0.25,1.6027830390000002,0.01,-0.0012207030000004337,0.38999998569488525,-2.0,15.899999618530273,-0.03167724609375,-0.03887939453125,0.92266845703125,36.72999954223633,0.0,-11.0,-0.2893829345703125,-0.087127685546875,Closing,0.0,0.0,0.0,0.0,0.0,0.0,0.0,0.0,
3.293997999999992,0.0,0.0,-47.0,1.0,-502.5,-496.06298089027405,0.0,0.25,0.859374912,4.932250999999998,0.0,262.0,2.25,525.0,496.06298089027405,0.0,0.25,0.47851557600000005,4.963769999999998,0.0,-895.0,0.875,-517.5,-496.06298089027405,0.0,0.125,3.388671528,0.01,0.0,514.0,2.125,495.0,496.06298089027405,0.0,0.25,1.6027830390000002,0.01,0.0,0.3799999952316284,-2.0399999618530273,15.920000076293945,-0.06634521484375,0.08843994140625,1.00054931640625,36.72999954223633,0.0,-7.0,-0.2894744873046875,-0.0872344970703125,Closing,0.0,0.0,0.0,0.0,0.0,0.0,0.0,0.0,
3.328,0.0,0.0,-47.0,1.0,-517.5,-496.06298089027405,0.0,0.25,0.860595615,4.932250999999998,0.0012207029999999897,262.0,2.25,525.0,496.06298089027405,0.0,0.25,0.49438471500000003,4.963769999999998,0.0012207030000004337,-895.0,0.875,-525.0,-496.06298089027405,0.0,0.125,3.389892231,0.01,0.0012207029999999897,514.0,2.125,502.5,496.06298089027405,0.0,0.25,1.6027830390000002,0.01,0.0,0.3799999952316284,-2.0299999713897705,15.930000305175781,-0.021728515625,-0.01873779296875,0.990234375,36.72999954223633,0.0,6.0,-0.2895355224609375,-0.087127685546875,Closing,0.0,0.0,0.0,0.0,0.0,0.0,0.0,0.0,
3.35712999999999,0.0,0.0,-47.0,0.75,-517.5,-496.06298089027405,0.0,0.25,0.850829991,4.932250999999998,0.0,262.0,2.125,540.0,496.06298089027405,0.0,0.25,0.47851557600000005,4.963769999999998,0.0,-895.0,0.875,-532.5,-496.06298089027405,0.0,0.125,3.389892231,0.01,0.0,514.0,2.0,517.5,496.06298089027405,0.0,0.25,1.6027830390000002,0.01,0.0,0.41999998688697815,-2.0399999618530273,15.930000305175781,-9.765625E-4,-0.0135498046875,1.1778564453125,36.72999954223633,0.0,33.0,-0.2895050048828125,-0.0870819091796875,Closing,0.0,0.0,0.0,0.0,0.0,0.0,0.0,0.0,
3.389127999999997,0.0,0.0,-134.0,0.75,-532.5,-496.06298089027405,0.0,0.25,0.860595615,4.932250999999998,0.0,351.0,2.125,540.0,496.06298089027405,0.0,0.25,0.47973627900000004,4.963769999999998,0.0,-981.0,0.875,-532.5,-496.06298089027405,0.0,0.125,3.385009419,0.01,0.0,599.0,2.0,517.5,496.06298089027405,0.0,0.25,1.6027830390000002,0.01,0.0,0.4099999964237213,-2.0,15.960000038146973,0.01190185546875,0.01361083984375,0.97344970703125,36.72999954223633,0.0,46.0,-0.2893524169921875,-0.087249755859375,Closing,0.0,0.0,0.0,0.0,0.0,0.0,0.0,0.0,
3.419562999999995,0.0,0.0,-134.0,0.75,-540.0,-631.546720794916,0.0,0.25,0.860595615,0.13310760408582598,0.0,351.0,1.875,547.5,384.6944377469832,0.0,0.25,0.471191358,0.22176578132468217,0.0,-981.0,0.625,-540.0,-631.546720794916,0.0,0.125,3.3801266070000002,4.807072477287629,-0.004882811999999959,599.0,1.75,525.0,384.6944377469832,0.0,0.25,1.6015623360000002,4.736492004301614,0.0,0.4099999964237213,-1.9900000095367432,15.979999542236328,-0.03546142578125,-0.0416259765625,0.99200439453125,36.72999954223633,0.0,-14.0,-0.2890625,-0.0872802734375,Closing,0.0,0.0,0.0,0.0,0.0,0.0,0.0,0.0,
3.448948999999993,0.0,0.0,-134.0,1.25,-540.0,-763.6109520832892,0.0,0.25,0.860595615,0.21068479470525506,0.0,351.0,1.375,555.0,326.2896245019768,0.0,0.25,0.483398388,0.5289145336594696,0.0,-981.0,1.0,-540.0,-763.6109520832892,0.0,0.125,3.3740230920000003,4.729367114657823,0.0,599.0,1.5,532.5,326.2896245019768,0.0,0.25,1.6027830390000002,4.429700288715301,0.0,0.4399999976158142,-1.9500000476837158,16.0,-0.07666015625,-0.0093994140625,1.105712890625,36.72999954223633,0.0,-42.0,-0.288726806640625,-0.08740234375,Closing,0.0,0.0,0.0,0.0,0.0,0.0,0.0,0.0,
3.4768949999999896,0.0,0.0,-134.0,2.0,-547.5,-854.7181534001091,0.0,0.25,0.860595615,0.248851900521723,-0.0024414059999999793,351.0,1.125,547.5,321.5423896423077,0.0,2.375,0.5810546280000001,0.7715691748649559,0.014648435999999876,-981.0,1.5,-555.0,-854.7181534001091,0.0,0.25,3.3605953590000004,4.691136949652903,-0.006103514999999948,599.0,1.25,532.5,321.5423896423077,0.0,1.5,1.563720543,4.1873277148255355,-0.0012207030000004337,0.4300000071525574,-1.9500000476837158,16.06999969482422,-0.0479736328125,0.008056640625,1.01953125,36.72999954223633,0.0,-12.0,-0.2884979248046875,-0.08740234375,Closing,0.0,0.0,0.0,0.0,0.0,0.0,0.0,0.0,
3.511251999999993,0.0,0.0,-229.0,2.75,-555.0,-870.0751000726322,0.0,0.375,0.898437408,0.2544325738924471,0.0,434.0,0.75,532.5,323.71420378877497,0.0,3.125,0.755615157,0.8117127471749515,0.0,-1075.0,2.75,-577.5,-870.0751000726322,0.0,0.25,3.302001615,4.685547055967297,0.0,679.0,0.875,510.0,323.71420378877497,0.0,2.5,1.39160142,4.147230806323941,-0.05493163499999998,0.41999998688697815,-1.9299999475479126,16.190000534057617,-0.06195068359375,0.0089111328125,1.01641845703125,36.72999954223633,0.0,-26.0,-0.2883453369140625,-0.087554931640625,Closing,0.0,0.0,0.0,0.0,0.0,0.0,0.0,0.0,
3.536937999999995,0.0,0.0,-229.0,3.375,-592.5,-870.0751000726322,0.0,0.375,0.938720607,0.2544325738924471,0.0,434.0,0.75,517.5,323.71420378877497,0.0,1.25,0.9216307650000001,0.8117127471749515,0.0,-1075.0,2.875,-585.0,-870.0751000726322,0.0,0.25,3.23486295,4.685547055967297,0.0,679.0,0.75,480.0,323.71420378877497,0.0,1.75,1.19628894,4.147230806323941,0.0,0.3799999952316284,-1.940000057220459,16.3799991607666,-0.04498291015625,0.0347900390625,0.9693603515625,36.72999954223633,0.0,-3.0,-0.28814697265625,-0.0876922607421875,Closing,0.0,0.0,0.0,0.0,0.0,0.0,0.0,0.0,
3.570648000000001,0.0,0.0,-229.0,3.375,-607.5,-870.0751000726322,0.0,0.375,0.980224509,0.2544325738924471,0.04516601099999995,434.0,0.75,480.0,323.71420378877497,0.0,0.75,1.077880749,0.8117127471749515,0.18920896499999973,-1075.0,3.125,-615.0,-870.0751000726322,0.0,0.125,3.195800454,4.685547055967297,-0.06225585299999992,679.0,0.75,472.5,323.71420378877497,0.0,1.25,1.0314940350000001,4.147230806323941,-0.21118161900000043,0.3799999952316284,-1.840000033378601,16.760000228881836,0.03009033203125,0.04986572265625,1.15057373046875,36.72999954223633,0.0,76.0,-0.287750244140625,-0.087738037109375,Closing,0.0,0.0,0.0,0.0,0.0,0.0,0.0,0.0,
3.6095999999999915,0.0,0.0,-229.0,3.25,-660.0,-885.4744653260622,0.0,0.375,1.02539052,0.2598193933381314,0.0,434.0,1.0,420.0,326.70950639657514,0.0,0.5,1.253661981,0.851220814672811,0.0,-1075.0,3.125,-660.0,-885.4744653260622,0.0,0.125,3.131103195,4.680151336489627,0.0,679.0,1.125,427.5,326.70950639657514,0.0,0.25,0.8703612390000001,4.107768663909126,0.0,0.4000000059604645,-1.7000000476837158,17.940000534057617,-0.0059814453125,0.08013916015625,1.12457275390625,36.72999954223633,0.0,48.0,-0.286285400390625,-0.087982177734375,Closing,0.0,0.0,0.0,0.0,0.0,0.0,0.0,0.0,
3.635248999999996,0.0,0.0,-347.0,3.25,-690.0,-885.4744653260622,0.0,0.375,1.075439343,0.2598193933381314,0.04760741700000004,494.0,1.125,390.0,326.70950639657514,0.0,0.5,1.3171385370000002,0.851220814672811,0.16845701400000035,-1191.0,3.0,-697.5,-885.4744653260622,0.0,0.125,3.1054684320000003,4.680151336489627,-0.05493163499999998,733.0,1.25,375.0,326.70950639657514,0.0,0.25,0.812988198,4.107768663909126,0.0,0.38999998569488525,-1.5199999809265137,19.1200008392334,0.1190185546875,0.0361328125,0.98248291015625,36.72999954223633,0.0,146.0,-0.2846221923828125,-0.0880126953125,Closing,0.0,0.0,0.0,0.0,0.0,0.0,0.0,0.0,
3.6692229999999983,0.0,0.0,-347.0,3.0,-765.0,-885.4744653260622,0.0,0.25,1.093749888,0.2598193933381314,0.03295898099999994,494.0,1.375,360.0,326.70950639657514,0.0,0.25,1.3732908750000001,0.851220814672811,0.06958007099999985,-1191.0,2.875,-735.0,-885.4744653260622,0.0,0.125,3.087157887,4.680151336489627,-0.028076168999999318,733.0,1.25,277.5,326.70950639657514,0.0,0.25,0.7788085140000001,4.107768663909126,-0.058593743999999504,0.38999998569488525,-1.5700000524520874,20.440000534057617,-0.06390380859375,0.00537109375,0.96087646484375,36.72999954223633,0.0,-35.0,-0.2824859619140625,-0.0880126953125,Closing,0.0,0.0,0.0,0.0,0.0,0.0,0.0,0.0,
