Time,ClimberA1,ClimberA2,FRpos,FRCurrent,FRspeed,FRsetpoint,FRApos,FRACurrent,FREncpos,FREncSetpoint,FREncSpeed,FLpos,FLCurrent,FLspeed,FLsetpoint,FLApos,FLACurrent,FLEncpos,FLEncSetpoint,FLEncSpeed,BRpos,BRCurrent,BRspeed,BRsetpoint,BRApos,BRACurrent,BREncpos,BREncSetpoint,BREncSpeed,BLpos,BLCurrent,BLspeed,BLsetpoint,BLApos,BLACurrent,BLEncpos,BLEncSetpoint,BLEncSpeed,navx_Pitch,navx_Roll,navx_Yaw,navx_XAcc,navx_YAcc,navx_ZAcc,navx_Temp,navx_Bar,navx_Alt,navx_XDis,navx_YDis,GearPlacerState,ShootOutputV,ShootOutputCurrent,ShootEncPos,ShootEncVelocity,ShootSpeed,ShootSetpoint,CarouselSetpoint,CarouselCurrent,
0.263014000000001,0.0,0.0,12134.0,0.0,0.0,0.0,0.0,0.125,0.822753822,0.01,0.0,-42595.0,0.0,0.0,0.0,0.0,0.125,0.5419921320000001,0.01,0.0,39851.0,0.0,0.0,0.0,0.0,0.0,3.387450825,0.01,0.0,-58977.0,0.125,0.0,0.0,0.0,0.125,1.6357420200000001,0.01,0.0,0.5699999928474426,-0.5799999833106995,162.49000549316406,-0.03826904296875,-0.03082275390625,1.051513671875,36.41999816894531,0.0,13.0,2.544647216796875,1.058197021484375,Waiting,0.0,0.0,0.0,0.0,0.0,0.0,0.0,0.0,
0.3928430000000008,0.0,0.0,12134.0,0.0,0.0,0.0,0.0,0.125,0.821533119,0.01,0.0,-42595.0,0.0,0.0,-0.0,0.0,0.125,0.5419921320000001,0.01,0.03454142900000079,39851.0,0.0,0.0,0.0,0.0,0.0,3.387450825,0.01,0.037450825000000076,-58977.0,0.125,0.0,-0.0,0.0,0.125,1.6369627230000001,0.01,0.015742020000000023,0.5600000023841858,-0.5600000023841858,162.49000549316406,-0.02716064453125,-0.05230712890625,1.01751708984375,36.41999816894531,0.0,-2.0,2.544647216796875,1.061431884765625,Closing,0.0,0.0,0.0,0.0,0.0,0.0,0.0,0.0,
0.4276589999999997,0.0,0.0,12134.0,0.0,0.0,0.0,0.0,0.125,0.821533119,0.01,0.01153311899999998,-42595.0,0.0,0.0,-0.0,0.0,0.125,0.5419921320000001,0.01,0.03454142900000079,39851.0,0.0,0.0,0.0,0.0,0.125,3.388671528,0.01,0.037450825000000076,-58977.0,0.125,0.0,-0.0,0.0,0.125,1.6369627230000001,0.01,0.015742020000000023,0.550000011920929,-0.550000011920929,162.49000549316406,-0.01617431640625,-0.010498046875,1.03424072265625,36.41999816894531,0.0,-1.0,2.544647216796875,1.063018798828125,Closing,0.0,0.0,0.0,0.0,0.0,0.0,0.0,0.0,
0.4610560000000005,0.0,0.0,12134.0,0.0,0.0,0.0,0.0,0.125,0.822753822,0.01,0.0,-42595.0,0.0,0.0,-0.0,0.0,0.125,0.5419921320000001,0.01,0.0,39851.0,0.0,0.0,0.0,0.0,0.125,3.387450825,0.01,0.0,-58977.0,0.125,0.0,-0.0,0.0,0.125,1.6369627230000001,0.01,0.0,0.5600000023841858,-0.5600000023841858,162.49000549316406,-0.0137939453125,0.02178955078125,1.032470703125,36.41999816894531,0.0,6.0,2.544647216796875,1.063812255859375,Closing,0.0,0.0,0.0,0.0,0.0,0.0,0.0,0.0,
0.48532999999999993,0.0,0.0,12134.0,0.0,0.0,0.0,0.0,0.125,0.821533119,0.01,0.0,-42595.0,0.0,0.0,-0.0,0.0,0.125,0.5407714290000001,0.01,0.0,39851.0,0.0,0.0,0.0,0.0,0.125,3.388671528,0.01,0.0,-58977.0,0.125,0.0,-0.0,0.0,0.125,1.6369627230000001,0.01,0.0,0.5600000023841858,-0.5699999928474426,162.47999572753906,-0.01678466796875,0.01068115234375,0.995849609375,36.41999816894531,0.0,6.0,2.544647216796875,1.063812255859375,Closing,0.0,0.0,0.0,0.0,0.0,0.0,0.0,0.0,
0.5116900000000005,0.0,0.0,12134.0,0.0,0.0,0.0,0.0,0.125,0.821533119,0.01,0.0,-42595.0,0.0,0.0,-0.0,0.0,0.125,0.5419921320000001,0.01,0.0,39851.0,0.0,0.0,0.0,0.0,0.125,3.388671528,0.01,0.0,-58977.0,0.125,0.0,-0.0,0.0,0.125,1.6369627230000001,0.01,0.0,0.5600000023841858,-0.5699999928474426,162.49000549316406,0.0238037109375,0.06390380859375,1.010498046875,36.41999816894531,0.0,-16.0,2.544647216796875,1.063507080078125,Closing,0.0,0.0,0.0,0.0,0.0,0.0,0.0,0.0,
0.568389000000001,0.0,0.0,12134.0,0.0,0.0,0.0,0.0,0.25,0.821533119,0.01,0.0,-42595.0,0.0,0.0,-0.0,0.0,0.125,0.5419921320000001,0.01,0.0,39851.0,0.0,0.0,0.0,0.0,0.125,3.387450825,0.01,0.0,-58977.0,0.125,0.0,-0.0,0.0,0.125,1.6369627230000001,0.01,0.0,0.5600000023841858,-0.5600000023841858,162.49000549316406,0.01287841796875,0.04296875,1.023193359375,36.41999816894531,0.0,-11.0,2.5445709228515625,1.0629425048828125,Closing,0.0,0.0,0.0,0.0,0.0,0.0,0.0,0.125,
0.5926920000000009,0.0,0.0,12134.0,0.0,0.0,0.0,0.0,0.25,0.821533119,0.01,0.0,-42595.0,0.0,0.0,-0.0,0.0,0.125,0.5419921320000001,0.01,0.0,39851.0,0.0,0.0,0.0,0.0,0.125,3.387450825,0.01,0.0,-58977.0,0.125,0.0,-0.0,0.0,0.125,1.6357420200000001,0.01,0.0,0.5600000023841858,-0.5600000023841858,162.49000549316406,-0.00372314453125,0.0634765625,1.00347900390625,36.41999816894531,0.0,10.0,2.5445098876953125,1.0621490478515625,Closing,0.0,0.0,0.0,0.0,0.0,0.0,0.0,0.125,
0.6226790000000001,0.0,0.0,12134.0,0.0,0.0,0.0,0.0,0.25,0.822753822,0.01,0.0,-42595.0,0.0,0.0,-0.0,0.0,0.125,0.5407714290000001,0.01,0.0,39851.0,0.0,0.0,0.0,0.0,0.125,3.387450825,0.01,0.0,-58977.0,0.125,0.0,-0.0,0.0,0.125,1.6369627230000001,0.01,0.0,0.5600000023841858,-0.5600000023841858,162.49000549316406,-0.00848388671875,0.0625,0.99761962890625,36.41999816894531,0.0,14.0,2.5445098876953125,1.0616455078125,Closing,0.0,0.0,0.0,0.0,0.0,0.0,0.0,0.0,
0.6471260000000002,0.0,0.0,12134.0,0.0,0.0,0.0,0.0,0.125,0.821533119,0.01,0.0,-42595.0,0.0,0.0,-0.0,0.0,0.125,0.5419921320000001,0.01,0.0,39851.0,0.0,0.0,0.0,0.0,0.125,3.387450825,0.01,0.0,-58977.0,0.125,0.0,-0.0,0.0,0.125,1.6369627230000001,0.01,0.0,0.5699999928474426,-0.5799999833106995,162.49000549316406,-0.0015869140625,0.021240234375,1.0087890625,36.41999816894531,0.0,-4.0,2.5445098876953125,1.06048583984375,Closing,0.0,0.0,0.0,0.0,0.0,0.0,0.0,0.0,
0.6714629999999997,0.0,0.0,12134.0,0.0,0.0,0.0,0.0,0.125,0.822753822,0.01,0.0,-42595.0,0.0,0.0,-0.0,0.0,0.125,0.5419921320000001,0.01,0.0,39851.0,0.0,0.0,0.0,0.0,0.125,3.387450825,0.01,0.0,-58977.0,0.125,0.0,-0.0,0.0,0.125,1.6369627230000001,0.01,0.0,0.5600000023841858,-0.5699999928474426,162.49000549316406,0.01043701171875,0.00714111328125,1.02740478515625,36.41999816894531,0.0,-20.0,2.5444793701171875,1.05987548828125,Closing,0.0,0.0,0.0,0.0,0.0,0.0,0.0,0.0,
0.6939570000000004,0.0,0.0,12134.0,0.0,0.0,0.0,0.0,0.125,0.822753822,0.01,0.0,-42595.0,0.0,0.0,-0.0,0.0,0.125,0.5419921320000001,0.01,0.0,39851.0,0.0,0.0,0.0,0.0,0.125,3.387450825,0.01,0.0,-58977.0,0.125,0.0,-0.0,0.0,0.125,1.6357420200000001,0.01,0.0,0.5600000023841858,-0.5699999928474426,162.49000549316406,-0.0067138671875,0.01959228515625,1.02471923828125,36.41999816894531,0.0,0.0,2.5443878173828125,1.05987548828125,Closing,0.0,0.0,0.0,0.0,0.0,0.0,0.0,0.0,
0.7247829999999994,0.0,0.0,12134.0,0.0,0.0,0.0,0.0,0.125,0.822753822,0.01,0.0,-42595.0,0.0,0.0,-0.0,0.0,0.125,0.5419921320000001,0.01,0.0,39851.0,0.0,0.0,0.0,0.0,0.125,3.387450825,0.01,0.0,-58977.0,0.125,0.0,-0.0,0.0,0.125,1.6357420200000001,0.01,0.0,0.5600000023841858,-0.5600000023841858,162.47999572753906,-0.01800537109375,0.00518798828125,1.0123291015625,36.41999816894531,0.0,6.0,2.5443878173828125,1.05987548828125,Closing,0.0,0.0,0.0,0.0,0.0,0.0,0.0,0.0,
0.746773000000001,0.0,0.0,12134.0,0.0,0.0,0.0,0.0,0.25,0.822753822,0.01,0.0,-42595.0,0.0,0.0,-0.0,0.0,0.125,0.5419921320000001,0.01,0.0,39851.0,0.0,0.0,0.0,0.0,0.125,3.387450825,0.01,0.0,-58977.0,0.125,0.0,-0.0,0.0,0.125,1.6369627230000001,0.01,0.0,0.5699999928474426,-0.5600000023841858,162.47999572753906,-0.03826904296875,-0.03857421875,1.04254150390625,36.41999816894531,0.0,12.0,2.5443878173828125,1.05999755859375,Closing,0.0,0.0,0.0,0.0,0.0,0.0,0.0,0.0,
0.7754009999999998,0.0,0.0,12134.0,0.0,0.0,0.0,0.0,0.125,0.822753822,0.01,0.0,-42595.0,0.0,0.0,-0.0,0.0,0.125,0.5419921320000001,0.01,0.0012207029999995456,39851.0,0.0,0.0,0.0,0.0,0.125,3.387450825,0.01,0.0,-58977.0,0.125,0.0,-0.0,0.0,0.125,1.6369627230000001,0.01,0.0,0.5699999928474426,-0.5600000023841858,162.47999572753906,-0.04010009765625,-0.0201416015625,1.06170654296875,36.40999984741211,0.0,18.0,2.5443878173828125,1.0603790283203125,Closing,0.0,0.0,0.0,0.0,0.0,0.0,0.0,0.0,
0.8070349999999998,0.0,0.0,12134.0,0.0,0.0,0.0,0.0,0.125,0.822753822,0.01,0.0,-42595.0,0.0,0.0,-0.0,0.0,0.125,0.5419921320000001,0.01,-0.0012207029999995456,39851.0,0.0,0.0,0.0,0.0,0.125,3.387450825,0.01,0.0,-58977.0,0.125,0.0,-0.0,0.0,0.125,1.6369627230000001,0.01,0.0,0.5699999928474426,-0.5600000023841858,162.47999572753906,-0.0377197265625,-0.05426025390625,1.00762939453125,36.40999984741211,0.0,7.0,2.5443878173828125,1.0610198974609375,Closing,0.0,0.0,0.0,0.0,0.0,0.0,0.0,0.0,
0.8302890000000007,0.0,0.0,12134.0,0.0,0.0,0.0,0.0,0.125,0.822753822,0.01,0.0,-42595.0,0.0,0.0,-0.0,0.0,0.125,0.5419921320000001,0.01,-0.0012207029999995456,39851.0,0.0,0.0,0.0,0.0,0.125,3.387450825,0.01,0.0,-58977.0,0.125,0.0,-0.0,0.0,0.125,1.6369627230000001,0.01,0.0,0.5699999928474426,-0.5600000023841858,162.47999572753906,-0.0306396484375,-0.058349609375,1.01617431640625,36.40999984741211,0.0,0.0,2.5443878173828125,1.06146240234375,Closing,0.0,0.0,0.0,0.0,0.0,0.0,0.0,0.0,
0.8537510000000001,0.0,0.0,12134.0,0.0,0.0,0.0,0.0,0.125,0.822753822,0.01,0.0,-42595.0,0.0,0.0,-0.0,0.0,0.125,0.5407714290000001,0.01,0.0,39851.0,0.0,0.0,0.0,0.0,0.125,3.387450825,0.01,0.0,-58977.0,0.125,0.0,-0.0,0.0,0.125,1.6357420200000001,0.01,0.0,0.5600000023841858,-0.550000011920929,162.47999572753906,-0.01275634765625,-0.00494384765625,1.0494384765625,36.40999984741211,0.0,-2.0,2.5443878173828125,1.0625762939453125,Closing,0.0,0.0,0.0,0.0,0.0,0.0,0.0,0.0,
0.8869189999999999,0.0,0.0,12134.0,0.0,0.0,0.0,0.0,0.125,0.821533119,0.01,0.0,-42595.0,0.0,0.0,-0.0,0.0,0.125,0.5419921320000001,0.01,0.0,39851.0,0.0,0.0,0.0,0.0,0.125,3.386230122,0.01,0.0,-58977.0,0.125,0.0,-0.0,0.0,0.125,1.6369627230000001,0.01,0.0,0.5699999928474426,-0.5600000023841858,162.47999572753906,-0.005859375,0.01226806640625,1.03509521484375,36.40999984741211,0.0,-3.0,2.5443878173828125,1.0625762939453125,Closing,0.0,0.0,0.0,0.0,0.0,0.0,0.0,0.125,
0.9200850000000009,0.0,0.0,12134.0,0.0,0.0,0.0,0.0,0.125,0.822753822,0.01,0.0,-42595.0,0.0,0.0,-0.0,0.0,0.125,0.5419921320000001,0.01,0.0,39851.0,0.0,0.0,0.0,0.0,0.125,3.387450825,0.01,0.0,-58977.0,0.125,0.0,-0.0,0.0,0.125,1.6369627230000001,0.01,0.0,0.5600000023841858,-0.5600000023841858,162.47999572753906,-0.00250244140625,0.03912353515625,0.9832763671875,36.40999984741211,0.0,1.0,2.5443878173828125,1.0625457763671875,Closing,0.0,0.0,0.0,0.0,0.0,0.0,0.0,0.125,
0.9479269999999996,0.0,0.0,12134.0,0.0,0.0,0.0,0.0,0.125,0.822753822,0.01,0.0,-42595.0,0.0,0.0,-0.0,0.0,0.125,0.5419921320000001,0.01,0.0,39851.0,0.0,0.0,0.0,0.0,0.125,3.387450825,0.01,0.0,-58977.0,0.125,0.0,-0.0,0.0,0.125,1.6369627230000001,0.01,0.0,0.5600000023841858,-0.5600000023841858,162.47999572753906,0.0115966796875,0.05047607421875,0.9962158203125,36.40999984741211,0.0,-8.0,2.5443878173828125,1.0623321533203125,Closing,0.0,0.0,0.0,0.0,0.0,0.0,0.0,0.125,
0.9895160000000014,0.0,0.0,12134.0,0.0,0.0,0.0,0.0,0.125,0.822753822,0.01,0.0,-42595.0,0.0,0.0,-0.0,0.0,0.125,0.5419921320000001,0.01,0.0,39851.0,0.0,0.0,0.0,0.0,0.125,3.387450825,0.01,0.0,-58977.0,0.125,0.0,-0.0,0.0,0.125,1.6369627230000001,0.01,0.0,0.5600000023841858,-0.5600000023841858,162.47999572753906,0.00665283203125,0.0657958984375,1.01898193359375,36.40999984741211,0.0,0.0,2.5443878173828125,1.0615692138671875,Closing,0.0,0.0,0.0,0.0,0.0,0.0,0.0,0.0,
1.012313,0.0,0.0,12134.0,0.0,0.0,0.0,0.0,0.125,0.822753822,0.01,0.0,-42595.0,0.0,0.0,-0.0,0.0,0.125,0.5419921320000001,0.01,0.0,39851.0,0.0,0.0,0.0,0.0,0.125,3.388671528,0.01,0.0,-58977.0,0.125,0.0,-0.0,0.0,0.125,1.6369627230000001,0.01,0.0,0.5600000023841858,-0.5600000023841858,162.47999572753906,-0.00494384765625,0.068359375,1.005859375,36.40999984741211,0.0,12.0,2.5443878173828125,1.061187744140625,Closing,0.0,0.0,0.0,0.0,0.0,0.0,0.0,0.0,
1.0330530000000018,0.0,0.0,12134.0,0.0,0.0,0.0,0.0,0.125,0.821533119,0.01,0.0,-42595.0,0.0,0.0,-0.0,0.0,0.125,0.5419921320000001,0.01,0.0,39851.0,0.0,0.0,0.0,0.0,0.125,3.387450825,0.01,0.0,-58977.0,0.125,0.0,-0.0,0.0,0.125,1.6357420200000001,0.01,0.0,0.5699999928474426,-0.5600000023841858,162.47999572753906,9.1552734375E-4,0.01226806640625,0.9962158203125,36.40999984741211,0.0,-9.0,2.5443878173828125,1.0602569580078125,Closing,0.0,0.0,0.0,0.0,0.0,0.0,0.0,0.0,
1.076799000000001,0.0,0.0,12134.0,0.0,0.0,0.0,0.0,0.125,0.822753822,0.01,0.0,-42595.0,0.0,0.0,-0.0,0.0,0.125,0.5419921320000001,0.01,0.0,39851.0,0.0,0.0,0.0,0.0,0.125,3.388671528,0.01,0.0,-58977.0,0.125,0.0,-0.0,0.0,0.125,1.6369627230000001,0.01,0.0,0.5600000023841858,-0.5600000023841858,162.47999572753906,-0.0029296875,0.03173828125,1.02252197265625,36.40999984741211,0.0,0.0,2.5443878173828125,1.0602264404296875,Closing,0.0,0.0,0.0,0.0,0.0,0.0,0.0,0.0,
1.1058589999999986,0.0,0.0,12134.0,0.0,0.0,0.0,0.0,0.25,0.822753822,0.01,0.0,-42595.0,0.0,0.0,-0.0,0.0,0.125,0.5419921320000001,0.01,0.0,39851.0,0.0,0.0,0.0,0.0,0.125,3.387450825,0.01,0.0,-58977.0,0.125,0.0,-0.0,0.0,0.125,1.6369627230000001,0.01,0.0,0.5699999928474426,-0.550000011920929,162.47999572753906,-0.03466796875,-0.02490234375,1.00701904296875,36.40999984741211,0.0,13.0,2.5443878173828125,1.0601806640625,Closing,0.0,0.0,0.0,0.0,0.0,0.0,0.0,0.0,
1.1470059999999993,0.0,0.0,12134.0,0.0,0.0,0.0,0.0,0.25,0.822753822,0.01,0.0,-42595.0,0.0,0.0,-0.0,0.0,0.125,0.5419921320000001,0.01,0.0,39851.0,0.0,0.0,0.0,0.0,0.125,3.387450825,0.01,0.0,-58977.0,0.125,0.0,-0.0,0.0,0.125,1.6357420200000001,0.01,0.0,0.5799999833106995,-0.5600000023841858,162.47999572753906,-0.0396728515625,-0.02490234375,1.04913330078125,36.40999984741211,0.0,17.0,2.5443878173828125,1.0603485107421875,Closing,0.0,0.0,0.0,0.0,0.0,0.0,0.0,0.0,
1.1692870000000022,0.0,0.0,12134.0,0.0,0.0,0.0,0.0,0.125,0.821533119,0.01,0.0,-42595.0,0.0,0.0,-0.0,0.0,0.125,0.5419921320000001,0.01,0.0,39851.0,0.0,0.0,0.0,0.0,0.125,3.387450825,0.01,0.0,-58977.0,0.125,0.0,-0.0,0.0,0.125,1.6369627230000001,0.01,0.0,0.5799999833106995,-0.5600000023841858,162.47999572753906,-0.036376953125,-0.04461669921875,1.0263671875,36.40999984741211,0.0,8.0,2.5443878173828125,1.0607757568359375,Closing,0.0,0.0,0.0,0.0,0.0,0.0,0.0,0.0,
1.1896329999999997,0.0,0.0,12134.0,0.0,0.0,0.0,0.0,0.125,0.821533119,0.01,0.0,-42595.0,0.0,0.0,-0.0,0.0,0.125,0.5419921320000001,0.01,0.0,39851.0,0.0,0.0,0.0,0.0,0.125,3.387450825,0.01,0.0,-58977.0,0.125,0.0,-0.0,0.0,0.125,1.6357420200000001,0.01,0.0,0.5799999833106995,-0.5600000023841858,162.47999572753906,-0.03277587890625,-0.0574951171875,1.01885986328125,36.40999984741211,0.0,1.0,2.5443878173828125,1.0611114501953125,Closing,0.0,0.0,0.0,0.0,0.0,0.0,0.0,0.0,
1.2157549999999993,0.0,0.0,12134.0,0.0,0.0,0.0,0.0,0.125,0.822753822,0.01,0.0,-42595.0,0.0,0.0,-0.0,0.0,0.125,0.5419921320000001,0.01,0.0,39851.0,0.0,0.0,0.0,0.0,0.125,3.388671528,0.01,0.0,-58977.0,0.125,0.0,-0.0,0.0,0.125,1.6369627230000001,0.01,0.0,0.5799999833106995,-0.550000011920929,162.47999572753906,-0.0057373046875,9.1552734375E-4,1.0501708984375,36.40999984741211,0.0,-7.0,2.5443878173828125,1.061981201171875,Closing,0.0,0.0,0.0,0.0,0.0,0.0,0.0,0.0,
1.2338779999999987,0.0,0.0,12134.0,0.0,0.0,0.0,0.0,0.25,0.822753822,0.01,0.0,-42595.0,0.0,0.0,-0.0,0.0,0.125,0.5419921320000001,0.01,0.0,39851.0,0.0,0.0,0.0,0.0,0.125,3.387450825,0.01,0.0,-58977.0,0.125,0.0,-0.0,0.0,0.125,1.6369627230000001,0.01,0.0,0.5799999833106995,-0.550000011920929,162.47999572753906,-0.0040283203125,0.01025390625,1.05902099609375,36.40999984741211,0.0,-6.0,2.5443878173828125,1.06243896484375,Closing,0.0,0.0,0.0,0.0,0.0,0.0,0.0,0.0,
1.2541360000000004,0.0,0.0,12134.0,0.0,0.0,0.0,0.0,0.25,0.822753822,0.01,0.0,-42595.0,0.0,0.0,-0.0,0.0,0.125,0.5419921320000001,0.01,0.0,39851.0,0.0,0.0,0.0,0.0,0.125,3.387450825,0.01,0.0,-58977.0,0.125,0.0,-0.0,0.0,0.125,1.6369627230000001,0.01,0.0,0.5799999833106995,-0.5600000023841858,162.47999572753906,-0.002685546875,0.02093505859375,1.00775146484375,36.40999984741211,0.0,-3.0,2.5443878173828125,1.06243896484375,Closing,0.0,0.0,0.0,0.0,0.0,0.0,0.0,0.0,
1.2847800000000007,0.0,0.0,12134.0,0.0,0.0,0.0,0.0,0.25,0.822753822,0.01,0.0,-42595.0,0.0,0.0,-0.0,0.0,0.125,0.5419921320000001,0.01,0.0,39851.0,0.0,0.0,0.0,0.0,0.125,3.387450825,0.01,0.0,-58977.0,0.125,0.0,-0.0,0.0,0.125,1.6357420200000001,0.01,0.0,0.5699999928474426,-0.5600000023841858,162.47999572753906,0.00311279296875,0.04345703125,0.98370361328125,36.41999816894531,0.0,-2.0,2.5443878173828125,1.062408447265625,Closing,0.0,0.0,0.0,0.0,0.0,0.0,0.0,0.0,
1.3042189999999991,0.0,0.0,12134.0,0.0,0.0,0.0,0.0,0.25,0.822753822,0.01,0.0,-42595.0,0.0,0.0,-0.0,0.0,0.125,0.5419921320000001,0.01,0.0,39851.0,0.0,0.0,0.0,0.0,0.125,3.387450825,0.01,0.0,-58977.0,0.125,0.0,-0.0,0.0,0.125,1.6369627230000001,0.01,0.0,0.5699999928474426,-0.5600000023841858,162.47999572753906,0.01031494140625,0.04052734375,0.99652099609375,36.41999816894531,0.0,-9.0,2.5443878173828125,1.0621795654296875,Closing,0.0,0.0,0.0,0.0,0.0,0.0,0.0,0.0,
1.3277090000000007,0.0,0.0,12134.0,0.0,0.0,0.0,0.0,0.25,0.822753822,0.01,0.0,-42595.0,0.0,0.0,-0.0,0.0,0.125,0.5407714290000001,0.01,0.0,39851.0,0.0,0.0,0.0,0.0,0.125,3.387450825,0.01,0.0,-58977.0,0.125,0.0,-0.0,0.0,0.125,1.6369627230000001,0.01,0.0,0.5699999928474426,-0.5600000023841858,162.47999572753906,0.0125732421875,0.03558349609375,1.01678466796875,36.41999816894531,0.0,-13.0,2.5443878173828125,1.061981201171875,Closing,0.0,0.0,0.0,0.0,0.0,0.0,0.0,0.0,
1.3462840000000014,0.0,0.0,12134.0,0.0,0.0,0.0,0.0,0.125,0.822753822,0.01,0.0,-42595.0,0.0,0.0,-0.0,0.0,0.125,0.5419921320000001,0.01,0.0,39851.0,0.0,0.0,0.0,0.0,0.125,3.388671528,0.01,0.0,-58977.0,0.125,0.0,-0.0,0.0,0.125,1.6369627230000001,0.01,0.0,0.5699999928474426,-0.550000011920929,162.47999572753906,0.00927734375,0.05926513671875,1.02569580078125,36.41999816894531,0.0,-3.0,2.5443878173828125,1.061737060546875,Closing,0.0,0.0,0.0,0.0,0.0,0.0,0.0,0.0,
1.3685470000000004,0.0,0.0,12134.0,0.0,0.0,0.0,0.0,0.125,0.822753822,0.01,0.0,-42595.0,0.0,0.0,-0.0,0.0,0.125,0.5419921320000001,0.01,0.0,39851.0,0.0,0.0,0.0,0.0,0.125,3.388671528,0.01,0.0,-58977.0,0.125,0.0,-0.0,0.0,0.125,1.6357420200000001,0.01,0.0,0.5699999928474426,-0.5600000023841858,162.47999572753906,-0.0091552734375,0.04296875,0.99188232421875,36.41999816894531,0.0,9.0,2.5443878173828125,1.06103515625,Closing,0.0,0.0,0.0,0.0,0.0,0.0,0.0,0.0,
1.3902790000000005,0.0,0.0,12134.0,0.0,0.0,297.63780355453486,0.0,0.125,0.822753822,0.9930264761309718,0.0,-42595.0,0.0,0.0,-297.63780355453486,0.0,0.125,0.5419921320000001,0.9993723010902393,0.0,39851.0,0.0,0.0,297.63780355453486,0.0,0.125,3.389892231,0.9946671413675933,0.0,-58977.0,0.375,0.0,-297.63780355453486,0.0,0.125,1.6369627230000001,0.9982106078253841,0.0,0.5799999833106995,-0.5600000023841858,162.47999572753906,0.00933837890625,6.103515625E-4,1.00152587890625,36.41999816894531,0.0,-21.0,2.5443572998046875,1.0602264404296875,Closing,0.0,0.0,0.0,0.0,0.0,0.0,0.0,0.0,
1.4120579999999991,0.0,0.0,12134.0,0.125,0.0,456.37796044349665,0.0,0.125,0.822753822,0.9930264761309718,0.0,-42595.0,0.0,0.0,-456.37796044349665,0.0,0.125,0.5407714290000001,0.9993723010902393,0.0,39851.0,0.375,0.0,456.37796044349665,0.0,1.375,3.387450825,0.9946671413675933,0.0,-58977.0,0.375,0.0,-456.37796044349665,0.0,0.125,1.6357420200000001,0.9982106078253841,0.0,0.5699999928474426,-0.5600000023841858,162.47999572753906,0.0067138671875,0.02960205078125,1.02166748046875,36.41999816894531,0.0,-10.0,2.5443115234375,1.0597991943359375,Closing,0.0,0.0,0.0,0.0,0.0,0.0,0.0,0.0,
1.4316269999999987,0.0,0.0,12134.0,0.125,0.0,535.7480388879776,0.0,3.5,0.8703612390000001,0.9930264761309718,0.009765624000000028,-42595.0,0.125,0.0,-535.7480388879776,0.0,6.625,0.5566405680000001,0.9993723010902393,0.0,39851.0,0.5,0.0,535.7480388879776,0.0,4.875,3.4704586290000004,0.9946671413675933,0.0,-58977.0,0.625,0.0,-535.7480388879776,0.0,5.625,1.6552732680000002,0.9982106078253841,0.0,0.5699999928474426,-0.5600000023841858,162.47999572753906,-3.0517578125E-4,0.039306640625,1.0157470703125,36.41999816894531,0.0,-25.0,2.5442047119140625,1.0588531494140625,Closing,0.0,0.0,0.0,0.0,0.0,0.0,0.0,0.0,
1.4528520000000007,0.0,0.0,12134.0,0.375,7.5,615.1181173324585,0.0,5.5,1.0046385690000001,0.9928895444189272,0.10986326999999996,-42595.0,0.5,0.0,-615.1181173324585,0.0,8.0,0.7263182850000001,0.9992344943313587,0.0,39851.0,0.75,7.5,615.1181173324585,0.0,5.875,3.6352535340000003,0.9945299834187814,0.0,-58988.0,0.75,-15.0,-615.1181173324585,0.0,6.75,1.828613094,0.998072961256238,0.0,0.5699999928474426,-0.5600000023841858,162.47000122070312,0.05731201171875,0.1004638671875,1.0042724609375,36.41999816894531,0.0,-36.0,2.5440826416015625,1.0582733154296875,Closing,0.0,0.0,0.0,0.0,0.0,0.0,0.0,0.0,
1.4816710000000002,0.0,0.0,12134.0,0.75,37.5,615.1181173324585,0.0,6.125,1.201171752,0.9928895444189272,0.16723631100000014,-42603.0,1.0,0.0,-615.1181173324585,0.0,8.375,0.900878814,0.9992344943313587,0.16601560799999948,39864.0,1.75,60.0,615.1181173324585,0.0,5.125,3.7768550820000004,0.9945299834187814,0.15502928100000002,-58988.0,1.25,-45.0,-615.1181173324585,0.0,7.125,1.982421672,0.998072961256238,0.16235349899999996,0.5699999928474426,-0.5299999713897705,162.47000122070312,0.0843505859375,0.1715087890625,1.0069580078125,36.41999816894531,0.0,-175.0,2.543609619140625,1.0564727783203125,Closing,0.0,0.0,0.0,0.0,0.0,0.0,0.0,0.0,
1.5004630000000017,0.0,0.0,12155.0,1.125,75.0,634.9606275558472,0.0,3.625,1.3415525970000002,0.9927526127068822,0.13671873599999995,-42603.0,1.25,-82.5,-634.9606275558472,0.0,2.625,1.079101452,0.9990966875724777,0.0,39864.0,2.25,97.5,634.9606275558472,0.0,2.0,3.9343257690000004,0.9943928254699692,0.0,-58988.0,1.625,-97.5,-634.9606275558472,0.0,2.375,2.154540795,0.9979353146870915,0.0,0.6600000262260437,-0.3199999928474426,162.42999267578125,0.1529541015625,0.03704833984375,0.84918212890625,36.41999816894531,0.0,-142.0,2.5430908203125,1.0552825927734375,Closing,0.0,0.0,0.0,0.0,0.0,0.0,0.0,0.0,
1.5265470000000005,0.0,0.0,12155.0,1.5,142.5,634.960627555847,0.0,1.125,1.4746092240000002,0.992341399458651,0.15014646900000006,-42603.0,1.25,-165.0,-634.960627555847,0.0,1.5,1.2145994850000001,0.9986828465118397,0.1916503709999997,39864.0,2.875,127.5,634.960627555847,0.0,1.375,4.046630445,0.9939809328206369,0.16723631099999992,-58988.0,1.875,-150.0,-634.960627555847,0.0,1.5,2.283935313,0.9975219546847861,0.1855468560000002,0.6600000262260437,-0.23000000417232513,162.41000366210938,0.20599365234375,0.07293701171875,0.9398193359375,36.41999816894531,0.0,-181.0,2.5423431396484375,1.0539703369140625,Closing,0.0,0.0,0.0,0.0,0.0,0.0,0.0,0.0,
1.5477569999999996,0.0,0.0,12155.0,2.0,142.5,634.9606275558472,0.0,0.875,1.57470687,0.9917934635544235,0.12084959699999986,-42603.0,1.625,-232.5,-634.9606275558472,0.0,1.0,1.335449082,0.9981314090843189,0.15502928100000002,39864.0,3.125,135.0,634.9606275558472,0.0,1.125,4.145507388,0.993432091623941,0.12329100299999984,-58988.0,2.0,-187.5,-634.9606275558472,0.0,1.0,2.409667722,0.9969711582607681,0.14892576600000007,0.75,-0.10999999940395355,162.38999938964844,0.03509521484375,0.02874755859375,1.15576171875,36.41999816894531,0.0,-31.0,2.5404510498046875,1.051025390625,Closing,0.0,0.0,0.0,0.0,0.0,0.0,0.0,0.0,
1.572027,0.0,0.0,12155.0,2.0,127.5,654.8031377792357,0.0,0.75,1.6638181890000001,0.9917934635544235,0.09643553700000007,-42603.0,1.75,-270.0,-654.8031377792357,0.0,0.75,1.442870946,0.9981314090843189,0.10986326999999996,39864.0,3.375,127.5,654.8031377792357,0.0,0.875,4.232177301,0.993432091623941,0.0988769430000005,-58988.0,2.125,-202.5,-654.8031377792357,0.0,0.875,2.5280759130000003,0.9969711582607681,0.12207029999999985,0.8600000143051147,-0.15000000596046448,162.39999389648438,-0.09161376953125,0.1810302734375,1.0538330078125,36.41999816894531,0.0,134.0,2.5386199951171875,1.0478057861328125,Closing,0.0,0.0,0.0,0.0,0.0,0.0,0.0,0.0,
1.5908500000000003,0.0,0.0,12155.0,2.0,127.5,654.8031377792357,0.0,0.625,1.723632636,0.9919303952664682,0.0903320219999999,-42603.0,1.75,-270.0,-654.8031377792357,0.0,0.25,1.485595551,0.9982692158431995,0.08911131900000058,39881.0,3.625,112.5,654.8031377792357,0.0,0.375,4.274901906,0.9935692495727528,0.07202147699999983,-59021.0,2.375,-202.5,-654.8031377792357,0.0,0.375,2.5805661420000003,0.9971088048299142,0.09399413100000009,0.9399999976158142,-0.1899999976158142,162.41000366210938,-0.10235595703125,0.14630126953125,0.8773193359375,36.41999816894531,0.0,134.0,2.537933349609375,1.045989990234375,Closing,0.0,0.0,0.0,0.0,0.0,0.0,0.0,0.125,
1.6138409999999985,0.0,0.0,12166.0,2.75,82.5,654.8031377792358,0.0,0.625,1.771240053,0.9920675360345615,0.0,-42645.0,2.25,-240.0,-654.8031377792358,0.0,0.5,1.5246580470000002,0.9984072329940782,0.0,39881.0,4.0,97.5,654.8031377792358,0.0,0.375,4.312743699,0.993706616923013,0.0,-59021.0,2.625,-195.0,-654.8031377792358,0.0,0.625,2.6379391830000003,0.9972466615464939,0.0,1.1299999952316284,-0.3799999952316284,162.4199981689453,-0.1053466796875,0.093505859375,1.13421630859375,36.41999816894531,0.0,114.0,2.537200927734375,1.0419769287109375,Closing,0.0,0.0,0.0,0.0,0.0,0.0,0.0,0.0,
1.6326960000000017,0.0,0.0,12166.0,3.125,75.0,654.8031377792358,0.0,0.5,1.7919920040000001,0.9922044677466063,0.04028319899999988,-42645.0,2.25,-195.0,-654.8031377792358,0.0,0.125,1.539306483,0.998545039752959,0.03662109000000058,39881.0,4.375,90.0,654.8031377792358,0.0,0.25,4.324950729,0.9938437748718251,0.040283198999999215,-59021.0,3.125,-180.0,-654.8031377792358,0.0,0.375,2.672118867,0.99738430811564,0.05737304099999996,1.2300000190734863,-0.41999998688697815,162.4199981689453,-0.05487060546875,0.16949462890625,1.10174560546875,36.41999816894531,0.0,88.0,2.537078857421875,1.039825439453125,Closing,0.0,0.0,0.0,0.0,0.0,0.0,0.0,0.0,
1.652955,0.0,0.0,12166.0,3.625,97.5,654.8031377792358,0.0,0.375,1.805419737,0.9922044677466063,0.020751951000000046,-42645.0,3.125,-172.5,-654.8031377792358,0.0,0.125,1.536865077,0.998545039752959,0.0,39881.0,4.75,105.0,654.8031377792358,0.0,0.125,4.328612838000001,0.9938437748718251,0.0,-59021.0,3.5,-180.0,-654.8031377792358,0.0,0.375,2.6965329270000002,0.99738430811564,0.0,1.2999999523162842,-0.4099999964237213,162.4199981689453,-0.02886962890625,0.0535888671875,1.0216064453125,36.41999816894531,0.0,29.0,2.5370330810546875,1.037567138671875,Closing,0.0,0.0,0.0,0.0,0.0,0.0,0.0,0.0,
1.6749719999999997,0.0,0.0,12166.0,3.75,120.0,654.8031377792358,0.0,0.25,1.804199034,0.9920675360345615,0.0,-42645.0,3.625,-172.5,-654.8031377792358,0.0,0.25,1.542968592,0.9984072329940782,0.0012207029999995456,39881.0,5.0,120.0,654.8031377792358,0.0,0.125,4.329833541,0.993706616923013,0.004882811999999959,-59021.0,3.75,-195.0,-654.8031377792358,0.0,0.5,2.706298551,0.9972466615464939,0.02075195100000027,1.4299999475479126,-0.3499999940395355,162.3800048828125,0.0506591796875,0.1324462890625,1.03509521484375,36.41999816894531,0.0,-22.0,2.5368499755859375,1.0326690673828125,Closing,0.0,0.0,0.0,0.0,0.0,0.0,0.0,0.0,
1.6945690000000013,0.0,0.0,12166.0,4.0,150.0,654.8031377792357,0.0,0.25,1.807861143,0.9916565318423788,0.0,-42645.0,3.875,-187.5,-654.8031377792357,0.0,0.25,1.544189295,0.9979936023254381,-0.0012207029999995456,39881.0,5.25,150.0,654.8031377792357,0.0,0.0,4.328612838000001,0.9932949336751289,0.0,-59057.0,4.0,-202.5,-654.8031377792357,0.0,0.25,2.717284878,0.9968335116916219,0.0,1.4700000286102295,-0.3499999940395355,162.35000610351562,0.0579833984375,0.1888427734375,1.08648681640625,36.41999816894531,0.0,-12.0,2.536712646484375,1.0299530029296875,Closing,0.0,0.0,0.0,0.0,0.0,0.0,0.0,0.0,
1.726906000000001,0.0,0.0,12166.0,4.125,187.5,654.8031377792357,0.0,0.25,1.804199034,0.9906973826899199,0.0,-42682.0,4.25,-217.5,-654.8031377792357,0.0,0.25,1.544189295,0.9970283238372791,0.0012207029999995456,39914.0,5.5,180.0,654.8031377792357,0.0,0.0,4.328612838000001,0.9923341998291004,0.0,-59057.0,4.25,-210.0,-654.8031377792357,0.0,0.25,2.724609096,0.9958693552652983,0.0012207029999999897,1.5800000429153442,-0.28999999165534973,162.27000427246094,0.0087890625,0.12945556640625,0.94647216796875,36.41999816894531,0.0,18.0,2.5365753173828125,1.0238494873046875,Closing,0.0,0.0,0.0,0.0,0.0,0.0,0.0,0.0,
1.7549169999999994,0.0,0.0,12209.0,4.125,232.5,654.8031377792358,0.0,0.25,1.805419737,0.9901494467856926,0.0,-42682.0,4.75,-277.5,-654.8031377792358,0.0,0.25,1.544189295,0.9964768864097584,0.0,39914.0,5.75,247.5,654.8031377792358,0.0,0.0,4.328612838000001,0.9917853586324045,0.0,-59057.0,4.625,-247.5,-654.8031377792358,0.0,0.25,2.730712611,0.9953185588412803,0.0,1.7300000190734863,-0.2800000011920929,162.19000244140625,-0.0078125,0.11224365234375,1.03076171875,36.41999816894531,0.0,27.0,2.53656005859375,1.017120361328125,Closing,0.0,0.0,0.0,0.0,0.0,0.0,0.0,0.0,
1.7858690000000006,0.0,0.0,12209.0,3.875,307.5,654.8031377792358,0.0,0.25,1.8103025490000002,0.9890533659211891,0.0012207029999999897,-42682.0,4.5,-307.5,-654.8031377792358,0.0,0.25,1.544189295,0.9953738011627188,0.0,39914.0,5.5,277.5,654.8031377792358,0.0,0.0,4.328612838000001,0.9906874668375641,0.0,-59057.0,4.75,-270.0,-654.8031377792358,0.0,0.25,2.725829799,0.9942167558458106,-0.007324218000000382,1.7999999523162842,-0.2800000011920929,162.13999938964844,-0.04144287109375,0.181396484375,1.04034423828125,36.41999816894531,0.0,80.0,2.5366363525390625,1.0135650634765625,Closing,0.0,0.0,0.0,0.0,0.0,0.0,0.0,0.0,
1.8059489999999987,0.0,0.0,12209.0,3.75,345.0,654.803137779236,0.0,0.25,1.804199034,0.9876832125765473,-0.0012207029999999897,-42682.0,4.5,-337.5,-654.803137779236,0.0,0.25,1.569824058,0.9939948920059194,0.0,39914.0,5.375,345.0,654.803137779236,0.0,0.0,4.328612838000001,0.9893150497436514,0.0,-59115.0,5.125,-315.0,-654.803137779236,0.0,0.25,2.701415739,0.9928394495646149,0.0,2.0199999809265137,-0.28999999165534973,161.97999572753906,-0.01287841796875,0.1083984375,1.0521240234375,36.439998626708984,0.0,29.0,2.5370635986328125,1.0023345947265625,Closing,0.0,0.0,0.0,0.0,0.0,0.0,0.0,0.0,
1.845419,0.0,0.0,12209.0,3.625,405.0,654.8031377792358,0.0,0.25,1.7871091920000002,0.986176127519861,0.0012207029999999897,-42750.0,4.125,-405.0,-654.8031377792358,0.0,0.25,1.589355306,0.9924781760902395,0.024414060000000237,39976.0,5.375,375.0,654.8031377792358,0.0,0.0,4.329833541,0.9878054747009268,0.0,-59115.0,5.125,-345.0,-654.8031377792358,0.0,0.25,2.6867673030000003,0.9913244967142731,-0.019531247999999835,2.049999952316284,-0.27000001072883606,161.94000244140625,0.12628173828125,0.041015625,1.02056884765625,36.439998626708984,0.0,-123.0,2.5371551513671875,0.99847412109375,Closing,0.0,0.0,0.0,0.0,0.0,0.0,0.0,0.0,
1.8678150000000004,0.0,0.0,12281.0,3.375,435.0,654.8031377792357,0.0,0.25,1.805419737,0.9856281916156334,0.0,-42750.0,4.125,-442.5,-654.8031377792357,0.0,0.25,1.593017415,0.9919267386627185,0.0,39976.0,5.25,405.0,654.8031377792357,0.0,0.0,4.328612838000001,0.9872566335042307,0.0,-59115.0,4.875,-382.5,-654.8031377792357,0.0,0.25,2.672118867,0.9907737002902549,0.0,2.119999885559082,-0.2199999988079071,161.83999633789062,0.031005859375,0.1513671875,0.98284912109375,36.439998626708984,0.0,2.0,2.53717041015625,0.9902496337890625,Closing,0.0,0.0,0.0,0.0,0.0,0.0,0.0,0.0,
1.887246000000001,0.0,0.0,12281.0,3.25,465.0,654.8031377792358,0.0,0.25,1.804199034,0.9842580382709916,-0.0012207029999999897,-42750.0,3.875,-472.5,-654.8031377792358,0.0,0.25,1.590576009,0.9905478295059192,0.0,39976.0,5.125,435.0,654.8031377792358,0.0,0.0,4.328612838000001,0.9858842164103179,0.0,-59115.0,4.75,-412.5,-654.8031377792358,0.0,0.25,2.667236055,0.9893963940090591,-0.01464843600000032,2.1700000762939453,-0.1899999976158142,161.77999877929688,0.0311279296875,0.14398193359375,0.9912109375,36.439998626708984,0.0,0.0,2.53717041015625,0.98590087890625,Closing,0.0,0.0,0.0,0.0,0.0,0.0,0.0,0.0,
1.9127610000000004,0.0,0.0,12281.0,3.125,495.0,654.8031377792358,0.0,0.25,1.802978331,0.9834360298866259,0.0,-42750.0,3.75,-495.0,-654.8031377792358,0.0,0.25,1.591796712,0.9897205681686387,0.0,39976.0,5.0,457.5,654.8031377792358,0.0,0.0,4.328612838000001,0.9850608499145495,0.0,-59115.0,4.75,-435.0,-654.8031377792358,0.0,0.25,2.658691134,0.9885700942993151,0.0,2.240000009536743,-0.1899999976158142,161.64999389648438,0.0172119140625,0.1510009765625,1.01080322265625,36.439998626708984,0.0,15.0,2.537078857421875,0.9768829345703125,Closing,0.0,0.0,0.0,0.0,0.0,0.0,0.0,0.0,
1.931235999999999,0.0,0.0,12281.0,3.0,525.0,654.8031377792357,0.0,0.25,1.804199034,0.9816548723498015,0.0,-42750.0,3.5,-525.0,-654.8031377792357,0.0,0.25,1.594238118,0.9879280283431995,-0.0012207030000004337,39976.0,4.75,487.5,654.8031377792357,0.0,0.0,4.326171432000001,0.9832767495727528,0.0,-59115.0,4.625,-457.5,-654.8031377792357,0.0,0.25,2.653808322,0.9867796381632475,-0.009765623999999917,2.2899999618530273,-0.14000000059604645,161.55999755859375,-0.00347900390625,0.04833984375,0.9251708984375,36.439998626708984,0.0,4.0,2.5370330810546875,0.972259521484375,Closing,0.0,0.0,0.0,0.0,0.0,0.0,0.0,0.0,
1.949858000000002,0.0,0.0,12281.0,3.0,547.5,654.8031377792358,0.0,0.25,1.80664044,0.980421859773253,0.0,-42750.0,3.25,-547.5,-654.8031377792358,0.0,0.25,1.589355306,0.9866871363372789,0.0,40062.0,4.75,510.0,654.8031377792358,0.0,0.0,4.328612838000001,0.9820416998291003,0.0,-59197.0,4.625,-480.0,-654.8031377792358,0.0,0.25,2.647704807,0.9855401885986315,-0.004882811999999959,2.3499999046325684,-0.15000000596046448,161.47999572753906,-0.0401611328125,-0.05194091796875,1.10626220703125,36.439998626708984,0.0,4.0,2.5370330810546875,0.967681884765625,Closing,0.0,0.0,0.0,0.0,0.0,0.0,0.0,0.0,
1.981049000000001,0.0,0.0,12379.0,2.75,577.5,654.8031377792357,0.0,0.25,1.805419737,0.9783668388123395,0.0,-42843.0,3.125,-570.0,-654.8031377792357,0.0,0.25,1.573486167,0.9846189829940785,-0.009765623999999917,40062.0,4.625,532.5,654.8031377792357,0.0,0.0,4.328612838000001,0.9799832835896799,0.0,-59197.0,4.375,-502.5,-654.8031377792357,0.0,0.25,2.6428219950000003,0.9834744393242718,-0.003662108999999969,2.3399999141693115,-0.11999999731779099,161.33999633789062,-0.032470703125,0.14398193359375,1.01776123046875,36.439998626708984,0.0,61.0,2.5371856689453125,0.9584503173828125,Closing,0.0,0.0,0.0,0.0,0.0,0.0,0.0,0.0,
2.0039970000000014,0.0,0.0,12379.0,2.625,600.0,654.8031377792358,0.0,0.25,1.8127439550000002,0.9774076896598805,-0.0012207029999999897,-42843.0,2.875,-592.5,-654.8031377792358,0.0,0.25,1.560058434,0.9836537045059193,-0.013427732999999886,40062.0,4.375,555.0,654.8031377792358,0.0,0.0,4.328612838000001,0.9790225497436512,0.0,-59197.0,4.25,-540.0,-654.8031377792358,0.0,0.25,2.6428219950000003,0.9825102828979481,0.0,2.369999885559082,-0.07999999821186066,161.2100067138672,0.04876708984375,0.10125732421875,0.89300537109375,36.439998626708984,0.0,-26.0,2.5373382568359375,0.9486846923828125,Closing,0.0,0.0,0.0,0.0,0.0,0.0,0.0,0.0,
2.0268700000000006,0.0,0.0,12379.0,2.5,615.0,377.00788199901575,0.0,0.25,1.809081846,0.9756267411791046,0.003662108999999969,-42843.0,2.875,-615.0,-377.00788199901575,0.0,0.25,1.545409998,0.9818613750724778,-0.013427732999999886,40062.0,4.125,577.5,377.00788199901575,0.0,0.0,4.328612838000001,0.9772386588033027,0.0,-59197.0,3.75,-555.0,-377.00788199901575,0.0,0.25,2.6428219950000003,0.980720036909314,0.0,2.380000114440918,-0.07999999821186066,161.14999389648438,0.0194091796875,0.10113525390625,1.10150146484375,36.439998626708984,0.0,-2.0,2.537353515625,0.9436492919921875,Closing,0.0,0.0,0.0,0.0,0.0,0.0,0.0,0.0,
2.0471669999999995,0.0,0.0,12379.0,2.0,630.0,138.89763727784157,0.0,0.25,1.809081846,0.9739825153543249,0.0012207029999999897,-42843.0,2.25,-630.0,-138.89763727784157,0.0,0.25,1.534423671,0.9802066420059192,-0.010986327000000351,40062.0,3.625,592.5,138.89763727784157,0.0,0.0,4.328612838000001,0.9755917164103178,0.0,-59197.0,2.875,-570.0,-138.89763727784157,0.0,0.25,2.6391598860000003,0.9790672273423925,0.0,2.390000104904175,-0.05000000074505806,161.0399932861328,0.0927734375,0.07672119140625,0.95587158203125,36.439998626708984,0.0,-76.0,2.537261962890625,0.93328857421875,Closing,0.0,0.0,0.0,0.0,0.0,0.0,0.0,0.0,
2.070139000000001,0.0,0.0,12379.0,1.375,645.0,0.0,0.0,0.25,1.809081846,0.9739825153543249,0.0,-42843.0,1.625,-637.5,0.0,0.0,0.25,1.519775235,0.9802066420059192,0.0,40163.0,2.75,615.0,0.0,0.0,0.0,4.329833541,0.9755917164103178,0.0,-59288.0,2.0,-570.0,0.0,0.0,0.25,2.6379391830000003,0.9790672273423925,0.0,2.4000000953674316,-0.05999999865889549,161.0,0.05242919921875,0.01873779296875,1.16998291015625,36.439998626708984,0.0,-60.0,2.537078857421875,0.9280242919921875,Closing,0.0,0.0,0.0,0.0,0.0,0.0,0.0,0.0,
2.088134,0.0,0.0,12379.0,0.5,645.0,0.0,0.0,0.25,1.809081846,0.9739825153543249,0.0,-42940.0,0.75,-630.0,0.0,0.0,0.25,1.514892423,0.9802066420059192,0.0,40163.0,1.375,630.0,0.0,0.0,0.0,4.327392135,0.9755917164103178,0.0,-59288.0,0.5,-562.5,0.0,0.0,0.25,2.6379391830000003,0.9790672273423925,0.0,2.3399999141693115,-0.05999999865889549,160.9600067138672,-0.02545166015625,0.0205078125,1.12603759765625,36.439998626708984,0.0,14.0,2.536865234375,0.92279052734375,Closing,0.0,0.0,0.0,0.0,0.0,0.0,0.0,0.0,
2.1070789999999997,0.0,0.0,12478.0,0.125,637.5,0.0,0.0,0.25,1.809081846,0.9739825153543249,0.0,-42940.0,0.25,-600.0,0.0,0.0,0.25,1.5063475020000001,0.9802066420059192,-0.03417968399999971,40163.0,0.5,630.0,0.0,0.0,0.0,4.326171432000001,0.9755917164103178,0.0,-59288.0,0.125,-540.0,0.0,0.0,0.25,2.6342770740000003,0.9790672273423925,-0.009765623999999917,2.2100000381469727,-0.05999999865889549,160.88999938964844,-0.00823974609375,-0.00390625,1.053955078125,36.439998626708984,0.0,-7.0,2.53631591796875,0.912628173828125,Closing,0.0,0.0,0.0,0.0,0.0,0.0,0.0,0.0,
2.1295759999999992,0.0,0.0,12478.0,0.0,615.0,0.0,0.0,0.25,1.809081846,0.9739825153543249,0.0,-42940.0,0.125,-540.0,0.0,0.0,0.125,1.5051267990000001,0.9802066420059192,-0.03417968399999971,40163.0,0.125,615.0,0.0,0.0,0.0,4.328612838000001,0.9755917164103178,0.0,-59288.0,0.125,-495.0,0.0,0.0,0.25,2.629394262,0.9790672273423925,-0.009765623999999917,2.190000057220459,-0.09000000357627869,160.86000061035156,-0.01873779296875,-0.03076171875,1.028564453125,36.439998626708984,0.0,-6.0,2.5359954833984375,0.907684326171875,Closing,0.0,0.0,0.0,0.0,0.0,0.0,0.0,0.0,
2.1472100000000007,0.0,0.0,12478.0,0.0,570.0,0.0,0.0,0.25,1.809081846,0.9739825153543249,0.0,-42940.0,0.0,-472.5,0.0,0.0,0.125,1.5002439870000002,0.9802066420059192,-0.03417968399999971,40163.0,0.0,577.5,0.0,0.0,0.0,4.328612838000001,0.9755917164103178,0.0,-59288.0,0.125,-495.0,0.0,0.0,0.25,2.628173559,0.9790672273423925,-0.009765623999999917,2.059999942779541,-0.09000000357627869,160.83999633789062,-0.24188232421875,-0.23876953125,1.0557861328125,36.439998626708984,0.0,136.0,2.5357666015625,0.9030303955078125,Closing,0.0,0.0,0.0,0.0,0.0,0.0,0.0,0.0,
2.169246000000001,0.0,0.0,12478.0,0.0,510.0,0.0,0.0,0.25,1.823730282,0.9739825153543249,0.00854492100000015,-42940.0,0.0,-435.0,0.0,0.0,0.125,1.490478363,0.9802066420059192,-0.004882811999999959,40163.0,0.0,532.5,0.0,0.0,0.0,4.333495650000001,0.9755917164103178,0.004882811999999959,-59288.0,0.125,-420.0,0.0,0.0,0.25,2.629394262,0.9790672273423925,-0.004882812000000403,1.850000023841858,-0.12999999523162842,160.80999755859375,-0.11907958984375,-0.11383056640625,1.0693359375,36.439998626708984,0.0,61.0,2.53546142578125,0.8945770263671875,Closing,0.0,0.0,0.0,0.0,0.0,0.0,0.0,0.0,
2.1892879999999986,0.0,0.0,12478.0,0.0,450.0,0.0,0.0,0.25,1.8188474700000001,0.9739825153543249,0.00854492100000015,-42940.0,0.0,-442.5,0.0,0.0,0.125,1.481933442,0.9802066420059192,-0.004882811999999959,40228.0,0.0,472.5,0.0,0.0,0.0,4.333495650000001,0.9755917164103178,0.004882811999999959,-59356.0,0.125,-420.0,0.0,0.0,0.25,2.629394262,0.9790672273423925,-0.004882812000000403,1.7100000381469727,-0.23000000417232513,160.80999755859375,-0.0408935546875,0.04730224609375,0.9578857421875,36.439998626708984,0.0,40.0,2.5353851318359375,0.890594482421875,Closing,0.0,0.0,0.0,0.0,0.0,0.0,0.0,0.0,
2.207538999999999,0.0,0.0,12478.0,0.0,420.0,0.0,0.0,0.25,1.8139646580000002,0.9739825153543249,0.00854492100000015,-43016.0,0.0,-472.5,0.0,0.0,0.125,1.4807127390000001,0.9802066420059192,-0.024414059999999793,40228.0,0.0,420.0,0.0,0.0,0.0,4.334716353,0.9755917164103178,0.0,-59356.0,0.125,-435.0,0.0,0.0,0.25,2.629394262,0.9790672273423925,0.0,1.6399999856948853,-0.2800000011920929,160.7899932861328,-0.0299072265625,-0.01654052734375,1.14227294921875,36.439998626708984,0.0,6.0,2.53515625,0.882843017578125,Closing,0.0,0.0,0.0,0.0,0.0,0.0,0.0,0.0,
2.22892,0.0,0.0,12551.0,0.0,427.5,0.0,0.0,0.25,1.8139646580000002,0.9739825153543249,-0.003662108999999969,-43016.0,0.0,-495.0,0.0,0.0,0.0,1.4807127390000001,0.9802066420059192,-0.024414059999999793,40228.0,0.0,390.0,0.0,0.0,0.0,4.334716353,0.9755917164103178,0.0,-59356.0,0.125,-435.0,0.0,0.0,0.25,2.629394262,0.9790672273423925,0.0,1.5399999618530273,-0.1899999976158142,160.77999877929688,-0.0042724609375,-0.01397705078125,0.83123779296875,36.439998626708984,0.0,-10.0,2.535003662109375,0.8790740966796875,Closing,0.0,0.0,0.0,0.0,0.0,0.0,0.0,0.0,
2.2484740000000003,0.0,0.0,12551.0,0.0,465.0,0.0,0.0,0.25,1.8139646580000002,0.9739825153543249,-0.003662108999999969,-43016.0,0.0,-502.5,0.0,0.0,0.0,1.4807127390000001,0.9802066420059192,-0.024414059999999793,40228.0,0.0,375.0,0.0,0.0,0.0,4.334716353,0.9755917164103178,0.0,-59356.0,0.125,-465.0,0.0,0.0,0.25,2.628173559,0.9790672273423925,0.0,1.440000057220459,-0.18000000715255737,160.77999877929688,-0.01715087890625,-0.03253173828125,0.8443603515625,36.439998626708984,0.0,-4.0,2.535003662109375,0.8753814697265625,Closing,0.0,0.0,0.0,0.0,0.0,0.0,0.0,0.0,
2.2699970000000014,0.0,0.0,12551.0,0.0,495.0,0.0,0.0,0.25,1.8139646580000002,0.9739825153543249,0.0,-43016.0,0.0,-487.5,0.0,0.0,0.0,1.4807127390000001,0.9802066420059192,0.0,40228.0,0.0,390.0,0.0,0.0,0.0,4.333495650000001,0.9755917164103178,0.0,-59356.0,0.125,-487.5,0.0,0.0,0.25,2.629394262,0.9790672273423925,0.0,1.399999976158142,-0.3199999928474426,160.80999755859375,-0.069580078125,-0.05242919921875,1.09759521484375,36.439998626708984,0.0,33.0,2.535247802734375,0.8679962158203125,Closing,0.0,0.0,0.0,0.0,0.0,0.0,0.0,0.0,
2.2875769999999993,0.0,0.0,12551.0,0.0,502.5,0.0,0.0,0.25,1.8151853610000002,0.9739825153543249,0.0,-43016.0,0.0,-450.0,0.0,0.0,0.0,1.4794920360000001,0.9802066420059192,0.0,40228.0,0.0,405.0,0.0,0.0,0.0,4.334716353,0.9755917164103178,0.0,-59356.0,0.125,-480.0,0.0,0.0,0.25,2.629394262,0.9790672273423925,0.0,1.3200000524520874,-0.33000001311302185,160.80999755859375,-0.01300048828125,-0.0687255859375,0.9951171875,36.439998626708984,0.0,-23.0,2.535430908203125,0.8644561767578125,Closing,0.0,0.0,0.0,0.0,0.0,0.0,0.0,0.0,
2.307334000000001,0.0,0.0,12551.0,0.0,472.5,0.0,0.0,0.25,1.8139646580000002,0.9739825153543249,0.0,-43016.0,0.0,-412.5,0.0,0.0,0.0,1.4758299270000002,0.9802066420059192,-0.0024414059999999793,40290.0,0.0,405.0,0.0,0.0,0.0,4.333495650000001,0.9755917164103178,0.0,-59426.0,0.125,-457.5,0.0,0.0,0.25,2.629394262,0.9790672273423925,0.0,1.2599999904632568,-0.3199999928474426,160.8300018310547,-0.0487060546875,-0.17364501953125,1.01251220703125,36.400001525878906,0.0,-23.0,2.5355682373046875,0.8610992431640625,Closing,0.0,0.0,0.0,0.0,0.0,0.0,0.0,0.0,
2.327992,0.0,0.0,12551.0,0.0,427.5,0.0,0.0,0.25,1.8151853610000002,0.9739825153543249,0.0,-43077.0,0.0,-397.5,0.0,0.0,0.0,1.4758299270000002,0.9802066420059192,-0.0024414059999999793,40290.0,0.0,390.0,0.0,0.0,0.0,4.333495650000001,0.9755917164103178,0.0,-59426.0,0.125,-427.5,0.0,0.0,0.25,2.629394262,0.9790672273423925,0.0,1.1699999570846558,-0.3700000047683716,160.83999633789062,-0.025634765625,-0.1478271484375,0.97314453125,36.400001525878906,0.0,-36.0,2.535675048828125,0.858001708984375,Closing,0.0,0.0,0.0,0.0,0.0,0.0,0.0,0.0,
2.346437,0.0,0.0,12613.0,0.0,382.5,0.0,0.0,0.25,1.8139646580000002,0.9739825153543249,0.0,-43077.0,0.0,-390.0,0.0,0.0,0.0,1.4758299270000002,0.9802066420059192,-0.0024414059999999793,40290.0,0.0,367.5,0.0,0.0,0.0,4.333495650000001,0.9755917164103178,0.0,-59426.0,0.125,-412.5,0.0,0.0,0.25,2.629394262,0.9790672273423925,0.0,1.0099999904632568,-0.4000000059604645,160.85000610351562,0.0135498046875,-0.08514404296875,1.01446533203125,36.400001525878906,0.0,-53.0,2.5357513427734375,0.8521728515625,Closing,0.0,0.0,0.0,0.0,0.0,0.0,0.0,0.0,
2.3686319999999994,0.0,0.0,12613.0,0.0,360.0,0.0,0.0,0.25,1.8139646580000002,0.9739825153543249,0.0,-43077.0,0.0,-367.5,0.0,0.0,0.0,1.4758299270000002,0.9802066420059192,-0.0012207030000004337,40290.0,0.0,337.5,0.0,0.0,0.0,4.333495650000001,0.9755917164103178,0.0,-59426.0,0.125,-382.5,0.0,0.0,0.25,2.629394262,0.9790672273423925,0.0,0.9599999785423279,-0.38999998569488525,160.83999633789062,-0.040283203125,-0.18548583984375,1.06903076171875,36.400001525878906,0.0,-35.0,2.53570556640625,0.8495025634765625,Closing,0.0,0.0,0.0,0.0,0.0,0.0,0.0,0.0,
2.3879800000000015,0.0,0.0,12613.0,0.0,345.0,0.0,0.0,0.25,1.8188474700000001,0.9739825153543249,0.0,-43077.0,0.0,-345.0,0.0,0.0,0.125,1.4770506300000001,0.9802066420059192,-0.0012207030000004337,40290.0,0.0,322.5,0.0,0.0,0.0,4.339599165,0.9755917164103178,0.0,-59426.0,0.125,-367.5,0.0,0.0,0.25,2.629394262,0.9790672273423925,0.0,0.8799999952316284,-0.41999998688697815,160.83999633789062,-0.0858154296875,-0.12060546875,1.13958740234375,36.400001525878906,0.0,27.0,2.5356597900390625,0.8470916748046875,Closing,0.0,0.0,0.0,0.0,0.0,0.0,0.0,0.0,
2.4081839999999994,0.0,0.0,12613.0,0.0,330.0,0.0,0.0,0.25,1.8188474700000001,0.9739825153543249,0.0,-43077.0,0.0,-322.5,0.0,0.0,0.125,1.4758299270000002,0.9802066420059192,-0.0012207029999995456,40290.0,0.0,307.5,0.0,0.0,0.0,4.339599165,0.9755917164103178,0.004882811999999959,-59426.0,0.125,-345.0,0.0,0.0,0.25,2.629394262,0.9790672273423925,0.0,0.75,-0.4399999976158142,160.83999633789062,-0.07781982421875,-0.1390380859375,0.91644287109375,36.400001525878906,0.0,17.0,2.53564453125,0.8428192138671875,Closing,0.0,0.0,0.0,0.0,0.0,0.0,0.0,0.0,
2.4303020000000015,0.0,0.0,12613.0,0.0,315.0,0.0,0.0,0.25,1.8139646580000002,0.9739825153543249,0.004882811999999959,-43077.0,0.0,-307.5,0.0,0.0,0.125,1.4758299270000002,0.9802066420059192,-0.0012207029999995456,40337.0,0.0,307.5,0.0,0.0,0.0,4.339599165,0.9755917164103178,0.004882811999999959,-59475.0,0.125,-322.5,0.0,0.0,0.25,2.628173559,0.9790672273423925,0.0,0.6600000262260437,-0.5400000214576721,160.85000610351562,-0.06341552734375,-0.105224609375,1.16217041015625,36.400001525878906,0.0,10.0,2.53564453125,0.83929443359375,Closing,0.0,0.0,0.0,0.0,0.0,0.0,0.0,0.0,
2.449860999999999,0.0,0.0,12613.0,0.0,315.0,0.0,0.0,0.25,1.8139646580000002,0.9739825153543249,0.004882811999999959,-43123.0,0.0,-307.5,0.0,0.0,0.125,1.4758299270000002,0.9802066420059192,-0.0012207029999995456,40337.0,0.0,292.5,0.0,0.0,0.0,4.3383784620000005,0.9755917164103178,0.004882811999999959,-59475.0,0.125,-300.0,0.0,0.0,0.25,2.629394262,0.9790672273423925,0.0,0.5699999928474426,-0.5600000023841858,160.85000610351562,-0.0396728515625,-0.08734130859375,1.00653076171875,36.400001525878906,0.0,-3.0,2.53564453125,0.8377838134765625,Closing,0.0,0.0,0.0,0.0,0.0,0.0,0.0,0.0,
2.472536000000002,0.0,0.0,12656.0,0.0,270.0,0.0,0.0,0.25,1.8139646580000002,0.9739825153543249,-0.004882811999999959,-43123.0,0.0,-262.5,0.0,0.0,0.125,1.4758299270000002,0.9802066420059192,0.0,40337.0,0.0,270.0,0.0,0.0,0.0,4.339599165,0.9755917164103178,0.0,-59475.0,0.125,-270.0,0.0,0.0,0.25,2.628173559,0.9790672273423925,0.0,0.5,-0.5699999928474426,160.86000061035156,0.01092529296875,-0.08135986328125,0.86474609375,36.400001525878906,0.0,-47.0,2.535614013671875,0.836395263671875,Closing,0.0,0.0,0.0,0.0,0.0,0.0,0.0,0.0,
2.491558999999999,0.0,0.0,12656.0,0.0,270.0,0.0,0.0,0.25,1.8139646580000002,0.9739825153543249,-0.004882811999999959,-43123.0,0.0,-262.5,0.0,0.0,0.125,1.4758299270000002,0.9802066420059192,0.0,40337.0,0.0,247.5,0.0,0.0,0.0,4.339599165,0.9755917164103178,0.0,-59475.0,0.125,-247.5,0.0,0.0,0.25,2.629394262,0.9790672273423925,0.0,0.36000001430511475,-0.6299999952316284,160.86000061035156,-0.04901123046875,-0.052734375,1.0552978515625,36.400001525878906,0.0,15.0,2.535491943359375,0.8338470458984375,Closing,0.0,0.0,0.0,0.0,0.0,0.0,0.0,0.0,
2.5155890000000016,0.0,0.0,12656.0,0.0,217.5,0.0,0.0,0.25,1.8151853610000002,0.9739825153543249,0.0,-43123.0,0.0,-210.0,0.0,0.0,0.125,1.4758299270000002,0.9802066420059192,0.0,40337.0,0.0,217.5,0.0,0.0,0.0,4.339599165,0.9755917164103178,0.0,-59475.0,0.125,-225.0,0.0,0.0,0.25,2.628173559,0.9790672273423925,0.0,0.28999999165534973,-0.6299999952316284,160.86000061035156,-0.00848388671875,-0.04931640625,1.0216064453125,36.400001525878906,0.0,-20.0,2.5354461669921875,0.8326873779296875,Closing,0.0,0.0,0.0,0.0,0.0,0.0,0.0,0.0,
2.533503999999999,0.0,0.0,12656.0,0.0,217.5,0.0,0.0,0.25,1.8139646580000002,0.9739825153543249,0.0,-43123.0,0.0,-187.5,0.0,0.0,0.125,1.4770506300000001,0.9802066420059192,0.0,40337.0,0.0,195.0,0.0,0.0,0.0,4.3383784620000005,0.9755917164103178,0.0,-59475.0,0.125,-195.0,0.0,0.0,0.25,2.628173559,0.9790672273423925,0.0,0.2199999988079071,-0.6399999856948853,160.86000061035156,-0.03228759765625,-0.06658935546875,0.95794677734375,36.400001525878906,0.0,-2.0,2.535369873046875,0.8316192626953125,Closing,0.0,0.0,0.0,0.0,0.0,0.0,0.0,0.0,
2.550949999999999,0.0,0.0,12656.0,0.0,187.5,0.0,0.0,0.25,1.8139646580000002,0.9739825153543249,0.0,-43147.0,0.0,-187.5,0.0,0.0,0.125,1.4758299270000002,0.9802066420059192,0.0,40361.0,0.0,195.0,0.0,0.0,0.0,4.339599165,0.9755917164103178,0.0,-59500.0,0.125,-172.5,0.0,0.0,0.25,2.629394262,0.9790672273423925,0.0,0.09000000357627869,-0.7099999785423279,160.8699951171875,-0.02899169921875,-0.0592041015625,1.02252197265625,36.400001525878906,0.0,-4.0,2.535308837890625,0.8297576904296875,Closing,0.0,0.0,0.0,0.0,0.0,0.0,0.0,0.0,
2.573144000000002,0.0,0.0,12675.0,0.0,157.5,0.0,0.0,0.25,1.8139646580000002,0.9739825153543249,0.0,-43147.0,0.0,-157.5,0.0,0.0,0.125,1.4758299270000002,0.9802066420059192,0.0,40361.0,0.0,135.0,0.0,0.0,0.0,4.339599165,0.9755917164103178,0.0,-59500.0,0.125,-142.5,0.0,0.0,0.25,2.628173559,0.9790672273423925,0.0,0.03999999910593033,-0.7099999785423279,160.8699951171875,-0.0423583984375,-0.1177978515625,0.999267578125,36.400001525878906,0.0,-10.0,2.535308837890625,0.829010009765625,Closing,0.0,0.0,0.0,0.0,0.0,0.0,0.0,0.0,
2.5916979999999983,0.0,0.0,12675.0,0.0,135.0,0.0,0.0,0.25,1.8139646580000002,0.9739825153543249,0.0,-43147.0,0.0,-135.0,0.0,0.0,0.125,1.4758299270000002,0.9802066420059192,0.0,40361.0,0.0,135.0,0.0,0.0,0.0,4.3383784620000005,0.9755917164103178,0.0,-59500.0,0.125,-120.0,0.0,0.0,0.25,2.629394262,0.9790672273423925,0.0,-0.009999999776482582,-0.7300000190734863,160.8699951171875,-0.02886962890625,-0.09576416015625,1.0811767578125,36.400001525878906,0.0,-17.0,2.535308837890625,0.828399658203125,Closing,0.0,0.0,0.0,0.0,0.0,0.0,0.0,0.0,
2.610187,0.0,0.0,12675.0,0.0,105.0,0.0,0.0,0.25,1.8139646580000002,0.9739825153543249,0.0,-43147.0,0.0,-112.5,0.0,0.0,0.125,1.4758299270000002,0.9802066420059192,0.0,40361.0,0.0,82.5,0.0,0.0,0.0,4.339599165,0.9755917164103178,0.0,-59500.0,0.125,-90.0,0.0,0.0,0.25,2.628173559,0.9790672273423925,0.0,-0.11999999731779099,-0.7799999713897705,160.86000061035156,-0.0523681640625,-0.103515625,1.0125732421875,36.400001525878906,0.0,3.0,2.535308837890625,0.8274993896484375,Closing,0.0,0.0,0.0,0.0,0.0,0.0,0.0,0.0,
2.6313190000000013,0.0,0.0,12675.0,0.0,82.5,0.0,0.0,0.25,1.8139646580000002,0.9739825153543249,0.0,-43147.0,0.0,-82.5,0.0,0.0,0.125,1.4758299270000002,0.9802066420059192,0.0,40361.0,0.0,82.5,0.0,0.0,0.0,4.3383784620000005,0.9755917164103178,0.0,-59500.0,0.125,-67.5,0.0,0.0,0.25,2.628173559,0.9790672273423925,0.0,-0.18000000715255737,-0.7900000214576721,160.85000610351562,-0.04364013671875,-0.1031494140625,0.96270751953125,36.400001525878906,0.0,-4.0,2.535308837890625,0.827239990234375,Closing,0.0,0.0,0.0,0.0,0.0,0.0,0.0,0.0,
2.650393000000002,0.0,0.0,12675.0,0.0,60.0,0.0,0.0,0.25,1.8139646580000002,0.9739825153543249,0.0,-43147.0,0.0,-60.0,0.0,0.0,0.125,1.4770506300000001,0.9802066420059192,0.0,40361.0,0.125,52.5,0.0,0.0,0.0,4.3383784620000005,0.9755917164103178,0.0,-59500.0,0.125,-67.5,0.0,0.0,0.25,2.629394262,0.9790672273423925,0.0,-0.20999999344348907,-0.800000011920929,160.85000610351562,-0.05462646484375,-0.09814453125,1.05828857421875,36.400001525878906,0.0,6.0,2.535308837890625,0.8271331787109375,Closing,0.0,0.0,0.0,0.0,0.0,0.0,0.0,0.0,
2.673134,0.0,0.0,12675.0,0.0,37.5,0.0,0.0,0.25,1.8139646580000002,0.9739825153543249,0.0,-43150.0,0.0,-45.0,0.0,0.0,0.125,1.4758299270000002,0.9802066420059192,0.0,40363.0,0.0,30.0,0.0,0.0,0.0,4.3383784620000005,0.9755917164103178,0.0,-59503.0,0.125,-22.5,0.0,0.0,0.25,2.629394262,0.9790672273423925,0.0,-0.25,-0.800000011920929,160.86000061035156,-0.03240966796875,-0.04107666015625,0.98052978515625,36.400001525878906,0.0,5.0,2.535308837890625,0.8272552490234375,Closing,0.0,0.0,0.0,0.0,0.0,0.0,0.0,0.0,
2.691664999999999,0.0,0.0,12676.0,0.0,15.0,0.0,0.0,0.25,1.8139646580000002,0.9739825153543249,0.0,-43150.0,0.0,-22.5,0.0,0.0,0.125,1.4758299270000002,0.9802066420059192,0.0,40363.0,0.0,15.0,0.0,0.0,0.0,4.339599165,0.9755917164103178,0.0,-59503.0,0.125,-7.5,0.0,0.0,0.25,2.629394262,0.9790672273423925,0.0,-0.25,-0.800000011920929,160.86000061035156,-0.03851318359375,-0.039794921875,1.018310546875,36.400001525878906,0.0,11.0,2.535308837890625,0.8274078369140625,Closing,0.0,0.0,0.0,0.0,0.0,0.0,0.0,0.0,
2.7172879999999986,0.0,0.0,12676.0,0.0,7.5,0.0,0.0,0.25,1.8139646580000002,0.9739825153543249,0.0,-43150.0,0.0,-7.5,0.0,0.0,0.125,1.4758299270000002,0.9802066420059192,0.0,40363.0,0.0,0.0,0.0,0.0,0.0,4.339599165,0.9755917164103178,0.0,-59503.0,0.125,0.0,0.0,0.0,0.25,2.629394262,0.9790672273423925,0.0,-0.23999999463558197,-0.8199999928474426,160.8699951171875,-0.00543212890625,-0.00665283203125,1.04473876953125,36.400001525878906,0.0,-9.0,2.535308837890625,0.827850341796875,Closing,0.0,0.0,0.0,0.0,0.0,0.0,0.0,0.0,
2.7341720000000005,0.0,0.0,12676.0,0.0,0.0,0.0,0.0,0.25,1.8139646580000002,0.9739825153543249,0.0,-43150.0,0.0,0.0,0.0,0.0,0.125,1.4758299270000002,0.9802066420059192,0.0,40363.0,0.0,0.0,0.0,0.0,0.0,4.3383784620000005,0.9755917164103178,0.0,-59503.0,0.125,0.0,0.0,0.0,0.25,2.629394262,0.9790672273423925,0.0,-0.23999999463558197,-0.8100000023841858,160.86000061035156,0.010498046875,0.0020751953125,0.993896484375,36.400001525878906,0.0,-21.0,2.5352783203125,0.827850341796875,Closing,0.0,0.0,0.0,0.0,0.0,0.0,0.0,0.0,
2.752526,0.0,0.0,12676.0,0.0,0.0,0.0,0.0,0.25,1.8139646580000002,0.9739825153543249,0.0,-43150.0,0.0,0.0,0.0,0.0,0.125,1.4758299270000002,0.9802066420059192,0.0,40363.0,0.0,0.0,0.0,0.0,0.0,4.3383784620000005,0.9755917164103178,0.0,-59503.0,0.125,0.0,0.0,0.0,0.25,2.629394262,0.9790672273423925,0.0,-0.2199999988079071,-0.8100000023841858,160.86000061035156,0.0185546875,0.0322265625,0.9931640625,36.400001525878906,0.0,-19.0,2.5352325439453125,0.8278045654296875,Closing,0.0,0.0,0.0,0.0,0.0,0.0,0.0,0.0,
2.7765530000000016,0.0,0.0,12676.0,0.0,0.0,0.0,0.0,0.25,1.8139646580000002,0.9739825153543249,0.0,-43150.0,0.0,0.0,0.0,0.0,0.125,1.4758299270000002,0.9802066420059192,0.0,40363.0,0.0,0.0,0.0,0.0,0.0,4.337157759,0.9755917164103178,0.0,-59503.0,0.125,0.0,0.0,0.0,0.25,2.629394262,0.9790672273423925,0.0,-0.1899999976158142,-0.7900000214576721,160.85000610351562,0.00421142578125,0.07122802734375,1.010009765625,36.400001525878906,0.0,7.0,2.53515625,0.82745361328125,Closing,0.0,0.0,0.0,0.0,0.0,0.0,0.0,0.0,
2.7950530000000016,0.0,0.0,12676.0,0.0,0.0,0.0,0.0,0.25,1.8139646580000002,0.9739825153543249,0.0,-43150.0,0.0,0.0,0.0,0.0,0.125,1.4758299270000002,0.9802066420059192,0.0,40363.0,0.0,0.0,0.0,0.0,0.0,4.3383784620000005,0.9755917164103178,0.0,-59503.0,0.125,0.0,0.0,0.0,0.25,2.628173559,0.9790672273423925,0.0,-0.17000000178813934,-0.7799999713897705,160.85000610351562,-9.765625E-4,0.0291748046875,0.98779296875,36.400001525878906,0.0,-1.0,2.53515625,0.8271484375,Closing,0.0,0.0,0.0,0.0,0.0,0.0,0.0,0.0,
2.817951999999999,0.0,0.0,12676.0,0.0,0.0,0.0,0.0,0.25,1.8139646580000002,0.9739825153543249,-0.0012207029999999897,-43150.0,0.0,0.0,0.0,0.0,0.125,1.4758299270000002,0.9802066420059192,0.0,40363.0,0.0,0.0,0.0,0.0,0.0,4.339599165,0.9755917164103178,0.0,-59503.0,0.125,0.0,0.0,0.0,0.25,2.629394262,0.9790672273423925,0.0,-0.1599999964237213,-0.7900000214576721,160.85000610351562,-0.006103515625,0.05902099609375,1.02276611328125,36.380001068115234,0.0,12.0,2.53515625,0.8267669677734375,Closing,0.0,0.0,0.0,0.0,0.0,0.0,0.0,0.0,
2.834317000000001,0.0,0.0,12676.0,0.0,0.0,0.0,0.0,0.25,1.8139646580000002,0.9739825153543249,-0.0012207029999999897,-43150.0,0.0,0.0,0.0,0.0,0.125,1.4758299270000002,0.9802066420059192,0.0,40363.0,0.0,0.0,0.0,0.0,0.0,4.3383784620000005,0.9755917164103178,0.0,-59503.0,0.125,0.0,0.0,0.0,0.25,2.628173559,0.9790672273423925,0.0,-0.11999999731779099,-0.7900000214576721,160.85000610351562,-7.9345703125E-4,0.05902099609375,0.99688720703125,36.380001068115234,0.0,7.0,2.5352325439453125,0.8257293701171875,Closing,0.0,0.0,0.0,0.0,0.0,0.0,0.0,0.125,
2.8547970000000005,0.0,0.0,12676.0,0.0,0.0,0.0,0.0,0.25,1.8139646580000002,0.9739825153543249,-0.0012207029999999897,-43150.0,0.0,0.0,0.0,0.0,0.125,1.4758299270000002,0.9802066420059192,0.0,40363.0,0.0,0.0,0.0,0.0,0.0,4.3383784620000005,0.9755917164103178,0.0,-59503.0,0.125,0.0,0.0,0.0,0.25,2.628173559,0.9790672273423925,0.0012207029999999897,-0.10000000149011612,-0.7799999713897705,160.85000610351562,0.0123291015625,0.01763916015625,1.01220703125,36.380001068115234,0.0,-18.0,2.5352630615234375,0.8250885009765625,Closing,0.0,0.0,0.0,0.0,0.0,0.0,0.0,0.125,
2.8788870000000006,0.0,0.0,12676.0,0.0,0.0,0.0,0.0,0.25,1.8139646580000002,0.9739825153543249,0.0012207029999999897,-43150.0,0.0,0.0,0.0,0.0,0.125,1.4758299270000002,0.9802066420059192,0.0,40363.0,0.0,0.0,0.0,0.0,0.0,4.3383784620000005,0.9755917164103178,0.0,-59503.0,0.125,0.0,0.0,0.0,0.25,2.628173559,0.9790672273423925,0.0012207029999999897,-0.07999999821186066,-0.7699999809265137,160.86000061035156,0.00482177734375,0.0172119140625,1.03973388671875,36.380001068115234,0.0,-11.0,2.5352630615234375,0.824432373046875,Closing,0.0,0.0,0.0,0.0,0.0,0.0,0.0,0.125,
2.8976809999999986,0.0,0.0,12676.0,0.0,0.0,0.0,0.0,0.25,1.8139646580000002,0.9739825153543249,0.0012207029999999897,-43150.0,0.0,0.0,0.0,0.0,0.125,1.4758299270000002,0.9802066420059192,0.0,40363.0,0.0,0.0,0.0,0.0,0.0,4.3383784620000005,0.9755917164103178,0.0,-59503.0,0.125,0.0,0.0,0.0,0.25,2.629394262,0.9790672273423925,0.0012207029999999897,-0.05000000074505806,-0.75,160.86000061035156,-0.018798828125,0.00335693359375,1.02349853515625,36.380001068115234,0.0,6.0,2.5352630615234375,0.8229827880859375,Closing,0.0,0.0,0.0,0.0,0.0,0.0,0.0,0.0,
2.9294980000000015,0.0,0.0,12676.0,0.0,0.0,0.0,0.0,0.25,1.8139646580000002,0.9739825153543249,0.0,-43150.0,0.0,0.0,0.0,0.0,0.125,1.4758299270000002,0.9802066420059192,0.0,40363.0,0.0,0.0,0.0,0.0,0.0,4.3383784620000005,0.9755917164103178,0.0,-59503.0,0.125,0.0,0.0,0.0,0.25,2.629394262,0.9790672273423925,-0.0012207029999999897,-0.009999999776482582,-0.75,160.86000061035156,-0.042236328125,-0.01904296875,1.02484130859375,36.380001068115234,0.0,21.0,2.5352935791015625,0.8216094970703125,Closing,0.0,0.0,0.0,0.0,0.0,0.0,0.0,0.0,
2.9477450000000007,0.0,0.0,12676.0,0.0,0.0,0.0,0.0,0.25,1.8139646580000002,0.9739825153543249,0.0,-43150.0,0.0,0.0,0.0,0.0,0.125,1.4758299270000002,0.9802066420059192,0.0,40363.0,0.0,0.0,0.0,0.0,0.0,4.3383784620000005,0.9755917164103178,0.0,-59503.0,0.125,0.0,0.0,0.0,0.25,2.629394262,0.9790672273423925,-0.0012207029999999897,0.0,-0.7400000095367432,160.85000610351562,-0.025390625,-0.00262451171875,1.02685546875,36.380001068115234,0.0,10.0,2.53533935546875,0.8209686279296875,Closing,0.0,0.0,0.0,0.0,0.0,0.0,0.0,0.0,
2.969563,0.0,0.0,12676.0,0.0,0.0,0.0,0.0,0.25,1.8139646580000002,0.9739825153543249,0.0,-43150.0,0.0,0.0,0.0,0.0,0.125,1.4758299270000002,0.9802066420059192,0.0,40363.0,0.0,0.0,0.0,0.0,0.0,4.339599165,0.9755917164103178,0.0,-59503.0,0.125,0.0,0.0,0.0,0.25,2.628173559,0.9790672273423925,0.0,0.019999999552965164,-0.7300000190734863,160.85000610351562,-0.02178955078125,-0.03033447265625,1.0238037109375,36.380001068115234,0.0,-1.0,2.535400390625,0.820343017578125,Closing,0.0,0.0,0.0,0.0,0.0,0.0,0.0,0.0,
