Time,ClimberA1,ClimberA2,FRpos,FRCurrent,FRspeed,FRsetpoint,FRApos,FRACurrent,FREncpos,FREncSetpoint,FREncSpeed,FLpos,FLCurrent,FLspeed,FLsetpoint,FLApos,FLACurrent,FLEncpos,FLEncSetpoint,FLEncSpeed,BRpos,BRCurrent,BRspeed,BRsetpoint,BRApos,BRACurrent,BREncpos,BREncSetpoint,BREncSpeed,BLpos,BLCurrent,BLspeed,BLsetpoint,BLApos,BLACurrent,BLEncpos,BLEncSetpoint,BLEncSpeed,navx_Pitch,navx_Roll,navx_Yaw,navx_XAcc,navx_YAcc,navx_ZAcc,navx_Temp,navx_Bar,navx_Alt,navx_XDis,navx_YDis,GearPlacerState,ShootOutputV,ShootOutputCurrent,ShootEncPos,ShootEncVelocity,ShootSpeed,ShootSetpoint,CarouselSetpoint,CarouselCurrent,
0.21991599999999972,0.0,0.0,2992.0,0.0,0.0,0.0,0.0,0.0,4.489745634,0.01,0.0,-2928.0,0.0,0.0,0.0,0.0,0.0,4.195556211,0.01,0.0,2549.0,0.0,0.0,0.0,0.0,0.0,2.078857209,0.01,0.0,-2733.0,0.0,0.0,0.0,0.0,0.125,0.416259723,0.01,0.0,0.3400000035762787,-0.18000000715255737,-4.75,0.0108642578125,0.01824951171875,1.00396728515625,28.690000534057617,0.0,12.0,0.2110137939453125,-0.0035552978515625,Waiting,0.0,0.0,0.0,0.0,0.0,0.0,0.0,0.0,
0.32226099999999996,0.0,0.0,2992.0,0.0,0.0,0.0,0.0,2.25,4.50439407,0.01,3.6785249310000006,-2928.0,0.0,0.0,-0.0,0.0,0.75,4.200439023,0.01,3.689326211000001,2549.0,0.0,0.0,0.0,0.0,0.75,2.093505645,0.01,3.668036506,-2733.0,0.0,0.0,-0.0,0.0,0.125,0.42114253500000004,0.01,3.7542597229999997,0.3499999940395355,-0.17000000178813934,-4.75,0.003173828125,-0.02996826171875,1.03802490234375,28.690000534057617,0.0,9.0,0.2105712890625,-0.0040435791015625,Closing,0.0,0.0,0.0,0.0,0.0,0.0,0.0,0.0,
0.3495239999999999,0.0,0.0,2992.0,0.0,0.0,0.0,0.0,4.625,4.62646437,0.01,3.6785249310000006,-2928.0,0.0,0.0,-0.0,0.0,6.875,4.312743699,0.01,3.689326211000001,2549.0,0.0,0.0,0.0,0.0,4.375,2.238769302,0.01,3.668036506,-2733.0,0.0,0.0,-0.0,0.0,5.125,0.527343696,0.01,3.7542597229999997,0.3199999928474426,-0.18000000715255737,-4.75,0.03167724609375,0.02569580078125,0.96417236328125,28.65999984741211,0.0,33.0,0.2105865478515625,-0.0045318603515625,Closing,0.0,0.0,0.0,0.0,0.0,0.0,0.0,0.0,
0.37938099999999986,0.0,0.0,2992.0,0.0,0.0,0.0,0.0,5.375,4.847411613,0.01,0.06958007099999985,-2928.0,0.0,0.0,-0.0,0.0,7.625,4.536132348000001,0.01,0.04272460500000008,2549.0,0.0,0.0,0.0,0.0,5.75,2.443847406,0.01,0.05493163499999998,-2733.0,0.0,0.0,-0.0,0.0,6.625,0.740966721,0.01,0.004882811999999959,0.3499999940395355,-0.20000000298023224,-4.739999771118164,-0.04302978515625,-0.00439453125,1.04669189453125,28.65999984741211,0.0,-38.0,0.2106475830078125,-0.0050048828125,Closing,0.0,0.0,0.0,0.0,0.0,0.0,0.0,0.0,
0.4069949999999999,0.0,0.0,2992.0,0.0,0.0,0.0,0.0,3.875,0.08422850700000001,0.01,0.06958007099999985,-2928.0,0.0,0.0,-0.0,0.0,1.75,4.716796392,0.01,0.369873009,2549.0,0.0,-15.0,0.0,0.0,2.25,2.6416012920000003,0.01,0.34790035500000016,-2733.0,0.0,-7.5,-0.0,0.0,1.875,0.941162013,0.01,0.33569332500000026,0.3400000035762787,-0.1899999976158142,-4.71999979019165,-0.0303955078125,0.0130615234375,1.0220947265625,28.65999984741211,0.0,-27.0,0.210601806640625,-0.005615234375,Closing,0.0,0.0,0.0,0.0,0.0,0.0,0.0,0.0,
0.43366899999999986,0.0,0.0,2992.0,0.0,0.0,0.0,0.0,1.375,0.28076169,0.01,0.36132808799999916,-2933.0,0.0,0.0,-0.0,0.0,1.0,4.949950665,0.01,0.369873009,2541.0,0.0,-30.0,0.0,0.0,1.75,2.8417965840000003,0.01,0.34790035500000016,-2737.0,0.0,-15.0,-0.0,0.0,1.375,1.129150275,0.01,0.33569332500000026,0.3499999940395355,-0.20000000298023224,-4.699999809265137,-0.06195068359375,-0.025146484375,0.9964599609375,28.65999984741211,0.0,-55.0,0.210418701171875,-0.00634765625,Closing,0.0,0.0,0.0,0.0,0.0,0.0,0.0,0.0,
0.46963799999999994,0.0,0.0,2992.0,0.0,0.0,0.0,0.0,1.125,0.46630854600000005,0.01,0.36438037400000045,-2933.0,0.0,-30.0,-0.0,0.0,1.0,0.261230442,0.01,-4.554442893,2541.0,0.0,-60.0,0.0,0.0,1.375,3.079833669,0.01,0.41870112900000045,-2737.0,0.0,-30.0,-0.0,0.0,1.375,1.365966657,0.01,0.417480426,0.3499999940395355,-0.20999999344348907,-4.679999828338623,0.0341796875,0.00726318359375,1.0162353515625,28.65999984741211,0.0,37.0,0.210052490234375,-0.0072479248046875,Closing,0.0,0.0,0.0,0.0,0.0,0.0,0.0,0.0,
0.5020529999999999,0.0,0.0,2992.0,0.0,0.0,0.0,0.0,0.875,0.58593744,0.01,0.36438037400000045,-2933.0,0.0,-45.0,-0.0,0.0,0.75,0.372314415,0.01,-4.554442893,2541.0,0.0,-67.5,0.0,0.0,0.875,3.171386394,0.01,0.41870112900000045,-2737.0,0.0,-37.5,-0.0,0.0,1.0,1.457519382,0.01,0.417480426,0.3499999940395355,-0.20000000298023224,-4.659999847412109,0.018310546875,0.03265380859375,0.99310302734375,28.65999984741211,0.0,19.0,0.209808349609375,-0.0081329345703125,Closing,0.0,0.0,0.0,0.0,0.0,0.0,0.0,0.0,
0.5293800000000001,0.0,0.0,2992.0,0.0,0.0,0.0,0.0,0.625,0.667724541,0.01,0.1794433409999998,-2933.0,0.0,-60.0,-0.0,0.0,0.5,0.45410151600000004,0.01,0.2502441149999992,2541.0,0.0,-67.5,0.0,0.0,0.125,3.254394198,0.01,0.20629880699999958,-2737.0,0.0,-30.0,-0.0,0.0,0.25,1.544189295,0.01,0.21240232199999998,0.36000001430511475,-0.20000000298023224,-4.650000095367432,0.00396728515625,0.0350341796875,1.061767578125,28.65999984741211,0.0,5.0,0.209808349609375,-0.0088348388671875,Closing,0.0,0.0,0.0,0.0,0.0,0.0,0.0,0.0,
0.5526860000000001,0.0,0.0,2992.0,0.0,0.0,-216.56249999999997,0.0,0.375,0.7116698490000001,3.635480006610068,0.15991209299999998,-2933.0,0.0,-52.5,-216.56249999999997,0.0,0.25,0.496826121,1.1768271361850513,0.16845701400000035,2535.0,0.0,-45.0,-216.56249999999997,0.0,0.125,3.298339506,3.6414864986912425,0.0,-2742.0,0.0,-30.0,216.56249999999997,0.0,0.25,1.5808103850000002,3.6544591653532468,0.0,0.3400000035762787,-0.1899999976158142,-4.659999847412109,0.01324462890625,0.01751708984375,1.00445556640625,28.65999984741211,0.0,15.0,0.209808349609375,-0.00946044921875,Closing,0.0,0.0,0.0,0.0,0.0,0.0,0.0,0.0,
0.5811949999999997,0.0,0.0,2992.0,0.0,0.0,-630.0000000000001,0.0,4.0,0.6848143830000001,3.6353430030350067,0.04272460500000008,-2939.0,0.0,-37.5,-630.0000000000001,0.0,1.5,0.551757756,1.1766892571039211,0.029296871999999752,2535.0,0.0,-30.0,630.0000000000001,0.0,3.25,3.239745762,1.1711492687606824,0.03662108999999969,-2742.0,0.0,-22.5,-630.0000000000001,0.0,2.25,1.520995938,1.1753214465459199,0.03662108999999969,0.33000001311302185,-0.18000000715255737,-4.659999847412109,-3.662109375E-4,-0.01171875,0.9942626953125,28.65999984741211,0.0,4.0,0.209808349609375,-0.00946044921875,Closing,0.0,0.0,0.0,0.0,0.0,0.0,0.0,0.0,
0.6088229999999999,0.0,0.0,2992.0,0.0,0.0,-1294.9797898453935,0.0,6.375,0.538330023,3.756100296567364,-0.13061522100000023,-2939.0,0.0,-30.0,-1294.9797898453935,0.0,6.375,0.72021477,1.2982182366544568,0.0,2535.0,0.125,-22.5,-1294.9797898453935,0.0,6.0,3.084716481,3.762306075899504,0.0,-2742.0,0.75,-15.0,1294.9797898453935,0.0,7.125,1.339111191,3.7757091580256135,0.0,0.3199999928474426,-0.17000000178813934,-4.670000076293945,-0.023193359375,-0.05511474609375,0.9686279296875,28.65999984741211,0.0,-15.0,0.209808349609375,-0.009490966796875,Closing,0.0,0.0,0.0,0.0,0.0,0.0,0.0,0.0,
0.6330180000000001,0.0,0.0,2992.0,1.0,0.0,-884.990223128438,0.0,6.625,0.391845663,3.8672451003025325,-0.13793943900000016,-2939.0,1.0,-22.5,-884.990223128438,0.0,6.625,0.8959960020000001,1.4100732988636833,0.1733398260000003,2535.0,1.75,-7.5,-884.990223128438,0.0,3.625,2.910155952,3.873634511612372,-0.16235349899999996,-2742.0,1.875,-7.5,884.990223128438,0.0,5.875,1.204833861,3.8874341973472064,-0.15624998399999956,0.3199999928474426,-0.1599999964237213,-4.679999828338623,0.03814697265625,0.07568359375,1.09185791015625,28.65999984741211,0.0,35.0,0.209869384765625,-0.009674072265625,Closing,0.0,0.0,0.0,0.0,0.0,0.0,0.0,0.0,
0.656721,0.0,0.0,2992.0,2.25,-37.5,-216.5625,0.0,1.0,0.208740213,3.635068989351882,0.0,-2939.0,2.625,-135.0,-216.5625,0.0,1.75,1.116943245,1.1764134923669112,0.0,2535.0,1.0,-7.5,-216.5625,0.0,1.125,2.703857145,3.641074802355768,0.0,-2742.0,1.75,15.0,216.5625,0.0,1.0,0.9704588850000001,3.65404600236416,0.0,0.3799999952316284,-0.28999999165534973,-4.659999847412109,-0.1380615234375,0.15118408203125,1.27362060546875,28.65999984741211,0.0,-142.0,0.20941162109375,-0.0095977783203125,Closing,0.0,0.0,0.0,0.0,0.0,0.0,0.0,0.0,
0.6939769999999998,0.0,0.0,2979.0,1.5,-112.5,0.0,0.0,0.875,0.028076169,3.635068989351882,0.0,-2973.0,2.0,-202.5,0.0,0.0,1.0,1.311035022,1.1764134923669112,0.0,2530.0,0.0,-15.0,0.0,0.0,0.875,2.506103259,3.641074802355768,0.0,-2733.0,0.625,67.5,0.0,0.0,0.875,0.7788085140000001,3.65404600236416,0.0,0.3499999940395355,-0.3700000047683716,-4.590000152587891,0.00372314453125,0.04974365234375,0.9276123046875,28.65999984741211,0.0,6.0,0.2086639404296875,-0.0094146728515625,Closing,0.0,0.0,0.0,0.0,0.0,0.0,0.0,0.0,
0.7277019999999997,0.0,0.0,2979.0,0.0,-82.5,0.0,0.0,0.875,4.769286621,3.635068989351882,-0.21484372799999996,-2973.0,0.125,-240.0,0.0,0.0,0.5,1.4758299270000002,1.1764134923669112,0.24780270900000012,2530.0,0.0,-22.5,0.0,0.0,0.875,2.349853275,3.641074802355768,-0.24291989700000016,-2733.0,0.125,75.0,0.0,0.0,1.0,0.599365173,3.65404600236416,-0.27343747199999946,0.33000001311302185,-0.41999998688697815,-4.5,-0.08929443359375,-0.085693359375,0.9910888671875,28.65999984741211,0.0,-74.0,0.2075958251953125,-0.00927734375,Closing,0.0,0.0,0.0,0.0,0.0,0.0,0.0,0.0,
0.7494189999999998,0.0,0.0,2979.0,0.0,-37.5,0.0,0.0,0.625,4.681396005,3.635068989351882,-0.21484372799999996,-2973.0,0.0,-180.0,0.0,0.0,0.5,1.568603355,1.1764134923669112,0.24780270900000012,2530.0,0.0,-22.5,0.0,0.0,0.625,2.259521253,3.641074802355768,-0.24291989700000016,-2733.0,0.0,75.0,0.0,0.0,0.875,0.48706049700000004,3.65404600236416,-0.27343747199999946,0.3100000023841858,-0.38999998569488525,-4.480000019073486,-0.00677490234375,-0.0235595703125,0.93365478515625,28.65999984741211,0.0,1.0,0.206939697265625,-0.009307861328125,Closing,0.0,0.0,0.0,0.0,0.0,0.0,0.0,0.0,
0.7745879999999997,0.0,0.0,2979.0,0.0,0.0,0.0,0.0,0.625,4.57763625,3.635068989351882,-0.29724170899999924,-2973.0,0.0,-97.5,0.0,0.0,0.25,1.673583813,1.1764134923669112,0.313720671,2530.0,0.0,-15.0,0.0,0.0,0.625,2.147216577,3.641074802355768,-0.31738278,-2733.0,0.0,22.5,0.0,0.0,0.25,0.383300742,3.65404600236416,-0.35644527600000053,0.30000001192092896,-0.41999998688697815,-4.46999979019165,0.0635986328125,-0.00537109375,1.126953125,28.65999984741211,0.0,72.0,0.2057952880859375,-0.0093841552734375,Closing,0.0,0.0,0.0,0.0,0.0,0.0,0.0,0.0,
0.8016100000000002,0.0,0.0,2980.0,0.0,30.0,0.0,0.0,0.375,4.530028833,3.635068989351882,-0.29724170899999924,-2973.0,0.0,-30.0,0.0,0.0,0.25,1.7102049030000002,1.1764134923669112,0.313720671,2533.0,0.0,7.5,0.0,0.0,0.25,2.108154081,3.641074802355768,-0.31738278,-2731.0,0.0,7.5,0.0,0.0,0.25,0.339355434,3.65404600236416,-0.1916503709999997,0.2800000011920929,-0.23999999463558197,-4.480000019073486,0.08203125,0.003662109375,1.02044677734375,28.65999984741211,0.0,86.0,0.20513916015625,-0.009429931640625,Closing,0.0,0.0,0.0,0.0,0.0,0.0,0.0,0.0,
0.8347539999999999,0.0,0.0,2980.0,0.0,0.0,0.0,0.0,0.25,4.4958491490000005,3.635068989351882,-0.1757812320000003,-2973.0,0.0,0.0,0.0,0.0,0.0,1.7358396660000002,1.1764134923669112,0.17211912300000032,2533.0,0.0,15.0,0.0,0.0,0.125,2.082519318,3.641074802355768,-0.1757812319999994,-2731.0,0.0,7.5,0.0,0.0,0.25,0.31616207700000004,3.65404600236416,-0.1916503709999997,0.2800000011920929,-0.23000000417232513,-4.480000019073486,0.00970458984375,-0.01458740234375,1.10089111328125,28.65999984741211,0.0,15.0,0.204864501953125,-0.009429931640625,Closing,0.0,0.0,0.0,0.0,0.0,0.0,0.0,0.0,
0.867728,0.0,0.0,2980.0,0.0,0.0,0.0,0.0,0.25,4.488524931000001,3.635068989351882,-0.06103514999999948,-2973.0,0.0,0.0,0.0,0.0,0.0,1.7358396660000002,1.1764134923669112,0.04516601100000006,2533.0,0.0,0.0,0.0,0.0,0.125,2.078857209,3.641074802355768,-0.05737304099999996,-2731.0,0.0,0.0,0.0,0.0,0.125,0.314941374,3.65404600236416,-0.05981444699999994,0.25,-0.1899999976158142,-4.460000038146973,-0.0528564453125,0.005126953125,0.9788818359375,28.670000076293945,0.0,-49.0,0.204681396484375,-0.0094451904296875,Closing,0.0,0.0,0.0,0.0,0.0,0.0,0.0,0.0,
0.8927640000000001,0.0,0.0,2980.0,0.0,0.0,0.0,0.0,0.125,4.488524931000001,3.635068989351882,-0.06103514999999948,-2973.0,0.0,0.0,0.0,0.0,0.0,1.7321775570000002,1.1764134923669112,0.04516601100000006,2533.0,0.0,0.0,0.0,0.0,0.125,2.078857209,3.641074802355768,-0.05737304099999996,-2731.0,0.0,0.0,0.0,0.0,0.0,0.319824186,3.65404600236416,-0.05981444699999994,0.23999999463558197,-0.30000001192092896,-4.429999828338623,-0.0701904296875,-0.0166015625,0.99945068359375,28.670000076293945,0.0,-63.0,0.20416259765625,-0.0094451904296875,Closing,0.0,0.0,0.0,0.0,0.0,0.0,0.0,0.0,
0.9278159999999998,0.0,0.0,2980.0,0.0,0.0,0.0,0.0,0.125,4.488524931000001,3.635068989351882,0.0,-2973.0,0.0,0.0,0.0,0.0,0.0,1.722411933,1.1764134923669112,0.0,2533.0,0.0,0.0,0.0,0.0,0.125,2.078857209,3.641074802355768,0.0,-2731.0,0.0,0.0,0.0,0.0,0.0,0.333251919,3.65404600236416,-0.0012207030000004337,0.25,-0.3100000023841858,-4.420000076293945,-0.002685546875,-0.0386962890625,1.048095703125,28.670000076293945,0.0,6.0,0.2034149169921875,-0.009552001953125,Closing,0.0,0.0,0.0,0.0,0.0,0.0,0.0,0.0,
0.950315,0.0,0.0,2980.0,0.0,0.0,0.0,0.0,0.125,4.488524931000001,3.635068989351882,0.0,-2973.0,0.0,0.0,0.0,0.0,0.0,1.7114256060000002,1.1764134923669112,0.0,2533.0,0.0,0.0,0.0,0.0,0.125,2.078857209,3.641074802355768,0.0,-2731.0,0.0,0.0,0.0,0.0,0.0,0.35400387,3.65404600236416,-0.0012207030000004337,0.23000000417232513,-0.27000001072883606,-4.440000057220459,0.05255126953125,-0.01458740234375,0.9774169921875,28.670000076293945,0.0,58.0,0.2027435302734375,-0.0097503662109375,Closing,0.0,0.0,0.0,0.0,0.0,0.0,0.0,0.0,
0.9855169999999999,0.0,0.0,2980.0,0.0,0.0,0.0,0.0,0.125,4.487304228,3.635068989351882,0.0,-2973.0,0.0,0.0,0.0,0.0,0.0,1.697997873,1.1764134923669112,-0.01953124800000028,2533.0,0.0,0.0,0.0,0.0,0.125,2.078857209,3.641074802355768,0.0,-2731.0,0.0,0.0,0.0,0.0,0.125,0.37841793,3.65404600236416,0.024414060000000237,0.23000000417232513,-0.25,-4.46999979019165,0.0245361328125,0.01910400390625,1.05126953125,28.670000076293945,0.0,28.0,0.2023468017578125,-0.0097503662109375,Closing,0.0,0.0,0.0,0.0,0.0,0.0,0.0,0.0,
1.0109650000000001,0.0,0.0,2980.0,0.0,0.0,0.0,0.0,0.125,4.489745634,3.635068989351882,0.0,-2973.0,0.0,0.0,0.0,0.0,0.0,1.693115061,1.1764134923669112,-0.01953124800000028,2533.0,0.0,0.0,0.0,0.0,0.125,2.080077912,3.641074802355768,0.0,-2731.0,0.0,0.0,0.0,0.0,0.125,0.40039058400000005,3.65404600236416,0.04394530800000007,0.20999999344348907,-0.23000000417232513,-4.46999979019165,-0.00665283203125,0.01904296875,1.01763916015625,28.670000076293945,0.0,-3.0,0.20220947265625,-0.009674072265625,Closing,0.0,0.0,0.0,0.0,0.0,0.0,0.0,0.0,
1.0433579999999998,0.0,0.0,2980.0,0.0,0.0,0.0,0.0,0.125,4.488524931000001,3.635068989351882,0.0,-2973.0,0.0,0.0,0.0,0.0,0.0,1.693115061,1.1764134923669112,-0.01953124800000028,2533.0,0.0,0.0,0.0,0.0,0.125,2.078857209,3.641074802355768,0.0,-2731.0,0.0,0.0,0.0,0.0,0.125,0.406494099,3.65404600236416,0.04394530800000007,0.23999999463558197,-0.27000001072883606,-4.440000057220459,-0.004150390625,0.03594970703125,1.0355224609375,28.670000076293945,0.0,-1.0,0.20220947265625,-0.009490966796875,Closing,0.0,0.0,0.0,0.0,0.0,0.0,0.0,0.0,
1.070011,0.0,0.0,2980.0,0.0,0.0,0.0,0.0,0.125,4.488524931000001,3.635068989351882,0.0,-2973.0,0.0,0.0,0.0,0.0,0.0,1.693115061,1.1764134923669112,-0.004882811999999959,2533.0,0.0,0.0,0.0,0.0,0.125,2.080077912,3.641074802355768,0.0,-2731.0,0.0,0.0,0.0,0.0,0.125,0.40771480200000004,3.65404600236416,0.024414059999999793,0.23999999463558197,-0.23999999463558197,-4.429999828338623,-0.02496337890625,0.01611328125,0.97235107421875,28.670000076293945,0.0,-21.0,0.2021942138671875,-0.0093536376953125,Closing,0.0,0.0,0.0,0.0,0.0,0.0,0.0,0.0,
1.0903690000000001,0.0,0.0,2980.0,0.0,0.0,-198.42519611120224,0.0,0.125,4.490966337000001,4.871556913657439,0.0,-2973.0,0.0,0.0,-198.42519611120224,0.0,0.0,1.693115061,2.420803054866912,0.0,2533.0,0.0,0.0,-198.42519611120224,0.0,0.125,2.080077912,4.879605635689102,0.0,-2731.0,0.0,0.0,198.42519611120224,0.0,0.125,0.40283199000000003,4.896989057919717,0.0,0.25999999046325684,-0.25999999046325684,-4.429999828338623,-0.0294189453125,0.00750732421875,1.07598876953125,28.670000076293945,0.0,-24.0,0.202056884765625,-0.00921630859375,Closing,0.0,0.0,0.0,0.0,0.0,0.0,0.0,0.0,
1.108696,0.0,0.0,2980.0,0.0,0.0,-674.6456480026245,0.0,0.125,4.488524931000001,4.871556913657439,0.0,-2973.0,0.0,0.0,-674.6456480026245,0.0,0.0,1.693115061,2.420803054866912,0.0,2533.0,0.0,0.0,-674.6456480026245,0.0,0.125,2.078857209,4.879605635689102,0.0,-2731.0,0.0,0.0,674.6456480026245,0.0,0.125,0.396728475,4.896989057919717,0.0,0.25999999046325684,-0.25,-4.449999809265137,-0.0118408203125,-0.015869140625,1.02392578125,28.670000076293945,0.0,-5.0,0.2019500732421875,-0.0092315673828125,Closing,0.0,0.0,0.0,0.0,0.0,0.0,0.0,0.0,
1.13208,0.0,0.0,2980.0,0.0,0.0,-912.7559208869932,0.0,1.625,4.52880813,4.8712828999743145,0.0012207029999995456,-2973.0,0.125,0.0,-912.7559208869932,0.0,0.0,1.7077634970000002,2.420527290129902,0.0012207030000004337,2533.0,0.125,0.0,-912.7559208869932,0.0,1.25,2.152099389,4.879331169284187,0.009765623999999917,-2731.0,0.125,0.0,912.7559208869932,0.0,4.75,0.46142573400000003,4.8967136137379565,-0.003662109000000413,0.25999999046325684,-0.25,-4.46999979019165,0.0106201171875,-0.02178955078125,1.013427734375,28.670000076293945,0.0,17.0,0.2018585205078125,-0.0093841552734375,Closing,0.0,0.0,0.0,0.0,0.0,0.0,0.0,0.0,
1.1519679999999999,0.0,0.0,2980.0,0.125,0.0,-972.2834515571594,0.0,4.375,4.635009291,4.87100888629119,0.10375975500000045,-2973.0,0.5,-7.5,-972.2834515571594,0.0,7.125,1.807861143,2.4202515253928927,0.04760741700000004,2533.0,0.375,0.0,-972.2834515571594,0.0,4.25,2.253417738,4.879056702879273,0.08422850699999973,-2722.0,0.375,7.5,972.2834515571594,0.0,4.75,0.523681587,4.896438169556197,0.05493163499999998,0.25999999046325684,-0.25,-4.460000038146973,0.0042724609375,0.0380859375,1.04345703125,28.670000076293945,0.0,6.0,0.2018585205078125,-0.0094757080078125,Closing,0.0,0.0,0.0,0.0,0.0,0.0,0.0,0.0,
1.1741639999999998,0.0,0.0,2976.0,1.0,-7.5,-1011.9684720039365,0.0,4.875,4.78515576,4.871145889866251,0.12573240899999938,-2984.0,1.5,-37.5,-1011.9684720039365,0.0,8.25,1.981200969,2.4203894044740224,0.14404295399999967,2527.0,1.5,-15.0,-1011.9684720039365,0.0,4.75,2.4230954550000003,4.879193932809832,0.1293945179999998,-2722.0,1.125,30.0,1011.9684720039365,0.0,5.625,0.678710868,4.896575888363523,0.09521483400000008,0.27000001072883606,-0.2199999988079071,-4.449999809265137,0.0423583984375,0.0482177734375,1.0263671875,28.670000076293945,0.0,42.0,0.2018890380859375,-0.0095062255859375,Closing,0.0,0.0,0.0,0.0,0.0,0.0,0.0,0.0,
1.1935810000000002,0.0,0.0,2976.0,2.5,-30.0,-1011.9684720039367,0.0,3.875,4.9157709810000005,4.8712828999743145,0.12695311200000026,-2984.0,3.125,-75.0,-1011.9684720039367,0.0,8.375,2.1166990020000003,2.420527290129902,0.14038084500000014,2527.0,2.875,-37.5,-1011.9684720039367,0.0,4.25,2.559814191,4.879331169284187,0.14404295400000056,-2722.0,2.625,67.5,1011.9684720039367,0.0,1.375,0.8166503070000001,4.8967136137379565,0.1293945179999998,0.5099999904632568,-0.25,-4.449999809265137,-0.01239013671875,0.145751953125,1.157958984375,28.670000076293945,0.0,-17.0,0.201934814453125,-0.009033203125,Closing,0.0,0.0,0.0,0.0,0.0,0.0,0.0,0.0,
1.2133310000000002,0.0,0.0,2976.0,3.375,-52.5,-1011.9684720039367,0.0,1.125,0.14648436,4.8712828999743145,0.0,-2984.0,4.875,-105.0,-1011.9684720039367,0.0,2.125,2.288818125,2.420527290129902,0.0,2527.0,3.75,-67.5,-1011.9684720039367,0.0,0.875,2.7368161260000003,4.879331169284187,0.0,-2722.0,4.875,112.5,1011.9684720039367,0.0,0.875,0.979003806,4.8967136137379565,0.0,0.5699999928474426,-0.27000001072883606,-4.429999828338623,-0.13214111328125,0.24871826171875,0.99346923828125,28.670000076293945,0.0,-145.0,0.20184326171875,-0.0084228515625,Closing,0.0,0.0,0.0,0.0,0.0,0.0,0.0,0.0,
1.241319,0.0,0.0,2976.0,3.875,-82.5,-1011.9684720039367,0.0,0.875,0.263671848,4.871556913657439,0.14892576600000051,-2984.0,6.5,-135.0,-1011.9684720039367,0.0,1.0,2.438964594,2.420803054866912,0.15991209299999998,2527.0,4.5,-90.0,-1011.9684720039367,0.0,0.625,2.872314159,4.879605635689102,0.1757812320000003,-2722.0,5.25,112.5,1011.9684720039367,0.0,0.75,1.102294809,4.896989057919717,0.16723631099999992,0.7300000190734863,-0.4000000059604645,-4.420000076293945,-0.0587158203125,0.09423828125,1.0875244140625,28.670000076293945,0.0,-57.0,0.2011871337890625,-0.0065155029296875,Closing,0.0,0.0,0.0,0.0,0.0,0.0,0.0,0.0,
1.263196,0.0,0.0,2976.0,4.375,-120.0,-1031.8110573291779,0.0,0.625,0.419921832,4.8716939172325,0.0,-2984.0,8.0,-180.0,-1031.8110573291779,0.0,0.5,2.5842282510000003,2.4209409339480423,0.0,2527.0,5.25,-97.5,-1031.8110573291779,0.0,0.5,2.991943053,4.8797428656196615,0.0,-2722.0,5.375,105.0,1031.8110573291779,0.0,0.75,1.2182615940000001,4.897126776727043,0.0,0.7799999713897705,-0.5099999904632568,-4.409999847412109,-0.1590576171875,0.064208984375,1.23736572265625,28.670000076293945,0.0,-151.0,0.2006683349609375,-0.0053863525390625,Closing,0.0,0.0,0.0,0.0,0.0,0.0,0.0,0.0,
1.287763,0.0,0.0,2944.0,4.625,-150.0,-1031.8110573291779,0.0,0.625,0.484619091,4.871830927340563,0.12207029999999985,-3018.0,8.0,-180.0,-1031.8110573291779,0.0,0.5,2.6904294120000003,2.4210788196039226,0.16967771700000034,2513.0,6.25,-90.0,-1031.8110573291779,0.0,0.25,3.098144214,4.879880102094017,0.14282225100000012,-2705.0,5.75,97.5,1031.8110573291779,0.0,0.625,1.3171385370000002,4.897264502101477,0.13549803300000018,0.7699999809265137,-0.6499999761581421,-4.409999847412109,-0.193115234375,-0.05426025390625,0.81036376953125,28.670000076293945,0.0,-178.0,0.1989288330078125,-0.003143310546875,Closing,0.0,0.0,0.0,0.0,0.0,0.0,0.0,0.0,
1.308585,0.0,0.0,2944.0,5.125,-180.0,-1031.8110573291779,0.0,0.5,0.552978459,4.871830927340563,0.06835936800000031,-3018.0,8.0,-202.5,-1031.8110573291779,0.0,0.25,2.773437216,2.4210788196039226,0.09155272499999967,2513.0,6.25,-90.0,-1031.8110573291779,0.0,0.125,3.18603483,4.879880102094017,0.11230467599999994,-2705.0,6.375,105.0,1031.8110573291779,0.0,0.375,1.3977049350000001,4.897264502101477,0.0,0.7400000095367432,-0.8199999928474426,-4.409999847412109,-0.25164794921875,-0.08245849609375,1.12432861328125,28.670000076293945,0.0,-227.0,0.1976776123046875,-0.002166748046875,Closing,0.0,0.0,0.0,0.0,0.0,0.0,0.0,0.0,
1.3376439999999998,0.0,0.0,2944.0,6.25,-247.5,-1031.8110573291779,0.0,0.25,0.6213378270000001,4.872104941023688,0.08056639799999932,-3018.0,9.875,-262.5,-1031.8110573291779,0.0,0.0,2.86865205,2.4213545843409325,0.09521483400000008,2513.0,8.0,-120.0,-1031.8110573291779,0.0,0.125,3.277587555,4.880154568498932,0.09521483400000008,-2705.0,7.25,135.0,1031.8110573291779,0.0,0.25,1.467285006,4.897539946283237,0.0805663980000002,0.550000011920929,-1.25,-4.389999866485596,-0.1644287109375,-0.10882568359375,0.94573974609375,28.670000076293945,0.0,-134.0,0.1919708251953125,-3.662109375E-4,Closing,0.0,0.0,0.0,0.0,0.0,0.0,0.0,0.0,
1.3608049999999998,0.0,0.0,2944.0,6.75,-277.5,-1031.8110573291779,0.0,0.25,0.668945244,4.872104941023688,0.0,-3018.0,11.0,-292.5,-1031.8110573291779,0.0,0.0,2.9016110310000003,2.4213545843409325,0.0,2513.0,8.625,-172.5,-1031.8110573291779,0.0,0.0,3.3178707540000003,4.880154568498932,0.0,-2705.0,8.625,187.5,1031.8110573291779,0.0,0.25,1.496581878,4.897539946283237,0.0,0.4000000059604645,-1.5700000524520874,-4.380000114440918,-0.25115966796875,-0.0587158203125,1.02801513671875,28.700000762939453,0.0,-217.0,0.186737060546875,-7.62939453125E-5,Closing,0.0,0.0,0.0,0.0,0.0,0.0,0.0,0.0,
1.3875579999999996,0.0,0.0,2944.0,7.0,-315.0,-1031.8110573291779,0.0,0.25,0.701904225,4.872241944598749,0.04272460500000008,-3018.0,11.125,-322.5,-1031.8110573291779,0.0,0.0,2.926025091,2.4214924634220627,0.034179684000000154,2513.0,9.0,-217.5,-1031.8110573291779,0.0,0.125,3.341064111,4.880291798429493,0.0402831990000001,-2705.0,9.25,232.5,1031.8110573291779,0.0,0.25,1.516113126,4.897677665090564,0.037841793000000123,0.36000001430511475,-1.649999976158142,-4.380000114440918,-0.17950439453125,-0.01336669921875,0.88153076171875,28.700000762939453,0.0,-152.0,0.1837158203125,-7.62939453125E-5,Closing,0.0,0.0,0.0,0.0,0.0,0.0,0.0,0.0,
1.4075979999999995,0.0,0.0,2881.0,7.25,-345.0,-1031.8110573291779,0.0,0.25,0.72021477,4.872241944598749,0.02441406000000068,-3083.0,11.5,-352.5,-1031.8110573291779,0.0,0.25,2.939452824,2.4214924634220627,0.024414059999999793,2475.0,9.75,-240.0,-1031.8110573291779,0.0,0.0,3.350829735,4.880291798429493,0.024414059999999793,-2650.0,9.0,285.0,1031.8110573291779,0.0,0.25,1.5295408590000001,4.897677665090564,0.0,0.36000001430511475,-1.75,-4.369999885559082,-0.234130859375,-0.05743408203125,1.04541015625,28.700000762939453,0.0,-196.0,0.180450439453125,-1.52587890625E-4,Closing,0.0,0.0,0.0,0.0,0.0,0.0,0.0,0.0,
1.4303690000000002,0.0,0.0,2881.0,7.375,-390.0,-1031.8110573291779,0.0,0.25,0.7397460180000001,4.872378954706813,0.02319335699999936,-3083.0,11.875,-397.5,-1031.8110573291779,0.0,0.25,2.940673527,2.421630349077943,0.004882811999999959,2475.0,10.125,-240.0,-1031.8110573291779,0.0,0.0,3.3618160620000004,4.880429034903847,0.008544920999999484,-2650.0,8.375,337.5,1031.8110573291779,0.0,0.125,1.539306483,4.897815390464998,0.014648435999999876,0.3100000023841858,-1.9600000381469727,-4.369999885559082,-0.16339111328125,0.032958984375,1.05828857421875,28.700000762939453,0.0,-128.0,0.17327880859375,-4.8828125E-4,Closing,0.0,0.0,0.0,0.0,0.0,0.0,0.0,0.0,
1.4503129999999997,0.0,0.0,2881.0,7.25,-435.0,-1031.8110573291779,0.0,0.25,0.759277266,4.872378954706813,0.01831054500000029,-3083.0,11.875,-442.5,-1031.8110573291779,0.0,0.0,2.9467770420000003,2.421630349077943,0.004882812000000403,2475.0,10.625,-232.5,-1031.8110573291779,0.0,0.0,3.358153953,4.880429034903847,-4.9306343759999995,-2650.0,8.25,390.0,1031.8110573291779,0.0,0.125,1.547851404,4.897815390464998,0.009765623999999917,0.2800000011920929,-2.069999933242798,-4.349999904632568,-0.18267822265625,0.01983642578125,0.9742431640625,28.700000762939453,0.0,-147.0,0.1694183349609375,-4.8828125E-4,Closing,0.0,0.0,0.0,0.0,0.0,0.0,0.0,0.0,
1.4724639999999996,0.0,0.0,2881.0,7.25,-487.5,-1031.8110573291779,0.0,0.25,0.772704999,4.872926982073062,0.0,-3083.0,11.375,-495.0,-1031.8110573291779,0.0,0.0,2.9504391510000003,2.422181878551963,0.0,2475.0,11.25,-232.5,-1031.8110573291779,0.0,0.0,3.3703609830000003,4.880977967713677,0.0,-2650.0,8.125,495.0,1031.8110573291779,0.0,0.125,1.539306483,4.898366278828518,-0.0012207029999995456,0.28999999165534973,-2.240000009536743,-4.289999961853027,-0.23187255859375,-0.140380859375,1.0404052734375,28.700000762939453,0.0,-179.0,0.161041259765625,-2.899169921875E-4,Closing,0.0,0.0,0.0,0.0,0.0,0.0,0.0,0.0,
1.4941849999999999,0.0,0.0,2881.0,7.0,-540.0,-1031.8110573291779,0.0,0.125,0.773925702,4.873475009439309,0.006103515000000392,-3083.0,10.375,-540.0,-1031.8110573291779,0.0,0.0,2.9492184480000003,2.4227334080259824,-0.0012207029999999897,2475.0,12.125,-322.5,-1031.8110573291779,0.0,0.0,3.3666988740000003,4.8815269005235065,0.0,-2650.0,7.5,547.5,1031.8110573291779,0.0,0.125,1.539306483,4.898917167192038,0.0,0.23999999463558197,-2.3399999141693115,-4.260000228881836,-0.18841552734375,0.10821533203125,0.8868408203125,28.700000762939453,0.0,-159.0,0.1517791748046875,-1.220703125E-4,Closing,0.0,0.0,0.0,0.0,0.0,0.0,0.0,0.0,
1.5152850000000002,0.0,0.0,2881.0,6.875,-592.5,-1031.8110573291779,0.0,0.125,0.7775878110000001,4.874434060596746,0.0,-3189.0,10.25,-637.5,-1031.8110573291779,0.0,0.0,2.9504391510000003,2.423698587892893,0.0,2394.0,12.75,-412.5,-1031.8110573291779,0.0,0.0,3.3666988740000003,4.882487536212607,0.0,-2546.0,7.625,600.0,1031.8110573291779,0.0,0.125,1.539306483,4.899881225111753,0.0,0.2800000011920929,-2.4800000190734863,-4.179999828338623,-0.266357421875,-0.00469970703125,0.91461181640625,28.700000762939453,0.0,-225.0,0.1468048095703125,-1.52587890625E-5,Closing,0.0,0.0,0.0,0.0,0.0,0.0,0.0,0.0,
1.5452760000000003,0.0,0.0,2770.0,6.375,-705.0,-1031.8110573291779,0.0,0.125,0.7788085140000001,4.874982087962995,0.003662109000000413,-3189.0,10.0,-675.0,-1031.8110573291779,0.0,0.0,2.9504391510000003,2.424250117366913,0.0,2394.0,12.5,-510.0,-1031.8110573291779,0.0,0.125,3.3752437950000003,4.883036469022437,0.0,-2546.0,7.375,652.5,1031.8110573291779,0.0,0.125,1.53808578,4.900432113475273,0.0,0.27000001072883606,-2.640000104904175,-4.070000171661377,-0.2218017578125,0.0726318359375,1.0054931640625,28.700000762939453,0.0,-179.0,0.1362762451171875,3.204345703125E-4,Closing,0.0,0.0,0.0,0.0,0.0,0.0,0.0,0.0,
1.5697729999999996,0.0,0.0,2770.0,6.0,-750.0,-1031.8110573291779,0.0,0.125,0.7775878110000001,4.876489159953678,0.0,-3189.0,9.625,-720.0,-1031.8110573291779,0.0,0.0,2.9504391510000003,2.425766820133093,0.0,2394.0,11.75,-615.0,-1031.8110573291779,0.0,0.125,3.3618160620000004,4.88454603097757,0.0,-2546.0,7.25,697.5,1031.8110573291779,0.0,0.125,1.539306483,4.9019470531914004,0.0,0.3100000023841858,-2.7300000190734863,-4.010000228881836,-0.06231689453125,-0.06842041015625,0.8763427734375,28.700000762939453,0.0,-15.0,0.1308135986328125,5.340576171875E-4,Closing,0.0,0.0,0.0,0.0,0.0,0.0,0.0,0.0,
1.5920570000000003,0.0,0.0,2770.0,5.75,-795.0,-1031.8110573291776,0.0,0.125,0.782470623,4.877996238477363,0.0012207029999995456,-3189.0,9.125,-757.5,-1031.8110573291776,0.0,0.0,2.9504391510000003,2.4272835294740225,0.0,2394.0,11.0,-712.5,-1031.8110573291776,0.0,0.125,3.3618160620000004,4.886055599476499,-0.0012207029999999897,-2546.0,6.875,742.5,1031.8110573291776,0.0,0.125,1.535644374,4.903461999474634,0.0012207029999995456,0.30000001192092896,-2.8499999046325684,-3.9100000858306885,-0.09710693359375,0.1715087890625,1.0498046875,28.700000762939453,0.0,-55.0,0.1196746826171875,0.001007080078125,Closing,0.0,0.0,0.0,0.0,0.0,0.0,0.0,0.0,
1.6140139999999996,0.0,0.0,2770.0,5.625,-832.5,-1031.8110573291779,0.0,0.125,0.7788085140000001,4.878681272685173,0.0,-3189.0,8.875,-795.0,-1031.8110573291779,0.0,0.0,2.9504391510000003,2.4279729413165474,0.0,2394.0,10.0,-787.5,-1031.8110573291779,0.0,0.125,3.355712547,4.886741765488786,0.0,-2546.0,6.375,780.0,1031.8110573291779,0.0,0.125,1.539306483,4.904150609929034,0.0,0.30000001192092896,-2.9000000953674316,-3.819999933242798,-0.1949462890625,-0.10418701171875,0.8072509765625,28.700000762939453,0.0,-146.0,0.108123779296875,0.0016021728515625,Closing,0.0,0.0,0.0,0.0,0.0,0.0,0.0,0.0,
1.6394739999999997,0.0,0.0,2625.0,5.25,-870.0,-1031.8110573291779,0.0,0.125,0.770263593,4.879914337525734,-0.0012207029999995456,-3332.0,8.5,-832.5,-1031.8110573291779,0.0,0.0,2.9553219630000003,2.4292138859204675,0.004882811999999959,2251.0,8.5,-877.5,-1031.8110573291779,0.0,0.0,3.350829735,4.8879768675828,0.0,-2408.0,6.125,847.5,1031.8110573291779,0.0,0.125,1.544189295,4.905390112030508,0.0012207029999995456,0.2199999988079071,-3.049999952316284,-3.740000009536743,-0.234375,0.05731201171875,1.06890869140625,28.700000762939453,0.0,-180.0,0.096099853515625,0.0016021728515625,Closing,0.0,0.0,0.0,0.0,0.0,0.0,0.0,0.0,
1.6738389999999994,0.0,0.0,2625.0,4.625,-930.0,-1510.01334696974,0.0,0.125,0.766601484,4.238489372223381,0.0012207029999995456,-3332.0,7.5,-907.5,-1510.01334696974,0.0,0.0,2.9553219630000003,1.7836899659052743,0.0,2251.0,8.0,-907.5,-1510.01334696974,0.0,0.0,3.350829735,4.245492148419129,-0.003662109000000413,-2408.0,6.0,877.5,1510.01334696974,0.0,0.125,1.544189295,4.260616563813059,0.0,0.17000000178813934,-3.0999999046325684,-3.7100000381469727,-0.1075439453125,0.01239013671875,1.04327392578125,28.700000762939453,0.0,-51.0,0.089874267578125,0.0016021728515625,Closing,0.0,0.0,0.0,0.0,0.0,0.0,0.0,0.0,
1.6942409999999994,0.0,0.0,2625.0,5.75,-960.0,-2033.4195566048356,0.0,0.125,0.7775878110000001,4.066128058306563,-0.0012207029999995456,-3332.0,8.25,-945.0,-2033.4195566048356,0.0,0.0,2.9553219630000003,1.610227196232586,0.0012207029999999897,2251.0,9.375,-945.0,-2033.4195566048356,0.0,0.0,3.347167626,4.072846061414503,-0.006103514999999504,-2408.0,6.5,907.5,2033.4195566048356,0.0,0.125,1.539306483,4.08735543123899,0.0024414059999999793,0.14000000059604645,-3.1700000762939453,-3.619999885559082,-0.20953369140625,-0.09588623046875,0.85662841796875,28.700000762939453,0.0,-155.0,0.0770721435546875,0.0013275146484375,Closing,0.0,0.0,0.0,0.0,0.0,0.0,0.0,0.0,
1.717337,0.0,0.0,2625.0,8.25,-990.0,-2067.4453437595407,0.0,0.125,0.7788085140000001,4.059774792405622,0.0,-3332.0,11.625,-982.5,-2067.4453437595407,0.0,0.0,2.9577633690000003,1.6038333304943837,0.0,2251.0,12.625,-975.0,-2067.4453437595407,0.0,0.625,3.345946923,4.066482298731499,0.0,-2408.0,9.375,945.0,2067.4453437595407,0.0,2.125,1.5295408590000001,4.080968997876846,0.0,0.15000000596046448,-3.309999942779541,-3.5799999237060547,-0.16363525390625,0.04827880859375,1.08447265625,28.700000762939453,0.0,-103.0,0.0704193115234375,0.0010528564453125,Closing,0.0,0.0,0.0,0.0,0.0,0.0,0.0,0.0,
1.7474280000000004,0.0,0.0,2625.0,11.25,-1027.5,-2084.5288725577193,0.0,0.875,0.731201097,4.057170728014791,0.0012207029999995456,-3332.0,16.0,-1027.5,-2084.5288725577193,0.0,3.0,2.9614254780000002,1.6012126251204526,0.004882811999999959,2251.0,15.75,-1020.0,-2084.5288725577193,0.0,3.25,3.2690426340000003,4.0638739319398525,-0.006103515000000392,-2408.0,14.625,1050.0,2084.5288725577193,0.0,3.375,1.4721678180000002,4.078351338870899,-0.010986326999999463,0.18000000715255737,-3.549999952316284,-3.5199999809265137,-0.25732421875,0.19635009765625,0.799072265625,28.700000762939453,0.0,-218.0,0.0562286376953125,9.307861328125E-4,Closing,0.0,0.0,0.0,0.0,0.0,0.0,0.0,0.0,
1.7727630000000003,0.0,0.0,2443.0,13.125,-1072.5,-2084.5288725577193,0.0,3.625,0.616455015,4.057444741697915,0.0,-3515.0,21.375,-1125.0,-2084.5288725577193,0.0,5.0,2.8540036140000002,1.6014883898574626,0.0,2065.0,19.5,-1147.5,-2084.5288725577193,0.0,3.875,3.127441086,4.064148398344767,0.0,-2229.0,15.5,1117.5,2084.5288725577193,0.0,3.5,1.329345567,4.078626783052659,0.0,0.3100000023841858,-3.7799999713897705,-3.4200000762939453,-0.09613037109375,0.27117919921875,1.08123779296875,28.700000762939453,0.0,-40.0,0.041168212890625,0.00152587890625,Closing,0.0,0.0,0.0,0.0,0.0,0.0,0.0,0.0,
1.7931349999999997,0.0,0.0,2443.0,14.25,-1125.0,-2084.528872557719,0.0,3.25,0.5041503390000001,4.058814810113537,-0.1293945179999998,-3515.0,22.5,-1185.0,-2084.528872557719,0.0,2.375,2.7392575320000003,1.6028672135425124,-0.1342773300000002,2065.0,19.375,-1215.0,-2084.528872557719,0.0,3.625,3.016357113,4.065520730369342,-0.14770506300000008,-2229.0,15.625,1177.5,2084.528872557719,0.0,1.5,1.225585812,4.08000400396146,-0.13549803300000018,0.46000000834465027,-3.869999885559082,-3.359999895095825,-0.017822265625,0.323974609375,1.266845703125,28.700000762939453,0.0,49.0,0.0335845947265625,0.0023345947265625,Closing,0.0,0.0,0.0,0.0,0.0,0.0,0.0,0.0,
1.81306,0.0,0.0,2443.0,15.5,-1170.0,-2084.5288725577193,0.0,3.25,0.418701129,4.059636854429411,-0.09765624000000006,-3515.0,23.0,-1245.0,-2084.5288725577193,0.0,0.875,2.628173559,1.6036945110409178,0.0,2065.0,20.25,-1275.0,-2084.5288725577193,0.0,0.875,2.9064938430000002,4.066344132855984,0.0,-2229.0,16.25,1245.0,2084.5288725577193,0.0,0.25,1.1096190270000001,4.080830339790294,0.0,1.100000023841858,-3.8499999046325684,-3.2200000286102295,0.02099609375,0.51800537109375,0.79248046875,28.700000762939453,0.0,45.0,0.018280029296875,0.005279541015625,Closing,0.0,0.0,0.0,0.0,0.0,0.0,0.0,0.0,
1.8376699999999997,0.0,0.0,2443.0,15.625,-1267.5,-2084.5288725577193,0.0,0.5,0.288085908,4.061554950211281,-0.10375975499999956,-3515.0,23.25,-1305.0,-2084.5288725577193,0.0,0.5,2.520751695,1.6056248641999877,-0.12329100299999984,2065.0,20.0,-1312.5,-2084.5288725577193,0.0,0.375,2.816161821,4.068265397690388,-0.11108397300000039,-2229.0,16.25,1305.0,2084.5288725577193,0.0,0.125,1.022949114,4.082758449062615,-0.12329100300000029,1.440000057220459,-3.880000114440918,-3.1500000953674316,0.191650390625,0.61712646484375,0.546142578125,28.700000762939453,0.0,194.0,0.0107574462890625,0.007781982421875,Closing,0.0,0.0,0.0,0.0,0.0,0.0,0.0,0.0,
1.861547,0.0,0.0,2443.0,16.625,-1305.0,-2084.5288725577193,0.0,0.5,0.253906224,4.062513998102217,-0.07446288299999981,-3515.0,22.5,-1372.5,-2084.5288725577193,0.0,0.25,2.409667722,1.6065900407795226,0.0,2065.0,21.375,-1327.5,-2084.5288725577193,0.0,0.25,2.73437472,4.06922603010759,0.0,-2229.0,16.625,1350.0,2084.5288725577193,0.0,0.125,0.9326170920000001,4.083722503698776,0.0,2.1500000953674316,-3.6500000953674316,-3.1700000762939453,0.02459716796875,0.47796630859375,1.7286376953125,28.670000076293945,0.0,111.0,-0.0032196044921875,0.01483154296875,Closing,0.0,0.0,0.0,0.0,0.0,0.0,0.0,0.0,
1.89068,0.0,0.0,2223.0,17.25,-1342.5,-2010.6912641416357,0.0,0.375,0.159912093,4.008348716968137,-0.09765624000000095,-3752.0,22.125,-1432.5,-2010.6912641416357,0.0,0.0,2.336425542,1.552078622456547,-0.10986326999999996,1855.0,22.5,-1320.0,-2010.6912641416357,0.0,0.25,2.670898164,4.014971257810964,-0.09155272500000056,-2000.0,16.75,1395.0,2010.6912641416357,0.0,0.0,0.849609288,4.029274450697668,-0.0927734280000001,2.3499999046325684,-3.3499999046325684,-3.140000104904175,0.21002197265625,0.728271484375,0.96417236328125,28.670000076293945,0.0,251.0,-0.01611328125,0.024688720703125,Closing,0.0,0.0,0.0,0.0,0.0,0.0,0.0,0.0,
1.9113780000000002,0.0,0.0,2223.0,16.875,-1387.5,-1961.929237984269,0.0,0.25,0.10864256700000001,3.9658278848736437,-0.06225585299999992,-3752.0,20.875,-1500.0,-1961.929237984269,0.0,0.0,2.288818125,1.5092860657262264,-0.07080077400000029,1855.0,23.5,-1305.0,-1961.929237984269,0.0,0.125,2.615966529,3.972380173358929,0.0,-2000.0,16.875,1455.0,1961.929237984269,0.0,0.0,0.8056639800000001,3.986531637015944,0.0,3.1500000953674316,-3.0799999237060547,-3.109999895095825,0.2413330078125,0.39068603515625,0.72747802734375,28.670000076293945,0.0,260.0,-0.0220489501953125,0.0304107666015625,Closing,0.0,0.0,0.0,0.0,0.0,0.0,0.0,0.0,
1.9471460000000003,0.0,0.0,2223.0,16.625,-1455.0,-1894.5467586633667,0.0,0.25,0.043945308,3.8902183706865934,-0.051269525999999566,-3752.0,18.375,-1612.5,-1894.5467586633667,0.0,0.0,2.211913836,1.4331933773702903,-0.07202147699999983,1855.0,24.0,-1260.0,-1894.5467586633667,0.0,0.125,2.576904033,3.8966457381305304,-0.04760741700000004,-2000.0,16.625,1477.5,1894.5467586633667,0.0,0.0,0.7653807810000001,3.910527400544727,-0.04394530799999963,3.5299999713897705,-2.7300000190734863,-3.1500000953674316,0.0789794921875,0.5367431640625,1.4005126953125,28.670000076293945,0.0,120.0,-0.032867431640625,0.0432891845703125,Closing,0.0,0.0,0.0,0.0,0.0,0.0,0.0,0.0,
1.9706770000000002,0.0,0.0,2223.0,16.75,-1477.5,-1896.9477087985301,0.0,0.25,4.938964338,3.86372587515538,0.0,-3752.0,17.5,-1642.5,-1896.9477087985301,0.0,0.0,2.1728513400000002,1.4065315845006705,0.0,1855.0,24.125,-1245.0,-1896.9477087985301,0.0,0.125,2.548827864,3.870109472047882,0.0,-2000.0,16.25,1500.0,1896.9477087985301,0.0,0.125,0.755615157,3.883896599954133,0.0,4.139999866485596,-2.130000114440918,-3.200000047683716,0.13287353515625,0.02349853515625,1.10699462890625,28.670000076293945,0.0,177.0,-0.042572021484375,0.0579986572265625,Closing,0.0,0.0,0.0,0.0,0.0,0.0,0.0,0.0,
1.9909280000000003,0.0,0.0,2223.0,15.625,-1515.0,-1849.0191339012479,0.0,0.25,4.904784654,3.7652169945772367,-0.04333548500000006,-3752.0,16.625,-1665.0,-1849.0191339012479,0.0,0.0,2.139892359,1.307393193906322,-0.05004882300000002,1855.0,25.0,-1260.0,-1849.0191339012479,0.0,0.125,2.518310289,3.771437836397495,-0.03295898099999928,-1748.0,15.875,1515.0,1849.0191339012479,0.0,0.125,0.6970214130000001,3.784873450096911,-0.019531248000000723,4.239999771118164,-2.2799999713897705,-3.180000066757202,-0.0516357421875,0.3302001953125,1.751708984375,28.670000076293945,0.0,7.0,-0.0471649169921875,0.0655670166015625,Closing,0.0,0.0,0.0,0.0,0.0,0.0,0.0,0.0,
2.013195,0.0,0.0,1975.0,15.75,-1537.5,-905.6249999999998,0.0,0.25,4.871825673,3.6556200319187147,-0.037841793000000123,-4024.0,15.875,-1680.0,-905.6249999999998,0.0,0.25,2.093505645,1.1970958640795362,0.0,1642.0,24.875,-1297.5,-905.6249999999998,0.0,0.25,2.4816891990000003,3.6616597990838704,0.0,-1748.0,12.875,1575.0,905.6249999999998,0.0,0.125,0.667724541,3.6747043324139397,0.0,4.510000228881836,-1.8799999952316284,-3.180000066757202,-0.123779296875,0.322021484375,0.3238525390625,28.670000076293945,0.0,-129.0,-0.055999755859375,0.0826263427734375,Closing,0.0,0.0,0.0,0.0,0.0,0.0,0.0,0.0,
2.0385210000000002,0.0,0.0,1975.0,12.75,-1560.0,-236.24999999999997,0.0,0.25,4.808349117000001,3.6556200319187147,-0.04150390199999876,-4024.0,14.25,-1687.5,-236.24999999999997,0.0,0.25,2.033691198,1.1970958640795362,-0.04150390200000009,1642.0,22.25,-1350.0,-236.24999999999997,0.0,0.5,2.4340817820000002,3.6616597990838704,-0.037841793000000123,-1748.0,12.875,1575.0,236.24999999999997,0.0,0.25,0.642089778,3.6747043324139397,-0.021972653999999814,4.71999979019165,-1.8700000047683716,-3.140000104904175,0.096923828125,0.187255859375,1.04876708984375,28.670000076293945,0.0,125.0,-0.060394287109375,0.091766357421875,Closing,0.0,0.0,0.0,0.0,0.0,0.0,0.0,0.0,
2.062264,0.0,0.0,1975.0,8.25,-1567.5,0.0,0.0,0.375,4.747313967,3.6556200319187147,-0.04150390199999876,-4024.0,4.75,-1680.0,0.0,0.0,0.25,1.956786909,1.1970958640795362,-0.05737304099999996,1642.0,7.5,-1462.5,0.0,0.0,0.5,2.35595679,3.6616597990838704,-0.04760741700000004,-1748.0,4.5,1612.5,0.0,0.0,0.25,0.5798339250000001,3.6747043324139397,-0.023193356999999803,4.630000114440918,-1.5,-3.049999952316284,0.25018310546875,0.24322509765625,0.85357666015625,28.670000076293945,0.0,262.0,-0.068389892578125,0.1101837158203125,Closing,0.0,0.0,0.0,0.0,0.0,0.0,0.0,0.0,
2.088167,0.0,0.0,1975.0,3.125,-1575.0,0.0,0.0,0.375,4.670409678,3.6556200319187147,-0.04882812000000003,-4024.0,0.625,-1650.0,0.0,0.0,0.25,1.8994138680000001,1.1970958640795362,-0.05737304099999996,1642.0,2.0,-1500.0,0.0,0.0,0.5,2.296142343,3.6616597990838704,-0.04760741700000004,-1748.0,1.0,1582.5,0.0,0.0,0.25,0.532226508,3.6747043324139397,-0.023193356999999803,4.659999847412109,-1.3600000143051147,-3.009999990463257,0.37060546875,-0.08233642578125,0.6666259765625,28.670000076293945,0.0,393.0,-0.0717620849609375,0.1194915771484375,Closing,0.0,0.0,0.0,0.0,0.0,0.0,0.0,0.0,
2.188561,0.0,0.0,1752.0,0.0,-1282.5,0.0,0.0,0.125,4.451903841,3.6556200319187147,0.0,-4255.0,0.0,-1335.0,0.0,0.0,0.0,1.717529121,1.1970958640795362,0.0,1407.0,0.0,-1267.5,0.0,0.0,0.0,2.0751951,3.6616597990838704,0.0,-1522.0,0.0,1410.0,0.0,0.0,0.125,0.35400387,3.6747043324139397,0.0,4.099999904632568,0.6200000047683716,-2.75,0.3563232421875,-0.43060302734375,0.91156005859375,28.670000076293945,0.0,369.0,-0.0757904052734375,0.179931640625,Closing,0.0,0.0,0.0,0.0,0.0,0.0,0.0,0.0,
2.341738,0.0,0.0,1540.0,0.0,-1260.0,0.0,0.0,0.125,4.383544473000001,3.6556200319187147,0.0,-4471.0,0.0,-1252.5,0.0,0.0,0.0,1.6113279600000001,1.1970958640795362,0.0,1225.0,0.0,-1170.0,0.0,0.0,0.0,1.982421672,3.6616597990838704,0.0,-1293.0,0.0,1275.0,0.0,0.0,0.125,0.281982393,3.6747043324139397,0.0,2.8499999046325684,1.649999976158142,-0.019999999552965164,-0.00885009765625,-0.123779296875,0.94439697265625,28.670000076293945,0.0,-36.0,-0.0417938232421875,0.2518463134765625,Closing,0.0,0.0,0.0,0.0,0.0,0.0,0.0,0.0,
2.461617,0.0,0.0,1345.0,0.0,-1147.5,0.0,0.0,0.125,4.401855018,3.6556200319187147,0.0,-4845.0,0.0,-1140.0,0.0,0.0,0.0,1.589355306,1.1970958640795362,0.0,859.0,0.0,-1132.5,0.0,0.0,0.0,2.0166013560000002,3.6616597990838704,0.0,-919.0,0.0,1125.0,0.0,0.0,0.125,0.23681638200000002,3.6747043324139397,0.0,2.140000104904175,1.3300000429153442,0.05999999865889549,-0.06976318359375,-0.11865234375,1.25213623046875,28.65999984741211,0.0,-99.0,-0.00946044921875,0.2924041748046875,Closing,0.0,0.0,0.0,0.0,0.0,0.0,0.0,0.0,
2.58352,0.0,0.0,1166.0,0.0,-990.0,0.0,0.0,0.125,4.4482417320000005,3.6556200319187147,0.0,-4845.0,0.0,-1005.0,0.0,0.0,0.0,1.6357420200000001,1.1970958640795362,0.0,859.0,0.0,-1027.5,0.0,0.0,0.0,2.039794713,3.6616597990838704,0.0,-919.0,0.0,1057.5,0.0,0.0,0.125,0.272216769,3.6747043324139397,0.0,1.5800000429153442,1.0299999713897705,0.6600000262260437,0.0198974609375,-0.0260009765625,0.90972900390625,28.65999984741211,0.0,2.0,0.010467529296875,0.313690185546875,Closing,0.0,0.0,0.0,0.0,0.0,0.0,0.0,0.0,
2.746314,0.0,0.0,884.0,0.0,-825.0,0.0,0.0,0.125,4.45556595,3.6556200319187147,0.0,-5132.0,0.0,-825.0,0.0,0.0,0.0,1.697997873,1.1970958640795362,0.0,558.0,0.0,-855.0,0.0,0.0,0.0,2.045898228,3.6616597990838704,0.0,-615.0,0.0,870.0,0.0,0.0,0.125,0.344238246,3.6747043324139397,0.0,1.0299999713897705,0.75,0.5,-0.01519775390625,-0.0201416015625,1.00714111328125,28.65999984741211,0.0,-28.0,0.0216522216796875,0.3327789306640625,Closing,0.0,0.0,0.0,0.0,0.0,0.0,0.0,0.0,
2.8848200000000004,0.0,0.0,766.0,0.0,-735.0,0.0,0.0,0.0,4.4506831380000005,3.6556200319187147,0.0,-5248.0,0.0,-705.0,0.0,0.0,0.0,1.702880685,1.1970958640795362,0.0,442.0,0.0,-690.0,0.0,0.0,0.0,2.045898228,3.6616597990838704,0.0,-500.0,0.0,682.5,0.0,0.0,0.125,0.35400387,3.6747043324139397,0.0,0.47999998927116394,0.49000000953674316,-0.019999999552965164,-0.0145263671875,-0.0916748046875,1.07550048828125,28.610000610351562,0.0,-23.0,0.0198974609375,0.3381500244140625,Closing,0.0,0.0,0.0,0.0,0.0,0.0,0.0,0.0,
2.9684289999999995,0.0,0.0,667.0,0.0,-645.0,0.0,0.0,0.0,4.4506831380000005,3.6556200319187147,0.0,-5347.0,0.0,-615.0,0.0,0.0,0.0,1.701659982,1.1970958640795362,0.0,348.0,0.0,-592.5,0.0,0.0,0.0,2.045898228,3.6616597990838704,0.0,-406.0,0.0,592.5,0.0,0.0,0.125,0.35400387,3.6747043324139397,0.0,0.17000000178813934,0.3499999940395355,-0.019999999552965164,-0.02532958984375,-0.1123046875,1.05303955078125,28.610000610351562,0.0,-31.0,0.01837158203125,0.33544921875,Closing,0.0,0.0,0.0,0.0,0.0,0.0,0.0,0.0,
3.107552,0.0,0.0,589.0,0.0,-487.5,0.0,0.0,0.0,4.456786653,3.6556200319187147,0.0,-5425.0,0.0,-480.0,0.0,0.0,0.0,1.702880685,1.1970958640795362,0.0,272.0,0.0,-457.5,0.0,0.0,0.0,2.045898228,3.6616597990838704,0.0,-329.0,0.0,457.5,0.0,0.0,0.125,0.360107385,3.6747043324139397,0.0,-0.25999999046325684,0.2199999988079071,-0.12999999523162842,-0.01141357421875,-0.0992431640625,1.1544189453125,28.610000610351562,0.0,29.0,0.0159912109375,0.322265625,Closing,0.0,0.0,0.0,0.0,0.0,0.0,0.0,0.0,
3.241846,0.0,0.0,529.0,0.0,-360.0,0.0,0.0,0.0,4.456786653,3.6556200319187147,0.0,-5483.0,0.0,-345.0,0.0,0.0,0.0,1.702880685,1.1970958640795362,0.0,213.0,0.0,-337.5,0.0,0.0,0.0,2.045898228,3.6616597990838704,0.0,-271.0,0.0,330.0,0.0,0.0,0.125,0.360107385,3.6747043324139397,0.0,-0.6299999952316284,0.15000000596046448,0.0,3.662109375E-4,-0.102783203125,0.88861083984375,28.610000610351562,0.0,-2.0,0.014892578125,0.3048858642578125,Closing,0.0,0.0,0.0,0.0,0.0,0.0,0.0,0.0,
3.385998,0.0,0.0,487.0,0.0,-225.0,0.0,0.0,0.0,4.456786653,3.6556200319187147,0.0,-5526.0,0.0,-210.0,0.0,0.0,0.0,1.702880685,1.1970958640795362,0.0,173.0,0.0,-202.5,0.0,0.0,0.0,2.045898228,3.6616597990838704,0.0,-232.0,0.0,202.5,0.0,0.0,0.125,0.35400387,3.6747043324139397,0.0,-0.9399999976158142,0.05999999865889549,0.0,-0.0343017578125,-0.06597900390625,0.9736328125,28.579999923706055,0.0,-35.0,0.0144500732421875,0.2979736328125,Closing,0.0,0.0,0.0,0.0,0.0,0.0,0.0,0.0,
3.549052,0.0,0.0,463.0,0.0,-67.5,0.0,0.0,0.0,4.456786653,3.6556200319187147,0.0,-5550.0,0.0,-67.5,0.0,0.0,0.0,1.702880685,1.1970958640795362,0.0,142.0,0.0,-45.0,0.0,0.0,0.0,2.044677525,3.6616597990838704,0.0,-200.0,0.0,60.0,0.0,0.0,0.125,0.35400387,3.6747043324139397,0.0,-1.2599999904632568,0.0,0.0,-0.05029296875,-0.10015869140625,0.9769287109375,28.579999923706055,0.0,-50.0,0.0138702392578125,0.2902374267578125,Closing,0.0,0.0,0.0,0.0,0.0,0.0,0.0,0.0,
3.662765,0.0,0.0,457.0,0.0,0.0,0.0,0.0,0.0,4.451903841,3.6556200319187147,0.0,-5557.0,0.0,0.0,0.0,0.0,0.0,1.702880685,1.1970958640795362,0.0,142.0,0.0,0.0,0.0,0.0,0.0,2.044677525,3.6616597990838704,0.0,-200.0,0.0,0.0,0.0,0.0,0.125,0.35400387,3.6747043324139397,0.0,-1.2599999904632568,-0.03999999910593033,-0.019999999552965164,0.0074462890625,0.01776123046875,1.05328369140625,28.579999923706055,0.0,8.0,0.013519287109375,0.2821807861328125,Closing,0.0,0.0,0.0,0.0,0.0,0.0,0.0,0.0,
3.7930269999999995,0.0,0.0,457.0,0.0,0.0,0.0,0.0,0.0,4.456786653,3.6556200319187147,0.0,-5557.0,0.0,0.0,0.0,0.0,0.0,1.702880685,1.1970958640795362,0.0,142.0,0.0,0.0,0.0,0.0,0.0,2.045898228,3.6616597990838704,0.0,-200.0,0.0,0.0,0.0,0.0,0.125,0.35400387,3.6747043324139397,0.0,-0.9900000095367432,-0.07999999821186066,0.0,0.015869140625,0.05206298828125,1.063232421875,28.579999923706055,0.0,17.0,0.012969970703125,0.274444580078125,Closing,0.0,0.0,0.0,0.0,0.0,0.0,0.0,0.0,
3.908405,0.0,0.0,457.0,0.0,0.0,0.0,0.0,0.0,4.456786653,3.6556200319187147,0.0,-5557.0,0.0,0.0,0.0,0.0,0.0,1.702880685,1.1970958640795362,0.0,142.0,0.0,0.0,0.0,0.0,0.0,2.044677525,3.6616597990838704,0.0,-200.0,0.0,0.0,0.0,0.0,0.125,0.35400387,3.6747043324139397,0.0,-0.7799999713897705,-0.10000000149011612,0.0,-0.03265380859375,-0.01263427734375,1.018798828125,28.600000381469727,0.0,-30.0,0.0128936767578125,0.2726287841796875,Closing,0.0,0.0,0.0,0.0,0.0,0.0,0.0,0.0,
4.012555,0.0,0.0,457.0,0.0,0.0,0.0,0.0,0.0,4.456786653,3.6556200319187147,0.0,-5557.0,0.0,0.0,0.0,0.0,0.0,1.702880685,1.1970958640795362,0.0012207030000004337,142.0,0.0,0.0,0.0,0.0,0.0,2.044677525,3.6616597990838704,0.0,-200.0,0.0,0.0,0.0,0.0,0.125,0.35522457300000004,3.6747043324139397,0.0,-0.7099999785423279,-0.10999999940395355,0.0,-0.0015869140625,0.02557373046875,1.02398681640625,28.600000381469727,0.0,0.0,0.01275634765625,0.2727203369140625,Closing,0.0,0.0,0.0,0.0,0.0,0.0,0.0,0.0,
4.1282309999999995,0.0,0.0,457.0,0.0,0.0,0.0,0.0,0.0,4.45556595,3.6556200319187147,0.0,-5557.0,0.0,0.0,0.0,0.0,0.0,1.7065427940000002,1.1970958640795362,0.0,142.0,0.0,0.0,0.0,0.0,0.0,2.045898228,3.6616597990838704,0.0,-200.0,0.0,0.0,0.0,0.0,0.125,0.35522457300000004,3.6747043324139397,0.0,-0.6399999856948853,-0.12999999523162842,0.0,0.00640869140625,-0.01715087890625,1.00152587890625,28.600000381469727,0.0,8.0,0.0123291015625,0.2745513916015625,Closing,0.0,0.0,0.0,0.0,0.0,0.0,0.0,0.0,
4.263407999999999,0.0,0.0,457.0,0.0,0.0,0.0,0.0,0.0,4.458007356,3.6556200319187147,0.0,-5557.0,0.0,0.0,0.0,0.0,0.0,1.7077634970000002,1.1970958640795362,0.0,142.0,0.0,0.0,0.0,0.0,0.0,2.044677525,3.6616597990838704,0.0,-200.0,0.0,0.0,0.0,0.0,0.125,0.35400387,3.6747043324139397,0.0,-0.5199999809265137,-0.15000000596046448,0.0,-0.03338623046875,0.01226806640625,1.0013427734375,28.600000381469727,0.0,-30.0,0.0123138427734375,0.277923583984375,Closing,0.0,0.0,0.0,0.0,0.0,0.0,0.0,0.0,
4.3929979999999995,0.0,0.0,457.0,0.0,0.0,0.0,0.0,0.0,4.456786653,3.6556200319187147,0.0,-5557.0,0.0,0.0,0.0,0.0,0.0,1.7077634970000002,1.1970958640795362,0.0,142.0,0.0,0.0,0.0,0.0,0.0,2.045898228,3.6616597990838704,0.0,-200.0,0.0,0.0,0.0,0.0,0.125,0.35400387,3.6747043324139397,0.0,-0.4300000071525574,-0.1899999976158142,0.0,-0.01708984375,0.02362060546875,1.04400634765625,28.600000381469727,0.0,-13.0,0.011932373046875,0.2835693359375,Closing,0.0,0.0,0.0,0.0,0.0,0.0,0.0,0.0,
4.421619000000001,0.0,0.0,457.0,0.0,0.0,0.0,0.0,0.0,4.451903841,3.6556200319187147,0.0,-5557.0,0.0,0.0,0.0,0.0,0.0,1.702880685,1.1970958640795362,0.0,142.0,0.0,0.0,0.0,0.0,0.0,2.045898228,3.6616597990838704,0.0,-200.0,0.0,0.0,0.0,0.0,0.125,0.35522457300000004,3.6747043324139397,0.0,-0.4099999964237213,-0.18000000715255737,0.0,0.00860595703125,0.02508544921875,1.02130126953125,28.59000015258789,0.0,11.0,0.011932373046875,0.2852020263671875,Closing,0.0,0.0,0.0,0.0,0.0,0.0,0.0,0.0,
4.453347,0.0,0.0,457.0,0.0,0.0,0.0,0.0,0.0,4.451903841,3.6556200319187147,-0.0012207030000004337,-5557.0,0.0,0.0,0.0,0.0,0.0,1.702880685,1.1970958640795362,-0.0012207029999995456,142.0,0.0,0.0,0.0,0.0,0.0,2.045898228,3.6616597990838704,0.0,-200.0,0.0,0.0,0.0,0.0,0.125,0.35400387,3.6747043324139397,0.0,-0.38999998569488525,-0.18000000715255737,0.0,-0.04327392578125,-0.0238037109375,1.011962890625,28.59000015258789,0.0,-39.0,0.0118560791015625,0.28607177734375,Closing,0.0,0.0,0.0,0.0,0.0,0.0,0.0,0.0,
4.492355,0.0,0.0,457.0,0.0,0.0,0.0,0.0,0.0,4.4506831380000005,3.6556200319187147,0.0012207030000004337,-5557.0,0.0,0.0,0.0,0.0,0.0,1.7065427940000002,1.1970958640795362,0.0,142.0,0.0,0.0,0.0,0.0,0.0,2.045898228,3.6616597990838704,0.0,-200.0,0.0,0.0,0.0,0.0,0.125,0.35400387,3.6747043324139397,0.0,-0.3499999940395355,-0.1899999976158142,0.0,0.00439453125,-0.0025634765625,0.994384765625,28.59000015258789,0.0,7.0,0.011505126953125,0.2860107421875,Closing,0.0,0.0,0.0,0.0,0.0,0.0,0.0,0.0,
4.525440000000001,0.0,0.0,457.0,0.0,0.0,0.0,0.0,0.0,4.451903841,3.6556200319187147,0.0,-5557.0,0.0,0.0,0.0,0.0,0.0,1.702880685,1.1970958640795362,0.003662108999999969,142.0,0.0,0.0,0.0,0.0,0.0,2.045898228,3.6616597990838704,0.0,-200.0,0.0,0.0,0.0,0.0,0.125,0.35400387,3.6747043324139397,0.0,-0.3100000023841858,-0.20000000298023224,0.0,0.0023193359375,0.030517578125,1.022216796875,28.59000015258789,0.0,6.0,0.011505126953125,0.2860870361328125,Closing,0.0,0.0,0.0,0.0,0.0,0.0,0.0,0.0,
4.559842000000001,0.0,0.0,457.0,0.0,0.0,0.0,0.0,0.0,4.451903841,3.6556200319187147,0.0,-5557.0,0.0,0.0,0.0,0.0,0.0,1.7077634970000002,1.1970958640795362,0.003662108999999969,142.0,0.0,0.0,0.0,0.0,0.0,2.045898228,3.6616597990838704,0.0,-200.0,0.0,0.0,0.0,0.0,0.125,0.35400387,3.6747043324139397,0.0,-0.30000001192092896,-0.20999999344348907,0.0,-0.01397705078125,0.024658203125,1.04486083984375,28.59000015258789,0.0,-10.0,0.011505126953125,0.2863922119140625,Closing,0.0,0.0,0.0,0.0,0.0,0.0,0.0,0.0,
4.583075999999999,0.0,0.0,457.0,0.0,0.0,0.0,0.0,0.0,4.45556595,3.6556200319187147,-0.0012207030000004337,-5557.0,0.0,0.0,0.0,0.0,0.0,1.7077634970000002,1.1970958640795362,-0.0012207029999999897,142.0,0.0,0.0,0.0,0.0,0.0,2.044677525,3.6616597990838704,0.0,-200.0,0.0,0.0,0.0,0.0,0.125,0.35522457300000004,3.6747043324139397,0.0,-0.28999999165534973,-0.20999999344348907,0.0,0.0,0.01947021484375,1.0499267578125,28.59000015258789,0.0,3.0,0.011505126953125,0.2866058349609375,Closing,0.0,0.0,0.0,0.0,0.0,0.0,0.0,0.0,
4.607325,0.0,0.0,457.0,0.0,0.0,0.0,0.0,0.0,4.456786653,3.6556200319187147,-0.0012207030000004337,-5557.0,0.0,0.0,0.0,0.0,0.0,1.702880685,1.1970958640795362,-0.0012207029999999897,142.0,0.0,0.0,0.0,0.0,0.0,2.045898228,3.6616597990838704,0.0,-200.0,0.0,0.0,0.0,0.0,0.125,0.35400387,3.6747043324139397,0.0,-0.2800000011920929,-0.20000000298023224,0.0,-0.0394287109375,-0.001953125,1.005859375,28.59000015258789,0.0,-35.0,0.0114898681640625,0.287139892578125,Closing,0.0,0.0,0.0,0.0,0.0,0.0,0.0,0.0,
4.631425999999999,0.0,0.0,457.0,0.0,0.0,0.0,0.0,0.0,4.45556595,3.6556200319187147,0.0,-5557.0,0.0,0.0,0.0,0.0,0.0,1.702880685,1.1970958640795362,0.0,142.0,0.0,0.0,0.0,0.0,0.0,2.045898228,3.6616597990838704,0.0,-200.0,0.0,0.0,0.0,0.0,0.125,0.35400387,3.6747043324139397,0.0,-0.25999999046325684,-0.20999999344348907,0.0,-0.04339599609375,-0.0242919921875,1.0166015625,28.59000015258789,0.0,-39.0,0.0113067626953125,0.287139892578125,Closing,0.0,0.0,0.0,0.0,0.0,0.0,0.0,0.0,
4.650599000000001,0.0,0.0,457.0,0.0,0.0,0.0,0.0,0.0,4.456786653,3.6556200319187147,0.0,-5557.0,0.0,0.0,0.0,0.0,0.0,1.701659982,1.1970958640795362,0.0,142.0,0.0,0.0,0.0,0.0,0.0,2.045898228,3.6616597990838704,0.0,-200.0,0.0,0.0,0.0,0.0,0.125,0.35400387,3.6747043324139397,0.0,-0.25,-0.2199999988079071,0.0,0.0015869140625,-0.0357666015625,1.019287109375,28.59000015258789,0.0,5.0,0.0111846923828125,0.287109375,Closing,0.0,0.0,0.0,0.0,0.0,0.0,0.0,0.0,
4.672234,0.0,0.0,457.0,0.0,0.0,0.0,0.0,0.0,4.45556595,3.6556200319187147,0.0,-5557.0,0.0,0.0,0.0,0.0,0.0,1.702880685,1.1970958640795362,0.0,142.0,0.0,0.0,0.0,0.0,0.0,2.045898228,3.6616597990838704,0.0,-200.0,0.0,0.0,0.0,0.0,0.125,0.35400387,3.6747043324139397,0.0,-0.23999999463558197,-0.2199999988079071,0.0,0.0137939453125,0.00201416015625,1.02459716796875,28.59000015258789,0.0,17.0,0.011077880859375,0.2870025634765625,Closing,0.0,0.0,0.0,0.0,0.0,0.0,0.0,0.0,
4.696084999999999,0.0,0.0,457.0,0.0,0.0,0.0,0.0,0.0,4.45556595,3.6556200319187147,-0.0012207029999995456,-5557.0,0.0,0.0,0.0,0.0,0.0,1.7077634970000002,1.1970958640795362,0.0,142.0,0.0,0.0,0.0,0.0,0.0,2.045898228,3.6616597990838704,0.0,-200.0,0.0,0.0,0.0,0.0,0.125,0.35400387,3.6747043324139397,0.0,-0.23000000417232513,-0.23000000417232513,0.0,0.01568603515625,0.04486083984375,1.0489501953125,28.59000015258789,0.0,19.0,0.011077880859375,0.2869720458984375,Closing,0.0,0.0,0.0,0.0,0.0,0.0,0.0,0.0,
4.715062,0.0,0.0,457.0,0.0,0.0,0.0,0.0,0.0,4.451903841,3.6556200319187147,-0.0012207029999995456,-5557.0,0.0,0.0,0.0,0.0,0.0,1.702880685,1.1970958640795362,0.0,142.0,0.0,0.0,0.0,0.0,0.0,2.045898228,3.6616597990838704,0.0,-200.0,0.0,0.0,0.0,0.0,0.125,0.35400387,3.6747043324139397,0.0,-0.2199999988079071,-0.2199999988079071,0.0,0.0052490234375,0.02679443359375,1.01666259765625,28.59000015258789,0.0,9.0,0.011077880859375,0.2870025634765625,Closing,0.0,0.0,0.0,0.0,0.0,0.0,0.0,0.0,
4.742464,0.0,0.0,457.0,0.0,0.0,0.0,0.0,0.0,4.456786653,3.6556200319187147,0.0024414059999999793,-5557.0,0.0,0.0,0.0,0.0,0.0,1.702880685,1.1970958640795362,-0.0024414059999999793,142.0,0.0,0.0,0.0,0.0,0.0,2.045898228,3.6616597990838704,0.0,-200.0,0.0,0.0,0.0,0.0,0.125,0.35400387,3.6747043324139397,0.0,-0.20999999344348907,-0.23000000417232513,0.0,-0.0191650390625,0.02532958984375,1.054443359375,28.59000015258789,0.0,-14.0,0.011077880859375,0.2872314453125,Closing,0.0,0.0,0.0,0.0,0.0,0.0,0.0,0.0,
4.759542,0.0,0.0,457.0,0.0,0.0,0.0,0.0,0.0,4.456786653,3.6556200319187147,0.0024414059999999793,-5557.0,0.0,0.0,0.0,0.0,0.0,1.702880685,1.1970958640795362,-0.0024414059999999793,142.0,0.0,0.0,0.0,0.0,0.0,2.045898228,3.6616597990838704,0.0,-200.0,0.0,0.0,0.0,0.0,0.125,0.35400387,3.6747043324139397,0.0,-0.1899999976158142,-0.23999999463558197,0.0,0.001220703125,0.022705078125,1.0484619140625,28.59000015258789,0.0,5.0,0.011077880859375,0.2873992919921875,Closing,0.0,0.0,0.0,0.0,0.0,0.0,0.0,0.0,
4.780434,0.0,0.0,457.0,0.0,0.0,0.0,0.0,0.0,4.456786653,3.6556200319187147,-0.0012207030000004337,-5557.0,0.0,0.0,0.0,0.0,0.0,1.702880685,1.1970958640795362,0.0024414059999999793,142.0,0.0,0.0,0.0,0.0,0.0,2.045898228,3.6616597990838704,0.0,-200.0,0.0,0.0,0.0,0.0,0.125,0.35522457300000004,3.6747043324139397,0.0,-0.1899999976158142,-0.23000000417232513,0.0,0.0029296875,0.02398681640625,1.02069091796875,28.59000015258789,0.0,7.0,0.011077880859375,0.2876129150390625,Closing,0.0,0.0,0.0,0.0,0.0,0.0,0.0,0.0,
4.805599,0.0,0.0,457.0,0.0,0.0,0.0,0.0,0.0,4.451903841,3.6556200319187147,-0.0012207030000004337,-5557.0,0.0,0.0,0.0,0.0,0.0,1.702880685,1.1970958640795362,0.0024414059999999793,142.0,0.0,0.0,0.0,0.0,0.0,2.045898228,3.6616597990838704,0.0,-200.0,0.0,0.0,0.0,0.0,0.125,0.35400387,3.6747043324139397,0.0,-0.17000000178813934,-0.23999999463558197,0.0,-0.04315185546875,-0.0216064453125,1.01568603515625,28.59000015258789,0.0,-38.0,0.010986328125,0.287841796875,Closing,0.0,0.0,0.0,0.0,0.0,0.0,0.0,0.0,
4.825405000000001,0.0,0.0,457.0,0.0,0.0,0.0,0.0,0.0,4.451903841,3.6556200319187147,-0.0012207030000004337,-5557.0,0.0,0.0,0.0,0.0,0.0,1.702880685,1.1970958640795362,0.0012207029999999897,142.0,0.0,0.0,0.0,0.0,0.0,2.045898228,3.6616597990838704,0.0,-200.0,0.0,0.0,0.0,0.0,0.125,0.35400387,3.6747043324139397,0.0,-0.1599999964237213,-0.23999999463558197,0.0,-0.02264404296875,-0.01617431640625,1.0333251953125,28.59000015258789,0.0,-18.0,0.0108795166015625,0.287841796875,Closing,0.0,0.0,0.0,0.0,0.0,0.0,0.0,0.0,
4.847787,0.0,0.0,457.0,0.0,0.0,0.0,0.0,0.0,4.4506831380000005,3.6556200319187147,0.0,-5557.0,0.0,0.0,0.0,0.0,0.0,1.7077634970000002,1.1970958640795362,0.0012207029999999897,142.0,0.0,0.0,0.0,0.0,0.0,2.045898228,3.6616597990838704,0.0,-200.0,0.0,0.0,0.0,0.0,0.125,0.35400387,3.6747043324139397,0.0,-0.14000000059604645,-0.23999999463558197,0.0,0.01373291015625,-0.00787353515625,0.98785400390625,28.59000015258789,0.0,17.0,0.0108795166015625,0.287750244140625,Closing,0.0,0.0,0.0,0.0,0.0,0.0,0.0,0.0,
