Time,ClimberA1,ClimberA2,FRpos,FRCurrent,FRspeed,FRsetpoint,FRApos,FRACurrent,FREncpos,FREncSetpoint,FREncSpeed,FLpos,FLCurrent,FLspeed,FLsetpoint,FLApos,FLACurrent,FLEncpos,FLEncSetpoint,FLEncSpeed,BRpos,BRCurrent,BRspeed,BRsetpoint,BRApos,BRACurrent,BREncpos,BREncSetpoint,BREncSpeed,BLpos,BLCurrent,BLspeed,BLsetpoint,BLApos,BLACurrent,BLEncpos,BLEncSetpoint,BLEncSpeed,navx_Pitch,navx_Roll,navx_Yaw,navx_XAcc,navx_YAcc,navx_ZAcc,navx_Temp,navx_Bar,navx_Alt,navx_XDis,navx_YDis,GearPlacerState,ShootOutputV,ShootOutputCurrent,ShootEncPos,ShootEncVelocity,ShootSpeed,ShootSetpoint,CarouselSetpoint,CarouselCurrent,
0.16963200000001233,0.0,0.0,-1099.0,0.0,0.0,0.0,0.0,0.125,0.808105386,0.01,0.0,-3008.0,0.0,0.0,-0.0,0.0,0.25,0.532226508,0.01,0.0,13282.0,0.0,0.0,0.0,0.0,0.0,3.343505517,0.01,0.0,-6944.0,0.125,0.0,-0.0,0.0,0.125,1.645507644,0.01,0.0,0.7799999713897705,-0.6499999761581421,170.55999755859375,-0.01129150390625,0.0142822265625,1.02056884765625,36.72999954223633,0.0,0.0,0.706024169921875,2.0585174560546875,Closing,0.0,0.0,0.0,0.0,0.0,0.0,0.0,0.0,
0.288140000000014,0.0,0.0,-1099.0,0.0,0.0,0.0,0.0,0.125,0.808105386,0.01,0.0,-3008.0,0.0,0.0,-0.0,0.0,0.125,0.527343696,0.01,0.0,13282.0,0.0,0.0,0.0,0.0,0.0,3.34472622,0.01,0.0,-6944.0,0.125,0.0,-0.0,0.0,0.25,1.645507644,0.01,0.0,0.7699999809265137,-0.6800000071525574,170.5500030517578,-0.1651611328125,0.047119140625,1.16436767578125,36.72999954223633,0.0,10.0,0.70672607421875,2.058135986328125,Closing,0.0,0.0,0.0,0.0,0.0,0.0,0.0,0.0,
0.39264600000000793,0.0,0.0,-1099.0,0.0,0.0,0.0,0.0,0.125,0.808105386,0.01,-0.0012207029999995456,-3008.0,0.0,0.0,-0.0,0.0,0.125,0.527343696,0.01,-0.006103514999999504,13282.0,0.0,0.0,0.0,0.0,0.0,3.343505517,0.01,0.0,-6944.0,0.125,0.0,-0.0,0.0,0.25,1.645507644,0.01,0.0,0.7699999809265137,-0.6499999761581421,170.5500030517578,0.04168701171875,-0.04376220703125,0.83160400390625,36.72999954223633,0.0,-59.0,0.707061767578125,2.0564727783203125,Closing,0.0,0.0,0.0,0.0,0.0,0.0,0.0,0.0,
0.4930660000000207,0.0,0.0,-1099.0,0.0,0.0,0.0,0.0,0.125,0.808105386,0.01,0.0,-3008.0,0.0,0.0,-0.0,0.0,0.125,0.52490229,0.01,0.0,13282.0,0.0,0.0,0.0,0.0,0.0,3.34472622,0.01,0.0,-6944.0,0.125,0.0,-0.0,0.0,0.25,1.644286941,0.01,0.0,0.7799999713897705,-0.7099999785423279,170.5500030517578,-0.052001953125,0.0748291015625,1.10028076171875,36.72999954223633,0.0,47.0,0.707427978515625,2.054656982421875,Closing,0.0,0.0,0.0,0.0,0.0,0.0,0.0,0.0,
0.5979040000000095,0.0,0.0,-1099.0,0.0,0.0,0.0,0.0,0.25,0.808105386,0.01,0.0,-3008.0,0.0,0.0,-0.0,0.0,0.125,0.527343696,0.01,0.0,13282.0,0.0,0.0,0.0,0.0,0.0,3.343505517,0.01,0.0,-6944.0,0.125,0.0,-0.0,0.0,0.25,1.645507644,0.01,0.0,0.75,-0.7300000190734863,170.55999755859375,-0.0230712890625,0.04278564453125,0.96612548828125,36.72999954223633,0.0,15.0,0.708770751953125,2.05126953125,Closing,0.0,0.0,0.0,0.0,0.0,0.0,0.0,0.0,
0.705061000000016,0.0,0.0,-1099.0,0.0,0.0,0.0,0.0,0.125,0.808105386,0.01,0.0,-3008.0,0.0,0.0,-0.0,0.0,0.125,0.527343696,0.01,0.0,13282.0,0.0,0.0,0.0,0.0,0.0,3.343505517,0.01,0.0,-6944.0,0.0,0.0,-0.0,0.0,0.25,1.645507644,0.01,0.0,0.7699999809265137,-0.699999988079071,170.55999755859375,-0.0089111328125,-0.0020751953125,1.00433349609375,36.72999954223633,0.0,-5.0,0.7091217041015625,2.0490264892578125,Closing,0.0,0.0,0.0,0.0,0.0,0.0,0.0,0.0,
0.8083070000000007,0.0,0.0,-1099.0,0.0,0.0,0.0,0.0,0.125,0.808105386,0.01,0.0,-3008.0,0.0,0.0,-0.0,0.0,0.125,0.527343696,0.01,0.0,13282.0,0.0,0.0,0.0,0.0,0.0,3.343505517,0.01,0.0,-6944.0,0.125,0.0,-0.0,0.0,0.25,1.645507644,0.01,0.0,0.7799999713897705,-0.7099999785423279,170.55999755859375,-0.00592041015625,0.0147705078125,1.0533447265625,36.72999954223633,0.0,-7.0,0.7091217041015625,2.049102783203125,Closing,0.0,0.0,0.0,0.0,0.0,0.0,0.0,0.0,
0.9105580000000191,0.0,0.0,-1099.0,0.0,0.0,0.0,0.0,0.125,0.806884683,0.01,0.0,-3008.0,0.0,0.0,-0.0,0.0,0.125,0.527343696,0.01,0.0,13282.0,0.0,0.0,0.0,0.0,0.0,3.343505517,0.01,0.0,-6944.0,0.125,0.0,-0.0,0.0,0.25,1.645507644,0.01,0.0,0.7599999904632568,-0.699999988079071,170.55999755859375,-0.01434326171875,0.014404296875,1.0181884765625,36.72999954223633,0.0,1.0,0.7090301513671875,2.049102783203125,Closing,0.0,0.0,0.0,0.0,0.0,0.0,0.0,0.0,
1.0143310000000056,0.0,0.0,-1099.0,0.0,0.0,0.0,0.0,0.125,0.808105386,0.01,0.0,-3008.0,0.0,0.0,-0.0,0.0,0.125,0.527343696,0.01,0.0,13282.0,0.0,0.0,0.0,0.0,0.0,3.343505517,0.01,0.0,-6944.0,0.125,0.0,-0.0,0.0,0.25,1.645507644,0.01,0.0,0.7699999809265137,-0.6899999976158142,170.55999755859375,-0.01580810546875,0.01214599609375,1.025146484375,36.72999954223633,0.0,3.0,0.7090301513671875,2.049102783203125,Closing,0.0,0.0,0.0,0.0,0.0,0.0,0.0,0.125,
1.1160830000000133,0.0,0.0,-1099.0,0.0,0.0,0.0,0.0,0.125,0.808105386,0.01,0.0,-3008.0,0.0,0.0,-0.0,0.0,0.125,0.527343696,0.01,0.0,13282.0,0.0,0.0,0.0,0.0,0.0,3.34472622,0.01,0.0,-6944.0,0.125,0.0,-0.0,0.0,0.25,1.646728347,0.01,0.0,0.7699999809265137,-0.6899999976158142,170.55999755859375,-0.0076904296875,0.01190185546875,1.04559326171875,36.72999954223633,0.0,-5.0,0.7090301513671875,2.049102783203125,Closing,0.0,0.0,0.0,0.0,0.0,0.0,0.0,0.125,
1.2282000000000117,0.0,0.0,-1099.0,0.0,0.0,0.0,0.0,0.125,0.808105386,0.01,0.0,-3008.0,0.0,0.0,-0.0,0.0,0.125,0.527343696,0.01,0.0,13282.0,0.0,0.0,0.0,0.0,0.0,3.34472622,0.01,0.0,-6944.0,0.125,0.0,-0.0,0.0,0.25,1.645507644,0.01,0.0,0.7699999809265137,-0.6899999976158142,170.55999755859375,-0.0123291015625,0.01507568359375,1.01971435546875,36.72999954223633,0.0,0.0,0.7090301513671875,2.049102783203125,Closing,0.0,0.0,0.0,0.0,0.0,0.0,0.0,0.0,
1.3426120000000228,0.0,0.0,-1099.0,0.0,0.0,0.0,0.0,0.125,0.808105386,0.01,0.0,-3008.0,0.0,0.0,-0.0,0.0,0.125,0.527343696,0.01,0.0,13282.0,0.0,0.0,0.0,0.0,0.0,3.343505517,0.01,0.0,-6944.0,0.125,0.0,-0.0,0.0,0.25,1.645507644,0.01,0.0,0.7699999809265137,-0.6800000071525574,170.55999755859375,-0.0137939453125,0.0111083984375,1.00762939453125,36.72999954223633,0.0,1.0,0.7090301513671875,2.049102783203125,Closing,0.0,0.0,0.0,0.0,0.0,0.0,0.0,0.0,
1.4637580000000017,0.0,0.0,-1099.0,0.0,0.0,0.0,0.0,0.125,0.808105386,0.01,0.0,-3008.0,0.0,0.0,-0.0,0.0,0.125,0.527343696,0.01,0.0,13282.0,0.0,0.0,0.0,0.0,0.0,3.343505517,0.01,0.0,-6944.0,0.125,0.0,-0.0,0.0,0.25,1.645507644,0.01,0.0,0.7699999809265137,-0.6899999976158142,170.55999755859375,-0.01715087890625,0.011962890625,1.03594970703125,36.72999954223633,0.0,4.0,0.7090301513671875,2.049102783203125,Closing,0.0,0.0,0.0,0.0,0.0,0.0,0.0,0.0,
1.568109000000026,0.0,0.0,-1099.0,0.0,0.0,0.0,0.0,0.125,0.806884683,0.01,0.0,-3008.0,0.0,0.0,-0.0,0.0,0.125,0.527343696,0.01,0.0,13282.0,0.0,0.0,0.0,0.0,0.0,3.343505517,0.01,0.0,-6944.0,0.125,0.0,-0.0,0.0,0.25,1.645507644,0.01,0.0,0.7599999904632568,-0.6800000071525574,170.57000732421875,-0.014892578125,7.9345703125E-4,1.0372314453125,36.72999954223633,0.0,0.0,0.709014892578125,2.0493316650390625,Closing,0.0,0.0,0.0,0.0,0.0,0.0,0.0,0.0,
1.6679550000000163,0.0,0.0,-1099.0,0.0,0.0,0.0,0.0,0.125,0.808105386,0.01,0.0,-3008.0,0.0,0.0,-0.0,0.0,0.125,0.527343696,0.01,0.0,13282.0,0.0,0.0,0.0,0.0,0.0,3.342284814,0.01,0.0,-6944.0,0.125,0.0,-0.0,0.0,0.25,1.645507644,0.01,0.0,0.7699999809265137,-0.6899999976158142,170.55999755859375,-0.02313232421875,0.01666259765625,1.11932373046875,36.72999954223633,0.0,9.0,0.709197998046875,2.0496673583984375,Closing,0.0,0.0,0.0,0.0,0.0,0.0,0.0,0.0,
1.772652000000002,0.0,0.0,-1099.0,0.0,0.0,0.0,0.0,0.25,0.808105386,0.01,0.0,-3008.0,0.0,0.0,-0.0,0.0,0.125,0.527343696,0.01,0.0,13282.0,0.0,0.0,0.0,0.0,0.0,3.343505517,0.01,0.0,-6944.0,0.125,0.0,-0.0,0.0,0.25,1.646728347,0.01,0.0,0.7400000095367432,-0.6899999976158142,170.55999755859375,-0.01080322265625,-0.0450439453125,0.99298095703125,36.720001220703125,0.0,-10.0,0.709747314453125,2.051300048828125,Closing,0.0,0.0,0.0,0.0,0.0,0.0,0.0,0.0,
1.8767760000000127,0.0,0.0,-1099.0,0.0,0.0,0.0,0.0,0.125,0.808105386,0.01,0.0,-3008.0,0.0,0.0,-0.0,0.0,0.125,0.527343696,0.01,0.0,13282.0,0.0,0.0,0.0,0.0,0.0,3.34472622,0.01,0.0,-6944.0,0.125,0.0,-0.0,0.0,0.25,1.645507644,0.01,0.0,0.7200000286102295,-0.6600000262260437,170.55999755859375,-0.14404296875,0.05487060546875,1.0499267578125,36.720001220703125,0.0,136.0,0.7098846435546875,2.05487060546875,Closing,0.0,0.0,0.0,0.0,0.0,0.0,0.0,0.0,
1.9879130000000005,0.0,0.0,-1099.0,0.0,0.0,0.0,0.0,0.125,0.808105386,0.01,0.0,-3008.0,0.0,0.0,-0.0,0.0,0.125,0.527343696,0.01,0.0,13282.0,0.0,0.0,0.0,0.0,0.0,3.343505517,0.01,0.0,-6944.0,0.125,0.0,-0.0,0.0,0.25,1.645507644,0.01,0.0,0.7900000214576721,-0.699999988079071,170.5399932861328,0.01080322265625,-0.00433349609375,1.01263427734375,36.720001220703125,0.0,-25.0,0.710723876953125,2.0568695068359375,Closing,0.0,0.0,0.0,0.0,0.0,0.0,0.0,0.0,
2.089607000000018,0.0,0.0,-1099.0,0.0,0.0,0.0,0.0,0.125,0.808105386,0.01,0.0,-3008.0,0.0,0.0,-0.0,0.0,0.125,0.527343696,0.01,0.0,13282.0,0.0,0.0,0.0,0.0,0.0,3.343505517,0.01,0.0,-6944.0,0.125,0.0,-0.0,0.0,0.25,1.646728347,0.01,0.0,0.7900000214576721,-0.6000000238418579,170.5800018310547,-0.0887451171875,-0.084228515625,0.9859619140625,36.720001220703125,0.0,61.0,0.7123565673828125,2.0587310791015625,Closing,0.0,0.0,0.0,0.0,0.0,0.0,0.0,0.0,
2.1913950000000186,0.0,0.0,-1099.0,0.0,0.0,0.0,0.0,0.125,0.808105386,0.01,-0.0012207029999995456,-3008.0,0.0,0.0,-0.0,0.0,0.125,0.527343696,0.01,0.0,13282.0,0.0,0.0,0.0,0.0,0.0,3.343505517,0.01,0.0,-6944.0,0.125,0.0,-0.0,0.0,0.25,1.645507644,0.01,0.0,0.800000011920929,-0.6399999856948853,170.5500030517578,-0.0135498046875,-0.0333251953125,1.05413818359375,36.720001220703125,0.0,-6.0,0.715362548828125,2.0616455078125,Closing,0.0,0.0,0.0,0.0,0.0,0.0,0.0,0.125,
2.2923660000000092,0.0,0.0,-1099.0,0.0,0.0,0.0,0.0,0.125,0.808105386,0.01,0.0012207029999995456,-3008.0,0.0,0.0,-0.0,0.0,0.125,0.527343696,0.01,0.0,13282.0,0.0,0.0,0.0,0.0,0.0,3.343505517,0.01,0.0,-6944.0,0.125,0.0,-0.0,0.0,0.25,1.645507644,0.01,0.0,0.800000011920929,-0.6200000047683716,170.55999755859375,-0.02850341796875,0.01593017578125,1.03515625,36.70000076293945,0.0,17.0,0.7183380126953125,2.0628814697265625,Closing,0.0,0.0,0.0,0.0,0.0,0.0,0.0,0.0,
2.3964730000000274,0.0,0.0,-1099.0,0.0,0.0,0.0,0.0,0.125,0.809326089,0.01,0.0,-3008.0,0.0,0.0,-0.0,0.0,0.125,0.526122993,0.01,0.0,13282.0,0.0,0.0,0.0,0.0,0.0,3.343505517,0.01,0.0,-6944.0,0.125,0.0,-0.0,0.0,0.25,1.645507644,0.01,0.0,0.7799999713897705,-0.6100000143051147,170.57000732421875,-0.01129150390625,0.0302734375,1.00311279296875,36.70000076293945,0.0,3.0,0.7183380126953125,2.0630035400390625,Closing,0.0,0.0,0.0,0.0,0.0,0.0,0.0,0.0,
2.504887000000017,0.0,0.0,-1099.0,0.0,0.0,0.0,0.0,0.125,0.809326089,0.01,0.0,-3008.0,0.0,0.0,-0.0,0.0,0.125,0.527343696,0.01,0.0,13282.0,0.0,0.0,0.0,0.0,0.0,3.343505517,0.01,0.0,-6944.0,0.125,0.0,-0.0,0.0,0.25,1.645507644,0.01,0.0,0.7799999713897705,-0.6299999952316284,170.55999755859375,-0.00927734375,0.01336669921875,1.00732421875,36.70000076293945,0.0,-1.0,0.7183380126953125,2.0630035400390625,Closing,0.0,0.0,0.0,0.0,0.0,0.0,0.0,0.0,
2.6130230000000156,0.0,0.0,-1104.0,2.125,-30.0,-714.3307435512543,0.0,0.125,0.811767495,4.932250999999998,0.0,-3002.0,2.375,120.0,714.3307435512543,0.0,0.125,0.5175780720000001,4.963769999999998,0.0,13281.0,1.5,-22.5,-714.3307435512543,0.0,0.0,3.3630367650000004,0.01,0.0,-6942.0,2.75,30.0,714.3307435512543,0.0,0.25,1.645507644,0.01,0.0,0.7400000095367432,-0.8500000238418579,170.55999755859375,-0.181640625,-0.0830078125,1.125732421875,36.70000076293945,0.0,146.0,0.719329833984375,2.0633087158203125,Closing,0.0,0.0,0.0,0.0,0.0,0.0,0.0,0.0,
2.719393000000011,0.0,0.0,-1124.0,3.875,-142.5,-714.3307435512543,0.0,0.125,0.8276366340000001,4.932250999999998,0.0,-2972.0,3.75,135.0,714.3307435512543,0.0,0.125,0.483398388,4.963769999999998,0.0,13266.0,3.75,-97.5,-714.3307435512543,0.0,0.0,3.3691402800000003,0.01,0.0,-6928.0,3.875,120.0,714.3307435512543,0.0,0.25,1.625976396,0.01,0.0,0.7699999809265137,-1.2999999523162842,170.72999572753906,-0.05902099609375,-0.01220703125,0.97509765625,36.70000076293945,0.0,32.0,0.727142333984375,2.064727783203125,Closing,0.0,0.0,0.0,0.0,0.0,0.0,0.0,0.0,
2.829677000000025,0.0,0.0,-1171.0,8.125,-292.5,-1031.8110573291779,0.0,0.125,0.821533119,4.932250999999998,0.0,-2925.0,10.0,330.0,1031.8110573291779,0.0,0.125,0.471191358,4.963769999999998,0.0,13236.0,9.5,-217.5,-1031.8110573291779,0.0,0.0,3.3789059040000002,0.01,0.0,-6884.0,7.75,322.5,1031.8110573291779,0.0,0.125,1.627197099,0.01,0.0,0.8100000023841858,-2.130000114440918,170.66000366210938,-0.34234619140625,-0.02777099609375,1.04681396484375,36.70000076293945,0.0,292.0,0.742645263671875,2.06689453125,Closing,0.0,0.0,0.0,0.0,0.0,0.0,0.0,0.0,
2.9456790000000037,0.0,0.0,-1276.0,10.75,-600.0,-1289.7637653350828,0.0,0.125,0.8276366340000001,4.932250999999998,0.0,-2828.0,13.0,630.0,1289.7637653350828,0.0,0.25,0.468749952,4.963769999999998,0.0,13157.0,13.125,-510.0,-1289.7637653350828,0.0,0.125,3.3776852010000002,0.01,0.0,-6790.0,10.25,607.5,1289.7637653350828,0.0,0.125,1.621093584,0.01,0.0,0.8700000047683716,-3.25,170.69000244140625,-0.218017578125,-0.00836181640625,1.18621826171875,36.70000076293945,0.0,144.0,0.777008056640625,2.0725860595703125,Closing,0.0,0.0,0.0,0.0,0.0,0.0,0.0,0.0,
3.0510630000000236,0.0,0.0,-1437.0,8.75,-930.0,-1289.7637653350828,0.0,0.125,0.8288573370000001,4.932250999999998,0.0,-2673.0,10.625,937.5,1289.7637653350828,0.0,0.25,0.46386714,4.963769999999998,0.0,13032.0,12.625,-765.0,-1289.7637653350828,0.0,0.125,3.3789059040000002,0.01,0.0,-6637.0,8.375,975.0,1289.7637653350828,0.0,0.125,1.621093584,0.01,0.0,0.7099999785423279,-3.9800000190734863,170.7100067138672,-0.1456298828125,0.0792236328125,0.8726806640625,36.70000076293945,0.0,94.0,0.8199920654296875,2.081298828125,Closing,0.0,0.0,0.0,0.0,0.0,0.0,0.0,0.0,
3.1599490000000223,0.0,0.0,-1437.0,5.625,-1230.0,-1289.7637653350828,0.0,0.125,0.826415931,4.932250999999998,0.0,-2479.0,8.125,1162.5,1289.7637653350828,0.0,0.25,0.458984328,4.963769999999998,0.0,12877.0,12.25,-922.5,-1289.7637653350828,0.0,0.125,3.3776852010000002,0.01,0.0,-6441.0,6.375,1215.0,1289.7637653350828,0.0,0.125,1.624755693,0.01,0.0,0.8399999737739563,-4.25,170.8000030517578,-0.08709716796875,0.0069580078125,0.982421875,36.70000076293945,0.0,12.0,0.87237548828125,2.0940399169921875,Closing,0.0,0.0,0.0,0.0,0.0,0.0,0.0,0.0,
3.269775000000023,0.0,0.0,-1643.0,0.125,-1282.5,-575.433059334755,0.0,0.125,0.826415931,4.932250999999998,0.0,-2292.0,0.5,1215.0,575.433059334755,0.0,0.25,0.47363276400000004,4.963769999999998,0.0,12704.0,3.375,-1065.0,-575.433059334755,0.0,0.125,3.3789059040000002,0.01,0.0,-6252.0,0.5,1222.5,575.433059334755,0.0,0.125,1.625976396,0.01,0.0,0.8899999856948853,-4.090000152587891,170.7899932861328,-0.15869140625,-0.1353759765625,1.20367431640625,36.66999816894531,0.0,46.0,0.9264984130859375,2.107452392578125,Closing,0.0,0.0,0.0,0.0,0.0,0.0,0.0,0.0,
3.390700000000012,0.0,0.0,-1832.0,0.0,-1170.0,0.0,0.0,0.125,0.826415931,4.932250999999998,0.0,-2292.0,0.0,1200.0,0.0,0.0,0.25,0.47851557600000005,4.963769999999998,0.0,12704.0,0.0,-1162.5,0.0,0.0,0.125,3.34472622,0.01,0.0,-6056.0,0.125,1192.5,0.0,0.0,0.125,1.627197099,0.01,0.0,0.8799999952316284,-3.2699999809265137,170.6999969482422,0.198974609375,-0.0318603515625,0.84710693359375,36.66999816894531,0.0,-251.0,0.9725341796875,2.11895751953125,Closing,0.0,0.0,0.0,0.0,0.0,0.0,0.0,0.125,
3.502329000000027,0.0,0.0,-2028.0,0.0,-1117.5,0.0,0.0,0.125,0.821533119,4.932250999999998,0.0,-1920.0,0.0,1132.5,0.0,0.0,0.25,0.47485346700000003,4.963769999999998,0.0,12368.0,0.0,-967.5,0.0,0.0,0.0,3.343505517,0.01,0.0,-5882.0,0.125,1125.0,0.0,0.0,0.125,1.625976396,0.01,0.0,0.8199999928474426,-2.309999942779541,170.6699981689453,0.177490234375,0.0264892578125,0.9547119140625,36.66999816894531,0.0,-210.0,1.0122222900390625,2.132080078125,Closing,0.0,0.0,0.0,0.0,0.0,0.0,0.0,0.0,
3.6181140000000016,0.0,0.0,-2200.0,0.0,-1035.0,0.0,0.0,0.125,0.8166503070000001,4.932250999999998,0.0,-1920.0,0.0,997.5,0.0,0.0,0.25,0.47363276400000004,4.963769999999998,0.0,12368.0,0.0,-982.5,0.0,0.0,0.0,3.34472622,0.01,0.0,-5729.0,0.125,975.0,0.0,0.0,0.125,1.625976396,0.01,0.0,0.7200000286102295,-1.7200000286102295,170.75999450683594,0.1123046875,0.05853271484375,0.97900390625,36.66999816894531,0.0,-132.0,1.035675048828125,2.1428680419921875,Closing,0.0,0.0,0.0,0.0,0.0,0.0,0.0,0.0,
3.731286000000022,0.0,0.0,-2354.0,0.0,-862.5,0.0,0.0,0.125,0.8178710100000001,4.932250999999998,0.0,-1768.0,0.0,847.5,0.0,0.0,0.25,0.47363276400000004,4.963769999999998,0.0,12213.0,0.0,-855.0,0.0,0.0,0.0,3.343505517,0.01,0.0,-5729.0,0.125,855.0,0.0,0.0,0.125,1.627197099,0.01,0.0,0.7300000190734863,-1.2100000381469727,170.72999572753906,0.19012451171875,-0.06036376953125,0.90576171875,36.66999816894531,0.0,-218.0,1.048553466796875,2.15045166015625,Closing,0.0,0.0,0.0,0.0,0.0,0.0,0.0,0.0,
3.8500400000000083,0.0,0.0,-2482.0,0.0,-720.0,0.0,0.0,0.125,0.812988198,4.932250999999998,0.0,-1637.0,0.0,742.5,0.0,0.0,0.25,0.47363276400000004,4.963769999999998,0.0,12083.0,0.0,-705.0,0.0,0.0,0.0,3.343505517,0.01,0.0,-5598.0,0.125,727.5,0.0,0.0,0.125,1.625976396,0.01,0.0,0.6100000143051147,-0.6200000047683716,170.66000366210938,0.12066650390625,0.0498046875,0.75079345703125,36.58000183105469,0.0,-120.0,1.053924560546875,2.1577301025390625,Closing,0.0,0.0,0.0,0.0,0.0,0.0,0.0,0.0,
3.9667970000000206,0.0,0.0,-2589.0,0.0,-607.5,0.0,0.0,0.125,0.812988198,4.932250999999998,0.0,-1528.0,0.0,585.0,0.0,0.0,0.25,0.47363276400000004,4.963769999999998,0.0,11976.0,0.0,-592.5,0.0,0.0,0.0,3.342284814,0.01,0.0,-5486.0,0.125,615.0,0.0,0.0,0.125,1.625976396,0.01,0.0,0.6600000262260437,-0.20999999344348907,170.6199951171875,0.0394287109375,-0.01385498046875,1.15521240234375,36.58000183105469,0.0,-47.0,1.0510406494140625,2.1603546142578125,Closing,0.0,0.0,0.0,0.0,0.0,0.0,0.0,0.0,
4.082102000000013,0.0,0.0,-2668.0,4.25,-360.0,393.75,0.0,2.25,1.079101452,0.5498168668524888,0.0,-1441.0,0.0,457.5,393.75,0.0,0.5,0.241699194,4.410439589772222,0.0,11887.0,5.5,-472.5,393.75,0.0,0.75,3.0578610150000003,4.389674732977289,0.0,-5396.0,0.25,405.0,393.75,0.0,1.0,1.9775388600000001,0.5526872062785588,0.0,0.5699999928474426,1.0399999618530273,169.9199981689453,0.1943359375,0.0355224609375,1.1978759765625,36.58000183105469,0.0,-165.0,1.0363006591796875,2.1587066650390625,Closing,0.0,0.0,0.0,0.0,0.0,0.0,0.0,0.125,
4.194983000000008,0.0,0.0,-2681.0,2.25,0.0,262.5,0.0,0.5,1.485595551,0.5498168668524888,0.0,-1386.0,0.0,142.5,262.5,0.0,0.25,4.877929188,4.410439589772222,0.0,11836.0,4.125,-112.5,262.5,0.0,0.5,2.707519254,4.389674732977289,0.0,-5345.0,0.25,120.0,262.5,0.0,0.625,2.347411869,0.5526872062785588,0.0,0.5,1.690000057220459,168.91000366210938,0.0079345703125,0.0482177734375,0.85614013671875,36.58000183105469,0.0,24.0,1.0209197998046875,2.1554107666015625,Closing,0.0,0.0,0.0,0.0,0.0,0.0,0.0,0.0,
4.310287000000011,0.0,0.0,-2673.0,0.0,15.0,0.0,0.0,0.375,1.516113126,0.5498168668524888,0.0,-1379.0,0.0,15.0,0.0,0.0,0.25,4.829101068,4.410439589772222,0.0,11835.0,0.0,15.0,0.0,0.0,0.125,2.667236055,4.389674732977289,0.0,-5343.0,0.125,0.0,0.0,0.0,0.5,2.352294681,0.5526872062785588,0.0,0.5799999833106995,1.159999966621399,168.55999755859375,0.0135498046875,0.03338623046875,1.01751708984375,36.560001373291016,0.0,11.0,1.02618408203125,2.1500701904296875,Closing,0.0,0.0,0.0,0.0,0.0,0.0,0.0,0.0,
4.427458000000013,0.0,0.0,-2673.0,0.0,0.0,0.0,0.0,0.375,1.44042954,0.5498168668524888,0.0,-1378.0,0.0,0.0,0.0,0.0,0.25,4.844970207,4.410439589772222,0.0,11834.0,0.0,-7.5,0.0,0.0,0.125,2.7368161260000003,4.389674732977289,0.0,-5342.0,0.125,0.0,0.0,0.0,0.5,2.236327896,0.5526872062785588,0.0,0.5799999833106995,1.1699999570846558,168.6199951171875,-0.03411865234375,-0.014892578125,0.99542236328125,36.560001373291016,0.0,48.0,1.033233642578125,2.1451416015625,Closing,0.0,0.0,0.0,0.0,0.0,0.0,0.0,0.0,
4.545451000000001,0.0,0.0,-2672.0,0.875,7.5,377.34375,0.0,0.25,1.3696287660000002,0.5498168668524888,0.0,-1378.0,1.125,7.5,377.34375,0.0,0.25,4.876708485,4.410439589772222,0.0,11833.0,1.125,0.0,377.34375,0.0,0.125,2.780761434,4.389674732977289,0.0,-5340.0,0.75,45.0,377.34375,0.0,0.25,2.1740720430000002,0.5526872062785588,0.0,0.6299999952316284,1.0099999904632568,168.6199951171875,0.01287841796875,0.014404296875,0.98736572265625,36.560001373291016,0.0,5.0,1.0423583984375,2.143798828125,Closing,0.0,0.0,0.0,0.0,0.0,0.0,0.0,0.0,
4.664306000000011,0.0,0.0,-2670.0,0.0,7.5,0.0,0.0,0.125,1.3720701720000001,0.5498168668524888,0.0,-1376.0,0.0,0.0,0.0,0.0,0.25,4.877929188,4.410439589772222,0.0,11833.0,0.0,0.0,0.0,0.0,0.0,2.7893063550000003,4.389674732977289,0.0,-5323.0,0.125,75.0,0.0,0.0,0.125,2.1728513400000002,0.5526872062785588,0.0,0.5899999737739563,0.8799999952316284,168.55999755859375,0.01318359375,0.03924560546875,0.9820556640625,36.560001373291016,0.0,7.0,1.04339599609375,2.144287109375,Closing,0.0,0.0,0.0,0.0,0.0,0.0,0.0,0.0,
4.773133000000001,0.0,0.0,-2671.0,0.0,0.0,0.0,0.0,0.125,1.3708494690000002,0.5498168668524888,0.0,-1376.0,0.0,0.0,0.0,0.0,0.25,4.881591297,4.410439589772222,0.0,11833.0,0.0,0.0,0.0,0.0,0.0,2.7905270580000003,4.389674732977289,0.0,-5323.0,0.125,0.0,0.0,0.0,0.125,2.1728513400000002,0.5526872062785588,0.0,0.6000000238418579,0.7799999713897705,168.57000732421875,-0.0067138671875,0.0108642578125,1.024658203125,36.5,0.0,20.0,1.0440216064453125,2.1441497802734375,Closing,0.0,0.0,0.0,0.0,0.0,0.0,0.0,0.0,
4.889752000000008,0.0,0.0,-2671.0,0.0,0.0,0.0,0.0,0.125,1.3708494690000002,0.5498168668524888,0.0,-1376.0,0.0,0.0,0.0,0.0,0.25,4.884032703,4.410439589772222,0.0,11833.0,0.0,0.0,0.0,0.0,0.0,2.7893063550000003,4.389674732977289,0.0,-5323.0,0.125,0.0,0.0,0.0,0.125,2.1728513400000002,0.5526872062785588,0.0,0.6100000143051147,0.699999988079071,168.5800018310547,-0.01080322265625,0.0062255859375,1.02447509765625,36.5,0.0,21.0,1.0444793701171875,2.1441497802734375,Closing,0.0,0.0,0.0,0.0,0.0,0.0,0.0,0.125,
4.9918880000000065,0.0,0.0,-2668.0,2.125,7.5,754.6875,0.0,0.125,1.3708494690000002,0.5498168668524888,0.0,-1368.0,2.625,45.0,754.6875,0.0,0.25,4.881591297,4.410439589772222,0.0,11833.0,2.75,0.0,754.6875,0.0,0.0,2.7905270580000003,4.389674732977289,0.0,-5315.0,2.625,67.5,754.6875,0.0,0.125,2.1740720430000002,0.5526872062785588,0.0,0.6399999856948853,0.5699999928474426,168.3699951171875,-0.02899169921875,-0.01409912109375,1.03228759765625,36.5,0.0,33.0,1.045562744140625,2.1439056396484375,Closing,0.0,0.0,0.0,0.0,0.0,0.0,0.0,0.125,
5.098977000000014,0.0,0.0,-2665.0,0.0,30.0,0.0,0.0,0.125,1.3708494690000002,0.5498168668524888,0.0,-1344.0,0.0,180.0,0.0,0.0,0.25,4.879149891,4.410439589772222,0.0,11842.0,0.0,60.0,0.0,0.0,0.0,2.7893063550000003,4.389674732977289,0.0,-5307.0,0.125,45.0,0.0,0.0,0.125,2.1740720430000002,0.5526872062785588,0.0,0.6299999952316284,0.550000011920929,167.39999389648438,0.02606201171875,-0.02392578125,0.99859619140625,36.5,0.0,-23.0,1.0477294921875,2.1436309814453125,Closing,0.0,0.0,0.0,0.0,0.0,0.0,0.0,0.0,
5.200468000000023,0.0,0.0,-2665.0,0.0,0.0,0.0,0.0,0.125,1.3720701720000001,0.5498168668524888,0.0,-1344.0,0.0,0.0,0.0,0.0,0.25,4.877929188,4.410439589772222,0.0,11842.0,0.0,0.0,0.0,0.0,0.0,2.7905270580000003,4.389674732977289,0.0,-5307.0,0.125,0.0,0.0,0.0,0.125,2.1728513400000002,0.5526872062785588,0.0,0.6200000047683716,0.49000000953674316,167.30999755859375,-0.031494140625,0.0203857421875,0.98876953125,36.5,0.0,41.0,1.0484466552734375,2.143890380859375,Closing,0.0,0.0,0.0,0.0,0.0,0.0,0.0,0.0,
5.304452000000019,0.0,0.0,-2665.0,0.0,0.0,0.0,0.0,0.125,1.3720701720000001,0.5498168668524888,0.0,-1344.0,0.0,0.0,0.0,0.0,0.25,4.876708485,4.410439589772222,0.0,11842.0,0.0,0.0,0.0,0.0,0.0,2.7905270580000003,4.389674732977289,0.0,-5307.0,0.125,0.0,0.0,0.0,0.125,2.1728513400000002,0.5526872062785588,0.0,0.6299999952316284,0.38999998569488525,167.74000549316406,0.01629638671875,0.0103759765625,1.06597900390625,36.529998779296875,0.0,-8.0,1.049407958984375,2.143890380859375,Closing,0.0,0.0,0.0,0.0,0.0,0.0,0.0,0.125,
5.410675000000017,0.0,0.0,-2665.0,2.5,52.5,754.6875,0.0,0.125,1.357421736,0.5498168668524888,0.0,-1344.0,3.625,52.5,754.6875,0.0,0.25,4.880370594,4.410439589772222,0.0,11842.0,3.375,15.0,754.6875,0.0,0.0,2.7893063550000003,4.389674732977289,0.0,-5307.0,2.75,37.5,754.6875,0.0,0.125,2.1740720430000002,0.5526872062785588,0.0,0.6700000166893005,0.3700000047683716,167.4499969482422,0.01629638671875,0.0257568359375,0.9632568359375,36.529998779296875,0.0,-6.0,1.0498046875,2.143707275390625,Closing,0.0,0.0,0.0,0.0,0.0,0.0,0.0,0.0,
5.518469000000012,0.0,0.0,-2648.0,0.375,97.5,114.84375,0.0,0.125,1.357421736,0.5498168668524888,0.0,-1328.0,0.5,112.5,114.84375,0.0,0.25,4.876708485,4.410439589772222,0.0,11852.0,0.75,105.0,114.84375,0.0,0.0,2.7905270580000003,4.389674732977289,0.0,-5295.0,0.5,90.0,114.84375,0.0,0.125,2.158202904,0.5526872062785588,0.0,0.6600000262260437,0.3199999928474426,165.85000610351562,0.02423095703125,0.002197265625,1.10638427734375,36.529998779296875,0.0,-19.0,1.05084228515625,2.14288330078125,Closing,0.0,0.0,0.0,0.0,0.0,0.0,0.0,0.0,
5.6340220000000265,0.0,0.0,-2629.0,0.0,97.5,0.0,0.0,0.125,1.357421736,0.5498168668524888,0.0,-1310.0,0.0,67.5,0.0,0.0,0.25,4.879149891,4.410439589772222,0.0,11865.0,0.0,45.0,0.0,0.0,0.0,2.7905270580000003,4.389674732977289,0.0,-5288.0,0.125,0.0,0.0,0.0,0.125,2.158202904,0.5526872062785588,0.0,0.6200000047683716,0.28999999165534973,164.83999633789062,-0.03448486328125,0.029296875,0.9970703125,36.529998779296875,0.0,43.0,1.0509185791015625,2.143096923828125,Closing,0.0,0.0,0.0,0.0,0.0,0.0,0.0,0.0,
5.741735000000015,0.0,0.0,-2629.0,0.0,0.0,0.0,0.0,0.125,1.356201033,0.5498168668524888,0.0,-1310.0,0.0,0.0,0.0,0.0,0.25,4.875487782,4.410439589772222,0.0,11866.0,0.0,0.0,0.0,0.0,0.0,2.7893063550000003,4.389674732977289,0.0,-5288.0,0.125,0.0,0.0,0.0,0.125,2.159423607,0.5526872062785588,0.0,0.6200000047683716,0.18000000715255737,164.80999755859375,-0.0140380859375,0.00628662109375,1.07666015625,36.529998779296875,0.0,15.0,1.0514068603515625,2.143157958984375,Closing,0.0,0.0,0.0,0.0,0.0,0.0,0.0,0.125,
5.850867000000028,0.0,0.0,-2625.0,0.5,15.0,410.15625000000006,0.0,0.125,1.357421736,0.5498168668524888,0.0,-1307.0,0.75,30.0,410.15625000000006,0.0,0.25,4.879149891,4.410439589772222,0.0,11866.0,0.75,7.5,410.15625000000006,0.0,0.0,2.7966305730000003,4.389674732977289,0.0,-5287.0,0.75,30.0,410.15625000000006,0.0,0.125,2.159423607,0.5526872062785588,0.0,0.6600000262260437,0.20999999344348907,165.1199951171875,0.00469970703125,0.0078125,0.94232177734375,36.56999969482422,0.0,-1.0,1.0514373779296875,2.14300537109375,Closing,0.0,0.0,0.0,0.0,0.0,0.0,0.0,0.0,
5.955697000000015,0.0,0.0,-2616.0,3.375,60.0,705.46875,0.0,0.125,1.357421736,0.5498168668524888,0.0,-1297.0,4.75,75.0,705.46875,0.0,0.25,4.879149891,4.410439589772222,0.0,11875.0,3.75,67.5,705.46875,0.0,0.0,2.7905270580000003,4.389674732977289,0.0,-5265.0,2.625,157.5,705.46875,0.0,0.125,2.1203611110000002,0.5526872062785588,0.0,0.6700000166893005,0.15000000596046448,164.3000030517578,0.00653076171875,-0.00531005859375,1.03363037109375,36.56999969482422,0.0,-8.0,1.0518341064453125,2.142791748046875,Closing,0.0,0.0,0.0,0.0,0.0,0.0,0.0,0.0,
6.070457000000024,0.0,0.0,-2599.0,0.0,120.0,0.0,0.0,0.125,1.356201033,0.5498168668524888,0.0,-1276.0,0.0,120.0,0.0,0.0,0.25,4.877929188,4.410439589772222,0.0,11900.0,0.0,142.5,0.0,0.0,0.0,2.7905270580000003,4.389674732977289,0.0,-5243.0,0.125,127.5,0.0,0.0,0.25,2.130126735,0.5526872062785588,0.0,0.6800000071525574,0.17000000178813934,161.60000610351562,6.7138671875E-4,-0.03375244140625,0.91204833984375,36.56999969482422,0.0,-11.0,1.0519866943359375,2.1422882080078125,Closing,0.0,0.0,0.0,0.0,0.0,0.0,0.0,0.0,
6.173880000000005,0.0,0.0,-2590.0,0.0,37.5,0.0,0.0,0.125,1.356201033,0.5498168668524888,0.0,-1268.0,0.0,52.5,0.0,0.0,0.25,4.875487782,4.410439589772222,0.0,11911.0,0.0,67.5,0.0,0.0,0.0,2.7893063550000003,4.389674732977289,0.0,-5233.0,0.125,60.0,0.0,0.0,0.25,2.144775171,0.5526872062785588,0.0,0.6399999856948853,0.12999999523162842,160.50999450683594,-0.03839111328125,0.00177001953125,1.1317138671875,36.56999969482422,0.0,35.0,1.052093505859375,2.1436920166015625,Closing,0.0,0.0,0.0,0.0,0.0,0.0,0.0,0.125,
6.286739000000002,0.0,0.0,-2590.0,0.0,22.5,0.0,0.0,0.125,1.357421736,0.5498168668524888,0.0,-1268.0,0.0,0.0,0.0,0.0,0.25,4.876708485,4.410439589772222,0.0,11913.0,0.0,22.5,0.0,0.0,0.0,2.7893063550000003,4.389674732977289,0.0,-5232.0,0.125,15.0,0.0,0.0,0.25,2.144775171,0.5526872062785588,0.0,0.6299999952316284,0.029999999329447746,160.69000244140625,3.0517578125E-4,0.00799560546875,0.99847412109375,36.56999969482422,0.0,0.0,1.0524444580078125,2.1448516845703125,Closing,0.0,0.0,0.0,0.0,0.0,0.0,0.0,0.0,
6.391565000000003,0.0,0.0,-2589.0,0.0,0.0,0.0,0.0,0.25,1.356201033,0.5498168668524888,0.0,-1268.0,0.0,0.0,0.0,0.0,0.25,4.879149891,4.410439589772222,0.0,11913.0,0.0,0.0,0.0,0.0,0.0,2.7905270580000003,4.389674732977289,0.0,-5232.0,0.125,0.0,0.0,0.0,0.25,2.143554468,0.5526872062785588,0.0,0.6200000047683716,0.03999999910593033,161.02999877929688,-0.0037841796875,0.01373291015625,1.061767578125,36.54999923706055,0.0,5.0,1.0524444580078125,2.1448516845703125,Closing,0.0,0.0,0.0,0.0,0.0,0.0,0.0,0.0,
6.504701000000001,0.0,0.0,-2589.0,0.0,0.0,0.0,0.0,0.125,1.357421736,0.5498168668524888,0.0,-1268.0,0.0,0.0,0.0,0.0,0.25,4.877929188,4.410439589772222,0.0,11913.0,0.0,0.0,0.0,0.0,0.0,2.7905270580000003,4.389674732977289,0.0,-5232.0,0.125,0.0,0.0,0.0,0.25,2.145995874,0.5526872062785588,0.0,0.6399999856948853,0.0,161.0,-0.00628662109375,7.32421875E-4,1.0064697265625,36.54999923706055,0.0,2.0,1.0524444580078125,2.1448516845703125,Closing,0.0,0.0,0.0,0.0,0.0,0.0,0.0,0.0,
6.612709000000002,0.0,0.0,-2589.0,0.125,0.0,-238.1102353334427,0.0,2.125,1.221923703,4.932250999999998,0.0,-1268.0,0.375,0.0,238.1102353334427,0.0,3.375,0.14160154800000002,4.963769999999998,0.0,11913.0,0.125,-15.0,-238.1102353334427,0.0,2.25,2.980956726,0.01,0.0,-5232.0,0.375,15.0,238.1102353334427,0.0,2.125,1.986083781,0.01,0.0,0.6499999761581421,-0.009999999776482582,160.94000244140625,-0.04876708984375,0.04986572265625,1.001220703125,36.54999923706055,0.0,58.0,1.052490234375,2.1448211669921875,Closing,0.0,0.0,0.0,0.0,0.0,0.0,0.0,0.125,
6.7262630000000065,0.0,0.0,-2593.0,0.375,-30.0,-317.4803137779236,0.0,0.5,0.820312416,4.932250999999998,0.0,-1267.0,0.75,67.5,317.4803137779236,0.0,0.5,0.534667914,4.963769999999998,0.0,11905.0,0.375,-105.0,-317.4803137779236,0.0,0.375,3.406982073,0.01,0.0,-5226.0,0.75,52.5,317.4803137779236,0.0,0.5,1.600341633,0.01,0.0,0.6399999856948853,-0.14000000059604645,161.1999969482422,-0.04302978515625,-0.0267333984375,0.9774169921875,36.54999923706055,0.0,26.0,1.055084228515625,2.1439666748046875,Closing,0.0,0.0,0.0,0.0,0.0,0.0,0.0,0.125,
6.8322870000000115,0.0,0.0,-2598.0,0.75,-45.0,-337.32282400131226,0.0,0.25,0.717773364,4.932250999999998,0.0,-1255.0,1.5,45.0,337.32282400131226,0.0,0.25,0.589599549,4.963769999999998,0.0,11887.0,0.625,-97.5,-337.32282400131226,0.0,0.125,3.4790035500000003,0.01,0.0,-5217.0,1.125,82.5,337.32282400131226,0.0,0.25,1.5063475020000001,0.01,0.0,0.6399999856948853,-0.3400000035762787,161.30999755859375,-0.02728271484375,-0.00811767578125,1.00762939453125,36.560001373291016,0.0,13.0,1.0605010986328125,2.1439056396484375,Closing,0.0,0.0,0.0,0.0,0.0,0.0,0.0,0.0,
6.943855000000011,0.0,0.0,-2614.0,1.375,-97.5,-337.32282400131226,0.0,0.375,0.759277266,4.932250999999998,0.0,-1241.0,2.125,90.0,337.32282400131226,0.0,0.25,0.550537053,4.963769999999998,0.0,11872.0,1.0,-90.0,-337.32282400131226,0.0,0.125,3.435058242,0.01,0.0,-5206.0,1.75,37.5,337.32282400131226,0.0,0.25,1.566161949,0.01,0.0,0.6299999952316284,-0.4099999964237213,161.38999938964844,-0.04205322265625,0.00146484375,1.045654296875,36.560001373291016,0.0,29.0,1.068389892578125,2.1441497802734375,Closing,0.0,0.0,0.0,0.0,0.0,0.0,0.0,0.0,
7.052676000000007,0.0,0.0,-2633.0,1.625,-120.0,-337.32282400131226,0.0,0.375,0.798339762,4.932250999999998,0.0,-1223.0,2.5,120.0,337.32282400131226,0.0,0.25,0.507812448,4.963769999999998,0.0,11856.0,1.875,-67.5,-337.32282400131226,0.0,0.125,3.3740230920000003,0.01,0.0,-5181.0,1.875,202.5,337.32282400131226,0.0,0.375,1.613769366,0.01,0.0,0.6499999761581421,-0.5899999737739563,161.27000427246094,-0.07550048828125,0.0673828125,1.07830810546875,36.560001373291016,0.0,78.0,1.0702362060546875,2.1452484130859375,Closing,0.0,0.0,0.0,0.0,0.0,0.0,0.0,0.0,
7.160415000000008,0.0,0.0,-2663.0,2.0,-187.5,-337.32282400131226,0.0,0.125,0.808105386,4.932250999999998,0.0,-1194.0,2.375,180.0,337.32282400131226,0.0,0.0,0.49316401200000004,4.963769999999998,0.0,11853.0,2.75,-37.5,-337.32282400131226,0.0,0.0,3.3630367650000004,0.01,0.0,-5155.0,2.0,180.0,337.32282400131226,0.0,0.125,1.6308592080000002,0.01,0.0,0.6299999952316284,-0.7799999713897705,161.36000061035156,-0.03033447265625,0.0048828125,0.89129638671875,36.560001373291016,0.0,15.0,1.07403564453125,2.1461639404296875,Closing,0.0,0.0,0.0,0.0,0.0,0.0,0.0,0.125,
7.267233000000007,0.0,0.0,-2682.0,0.0,-142.5,0.0,0.0,0.125,0.812988198,4.932250999999998,0.0,-1172.0,0.0,112.5,0.0,0.0,0.125,0.4882812,4.963769999999998,0.0,11828.0,0.0,-157.5,0.0,0.0,0.0,3.34472622,0.01,0.0,-5129.0,0.125,142.5,0.0,0.0,0.125,1.6308592080000002,0.01,0.0,0.6600000262260437,-0.7599999904632568,161.32000732421875,0.06195068359375,0.0263671875,1.1099853515625,36.560001373291016,0.0,-68.0,1.07672119140625,2.14593505859375,Closing,0.0,0.0,0.0,0.0,0.0,0.0,0.0,0.0,
7.369017000000022,0.0,0.0,-2699.0,0.0,-75.0,0.0,0.0,0.125,0.812988198,4.932250999999998,0.0,-1156.0,0.0,105.0,0.0,0.0,0.125,0.4882812,4.963769999999998,0.0,11822.0,0.0,-30.0,0.0,0.0,0.0,3.334960596,0.01,0.0,-5115.0,0.125,82.5,0.0,0.0,0.125,1.6369627230000001,0.01,0.0,0.6100000143051147,-0.3400000035762787,161.27999877929688,0.015625,0.00933837890625,1.03228759765625,36.58000183105469,0.0,-21.0,1.072967529296875,2.1450347900390625,Closing,0.0,0.0,0.0,0.0,0.0,0.0,0.0,0.0,
7.473853000000003,0.0,0.0,-2699.0,0.0,-60.0,0.0,0.0,0.125,0.812988198,4.932250999999998,0.0,-1152.0,0.0,37.5,0.0,0.0,0.125,0.4882812,4.963769999999998,0.0,11818.0,0.0,-30.0,0.0,0.0,0.0,3.330077784,0.01,0.0,-5109.0,0.125,52.5,0.0,0.0,0.125,1.6357420200000001,0.01,0.0,0.6100000143051147,0.0,161.32000732421875,0.05804443359375,0.0120849609375,1.082763671875,36.58000183105469,0.0,-54.0,1.0651702880859375,2.143524169921875,Closing,0.0,0.0,0.0,0.0,0.0,0.0,0.0,0.0,
7.585544000000024,0.0,0.0,-2703.0,0.0,0.0,0.0,0.0,0.125,0.812988198,4.932250999999998,0.0,-1152.0,0.0,0.0,0.0,0.0,0.125,0.4882812,4.963769999999998,0.0,11818.0,0.0,0.0,0.0,0.0,0.0,3.330077784,0.01,0.0,-5109.0,0.125,0.0,0.0,0.0,0.125,1.6369627230000001,0.01,0.0,0.6000000238418579,0.05999999865889549,161.3000030517578,-0.0059814453125,0.015625,0.99468994140625,36.58000183105469,0.0,8.0,1.060577392578125,2.143524169921875,Closing,0.0,0.0,0.0,0.0,0.0,0.0,0.0,0.0,
7.6912150000000254,0.0,0.0,-2703.0,0.0,0.0,0.0,0.0,0.125,0.812988198,4.932250999999998,0.0,-1152.0,0.0,0.0,0.0,0.0,0.125,0.4882812,4.963769999999998,0.0,11818.0,0.0,0.0,0.0,0.0,0.0,3.330077784,0.01,0.0,-5109.0,0.125,0.0,0.0,0.0,0.125,1.6369627230000001,0.01,0.0,0.6000000238418579,-0.05999999865889549,161.27000427246094,-0.02630615234375,0.0101318359375,1.0185546875,36.58000183105469,0.0,23.0,1.0614166259765625,2.143524169921875,Closing,0.0,0.0,0.0,0.0,0.0,0.0,0.0,0.0,
7.795354000000021,0.0,0.0,-2703.0,0.0,0.0,0.0,0.0,0.125,0.812988198,4.932250999999998,0.0,-1152.0,0.0,0.0,0.0,0.0,0.125,0.489501903,4.963769999999998,0.0,11818.0,0.0,0.0,0.0,0.0,0.0,3.330077784,0.01,0.0,-5109.0,0.125,0.0,0.0,0.0,0.125,1.6357420200000001,0.01,0.0,0.6100000143051147,-0.12999999523162842,161.3000030517578,0.0023193359375,0.00897216796875,1.022216796875,36.58000183105469,0.0,-5.0,1.062255859375,2.143524169921875,Closing,0.0,0.0,0.0,0.0,0.0,0.0,0.0,0.0,
7.899369000000006,0.0,0.0,-2703.0,0.0,0.0,0.0,0.0,0.125,0.812988198,4.932250999999998,0.0,-1152.0,0.0,0.0,0.0,0.0,0.125,0.4882812,4.963769999999998,0.0,11818.0,0.0,0.0,0.0,0.0,0.0,3.330077784,0.01,0.0,-5109.0,0.125,0.0,0.0,0.0,0.125,1.6357420200000001,0.01,0.0,0.6000000238418579,-0.09000000357627869,161.3000030517578,0.00408935546875,0.01031494140625,1.01361083984375,36.599998474121094,0.0,-5.0,1.062255859375,2.143524169921875,Closing,0.0,0.0,0.0,0.0,0.0,0.0,0.0,0.0,
8.011269,0.0,0.0,-2703.0,0.0,0.0,0.0,0.0,0.125,0.812988198,4.932250999999998,0.0,-1152.0,0.0,0.0,0.0,0.0,0.125,0.4882812,4.963769999999998,0.0,11818.0,0.0,0.0,0.0,0.0,0.0,3.330077784,0.01,0.0,-5109.0,0.125,0.0,0.0,0.0,0.125,1.6357420200000001,0.01,0.0,0.6100000143051147,-0.10999999940395355,161.27999877929688,-0.0186767578125,0.00726318359375,1.01727294921875,36.599998474121094,0.0,14.0,1.062255859375,2.143524169921875,Closing,0.0,0.0,0.0,0.0,0.0,0.0,0.0,0.0,
8.115629000000016,0.0,0.0,-2703.0,0.0,0.0,0.0,0.0,0.125,0.812988198,4.932250999999998,0.0,-1152.0,0.0,0.0,0.0,0.0,0.125,0.4882812,4.963769999999998,0.0,11818.0,0.0,0.0,0.0,0.0,0.0,3.330077784,0.01,0.0,-5109.0,0.125,0.0,0.0,0.0,0.125,1.6357420200000001,0.01,0.0,0.6100000143051147,-0.12999999523162842,161.3000030517578,-0.0125732421875,0.006591796875,1.030029296875,36.599998474121094,0.0,8.0,1.062255859375,2.143524169921875,Closing,0.0,0.0,0.0,0.0,0.0,0.0,0.0,0.125,
8.213559000000009,0.0,0.0,-2703.0,0.0,0.0,0.0,0.0,0.125,0.812988198,4.932250999999998,0.0,-1152.0,0.0,0.0,0.0,0.0,0.125,0.489501903,4.963769999999998,0.0,11818.0,0.0,0.0,0.0,0.0,0.0,3.330077784,0.01,0.0,-5109.0,0.125,0.0,0.0,0.0,0.125,1.6357420200000001,0.01,0.0,0.6200000047683716,-0.14000000059604645,161.3000030517578,-0.00860595703125,0.01513671875,1.04541015625,36.599998474121094,0.0,6.0,1.062255859375,2.143524169921875,Closing,0.0,0.0,0.0,0.0,0.0,0.0,0.0,0.0,
8.31607700000002,0.0,0.0,-2703.0,0.0,0.0,0.0,0.0,0.125,0.812988198,4.932250999999998,0.0,-1152.0,0.0,0.0,0.0,0.0,0.125,0.4882812,4.963769999999998,0.0,11818.0,0.0,0.0,0.0,0.0,0.0,3.330077784,0.01,0.0,-5109.0,0.125,0.0,0.0,0.0,0.125,1.6369627230000001,0.01,0.0,0.6600000262260437,-0.14000000059604645,161.3000030517578,0.0260009765625,0.04644775390625,1.05975341796875,36.599998474121094,0.0,-16.0,1.062469482421875,2.14263916015625,Closing,0.0,0.0,0.0,0.0,0.0,0.0,0.0,0.0,
8.418119000000006,0.0,0.0,-2703.0,0.0,0.0,0.0,0.0,0.125,0.812988198,4.932250999999998,0.0,-1152.0,0.0,0.0,0.0,0.0,0.125,0.4882812,4.963769999999998,0.0,11818.0,0.0,0.0,0.0,0.0,0.0,3.328857081,0.01,0.0,-5109.0,0.125,0.0,0.0,0.0,0.125,1.6357420200000001,0.01,0.0,0.6299999952316284,-0.17000000178813934,161.2899932861328,-0.0076904296875,0.01263427734375,1.0369873046875,36.56999969482422,0.0,4.0,1.0624847412109375,2.1409759521484375,Closing,0.0,0.0,0.0,0.0,0.0,0.0,0.0,0.0,
8.526174,0.0,0.0,-2703.0,0.0,0.0,0.0,0.0,0.125,0.812988198,4.932250999999998,0.0,-1152.0,0.0,0.0,0.0,0.0,0.125,0.489501903,4.963769999999998,0.0,11818.0,0.0,0.0,0.0,0.0,0.0,3.330077784,0.01,0.0,-5109.0,0.125,0.0,0.0,0.0,0.125,1.6357420200000001,0.01,0.0,0.6499999761581421,-0.1599999964237213,161.27999877929688,-0.01373291015625,0.01153564453125,1.01824951171875,36.56999969482422,0.0,10.0,1.0624847412109375,2.1409759521484375,Closing,0.0,0.0,0.0,0.0,0.0,0.0,0.0,0.0,
8.628888000000007,0.0,0.0,-2703.0,0.0,0.0,0.0,0.0,0.125,0.812988198,4.932250999999998,0.0,-1152.0,0.0,0.0,0.0,0.0,0.125,0.489501903,4.963769999999998,0.0,11818.0,0.0,0.0,0.0,0.0,0.0,3.330077784,0.01,0.0,-5109.0,0.125,0.0,0.0,0.0,0.125,1.6357420200000001,0.01,0.0,0.6499999761581421,-0.18000000715255737,161.2899932861328,-0.01226806640625,0.01153564453125,1.0123291015625,36.56999969482422,0.0,8.0,1.0624847412109375,2.1409759521484375,Closing,0.0,0.0,0.0,0.0,0.0,0.0,0.0,0.0,
8.731753000000026,0.0,0.0,-2703.0,0.0,0.0,0.0,0.0,0.125,0.812988198,4.932250999999998,0.0,-1152.0,0.0,0.0,0.0,0.0,0.125,0.489501903,4.963769999999998,0.0,11818.0,0.0,0.0,0.0,0.0,0.0,3.330077784,0.01,0.0,-5109.0,0.125,0.0,0.0,0.0,0.125,1.6357420200000001,0.01,0.0,0.6600000262260437,-0.20000000298023224,161.27999877929688,-0.0101318359375,0.0120849609375,1.0181884765625,36.56999969482422,0.0,6.0,1.0624847412109375,2.1409759521484375,Closing,0.0,0.0,0.0,0.0,0.0,0.0,0.0,0.125,
8.841139000000025,0.0,0.0,-2703.0,0.0,0.0,0.0,0.0,0.125,0.812988198,4.932250999999998,0.0,-1152.0,0.0,0.0,0.0,0.0,0.125,0.4882812,4.963769999999998,0.0,11818.0,0.0,0.0,0.0,0.0,0.0,3.330077784,0.01,0.0,-5109.0,0.125,0.0,0.0,0.0,0.125,1.6357420200000001,0.01,0.0,0.6600000262260437,-0.20999999344348907,161.27999877929688,-0.00994873046875,0.00799560546875,1.01708984375,36.56999969482422,0.0,4.0,1.0624847412109375,2.1409759521484375,Closing,0.0,0.0,0.0,0.0,0.0,0.0,0.0,0.0,
8.952152000000002,0.0,0.0,-2703.0,0.0,0.0,0.0,0.0,0.25,0.812988198,4.932250999999998,0.0,-1152.0,0.0,0.0,0.0,0.0,0.125,0.4882812,4.963769999999998,0.0,11818.0,0.0,0.0,0.0,0.0,0.0,3.330077784,0.01,0.0,-5109.0,0.125,0.0,0.0,0.0,0.125,1.6357420200000001,0.01,0.0,0.6499999761581421,-0.2199999988079071,161.2899932861328,-0.00579833984375,0.01361083984375,1.025146484375,36.61000061035156,0.0,2.0,1.0624847412109375,2.1409759521484375,Closing,0.0,0.0,0.0,0.0,0.0,0.0,0.0,0.0,
9.054069000000018,0.0,0.0,-2703.0,0.0,0.0,0.0,0.0,0.125,0.812988198,4.932250999999998,0.0,-1152.0,0.0,0.0,0.0,0.0,0.125,0.4882812,4.963769999999998,0.0,11818.0,0.0,0.0,0.0,0.0,0.0,3.330077784,0.01,0.0,-5109.0,0.125,0.0,0.0,0.0,0.125,1.6357420200000001,0.01,0.0,0.6499999761581421,-0.2199999988079071,161.27999877929688,-0.00732421875,0.01092529296875,1.0230712890625,36.61000061035156,0.0,2.0,1.0624847412109375,2.1409759521484375,Closing,0.0,0.0,0.0,0.0,0.0,0.0,0.0,0.0,
9.160471000000019,0.0,0.0,-2703.0,0.0,0.0,0.0,0.0,0.125,0.812988198,4.932250999999998,0.0,-1152.0,0.0,0.0,0.0,0.0,0.125,0.4882812,4.963769999999998,0.0,11818.0,0.0,0.0,0.0,0.0,0.0,3.330077784,0.01,0.0,-5109.0,0.125,0.0,0.0,0.0,0.125,1.6369627230000001,0.01,0.0,0.6499999761581421,-0.23000000417232513,161.27999877929688,-0.00146484375,0.01129150390625,1.0091552734375,36.61000061035156,0.0,-2.0,1.0624847412109375,2.1409759521484375,Closing,0.0,0.0,0.0,0.0,0.0,0.0,0.0,0.0,
9.265622000000002,0.0,0.0,-2703.0,0.0,0.0,0.0,0.0,0.25,0.812988198,4.932250999999998,0.0,-1152.0,0.0,0.0,0.0,0.0,0.125,0.4882812,4.963769999999998,0.0,11818.0,0.0,0.0,0.0,0.0,0.0,3.328857081,0.01,0.0,-5109.0,0.125,0.0,0.0,0.0,0.125,1.6357420200000001,0.01,0.0,0.6499999761581421,-0.23000000417232513,161.27999877929688,-0.0042724609375,0.01324462890625,1.02081298828125,36.61000061035156,0.0,0.0,1.0624847412109375,2.1409759521484375,Closing,0.0,0.0,0.0,0.0,0.0,0.0,0.0,0.0,
9.369282000000007,0.0,0.0,-2703.0,0.125,0.0,-218.26772511005402,0.0,0.125,0.812988198,4.932250999999998,0.0,-1152.0,0.375,0.0,218.26772511005402,0.0,0.125,0.4882812,4.963769999999998,0.0,11818.0,0.125,0.0,-218.26772511005402,0.0,0.0,3.328857081,0.01,0.0,-5109.0,0.375,7.5,218.26772511005402,0.0,0.125,1.6357420200000001,0.01,0.0,0.6600000262260437,-0.23999999463558197,161.27999877929688,-0.00616455078125,0.01226806640625,1.0196533203125,36.599998474121094,0.0,1.0,1.0624847412109375,2.1409759521484375,Closing,0.0,0.0,0.0,0.0,0.0,0.0,0.0,0.125,
9.472863000000013,0.0,0.0,-2707.0,1.25,-112.5,-615.1181173324585,0.0,0.125,0.8178710100000001,4.932250999999998,0.0,-1151.0,2.125,157.5,615.1181173324585,0.0,0.125,0.4882812,4.963769999999998,0.0,11817.0,2.125,-37.5,-615.1181173324585,0.0,0.0,3.355712547,0.01,0.0,-5103.0,1.75,120.0,615.1181173324585,0.0,0.125,1.6369627230000001,0.01,0.0,0.6499999761581421,-0.6899999976158142,161.25999450683594,-0.073486328125,0.04144287109375,0.84649658203125,36.599998474121094,0.0,70.0,1.06378173828125,2.141265869140625,Closing,0.0,0.0,0.0,0.0,0.0,0.0,0.0,0.0,
9.58546000000002,0.0,0.0,-2739.0,2.5,-142.5,-634.9606275558472,0.0,0.125,0.826415931,4.932250999999998,0.0,-1118.0,3.125,127.5,634.9606275558472,0.0,0.125,0.4882812,4.963769999999998,0.0,11799.0,3.0,-142.5,-634.9606275558472,0.0,0.0,3.358153953,0.01,0.0,-5080.0,3.25,120.0,634.9606275558472,0.0,0.125,1.6333006140000002,0.01,0.0,0.6499999761581421,-0.9599999785423279,161.35000610351562,-0.09954833984375,0.03448486328125,1.0787353515625,36.599998474121094,0.0,84.0,1.071990966796875,2.143646240234375,Closing,0.0,0.0,0.0,0.0,0.0,0.0,0.0,0.0,
9.691327000000019,0.0,0.0,-2774.0,3.625,-225.0,-634.9606275558472,0.0,0.125,0.826415931,4.932250999999998,0.0,-1084.0,5.125,240.0,634.9606275558472,0.0,0.125,0.4882812,4.963769999999998,0.0,11770.0,4.25,-195.0,-634.9606275558472,0.0,0.0,3.358153953,0.01,0.0,-5049.0,3.875,255.0,634.9606275558472,0.0,0.125,1.6308592080000002,0.01,0.0,0.6600000262260437,-1.3700000047683716,161.32000732421875,-0.13983154296875,-0.0240478515625,1.05682373046875,36.599998474121094,0.0,96.0,1.0831756591796875,2.146881103515625,Closing,0.0,0.0,0.0,0.0,0.0,0.0,0.0,0.125,
9.799823000000004,0.0,0.0,-2837.0,3.5,-390.0,-634.9606275558472,0.0,0.125,0.8276366340000001,4.932250999999998,0.0,-1025.0,4.75,390.0,634.9606275558472,0.0,0.125,0.4882812,4.963769999999998,0.0,11720.0,4.5,-330.0,-634.9606275558472,0.0,0.0,3.354491844,0.01,0.0,-4991.0,3.625,405.0,634.9606275558472,0.0,0.125,1.6320799110000002,0.01,0.0,0.6700000166893005,-1.8799999952316284,161.39999389648438,-0.1490478515625,0.01171875,1.10675048828125,36.599998474121094,0.0,106.0,1.1055908203125,2.1550445556640625,Closing,0.0,0.0,0.0,0.0,0.0,0.0,0.0,0.0,
9.91174100000001,0.0,0.0,-2918.0,0.375,-502.5,-257.95276433229446,0.0,0.125,0.822753822,4.932250999999998,0.0,-945.0,1.0,495.0,257.95276433229446,0.0,0.125,0.4882812,4.963769999999998,0.0,11647.0,1.25,-465.0,-257.95276433229446,0.0,0.0,3.3642574680000004,0.01,0.0,-4913.0,1.125,495.0,257.95276433229446,0.0,0.125,1.6308592080000002,0.01,0.0,0.5199999809265137,-1.899999976158142,161.44000244140625,0.01605224609375,-0.01104736328125,1.0386962890625,36.59000015258789,0.0,-54.0,1.1295166015625,2.164520263671875,Closing,0.0,0.0,0.0,0.0,0.0,0.0,0.0,0.0,
10.022368000000016,0.0,0.0,-2983.0,0.0,-457.5,0.0,0.0,0.125,0.812988198,4.932250999999998,0.0,-877.0,0.0,427.5,0.0,0.0,0.125,0.4882812,4.963769999999998,0.0,11567.0,0.0,-495.0,0.0,0.0,0.0,3.34472622,0.01,0.0,-4849.0,0.125,390.0,0.0,0.0,0.125,1.6357420200000001,0.01,0.0,0.5299999713897705,-1.5299999713897705,161.4600067138672,0.277587890625,-0.09259033203125,1.10260009765625,36.59000015258789,0.0,-323.0,1.153045654296875,2.1744384765625,Closing,0.0,0.0,0.0,0.0,0.0,0.0,0.0,0.0,
10.129503000000026,0.0,0.0,-3037.0,0.0,-300.0,0.0,0.0,0.125,0.812988198,4.932250999999998,0.0,-822.0,0.0,345.0,0.0,0.0,0.125,0.483398388,4.963769999999998,0.0,11527.0,0.0,-262.5,0.0,0.0,0.0,3.348388329,0.01,0.0,-4794.0,0.125,367.5,0.0,0.0,0.125,1.6357420200000001,0.01,0.0,0.550000011920929,-0.9200000166893005,161.32000732421875,0.12451171875,-0.08489990234375,0.8966064453125,36.59000015258789,0.0,-161.0,1.164093017578125,2.18035888671875,Closing,0.0,0.0,0.0,0.0,0.0,0.0,0.0,0.0,
10.235226000000024,0.0,0.0,-3037.0,0.0,-285.0,0.0,0.0,0.125,0.812988198,4.932250999999998,0.0,-785.0,0.0,255.0,0.0,0.0,0.125,0.483398388,4.963769999999998,0.0,11493.0,0.0,-210.0,0.0,0.0,0.0,3.339843408,0.01,0.0,-4753.0,0.125,255.0,0.0,0.0,0.125,1.6357420200000001,0.01,0.0,0.5799999833106995,-0.5099999904632568,161.47000122070312,0.07122802734375,0.01312255859375,1.09112548828125,36.59000015258789,0.0,-76.0,1.1679229736328125,2.1857147216796875,Closing,0.0,0.0,0.0,0.0,0.0,0.0,0.0,0.125,
10.34513500000001,0.0,0.0,-3075.0,0.0,-165.0,0.0,0.0,0.125,0.8142089010000001,4.932250999999998,0.0,-785.0,0.0,150.0,0.0,0.0,0.125,0.483398388,4.963769999999998,0.0,11493.0,0.0,-150.0,0.0,0.0,0.0,3.333739893,0.01,0.0,-4753.0,0.125,150.0,0.0,0.0,0.125,1.6369627230000001,0.01,0.0,0.550000011920929,0.18000000715255737,161.57000732421875,0.17877197265625,0.00677490234375,1.037841796875,36.59000015258789,0.0,-167.0,1.163482666015625,2.188720703125,Closing,0.0,0.0,0.0,0.0,0.0,0.0,0.0,0.0,
10.448629000000015,0.0,0.0,-3086.0,0.0,-15.0,0.0,0.0,0.125,0.811767495,4.932250999999998,0.0,-773.0,0.0,0.0,0.0,0.0,0.125,0.484619091,4.963769999999998,0.0,11479.0,0.0,-7.5,0.0,0.0,0.0,3.339843408,0.01,0.0,-4741.0,0.125,0.0,0.0,0.0,0.125,1.6357420200000001,0.01,0.0,0.6000000238418579,0.3799999952316284,161.41000366210938,-0.02581787109375,-0.0355224609375,1.01092529296875,36.59000015258789,0.0,16.0,1.149658203125,2.1888580322265625,Closing,0.0,0.0,0.0,0.0,0.0,0.0,0.0,0.0,
10.565749000000011,0.0,0.0,-3086.0,0.125,-22.5,-337.32282400131226,0.0,0.125,0.820312416,4.932250999999998,0.0,-773.0,0.625,30.0,337.32282400131226,0.0,0.125,0.48583979400000005,4.963769999999998,0.0,11479.0,0.375,-7.5,-337.32282400131226,0.0,0.0,3.338622705,0.01,0.0,-4741.0,0.5,22.5,337.32282400131226,0.0,0.125,1.6357420200000001,0.01,0.0,0.6000000238418579,0.14000000059604645,161.47000122070312,-0.1324462890625,0.01593017578125,1.04205322265625,36.59000015258789,0.0,129.0,1.1390533447265625,2.189483642578125,Closing,0.0,0.0,0.0,0.0,0.0,0.0,0.0,0.0,
10.671451000000001,0.0,0.0,-3093.0,2.375,-45.0,-575.433059334755,0.0,0.125,0.821533119,4.932250999999998,0.0,-764.0,2.625,60.0,575.433059334755,0.0,0.125,0.483398388,4.963769999999998,0.0,11474.0,2.25,-37.5,-575.433059334755,0.0,0.0,3.354491844,0.01,0.0,-4735.0,2.25,52.5,575.433059334755,0.0,0.125,1.6357420200000001,0.01,0.0,0.5600000023841858,-0.38999998569488525,161.47000122070312,-0.1007080078125,0.01715087890625,1.0667724609375,36.59000015258789,0.0,90.0,1.1342926025390625,2.192047119140625,Closing,0.0,0.0,0.0,0.0,0.0,0.0,0.0,0.0,
10.789114000000001,0.0,0.0,-3112.0,3.375,-150.0,-575.433059334755,0.0,0.25,0.820312416,4.932250999999998,0.0,-746.0,4.875,127.5,575.433059334755,0.0,0.125,0.483398388,4.963769999999998,0.0,11461.0,3.5,-135.0,-575.433059334755,0.0,0.0,3.35693325,0.01,0.0,-4718.0,3.625,127.5,575.433059334755,0.0,0.125,1.6308592080000002,0.01,0.0,0.5199999809265137,-0.2800000011920929,161.77999877929688,0.1585693359375,0.01495361328125,1.07086181640625,36.59000015258789,0.0,-154.0,1.133270263671875,2.1933135986328125,Closing,0.0,0.0,0.0,0.0,0.0,0.0,0.0,0.0,
10.908015000000013,0.0,0.0,-3126.0,5.25,-45.0,-575.433059334755,0.0,0.125,0.8276366340000001,4.932250999999998,0.0,-730.0,9.5,52.5,575.433059334755,0.0,0.125,0.483398388,4.963769999999998,0.0,11440.0,8.5,-45.0,-575.433059334755,0.0,0.0,3.358153953,0.01,0.0,-4704.0,7.25,22.5,575.433059334755,0.0,0.125,1.6320799110000002,0.01,0.0,0.6299999952316284,0.0,161.8000030517578,-0.06060791015625,-0.02447509765625,1.0201416015625,36.58000183105469,0.0,46.0,1.125823974609375,2.1910858154296875,Closing,0.0,0.0,0.0,0.0,0.0,0.0,0.0,0.0,
11.027839000000007,0.0,0.0,-3129.0,10.25,-30.0,-575.433059334755,0.0,0.125,0.8276366340000001,4.932250999999998,0.0,-728.0,15.375,15.0,575.433059334755,0.0,0.125,0.484619091,4.963769999999998,0.0,11439.0,11.375,-7.5,-575.433059334755,0.0,0.0,3.359374656,0.01,0.0,-4702.0,12.25,15.0,575.433059334755,0.0,0.125,1.6320799110000002,0.01,0.0,0.6000000238418579,-0.15000000596046448,161.9199981689453,0.04046630859375,-0.02716064453125,0.98907470703125,36.58000183105469,0.0,-52.0,1.1208648681640625,2.1904296875,Closing,0.0,0.0,0.0,0.0,0.0,0.0,0.0,0.125,
11.139093000000022,0.0,0.0,-3137.0,12.0,-22.5,-357.16537177562714,0.0,0.125,0.8276366340000001,4.932250999999998,0.0,-722.0,17.0,37.5,357.16537177562714,0.0,0.125,0.484619091,4.963769999999998,0.0,11434.0,10.75,-30.0,-357.16537177562714,0.0,0.0,3.359374656,0.01,0.0,-4696.0,12.0,22.5,357.16537177562714,0.0,0.125,1.6308592080000002,0.01,0.0,0.6299999952316284,-0.019999999552965164,161.97000122070312,-0.03753662109375,0.02337646484375,1.01239013671875,36.58000183105469,0.0,39.0,1.114654541015625,2.1900482177734375,Closing,0.0,0.0,0.0,0.0,0.0,0.0,0.0,0.125,
11.25246000000002,0.0,0.0,-3140.0,15.5,-15.0,-357.16537177562714,0.0,0.125,0.8276366340000001,4.932250999999998,0.0,-720.0,20.0,7.5,357.16537177562714,0.0,0.125,0.482177685,4.963769999999998,0.0,11432.0,14.625,-7.5,-357.16537177562714,0.0,0.0,3.35693325,0.01,0.0,-4695.0,15.875,7.5,357.16537177562714,0.0,0.125,1.6308592080000002,0.01,0.0,0.6200000047683716,-0.11999999731779099,162.02000427246094,-0.020263671875,0.03057861328125,1.05352783203125,36.58000183105469,0.0,23.0,1.1123809814453125,2.190216064453125,Closing,0.0,0.0,0.0,0.0,0.0,0.0,0.0,0.0,
11.37013400000002,0.0,0.0,-3144.0,24.25,-22.5,-584.8580749729874,0.0,0.5,0.9204100620000001,0.2322464305835004,0.0,-716.0,19.0,22.5,230.36179516091377,0.0,4.25,0.6591796200000001,0.6584083438508755,0.0,11429.0,23.25,-22.5,-584.8580749729874,0.0,0.375,3.3203121600000003,4.707769854929377,0.0,-4693.0,16.625,0.0,230.36179516091377,0.0,2.625,1.490478363,4.300357005096401,0.0,0.6499999761581421,-0.10000000149011612,162.1199951171875,-0.0284423828125,0.00115966796875,0.96405029296875,36.58000183105469,0.0,22.0,1.1124267578125,2.19012451171875,Closing,0.0,0.0,0.0,0.0,0.0,0.0,0.0,0.125,
11.48531700000001,0.0,0.0,-3153.0,32.25,-75.0,-787.0280438729193,0.0,0.375,1.0083006780000001,0.31680104067685555,0.0,-714.0,22.375,30.0,309.21579051444155,0.0,2.875,1.203613158,1.2651425882589789,0.0,11421.0,29.125,-60.0,-787.0280438729193,0.0,0.375,3.183593424,4.623075544825286,0.0,-4688.0,14.25,45.0,309.21579051444155,0.0,1.875,0.872802645,3.6943280424781935,0.0,0.6000000238418579,-0.33000001311302185,162.66000366210938,-0.08160400390625,0.02642822265625,0.9666748046875,36.560001373291016,0.0,77.0,1.114715576171875,2.1900634765625,Closing,0.0,0.0,0.0,0.0,0.0,0.0,0.0,0.0,
11.602226000000025,0.0,0.0,-3208.0,30.5,-397.5,-800.5946597805265,0.0,0.375,1.148681523,0.3339274890741087,0.0,-694.0,22.25,142.5,334.8669423353011,0.0,1.5,1.701659982,1.3703271959069578,0.0,11389.0,30.125,-285.0,-800.5946597805265,0.0,0.25,3.1018063230000004,4.605920800336048,0.0,-4665.0,15.375,195.0,334.8669423353011,0.0,0.5,0.311279265,3.5892657038286027,0.0,0.23000000417232513,-1.0199999809265137,165.52000427246094,-0.00506591796875,-0.17791748046875,0.76849365234375,36.560001373291016,0.0,-53.0,1.124267578125,2.192413330078125,Closing,0.0,0.0,0.0,0.0,0.0,0.0,0.0,0.125,
11.719789000000018,0.0,0.0,-3311.0,21.375,-645.0,-512.5984311103821,0.0,0.375,1.2414549510000001,0.5498168668524864,0.0,-630.0,19.5,442.5,512.5984311103821,0.0,1.75,2.16064431,1.92855458977222,0.0,11321.0,38.875,-405.0,-512.5984311103821,0.0,0.875,3.038329767,4.389674732977291,0.0,-4633.0,19.0,240.0,512.5984311103821,0.0,0.5,4.743651858000001,3.031687206278561,0.0,0.28999999165534973,0.3100000023841858,168.69000244140625,-0.383056640625,0.2938232421875,0.9261474609375,36.560001373291016,0.0,437.0,1.1221160888671875,2.1999664306640625,Closing,0.0,0.0,0.0,0.0,0.0,0.0,0.0,0.125,
11.833088000000018,0.0,0.0,-3328.0,34.875,-105.0,-512.5984311103821,0.0,0.25,1.324462755,0.5498168668524864,0.0,-584.0,26.5,202.5,512.5984311103821,0.0,1.0,2.333984136,1.92855458977222,0.0,11301.0,47.5,-52.5,-512.5984311103821,0.0,0.625,2.984618835,4.389674732977291,0.0,-4585.0,22.25,225.0,512.5984311103821,0.0,0.25,4.499511258,3.031687206278561,0.0,0.4699999988079071,-0.20000000298023224,169.6999969482422,-0.0350341796875,0.109375,1.36907958984375,36.560001373291016,0.0,47.0,1.122314453125,2.1995697021484375,Closing,0.0,0.0,0.0,0.0,0.0,0.0,0.0,0.0,
11.958813000000024,0.0,0.0,-3313.0,0.0,120.0,0.0,0.0,0.25,1.329345567,0.5498168668524864,0.0,-587.0,0.0,-90.0,0.0,0.0,0.5,2.406005613,1.92855458977222,0.0,11304.0,0.0,60.0,0.0,0.0,0.25,2.867431347,4.389674732977291,0.0,-4585.0,0.125,-67.5,0.0,0.0,0.375,4.520263209,3.031687206278561,0.0,0.7900000214576721,-0.41999998688697815,168.97000122070312,-0.11151123046875,0.0048828125,0.8770751953125,36.599998474121094,0.0,101.0,1.1239166259765625,2.1967010498046875,Closing,0.0,0.0,0.0,0.0,0.0,0.0,0.0,0.125,
12.08645300000001,0.0,0.0,-3300.0,0.0,45.0,0.0,0.0,0.25,1.328124864,0.5498168668524864,0.0,-605.0,0.0,-97.5,0.0,0.0,0.25,2.407226316,1.92855458977222,0.0,11323.0,0.0,45.0,0.0,0.0,0.125,2.7990719790000003,4.389674732977291,0.0,-4599.0,0.125,-75.0,0.0,0.0,0.375,4.645995618000001,3.031687206278561,0.0,0.47999998927116394,-0.20000000298023224,168.13999938964844,0.03497314453125,-0.05767822265625,1.16259765625,36.599998474121094,0.0,-52.0,1.1224822998046875,2.1955718994140625,Closing,0.0,0.0,0.0,0.0,0.0,0.0,0.0,0.0,
12.200470000000001,0.0,0.0,-3300.0,0.0,0.0,0.0,0.0,0.25,1.329345567,0.5498168668524864,0.0,-605.0,0.0,0.0,0.0,0.0,0.125,2.412109128,1.92855458977222,0.0,11323.0,0.0,0.0,0.0,0.0,0.0,2.7941891670000003,4.389674732977291,0.0,-4605.0,0.125,-7.5,0.0,0.0,0.125,4.674071787,3.031687206278561,0.0,0.6200000047683716,-0.30000001192092896,168.27999877929688,-0.01654052734375,-0.03271484375,1.0184326171875,36.599998474121094,0.0,2.0,1.11761474609375,2.1950225830078125,Closing,0.0,0.0,0.0,0.0,0.0,0.0,0.0,0.0,
12.311305000000022,0.0,0.0,-3300.0,0.0,0.0,0.0,0.0,0.25,1.329345567,0.5498168668524864,0.0,-605.0,0.0,0.0,0.0,0.0,0.125,2.410888425,1.92855458977222,0.0,11323.0,0.0,0.0,0.0,0.0,0.0,2.7941891670000003,4.389674732977291,0.0,-4605.0,0.125,0.0,0.0,0.0,0.25,4.67529249,3.031687206278561,0.0,0.5899999737739563,-0.25,168.22999572753906,-6.103515625E-4,0.02691650390625,1.0345458984375,36.599998474121094,0.0,0.0,1.117523193359375,2.1947784423828125,Closing,0.0,0.0,0.0,0.0,0.0,0.0,0.0,0.0,
12.418900000000024,0.0,0.0,-3281.0,0.375,60.0,360.9375,0.0,0.25,1.336669785,0.5498168668524888,0.0,-617.0,0.25,-67.5,-360.9375,0.0,0.125,2.410888425,1.9285545897722223,0.0,11328.0,0.875,22.5,360.9375,0.0,0.0,2.8027340880000002,4.389674732977289,0.0,-4613.0,0.375,-37.5,-360.9375,0.0,0.25,4.681396005,3.031687206278559,0.0,0.6000000238418579,-0.25999999046325684,168.1999969482422,0.0091552734375,0.02496337890625,0.96612548828125,36.599998474121094,0.0,-10.0,1.117645263671875,2.1947174072265625,Closing,0.0,0.0,0.0,0.0,0.0,0.0,0.0,0.125,
12.525673999999999,0.0,0.0,-3281.0,1.125,142.5,442.96875,0.0,0.25,1.329345567,0.5498168668524888,0.0,-638.0,0.875,-142.5,-442.96875,0.0,0.125,2.406005613,1.9285545897722227,0.0,11334.0,1.875,30.0,442.96875,0.0,0.0,2.7954098700000003,4.389674732977289,0.0,-4632.0,1.0,-105.0,-442.96875,0.0,0.25,4.67529249,3.0316872062785585,0.0,0.6499999761581421,-0.2800000011920929,167.72000122070312,0.01202392578125,0.02288818359375,1.0701904296875,36.58000183105469,0.0,-14.0,1.1183013916015625,2.194091796875,Closing,0.0,0.0,0.0,0.0,0.0,0.0,0.0,0.0,
12.632912000000012,0.0,0.0,-3267.0,0.0,30.0,0.0,0.0,0.25,1.33056627,0.5498168668524888,0.0,-643.0,0.0,-52.5,0.0,0.0,0.125,2.415771237,1.9285545897722227,0.0,11340.0,0.0,52.5,0.0,0.0,0.0,2.7905270580000003,4.389674732977289,0.0,-4637.0,0.125,-37.5,0.0,0.0,0.25,4.674071787,3.0316872062785585,0.0,0.6399999856948853,-0.25999999046325684,166.9199981689453,0.00555419921875,-0.041748046875,1.048583984375,36.58000183105469,0.0,-22.0,1.1180572509765625,2.194488525390625,Closing,0.0,0.0,0.0,0.0,0.0,0.0,0.0,0.125,
12.739075000000012,0.0,0.0,-3265.0,0.0,0.0,0.0,0.0,0.25,1.328124864,0.5498168668524888,0.0,-643.0,0.0,0.0,0.0,0.0,0.125,2.415771237,1.9285545897722227,0.0,11340.0,0.0,0.0,0.0,0.0,0.0,2.7905270580000003,4.389674732977289,0.0,-4637.0,0.125,0.0,0.0,0.0,0.25,4.67529249,3.0316872062785585,0.0,0.6299999952316284,-0.3199999928474426,167.1199951171875,0.0054931640625,0.03167724609375,1.027099609375,36.58000183105469,0.0,-6.0,1.1180267333984375,2.1953582763671875,Closing,0.0,0.0,0.0,0.0,0.0,0.0,0.0,0.0,
12.845618000000016,0.0,0.0,-3265.0,0.0,0.0,0.0,0.0,0.25,1.329345567,0.5498168668524888,0.0,-643.0,0.0,0.0,0.0,0.0,0.125,2.415771237,1.9285545897722227,0.0,11340.0,0.0,0.0,0.0,0.0,0.0,2.7905270580000003,4.389674732977289,0.0,-4637.0,0.125,0.0,0.0,0.0,0.25,4.674071787,3.0316872062785585,0.0,0.6399999856948853,-0.27000001072883606,167.13999938964844,-0.01275634765625,0.0103759765625,1.0120849609375,36.58000183105469,0.0,7.0,1.1179351806640625,2.1949920654296875,Closing,0.0,0.0,0.0,0.0,0.0,0.0,0.0,0.125,
12.94940300000002,0.0,0.0,-3265.0,0.125,0.0,196.875,0.0,0.25,1.329345567,0.5498168668524888,0.0,-643.0,0.0,0.0,-196.875,0.0,0.125,2.415771237,1.9285545897722227,0.0,11339.0,0.375,0.0,196.875,0.0,0.0,2.7905270580000003,4.389674732977289,0.0,-4637.0,0.375,0.0,-196.875,0.0,0.25,4.67529249,3.0316872062785585,0.0,0.6399999856948853,-0.28999999165534973,167.14999389648438,-0.00244140625,0.022216796875,1.011474609375,36.560001373291016,0.0,0.0,1.1179351806640625,2.1949920654296875,Closing,0.0,0.0,0.0,0.0,0.0,0.0,0.0,0.0,
