Time,ClimberA1,ClimberA2,FRpos,FRCurrent,FRspeed,FRsetpoint,FRApos,FRACurrent,FREncpos,FREncSetpoint,FREncSpeed,FLpos,FLCurrent,FLspeed,FLsetpoint,FLApos,FLACurrent,FLEncpos,FLEncSetpoint,FLEncSpeed,BRpos,BRCurrent,BRspeed,BRsetpoint,BRApos,BRACurrent,BREncpos,BREncSetpoint,BREncSpeed,BLpos,BLCurrent,BLspeed,BLsetpoint,BLApos,BLACurrent,BLEncpos,BLEncSetpoint,BLEncSpeed,navx_Pitch,navx_Roll,navx_Yaw,navx_XAcc,navx_YAcc,navx_ZAcc,navx_Temp,navx_Bar,navx_Alt,navx_XDis,navx_YDis,GearPlacerState,ShootOutputV,ShootOutputCurrent,ShootEncPos,ShootEncVelocity,ShootSpeed,ShootSetpoint,CarouselSetpoint,CarouselCurrent,
0.16946699999999693,0.0,0.0,-16940.0,0.0,0.0,NaN,0.0,0.125,0.7507323450000001,NaN,0.0,16565.0,0.0,0.0,NaN,0.0,0.0,0.527343696,NaN,0.0,-1023.0,0.0,0.0,NaN,0.0,0.0,3.386230122,NaN,0.0,6816.0,0.125,0.0,NaN,0.0,0.125,1.5844724940000001,NaN,0.0,0.6899999976158142,-0.3400000035762787,172.72999572753906,-0.0052490234375,0.0076904296875,1.01397705078125,37.130001068115234,0.0,-1.0,1.528289794921875,2.246917724609375,Closing,0.0,0.0,0.0,0.0,0.0,0.0,0.0,0.125,
0.2805789999999979,0.0,0.0,-16940.0,0.0,0.0,0.0,0.0,0.125,0.7507323450000001,0.01,0.0,16565.0,0.0,0.0,-0.0,0.0,0.125,0.527343696,0.01,0.0,-1023.0,0.0,0.0,0.0,0.0,0.125,3.386230122,0.01,0.0,6816.0,0.125,0.0,-0.0,0.0,0.25,1.5832517910000001,0.01,0.0,0.6899999976158142,-0.3400000035762787,172.72999572753906,-0.0062255859375,0.00701904296875,1.0206298828125,37.130001068115234,0.0,0.0,1.528289794921875,2.246917724609375,Closing,0.0,0.0,0.0,0.0,0.0,0.0,0.0,0.0,
0.3950319999999992,0.0,0.0,-16940.0,0.0,0.0,0.0,0.0,0.375,0.7507323450000001,0.01,0.0,16565.0,0.0,0.0,-0.0,0.0,0.125,0.527343696,0.01,-0.0012207029999995456,-1023.0,0.0,0.0,0.0,0.0,0.125,3.387450825,0.01,0.0012207029999999897,6816.0,0.125,0.0,-0.0,0.0,0.25,1.5832517910000001,0.01,0.0,0.6899999976158142,-0.3400000035762787,172.72999572753906,-0.00537109375,0.00860595703125,1.0167236328125,37.130001068115234,0.0,-2.0,1.528289794921875,2.246917724609375,Closing,0.0,0.0,0.0,0.0,0.0,0.0,0.0,0.0,
0.4503359999999957,0.0,0.0,-16940.0,0.0,0.0,0.0,0.0,0.375,0.7507323450000001,0.01,-0.0012207029999995456,16565.0,0.0,0.0,-0.0,0.0,0.125,0.526122993,0.01,0.0012207029999995456,-1023.0,0.0,0.0,0.0,0.0,0.125,3.387450825,0.01,0.0,6816.0,0.125,0.0,-0.0,0.0,0.25,1.5832517910000001,0.01,0.0012207030000004337,0.6899999976158142,-0.3400000035762787,172.72999572753906,-0.0042724609375,0.011962890625,1.013916015625,37.130001068115234,0.0,-1.0,1.528289794921875,2.246917724609375,Closing,0.0,0.0,0.0,0.0,0.0,0.0,0.0,0.0,
0.5103039999999964,0.0,0.0,-16940.0,0.0,0.0,0.0,0.0,0.375,0.7507323450000001,0.01,0.0,16565.0,0.0,0.0,-0.0,0.0,0.125,0.527343696,0.01,0.0,-1023.0,0.0,0.0,0.0,0.0,0.125,3.387450825,0.01,-0.0012207029999999897,6816.0,0.125,0.0,-0.0,0.0,0.25,1.5832517910000001,0.01,-0.0012207030000004337,0.6899999976158142,-0.33000001311302185,172.72999572753906,-0.00518798828125,0.0150146484375,1.01397705078125,37.130001068115234,0.0,0.0,1.528289794921875,2.246917724609375,Closing,0.0,0.0,0.0,0.0,0.0,0.0,0.0,0.125,
0.5669839999999967,0.0,0.0,-16940.0,0.0,0.0,0.0,0.0,0.375,0.7507323450000001,0.01,0.0,16565.0,0.0,0.0,-0.0,0.0,0.125,0.527343696,0.01,-0.0012207029999995456,-1023.0,0.0,0.0,0.0,0.0,0.125,3.387450825,0.01,0.0,6816.0,0.125,0.0,-0.0,0.0,0.25,1.5832517910000001,0.01,0.0,0.6899999976158142,-0.33000001311302185,172.72999572753906,-0.0028076171875,0.00982666015625,1.0169677734375,37.11000061035156,0.0,-3.0,1.528289794921875,2.246917724609375,Closing,0.0,0.0,0.0,0.0,0.0,0.0,0.0,0.125,
0.6182350000000005,0.0,0.0,-16940.0,0.0,0.0,0.0,0.0,0.375,0.7507323450000001,0.01,0.0,16565.0,0.0,0.0,-0.0,0.0,0.125,0.527343696,0.01,0.0012207029999995456,-1023.0,0.0,0.0,0.0,0.0,0.125,3.387450825,0.01,-0.0012207029999999897,6816.0,0.0,0.0,-0.0,0.0,0.25,1.5832517910000001,0.01,0.0,0.6899999976158142,-0.33000001311302185,172.72999572753906,-0.00653076171875,0.010986328125,1.02154541015625,37.11000061035156,0.0,0.0,1.528289794921875,2.246917724609375,Closing,0.0,0.0,0.0,0.0,0.0,0.0,0.0,0.0,
0.6718410000000004,0.0,0.0,-16940.0,0.0,0.0,0.0,0.0,0.375,0.7519530480000001,0.01,0.0,16565.0,0.0,0.0,-0.0,0.0,0.125,0.5285643990000001,0.01,0.0,-1023.0,0.0,0.0,0.0,0.0,0.125,3.387450825,0.01,0.0012207029999999897,6816.0,0.125,0.0,-0.0,0.0,0.25,1.5832517910000001,0.01,0.0012207030000004337,0.6899999976158142,-0.33000001311302185,172.72999572753906,-0.00665283203125,0.014892578125,1.01727294921875,37.11000061035156,0.0,1.0,1.528289794921875,2.246917724609375,Closing,0.0,0.0,0.0,0.0,0.0,0.0,0.0,0.0,
0.7292449999999954,0.0,0.0,-16940.0,0.0,0.0,0.0,0.0,0.375,0.7507323450000001,0.01,-0.0012207029999995456,16565.0,0.0,0.0,-0.0,0.0,0.125,0.527343696,0.01,0.0,-1023.0,0.0,0.0,0.0,0.0,0.125,3.387450825,0.01,0.0012207029999999897,6816.0,0.0,0.0,-0.0,0.0,0.25,1.5832517910000001,0.01,-0.0012207030000004337,0.6899999976158142,-0.33000001311302185,172.72999572753906,-0.00634765625,0.01214599609375,1.0186767578125,37.11000061035156,0.0,0.0,1.528289794921875,2.246917724609375,Closing,0.0,0.0,0.0,0.0,0.0,0.0,0.0,0.0,
0.7862569999999978,0.0,0.0,-16940.0,0.0,0.0,0.0,0.0,0.375,0.7519530480000001,0.01,0.0012207029999995456,16565.0,0.0,0.0,-0.0,0.0,0.125,0.5285643990000001,0.01,-0.0012207029999995456,-1023.0,0.0,0.0,0.0,0.0,0.125,3.386230122,0.01,0.0,6816.0,0.125,0.0,-0.0,0.0,0.25,1.5832517910000001,0.01,0.0012207030000004337,0.6899999976158142,-0.33000001311302185,172.72999572753906,-0.00372314453125,0.0128173828125,1.01788330078125,37.11000061035156,0.0,-2.0,1.528289794921875,2.246917724609375,Closing,0.0,0.0,0.0,0.0,0.0,0.0,0.0,0.0,
0.8365119999999951,0.0,0.0,-16940.0,0.0,0.0,0.0,0.0,0.375,0.7507323450000001,0.01,0.0,16565.0,0.0,0.0,-0.0,0.0,0.125,0.527343696,0.01,0.0,-1023.0,0.0,0.0,0.0,0.0,0.125,3.386230122,0.01,-0.0024414059999999793,6816.0,0.125,0.0,-0.0,0.0,0.25,1.5832517910000001,0.01,-0.0012207030000004337,0.6899999976158142,-0.33000001311302185,172.72999572753906,-0.0072021484375,0.0152587890625,1.0189208984375,37.11000061035156,0.0,1.0,1.528289794921875,2.246917724609375,Closing,0.0,0.0,0.0,0.0,0.0,0.0,0.0,0.125,
0.8916670000000013,0.0,0.0,-16940.0,0.0,0.0,0.0,0.0,0.375,0.7507323450000001,0.01,-0.0012207029999995456,16565.0,0.0,0.0,-0.0,0.0,0.125,0.527343696,0.01,0.0012207029999995456,-1023.0,0.0,0.0,0.0,0.0,0.125,3.387450825,0.01,0.0024414059999999793,6816.0,0.125,0.0,-0.0,0.0,0.25,1.5820310880000001,0.01,0.0,0.6899999976158142,-0.33000001311302185,172.72999572753906,-0.00640869140625,0.0130615234375,1.01751708984375,37.11000061035156,0.0,0.0,1.528289794921875,2.246917724609375,Closing,0.0,0.0,0.0,0.0,0.0,0.0,0.0,0.0,
0.9481659999999974,0.0,0.0,-16940.0,0.0,0.0,0.0,0.0,0.375,0.7507323450000001,0.01,0.0,16565.0,0.0,0.0,-0.0,0.0,0.125,0.527343696,0.01,0.0,-1023.0,0.0,0.0,0.0,0.0,0.125,3.386230122,0.01,0.0,6816.0,0.125,0.0,-0.0,0.0,0.25,1.585693197,0.01,0.0012207030000004337,0.699999988079071,-0.33000001311302185,172.72999572753906,-0.00933837890625,0.011474609375,1.02252197265625,37.11000061035156,0.0,3.0,1.528289794921875,2.246917724609375,Closing,0.0,0.0,0.0,0.0,0.0,0.0,0.0,0.0,
1.008834999999999,0.0,0.0,-16940.0,0.0,0.0,0.0,0.0,0.375,0.7507323450000001,0.01,0.0,16565.0,0.0,0.0,-0.0,0.0,0.125,0.5285643990000001,0.01,0.0,-1023.0,0.0,0.0,0.0,0.0,0.125,3.386230122,0.01,0.0,6816.0,0.125,0.0,-0.0,0.0,0.25,1.5844724940000001,0.01,-0.0012207030000004337,0.6899999976158142,-0.33000001311302185,172.72999572753906,-0.0029296875,0.01318359375,1.01092529296875,37.11000061035156,0.0,-2.0,1.528289794921875,2.246917724609375,Closing,0.0,0.0,0.0,0.0,0.0,0.0,0.0,0.0,
1.067059000000001,0.0,0.0,-16940.0,0.0,0.0,0.0,0.0,0.375,0.7507323450000001,0.01,0.0,16565.0,0.0,0.0,-0.0,0.0,0.125,0.527343696,0.01,-0.0012207029999995456,-1023.0,0.0,0.0,0.0,0.0,0.125,3.386230122,0.01,-0.0012207029999999897,6816.0,0.125,0.0,-0.0,0.0,0.25,1.5832517910000001,0.01,0.0,0.6899999976158142,-0.3400000035762787,172.72999572753906,-0.00531005859375,0.01202392578125,1.02215576171875,37.130001068115234,0.0,0.0,1.528289794921875,2.246917724609375,Closing,0.0,0.0,0.0,0.0,0.0,0.0,0.0,0.0,
1.124512999999999,0.0,0.0,-16940.0,0.0,0.0,0.0,0.0,0.375,0.7507323450000001,0.01,0.0,16565.0,0.0,0.0,-0.0,0.0,0.125,0.527343696,0.01,0.0,-1023.0,0.0,0.0,0.0,0.0,0.125,3.386230122,0.01,0.0012207029999999897,6816.0,0.125,0.0,-0.0,0.0,0.25,1.5832517910000001,0.01,0.0,0.699999988079071,-0.3400000035762787,172.72999572753906,-0.00787353515625,0.01397705078125,1.01507568359375,37.130001068115234,0.0,1.0,1.528289794921875,2.246917724609375,Closing,0.0,0.0,0.0,0.0,0.0,0.0,0.0,0.0,
1.1801239999999962,0.0,0.0,-16940.0,0.0,0.0,0.0,0.0,0.375,0.7507323450000001,0.01,0.0,16565.0,0.0,0.0,-0.0,0.0,0.125,0.527343696,0.01,0.0,-1023.0,0.0,0.0,0.0,0.0,0.125,3.382568013,0.01,-0.0024414059999999793,6816.0,0.125,0.0,-0.0,0.0,0.25,1.5832517910000001,0.01,0.0,0.699999988079071,-0.3400000035762787,172.72999572753906,-0.00372314453125,0.011474609375,1.01629638671875,37.130001068115234,0.0,-2.0,1.528289794921875,2.246917724609375,Closing,0.0,0.0,0.0,0.0,0.0,0.0,0.0,0.125,
1.235193999999996,0.0,0.0,-16940.0,0.0,0.0,0.0,0.0,0.375,0.754394454,0.01,0.0,16565.0,0.0,0.0,-0.0,0.0,0.125,0.527343696,0.01,0.0,-1023.0,0.0,0.0,0.0,0.0,0.125,3.386230122,0.01,0.0012207029999999897,6816.0,0.125,0.0,-0.0,0.0,0.25,1.5832517910000001,0.01,0.0,0.6899999976158142,-0.3400000035762787,172.72999572753906,-0.00469970703125,0.01312255859375,1.0150146484375,37.130001068115234,0.0,-1.0,1.528289794921875,2.246917724609375,Closing,0.0,0.0,0.0,0.0,0.0,0.0,0.0,0.0,
1.2978280000000013,0.0,0.0,-16940.0,0.0,0.0,0.0,0.0,0.375,0.755615157,0.01,0.0,16565.0,0.0,0.0,-0.0,0.0,0.125,0.527343696,0.01,0.0,-1023.0,0.0,0.0,0.0,0.0,0.125,3.387450825,0.01,0.0012207029999999897,6816.0,0.125,0.0,-0.0,0.0,0.25,1.5820310880000001,0.01,0.0,0.6899999976158142,-0.3400000035762787,172.72999572753906,-0.005859375,0.009033203125,1.01446533203125,37.130001068115234,0.0,0.0,1.528289794921875,2.246917724609375,Closing,0.0,0.0,0.0,0.0,0.0,0.0,0.0,0.125,
1.356235999999997,0.0,0.0,-16940.0,0.0,0.0,0.0,0.0,0.375,0.7507323450000001,0.01,0.0012207029999995456,16565.0,0.0,0.0,-0.0,0.0,0.125,0.527343696,0.01,0.0012207029999995456,-1023.0,0.0,0.0,0.0,0.0,0.125,3.387450825,0.01,-0.0012207029999999897,6816.0,0.125,0.0,-0.0,0.0,0.25,1.5820310880000001,0.01,0.0,0.6899999976158142,-0.3400000035762787,172.72999572753906,-0.00634765625,0.01263427734375,1.02081298828125,37.130001068115234,0.0,0.0,1.528289794921875,2.246917724609375,Closing,0.0,0.0,0.0,0.0,0.0,0.0,0.0,0.0,
1.413242999999995,0.0,0.0,-16940.0,0.0,0.0,0.0,0.0,0.375,0.7519530480000001,0.01,0.0,16565.0,0.0,0.0,-0.0,0.0,0.125,0.527343696,0.01,0.0,-1023.0,0.0,0.0,0.0,0.0,0.125,3.387450825,0.01,0.0012207029999999897,6816.0,0.0,0.0,-0.0,0.0,0.25,1.5820310880000001,0.01,0.0,0.6899999976158142,-0.3400000035762787,172.72999572753906,-0.0069580078125,0.01312255859375,1.02154541015625,37.130001068115234,0.0,0.0,1.528289794921875,2.246917724609375,Closing,0.0,0.0,0.0,0.0,0.0,0.0,0.0,0.0,
1.4718859999999987,0.0,0.0,-16940.0,0.0,0.0,0.0,0.0,0.375,0.7507323450000001,0.01,-0.0012207029999995456,16565.0,0.0,0.0,-0.0,0.0,0.125,0.527343696,0.01,0.0,-1023.0,0.0,0.0,0.0,0.0,0.125,3.387450825,0.01,0.0,6816.0,0.0,0.0,-0.0,0.0,0.25,1.5832517910000001,0.01,0.0,0.6899999976158142,-0.3400000035762787,172.72999572753906,-0.00543212890625,0.01220703125,1.01324462890625,37.130001068115234,0.0,0.0,1.528289794921875,2.246917724609375,Closing,0.0,0.0,0.0,0.0,0.0,0.0,0.0,0.0,
1.534449999999997,0.0,0.0,-16940.0,0.0,0.0,0.0,0.0,0.375,0.7519530480000001,0.01,0.0012207029999995456,16565.0,0.0,0.0,-0.0,0.0,0.125,0.5285643990000001,0.01,0.0,-1023.0,0.0,0.0,0.0,0.0,0.125,3.387450825,0.01,-0.0012207029999999897,6816.0,0.0,0.0,-0.0,0.0,0.25,1.5832517910000001,0.01,0.0,0.6899999976158142,-0.3400000035762787,172.72999572753906,-0.0076904296875,0.01373291015625,1.02276611328125,37.130001068115234,0.0,1.0,1.528289794921875,2.246917724609375,Closing,0.0,0.0,0.0,0.0,0.0,0.0,0.0,0.0,
1.5910839999999953,0.0,0.0,-16940.0,0.0,0.0,0.0,0.0,0.375,0.7495116420000001,0.01,-0.0012207029999995456,16565.0,0.0,0.0,-0.0,0.0,0.125,0.527343696,0.01,-0.0012207029999995456,-1023.0,0.0,0.0,0.0,0.0,0.125,3.387450825,0.01,0.0012207029999999897,6816.0,0.125,0.0,-0.0,0.0,0.25,1.5820310880000001,0.01,0.0,0.6899999976158142,-0.3400000035762787,172.72999572753906,-0.0040283203125,0.01312255859375,1.01861572265625,37.150001525878906,0.0,-1.0,1.528289794921875,2.246917724609375,Closing,0.0,0.0,0.0,0.0,0.0,0.0,0.0,0.0,
1.6466659999999975,0.0,0.0,-16940.0,0.0,0.0,0.0,0.0,0.375,0.7519530480000001,0.01,0.0,16565.0,0.0,0.0,-0.0,0.0,0.125,0.5285643990000001,0.01,0.0012207029999995456,-1023.0,0.0,0.0,0.0,0.0,0.125,3.382568013,0.01,0.0,6816.0,0.125,0.0,-0.0,0.0,0.25,1.5832517910000001,0.01,0.0,0.6899999976158142,-0.3400000035762787,172.72999572753906,-0.00750732421875,0.0123291015625,1.0152587890625,37.150001525878906,0.0,1.0,1.528289794921875,2.246917724609375,Closing,0.0,0.0,0.0,0.0,0.0,0.0,0.0,0.0,
1.699627999999997,0.0,0.0,-16940.0,0.0,0.0,0.0,0.0,0.375,0.7519530480000001,0.01,0.0,16565.0,0.0,0.0,-0.0,0.0,0.125,0.527343696,0.01,-0.0012207029999995456,-1023.0,0.0,0.0,0.0,0.0,0.125,3.387450825,0.01,-0.0024414059999999793,6816.0,0.125,0.0,-0.0,0.0,0.25,1.5820310880000001,0.01,0.0,0.6899999976158142,-0.3400000035762787,172.72999572753906,-0.005126953125,0.0145263671875,1.024658203125,37.150001525878906,0.0,0.0,1.528289794921875,2.246917724609375,Closing,0.0,0.0,0.0,0.0,0.0,0.0,0.0,0.0,
1.7523009999999994,0.0,0.0,-16940.0,0.0,0.0,0.0,0.0,0.375,0.7507323450000001,0.01,0.0012207029999995456,16565.0,0.0,0.0,-0.0,0.0,0.125,0.527343696,0.01,0.0012207029999995456,-1023.0,0.0,0.0,0.0,0.0,0.125,3.387450825,0.01,0.0,6816.0,0.125,0.0,-0.0,0.0,0.25,1.5832517910000001,0.01,0.0,0.6899999976158142,-0.3400000035762787,172.72999572753906,-0.0045166015625,0.01220703125,1.02215576171875,37.150001525878906,0.0,-1.0,1.528289794921875,2.246917724609375,Closing,0.0,0.0,0.0,0.0,0.0,0.0,0.0,0.125,
1.8126650000000009,0.0,0.0,-16940.0,0.0,0.0,0.0,0.0,0.375,0.7519530480000001,0.01,0.0,16565.0,0.0,0.0,-0.0,0.0,0.125,0.527343696,0.01,0.0,-1023.0,0.0,0.0,0.0,0.0,0.125,3.386230122,0.01,0.0024414059999999793,6816.0,0.125,0.0,-0.0,0.0,0.25,1.5832517910000001,0.01,0.0,0.6899999976158142,-0.3400000035762787,172.72999572753906,-0.00787353515625,0.01287841796875,1.02105712890625,37.150001525878906,0.0,1.0,1.528289794921875,2.246917724609375,Closing,0.0,0.0,0.0,0.0,0.0,0.0,0.0,0.0,
1.8687439999999989,0.0,0.0,-16940.0,0.0,0.0,0.0,0.0,0.375,0.7519530480000001,0.01,0.0,16565.0,0.0,0.0,-0.0,0.0,0.125,0.527343696,0.01,0.0,-1023.0,0.0,0.0,0.0,0.0,0.125,3.387450825,0.01,0.0,6816.0,0.125,0.0,-0.0,0.0,0.25,1.5820310880000001,0.01,0.0012207030000004337,0.6899999976158142,-0.3400000035762787,172.72999572753906,-0.00762939453125,0.0106201171875,1.02215576171875,37.150001525878906,0.0,1.0,1.528289794921875,2.246917724609375,Closing,0.0,0.0,0.0,0.0,0.0,0.0,0.0,0.0,
1.924273000000001,0.0,0.0,-16940.0,0.0,0.0,0.0,0.0,0.375,0.7507323450000001,0.01,0.0012207029999995456,16565.0,0.0,0.0,-0.0,0.0,0.125,0.527343696,0.01,-0.0012207029999995456,-1023.0,0.0,0.0,0.0,0.0,0.125,3.387450825,0.01,0.0,6816.0,0.125,0.0,-0.0,0.0,0.25,1.5832517910000001,0.01,-0.0012207030000004337,0.6899999976158142,-0.3400000035762787,172.72999572753906,-0.00714111328125,0.0111083984375,1.01959228515625,37.150001525878906,0.0,0.0,1.528289794921875,2.246917724609375,Closing,0.0,0.0,0.0,0.0,0.0,0.0,0.0,0.0,
1.976587999999996,0.0,0.0,-16940.0,0.0,0.0,0.0,0.0,0.375,0.7507323450000001,0.01,0.0,16565.0,0.0,0.0,-0.0,0.0,0.125,0.527343696,0.01,0.0012207029999995456,-1023.0,0.0,0.0,0.0,0.0,0.125,3.382568013,0.01,0.0,6816.0,0.125,0.0,-0.0,0.0,0.25,1.5832517910000001,0.01,0.0,0.6899999976158142,-0.3400000035762787,172.72000122070312,-0.006591796875,0.0126953125,1.02215576171875,37.150001525878906,0.0,0.0,1.528289794921875,2.246917724609375,Closing,0.0,0.0,0.0,0.0,0.0,0.0,0.0,0.0,
2.0342839999999995,0.0,0.0,-16940.0,0.0,0.0,0.0,0.0,0.375,0.748290939,0.01,0.0,16565.0,0.0,0.0,-0.0,0.0,0.125,0.527343696,0.01,-0.0012207029999995456,-1023.0,0.0,0.0,0.0,0.0,0.125,3.387450825,0.01,-0.0012207029999999897,6816.0,0.125,0.0,-0.0,0.0,0.25,1.5832517910000001,0.01,0.0,0.6899999976158142,-0.3400000035762787,172.72000122070312,-0.0057373046875,0.01251220703125,1.01910400390625,37.150001525878906,0.0,0.0,1.528289794921875,2.246917724609375,Closing,0.0,0.0,0.0,0.0,0.0,0.0,0.0,0.125,
2.0900869999999996,0.0,0.0,-16940.0,0.0,0.0,0.0,0.0,0.375,0.7507323450000001,0.01,0.0,16565.0,0.0,0.0,-0.0,0.0,0.125,0.527343696,0.01,0.0,-1023.0,0.0,0.0,0.0,0.0,0.125,3.387450825,0.01,0.0012207029999999897,6816.0,0.125,0.0,-0.0,0.0,0.25,1.5832517910000001,0.01,0.0,0.6899999976158142,-0.3400000035762787,172.72000122070312,-0.00653076171875,0.01446533203125,1.02142333984375,37.13999938964844,0.0,0.0,1.528289794921875,2.246917724609375,Closing,0.0,0.0,0.0,0.0,0.0,0.0,0.0,0.125,
2.1504749999999984,0.0,0.0,-16940.0,0.0,0.0,0.0,0.0,0.375,0.7507323450000001,0.01,0.0,16565.0,0.0,0.0,-0.0,0.0,0.125,0.527343696,0.01,0.0012207029999995456,-1023.0,0.0,0.0,0.0,0.0,0.125,3.382568013,0.01,0.0,6816.0,0.125,0.0,-0.0,0.0,0.25,1.5844724940000001,0.01,0.0,0.6899999976158142,-0.3400000035762787,172.72000122070312,-0.0076904296875,0.01214599609375,1.01422119140625,37.13999938964844,0.0,1.0,1.528289794921875,2.246917724609375,Closing,0.0,0.0,0.0,0.0,0.0,0.0,0.0,0.125,
2.209987000000001,0.0,0.0,-16940.0,0.0,0.0,0.0,0.0,0.375,0.767822187,0.01,0.0,16565.0,0.0,0.0,-0.0,0.0,0.125,0.527343696,0.01,-0.0012207029999995456,-1023.0,0.0,0.0,0.0,0.0,0.125,3.386230122,0.01,0.0,6816.0,0.125,0.0,-0.0,0.0,0.25,1.5832517910000001,0.01,0.0012207030000004337,0.6899999976158142,-0.3400000035762787,172.72000122070312,-0.0107421875,0.01171875,1.0225830078125,37.13999938964844,0.0,4.0,1.528289794921875,2.246917724609375,Closing,0.0,0.0,0.0,0.0,0.0,0.0,0.0,0.125,
2.2624990000000036,0.0,0.0,-16940.0,0.0,0.0,0.0,0.0,0.375,0.7519530480000001,0.01,0.0,16565.0,0.0,0.0,-0.0,0.0,0.125,0.5285643990000001,0.01,0.0012207029999995456,-1023.0,0.0,0.0,0.0,0.0,0.125,3.387450825,0.01,-0.0012207029999999897,6816.0,0.125,0.0,-0.0,0.0,0.25,1.5832517910000001,0.01,-0.0012207030000004337,0.6899999976158142,-0.3400000035762787,172.7100067138672,-0.0079345703125,0.0108642578125,1.02508544921875,37.13999938964844,0.0,1.0,1.528289794921875,2.246917724609375,Closing,0.0,0.0,0.0,0.0,0.0,0.0,0.0,0.125,
2.325814999999995,0.0,0.0,-16940.0,0.0,0.0,0.0,0.0,0.375,0.734863206,0.01,-0.0012207029999995456,16565.0,0.0,0.0,-0.0,0.0,0.125,0.527343696,0.01,0.0,-1023.0,0.0,0.0,0.0,0.0,0.125,3.387450825,0.01,0.0,6816.0,0.125,0.0,-0.0,0.0,0.25,1.5820310880000001,0.01,0.0,0.6899999976158142,-0.3499999940395355,172.72000122070312,-0.00299072265625,0.01605224609375,1.02166748046875,37.13999938964844,0.0,-2.0,1.528289794921875,2.246917724609375,Closing,0.0,0.0,0.0,0.0,0.0,0.0,0.0,0.0,
2.384712999999996,0.0,0.0,-16940.0,0.0,0.0,0.0,0.0,0.375,0.7507323450000001,0.01,0.0012207029999995456,16565.0,0.0,0.0,-0.0,0.0,0.125,0.5285643990000001,0.01,-0.0012207029999995456,-1023.0,0.0,0.0,0.0,0.0,0.125,3.387450825,0.01,0.0,6816.0,0.125,0.0,-0.0,0.0,0.25,1.5820310880000001,0.01,0.0,0.6899999976158142,-0.3400000035762787,172.72000122070312,-0.008056640625,0.0142822265625,1.02001953125,37.13999938964844,0.0,2.0,1.528289794921875,2.246917724609375,Closing,0.0,0.0,0.0,0.0,0.0,0.0,0.0,0.0,
2.4424819999999965,0.0,0.0,-16940.0,0.0,0.0,0.0,0.0,0.375,0.7507323450000001,0.01,-0.0012207029999995456,16565.0,0.0,0.0,-0.0,0.0,0.125,0.527343696,0.01,0.0012207029999995456,-1023.0,0.0,0.0,0.0,0.0,0.125,3.383788716,0.01,0.0012207029999999897,6816.0,0.125,0.0,-0.0,0.0,0.25,1.5832517910000001,0.01,0.0,0.6899999976158142,-0.3499999940395355,172.72000122070312,-0.01129150390625,0.01495361328125,1.01715087890625,37.13999938964844,0.0,5.0,1.528289794921875,2.246917724609375,Closing,0.0,0.0,0.0,0.0,0.0,0.0,0.0,0.0,
2.494314999999995,0.0,0.0,-16940.0,0.0,0.0,0.0,0.0,0.375,0.7507323450000001,0.01,0.0012207029999995456,16565.0,0.0,0.0,-0.0,0.0,0.125,0.527343696,0.01,-0.0012207029999995456,-1023.0,0.0,0.0,0.0,0.0,0.125,3.382568013,0.01,0.0,6816.0,0.125,0.0,-0.0,0.0,0.25,1.5832517910000001,0.01,0.0012207030000004337,0.6899999976158142,-0.3499999940395355,172.7100067138672,-0.00592041015625,0.01312255859375,1.0164794921875,37.13999938964844,0.0,0.0,1.528289794921875,2.246917724609375,Closing,0.0,0.0,0.0,0.0,0.0,0.0,0.0,0.125,
2.5492889999999973,0.0,0.0,-16940.0,0.0,0.0,0.0,0.0,0.375,0.773925702,0.01,-0.0012207029999995456,16565.0,0.0,0.0,-0.0,0.0,0.125,0.527343696,0.01,0.0,-1023.0,0.0,0.0,0.0,0.0,0.125,3.386230122,0.01,0.0,6816.0,0.125,0.0,-0.0,0.0,0.25,1.5832517910000001,0.01,0.0,0.6899999976158142,-0.3400000035762787,172.7100067138672,-0.00860595703125,0.01202392578125,1.01251220703125,37.13999938964844,0.0,2.0,1.528289794921875,2.246917724609375,Closing,0.0,0.0,0.0,0.0,0.0,0.0,0.0,0.0,
2.6081229999999995,0.0,0.0,-16940.0,0.0,0.0,0.0,0.0,0.375,0.7519530480000001,0.01,0.0,16565.0,0.0,0.0,-0.0,0.0,0.125,0.527343696,0.01,0.0012207029999995456,-1023.0,0.0,0.0,0.0,0.0,0.125,3.387450825,0.01,-0.0024414059999999793,6816.0,0.0,0.0,-0.0,0.0,0.25,1.5832517910000001,0.01,-0.0012207030000004337,0.6899999976158142,-0.3499999940395355,172.7100067138672,-0.01080322265625,0.00970458984375,1.02154541015625,37.15999984741211,0.0,4.0,1.528289794921875,2.246917724609375,Closing,0.0,0.0,0.0,0.0,0.0,0.0,0.0,0.125,
2.6632999999999956,0.0,0.0,-16940.0,0.0,0.0,0.0,0.0,0.375,0.7507323450000001,0.01,0.0,16565.0,0.0,0.0,-0.0,0.0,0.125,0.527343696,0.01,-0.0012207029999995456,-1023.0,0.0,0.0,0.0,0.0,0.125,3.387450825,0.01,0.0012207029999999897,6816.0,0.125,0.0,-0.0,0.0,0.25,1.5832517910000001,0.01,0.0,0.6899999976158142,-0.3499999940395355,172.7100067138672,-0.00189208984375,0.01153564453125,1.0230712890625,37.15999984741211,0.0,-4.0,1.528289794921875,2.246917724609375,Closing,0.0,0.0,0.0,0.0,0.0,0.0,0.0,0.0,
2.7230670000000026,0.0,0.0,-16940.0,0.0,0.0,0.0,0.0,0.375,0.7507323450000001,0.01,0.0,16565.0,0.0,0.0,-0.0,0.0,0.125,0.527343696,0.01,0.0,-1023.0,0.0,0.0,0.0,0.0,0.125,3.387450825,0.01,0.0,6816.0,0.125,0.0,-0.0,0.0,0.25,1.5832517910000001,0.01,0.0,0.6899999976158142,-0.3499999940395355,172.7100067138672,-0.00848388671875,0.01361083984375,1.025390625,37.15999984741211,0.0,2.0,1.528289794921875,2.246917724609375,Closing,0.0,0.0,0.0,0.0,0.0,0.0,0.0,0.0,
2.780261999999995,0.0,0.0,-16940.0,0.0,0.0,0.0,0.0,0.375,0.7519530480000001,0.01,0.0,16565.0,0.0,0.0,-0.0,0.0,0.125,0.527343696,0.01,0.0,-1023.0,0.0,0.0,0.0,0.0,0.125,3.387450825,0.01,0.0,6816.0,0.125,0.0,-0.0,0.0,0.25,1.5832517910000001,0.01,0.0,0.6899999976158142,-0.36000001430511475,172.6999969482422,-0.0032958984375,0.01190185546875,1.0189208984375,37.15999984741211,0.0,-3.0,1.528289794921875,2.246917724609375,Closing,0.0,0.0,0.0,0.0,0.0,0.0,0.0,0.0,
2.835314999999995,0.0,0.0,-16940.0,0.0,0.0,0.0,0.0,0.375,0.7507323450000001,0.01,0.0,16565.0,0.0,0.0,-0.0,0.0,0.125,0.527343696,0.01,0.0012207029999995456,-1023.0,0.0,0.0,0.0,0.0,0.125,3.387450825,0.01,0.0,6816.0,0.125,0.0,-0.0,0.0,0.25,1.5844724940000001,0.01,0.0,0.6899999976158142,-0.3400000035762787,172.6999969482422,-0.0042724609375,0.01434326171875,1.01666259765625,37.15999984741211,0.0,-1.0,1.528289794921875,2.246917724609375,Closing,0.0,0.0,0.0,0.0,0.0,0.0,0.0,0.125,
2.8902289999999993,0.0,0.0,-16940.0,0.0,0.0,0.0,0.0,0.375,0.7507323450000001,0.01,0.0012207029999995456,16565.0,0.0,0.0,-0.0,0.0,0.125,0.527343696,0.01,0.0,-1023.0,0.0,0.0,0.0,0.0,0.125,3.387450825,0.01,0.0012207029999999897,6816.0,0.125,0.0,-0.0,0.0,0.25,1.5820310880000001,0.01,0.0,0.6899999976158142,-0.3499999940395355,172.6999969482422,-0.00506591796875,0.0120849609375,1.02001953125,37.15999984741211,0.0,-1.0,1.528289794921875,2.246917724609375,Closing,0.0,0.0,0.0,0.0,0.0,0.0,0.0,0.0,
2.948639999999992,0.0,0.0,-16940.0,0.0,0.0,0.0,0.0,0.375,0.7519530480000001,0.01,0.0,16565.0,0.0,0.0,-0.0,0.0,0.125,0.526122993,0.01,-0.0012207029999995456,-1023.0,0.0,0.0,0.0,0.0,0.125,3.387450825,0.01,0.0,6816.0,0.125,0.0,-0.0,0.0,0.25,1.5832517910000001,0.01,0.0012207030000004337,0.6899999976158142,-0.3400000035762787,172.6999969482422,9.765625E-4,0.01214599609375,1.0213623046875,37.15999984741211,0.0,-7.0,1.528289794921875,2.246917724609375,Closing,0.0,0.0,0.0,0.0,0.0,0.0,0.0,0.125,
3.010514000000003,0.0,0.0,-16940.0,0.0,0.0,0.0,0.0,0.375,0.7507323450000001,0.01,0.0,16565.0,0.0,0.0,-0.0,0.0,0.125,0.5285643990000001,0.01,0.0012207029999995456,-1023.0,0.0,0.0,0.0,0.0,0.125,3.386230122,0.01,0.0,6816.0,0.125,0.0,-0.0,0.0,0.25,1.5832517910000001,0.01,-0.0012207030000004337,0.6899999976158142,-0.3400000035762787,172.6999969482422,-0.0078125,0.01202392578125,1.01593017578125,37.15999984741211,0.0,1.0,1.528289794921875,2.246917724609375,Closing,0.0,0.0,0.0,0.0,0.0,0.0,0.0,0.0,
3.0660919999999967,0.0,0.0,-16940.0,0.0,0.0,0.0,0.0,0.375,0.7507323450000001,0.01,-0.0012207029999995456,16565.0,0.0,0.0,-0.0,0.0,0.125,0.527343696,0.01,0.0,-1023.0,0.0,0.0,0.0,0.0,0.125,3.382568013,0.01,-0.0012207029999999897,6816.0,0.125,0.0,-0.0,0.0,0.25,1.5820310880000001,0.01,0.0,0.6899999976158142,-0.3400000035762787,172.6999969482422,-0.006591796875,0.013671875,1.01434326171875,37.15999984741211,0.0,0.0,1.528289794921875,2.246917724609375,Closing,0.0,0.0,0.0,0.0,0.0,0.0,0.0,0.0,
3.1200609999999944,0.0,0.0,-16940.0,0.0,0.0,0.0,0.0,0.375,0.754394454,0.01,0.0,16565.0,0.0,0.0,-0.0,0.0,0.125,0.527343696,0.01,-0.0012207029999995456,-1023.0,0.0,0.0,0.0,0.0,0.125,3.387450825,0.01,0.0012207029999999897,6816.0,0.125,0.0,-0.0,0.0,0.25,1.5832517910000001,0.01,0.0012207030000004337,0.6899999976158142,-0.3400000035762787,172.6999969482422,-0.00341796875,0.0125732421875,1.01971435546875,37.15999984741211,0.0,-2.0,1.528289794921875,2.246917724609375,Closing,0.0,0.0,0.0,0.0,0.0,0.0,0.0,0.0,
3.1746039999999995,0.0,0.0,-16940.0,0.0,0.0,0.0,0.0,0.375,0.7507323450000001,0.01,-0.0012207029999995456,16565.0,0.0,0.0,-0.0,0.0,0.125,0.527343696,0.01,0.0012207029999995456,-1023.0,0.0,0.0,0.0,0.0,0.125,3.386230122,0.01,0.0,6816.0,0.125,0.0,-0.0,0.0,0.25,1.5832517910000001,0.01,-0.0012207030000004337,0.6899999976158142,-0.3400000035762787,172.6999969482422,-0.00555419921875,0.01214599609375,1.02166748046875,37.15999984741211,0.0,0.0,1.528289794921875,2.246917724609375,Closing,0.0,0.0,0.0,0.0,0.0,0.0,0.0,0.0,
3.2317989999999917,0.0,0.0,-16940.0,0.0,0.0,0.0,0.0,0.375,0.7507323450000001,0.01,0.0012207029999995456,16565.0,0.0,0.0,-0.0,0.0,0.125,0.5285643990000001,0.01,-0.0012207029999995456,-1023.0,0.0,0.0,0.0,0.0,0.125,3.387450825,0.01,0.0012207029999999897,6816.0,0.125,0.0,-0.0,0.0,0.25,1.5832517910000001,0.01,0.0,0.6899999976158142,-0.3400000035762787,172.6999969482422,-0.0030517578125,0.01123046875,1.0167236328125,37.15999984741211,0.0,-3.0,1.528289794921875,2.246917724609375,Closing,0.0,0.0,0.0,0.0,0.0,0.0,0.0,0.0,
3.2879389999999913,0.0,0.0,-16940.0,0.0,0.0,0.0,0.0,0.375,0.7397460180000001,0.01,-0.0012207029999995456,16565.0,0.0,0.0,-0.0,0.0,0.125,0.527343696,0.01,0.0,-1023.0,0.0,0.0,0.0,0.0,0.125,3.382568013,0.01,-0.0012207029999999897,6816.0,0.125,0.0,-0.0,0.0,0.25,1.5832517910000001,0.01,0.0,0.6899999976158142,-0.3400000035762787,172.6999969482422,-0.0081787109375,0.016357421875,1.02227783203125,37.15999984741211,0.0,2.0,1.528289794921875,2.246917724609375,Closing,0.0,0.0,0.0,0.0,0.0,0.0,0.0,0.125,
3.3460959999999975,0.0,0.0,-16940.0,0.0,0.0,0.0,0.0,0.375,0.7507323450000001,0.01,0.0012207029999995456,16565.0,0.0,0.0,-0.0,0.0,0.125,0.527343696,0.01,0.0,-1023.0,0.0,0.0,0.0,0.0,0.125,3.382568013,0.01,0.0012207029999999897,6816.0,0.125,0.0,-0.0,0.0,0.25,1.5832517910000001,0.01,0.0,0.6899999976158142,-0.3400000035762787,172.6999969482422,-0.00543212890625,0.01275634765625,1.0174560546875,37.15999984741211,0.0,0.0,1.528289794921875,2.246917724609375,Closing,0.0,0.0,0.0,0.0,0.0,0.0,0.0,0.0,
3.400387999999999,0.0,0.0,-16940.0,0.0,0.0,0.0,0.0,0.375,0.7507323450000001,0.01,0.0,16565.0,0.0,0.0,-0.0,0.0,0.125,0.527343696,0.01,0.0,-1023.0,0.0,0.0,0.0,0.0,0.125,3.386230122,0.01,0.0,6816.0,0.125,0.0,-0.0,0.0,0.25,1.5820310880000001,0.01,0.0,0.6899999976158142,-0.3400000035762787,172.6999969482422,-0.004638671875,0.011474609375,1.02264404296875,37.15999984741211,0.0,-1.0,1.528289794921875,2.246917724609375,Closing,0.0,0.0,0.0,0.0,0.0,0.0,0.0,0.125,
3.455988999999994,0.0,0.0,-16940.0,0.0,0.0,0.0,0.0,0.375,0.761718672,0.01,0.0,16565.0,0.0,0.0,-0.0,0.0,0.125,0.527343696,0.01,0.0012207029999995456,-1023.0,0.0,0.0,0.0,0.0,0.125,3.387450825,0.01,0.0,6816.0,0.125,0.0,-0.0,0.0,0.25,1.5844724940000001,0.01,0.0,0.6899999976158142,-0.3400000035762787,172.6999969482422,-0.0057373046875,0.01104736328125,1.015869140625,37.15999984741211,0.0,0.0,1.528289794921875,2.246917724609375,Closing,0.0,0.0,0.0,0.0,0.0,0.0,0.0,0.125,
3.517038999999997,0.0,0.0,-16940.0,0.0,0.0,0.0,0.0,0.375,0.7507323450000001,0.01,0.0,16565.0,0.0,0.0,-0.0,0.0,0.125,0.527343696,0.01,0.0,-1023.0,0.0,0.0,0.0,0.0,0.125,3.386230122,0.01,-0.0012207029999999897,6816.0,0.125,0.0,-0.0,0.0,0.25,1.5832517910000001,0.01,0.0,0.6899999976158142,-0.3400000035762787,172.6999969482422,-0.00872802734375,0.00885009765625,1.0225830078125,37.15999984741211,0.0,2.0,1.528289794921875,2.246917724609375,Closing,0.0,0.0,0.0,0.0,0.0,0.0,0.0,0.125,
3.5720499999999955,0.0,0.0,-16940.0,0.0,0.0,0.0,0.0,0.375,0.7507323450000001,0.01,-0.0012207029999995456,16565.0,0.0,0.0,-0.0,0.0,0.125,0.527343696,0.01,0.0,-1023.0,0.0,0.0,0.0,0.0,0.125,3.386230122,0.01,0.0012207029999999897,6816.0,0.125,0.0,-0.0,0.0,0.25,1.5832517910000001,0.01,0.0,0.6899999976158142,-0.3400000035762787,172.6999969482422,-0.0057373046875,0.010498046875,1.01470947265625,37.15999984741211,0.0,0.0,1.528289794921875,2.246917724609375,Closing,0.0,0.0,0.0,0.0,0.0,0.0,0.0,0.0,
3.627864999999998,0.0,0.0,-16940.0,0.0,0.0,0.0,0.0,0.375,0.7507323450000001,0.01,0.0012207029999995456,16565.0,0.0,0.0,-0.0,0.0,0.125,0.527343696,0.01,0.0012207029999995456,-1023.0,0.0,0.0,0.0,0.0,0.125,3.387450825,0.01,0.0,6816.0,0.125,0.0,-0.0,0.0,0.25,1.5832517910000001,0.01,0.0,0.6899999976158142,-0.3400000035762787,172.6999969482422,-0.00604248046875,0.0128173828125,1.01531982421875,37.150001525878906,0.0,0.0,1.528289794921875,2.246917724609375,Closing,0.0,0.0,0.0,0.0,0.0,0.0,0.0,0.0,
3.6847769999999946,0.0,0.0,-16940.0,0.125,0.0,238.1102353334427,0.0,0.375,0.7507323450000001,3.6991882499999984,0.0,16566.0,0.125,0.0,238.1102353334427,0.0,5.5,0.53710932,1.2409424999999985,0.0,-1024.0,0.125,0.0,-238.1102353334427,0.0,0.125,3.387450825,1.2350999999999985,0.0,6816.0,0.375,0.0,-238.1102353334427,0.0,1.75,1.568603355,3.7184999999999984,0.0,0.6899999976158142,-0.3499999940395355,172.6999969482422,-0.01190185546875,0.01947021484375,1.018798828125,37.150001525878906,0.0,6.0,1.528289794921875,2.246917724609375,Closing,0.0,0.0,0.0,0.0,0.0,0.0,0.0,0.125,
3.741382000000005,0.0,0.0,-16940.0,0.875,0.0,555.5905491113663,0.0,6.0,0.462646437,3.6991882499999984,0.0,16566.0,0.625,0.0,555.5905491113663,0.0,8.25,0.9350584980000001,1.2409424999999985,0.0,-1024.0,0.625,0.0,-555.5905491113663,0.0,6.375,3.7292476650000004,1.2350999999999985,0.0,6816.0,1.0,-7.5,-555.5905491113663,0.0,7.125,1.197509643,3.7184999999999984,0.0,0.6700000166893005,-0.36000001430511475,172.6999969482422,0.02154541015625,0.14068603515625,0.8756103515625,37.150001525878906,0.0,-10.0,1.5281524658203125,2.246337890625,Closing,0.0,0.0,0.0,0.0,0.0,0.0,0.0,0.0,
3.7946899999999952,0.0,0.0,-16940.0,1.875,30.0,634.9606275558472,0.0,1.5,0.11840819100000001,3.6991882499999984,0.0,16566.0,1.875,97.5,634.9606275558472,0.0,1.5,1.312255725,1.2409424999999985,0.0,-1024.0,1.0,-60.0,-634.9606275558472,0.0,1.75,4.1333003580000005,1.2350999999999985,0.0,6816.0,2.5,-30.0,-634.9606275558472,0.0,1.5,0.808105386,3.7184999999999984,0.0,0.6600000262260437,-0.30000001192092896,172.72000122070312,-0.13055419921875,-0.12811279296875,1.1993408203125,37.150001525878906,0.0,105.0,1.5277099609375,2.24481201171875,Closing,0.0,0.0,0.0,0.0,0.0,0.0,0.0,0.125,
3.8520229999999938,0.0,0.0,-16927.0,2.875,82.5,634.9606275558472,0.0,1.0,4.686278817,3.6991882499999984,0.0,16584.0,3.375,112.5,634.9606275558472,0.0,1.25,1.621093584,1.2409424999999985,0.0,-1044.0,2.625,-157.5,-634.9606275558472,0.0,0.875,4.484862822,1.2350999999999985,0.0,6810.0,4.125,-30.0,-634.9606275558472,0.0,1.25,0.538330023,3.7184999999999984,0.0,0.5799999833106995,-0.25,172.77999877929688,0.04376220703125,0.033203125,1.1685791015625,37.150001525878906,0.0,-45.0,1.52703857421875,2.243194580078125,Closing,0.0,0.0,0.0,0.0,0.0,0.0,0.0,0.0,
3.911283999999992,0.0,0.0,-16927.0,3.5,97.5,634.9606275558472,0.0,0.25,4.533690942000001,3.6991882499999984,0.0,16584.0,4.5,45.0,634.9606275558472,0.0,0.5,1.7089842000000002,1.2409424999999985,0.0,-1044.0,3.25,-127.5,-634.9606275558472,0.0,0.25,4.62646437,1.2350999999999985,0.0,6810.0,4.125,-22.5,-634.9606275558472,0.0,0.5,0.45410151600000004,3.7184999999999984,0.0,0.4300000071525574,-0.27000001072883606,172.83999633789062,-0.04278564453125,-0.13189697265625,1.0474853515625,37.150001525878906,0.0,19.0,1.526458740234375,2.24249267578125,Closing,0.0,0.0,0.0,0.0,0.0,0.0,0.0,0.125,
3.9730260000000053,0.0,0.0,-16906.0,1.875,127.5,0.0,0.0,0.25,4.490966337000001,3.6991882499999984,0.0,16596.0,4.0,82.5,0.0,0.0,0.5,1.722411933,1.2409424999999985,0.0634765559999999,-1054.0,2.125,-45.0,0.0,0.0,0.125,4.627685073,1.2350999999999985,0.11596678499999946,6801.0,1.375,-82.5,0.0,0.0,0.5,0.412597614,3.7184999999999984,-0.08178710099999975,0.25999999046325684,-0.3400000035762787,172.8300018310547,0.04608154296875,0.05352783203125,0.94091796875,37.150001525878906,0.0,-45.0,1.52655029296875,2.24383544921875,Closing,0.0,0.0,0.0,0.0,0.0,0.0,0.0,0.0,
4.028798000000003,0.0,0.0,-16906.0,0.0,90.0,0.0,0.0,0.125,4.476317901,3.6991882499999984,-0.04150390199999965,16596.0,0.0,67.5,0.0,0.0,0.25,1.722411933,1.2409424999999985,0.008544920999999928,-1054.0,0.0,-22.5,0.0,0.0,0.125,4.62646437,1.2350999999999985,0.0,6801.0,0.125,-67.5,0.0,0.0,0.25,0.38940425700000003,3.7184999999999984,-0.0402831990000001,0.3700000047683716,-0.2800000011920929,172.85000610351562,0.003173828125,-0.0068359375,1.03631591796875,37.150001525878906,0.0,-10.0,1.5264892578125,2.245147705078125,Closing,0.0,0.0,0.0,0.0,0.0,0.0,0.0,0.125,
4.082169000000001,0.0,0.0,-16905.0,0.0,7.5,0.0,0.0,0.125,4.476317901,3.6991882499999984,-0.009765624000000805,16599.0,0.0,0.0,0.0,0.0,0.125,1.722411933,1.2409424999999985,0.0,-1056.0,0.0,-7.5,0.0,0.0,0.125,4.631347182,1.2350999999999985,0.0,6797.0,0.125,-7.5,0.0,0.0,0.125,0.384521445,3.7184999999999984,-0.018310544999999845,0.5299999713897705,-0.30000001192092896,172.85000610351562,0.01312255859375,0.06207275390625,1.01007080078125,37.150001525878906,0.0,-11.0,1.52667236328125,2.2465667724609375,Closing,0.0,0.0,0.0,0.0,0.0,0.0,0.0,0.0,
4.135048000000003,0.0,0.0,-16905.0,0.0,15.0,0.0,0.0,0.25,4.477538604,3.6991882499999984,0.0,16599.0,0.0,0.0,0.0,0.0,0.125,1.723632636,1.2409424999999985,0.0,-1056.0,0.0,0.0,0.0,0.0,0.125,4.62646437,1.2350999999999985,0.004882811999999959,6797.0,0.125,-15.0,0.0,0.0,0.125,0.383300742,3.7184999999999984,-0.0024414059999999793,0.75,-0.33000001311302185,172.8000030517578,-0.01751708984375,0.12640380859375,0.9793701171875,37.13999938964844,0.0,25.0,1.527252197265625,2.2464447021484375,Closing,0.0,0.0,0.0,0.0,0.0,0.0,0.0,0.125,
4.191137999999999,0.0,0.0,-16901.0,0.0,22.5,0.0,0.0,0.25,4.477538604,3.6991882499999984,0.0,16600.0,0.0,0.0,0.0,0.0,0.125,1.722411933,1.2409424999999985,0.0,-1058.0,0.0,-7.5,0.0,0.0,0.125,4.621581558,1.2350999999999985,-0.004882811999999959,6793.0,0.125,-30.0,0.0,0.0,0.125,0.38940425700000003,3.7184999999999984,-0.0024414059999999793,0.9100000262260437,-0.33000001311302185,172.8000030517578,0.0040283203125,0.07049560546875,1.0404052734375,37.13999938964844,0.0,-3.0,1.5276641845703125,2.245025634765625,Closing,0.0,0.0,0.0,0.0,0.0,0.0,0.0,0.125,
4.2547499999999925,0.0,0.0,-16901.0,0.0,7.5,0.0,0.0,0.25,4.476317901,3.6991882499999984,0.0,16600.0,0.0,0.0,0.0,0.0,0.125,1.723632636,1.2409424999999985,0.0,-1058.0,0.0,-7.5,0.0,0.0,0.125,4.616698746,1.2350999999999985,-0.009765623999999917,6793.0,0.125,-7.5,0.0,0.0,0.125,0.38940425700000003,3.7184999999999984,0.0012207029999999897,0.9900000095367432,-0.3100000023841858,172.8300018310547,-9.1552734375E-4,0.03680419921875,0.96649169921875,37.13999938964844,0.0,-1.0,1.5277252197265625,2.242889404296875,Closing,0.0,0.0,0.0,0.0,0.0,0.0,0.0,0.125,
4.311715999999993,0.0,0.0,-16901.0,0.0,0.0,0.0,0.0,0.25,4.476317901,3.6991882499999984,0.0,16600.0,0.0,0.0,0.0,0.0,0.125,1.723632636,1.2409424999999985,0.0,-1058.0,0.0,0.0,0.0,0.0,0.125,4.616698746,1.2350999999999985,0.0,6793.0,0.125,0.0,0.0,0.0,0.125,0.384521445,3.7184999999999984,0.0,0.9900000095367432,-0.3400000035762787,172.80999755859375,-0.01873779296875,0.00360107421875,1.08843994140625,37.13999938964844,0.0,10.0,1.5277557373046875,2.2428131103515625,Closing,0.0,0.0,0.0,0.0,0.0,0.0,0.0,0.0,
4.370176,0.0,0.0,-16901.0,0.0,0.0,0.0,0.0,0.25,4.477538604,3.6991882499999984,0.0,16600.0,0.0,0.0,0.0,0.0,0.125,1.723632636,1.2409424999999985,0.0,-1058.0,0.0,0.0,0.0,0.0,0.125,4.616698746,1.2350999999999985,-0.0012207029999995456,6793.0,0.125,0.0,0.0,0.0,0.125,0.38940425700000003,3.7184999999999984,0.0,0.9300000071525574,-0.33000001311302185,172.8300018310547,-0.00830078125,0.001708984375,1.06121826171875,37.13999938964844,0.0,0.0,1.5277557373046875,2.24298095703125,Closing,0.0,0.0,0.0,0.0,0.0,0.0,0.0,0.0,
4.425034999999996,0.0,0.0,-16901.0,0.0,0.0,0.0,0.0,0.25,4.477538604,3.6991882499999984,0.0,16600.0,0.0,0.0,0.0,0.0,0.125,1.722411933,1.2409424999999985,0.0,-1058.0,0.0,0.0,0.0,0.0,0.125,4.617919449,1.2350999999999985,0.0,6793.0,0.125,0.0,0.0,0.0,0.125,0.384521445,3.7184999999999984,0.0012207029999999897,0.8799999952316284,-0.33000001311302185,172.8300018310547,-0.0047607421875,-0.0048828125,1.03656005859375,37.13999938964844,0.0,-3.0,1.5277557373046875,2.2435455322265625,Closing,0.0,0.0,0.0,0.0,0.0,0.0,0.0,0.0,
4.480184000000001,0.0,0.0,-16901.0,0.0,0.0,0.0,0.0,0.25,4.477538604,3.6991882499999984,0.0,16600.0,0.0,0.0,0.0,0.0,0.125,1.723632636,1.2409424999999985,0.0,-1058.0,0.0,0.0,0.0,0.0,0.125,4.616698746,1.2350999999999985,0.0012207029999995456,6793.0,0.125,0.0,0.0,0.0,0.125,0.384521445,3.7184999999999984,-0.0012207029999999897,0.8299999833106995,-0.3199999928474426,172.82000732421875,-0.0067138671875,0.00213623046875,1.02587890625,37.13999938964844,0.0,0.0,1.5277557373046875,2.2440032958984375,Closing,0.0,0.0,0.0,0.0,0.0,0.0,0.0,0.0,
4.534627,0.0,0.0,-16901.0,0.0,0.0,0.0,0.0,0.25,4.476317901,3.6991882499999984,0.0,16600.0,0.0,0.0,0.0,0.0,0.125,1.722411933,1.2409424999999985,0.0,-1058.0,0.0,0.0,0.0,0.0,0.125,4.617919449,1.2350999999999985,0.0,6793.0,0.125,0.0,0.0,0.0,0.125,0.38940425700000003,3.7184999999999984,0.0012207029999999897,0.8100000023841858,-0.3199999928474426,172.82000732421875,-0.010009765625,0.009033203125,1.0245361328125,37.13999938964844,0.0,3.0,1.5277557373046875,2.2440032958984375,Closing,0.0,0.0,0.0,0.0,0.0,0.0,0.0,0.125,
4.591201999999997,0.0,0.0,-16901.0,0.0,0.0,0.0,0.0,0.25,4.476317901,3.6991882499999984,0.0,16600.0,0.0,0.0,0.0,0.0,0.125,1.722411933,1.2409424999999985,0.0,-1058.0,0.0,0.0,0.0,0.0,0.125,4.616698746,1.2350999999999985,0.0,6793.0,0.125,0.0,0.0,0.0,0.125,0.384521445,3.7184999999999984,0.0,0.8100000023841858,-0.3199999928474426,172.82000732421875,-0.00592041015625,0.0172119140625,1.0341796875,37.13999938964844,0.0,0.0,1.5277557373046875,2.2440032958984375,Closing,0.0,0.0,0.0,0.0,0.0,0.0,0.0,0.0,
4.6477790000000025,0.0,0.0,-16901.0,0.0,0.0,0.0,0.0,0.25,4.477538604,3.6991882499999984,0.0,16600.0,0.0,0.0,0.0,0.0,0.125,1.722411933,1.2409424999999985,0.0,-1058.0,0.0,0.0,0.0,0.0,0.125,4.616698746,1.2350999999999985,0.0,6793.0,0.125,0.0,0.0,0.0,0.125,0.38940425700000003,3.7184999999999984,0.0012207029999999897,0.8199999928474426,-0.3199999928474426,172.82000732421875,-0.0079345703125,0.02197265625,1.0369873046875,37.099998474121094,0.0,2.0,1.5277557373046875,2.2440032958984375,Closing,0.0,0.0,0.0,0.0,0.0,0.0,0.0,0.125,
4.706086000000003,0.0,0.0,-16901.0,0.0,0.0,0.0,0.0,0.25,4.476317901,3.6991882499999984,0.0,16600.0,0.0,0.0,0.0,0.0,0.125,1.722411933,1.2409424999999985,0.0,-1058.0,0.0,0.0,0.0,0.0,0.125,4.617919449,1.2350999999999985,0.0,6793.0,0.125,0.0,0.0,0.0,0.125,0.38940425700000003,3.7184999999999984,0.0,0.8299999833106995,-0.3199999928474426,172.82000732421875,-0.0074462890625,0.01165771484375,1.02728271484375,37.099998474121094,0.0,1.0,1.5277557373046875,2.2440032958984375,Closing,0.0,0.0,0.0,0.0,0.0,0.0,0.0,0.125,
4.7596770000000035,0.0,0.0,-16901.0,0.0,0.0,0.0,0.0,0.25,4.476317901,3.6991882499999984,0.0,16600.0,0.0,0.0,0.0,0.0,0.125,1.722411933,1.2409424999999985,0.0,-1058.0,0.0,0.0,0.0,0.0,0.125,4.617919449,1.2350999999999985,0.0,6793.0,0.125,0.0,0.0,0.0,0.125,0.38940425700000003,3.7184999999999984,0.0,0.8199999928474426,-0.33000001311302185,172.82000732421875,-0.00811767578125,0.0093994140625,1.0286865234375,37.099998474121094,0.0,1.0,1.5277557373046875,2.2440032958984375,Closing,0.0,0.0,0.0,0.0,0.0,0.0,0.0,0.125,
4.817425999999999,0.0,0.0,-16901.0,0.0,0.0,0.0,0.0,0.25,4.477538604,3.6991882499999984,0.0,16600.0,0.0,0.0,0.0,0.0,0.125,1.722411933,1.2409424999999985,0.0,-1058.0,0.0,0.0,0.0,0.0,0.125,4.616698746,1.2350999999999985,0.0,6793.0,0.125,0.0,0.0,0.0,0.125,0.384521445,3.7184999999999984,-0.0012207029999999897,0.800000011920929,-0.3199999928474426,172.82000732421875,-0.00592041015625,0.00848388671875,1.01361083984375,37.099998474121094,0.0,0.0,1.5277557373046875,2.2440032958984375,Closing,0.0,0.0,0.0,0.0,0.0,0.0,0.0,0.125,
4.875871999999996,0.0,0.0,-16901.0,0.0,0.0,0.0,0.0,0.25,4.476317901,3.6991882499999984,0.0,16600.0,0.0,0.0,0.0,0.0,0.125,1.722411933,1.2409424999999985,0.0,-1058.0,0.0,0.0,0.0,0.0,0.125,4.617919449,1.2350999999999985,0.0,6793.0,0.125,0.0,0.0,0.0,0.125,0.38940425700000003,3.7184999999999984,-0.0024414059999999793,0.800000011920929,-0.33000001311302185,172.82000732421875,-0.006591796875,0.017822265625,1.02008056640625,37.099998474121094,0.0,1.0,1.5277557373046875,2.2440032958984375,Closing,0.0,0.0,0.0,0.0,0.0,0.0,0.0,0.0,
4.932621999999996,0.0,0.0,-16901.0,0.0,0.0,0.0,0.0,0.25,4.477538604,3.6991882499999984,0.0,16600.0,0.0,0.0,0.0,0.0,0.125,1.722411933,1.2409424999999985,0.0,-1058.0,0.0,0.0,0.0,0.0,0.125,4.617919449,1.2350999999999985,0.0,6793.0,0.125,0.0,0.0,0.0,0.125,0.384521445,3.7184999999999984,0.003662108999999969,0.800000011920929,-0.3199999928474426,172.82000732421875,-0.00555419921875,0.014404296875,1.0128173828125,37.099998474121094,0.0,0.0,1.5277557373046875,2.2440032958984375,Closing,0.0,0.0,0.0,0.0,0.0,0.0,0.0,0.0,
4.989049999999995,0.0,0.0,-16901.0,0.0,0.0,0.0,0.0,0.25,4.476317901,3.6991882499999984,0.0,16600.0,0.0,0.0,0.0,0.0,0.125,1.722411933,1.2409424999999985,0.0,-1058.0,0.0,0.0,0.0,0.0,0.125,4.617919449,1.2350999999999985,0.0,6793.0,0.0,0.0,0.0,0.0,0.125,0.384521445,3.7184999999999984,-0.0012207029999999897,0.800000011920929,-0.3199999928474426,172.82000732421875,-0.00738525390625,0.01385498046875,1.017822265625,37.099998474121094,0.0,1.0,1.5277557373046875,2.2440032958984375,Closing,0.0,0.0,0.0,0.0,0.0,0.0,0.0,0.0,
5.042269999999997,0.0,0.0,-16901.0,0.0,0.0,0.0,0.0,0.25,4.477538604,3.6991882499999984,0.0,16600.0,0.0,0.0,0.0,0.0,0.125,1.723632636,1.2409424999999985,0.0,-1058.0,0.0,0.0,0.0,0.0,0.125,4.616698746,1.2350999999999985,0.0,6793.0,0.125,0.0,0.0,0.0,0.125,0.38940425700000003,3.7184999999999984,0.0,0.7900000214576721,-0.33000001311302185,172.82000732421875,-0.007568359375,0.01385498046875,1.023193359375,37.099998474121094,0.0,1.0,1.5277557373046875,2.2440032958984375,Closing,0.0,0.0,0.0,0.0,0.0,0.0,0.0,0.125,
5.093027999999999,0.0,0.0,-16901.0,0.0,0.0,0.0,0.0,0.25,4.476317901,3.6991882499999984,0.0,16600.0,0.0,0.0,0.0,0.0,0.125,1.723632636,1.2409424999999985,0.0,-1058.0,0.0,0.0,0.0,0.0,0.125,4.616698746,1.2350999999999985,0.0,6793.0,0.125,0.0,0.0,0.0,0.125,0.391845663,3.7184999999999984,-0.0012207029999999897,0.7799999713897705,-0.33000001311302185,172.82000732421875,-0.00421142578125,0.01171875,1.01123046875,37.099998474121094,0.0,-1.0,1.5277557373046875,2.2440032958984375,Closing,0.0,0.0,0.0,0.0,0.0,0.0,0.0,0.125,
5.147508999999999,0.0,0.0,-16901.0,0.0,0.0,0.0,0.0,0.25,4.477538604,3.6991882499999984,0.0,16600.0,0.0,0.0,0.0,0.0,0.125,1.722411933,1.2409424999999985,0.0,-1058.0,0.0,0.0,0.0,0.0,0.125,4.616698746,1.2350999999999985,0.0,6793.0,0.125,0.0,0.0,0.0,0.125,0.38818355400000004,3.7184999999999984,0.0024414059999999793,0.7699999809265137,-0.3199999928474426,172.82000732421875,-0.0057373046875,0.01434326171875,1.01483154296875,37.130001068115234,0.0,0.0,1.5277557373046875,2.2440032958984375,Closing,0.0,0.0,0.0,0.0,0.0,0.0,0.0,0.0,
5.2096069999999965,0.0,0.0,-16901.0,0.0,0.0,0.0,0.0,0.25,4.476317901,3.6991882499999984,0.0,16600.0,0.0,0.0,0.0,0.0,0.125,1.722411933,1.2409424999999985,0.0,-1058.0,0.0,0.0,0.0,0.0,0.125,4.616698746,1.2350999999999985,0.0,6793.0,0.125,0.0,0.0,0.0,0.125,0.38940425700000003,3.7184999999999984,-0.0024414059999999793,0.7799999713897705,-0.33000001311302185,172.82000732421875,-0.005615234375,0.01531982421875,1.01202392578125,37.130001068115234,0.0,0.0,1.5277557373046875,2.2440032958984375,Closing,0.0,0.0,0.0,0.0,0.0,0.0,0.0,0.0,
5.267840999999993,0.0,0.0,-16900.0,0.125,0.0,218.26772511005402,0.0,0.25,4.477538604,3.6991882499999984,0.0,16600.0,0.125,0.0,218.26772511005402,0.0,0.125,1.723632636,1.2409424999999985,0.0,-1058.0,0.125,0.0,-218.26772511005402,0.0,0.125,4.616698746,1.2350999999999985,0.0,6793.0,0.375,0.0,-218.26772511005402,0.0,0.125,0.384521445,3.7184999999999984,0.0,0.7799999713897705,-0.33000001311302185,172.82000732421875,-0.00262451171875,0.01116943359375,1.01519775390625,37.130001068115234,0.0,-3.0,1.5277557373046875,2.2440032958984375,Closing,0.0,0.0,0.0,0.0,0.0,0.0,0.0,0.125,
5.322462999999996,0.0,0.0,-16900.0,0.375,7.5,416.69290244579315,0.0,0.25,4.471435089,3.6991882499999984,0.0,16600.0,0.5,0.0,416.69290244579315,0.0,0.125,1.722411933,1.2409424999999985,0.0,-1058.0,0.375,-15.0,-416.69290244579315,0.0,0.125,4.616698746,1.2350999999999985,0.0,6793.0,0.375,-15.0,-416.69290244579315,0.0,0.125,0.38940425700000003,3.7184999999999984,0.0,0.7799999713897705,-0.33000001311302185,172.82000732421875,-0.00567626953125,0.0169677734375,1.0224609375,37.130001068115234,0.0,0.0,1.5277557373046875,2.2440032958984375,Closing,0.0,0.0,0.0,0.0,0.0,0.0,0.0,0.125,
5.380587999999996,0.0,0.0,-16880.0,1.25,97.5,615.1181173324585,0.0,0.25,4.471435089,3.6991882499999984,0.0,16621.0,1.0,60.0,615.1181173324585,0.0,0.125,1.723632636,1.2409424999999985,0.0,-1072.0,1.5,-60.0,-615.1181173324585,0.0,0.125,4.617919449,1.2350999999999985,0.0,6774.0,1.625,-105.0,-615.1181173324585,0.0,0.125,0.38940425700000003,3.7184999999999984,0.0,0.6000000238418579,-0.3400000035762787,172.8000030517578,0.022705078125,-0.22802734375,1.027099609375,37.130001068115234,0.0,-58.0,1.5276641845703125,2.244476318359375,Closing,0.0,0.0,0.0,0.0,0.0,0.0,0.0,0.125,
5.4348949999999965,0.0,0.0,-16880.0,2.25,142.5,793.700784444809,0.0,0.25,4.466552277,3.6991882499999984,0.0,16621.0,2.875,165.0,793.700784444809,0.0,0.125,1.723632636,1.2409424999999985,0.0,-1072.0,3.25,-97.5,-793.700784444809,0.0,0.125,4.617919449,1.2350999999999985,0.0,6774.0,2.875,-127.5,-793.700784444809,0.0,0.125,0.393066366,3.7184999999999984,0.0,0.3100000023841858,-0.33000001311302185,172.82000732421875,0.03076171875,-0.06982421875,1.1824951171875,37.130001068115234,0.0,-46.0,1.5270843505859375,2.2478179931640625,Closing,0.0,0.0,0.0,0.0,0.0,0.0,0.0,0.0,
5.492063000000002,0.0,0.0,-16880.0,3.875,135.0,853.2283151149749,0.0,0.25,4.464110871,3.6991882499999984,0.0,16644.0,5.375,142.5,853.2283151149749,0.0,0.125,1.722411933,1.2409424999999985,0.0,-1093.0,5.375,-120.0,-853.2283151149749,0.0,0.125,4.617919449,1.2350999999999985,0.0,6755.0,3.875,-112.5,-853.2283151149749,0.0,0.125,0.384521445,3.7184999999999984,0.0,0.07000000029802322,-0.2800000011920929,172.85000610351562,-0.0091552734375,-0.169189453125,1.044677734375,37.130001068115234,0.0,-17.0,1.5262908935546875,2.2519989013671875,Closing,0.0,0.0,0.0,0.0,0.0,0.0,0.0,0.0,
5.548889999999992,0.0,0.0,-16854.0,5.375,210.0,873.0709004402161,0.0,0.25,4.462890168,3.6991882499999984,0.0,16644.0,7.125,195.0,873.0709004402161,0.0,0.125,1.723632636,1.2409424999999985,0.0,-1093.0,6.5,-172.5,-873.0709004402161,0.0,0.125,4.616698746,1.2350999999999985,0.0,6755.0,6.375,-217.5,-873.0709004402161,0.0,0.125,0.38940425700000003,3.7184999999999984,0.0,-0.3499999940395355,-0.27000001072883606,172.8300018310547,0.00787353515625,-0.17364501953125,1.02252197265625,37.130001068115234,0.0,-33.0,1.5245208740234375,2.260223388671875,Closing,0.0,0.0,0.0,0.0,0.0,0.0,0.0,0.125,
5.6063379999999965,0.0,0.0,-16854.0,3.5,315.0,416.69290244579315,0.0,0.25,4.462890168,3.6991882499999984,0.0,16704.0,6.0,322.5,416.69290244579315,0.0,0.125,1.722411933,1.2409424999999985,0.0,-1150.0,5.125,-300.0,-416.69290244579315,0.0,0.125,4.616698746,1.2350999999999985,0.0,6700.0,4.375,-300.0,-416.69290244579315,0.0,0.125,0.38940425700000003,3.7184999999999984,0.0,-0.4699999988079071,-0.3400000035762787,172.8300018310547,-0.00390625,-0.03240966796875,1.06610107421875,37.130001068115234,0.0,-5.0,1.522705078125,2.271087646484375,Closing,0.0,0.0,0.0,0.0,0.0,0.0,0.0,0.125,
5.667053999999997,0.0,0.0,-16794.0,0.875,382.5,0.0,0.0,0.25,4.472655792,3.6991882499999984,0.0,16704.0,1.25,375.0,0.0,0.0,0.125,1.727294745,1.2409424999999985,0.0,-1150.0,0.75,-390.0,0.0,0.0,0.125,4.617919449,1.2350999999999985,0.0,6700.0,0.75,-360.0,0.0,0.0,0.125,0.38940425700000003,3.7184999999999984,0.0,-0.05000000074505806,-0.3499999940395355,172.83999633789062,-0.00787353515625,0.13787841796875,0.94378662109375,37.15999984741211,0.0,19.0,1.5229339599609375,2.2811431884765625,Closing,0.0,0.0,0.0,0.0,0.0,0.0,0.0,0.0,
5.7232839999999925,0.0,0.0,-16794.0,0.0,285.0,0.0,0.0,0.25,4.481200713000001,3.6991882499999984,0.013427732999999442,16704.0,0.0,262.5,0.0,0.0,0.125,1.727294745,1.2409424999999985,0.004882811999999959,-1196.0,0.0,-345.0,0.0,0.0,0.125,4.611815934,1.2350999999999985,0.0,6668.0,0.0,-247.5,0.0,0.0,0.125,0.384521445,3.7184999999999984,0.0,0.38999998569488525,-0.2800000011920929,172.74000549316406,0.0482177734375,0.27325439453125,1.06146240234375,37.15999984741211,0.0,-19.0,1.5237274169921875,2.2879180908203125,Closing,0.0,0.0,0.0,0.0,0.0,0.0,0.0,0.0,
5.777385999999991,0.0,0.0,-16772.0,0.0,105.0,0.0,0.0,0.25,4.47998001,3.6991882499999984,0.0,16732.0,0.0,165.0,0.0,0.0,0.125,1.727294745,1.2409424999999985,0.0,-1196.0,0.0,-195.0,0.0,0.0,0.125,4.6105952310000005,1.2350999999999985,0.0,6668.0,0.125,-202.5,0.0,0.0,0.125,0.38940425700000003,3.7184999999999984,-0.004882811999999959,0.5400000214576721,-0.10000000149011612,172.63999938964844,0.00579833984375,0.085693359375,1.08441162109375,37.15999984741211,0.0,1.0,1.5248260498046875,2.2917938232421875,Closing,0.0,0.0,0.0,0.0,0.0,0.0,0.0,0.0,
5.834692000000003,0.0,0.0,-16772.0,0.0,172.5,0.0,0.0,0.25,4.481200713000001,3.6991882499999984,0.0,16732.0,0.0,292.5,0.0,0.0,0.125,1.727294745,1.2409424999999985,0.0,-1196.0,0.0,-157.5,0.0,0.0,0.125,4.6105952310000005,1.2350999999999985,0.0,6668.0,0.125,-262.5,0.0,0.0,0.125,0.38940425700000003,3.7184999999999984,0.004882811999999959,0.5699999928474426,-0.03999999910593033,172.64999389648438,0.015869140625,0.1710205078125,0.83203125,37.15999984741211,0.0,4.0,1.5248260498046875,2.2943878173828125,Closing,0.0,0.0,0.0,0.0,0.0,0.0,0.0,0.125,
5.89157,0.0,0.0,-16732.0,0.0,240.0,0.0,0.0,0.25,4.47998001,3.6991882499999984,0.0,16771.0,0.0,187.5,0.0,0.0,0.125,1.750488102,1.2409424999999985,0.004882811999999959,-1221.0,0.0,-157.5,0.0,0.0,0.125,4.611815934,1.2350999999999985,0.0012207029999995456,6628.0,0.125,-195.0,0.0,0.0,0.125,0.38940425700000003,3.7184999999999984,0.0,0.75,-0.15000000596046448,172.77000427246094,0.00274658203125,0.07470703125,0.9794921875,37.15999984741211,0.0,2.0,1.52490234375,2.295745849609375,Closing,0.0,0.0,0.0,0.0,0.0,0.0,0.0,0.0,
5.9488930000000035,0.0,0.0,-16732.0,0.0,180.0,0.0,0.0,0.25,4.47998001,3.6991882499999984,0.0,16771.0,0.0,195.0,0.0,0.0,0.125,1.77001935,1.2409424999999985,0.023193357000000248,-1221.0,0.0,-135.0,0.0,0.0,0.125,4.611815934,1.2350999999999985,0.0,6606.0,0.125,-150.0,0.0,0.0,0.125,0.38940425700000003,3.7184999999999984,0.0,0.949999988079071,-0.25999999046325684,172.8000030517578,-0.00115966796875,0.10528564453125,0.966064453125,37.15999984741211,0.0,7.0,1.5252227783203125,2.2953948974609375,Closing,0.0,0.0,0.0,0.0,0.0,0.0,0.0,0.125,
6.016590999999993,0.0,0.0,-16710.0,0.0,127.5,0.0,0.0,0.25,4.481200713000001,3.6991882499999984,0.0,16798.0,0.0,105.0,0.0,0.0,0.125,1.77001935,1.2409424999999985,0.0,-1243.0,0.0,-112.5,0.0,0.0,0.125,4.611815934,1.2350999999999985,0.0,6606.0,0.125,-112.5,0.0,0.0,0.125,0.38940425700000003,3.7184999999999984,0.0,1.100000023841858,-0.30000001192092896,172.75,0.008544921875,0.112060546875,0.95947265625,37.15999984741211,0.0,-1.0,1.5257415771484375,2.2939453125,Closing,0.0,0.0,0.0,0.0,0.0,0.0,0.0,0.0,
6.077181000000004,0.0,0.0,-16710.0,0.0,60.0,0.0,0.0,0.25,4.47998001,3.6991882499999984,0.0,16798.0,0.0,52.5,0.0,0.0,0.125,1.77001935,1.2409424999999985,0.0012207029999999897,-1243.0,0.0,-75.0,0.0,0.0,0.125,4.613036637,1.2350999999999985,0.0,6606.0,0.125,-52.5,0.0,0.0,0.125,0.38940425700000003,3.7184999999999984,0.0,1.340000033378601,-0.2800000011920929,172.77999877929688,0.0037841796875,0.10498046875,0.9801025390625,37.15999984741211,0.0,1.0,1.5257415771484375,2.290283203125,Closing,0.0,0.0,0.0,0.0,0.0,0.0,0.0,0.0,
6.131114999999998,0.0,0.0,-16706.0,0.0,15.0,0.0,0.0,0.25,4.481200713000001,3.6991882499999984,0.0,16801.0,0.0,7.5,0.0,0.0,0.125,1.77001935,1.2409424999999985,0.0,-1247.0,0.0,-7.5,0.0,0.0,0.125,4.611815934,1.2350999999999985,0.0,6600.0,0.125,0.0,0.0,0.0,0.125,0.38940425700000003,3.7184999999999984,0.0,1.399999976158142,-0.30000001192092896,172.7899932861328,-0.01531982421875,0.0184326171875,1.02532958984375,37.130001068115234,0.0,5.0,1.5257415771484375,2.2879180908203125,Closing,0.0,0.0,0.0,0.0,0.0,0.0,0.0,0.125,
6.190299999999995,0.0,0.0,-16706.0,0.0,0.0,0.0,0.0,0.25,4.47998001,3.6991882499999984,0.0,16801.0,0.0,0.0,0.0,0.0,0.125,1.77001935,1.2409424999999985,0.0,-1247.0,0.0,0.0,0.0,0.0,0.125,4.611815934,1.2350999999999985,-0.0012207029999995456,6600.0,0.125,0.0,0.0,0.0,0.125,0.38818355400000004,3.7184999999999984,0.0,1.350000023841858,-0.30000001192092896,172.77999877929688,-8.544921875E-4,-0.00714111328125,1.0247802734375,37.130001068115234,0.0,-8.0,1.5257415771484375,2.2881317138671875,Closing,0.0,0.0,0.0,0.0,0.0,0.0,0.0,0.0,
6.248749999999993,0.0,0.0,-16706.0,0.0,0.0,0.0,0.0,0.25,4.478759307,3.6991882499999984,0.0,16801.0,0.0,0.0,0.0,0.0,0.125,1.771240053,1.2409424999999985,0.0,-1247.0,0.0,0.0,0.0,0.0,0.125,4.613036637,1.2350999999999985,0.0012207029999995456,6600.0,0.125,0.0,0.0,0.0,0.125,0.38940425700000003,3.7184999999999984,0.0,1.2400000095367432,-0.2800000011920929,172.7899932861328,-0.0128173828125,-0.01519775390625,1.0408935546875,37.130001068115234,0.0,2.0,1.5257415771484375,2.2890472412109375,Closing,0.0,0.0,0.0,0.0,0.0,0.0,0.0,0.125,
6.2949040000000025,0.0,0.0,-16706.0,0.0,0.0,0.0,0.0,0.25,4.481200713000001,3.6991882499999984,0.0,16801.0,0.0,0.0,0.0,0.0,0.125,1.77001935,1.2409424999999985,0.0,-1247.0,0.0,0.0,0.0,0.0,0.125,4.611815934,1.2350999999999985,0.0,6600.0,0.125,0.0,0.0,0.0,0.125,0.38940425700000003,3.7184999999999984,0.0,1.1699999570846558,-0.30000001192092896,172.7899932861328,-0.0113525390625,0.00787353515625,1.027099609375,37.130001068115234,0.0,4.0,1.5257415771484375,2.2907562255859375,Closing,0.0,0.0,0.0,0.0,0.0,0.0,0.0,0.125,
6.351253999999994,0.0,0.0,-16706.0,0.0,0.0,0.0,0.0,0.25,4.47998001,3.6991882499999984,0.0,16801.0,0.0,0.0,0.0,0.0,0.125,1.77001935,1.2409424999999985,0.0,-1247.0,0.0,0.0,0.0,0.0,0.125,4.6105952310000005,1.2350999999999985,0.0,6600.0,0.125,0.0,0.0,0.0,0.125,0.38940425700000003,3.7184999999999984,0.0,1.149999976158142,-0.28999999165534973,172.7899932861328,-3.662109375E-4,0.0194091796875,1.01812744140625,37.130001068115234,0.0,-5.0,1.5257415771484375,2.2907562255859375,Closing,0.0,0.0,0.0,0.0,0.0,0.0,0.0,0.125,
6.416374000000004,0.0,0.0,-16706.0,0.0,0.0,0.0,0.0,0.25,4.482421416,3.6991882499999984,0.0,16801.0,0.0,0.0,0.0,0.0,0.125,1.771240053,1.2409424999999985,0.0,-1247.0,0.0,0.0,0.0,0.0,0.125,4.611815934,1.2350999999999985,0.0,6600.0,0.125,0.0,0.0,0.0,0.125,0.38940425700000003,3.7184999999999984,0.0,1.1699999570846558,-0.28999999165534973,172.7899932861328,-0.01373291015625,0.0350341796875,1.0177001953125,37.130001068115234,0.0,10.0,1.5257415771484375,2.2907562255859375,Closing,0.0,0.0,0.0,0.0,0.0,0.0,0.0,0.0,
6.481688999999991,0.0,0.0,-16706.0,0.0,0.0,0.0,0.0,0.25,4.481200713000001,3.6991882499999984,0.0,16801.0,0.0,0.0,0.0,0.0,0.125,1.77001935,1.2409424999999985,0.0,-1247.0,0.0,0.0,0.0,0.0,0.125,4.611815934,1.2350999999999985,0.0,6600.0,0.125,0.0,0.0,0.0,0.125,0.38940425700000003,3.7184999999999984,0.0,1.190000057220459,-0.30000001192092896,172.7899932861328,-0.00494384765625,0.0234375,1.01519775390625,37.130001068115234,0.0,0.0,1.5257415771484375,2.2907562255859375,Closing,0.0,0.0,0.0,0.0,0.0,0.0,0.0,0.0,
6.544067000000003,0.0,0.0,-16706.0,0.0,0.0,0.0,0.0,0.25,4.481200713000001,3.6991882499999984,0.0,16801.0,0.0,0.0,0.0,0.0,0.125,1.77001935,1.2409424999999985,0.0,-1247.0,0.0,0.0,0.0,0.0,0.125,4.611815934,1.2350999999999985,0.0,6600.0,0.125,0.0,0.0,0.0,0.125,0.38818355400000004,3.7184999999999984,0.0,1.190000057220459,-0.28999999165534973,172.7899932861328,-0.0103759765625,0.0087890625,1.02008056640625,37.130001068115234,0.0,3.0,1.5257415771484375,2.2907562255859375,Closing,0.0,0.0,0.0,0.0,0.0,0.0,0.0,0.125,
6.602688000000002,0.0,0.0,-16706.0,0.0,0.0,0.0,0.0,0.25,4.481200713000001,3.6991882499999984,0.0,16801.0,0.0,0.0,0.0,0.0,0.125,1.77001935,1.2409424999999985,0.0,-1247.0,0.0,0.0,0.0,0.0,0.125,4.611815934,1.2350999999999985,0.0,6600.0,0.125,0.0,0.0,0.0,0.125,0.38940425700000003,3.7184999999999984,0.0,1.149999976158142,-0.30000001192092896,172.7899932861328,-0.005615234375,0.0067138671875,1.02081298828125,37.130001068115234,0.0,-1.0,1.5257415771484375,2.2907562255859375,Closing,0.0,0.0,0.0,0.0,0.0,0.0,0.0,0.0,
6.658586999999992,0.0,0.0,-16706.0,0.0,0.0,0.0,0.0,0.25,4.482421416,3.6991882499999984,0.0,16801.0,0.0,0.0,0.0,0.0,0.125,1.77001935,1.2409424999999985,0.0,-1247.0,0.0,0.0,0.0,0.0,0.125,4.611815934,1.2350999999999985,0.0,6600.0,0.125,0.0,0.0,0.0,0.125,0.38940425700000003,3.7184999999999984,0.0,1.1299999952316284,-0.30000001192092896,172.77999877929688,-0.00616455078125,0.02056884765625,1.01690673828125,37.06999969482422,0.0,0.0,1.5257415771484375,2.2907562255859375,Closing,0.0,0.0,0.0,0.0,0.0,0.0,0.0,0.0,
6.721419000000002,0.0,0.0,-16706.0,0.0,0.0,0.0,0.0,0.25,4.478759307,3.6991882499999984,0.0,16801.0,0.0,0.0,0.0,0.0,0.125,1.77001935,1.2409424999999985,0.0,-1247.0,0.0,0.0,0.0,0.0,0.125,4.611815934,1.2350999999999985,0.0,6600.0,0.125,0.0,0.0,0.0,0.125,0.38940425700000003,3.7184999999999984,0.0,1.1299999952316284,-0.30000001192092896,172.7899932861328,-0.005126953125,0.022216796875,1.01922607421875,37.06999969482422,0.0,0.0,1.5257415771484375,2.2907562255859375,Closing,0.0,0.0,0.0,0.0,0.0,0.0,0.0,0.0,
6.7814699999999934,0.0,0.0,-16706.0,0.0,0.0,0.0,0.0,0.25,4.481200713000001,3.6991882499999984,0.0,16801.0,0.0,0.0,0.0,0.0,0.125,1.77001935,1.2409424999999985,0.0,-1247.0,0.0,0.0,0.0,0.0,0.125,4.611815934,1.2350999999999985,0.0,6600.0,0.125,0.0,0.0,0.0,0.125,0.38940425700000003,3.7184999999999984,0.0,1.1299999952316284,-0.30000001192092896,172.7899932861328,-0.00384521484375,0.01519775390625,1.01727294921875,37.06999969482422,0.0,-2.0,1.5257415771484375,2.2907562255859375,Closing,0.0,0.0,0.0,0.0,0.0,0.0,0.0,0.125,
6.845973999999995,0.0,0.0,-16706.0,0.0,0.0,0.0,0.0,0.25,4.47998001,3.6991882499999984,0.0,16801.0,0.0,0.0,0.0,0.0,0.125,1.77001935,1.2409424999999985,0.0,-1247.0,0.0,0.0,0.0,0.0,0.125,4.6105952310000005,1.2350999999999985,-0.0012207029999995456,6600.0,0.125,0.0,0.0,0.0,0.125,0.38818355400000004,3.7184999999999984,0.0,1.1100000143051147,-0.30000001192092896,172.8000030517578,-0.007568359375,0.01318359375,1.02215576171875,37.06999969482422,0.0,1.0,1.5257415771484375,2.2907562255859375,Closing,0.0,0.0,0.0,0.0,0.0,0.0,0.0,0.0,
