Time,ClimberA1,ClimberA2,FRpos,FRCurrent,FRspeed,FRsetpoint,FRApos,FRACurrent,FREncpos,FREncSetpoint,FREncSpeed,FLpos,FLCurrent,FLspeed,FLsetpoint,FLApos,FLACurrent,FLEncpos,FLEncSetpoint,FLEncSpeed,BRpos,BRCurrent,BRspeed,BRsetpoint,BRApos,BRACurrent,BREncpos,BREncSetpoint,BREncSpeed,BLpos,BLCurrent,BLspeed,BLsetpoint,BLApos,BLACurrent,BLEncpos,BLEncSetpoint,BLEncSpeed,navx_Pitch,navx_Roll,navx_Yaw,navx_XAcc,navx_YAcc,navx_ZAcc,navx_Temp,navx_Bar,navx_Alt,navx_XDis,navx_YDis,GearPlacerState,ShootOutputV,ShootOutputCurrent,ShootEncPos,ShootEncVelocity,ShootSpeed,ShootSetpoint,CarouselSetpoint,CarouselCurrent,
0.23480199999999968,0.0,0.0,-5256.0,0.0,0.0,0.0,0.0,0.125,4.522704615,0.01,0.0,-1897.0,0.0,0.0,0.0,0.0,0.125,4.207763241,0.01,0.0,-830.0,0.0,0.0,0.0,0.0,0.0,2.1142575960000003,0.01,0.0,3689.0,0.0,0.0,0.0,0.0,0.125,0.36987300900000003,0.01,0.0,0.6399999856948853,-0.49000000953674316,127.48999786376953,-0.00787353515625,0.01141357421875,1.01861572265625,37.33000183105469,0.0,0.0,0.139190673828125,-0.1777496337890625,Waiting,0.0,0.0,0.0,0.0,0.0,0.0,0.0,0.125,
0.35256099999999785,0.0,0.0,-5256.0,0.0,0.0,0.0,0.0,0.125,4.523925318,0.01,0.0,-1897.0,0.0,0.0,-0.0,0.0,0.125,4.206542538,0.01,0.0,-830.0,0.0,0.0,0.0,0.0,0.0,2.1154782990000003,0.01,0.0,3689.0,0.0,0.0,-0.0,0.0,0.125,0.36987300900000003,0.01,0.0,0.6299999952316284,-0.5,127.48999786376953,-0.0118408203125,0.01007080078125,1.0211181640625,37.33000183105469,0.0,0.0,0.139190673828125,-0.1777496337890625,Closing,0.0,0.0,0.0,0.0,0.0,0.0,0.0,0.0,
0.38398899999999775,0.0,0.0,-5256.0,0.0,0.0,0.0,0.0,0.125,4.532470239,0.01,3.711483912,-1897.0,0.0,0.0,-0.0,0.0,0.125,4.2333980040000005,0.01,3.7003125380000004,-830.0,0.0,0.0,0.0,0.0,3.25,2.138671656,0.01,3.7046575960000006,3689.0,0.0,0.0,-0.0,0.0,3.125,0.38940425700000003,0.01,3.707873009,0.6299999952316284,-0.5,127.5,-0.009521484375,0.01123046875,1.01885986328125,37.33000183105469,0.0,0.0,0.139190673828125,-0.1777496337890625,Closing,0.0,0.0,0.0,0.0,0.0,0.0,0.0,0.0,
0.4078710000000028,0.0,0.0,-5256.0,0.0,0.0,0.0,0.0,4.0,4.6582026480000005,0.01,3.711483912,-1897.0,0.0,0.0,-0.0,0.0,7.625,4.378661661000001,0.01,3.7003125380000004,-830.0,0.0,0.0,0.0,0.0,5.75,2.2790525010000002,0.01,3.7046575960000006,3689.0,0.0,0.0,-0.0,0.0,6.75,0.523681587,0.01,3.707873009,0.6299999952316284,-0.5099999904632568,127.5,-0.018798828125,0.01214599609375,1.0218505859375,37.33000183105469,0.0,6.0,0.139190673828125,-0.1777496337890625,Closing,0.0,0.0,0.0,0.0,0.0,0.0,0.0,0.0,
0.4318389999999963,0.0,0.0,-5256.0,0.0,0.0,0.0,0.0,6.5,4.824218256,0.01,0.07202147700000072,-1897.0,0.0,0.0,-0.0,0.0,8.125,4.5581050020000005,0.01,0.0988769430000005,-830.0,0.0,0.0,0.0,0.0,6.5,2.473144278,0.01,0.06958007099999985,3689.0,0.0,0.0,-0.0,0.0,7.625,0.727538988,0.01,0.05737304099999996,0.6000000238418579,-0.5099999904632568,127.5,-0.0308837890625,0.0169677734375,1.03961181640625,37.33000183105469,0.0,17.0,0.139251708984375,-0.1777496337890625,Closing,0.0,0.0,0.0,0.0,0.0,0.0,0.0,0.0,
0.4532970000000023,0.0,0.0,-5256.0,0.0,0.0,0.0,0.0,3.625,0.058593744,0.01,0.07202147700000072,-1897.0,0.0,0.0,-0.0,0.0,3.125,4.737548343,0.01,0.0988769430000005,-830.0,0.0,0.0,0.0,0.0,4.25,2.667236055,0.01,0.06958007099999985,3689.0,0.0,0.0,-0.0,0.0,5.875,0.9191893590000001,0.01,0.05737304099999996,0.6000000238418579,-0.5699999928474426,127.55000305175781,-0.03411865234375,0.02276611328125,1.04571533203125,37.33000183105469,0.0,23.0,0.1394195556640625,-0.17767333984375,Closing,0.0,0.0,0.0,0.0,0.0,0.0,0.0,0.0,
0.5054220000000023,0.0,0.0,-5256.0,0.0,0.0,0.0,0.0,1.5,0.405273396,0.01,0.330810512999999,-1897.0,0.0,0.0,-0.0,0.0,1.5,0.159912093,0.01,0.3234862949999995,-830.0,0.0,0.0,0.0,0.0,1.625,3.0078121920000003,0.01,0.33447262199999983,3689.0,0.0,0.0,-0.0,0.0,1.875,1.2390135450000002,0.01,0.3210448889999995,0.6299999952316284,-0.5400000214576721,127.68000030517578,0.00616455078125,-0.01959228515625,0.95135498046875,37.31999969482422,0.0,-33.0,0.1397552490234375,-0.177581787109375,Closing,0.0,0.0,0.0,0.0,0.0,0.0,0.0,0.0,
0.5313189999999995,0.0,0.0,-5256.0,0.0,0.0,0.0,0.0,1.375,0.572509707,0.01,0.47546434699999995,-1897.0,0.0,0.0,-0.0,0.0,1.25,0.344238246,0.01,-4.600829607,-830.0,0.0,0.0,0.0,0.0,1.25,3.197021157,0.01,0.5261229929999995,3689.0,0.0,0.0,-0.0,0.0,1.625,1.4489744610000002,0.01,0.5236815870000004,0.6700000166893005,-0.5199999809265137,127.77999877929688,0.0167236328125,0.0960693359375,1.057861328125,37.31999969482422,0.0,49.0,0.1399688720703125,-0.177734375,Closing,0.0,0.0,0.0,0.0,0.0,0.0,0.0,0.0,
0.5546099999999969,0.0,0.0,-5256.0,0.0,0.0,0.0,0.0,0.875,0.664062432,0.01,0.47546434699999995,-1897.0,0.0,0.0,-0.0,0.0,0.75,0.46386714,0.01,-4.600829607,-830.0,0.0,0.0,0.0,0.0,0.875,3.2702633370000003,0.01,0.5261229929999995,3689.0,0.0,0.0,-0.0,0.0,1.25,1.5258787500000002,0.01,0.5236815870000004,0.7099999785423279,-0.47999998927116394,127.81999969482422,-0.01019287109375,0.03277587890625,0.975830078125,37.31999969482422,0.0,17.0,0.140167236328125,-0.17791748046875,Closing,0.0,0.0,0.0,0.0,0.0,0.0,0.0,0.125,
0.5816720000000023,0.0,0.0,-5256.0,0.0,0.0,0.0,0.0,0.625,0.7360839090000001,0.01,0.2258300550000003,-1897.0,0.0,0.0,-0.0,0.0,0.5,0.552978459,0.01,0.3735351179999995,-830.0,0.0,0.0,0.0,0.0,0.375,3.330077784,0.01,0.2380370850000002,3689.0,0.0,0.0,-0.0,0.0,0.75,1.594238118,0.01,0.19042966800000016,0.699999988079071,-0.47999998927116394,127.87999725341797,-0.02032470703125,0.01519775390625,1.0205078125,37.31999969482422,0.0,9.0,0.140167236328125,-0.1783447265625,Closing,0.0,0.0,0.0,0.0,0.0,0.0,0.0,0.0,
0.6074609999999994,0.0,0.0,-5256.0,0.0,0.0,0.0,0.0,0.375,0.754394454,0.01,0.2258300550000003,-1897.0,0.0,0.0,-0.0,0.0,0.5,0.576171816,0.01,0.3735351179999995,-830.0,0.0,0.0,0.0,0.0,0.125,3.34472622,0.01,0.2380370850000002,3689.0,0.0,0.0,-0.0,0.0,0.375,1.62353499,0.01,0.19042966800000016,0.6899999976158142,-0.44999998807907104,127.87000274658203,0.00372314453125,-0.035888671875,1.0015869140625,37.31999969482422,0.0,-45.0,0.1400909423828125,-0.1787567138671875,Closing,0.0,0.0,0.0,0.0,0.0,0.0,0.0,0.0,
0.6315719999999965,0.0,0.0,-5256.0,0.0,0.0,0.0,0.0,0.375,0.7629393750000001,0.01,0.051269525999999566,-1897.0,0.0,0.0,-0.0,0.0,0.25,0.58593744,0.01,0.15991209299999998,-830.0,0.0,0.0,0.0,0.0,0.125,3.343505517,0.01,0.05981444699999994,3689.0,0.0,0.0,-0.0,0.0,0.375,1.641845535,0.01,0.13549803300000018,0.6700000166893005,-0.46000000834465027,127.83999633789062,-0.01214599609375,-7.9345703125E-4,1.04119873046875,37.31999969482422,0.0,14.0,0.1399993896484375,-0.179107666015625,Closing,0.0,0.0,0.0,0.0,0.0,0.0,0.0,0.125,
0.654206000000002,0.0,0.0,-5256.0,0.0,0.0,0.0,0.0,0.375,0.7641600780000001,0.01,0.051269525999999566,-1897.0,0.0,0.0,-0.0,0.0,0.25,0.584716737,0.01,0.15991209299999998,-830.0,0.0,0.0,0.0,0.0,0.0,3.343505517,0.01,0.05981444699999994,3689.0,0.0,0.0,-0.0,0.0,0.375,1.641845535,0.01,0.13549803300000018,0.6600000262260437,-0.4699999988079071,127.80000305175781,-0.0103759765625,0.0108642578125,1.0450439453125,37.31999969482422,0.0,0.0,0.1399993896484375,-0.179107666015625,Closing,0.0,0.0,0.0,0.0,0.0,0.0,0.0,0.125,
0.6905479999999988,0.0,0.0,-5256.0,0.0,0.0,0.0,0.0,0.375,0.7641600780000001,0.01,0.019531248000000723,-1897.0,0.0,0.0,-0.0,0.0,0.25,0.571289004,0.01,0.023193357000000248,-830.0,0.0,0.0,0.0,0.0,0.0,3.343505517,0.01,0.0012207030000004337,3689.0,0.0,0.0,-0.0,0.0,0.125,1.627197099,0.01,-4.915275395,0.6700000166893005,-0.46000000834465027,127.77999877929688,-0.01336669921875,0.0220947265625,1.002197265625,37.31999969482422,0.0,23.0,0.1400146484375,-0.179107666015625,Closing,0.0,0.0,0.0,0.0,0.0,0.0,0.0,0.0,
0.7150719999999965,0.0,0.0,-5256.0,0.0,0.0,0.0,0.0,0.375,0.7641600780000001,0.01,0.019531248000000723,-1897.0,0.0,0.0,-0.0,0.0,0.25,0.5566405680000001,0.01,-0.019531247999999835,-830.0,0.0,0.0,0.0,0.0,0.0,3.343505517,0.01,0.0,3689.0,0.0,0.0,-0.0,0.0,0.125,1.6088865540000001,0.01,4.939689455,0.6899999976158142,-0.49000000953674316,127.80999755859375,-0.0125732421875,0.02484130859375,1.00091552734375,37.31999969482422,0.0,12.0,0.1400604248046875,-0.179107666015625,Closing,0.0,0.0,0.0,0.0,0.0,0.0,0.0,0.0,
0.7431839999999975,0.0,0.0,-5256.0,0.0,0.0,0.0,0.0,0.25,0.7653807810000001,0.01,0.0,-1897.0,0.0,0.0,-0.0,0.0,0.25,0.5419921320000001,0.01,-0.019531247999999835,-830.0,0.0,0.0,0.0,0.0,0.0,3.343505517,0.01,0.0,3689.0,0.0,0.0,-0.0,0.0,0.125,1.594238118,0.01,4.939689455,0.6899999976158142,-0.49000000953674316,127.83000183105469,-0.008544921875,0.0101318359375,1.04962158203125,37.31999969482422,0.0,-2.0,0.1401214599609375,-0.179107666015625,Closing,0.0,0.0,0.0,0.0,0.0,0.0,0.0,0.0,
0.7682139999999963,0.0,0.0,-5256.0,0.0,0.0,0.0,0.0,0.25,0.7641600780000001,0.01,0.0,-1897.0,0.0,0.0,-0.0,0.0,0.25,0.532226508,0.01,-0.019531247999999835,-830.0,0.0,0.0,0.0,0.0,0.0,3.343505517,0.01,-0.0012207030000004337,3689.0,0.0,0.0,-0.0,0.0,0.125,1.5795896820000002,0.01,-0.029296871999999752,0.6700000166893005,-0.49000000953674316,127.83000183105469,-0.0081787109375,0.00146484375,0.97406005859375,37.31999969482422,0.0,-8.0,0.1401214599609375,-0.179107666015625,Closing,0.0,0.0,0.0,0.0,0.0,0.0,0.0,0.125,
0.7930669999999991,0.0,0.0,-5256.0,0.0,0.0,0.0,0.0,0.25,0.7641600780000001,0.01,0.0,-1897.0,0.0,0.0,-0.0,0.0,0.125,0.522460884,0.01,-0.029296871999999752,-830.0,0.0,0.0,0.0,0.0,0.0,3.338622705,0.01,-0.0012207030000004337,3689.0,0.0,0.0,-0.0,0.0,0.25,1.57470687,0.01,-0.029296871999999752,0.6600000262260437,-0.49000000953674316,127.81999969482422,-0.00616455078125,0.0089111328125,0.99420166015625,37.31999969482422,0.0,-3.0,0.1401214599609375,-0.179107666015625,Closing,0.0,0.0,0.0,0.0,0.0,0.0,0.0,0.0,
0.8165980000000018,0.0,0.0,-5256.0,0.0,0.0,0.0,0.0,0.25,0.7641600780000001,0.01,0.0,-1897.0,0.0,0.0,-0.0,0.0,0.125,0.518798775,0.01,-0.01831054500000029,-830.0,0.0,0.0,0.0,0.0,0.0,3.339843408,0.01,-0.003662108999999525,3689.0,0.0,0.0,-0.0,0.0,0.25,1.57470687,0.01,-0.01831054500000029,0.6700000166893005,-0.5,127.80999755859375,-0.00872802734375,0.02117919921875,1.04052734375,37.31999969482422,0.0,6.0,0.1401214599609375,-0.179107666015625,Closing,0.0,0.0,0.0,0.0,0.0,0.0,0.0,0.0,
0.8521599999999998,0.0,0.0,-5256.0,0.0,0.0,0.0,0.0,0.25,0.7641600780000001,0.01,0.0,-1897.0,0.0,0.0,-0.0,0.0,0.0,0.51269526,0.01,-0.01831054500000029,-830.0,0.0,0.0,0.0,0.0,0.0,3.338622705,0.01,-0.003662108999999525,3689.0,0.0,0.0,-0.0,0.0,0.25,1.5759275730000002,0.01,-0.01831054500000029,0.6800000071525574,-0.49000000953674316,127.80000305175781,-0.00897216796875,0.01983642578125,1.01177978515625,37.31999969482422,0.0,6.0,0.1401214599609375,-0.179107666015625,Closing,0.0,0.0,0.0,0.0,0.0,0.0,0.0,0.0,
0.8987400000000016,0.0,0.0,-5256.0,0.0,0.0,0.0,0.0,0.25,0.7653807810000001,0.01,0.0,-1897.0,0.0,0.0,-0.0,0.0,0.0,0.51269526,0.01,-0.004882811999999959,-830.0,0.0,0.0,0.0,0.0,0.0,3.336181299,0.01,0.0,3689.0,0.125,0.0,-0.0,0.0,0.25,1.5795896820000002,0.01,0.004882811999999959,0.6800000071525574,-0.49000000953674316,127.80999755859375,-0.010498046875,0.00311279296875,1.01806640625,37.31999969482422,0.0,-6.0,0.1401214599609375,-0.179107666015625,Closing,0.0,0.0,0.0,0.0,0.0,0.0,0.0,0.0,
0.921994999999999,0.0,0.0,-5256.0,0.0,0.0,0.0,0.0,0.25,0.7641600780000001,0.01,0.0,-1897.0,0.0,0.0,-0.0,0.0,0.0,0.51269526,0.01,0.0,-830.0,0.0,0.0,0.0,0.0,0.0,3.337402002,0.01,0.0,3689.0,0.0,0.0,-0.0,0.0,0.25,1.5795896820000002,0.01,0.0,0.6700000166893005,-0.5,127.81999969482422,-0.0086669921875,0.00164794921875,1.01544189453125,37.31999969482422,0.0,-8.0,0.1401214599609375,-0.179107666015625,Closing,0.0,0.0,0.0,0.0,0.0,0.0,0.0,0.0,
0.9455189999999966,0.0,0.0,-5256.0,0.0,0.0,0.0,0.0,0.25,0.7641600780000001,0.01,0.0,-1897.0,0.0,0.0,-0.0,0.0,0.0,0.51269526,0.01,0.0,-830.0,0.0,0.0,0.0,0.0,0.0,3.338622705,0.01,0.0,3689.0,0.0,0.0,-0.0,0.0,0.25,1.5771482760000002,0.01,0.0,0.6700000166893005,-0.5,127.81999969482422,-0.0086669921875,0.00164794921875,1.01544189453125,37.31999969482422,0.0,-8.0,0.1401214599609375,-0.179107666015625,Closing,0.0,0.0,0.0,0.0,0.0,0.0,0.0,0.125,
0.966492000000002,0.0,0.0,-5256.0,0.0,0.0,0.0,0.0,0.25,0.7641600780000001,0.01,0.0,-1897.0,0.0,0.0,-0.0,0.0,0.0,0.51269526,0.01,0.0,-830.0,0.0,0.0,0.0,0.0,0.0,3.339843408,0.01,0.0,3689.0,0.0,0.0,-0.0,0.0,0.25,1.5795896820000002,0.01,-0.0012207029999995456,0.6600000262260437,-0.49000000953674316,127.80000305175781,-0.008544921875,0.02008056640625,1.02020263671875,37.31999969482422,0.0,6.0,0.1401214599609375,-0.179107666015625,Closing,0.0,0.0,0.0,0.0,0.0,0.0,0.0,0.0,
1.007643,0.0,0.0,-5256.0,0.0,0.0,0.0,0.0,0.25,0.7653807810000001,0.01,0.0,-1897.0,0.0,0.0,-0.0,0.0,0.0,0.51269526,0.01,0.0,-830.0,0.0,0.0,0.0,0.0,0.0,3.341064111,0.01,0.0,3689.0,0.0,0.0,-0.0,0.0,0.25,1.5795896820000002,0.01,-0.0012207029999995456,0.6700000166893005,-0.49000000953674316,127.80999755859375,-0.00384521484375,0.018798828125,0.99957275390625,37.31999969482422,0.0,2.0,0.1401214599609375,-0.179107666015625,Closing,0.0,0.0,0.0,0.0,0.0,0.0,0.0,0.0,
1.032528000000002,0.0,0.0,-5256.0,0.0,0.0,0.0,0.0,0.25,0.7653807810000001,0.01,0.0,-1897.0,0.0,0.0,-0.0,0.0,0.0,0.51269526,0.01,0.0,-830.0,0.0,0.0,0.0,0.0,0.0,3.338622705,0.01,0.0,3689.0,0.0,0.0,-0.0,0.0,0.25,1.5795896820000002,0.01,0.0,0.6800000071525574,-0.47999998927116394,127.80999755859375,-0.00933837890625,0.00384521484375,1.01324462890625,37.31999969482422,0.0,-6.0,0.1401214599609375,-0.179107666015625,Closing,0.0,0.0,0.0,0.0,0.0,0.0,0.0,0.0,
1.0565519999999997,0.0,0.0,-5256.0,0.0,0.0,0.0,0.0,0.25,0.7653807810000001,0.01,0.0,-1897.0,0.0,0.0,-0.0,0.0,0.0,0.51269526,0.01,0.0,-830.0,0.0,0.0,0.0,0.0,0.0,3.338622705,0.01,0.0,3689.0,0.0,0.0,-0.0,0.0,0.25,1.5795896820000002,0.01,0.0,0.6600000262260437,-0.49000000953674316,127.80999755859375,-0.01385498046875,0.00244140625,1.0264892578125,37.31999969482422,0.0,-4.0,0.1401214599609375,-0.179107666015625,Closing,0.0,0.0,0.0,0.0,0.0,0.0,0.0,0.0,
1.0871159999999982,0.0,0.0,-5256.0,0.0,0.0,0.0,0.0,0.25,0.7641600780000001,0.01,0.0,-1897.0,0.0,0.0,-0.0,0.0,0.0,0.51269526,0.01,0.0,-830.0,0.0,0.0,0.0,0.0,0.0,3.338622705,0.01,0.0,3689.0,0.0,0.0,-0.0,0.0,0.25,1.5795896820000002,0.01,0.0012207029999995456,0.6499999761581421,-0.49000000953674316,127.80999755859375,-0.00860595703125,0.01025390625,1.0120849609375,37.31999969482422,0.0,-1.0,0.1401214599609375,-0.179107666015625,Closing,0.0,0.0,0.0,0.0,0.0,0.0,0.0,0.0,
1.1076219999999994,0.0,0.0,-5256.0,0.0,0.0,0.0,0.0,0.25,0.7641600780000001,0.01,0.0,-1897.0,0.0,0.0,-0.0,0.0,0.0,0.51269526,0.01,0.0,-830.0,0.0,0.0,0.0,0.0,0.0,3.338622705,0.01,0.0,3689.0,0.0,0.0,-0.0,0.0,0.25,1.5795896820000002,0.01,0.0012207029999995456,0.6499999761581421,-0.49000000953674316,127.80999755859375,-0.00860595703125,0.01025390625,1.0120849609375,37.31999969482422,0.0,-1.0,0.1401214599609375,-0.179107666015625,Closing,0.0,0.0,0.0,0.0,0.0,0.0,0.0,0.0,
1.1291249999999964,0.0,0.0,-5256.0,0.0,0.0,0.0,0.0,0.25,0.7641600780000001,0.01,0.0,-1897.0,0.0,0.0,-0.0,0.0,0.0,0.5151366660000001,0.01,0.0,-830.0,0.0,0.0,0.0,0.0,0.0,3.338622705,0.01,0.0,3689.0,0.0,0.0,-0.0,0.0,0.25,1.5795896820000002,0.01,-0.0012207029999995456,0.6600000262260437,-0.49000000953674316,127.80000305175781,-0.00909423828125,0.0181884765625,1.014892578125,37.31999969482422,0.0,5.0,0.1401214599609375,-0.179107666015625,Closing,0.0,0.0,0.0,0.0,0.0,0.0,0.0,0.0,
1.149755000000001,0.0,0.0,-5256.0,0.0,0.0,0.0,0.0,0.25,0.7653807810000001,0.01,0.0,-1897.0,0.0,0.0,-0.0,0.0,0.0,0.51269526,0.01,0.0,-830.0,0.0,0.0,0.0,0.0,0.0,3.338622705,0.01,0.0,3689.0,0.0,0.0,-0.0,0.0,0.25,1.5795896820000002,0.01,-0.0012207029999995456,0.6600000262260437,-0.49000000953674316,127.80000305175781,-0.0076904296875,0.01904296875,1.01824951171875,37.31999969482422,0.0,4.0,0.1401214599609375,-0.179107666015625,Closing,0.0,0.0,0.0,0.0,0.0,0.0,0.0,0.125,
1.1682639999999993,0.0,0.0,-5256.0,0.0,0.0,0.0,0.0,0.25,0.7629393750000001,0.01,0.0,-1897.0,0.0,0.0,-0.0,0.0,0.0,0.51269526,0.01,0.0,-830.0,0.0,0.0,0.0,0.0,0.0,3.338622705,0.01,-0.0012207030000004337,3689.0,0.0,0.0,-0.0,0.0,0.25,1.5795896820000002,0.01,0.0,0.6600000262260437,-0.49000000953674316,127.80000305175781,-0.00860595703125,0.016845703125,1.022705078125,37.31999969482422,0.0,3.0,0.1401214599609375,-0.179107666015625,Closing,0.0,0.0,0.0,0.0,0.0,0.0,0.0,0.0,
1.1901090000000003,0.0,0.0,-5256.0,0.0,0.0,0.0,0.0,0.25,0.7641600780000001,0.01,0.0,-1897.0,0.0,0.0,-0.0,0.0,0.0,0.51269526,0.01,0.0,-830.0,0.0,0.0,0.0,0.0,0.0,3.338622705,0.01,-0.0012207030000004337,3689.0,0.0,0.0,-0.0,0.0,0.25,1.5795896820000002,0.01,0.0,0.6600000262260437,-0.49000000953674316,127.80999755859375,-0.01068115234375,0.00677490234375,1.00408935546875,37.31999969482422,0.0,-2.0,0.1401214599609375,-0.179107666015625,Closing,0.0,0.0,0.0,0.0,0.0,0.0,0.0,0.0,
1.210708999999999,0.0,0.0,-5256.0,0.0,0.0,0.0,0.0,0.25,0.7641600780000001,0.01,0.0,-1897.0,0.0,0.0,-0.0,0.0,0.0,0.510253854,0.01,0.0,-830.0,0.0,0.0,0.0,0.0,0.0,3.339843408,0.01,-0.0012207030000004337,3689.0,0.0,0.0,-0.0,0.0,0.25,1.5795896820000002,0.01,0.0,0.6600000262260437,-0.47999998927116394,127.80999755859375,-0.0103759765625,0.0035400390625,1.01531982421875,37.31999969482422,0.0,-5.0,0.1401214599609375,-0.179107666015625,Closing,0.0,0.0,0.0,0.0,0.0,0.0,0.0,0.0,
1.2316369999999988,0.0,0.0,-5256.0,0.0,0.0,0.0,0.0,0.25,0.766601484,0.01,0.0,-1897.0,0.0,0.0,-0.0,0.0,0.0,0.51269526,0.01,0.0,-830.0,0.0,0.0,0.0,0.0,0.0,3.337402002,0.01,0.0012207030000004337,3689.0,0.0,0.0,-0.0,0.0,0.25,1.5795896820000002,0.01,0.0012207029999995456,0.6600000262260437,-0.49000000953674316,127.80999755859375,-0.00921630859375,0.01116943359375,1.01824951171875,37.31999969482422,0.0,0.0,0.1401214599609375,-0.179107666015625,Closing,0.0,0.0,0.0,0.0,0.0,0.0,0.0,0.0,
1.2493939999999966,0.0,0.0,-5256.0,0.0,0.0,0.0,0.0,0.25,0.7641600780000001,0.01,0.0,-1897.0,0.0,0.0,-0.0,0.0,0.0,0.513915963,0.01,0.0,-830.0,0.0,0.0,0.0,0.0,0.0,3.338622705,0.01,0.0012207030000004337,3689.0,0.0,0.0,-0.0,0.0,0.25,1.5795896820000002,0.01,0.0012207029999995456,0.6499999761581421,-0.49000000953674316,127.80000305175781,-0.01104736328125,0.0125732421875,1.0125732421875,37.31999969482422,0.0,2.0,0.1401214599609375,-0.179107666015625,Closing,0.0,0.0,0.0,0.0,0.0,0.0,0.0,0.125,
1.270658999999996,0.0,0.0,-5256.0,0.0,0.0,0.0,0.0,0.25,0.7641600780000001,0.01,0.0,-1897.0,0.0,0.0,-0.0,0.0,0.0,0.51269526,0.01,0.0,-830.0,0.0,0.0,0.0,0.0,0.0,3.338622705,0.01,0.0,3689.0,0.0,0.0,-0.0,0.0,0.25,1.5795896820000002,0.01,-0.0012207029999995456,0.6600000262260437,-0.49000000953674316,127.80000305175781,-0.00823974609375,0.0155029296875,1.02239990234375,37.31999969482422,0.0,2.0,0.1401214599609375,-0.179107666015625,Closing,0.0,0.0,0.0,0.0,0.0,0.0,0.0,0.125,
1.292931999999997,0.0,0.0,-5256.0,0.0,0.0,0.0,0.0,0.25,0.7641600780000001,0.01,0.0,-1897.0,0.0,0.0,-0.0,0.0,0.0,0.513915963,0.01,0.0,-830.0,0.0,0.0,0.0,0.0,0.0,3.338622705,0.01,0.0,3689.0,0.0,0.0,-0.0,0.0,0.25,1.5795896820000002,0.01,-0.0012207029999995456,0.6600000262260437,-0.49000000953674316,127.80000305175781,-0.00640869140625,0.0125732421875,1.0177001953125,37.31999969482422,0.0,0.0,0.1401214599609375,-0.179107666015625,Closing,0.0,0.0,0.0,0.0,0.0,0.0,0.0,0.125,
1.311073999999997,0.0,0.0,-5256.0,0.0,0.0,0.0,0.0,0.25,0.7653807810000001,0.01,0.0,-1897.0,0.0,0.0,-0.0,0.0,0.0,0.51269526,0.01,0.0,-830.0,0.0,0.0,0.0,0.0,0.0,3.338622705,0.01,0.0,3689.0,0.0,0.0,-0.0,0.0,0.25,1.5795896820000002,0.01,-0.0012207029999995456,0.6600000262260437,-0.49000000953674316,127.80000305175781,-0.0068359375,0.013916015625,1.01513671875,37.31999969482422,0.0,0.0,0.1401214599609375,-0.179107666015625,Closing,0.0,0.0,0.0,0.0,0.0,0.0,0.0,0.0,
1.3340989999999984,0.0,0.0,-5256.0,0.0,0.0,0.0,0.0,0.25,0.7641600780000001,0.01,0.0,-1897.0,0.0,0.0,-0.0,0.0,0.0,0.511474557,0.01,0.0,-830.0,0.0,0.0,0.0,0.0,0.0,3.338622705,0.01,0.0,3689.0,0.0,0.0,-0.0,0.0,0.25,1.5795896820000002,0.01,0.0012207029999995456,0.6600000262260437,-0.49000000953674316,127.80999755859375,-0.0096435546875,0.00482177734375,1.01666259765625,37.31999969482422,0.0,-4.0,0.1401214599609375,-0.179107666015625,Closing,0.0,0.0,0.0,0.0,0.0,0.0,0.0,0.0,
1.3547700000000005,0.0,0.0,-5256.0,0.0,0.0,0.0,0.0,0.25,0.7641600780000001,0.01,0.0,-1897.0,0.0,0.0,-0.0,0.0,0.0,0.511474557,0.01,0.0,-830.0,0.0,0.0,0.0,0.0,0.0,3.338622705,0.01,0.0,3689.0,0.0,0.0,-0.0,0.0,0.25,1.5795896820000002,0.01,0.0012207029999995456,0.6499999761581421,-0.49000000953674316,127.80999755859375,-0.0069580078125,0.00592041015625,1.02264404296875,37.31999969482422,0.0,-5.0,0.1401214599609375,-0.179107666015625,Closing,0.0,0.0,0.0,0.0,0.0,0.0,0.0,0.0,
1.3784940000000023,0.0,0.0,-5256.0,0.0,0.0,0.0,0.0,0.25,0.7641600780000001,0.01,0.0,-1897.0,0.0,0.0,-0.0,0.0,0.0,0.513915963,0.01,0.0,-830.0,0.0,0.0,0.0,0.0,0.0,3.338622705,0.01,0.0,3689.0,0.0,0.0,-0.0,0.0,0.25,1.5795896820000002,0.01,0.0,0.6499999761581421,-0.49000000953674316,127.80000305175781,-0.0052490234375,0.0126953125,1.0146484375,37.31999969482422,0.0,-1.0,0.1401214599609375,-0.179107666015625,Closing,0.0,0.0,0.0,0.0,0.0,0.0,0.0,0.125,
1.39916,0.0,0.0,-5256.0,0.0,0.0,0.0,0.0,0.25,0.7653807810000001,0.01,0.0,-1897.0,0.0,0.0,-0.0,0.0,0.0,0.51269526,0.01,0.0,-830.0,0.0,0.0,0.0,0.0,0.0,3.339843408,0.01,0.0,3689.0,0.0,0.0,-0.0,0.0,0.25,1.5795896820000002,0.01,0.0,0.6499999761581421,-0.49000000953674316,127.80000305175781,-0.0084228515625,0.0142822265625,1.01763916015625,37.31999969482422,0.0,1.0,0.1401214599609375,-0.179107666015625,Closing,0.0,0.0,0.0,0.0,0.0,0.0,0.0,0.125,
1.4203359999999994,0.0,0.0,-5256.0,0.0,0.0,0.0,0.0,0.25,0.7495116420000001,0.01,-0.0012207030000004337,-1897.0,0.0,0.0,-0.0,0.0,0.0,0.51269526,0.01,0.0,-830.0,0.0,0.0,0.0,0.0,0.0,3.338622705,0.01,0.0,3689.0,0.0,0.0,-0.0,0.0,0.25,1.5795896820000002,0.01,0.0,0.6600000262260437,-0.47999998927116394,127.80000305175781,-0.0084228515625,0.01397705078125,1.01727294921875,37.31999969482422,0.0,1.0,0.1401214599609375,-0.179107666015625,Closing,0.0,0.0,0.0,0.0,0.0,0.0,0.0,0.125,
1.4457590000000018,0.0,0.0,-5256.0,0.0,0.0,0.0,0.0,0.25,0.7641600780000001,0.01,-0.0012207030000004337,-1897.0,0.0,0.0,-0.0,0.0,0.0,0.51269526,0.01,0.0,-830.0,0.0,0.0,0.0,0.0,0.0,3.339843408,0.01,0.0,3689.0,0.0,0.0,-0.0,0.0,0.25,1.5795896820000002,0.01,0.0,0.6600000262260437,-0.49000000953674316,127.80999755859375,-0.00970458984375,0.01458740234375,1.0140380859375,37.31999969482422,0.0,2.0,0.1401214599609375,-0.179107666015625,Closing,0.0,0.0,0.0,0.0,0.0,0.0,0.0,0.125,
1.4648100000000013,0.0,0.0,-5256.0,0.0,0.0,0.0,0.0,0.25,0.7641600780000001,0.01,-0.0012207030000004337,-1897.0,0.0,0.0,-0.0,0.0,0.0,0.51269526,0.01,0.0,-830.0,0.0,0.0,0.0,0.0,0.0,3.338622705,0.01,0.0,3689.0,0.0,0.0,-0.0,0.0,0.25,1.5795896820000002,0.01,0.0,0.6600000262260437,-0.49000000953674316,127.80999755859375,-0.0087890625,0.00860595703125,1.01507568359375,37.31999969482422,0.0,-2.0,0.1401214599609375,-0.179107666015625,Closing,0.0,0.0,0.0,0.0,0.0,0.0,0.0,0.0,
1.490033999999996,0.0,0.0,-5256.0,0.0,0.0,0.0,0.0,0.25,0.7641600780000001,0.01,0.0012207030000004337,-1897.0,0.0,0.0,-0.0,0.0,0.0,0.51269526,0.01,0.0,-830.0,0.0,0.0,0.0,0.0,0.0,3.339843408,0.01,0.0,3689.0,0.0,0.0,-0.0,0.0,0.25,1.5795896820000002,0.01,0.0,0.6600000262260437,-0.49000000953674316,127.80999755859375,-0.00885009765625,0.00775146484375,1.02069091796875,37.31999969482422,0.0,-3.0,0.1401214599609375,-0.179107666015625,Closing,0.0,0.0,0.0,0.0,0.0,0.0,0.0,0.0,
1.509045000000002,0.0,0.0,-5256.0,0.0,0.0,0.0,0.0,0.25,0.7641600780000001,0.01,0.0012207030000004337,-1897.0,0.0,0.0,-0.0,0.0,0.0,0.51269526,0.01,0.0,-830.0,0.0,0.0,0.0,0.0,0.0,3.338622705,0.01,0.0,3689.0,0.0,0.0,-0.0,0.0,0.25,1.5783689790000002,0.01,0.0,0.6499999761581421,-0.49000000953674316,127.80999755859375,-0.0079345703125,0.00909423828125,1.0191650390625,37.31999969482422,0.0,-2.0,0.1401214599609375,-0.179107666015625,Closing,0.0,0.0,0.0,0.0,0.0,0.0,0.0,0.0,
1.5298420000000006,0.0,0.0,-5256.0,0.0,0.0,0.0,0.0,0.25,0.7495116420000001,0.01,0.0,-1897.0,0.0,0.0,-0.0,0.0,0.0,0.51269526,0.01,0.0,-830.0,0.0,0.0,0.0,0.0,0.0,3.337402002,0.01,0.0,3689.0,0.0,0.0,-0.0,0.0,0.25,1.5795896820000002,0.01,0.0,0.6499999761581421,-0.49000000953674316,127.80000305175781,-0.01025390625,0.0152587890625,1.0205078125,37.31999969482422,0.0,3.0,0.1401214599609375,-0.179107666015625,Closing,0.0,0.0,0.0,0.0,0.0,0.0,0.0,0.125,
1.5484010000000017,0.0,0.0,-5256.0,0.0,0.0,0.0,0.0,0.25,0.7641600780000001,0.01,0.0,-1897.0,0.0,0.0,-0.0,0.0,0.0,0.51269526,0.01,0.0,-830.0,0.0,0.0,0.0,0.0,0.0,3.339843408,0.01,0.0,3689.0,0.0,0.0,-0.0,0.0,0.25,1.5795896820000002,0.01,0.0,0.6600000262260437,-0.47999998927116394,127.80000305175781,-0.0101318359375,0.01556396484375,1.01922607421875,37.31999969482422,0.0,3.0,0.1401214599609375,-0.179107666015625,Closing,0.0,0.0,0.0,0.0,0.0,0.0,0.0,0.0,
1.5676839999999974,0.0,0.0,-5256.0,0.0,0.0,0.0,0.0,0.25,0.7641600780000001,0.01,0.0,-1897.0,0.0,0.0,-0.0,0.0,0.0,0.51269526,0.01,0.0,-830.0,0.0,0.0,0.0,0.0,0.0,3.338622705,0.01,0.0,3689.0,0.0,0.0,-0.0,0.0,0.25,1.5795896820000002,0.01,0.0,0.6600000262260437,-0.47999998927116394,127.80000305175781,-0.01007080078125,0.013916015625,1.0177001953125,37.31999969482422,0.0,2.0,0.1401214599609375,-0.179107666015625,Closing,0.0,0.0,0.0,0.0,0.0,0.0,0.0,0.0,
1.5886399999999958,0.0,0.0,-5256.0,0.0,0.0,0.0,0.0,0.25,0.7641600780000001,0.01,0.0,-1897.0,0.0,0.0,-0.0,0.0,0.0,0.51269526,0.01,0.0,-830.0,0.0,0.0,0.0,0.0,0.0,3.338622705,0.01,0.0,3689.0,0.0,0.0,-0.0,0.0,0.25,1.5795896820000002,0.01,0.0,0.6600000262260437,-0.49000000953674316,127.80999755859375,-0.00836181640625,0.00994873046875,1.01177978515625,37.31999969482422,0.0,-1.0,0.1401214599609375,-0.179107666015625,Closing,0.0,0.0,0.0,0.0,0.0,0.0,0.0,0.0,
1.6089489999999969,0.0,0.0,-5256.0,0.0,0.0,0.0,0.0,0.25,0.7653807810000001,0.01,0.0,-1897.0,0.0,0.0,-0.0,0.0,0.0,0.51269526,0.01,0.0,-830.0,0.0,0.0,0.0,0.0,0.0,3.339843408,0.01,0.0,3689.0,0.0,0.0,-0.0,0.0,0.25,1.5795896820000002,0.01,0.0,0.6600000262260437,-0.49000000953674316,127.80999755859375,-0.01080322265625,0.00872802734375,1.02001953125,37.31999969482422,0.0,-1.0,0.1401214599609375,-0.179107666015625,Closing,0.0,0.0,0.0,0.0,0.0,0.0,0.0,0.0,
1.6307999999999994,0.0,0.0,-5256.0,0.0,0.0,0.0,0.0,0.25,0.7653807810000001,0.01,0.0,-1897.0,0.0,0.0,-0.0,0.0,0.0,0.51269526,0.01,0.0,-830.0,0.0,0.0,0.0,0.0,0.0,3.338622705,0.01,0.0,3689.0,0.0,0.0,-0.0,0.0,0.25,1.5795896820000002,0.01,-0.0012207029999995456,0.6600000262260437,-0.49000000953674316,127.80999755859375,-0.008056640625,0.00555419921875,1.01239013671875,37.31999969482422,0.0,-5.0,0.1401214599609375,-0.179107666015625,Closing,0.0,0.0,0.0,0.0,0.0,0.0,0.0,0.0,
1.6617250000000021,0.0,0.0,-5256.0,0.0,0.0,0.0,0.0,0.25,0.7653807810000001,0.01,0.0,-1897.0,0.0,0.0,-0.0,0.0,0.0,0.511474557,0.01,0.0,-830.0,0.0,0.0,0.0,0.0,0.0,3.339843408,0.01,0.0,3689.0,0.0,0.0,-0.0,0.0,0.25,1.5795896820000002,0.01,-0.0012207029999995456,0.6600000262260437,-0.47999998927116394,127.80999755859375,-0.01025390625,0.007080078125,1.013671875,37.31999969482422,0.0,-2.0,0.1401214599609375,-0.179107666015625,Closing,0.0,0.0,0.0,0.0,0.0,0.0,0.0,0.0,
1.6866939999999995,0.0,0.0,-5256.0,0.0,0.0,0.0,0.0,0.25,0.7641600780000001,0.01,0.0,-1897.0,0.0,0.0,-0.0,0.0,0.0,0.51269526,0.01,0.0,-830.0,0.0,0.0,0.0,0.0,0.0,3.339843408,0.01,0.0,3689.0,0.0,0.0,-0.0,0.0,0.25,1.5795896820000002,0.01,0.0012207029999995456,0.6600000262260437,-0.49000000953674316,127.80999755859375,-0.008544921875,0.01495361328125,1.01904296875,37.31999969482422,0.0,2.0,0.1401214599609375,-0.179107666015625,Closing,0.0,0.0,0.0,0.0,0.0,0.0,0.0,0.0,
1.7056020000000025,0.0,0.0,-5256.0,0.0,0.0,0.0,0.0,0.25,0.7641600780000001,0.01,0.0,-1897.0,0.0,0.0,-0.0,0.0,0.0,0.51269526,0.01,0.0,-830.0,0.0,0.0,0.0,0.0,0.0,3.338622705,0.01,0.0,3689.0,0.0,0.0,-0.0,0.0,0.25,1.5783689790000002,0.01,0.0012207029999995456,0.6600000262260437,-0.49000000953674316,127.80999755859375,-0.008544921875,0.01495361328125,1.01904296875,37.31999969482422,0.0,2.0,0.1401214599609375,-0.179107666015625,Closing,0.0,0.0,0.0,0.0,0.0,0.0,0.0,0.125,
1.7233379999999998,0.0,0.0,-5256.0,0.0,0.0,0.0,0.0,0.25,0.7653807810000001,0.01,-0.0012207030000004337,-1897.0,0.0,0.0,-0.0,0.0,0.0,0.51269526,0.01,0.0,-830.0,0.0,0.0,0.0,0.0,0.0,3.338622705,0.01,0.0,3689.0,0.0,0.0,-0.0,0.0,0.25,1.5795896820000002,0.01,0.0,0.6600000262260437,-0.49000000953674316,127.80999755859375,-0.00469970703125,0.0145263671875,1.0164794921875,37.31999969482422,0.0,0.0,0.1401214599609375,-0.179107666015625,Closing,0.0,0.0,0.0,0.0,0.0,0.0,0.0,0.125,
1.7461389999999992,0.0,0.0,-5256.0,0.0,0.0,0.0,0.0,0.25,0.7641600780000001,0.01,-0.0012207030000004337,-1897.0,0.0,0.0,-0.0,0.0,0.0,0.51269526,0.01,0.0,-830.0,0.0,0.0,0.0,0.0,0.0,3.338622705,0.01,0.0,3689.0,0.0,0.0,-0.0,0.0,0.25,1.5771482760000002,0.01,0.0,0.6600000262260437,-0.49000000953674316,127.80999755859375,-0.00836181640625,0.010986328125,1.0211181640625,37.31999969482422,0.0,-1.0,0.1401214599609375,-0.179107666015625,Closing,0.0,0.0,0.0,0.0,0.0,0.0,0.0,0.125,
1.7652230000000018,0.0,0.0,-5256.0,0.0,0.0,0.0,0.0,0.25,0.7641600780000001,0.01,-0.0012207030000004337,-1897.0,0.0,0.0,-0.0,0.0,0.0,0.51269526,0.01,0.0,-830.0,0.0,0.0,0.0,0.0,0.0,3.338622705,0.01,0.0,3689.0,0.0,0.0,-0.0,0.0,0.25,1.5795896820000002,0.01,0.0,0.6600000262260437,-0.49000000953674316,127.80999755859375,-0.01025390625,0.009521484375,1.01885986328125,37.31999969482422,0.0,0.0,0.1401214599609375,-0.179107666015625,Closing,0.0,0.0,0.0,0.0,0.0,0.0,0.0,0.125,
1.786484999999997,0.0,0.0,-5256.0,0.0,0.0,0.0,0.0,0.25,0.7641600780000001,0.01,0.0,-1897.0,0.0,0.0,-0.0,0.0,0.0,0.51269526,0.01,0.0,-830.0,0.0,0.0,0.0,0.0,0.0,3.338622705,0.01,0.0,3689.0,0.0,0.0,-0.0,0.0,0.25,1.5795896820000002,0.01,0.0,0.6600000262260437,-0.49000000953674316,127.80999755859375,-0.0135498046875,0.00909423828125,1.0146484375,37.31999969482422,0.0,0.0,0.1401214599609375,-0.179107666015625,Closing,0.0,0.0,0.0,0.0,0.0,0.0,0.0,0.125,
1.8061510000000016,0.0,0.0,-5256.0,0.0,0.0,0.0,0.0,0.25,0.7641600780000001,0.01,0.0,-1897.0,0.0,0.0,-0.0,0.0,0.0,0.51269526,0.01,0.0,-830.0,0.0,0.0,0.0,0.0,0.0,3.338622705,0.01,0.0,3689.0,0.0,0.0,-0.0,0.0,0.25,1.5808103850000002,0.01,0.0,0.6600000262260437,-0.49000000953674316,127.80999755859375,-0.010498046875,0.01226806640625,1.02264404296875,37.31999969482422,0.0,1.0,0.1401214599609375,-0.179107666015625,Closing,0.0,0.0,0.0,0.0,0.0,0.0,0.0,0.125,
1.828581000000002,0.0,0.0,-5256.0,0.0,0.0,0.0,0.0,0.25,0.7653807810000001,0.01,0.0,-1897.0,0.0,0.0,-0.0,0.0,0.0,0.51269526,0.01,0.0,-830.0,0.0,0.0,0.0,0.0,0.0,3.338622705,0.01,0.0,3689.0,0.0,0.0,-0.0,0.0,0.25,1.5795896820000002,0.01,0.0,0.6600000262260437,-0.49000000953674316,127.80999755859375,-0.0081787109375,0.01318359375,1.01953125,37.31999969482422,0.0,0.0,0.1401214599609375,-0.179107666015625,Closing,0.0,0.0,0.0,0.0,0.0,0.0,0.0,0.125,
1.8473069999999971,0.0,0.0,-5256.0,0.0,0.0,0.0,0.0,0.25,0.7641600780000001,0.01,0.0,-1897.0,0.0,0.0,-0.0,0.0,0.0,0.5151366660000001,0.01,0.0,-830.0,0.0,0.0,0.0,0.0,0.0,3.345946923,0.01,0.0,3689.0,0.0,0.0,-0.0,0.0,0.25,1.5795896820000002,0.01,0.0,0.6600000262260437,-0.49000000953674316,127.80999755859375,-0.0084228515625,0.01190185546875,1.01336669921875,37.31999969482422,0.0,0.0,0.1401214599609375,-0.179107666015625,Closing,0.0,0.0,0.0,0.0,0.0,0.0,0.0,0.125,
1.8674299999999966,0.0,0.0,-5256.0,0.0,0.0,0.0,0.0,0.25,0.7653807810000001,0.01,0.0,-1897.0,0.0,0.0,-0.0,0.0,0.0,0.513915963,0.01,0.0,-830.0,0.0,0.0,0.0,0.0,0.0,3.338622705,0.01,0.0,3689.0,0.125,0.0,-0.0,0.0,0.25,1.5808103850000002,0.01,0.0,0.6700000166893005,-0.5,127.80999755859375,-0.00689697265625,0.0108642578125,1.0208740234375,37.31999969482422,0.0,-2.0,0.1401214599609375,-0.179107666015625,Closing,0.0,0.0,0.0,0.0,0.0,0.0,0.0,0.125,
1.8898630000000012,0.0,0.0,-5256.0,0.0,0.0,0.0,0.0,0.25,0.7653807810000001,0.01,0.0012207030000004337,-1897.0,0.0,0.0,-0.0,0.0,0.0,0.51269526,0.01,0.0,-830.0,0.0,0.0,0.0,0.0,0.0,3.337402002,0.01,0.0,3689.0,0.0,0.0,-0.0,0.0,0.25,1.5795896820000002,0.01,0.0,0.6700000166893005,-0.5,127.80999755859375,-0.00885009765625,0.011474609375,1.01922607421875,37.31999969482422,0.0,0.0,0.1401214599609375,-0.179107666015625,Closing,0.0,0.0,0.0,0.0,0.0,0.0,0.0,0.125,
1.9077700000000004,0.0,0.0,-5256.0,0.0,0.0,0.0,0.0,0.25,0.7653807810000001,0.01,0.0012207030000004337,-1897.0,0.0,0.0,-0.0,0.0,0.0,0.510253854,0.01,0.0,-830.0,0.0,0.0,0.0,0.0,0.0,3.338622705,0.01,0.0,3689.0,0.0,0.0,-0.0,0.0,0.25,1.5795896820000002,0.01,0.0,0.6600000262260437,-0.5,127.80999755859375,-0.00836181640625,0.00909423828125,1.0159912109375,37.31999969482422,0.0,-2.0,0.1401214599609375,-0.179107666015625,Closing,0.0,0.0,0.0,0.0,0.0,0.0,0.0,0.0,
1.9293429999999971,0.0,0.0,-5256.0,0.0,0.0,0.0,0.0,0.25,0.7641600780000001,0.01,0.0,-1897.0,0.0,0.0,-0.0,0.0,0.0,0.5151366660000001,0.01,0.0,-830.0,0.0,0.0,0.0,0.0,0.0,3.338622705,0.01,0.0,3689.0,0.0,0.0,-0.0,0.0,0.25,1.5795896820000002,0.01,0.0,0.6600000262260437,-0.5,127.80999755859375,-0.00830078125,0.00909423828125,1.0167236328125,37.31999969482422,0.0,-2.0,0.1401214599609375,-0.179107666015625,Closing,0.0,0.0,0.0,0.0,0.0,0.0,0.0,0.0,
1.9480879999999998,0.0,0.0,-5256.0,0.0,0.0,0.0,0.0,0.25,0.7641600780000001,0.01,0.0,-1897.0,0.0,0.0,-0.0,0.0,0.0,0.51269526,0.01,0.0,-830.0,0.0,0.0,0.0,0.0,0.0,3.338622705,0.01,0.0,3689.0,0.0,0.0,-0.0,0.0,0.25,1.5808103850000002,0.01,0.0,0.6600000262260437,-0.5,127.80999755859375,-0.01190185546875,0.0115966796875,1.02044677734375,37.31999969482422,0.0,1.0,0.1401214599609375,-0.179107666015625,Closing,0.0,0.0,0.0,0.0,0.0,0.0,0.0,0.0,
1.9661409999999997,0.0,0.0,-5256.0,0.0,0.0,0.0,0.0,0.25,0.7641600780000001,0.01,0.0,-1897.0,0.0,0.0,-0.0,0.0,0.0,0.513915963,0.01,0.0,-830.0,0.0,0.0,0.0,0.0,0.0,3.339843408,0.01,0.0,3689.0,0.0,0.0,-0.0,0.0,0.25,1.5795896820000002,0.01,0.0,0.6600000262260437,-0.5,127.80999755859375,-0.01092529296875,0.013427734375,1.015625,37.31999969482422,0.0,2.0,0.1401214599609375,-0.179107666015625,Closing,0.0,0.0,0.0,0.0,0.0,0.0,0.0,0.125,
1.9879370000000016,0.0,0.0,-5256.0,0.0,0.0,0.0,0.0,0.25,0.7641600780000001,0.01,0.0,-1897.0,0.0,0.0,-0.0,0.0,0.0,0.51269526,0.01,0.0,-830.0,0.0,0.0,0.0,0.0,0.0,3.338622705,0.01,0.0,3689.0,0.0,0.0,-0.0,0.0,0.25,1.5795896820000002,0.01,0.0,0.6600000262260437,-0.5,127.80999755859375,-0.00738525390625,0.011962890625,1.02178955078125,37.31999969482422,0.0,0.0,0.1401214599609375,-0.179107666015625,Closing,0.0,0.0,0.0,0.0,0.0,0.0,0.0,0.125,
2.0081260000000003,0.0,0.0,-5256.0,0.0,0.0,0.0,0.0,0.25,0.7641600780000001,0.01,0.0,-1897.0,0.0,0.0,-0.0,0.0,0.0,0.51269526,0.01,0.0,-830.0,0.0,0.0,0.0,0.0,0.0,3.338622705,0.01,0.0,3689.0,0.0,0.0,-0.0,0.0,0.25,1.5783689790000002,0.01,0.0,0.6600000262260437,-0.5,127.80999755859375,-0.00732421875,0.01055908203125,1.02301025390625,37.31999969482422,0.0,-2.0,0.1401214599609375,-0.179107666015625,Closing,0.0,0.0,0.0,0.0,0.0,0.0,0.0,0.125,
2.028348999999998,0.0,0.0,-5256.0,0.0,0.0,0.0,0.0,0.25,0.7641600780000001,0.01,0.0,-1897.0,0.0,0.0,-0.0,0.0,0.0,0.51269526,0.01,0.0,-830.0,0.0,0.0,0.0,0.0,0.0,3.338622705,0.01,0.0,3689.0,0.0,0.0,-0.0,0.0,0.25,1.5795896820000002,0.01,0.0,0.6600000262260437,-0.5,127.80999755859375,-0.00823974609375,0.0120849609375,1.01739501953125,37.33000183105469,0.0,0.0,0.1401214599609375,-0.179107666015625,Closing,0.0,0.0,0.0,0.0,0.0,0.0,0.0,0.125,
2.048683000000001,0.0,0.0,-5256.0,0.0,0.0,0.0,0.0,0.25,0.7641600780000001,0.01,0.0,-1897.0,0.0,0.0,-0.0,0.0,0.0,0.51269526,0.01,0.0,-830.0,0.0,0.0,0.0,0.0,0.0,3.338622705,0.01,0.0,3689.0,0.0,0.0,-0.0,0.0,0.25,1.5795896820000002,0.01,0.0,0.6600000262260437,-0.5,127.80999755859375,-0.00970458984375,0.00946044921875,1.0147705078125,37.33000183105469,0.0,-1.0,0.1401214599609375,-0.179107666015625,Closing,0.0,0.0,0.0,0.0,0.0,0.0,0.0,0.0,
2.0670509999999958,0.0,0.0,-5256.0,0.0,0.0,0.0,0.0,0.25,0.7641600780000001,0.01,0.0,-1897.0,0.0,0.0,-0.0,0.0,0.0,0.513915963,0.01,0.0,-830.0,0.0,0.0,0.0,0.0,0.0,3.339843408,0.01,0.0,3689.0,0.0,0.0,-0.0,0.0,0.25,1.5795896820000002,0.01,0.0,0.6600000262260437,-0.5,127.80999755859375,-0.009765625,0.009521484375,1.018798828125,37.33000183105469,0.0,-1.0,0.1401214599609375,-0.179107666015625,Closing,0.0,0.0,0.0,0.0,0.0,0.0,0.0,0.0,
2.0887170000000004,0.0,0.0,-5256.0,0.0,0.0,0.0,0.0,0.25,0.7653807810000001,0.01,0.0,-1897.0,0.0,0.0,-0.0,0.0,0.0,0.51269526,0.01,0.0,-830.0,0.0,0.0,0.0,0.0,0.0,3.338622705,0.01,0.0,3689.0,0.0,0.0,-0.0,0.0,0.25,1.5795896820000002,0.01,0.0,0.6600000262260437,-0.5,127.80000305175781,-0.01031494140625,0.0125732421875,1.019775390625,37.33000183105469,0.0,1.0,0.1401214599609375,-0.179107666015625,Closing,0.0,0.0,0.0,0.0,0.0,0.0,0.0,0.0,
2.1083889999999994,0.0,0.0,-5256.0,0.0,0.0,0.0,0.0,0.25,0.7641600780000001,0.01,0.0,-1897.0,0.0,0.0,-0.0,0.0,0.0,0.51269526,0.01,0.0,-830.0,0.0,0.0,0.0,0.0,0.0,3.338622705,0.01,0.0,3689.0,0.0,0.0,-0.0,0.0,0.25,1.5795896820000002,0.01,0.0,0.6600000262260437,-0.5,127.80000305175781,-0.0086669921875,0.012939453125,1.01593017578125,37.33000183105469,0.0,0.0,0.1401214599609375,-0.179107666015625,Closing,0.0,0.0,0.0,0.0,0.0,0.0,0.0,0.0,
2.1280989999999984,0.0,0.0,-5256.0,0.0,0.0,0.0,0.0,0.25,0.7641600780000001,0.01,0.0,-1897.0,0.0,0.0,-0.0,0.0,0.0,0.51269526,0.01,0.0,-830.0,0.0,0.0,0.0,0.0,0.0,3.338622705,0.01,0.0,3689.0,0.0,0.0,-0.0,0.0,0.25,1.5795896820000002,0.01,0.0,0.6600000262260437,-0.5099999904632568,127.80999755859375,-0.008544921875,0.01177978515625,1.0198974609375,37.33000183105469,0.0,0.0,0.1401214599609375,-0.179107666015625,Closing,0.0,0.0,0.0,0.0,0.0,0.0,0.0,0.0,
2.1484989999999997,0.0,0.0,-5256.0,0.0,0.0,0.0,0.0,0.25,0.7653807810000001,0.01,0.0,-1897.0,0.0,0.0,-0.0,0.0,0.0,0.51269526,0.01,0.0,-830.0,0.0,0.0,0.0,0.0,0.0,3.339843408,0.01,0.0,3689.0,0.0,0.0,-0.0,0.0,0.25,1.5795896820000002,0.01,0.0,0.6600000262260437,-0.5099999904632568,127.80000305175781,-0.01220703125,0.01385498046875,1.019287109375,37.33000183105469,0.0,3.0,0.1401214599609375,-0.179107666015625,Closing,0.0,0.0,0.0,0.0,0.0,0.0,0.0,0.0,
2.1678590000000004,0.0,0.0,-5256.0,0.0,0.0,0.0,0.0,0.25,0.7653807810000001,0.01,0.0,-1897.0,0.0,0.0,-0.0,0.0,0.0,0.51269526,0.01,0.0,-830.0,0.0,0.0,0.0,0.0,0.0,3.339843408,0.01,0.0,3689.0,0.0,0.0,-0.0,0.0,0.25,1.5795896820000002,0.01,0.0,0.6600000262260437,-0.5099999904632568,127.80000305175781,-0.0091552734375,0.01434326171875,1.0174560546875,37.33000183105469,0.0,2.0,0.1401214599609375,-0.179107666015625,Closing,0.0,0.0,0.0,0.0,0.0,0.0,0.0,0.0,
2.1889430000000027,0.0,0.0,-5256.0,0.0,0.0,0.0,0.0,0.25,0.7641600780000001,0.01,-0.0012207030000004337,-1897.0,0.0,0.0,-0.0,0.0,0.0,0.51269526,0.01,0.0,-830.0,0.0,0.0,0.0,0.0,0.0,3.339843408,0.01,0.0,3689.0,0.0,0.0,-0.0,0.0,0.25,1.5795896820000002,0.01,0.0,0.6600000262260437,-0.5,127.80000305175781,-0.0084228515625,0.0098876953125,1.0172119140625,37.33000183105469,0.0,-1.0,0.1401214599609375,-0.179107666015625,Closing,0.0,0.0,0.0,0.0,0.0,0.0,0.0,0.0,
2.209247999999996,0.0,0.0,-5256.0,0.0,0.0,0.0,0.0,0.25,0.7653807810000001,0.01,-0.0012207030000004337,-1897.0,0.0,0.0,-0.0,0.0,0.0,0.51269526,0.01,0.0,-830.0,0.0,0.0,0.0,0.0,0.0,3.338622705,0.01,0.0,3689.0,0.0,0.0,-0.0,0.0,0.25,1.5795896820000002,0.01,0.0,0.6600000262260437,-0.5099999904632568,127.80000305175781,-0.00738525390625,0.01007080078125,1.01904296875,37.33000183105469,0.0,-2.0,0.1401214599609375,-0.179107666015625,Closing,0.0,0.0,0.0,0.0,0.0,0.0,0.0,0.125,
2.2308189999999994,0.0,0.0,-5256.0,0.0,0.0,0.0,0.0,0.25,0.7641600780000001,0.01,0.0012207030000004337,-1897.0,0.0,0.0,-0.0,0.0,0.0,0.51269526,0.01,0.0,-830.0,0.0,0.0,0.0,0.0,0.0,3.339843408,0.01,0.0,3689.0,0.0,0.0,-0.0,0.0,0.25,1.5795896820000002,0.01,0.0,0.6600000262260437,-0.5099999904632568,127.80000305175781,-0.0079345703125,0.0125732421875,1.0218505859375,37.33000183105469,0.0,0.0,0.1401214599609375,-0.179107666015625,Closing,0.0,0.0,0.0,0.0,0.0,0.0,0.0,0.125,
2.24841,0.0,0.0,-5256.0,0.0,0.0,0.0,0.0,0.25,0.7641600780000001,0.01,0.0012207030000004337,-1897.0,0.0,0.0,-0.0,0.0,0.0,0.51269526,0.01,0.0,-830.0,0.0,0.0,0.0,0.0,0.0,3.339843408,0.01,0.0,3689.0,0.0,0.0,-0.0,0.0,0.25,1.5783689790000002,0.01,0.0,0.6600000262260437,-0.5099999904632568,127.80000305175781,-0.00946044921875,0.0089111328125,1.01580810546875,37.33000183105469,0.0,-2.0,0.1401214599609375,-0.179107666015625,Closing,0.0,0.0,0.0,0.0,0.0,0.0,0.0,0.125,
2.268155999999999,0.0,0.0,-5256.0,0.0,0.0,0.0,0.0,0.25,0.7653807810000001,0.01,0.0012207030000004337,-1897.0,0.0,0.0,-0.0,0.0,0.0,0.51269526,0.01,0.0,-830.0,0.0,0.0,0.0,0.0,0.0,3.338622705,0.01,0.0,3689.0,0.125,0.0,-0.0,0.0,0.25,1.5795896820000002,0.01,0.0,0.6600000262260437,-0.5099999904632568,127.80000305175781,-0.01092529296875,0.013916015625,1.01806640625,37.33000183105469,0.0,2.0,0.1401214599609375,-0.179107666015625,Closing,0.0,0.0,0.0,0.0,0.0,0.0,0.0,0.125,
2.290577000000001,0.0,0.0,-5256.0,0.0,0.0,0.0,0.0,0.25,0.7641600780000001,0.01,0.0,-1897.0,0.0,0.0,-0.0,0.0,0.0,0.51269526,0.01,0.0,-830.0,0.0,0.0,0.0,0.0,0.0,3.333739893,0.01,0.0,3689.0,0.125,0.0,-0.0,0.0,0.25,1.5795896820000002,0.01,0.0,0.6600000262260437,-0.5099999904632568,127.80000305175781,-0.00933837890625,0.0126953125,1.01983642578125,37.33000183105469,0.0,-2.0,0.1401214599609375,-0.179107666015625,Closing,0.0,0.0,0.0,0.0,0.0,0.0,0.0,0.125,
2.3081870000000015,0.0,0.0,-5256.0,0.0,0.0,0.0,0.0,0.25,0.759277266,0.01,0.0,-1897.0,0.0,0.0,-0.0,0.0,0.0,0.51269526,0.01,0.0,-830.0,0.0,0.0,0.0,0.0,0.0,3.338622705,0.01,0.0,3689.0,0.0,0.0,-0.0,0.0,0.25,1.5795896820000002,0.01,0.0,0.6600000262260437,-0.5099999904632568,127.80000305175781,-0.00927734375,0.0067138671875,1.01617431640625,37.33000183105469,0.0,-3.0,0.1401214599609375,-0.179107666015625,Closing,0.0,0.0,0.0,0.0,0.0,0.0,0.0,0.125,
2.329937000000002,0.0,0.0,-5256.0,0.0,0.0,0.0,0.0,0.25,0.7641600780000001,0.01,0.0,-1897.0,0.0,0.0,-0.0,0.0,0.0,0.51269526,0.01,0.0,-830.0,0.0,0.0,0.0,0.0,0.0,3.339843408,0.01,0.0,3689.0,0.0,0.0,-0.0,0.0,0.25,1.5795896820000002,0.01,0.0,0.6600000262260437,-0.5099999904632568,127.80000305175781,-0.010498046875,0.009765625,1.0194091796875,37.33000183105469,0.0,0.0,0.1401214599609375,-0.179107666015625,Closing,0.0,0.0,0.0,0.0,0.0,0.0,0.0,0.125,
2.3489529999999976,0.0,0.0,-5256.0,0.125,0.0,198.42519611120224,0.0,0.25,0.7641600780000001,3.6991882499999984,0.0,-1897.0,0.0,0.0,198.42519611120224,0.0,0.0,0.5163573690000001,1.2409424999999985,0.0,-830.0,0.0,0.0,198.42519611120224,0.0,0.0,3.338622705,3.7052999999999985,-0.0012207030000004337,3689.0,0.0,0.0,-198.42519611120224,0.0,0.25,1.5795896820000002,3.7184999999999984,-0.0012207029999995456,0.6600000262260437,-0.5099999904632568,127.80000305175781,-0.01019287109375,0.00872802734375,1.01763916015625,37.33000183105469,0.0,-1.0,0.1401214599609375,-0.179107666015625,Closing,0.0,0.0,0.0,0.0,0.0,0.0,0.0,0.125,
2.3691049999999994,0.0,0.0,-5256.0,0.125,0.0,337.32282400131226,0.0,0.25,0.7653807810000001,3.6991882499999984,0.0,-1897.0,0.0,0.0,337.32282400131226,0.0,0.0,0.51269526,1.2409424999999985,-0.0012207030000004337,-830.0,0.125,0.0,337.32282400131226,0.0,0.0,3.338622705,3.7052999999999985,0.0,3689.0,0.125,0.0,-337.32282400131226,0.0,0.25,1.5783689790000002,3.7184999999999984,0.0012207029999995456,0.6600000262260437,-0.5,127.80999755859375,-0.0076904296875,0.011962890625,1.016845703125,37.33000183105469,0.0,0.0,0.1401214599609375,-0.179107666015625,Closing,0.0,0.0,0.0,0.0,0.0,0.0,0.0,0.125,
2.3910430000000016,0.0,0.0,-5256.0,0.125,0.0,496.06298089027405,0.0,0.25,0.7653807810000001,3.6991882499999984,-0.0012207030000004337,-1897.0,0.125,0.0,496.06298089027405,0.0,1.75,0.522460884,1.2409424999999985,0.0,-830.0,0.125,0.0,496.06298089027405,0.0,0.0,3.330077784,3.7052999999999985,0.0012207030000004337,3689.0,0.125,0.0,-496.06298089027405,0.0,1.0,1.5502928100000002,3.7184999999999984,-0.0012207029999995456,0.6600000262260437,-0.5,127.80999755859375,-0.00958251953125,0.01153564453125,1.01861572265625,37.33000183105469,0.0,0.0,0.1401214599609375,-0.179107666015625,Closing,0.0,0.0,0.0,0.0,0.0,0.0,0.0,0.125,
2.4113650000000018,0.0,0.0,-5256.0,0.375,0.0,1250.0787448883057,0.0,5.0,0.668945244,3.6991882499999984,-0.04760741700000004,-1897.0,0.625,0.0,1250.0787448883057,0.0,8.5,0.640869075,1.2409424999999985,0.05615233800000041,-830.0,0.5,0.0,1250.0787448883057,0.0,4.25,3.242187168,3.7052999999999985,-0.0341796840000006,3689.0,0.375,0.0,-1250.0787448883057,0.0,6.375,1.406249856,3.7184999999999984,-0.046386714000000495,0.6600000262260437,-0.5099999904632568,127.80999755859375,-0.00469970703125,0.0272216796875,1.0313720703125,37.33000183105469,0.0,9.0,0.1401214599609375,-0.179107666015625,Closing,0.0,0.0,0.0,0.0,0.0,0.0,0.0,0.0,
2.4392760000000018,0.0,0.0,-5256.0,1.875,15.0,1508.031527996063,0.0,5.75,0.47607417,3.6991882499999984,-0.14282225100000012,-1897.0,2.0,0.0,1508.031527996063,0.0,8.125,0.8532713970000001,1.2409424999999985,0.16845701400000035,-830.0,1.875,0.0,1508.031527996063,0.0,5.5,3.032226252,3.7052999999999985,-0.14648435999999965,3689.0,3.75,-37.5,-1508.031527996063,0.0,7.5,1.230468624,3.7184999999999984,-0.15869139000000043,0.6700000166893005,-0.46000000834465027,127.77999877929688,0.09124755859375,-0.04150390625,1.09674072265625,37.33000183105469,0.0,-104.0,0.139892578125,-0.17913818359375,Closing,0.0,0.0,0.0,0.0,0.0,0.0,0.0,0.0,
2.456066999999999,0.0,0.0,-5236.0,4.25,52.5,1746.1418008804321,0.0,6.125,0.34301754300000004,3.6991882499999984,-0.13793943900000016,-1888.0,5.25,7.5,1746.1418008804321,0.0,8.25,0.9875487270000001,1.2409424999999985,0.14892576599999963,-820.0,5.125,15.0,1746.1418008804321,0.0,5.75,2.8967282190000003,3.7052999999999985,-0.13183592399999977,3671.0,3.75,-37.5,-1746.1418008804321,0.0,7.5,1.102294809,3.7184999999999984,-0.13793943900000016,0.6800000071525574,-0.3799999952316284,127.70999908447266,0.23406982421875,-0.08648681640625,1.166748046875,37.33000183105469,0.0,-227.0,0.1394805908203125,-0.179290771484375,Closing,0.0,0.0,0.0,0.0,0.0,0.0,0.0,0.0,
2.4750439999999982,0.0,0.0,-5236.0,8.0,105.0,1845.3543519973755,0.0,1.625,0.22338864900000002,3.6991882499999984,0.0,-1888.0,11.25,30.0,1845.3543519973755,0.0,2.375,1.097411997,1.2409424999999985,0.0,-820.0,9.375,45.0,1845.3543519973755,0.0,2.0,2.7929684640000003,3.7052999999999985,0.0,3671.0,8.125,-82.5,-1845.3543519973755,0.0,1.75,0.992431539,3.7184999999999984,0.0,0.6000000238418579,-0.25,127.5999984741211,0.13043212890625,0.0467529296875,0.9261474609375,37.33000183105469,0.0,-52.0,0.138885498046875,-0.1796112060546875,Closing,0.0,0.0,0.0,0.0,0.0,0.0,0.0,0.0,
2.498145999999997,0.0,0.0,-5236.0,11.75,157.5,1845.3543519973755,0.0,0.625,0.06469725900000001,3.6991882499999984,-0.12573240899999938,-1888.0,19.25,60.0,1845.3543519973755,0.0,1.25,1.234130733,1.2409424999999985,0.13427732999999975,-820.0,14.125,82.5,1845.3543519973755,0.0,0.875,2.6342770740000003,3.7052999999999985,-0.12329100300000029,3671.0,13.875,-112.5,-1845.3543519973755,0.0,1.0,0.871581942,3.7184999999999984,-0.11474608199999992,0.44999998807907104,-0.09000000357627869,127.33000183105469,0.11907958984375,-0.1363525390625,1.16058349609375,37.33000183105469,0.0,-189.0,0.13702392578125,-0.180419921875,Closing,0.0,0.0,0.0,0.0,0.0,0.0,0.0,0.0,
2.514452999999998,0.0,0.0,-5236.0,11.75,157.5,1845.3543519973755,0.0,0.375,4.914550278,3.6991882499999984,-0.1269531120000007,-1888.0,27.0,82.5,1845.3543519973755,0.0,1.0,1.312255725,1.2409424999999985,0.11230467600000082,-820.0,18.0,112.5,1845.3543519973755,0.0,0.5,2.5415036460000002,3.7052999999999985,-0.1269531119999998,3671.0,19.125,-135.0,-1845.3543519973755,0.0,1.0,0.787353435,3.7184999999999984,-0.10375975500000045,0.3100000023841858,0.0,127.20999908447266,0.0853271484375,-0.2008056640625,1.14080810546875,37.310001373291016,0.0,-216.0,0.1356658935546875,-0.1807861328125,Closing,0.0,0.0,0.0,0.0,0.0,0.0,0.0,0.0,
2.5375099999999984,0.0,0.0,-5236.0,18.0,247.5,1845.3543519973755,0.0,0.25,4.788817869,3.6991882499999984,-0.10681204099999952,-1888.0,33.625,97.5,1845.3543519973755,0.0,1.25,1.413574074,1.2409424999999985,0.09155272499999967,-820.0,20.875,142.5,1845.3543519973755,0.0,0.5,2.420654049,3.7052999999999985,-0.12207029999999985,3671.0,22.625,-150.0,-1845.3543519973755,0.0,1.0,0.70800774,3.7184999999999984,-0.09033202200000012,0.10000000149011612,0.07000000029802322,127.08999633789062,0.07354736328125,-0.249267578125,0.917724609375,37.310001373291016,0.0,-243.0,0.134002685546875,-0.1810455322265625,Closing,0.0,0.0,0.0,0.0,0.0,0.0,0.0,0.0,
2.5551839999999975,0.0,0.0,-5236.0,18.0,247.5,1547.7165484428406,0.0,0.125,4.719237798,3.6991882499999984,-0.09765623999999962,-1888.0,38.25,97.5,1547.7165484428406,0.0,1.0,1.461181491,1.2409424999999985,0.07324218000000027,-820.0,23.0,150.0,1547.7165484428406,0.0,0.25,2.347411869,3.7052999999999985,-0.0927734280000001,3671.0,24.875,-157.5,-1547.7165484428406,0.0,0.875,0.649413996,3.7184999999999984,-0.07812499200000023,-0.25999999046325684,0.0,126.87999725341797,-0.025390625,-0.4920654296875,1.02142333984375,37.310001373291016,0.0,-374.0,0.129486083984375,-0.18109130859375,Closing,0.0,0.0,0.0,0.0,0.0,0.0,0.0,0.0,
2.573766999999996,0.0,0.0,-5236.0,19.25,277.5,1309.6062755584717,0.0,0.25,4.667968272,3.6991882499999984,-0.06347655599999946,-1868.0,40.25,112.5,1309.6062755584717,0.0,1.25,1.4990232840000002,1.2409424999999985,0.0,-792.0,23.25,157.5,1309.6062755584717,0.0,0.25,2.286376719,3.7052999999999985,0.0,3640.0,26.125,-180.0,-1309.6062755584717,0.0,0.875,0.592040955,3.7184999999999984,0.0,-0.4699999988079071,-0.07999999821186066,126.7699966430664,-0.080322265625,-0.24029541015625,1.1861572265625,37.310001373291016,0.0,-137.0,0.1266326904296875,-0.1806182861328125,Closing,0.0,0.0,0.0,0.0,0.0,0.0,0.0,0.125,
2.594899000000001,0.0,0.0,-5182.0,18.625,315.0,813.5432946681976,0.0,0.25,4.599608904,3.6991882499999984,-0.06469725900000078,-1868.0,38.5,135.0,813.5432946681976,0.0,1.0,1.534423671,1.2409424999999985,0.047607417000000485,-792.0,22.375,172.5,813.5432946681976,0.0,0.125,2.2155759450000003,3.7052999999999985,-0.07568358600000025,3640.0,24.375,-217.5,-813.5432946681976,0.0,0.625,0.534667914,3.7184999999999984,-0.05981444699999994,-0.6700000166893005,-0.1599999964237213,126.68000030517578,-0.1927490234375,-0.3189697265625,1.100830078125,37.310001373291016,0.0,-132.0,0.1236114501953125,-0.1797943115234375,Closing,0.0,0.0,0.0,0.0,0.0,0.0,0.0,0.125,
2.6156159999999984,0.0,0.0,-5182.0,17.25,352.5,337.32282400131226,0.0,0.25,4.562987814,3.6991882499999984,-0.052490229,-1868.0,33.5,187.5,337.32282400131226,0.0,1.25,1.560058434,1.2409424999999985,0.023193356999999803,-792.0,18.0,202.5,337.32282400131226,0.0,0.125,2.177734152,3.7052999999999985,-0.056152337999999524,3640.0,20.0,-277.5,-337.32282400131226,0.0,0.625,0.49194330900000005,3.7184999999999984,-0.06103515000000037,-1.0499999523162842,-0.4099999964237213,126.51000213623047,-0.2230224609375,-0.07073974609375,1.01904296875,37.310001373291016,0.0,86.0,0.1171417236328125,-0.1770477294921875,Closing,0.0,0.0,0.0,0.0,0.0,0.0,0.0,0.125,
2.6401020000000024,0.0,0.0,-5182.0,8.625,412.5,0.0,0.0,0.25,4.533690942000001,3.6991882499999984,0.0,-1868.0,25.0,255.0,0.0,0.0,1.0,1.5844724940000001,1.2409424999999985,0.0,-792.0,13.25,247.5,0.0,0.0,0.125,2.138671656,3.7052999999999985,0.0,3640.0,13.875,-352.5,0.0,0.0,0.5,0.46020503100000004,3.7184999999999984,0.0,-1.1100000143051147,-0.5,126.41000366210938,-0.09808349609375,-0.19439697265625,0.96746826171875,37.310001373291016,0.0,-88.0,0.1138916015625,-0.175262451171875,Closing,0.0,0.0,0.0,0.0,0.0,0.0,0.0,0.125,
2.6557700000000004,0.0,0.0,-5182.0,8.625,412.5,0.0,0.0,0.25,4.517821803,3.6991882499999984,0.0,-1868.0,14.375,322.5,0.0,0.0,0.75,1.6076658510000001,1.2409424999999985,0.0,-792.0,6.75,307.5,0.0,0.0,0.125,2.1191404080000003,3.7052999999999985,0.0,3640.0,7.125,-412.5,0.0,0.0,0.25,0.438232377,3.7184999999999984,0.0,-1.0499999523162842,-0.5799999833106995,126.2300033569336,-0.0733642578125,0.0028076171875,0.92041015625,37.310001373291016,0.0,53.0,0.1073760986328125,-0.171356201171875,Closing,0.0,0.0,0.0,0.0,0.0,0.0,0.0,0.125,
2.674997999999996,0.0,0.0,-5182.0,3.75,420.0,0.0,0.0,0.25,4.506835476,3.6991882499999984,-0.06713866499999988,-1868.0,5.25,345.0,0.0,0.0,0.5,1.6357420200000001,1.2409424999999985,0.07324218000000027,-792.0,2.5,360.0,0.0,0.0,0.125,2.104491972,3.7052999999999985,-0.08422850699999973,3640.0,2.625,-435.0,0.0,0.0,0.25,0.412597614,3.7184999999999984,-0.09277342799999966,-1.0099999904632568,-0.6200000047683716,126.19000244140625,-0.021240234375,0.0667724609375,1.11749267578125,37.310001373291016,0.0,75.0,0.104248046875,-0.1693878173828125,Closing,0.0,0.0,0.0,0.0,0.0,0.0,0.0,0.0,
2.699162999999997,0.0,0.0,-5128.0,1.0,405.0,0.0,0.0,0.125,4.5031733670000005,3.6991882499999984,-0.06713866499999988,-1824.0,0.625,315.0,0.0,0.0,0.5,1.666259595,1.2409424999999985,0.07324218000000027,-730.0,0.0,390.0,0.0,0.0,0.0,2.095947051,3.7052999999999985,-0.08422850699999973,3579.0,0.375,-420.0,0.0,0.0,0.25,0.40283199000000003,3.7184999999999984,-0.09277342799999966,-1.0099999904632568,-0.6299999952316284,126.16000366210938,-0.08270263671875,0.05340576171875,1.04730224609375,37.310001373291016,0.0,99.0,0.1012420654296875,-0.167449951171875,Closing,0.0,0.0,0.0,0.0,0.0,0.0,0.0,0.0,
2.7179540000000015,0.0,0.0,-5128.0,0.0,367.5,0.0,0.0,0.125,4.501952664,3.6991882499999984,-0.06713866499999988,-1824.0,0.0,270.0,0.0,0.0,0.25,1.679687328,1.2409424999999985,0.07324218000000027,-730.0,0.0,382.5,0.0,0.0,0.0,2.094726348,3.7052999999999985,-0.08422850699999973,3579.0,0.0,-375.0,0.0,0.0,0.25,0.39428706900000005,3.7184999999999984,-0.0354003869999997,-0.6399999856948853,-0.550000011920929,126.12000274658203,0.0440673828125,0.1884765625,1.013671875,37.310001373291016,0.0,129.0,0.09588623046875,-0.164154052734375,Closing,0.0,0.0,0.0,0.0,0.0,0.0,0.0,0.0,
2.738927999999996,0.0,0.0,-5128.0,0.0,315.0,0.0,0.0,0.125,4.5031733670000005,3.6991882499999984,-0.009765623999999917,-1824.0,0.0,247.5,0.0,0.0,0.25,1.699218576,1.2409424999999985,0.052490229,-730.0,0.0,360.0,0.0,0.0,0.0,2.094726348,3.7052999999999985,-0.02441406000000068,3579.0,0.0,-337.5,0.0,0.0,0.25,0.38940425700000003,3.7184999999999984,-0.0354003869999997,-0.6399999856948853,-0.550000011920929,126.12000274658203,0.0440673828125,0.1884765625,1.013671875,37.310001373291016,0.0,129.0,0.09588623046875,-0.164154052734375,Closing,0.0,0.0,0.0,0.0,0.0,0.0,0.0,0.0,
2.7561779999999962,0.0,0.0,-5128.0,0.0,270.0,0.0,0.0,0.125,4.5031733670000005,3.6991882499999984,-0.009765623999999917,-1824.0,0.0,247.5,0.0,0.0,0.25,1.7126463090000001,1.2409424999999985,0.052490229,-730.0,0.0,315.0,0.0,0.0,0.0,2.094726348,3.7052999999999985,-0.02441406000000068,3579.0,0.0,-322.5,0.0,0.0,0.25,0.38940425700000003,3.7184999999999984,-0.0354003869999997,-0.6399999856948853,-0.5400000214576721,126.11000061035156,-0.07415771484375,0.04150390625,0.9573974609375,37.310001373291016,0.0,80.0,0.093475341796875,-0.162750244140625,Closing,0.0,0.0,0.0,0.0,0.0,0.0,0.0,0.0,
2.785833999999999,0.0,0.0,-5128.0,0.0,270.0,0.0,0.0,0.125,4.501952664,3.6991882499999984,0.0,-1824.0,0.0,315.0,0.0,0.0,0.25,1.728515448,1.2409424999999985,0.052490229,-730.0,0.0,285.0,0.0,0.0,0.0,2.094726348,3.7052999999999985,0.0,3579.0,0.0,-352.5,0.0,0.0,0.25,0.384521445,3.7184999999999984,-0.01464843600000032,-0.49000000953674316,-0.5199999809265137,126.1500015258789,0.01190185546875,0.1263427734375,1.305908203125,37.310001373291016,0.0,97.0,0.08685302734375,-0.1588897705078125,Closing,0.0,0.0,0.0,0.0,0.0,0.0,0.0,0.125,
2.806416000000001,0.0,0.0,-5128.0,0.0,300.0,0.0,0.0,0.125,4.5031733670000005,3.6991882499999984,0.0,-1824.0,0.0,367.5,0.0,0.0,0.25,1.7419431810000001,1.2409424999999985,0.052490229,-730.0,0.0,262.5,0.0,0.0,0.0,2.095947051,3.7052999999999985,0.0,3514.0,0.0,-390.0,0.0,0.0,0.125,0.384521445,3.7184999999999984,-0.01464843600000032,-0.44999998807907104,-0.5600000023841858,126.16000366210938,0.01251220703125,-0.00250244140625,1.108642578125,37.310001373291016,0.0,-8.0,0.0847930908203125,-0.157806396484375,Closing,0.0,0.0,0.0,0.0,0.0,0.0,0.0,0.0,
2.8240949999999976,0.0,0.0,-5068.0,0.0,345.0,0.0,0.0,0.125,4.501952664,3.6991882499999984,0.0,-1760.0,0.0,397.5,0.0,0.0,0.25,1.746825993,1.2409424999999985,0.052490229,-689.0,0.0,255.0,0.0,0.0,0.0,2.095947051,3.7052999999999985,0.0,3514.0,0.0,-420.0,0.0,0.0,0.125,0.384521445,3.7184999999999984,-0.004882811999999959,-0.33000001311302185,-0.5,126.19000244140625,0.05267333984375,0.0618896484375,0.76971435546875,37.310001373291016,0.0,18.0,0.0808868408203125,-0.155792236328125,Closing,0.0,0.0,0.0,0.0,0.0,0.0,0.0,0.0,
2.846556999999997,0.0,0.0,-5068.0,0.0,390.0,0.0,0.0,0.125,4.501952664,3.6991882499999984,0.0,-1760.0,0.0,390.0,0.0,0.0,0.25,1.7663572410000001,1.2409424999999985,0.024414059999999793,-689.0,0.0,255.0,0.0,0.0,0.0,2.094726348,3.7052999999999985,0.0,3514.0,0.0,-397.5,0.0,0.0,0.125,0.384521445,3.7184999999999984,-0.004882811999999959,-0.25999999046325684,-0.5199999809265137,126.19999694824219,-0.01019287109375,0.0870361328125,1.1630859375,37.310001373291016,0.0,74.0,0.07904052734375,-0.1549224853515625,Closing,0.0,0.0,0.0,0.0,0.0,0.0,0.0,0.0,
2.8671439999999966,0.0,0.0,-5068.0,0.0,405.0,0.0,0.0,0.125,4.501952664,3.6991882499999984,0.0,-1760.0,0.0,360.0,0.0,0.0,0.0,1.77001935,1.2409424999999985,0.024414059999999793,-689.0,0.0,255.0,0.0,0.0,0.0,2.094726348,3.7052999999999985,0.0,3514.0,0.0,-352.5,0.0,0.0,0.125,0.384521445,3.7184999999999984,-0.004882811999999959,-0.1899999976158142,-0.6000000238418579,126.20999908447266,-0.102294921875,0.10968017578125,1.28155517578125,37.310001373291016,0.0,144.0,0.0773468017578125,-0.154083251953125,Closing,0.0,0.0,0.0,0.0,0.0,0.0,0.0,0.0,
2.888412,0.0,0.0,-5068.0,0.0,390.0,0.0,0.0,0.125,4.5031733670000005,3.6991882499999984,0.0,-1760.0,0.0,337.5,0.0,0.0,0.0,1.771240053,1.2409424999999985,0.028076169000000206,-689.0,0.0,247.5,0.0,0.0,0.0,2.094726348,3.7052999999999985,0.0,3514.0,0.0,-307.5,0.0,0.0,0.125,0.384521445,3.7184999999999984,0.0,-0.1899999976158142,-0.5600000023841858,126.2300033569336,0.03973388671875,0.11883544921875,0.9539794921875,37.310001373291016,0.0,69.0,0.0758056640625,-0.1533203125,Closing,0.0,0.0,0.0,0.0,0.0,0.0,0.0,0.0,
2.906412999999997,0.0,0.0,-5068.0,0.0,360.0,0.0,0.0,0.125,4.50439407,3.6991882499999984,0.0,-1760.0,0.0,337.5,0.0,0.0,0.0,1.779784974,1.2409424999999985,0.028076169000000206,-689.0,0.0,225.0,0.0,0.0,0.0,2.094726348,3.7052999999999985,0.0,3514.0,0.0,-285.0,0.0,0.0,0.125,0.384521445,3.7184999999999984,0.0,-0.05999999865889549,-0.5600000023841858,126.26000213623047,-0.07275390625,0.08233642578125,1.0965576171875,37.310001373291016,0.0,104.0,0.07293701171875,-0.1521148681640625,Closing,0.0,0.0,0.0,0.0,0.0,0.0,0.0,0.0,
2.9252899999999973,0.0,0.0,-5068.0,0.0,337.5,0.0,0.0,0.125,4.5031733670000005,3.6991882499999984,0.0,-1760.0,0.0,330.0,0.0,0.0,0.125,1.7907713010000001,1.2409424999999985,0.028076169000000206,-689.0,0.0,225.0,0.0,0.0,0.0,2.094726348,3.7052999999999985,0.0,3467.0,0.0,-292.5,0.0,0.0,0.125,0.384521445,3.7184999999999984,0.0,0.0,-0.550000011920929,126.26000213623047,0.0181884765625,0.1180419921875,1.08038330078125,37.310001373291016,0.0,78.0,0.0716705322265625,-0.1515960693359375,Closing,0.0,0.0,0.0,0.0,0.0,0.0,0.0,0.0,
2.947232,0.0,0.0,-5017.0,0.0,322.5,0.0,0.0,0.125,4.5031733670000005,3.6991882499999984,0.0,-1709.0,0.0,322.5,0.0,0.0,0.125,1.7895505980000002,1.2409424999999985,0.009765623999999917,-661.0,0.0,195.0,0.0,0.0,0.0,2.095947051,3.7052999999999985,0.0,3467.0,0.0,-300.0,0.0,0.0,0.125,0.384521445,3.7184999999999984,0.0,0.05000000074505806,-0.5400000214576721,126.2699966430664,-0.01068115234375,0.0914306640625,0.96771240234375,37.310001373291016,0.0,73.0,0.0705108642578125,-0.1511688232421875,Closing,0.0,0.0,0.0,0.0,0.0,0.0,0.0,0.0,
2.9665339999999962,0.0,0.0,-5017.0,0.0,307.5,0.0,0.0,0.125,4.5031733670000005,3.6991882499999984,0.0,-1709.0,0.0,307.5,0.0,0.0,0.25,1.7932127070000001,1.2409424999999985,0.009765623999999917,-661.0,0.0,172.5,0.0,0.0,0.0,2.094726348,3.7052999999999985,0.0,3467.0,0.0,-292.5,0.0,0.0,0.125,0.383300742,3.7184999999999984,0.0,0.18000000715255737,-0.5600000023841858,126.2699966430664,-0.03460693359375,0.08685302734375,1.0460205078125,37.310001373291016,0.0,81.0,0.068511962890625,-0.150482177734375,Closing,0.0,0.0,0.0,0.0,0.0,0.0,0.0,0.0,
