Time,ClimberA1,ClimberA2,FRpos,FRCurrent,FRspeed,FRsetpoint,FRApos,FRACurrent,FREncpos,FREncSetpoint,FREncSpeed,FLpos,FLCurrent,FLspeed,FLsetpoint,FLApos,FLACurrent,FLEncpos,FLEncSetpoint,FLEncSpeed,BRpos,BRCurrent,BRspeed,BRsetpoint,BRApos,BRACurrent,BREncpos,BREncSetpoint,BREncSpeed,BLpos,BLCurrent,BLspeed,BLsetpoint,BLApos,BLACurrent,BLEncpos,BLEncSetpoint,BLEncSpeed,navx_Pitch,navx_Roll,navx_Yaw,navx_XAcc,navx_YAcc,navx_ZAcc,navx_Temp,navx_Bar,navx_Alt,navx_XDis,navx_YDis,GearPlacerState,ShootOutputV,ShootOutputCurrent,ShootEncPos,ShootEncVelocity,ShootSpeed,ShootSetpoint,CarouselSetpoint,CarouselCurrent,
0.16032699999999023,0.0,0.0,-7658.0,0.0,0.0,0.0,0.0,0.125,0.833740149,0.01,0.0,6648.0,0.0,0.0,0.0,0.0,0.25,0.484619091,0.01,0.0,6798.0,0.0,0.0,0.0,0.0,0.0,3.3154293480000003,0.01,0.0,77.0,0.125,0.0,0.0,0.0,0.25,1.6845701400000002,0.01,0.0,1.0800000429153442,-0.25,166.77000427246094,-0.00347900390625,0.01788330078125,1.0133056640625,36.79999923706055,0.0,-1.0,1.0249481201171875,2.104095458984375,Closing,0.0,0.0,0.0,0.0,0.0,0.0,0.0,0.0,
0.22982399999999326,0.0,0.0,-7658.0,0.5,0.0,630.0,0.0,0.125,0.8312987430000001,0.01,0.0,6639.0,0.625,0.0,-630.0,0.0,0.25,0.483398388,0.01,0.0,6798.0,1.375,0.0,630.0,0.0,0.0,3.3129879420000004,0.01,-0.0012207029999995456,72.0,0.75,-15.0,-630.0,0.0,0.25,1.6845701400000002,0.01,0.0,1.0700000524520874,-0.23000000417232513,166.75999450683594,0.04071044921875,-0.0335693359375,1.10858154296875,36.79999923706055,0.0,-228.0,1.0245819091796875,2.104095458984375,Closing,0.0,0.0,0.0,0.0,0.0,0.0,0.0,0.0,
0.435025999999998,0.0,0.0,-7614.0,0.625,135.0,NaN,0.0,0.25,0.826415931,NaN,0.0,6627.0,0.75,-112.5,NaN,0.0,0.0,0.49316401200000004,NaN,0.0,6821.0,1.125,82.5,NaN,0.0,0.0,3.3154293480000003,NaN,0.0,36.0,0.375,-127.5,NaN,0.0,0.125,1.671142407,NaN,0.0,1.100000023841858,0.12999999523162842,166.6300048828125,-0.05438232421875,0.040283203125,1.119873046875,36.79999923706055,0.0,59.0,1.0125732421875,2.103851318359375,Closing,0.0,0.0,0.0,0.0,0.0,0.0,0.0,0.0,
0.5841159999999945,0.0,0.0,-7599.0,1.625,127.5,633.9595240739446,0.0,0.125,0.812988198,0.08778035369785799,-0.003662108999999969,6585.0,2.5,-135.0,-633.9595240739446,0.0,0.0,0.498046824,0.08834130425941757,0.008544920999999484,6839.0,2.875,82.5,633.9595240739446,0.0,0.0,3.3154293480000003,0.08792538323959945,-0.0012207029999995456,14.0,3.5,-127.5,-633.9595240739446,0.0,0.125,1.679687328,0.08823861430287709,-0.00610351500000017,1.149999976158142,0.12999999523162842,166.5399932861328,0.11474609375,0.03143310546875,1.21759033203125,36.79999923706055,0.0,-107.0,1.00738525390625,2.103729248046875,Closing,0.0,0.0,0.0,0.0,0.0,0.0,0.0,0.0,
0.7758009999999922,0.0,0.0,-7527.0,3.625,360.0,633.2741094157016,0.0,0.25,0.8557128030000001,0.0798579794981645,0.003662108999999969,6543.0,5.5,-337.5,-633.2741094157016,0.0,0.125,0.640869075,0.08036830301085733,0.06835936800000031,6875.0,5.875,270.0,633.2741094157016,0.0,0.125,3.4204098060000003,0.07998991979782294,-4.881806256000001,-23.0,4.875,-337.5,-633.2741094157016,0.0,0.25,1.679687328,0.0802748810536811,0.0,1.2899999618530273,1.1100000143051147,166.35000610351562,0.081787109375,0.01495361328125,0.9608154296875,36.79999923706055,0.0,-62.0,0.9818267822265625,2.100860595703125,Closing,0.0,0.0,0.0,0.0,0.0,0.0,0.0,0.0,
0.9734769999999989,0.0,0.0,-7354.0,2.125,630.0,633.9595240739446,0.0,0.125,0.8813475660000001,0.08778035369785799,0.04760741700000004,6379.0,3.5,-607.5,-633.9595240739446,0.0,0.25,0.692138601,0.08834130425941757,0.13061522100000023,7028.0,4.375,607.5,633.9595240739446,0.0,0.0,3.455810193,0.08792538323959945,0.07324217999999982,-175.0,3.875,-555.0,-633.9595240739446,0.0,0.25,1.677245922,0.08823861430287709,0.0,1.2999999523162842,1.2599999904632568,165.5,0.012451171875,-0.0301513671875,1.154541015625,36.779998779296875,0.0,-1.0,0.935333251953125,2.0878448486328125,Closing,0.0,0.0,0.0,0.0,0.0,0.0,0.0,0.0,
1.1838829999999871,0.0,0.0,-7117.0,0.875,742.5,633.9595240739446,0.0,0.125,0.887451081,0.08778035369785799,0.009765623999999917,6156.0,2.125,-712.5,-633.9595240739446,0.0,0.25,0.6188964210000001,0.08834130425941757,-0.032958981000000165,7260.0,2.625,735.0,633.9595240739446,0.0,0.125,3.45458949,0.08792538323959945,0.0,-390.0,2.75,-705.0,-633.9595240739446,0.0,0.25,1.673583813,0.08823861430287709,0.0,1.149999976158142,1.3799999952316284,164.58999633789062,0.02825927734375,-0.03167724609375,0.89013671875,36.779998779296875,0.0,-19.0,0.8900604248046875,2.07354736328125,Closing,0.0,0.0,0.0,0.0,0.0,0.0,0.0,0.0,
1.2730119999999878,0.0,0.0,-7117.0,0.75,750.0,632.6533324827765,0.0,0.125,0.888671784,0.07191924801325915,-0.0012207029999999897,6156.0,1.75,-727.5,-632.6533324827765,0.0,0.25,0.588378846,0.07237883994767812,-0.043945308000000516,7260.0,2.5,742.5,632.6533324827765,0.0,0.125,3.45458949,0.07203807204554381,0.0,-390.0,2.5,-727.5,-632.6533324827765,0.0,0.125,1.674804516,0.07229470512545669,-0.0012207029999999897,1.0800000429153442,1.3600000143051147,164.4600067138672,-0.02203369140625,0.06488037109375,1.06732177734375,36.779998779296875,0.0,57.0,0.8741455078125,2.069091796875,Closing,0.0,0.0,0.0,0.0,0.0,0.0,0.0,0.0,
1.4467949999999983,0.0,0.0,-6894.0,0.0,690.0,NaN,0.0,0.125,0.898437408,NaN,0.0,5925.0,0.0,-675.0,NaN,0.0,0.0,0.584716737,NaN,0.0,7499.0,0.5,727.5,NaN,0.0,0.0,3.460693005,NaN,0.0,-624.0,0.375,-652.5,NaN,0.0,0.125,1.674804516,NaN,0.0,0.9300000071525574,1.0800000429153442,164.17999267578125,-0.294189453125,-0.0849609375,0.882080078125,36.65999984741211,0.0,272.0,0.8737335205078125,2.0665130615234375,Closing,0.0,0.0,0.0,0.0,0.0,0.0,0.0,0.0,
1.5325919999999897,0.0,0.0,-6894.0,0.125,540.0,630.0328253167152,0.0,0.125,0.9082030320000001,4.924237817045013,0.014648435999999987,5824.0,0.375,-540.0,-630.0328253167152,0.0,0.0,0.574951113,4.955705609692922,-0.003662109000000413,7590.0,0.5,577.5,630.0328253167152,0.0,0.0,3.460693005,4.932373577769903,0.003662108999999969,-719.0,0.75,-562.5,-630.0328253167152,0.0,0.125,1.669921704,4.949944983925022,0.0,0.9399999976158142,0.44999998807907104,164.0500030517578,-0.08843994140625,0.045166015625,1.27545166015625,36.65999984741211,0.0,101.0,0.8829193115234375,2.0700531005859375,Closing,0.0,0.0,0.0,0.0,0.0,0.0,0.0,0.0,
1.7057339999999968,0.0,0.0,-6702.0,0.125,592.5,NaN,0.0,0.125,0.852050694,NaN,-0.03784179300000001,5739.0,0.25,-517.5,NaN,0.0,0.0,0.532226508,NaN,-0.024414059999999793,7696.0,0.25,622.5,NaN,0.0,0.0,3.382568013,NaN,0.0,-811.0,0.375,-442.5,NaN,0.0,0.125,1.6552732680000002,NaN,0.0,0.7900000214576721,0.05000000074505806,163.8000030517578,-0.48504638671875,-0.0616455078125,1.31317138671875,36.65999984741211,0.0,444.0,0.8895416259765625,2.080078125,Closing,0.0,0.0,0.0,0.0,0.0,0.0,0.0,0.0,
1.789150999999998,0.0,0.0,-6702.0,0.375,390.0,632.0973837155157,0.0,0.125,0.850829991,4.868285262885364,-0.015869138999999977,5670.0,0.625,-397.5,-632.0973837155157,0.0,0.0,0.535888617,4.899395496975415,-0.023193357000000248,7762.0,0.5,435.0,632.0973837155157,0.0,0.0,3.392333637,4.876328579538806,-0.032958981000000165,-874.0,1.0,-345.0,-632.0973837155157,0.0,0.125,1.6564939710000002,4.893700327372965,-0.009765623999999917,0.8799999952316284,-0.3400000035762787,163.77999877929688,-0.05841064453125,-0.00347900390625,1.278564453125,36.65999984741211,0.0,42.0,0.896484375,2.0888519287109375,Closing,0.0,0.0,0.0,0.0,0.0,0.0,0.0,0.0,
1.869880999999994,0.0,0.0,-6630.0,0.125,510.0,NaN,0.0,0.125,0.832519446,NaN,0.0012207029999999897,5670.0,0.125,-540.0,NaN,0.0,0.0,0.509033151,NaN,-0.0012207029999995456,7762.0,0.25,457.5,NaN,0.0,0.0,3.3728023890000003,NaN,0.013427732999999886,-874.0,0.375,-540.0,NaN,0.0,0.125,1.621093584,NaN,0.004882811999999959,0.8299999833106995,-0.3100000023841858,163.77000427246094,-0.04803466796875,-0.04730224609375,1.06866455078125,36.65999984741211,0.0,22.0,0.9042510986328125,2.0977325439453125,Closing,0.0,0.0,0.0,0.0,0.0,0.0,0.0,0.125,
1.9490679999999994,0.0,0.0,-6581.0,0.125,255.0,NaN,0.0,0.125,0.822753822,NaN,0.0,5625.0,0.0,-172.5,NaN,0.0,0.0,0.5029296360000001,NaN,0.0,7833.0,0.0,375.0,NaN,0.0,0.0,3.3728023890000003,NaN,0.0,-924.0,0.375,-217.5,NaN,0.0,0.125,1.6113279600000001,NaN,0.0,0.8299999833106995,-0.8299999833106995,163.72000122070312,-0.1220703125,-0.03790283203125,1.32305908203125,36.65999984741211,0.0,82.0,0.9175567626953125,2.1014862060546875,Closing,0.0,0.0,0.0,0.0,0.0,0.0,0.0,0.125,
2.171929999999993,0.0,0.0,-6531.0,0.125,75.0,NaN,0.0,0.125,0.822753822,NaN,0.0,5569.0,0.0,-67.5,NaN,0.0,0.0,0.496826121,NaN,-0.009765623999999917,7889.0,0.125,75.0,NaN,0.0,0.0,3.3728023890000003,NaN,0.0,-982.0,0.375,-67.5,NaN,0.0,0.125,1.6113279600000001,NaN,-0.004882811999999959,0.7599999904632568,-1.6399999856948853,163.69000244140625,-0.06622314453125,0.02783203125,1.129150390625,36.65999984741211,0.0,35.0,0.9738922119140625,2.1044158935546875,Closing,0.0,0.0,0.0,0.0,0.0,0.0,0.0,0.0,
2.267347999999998,0.0,0.0,-6506.0,0.75,45.0,638.3481886870205,0.0,0.125,0.820312416,4.805157876797849,0.0,5544.0,1.375,-82.5,-638.3481886870205,0.0,0.0,0.498046824,4.8358647023667,0.0,7894.0,1.5,22.5,638.3481886870205,0.0,0.0,3.347167626,4.8130968952172335,0.0,-997.0,1.875,-45.0,-638.3481886870205,0.0,0.125,1.612548663,4.830243382415805,0.0,0.7699999809265137,-1.6299999952316284,163.64999389648438,0.07012939453125,-0.05364990234375,1.109130859375,36.65999984741211,0.0,-116.0,0.9950408935546875,2.1043548583984375,Closing,0.0,0.0,0.0,0.0,0.0,0.0,0.0,0.0,
2.4355639999999985,0.0,0.0,-6485.0,0.125,105.0,NaN,0.0,0.25,0.7360839090000001,NaN,0.0,5526.0,0.375,-120.0,NaN,0.0,0.0,0.435790971,NaN,0.0,7911.0,0.75,90.0,NaN,0.0,0.0,3.276366852,NaN,0.0,-1018.0,1.0,-127.5,NaN,0.0,0.125,1.539306483,NaN,0.0,0.75,-0.8299999833106995,163.58999633789062,-0.014892578125,-0.02838134765625,0.96710205078125,36.59000015258789,0.0,-10.0,1.0327301025390625,2.1023712158203125,Closing,0.0,0.0,0.0,0.0,0.0,0.0,0.0,0.0,
2.642257999999987,0.0,0.0,-6442.0,1.5,187.5,641.7408453098981,0.0,0.125,0.721435473,4.781862543362273,-0.048828120000000474,5477.0,3.125,-165.0,-641.7408453098981,0.0,0.0,0.435790971,4.812420502700562,0.0,7957.0,4.0,150.0,641.7408453098981,0.0,0.0,3.24706998,4.789763073539237,0.0,-1065.0,4.0,-150.0,-641.7408453098981,0.0,0.25,1.534423671,4.806826434824616,0.0,0.7900000214576721,-0.6899999976158142,163.5500030517578,0.24127197265625,0.10528564453125,1.010498046875,36.59000015258789,0.0,-217.0,1.0544891357421875,2.100830078125,Closing,0.0,0.0,0.0,0.0,0.0,0.0,0.0,0.0,
2.8445729999999894,0.0,0.0,-6395.0,2.25,375.0,644.3137362062541,0.0,0.25,0.670165947,4.766477385014434,0.0,5371.0,4.875,-390.0,-644.3137362062541,0.0,0.25,0.37597652400000003,4.796937027213962,0.0,8066.0,4.5,390.0,644.3137362062541,0.0,0.125,3.178710612,4.774352496035848,0.0,-1167.0,4.75,-375.0,-644.3137362062541,0.0,0.25,1.492919769,4.7913609576847485,0.0,0.550000011920929,0.25,163.33999633789062,0.11846923828125,-0.01287841796875,0.95709228515625,36.59000015258789,0.0,-115.0,1.028167724609375,2.097076416015625,Closing,0.0,0.0,0.0,0.0,0.0,0.0,0.0,0.125,
3.0365979999999984,0.0,0.0,-6231.0,1.625,592.5,645.6924288360907,0.0,0.125,0.6481932930000001,4.758832252386074,-0.048828119999999586,5280.0,3.125,-615.0,-645.6924288360907,0.0,0.125,0.324706998,4.789243039218082,-0.06713866499999988,8158.0,3.25,600.0,645.6924288360907,0.0,0.0,3.1738278,4.76669473222027,-0.024414059999999793,-1258.0,3.5,-622.5,-645.6924288360907,0.0,0.25,1.456298679,4.783675913356833,0.0,0.4000000059604645,0.6200000047683716,163.25999450683594,0.02764892578125,-0.0355224609375,1.221923828125,36.630001068115234,0.0,-26.0,0.985809326171875,2.0979156494140625,Closing,0.0,0.0,0.0,0.0,0.0,0.0,0.0,0.125,
3.241051999999996,0.0,0.0,-6012.0,0.75,712.5,642.9964157170707,0.0,0.125,0.6445311840000001,4.774154573861388,-0.004882811999999959,5055.0,1.5,-735.0,-642.9964157170707,0.0,0.125,0.324706998,4.804663276280129,-0.019531247999999835,8380.0,2.125,720.0,642.9964157170707,0.0,0.0,3.1738278,4.782042369032882,0.0,-1482.0,2.25,-735.0,-642.9964157170707,0.0,0.125,1.463622897,4.799078225581942,0.0,0.38999998569488525,0.6499999761581421,163.22999572753906,-0.05157470703125,-0.0592041015625,0.99798583984375,36.630001068115234,0.0,41.0,0.927703857421875,2.09637451171875,Closing,0.0,0.0,0.0,0.0,0.0,0.0,0.0,0.125,
3.4438689999999914,0.0,0.0,-5894.0,0.375,735.0,644.3137362062541,0.0,0.125,0.6457518870000001,4.766477385014434,0.0,4811.0,0.625,-765.0,-644.3137362062541,0.0,0.125,0.307617156,4.796937027213962,0.0,8618.0,1.375,735.0,644.3137362062541,0.0,0.0,3.1738278,4.774352496035848,0.0,-1721.0,1.25,-742.5,-644.3137362062541,0.0,0.125,1.463622897,4.7913609576847485,0.0,0.4099999964237213,0.3799999952316284,163.11000061035156,-0.0478515625,-0.0533447265625,1.076416015625,36.61000061035156,0.0,35.0,0.8845367431640625,2.0956268310546875,Closing,0.0,0.0,0.0,0.0,0.0,0.0,0.0,0.0,
3.6472909999999974,0.0,0.0,-5667.0,0.375,682.5,644.3137362062541,0.0,0.125,0.643310481,4.766477385014434,0.0,4693.0,0.5,-727.5,-644.3137362062541,0.0,0.125,0.319824186,4.796937027213962,0.0,8734.0,1.125,720.0,644.3137362062541,0.0,0.0,3.1738278,4.774352496035848,0.003662108999999525,-1837.0,1.25,-705.0,-644.3137362062541,0.0,0.125,1.462402194,4.7913609576847485,-0.0012207030000004337,0.5299999713897705,0.14000000059604645,162.97999572753906,-0.03167724609375,0.04119873046875,1.0865478515625,36.61000061035156,0.0,42.0,0.88677978515625,2.094879150390625,Closing,0.0,0.0,0.0,0.0,0.0,0.0,0.0,0.0,
3.839882999999987,0.0,0.0,-5451.0,0.375,667.5,639.416391896988,0.0,0.25,0.643310481,4.797365553205289,0.0012207029999995456,4473.0,0.5,-667.5,-639.416391896988,0.0,0.25,0.32226559200000005,4.828022582799175,0.0,8953.0,1.125,667.5,639.416391896988,0.0,0.0,3.18603483,4.805291697250486,0.0,-2055.0,1.25,-667.5,-639.416391896988,0.0,0.25,1.463622897,4.8224103787077786,0.0,0.5400000214576721,-0.1599999964237213,162.8699951171875,9.1552734375E-4,-0.007568359375,1.06640625,36.61000061035156,0.0,-9.0,0.8866729736328125,2.0918121337890625,Closing,0.0,0.0,0.0,0.0,0.0,0.0,0.0,0.125,
4.0351419999999925,0.0,0.0,-5347.0,0.375,645.0,637.3430942016728,0.0,0.25,0.640869075,4.812975549907741,0.0,4370.0,0.75,-622.5,-637.3430942016728,0.0,0.25,0.373535118,4.84373233344482,0.03417968399999971,9058.0,1.375,630.0,637.3430942016728,0.0,0.0,3.183593424,4.82092748458345,0.0,-2260.0,1.375,-630.0,-637.3430942016728,0.0,0.25,1.463622897,4.838101867979261,0.0,0.6899999976158142,-0.38999998569488525,162.69000244140625,-3.0517578125E-4,-0.0106201171875,0.83477783203125,36.560001373291016,0.0,-11.0,0.8809051513671875,2.091766357421875,Closing,0.0,0.0,0.0,0.0,0.0,0.0,0.0,0.0,
4.246993999999992,0.0,0.0,-5142.0,0.375,637.5,633.9595240739446,0.0,0.25,0.664062432,4.844470646302142,0.003662109000000413,4175.0,1.0,-600.0,-633.9595240739446,0.0,0.25,0.379638633,4.875428695740583,0.019531247999999835,9258.0,1.5,607.5,633.9595240739446,0.0,0.0,3.2226559200000002,4.852474616760401,0.019531247999999835,-2358.0,1.625,-607.5,-633.9595240739446,0.0,0.25,1.486816254,4.869761385697123,0.0,0.7799999713897705,-0.5,162.44000244140625,-4.2724609375E-4,0.03045654296875,1.11553955078125,36.560001373291016,0.0,-4.0,0.8827972412109375,2.0902862548828125,Closing,0.0,0.0,0.0,0.0,0.0,0.0,0.0,0.0,
4.435131999999998,0.0,0.0,-4945.0,0.5,607.5,632.0973837155157,0.0,0.25,0.7263182850000001,4.868285262885364,0.052490229,3984.0,1.25,-585.0,-632.0973837155157,0.0,0.25,0.411376911,4.899395496975415,0.019531247999999835,9447.0,2.0,577.5,632.0973837155157,0.0,0.0,3.2714840400000003,4.876328579538806,0.05371093200000043,-2553.0,2.0,-600.0,-632.0973837155157,0.0,0.25,1.5258787500000002,4.893700327372965,0.0,0.8899999856948853,-0.49000000953674316,162.27000427246094,0.00323486328125,0.07489013671875,1.05914306640625,36.560001373291016,0.0,5.0,0.8837738037109375,2.08734130859375,Closing,0.0,0.0,0.0,0.0,0.0,0.0,0.0,0.125,
4.581284999999989,0.0,0.0,-4849.0,0.5,600.0,630.8201204892425,0.0,0.25,0.755615157,4.892218434357367,0.03906249599999967,3886.0,1.25,-615.0,-630.8201204892425,0.0,0.25,0.45532221900000003,4.923481610710823,0.02929687200000064,9545.0,2.0,607.5,630.8201204892425,0.0,0.0,3.276366852,4.900301293080814,0.013427732999999442,-2651.0,2.0,-615.0,-630.8201204892425,0.0,0.25,1.5844724940000001,4.917758442857799,0.03906249599999967,0.9800000190734863,-0.46000000834465027,162.1699981689453,-0.02490234375,0.07196044921875,1.20953369140625,36.560001373291016,0.0,30.0,0.8836669921875,2.0861053466796875,Closing,0.0,0.0,0.0,0.0,0.0,0.0,0.0,0.0,
4.767443999999989,0.0,0.0,-4751.0,0.5,615.0,630.1312910070806,0.0,0.25,0.755615157,4.916226303734761,0.01342773300000033,3787.0,1.125,-630.0,-630.1312910070806,0.0,0.125,0.4882812,4.947642899700257,0.0,9645.0,1.875,622.5,630.1312910070806,0.0,0.0,3.305663724,4.924348827943105,0.0,-2857.0,1.625,-645.0,-630.1312910070806,0.0,0.125,1.616210772,4.9418916462112215,0.0,1.0399999618530273,-0.25,162.14999389648438,-0.0355224609375,3.662109375E-4,1.17327880859375,36.560001373291016,0.0,22.0,0.881134033203125,2.0813140869140625,Closing,0.0,0.0,0.0,0.0,0.0,0.0,0.0,0.125,
4.854042999999991,0.0,0.0,-4651.0,0.5,630.0,630.0328253167152,0.0,0.25,0.7629393750000001,4.924237817045013,0.0,3684.0,1.125,-652.5,-630.0328253167152,0.0,0.125,0.4882812,4.955705609692922,0.0,9746.0,1.875,637.5,630.0328253167152,0.0,0.0,3.3166500510000003,4.932373577769903,0.0,-2857.0,1.375,-645.0,-630.0328253167152,0.0,0.125,1.617431475,4.949944983925022,0.0,0.9599999785423279,-0.2800000011920929,162.19000244140625,0.0499267578125,-0.0770263671875,1.17974853515625,36.560001373291016,0.0,-82.0,0.8779296875,2.080535888671875,Closing,0.0,0.0,0.0,0.0,0.0,0.0,0.0,0.0,
4.942043999999995,0.0,0.0,-4554.0,0.0,562.5,NaN,0.0,0.125,0.7653807810000001,NaN,0.0,3581.0,0.375,-607.5,NaN,0.0,0.0,0.4882812,NaN,0.0,9849.0,0.5,630.0,NaN,0.0,0.0,3.3251949720000002,NaN,0.006103514999999504,-2961.0,0.375,-585.0,NaN,0.0,0.125,1.597900227,NaN,0.0,0.8899999856948853,-0.3199999928474426,162.14999389648438,-0.07440185546875,0.0244140625,1.20233154296875,36.529998779296875,0.0,65.0,0.8720245361328125,2.0809478759765625,Closing,0.0,0.0,0.0,0.0,0.0,0.0,0.0,0.0,
5.030699999999997,0.0,0.0,-4488.0,0.125,427.5,NaN,0.0,0.125,0.770263593,NaN,0.009765623999999917,3521.0,0.125,-382.5,NaN,0.0,0.0,0.469970655,NaN,0.0,9921.0,0.125,442.5,NaN,0.0,0.0,3.348388329,NaN,0.008544921000000372,-3025.0,0.125,-390.0,NaN,0.0,0.125,1.5588377310000001,NaN,-0.02075195099999938,0.8100000023841858,-0.8399999737739563,162.14999389648438,-0.10321044921875,0.04315185546875,1.1351318359375,36.529998779296875,0.0,90.0,0.870513916015625,2.0836181640625,Closing,0.0,0.0,0.0,0.0,0.0,0.0,0.0,0.0,
5.118399999999994,0.0,0.0,-4488.0,0.125,412.5,NaN,0.0,0.125,0.770263593,NaN,0.0,3521.0,0.125,-397.5,NaN,0.0,0.0,0.468749952,NaN,0.0,9921.0,0.125,390.0,NaN,0.0,0.0,3.348388329,NaN,0.0,-3081.0,0.125,-412.5,NaN,0.0,0.125,1.5539549190000002,NaN,-0.03662109000000058,0.8399999737739563,-1.399999976158142,162.07000732421875,-0.16070556640625,0.03070068359375,1.20782470703125,36.529998779296875,0.0,128.0,0.8760986328125,2.0890655517578125,Closing,0.0,0.0,0.0,0.0,0.0,0.0,0.0,0.0,
5.20859599999999,0.0,0.0,-4435.0,0.125,240.0,NaN,0.0,0.125,0.76904289,NaN,0.0,3467.0,0.0,-225.0,NaN,0.0,0.0,0.46386714,NaN,0.0,9977.0,0.125,240.0,NaN,0.0,0.0,3.348388329,NaN,0.0,-3081.0,0.125,-232.5,NaN,0.0,0.125,1.5551756220000001,NaN,0.0,0.8399999737739563,-1.8700000047683716,162.02000427246094,-0.11395263671875,0.02337646484375,0.9276123046875,36.529998779296875,0.0,82.0,0.8895111083984375,2.091705322265625,Closing,0.0,0.0,0.0,0.0,0.0,0.0,0.0,0.125,
5.320536999999996,0.0,0.0,-4413.0,0.125,90.0,NaN,0.0,0.125,0.770263593,NaN,0.0,3442.0,0.0,-105.0,NaN,0.0,0.0,0.465087843,NaN,0.0,10003.0,0.0,82.5,NaN,0.0,0.0,3.347167626,NaN,0.0,-3108.0,0.25,-90.0,NaN,0.0,0.125,1.5539549190000002,NaN,0.0,0.8500000238418579,-2.1700000762939453,162.02000427246094,-0.12225341796875,0.01373291015625,0.99591064453125,36.529998779296875,0.0,79.0,0.9052886962890625,2.093292236328125,Closing,0.0,0.0,0.0,0.0,0.0,0.0,0.0,0.125,
5.405513999999996,0.0,0.0,-4411.0,0.125,0.0,NaN,0.0,0.125,0.770263593,NaN,0.0,3438.0,0.0,-7.5,NaN,0.0,0.0,0.46386714,NaN,0.0,10007.0,0.125,7.5,NaN,0.0,0.0,3.348388329,NaN,0.0,-3111.0,0.125,0.0,NaN,0.0,0.125,1.5551756220000001,NaN,0.0,0.8399999737739563,-2.2100000381469727,162.00999450683594,0.01214599609375,0.02032470703125,1.03271484375,36.529998779296875,0.0,-47.0,0.9141387939453125,2.0941009521484375,Closing,0.0,0.0,0.0,0.0,0.0,0.0,0.0,0.0,
5.518285999999993,0.0,0.0,-4411.0,0.125,0.0,NaN,0.0,0.125,0.772704999,NaN,0.0,3438.0,0.0,0.0,NaN,0.0,0.0,0.46386714,NaN,0.0,10007.0,0.125,0.0,NaN,0.0,0.0,3.348388329,NaN,0.0,-3111.0,0.25,0.0,NaN,0.0,0.125,1.5539549190000002,NaN,0.0,0.8299999833106995,-2.0399999618530273,162.02000427246094,0.01495361328125,0.00341796875,0.96875,36.529998779296875,0.0,-50.0,0.9122772216796875,2.0935821533203125,Closing,0.0,0.0,0.0,0.0,0.0,0.0,0.0,0.0,
5.603445999999996,0.0,0.0,-4411.0,0.125,0.0,NaN,0.0,0.125,0.7751464050000001,NaN,0.0,3438.0,0.0,0.0,NaN,0.0,0.0,0.465087843,NaN,0.0,10007.0,0.125,0.0,NaN,0.0,0.0,3.349609032,NaN,0.0,-3111.0,0.25,0.0,NaN,0.0,0.125,1.5551756220000001,NaN,0.0,0.8100000023841858,-1.850000023841858,162.00999450683594,0.011962890625,0.01055908203125,1.02679443359375,36.529998779296875,0.0,-44.0,0.9073486328125,2.0935821533203125,Closing,0.0,0.0,0.0,0.0,0.0,0.0,0.0,0.125,
5.711187999999995,0.0,0.0,-4411.0,0.125,0.0,NaN,0.0,0.125,0.770263593,NaN,0.0,3438.0,0.0,0.0,NaN,0.0,0.0,0.46386714,NaN,0.0,10007.0,0.125,0.0,NaN,0.0,0.0,3.348388329,NaN,0.0,-3111.0,0.125,0.0,NaN,0.0,0.125,1.5551756220000001,NaN,0.0,0.7900000214576721,-1.7200000286102295,162.0,-0.00518798828125,0.012451171875,1.02008056640625,36.529998779296875,0.0,-24.0,0.9010467529296875,2.0935821533203125,Closing,0.0,0.0,0.0,0.0,0.0,0.0,0.0,0.125,
5.863617999999987,0.0,0.0,-4411.0,0.125,0.0,NaN,0.0,0.25,0.770263593,NaN,0.0,3438.0,0.0,0.0,NaN,0.0,0.0,0.46386714,NaN,-0.0012207029999995456,10007.0,0.125,0.0,NaN,0.0,0.0,3.349609032,NaN,0.0,-3111.0,0.25,0.0,NaN,0.0,0.125,1.5551756220000001,NaN,0.0,0.7799999713897705,-1.6299999952316284,162.0,-0.0126953125,0.0111083984375,1.0068359375,36.529998779296875,0.0,-16.0,0.8986358642578125,2.0935821533203125,Closing,0.0,0.0,0.0,0.0,0.0,0.0,0.0,0.0,
5.929934999999998,0.0,0.0,-4411.0,0.375,0.0,420.0,0.0,0.125,0.766601484,0.01,0.0012207029999995456,3438.0,0.375,-15.0,-420.0,0.0,0.0,0.46386714,0.01,0.0012207029999995456,10007.0,0.75,7.5,420.0,0.0,0.0,3.348388329,0.01,0.0,-3111.0,0.625,-7.5,-420.0,0.0,0.125,1.5539549190000002,0.01,0.0,0.7699999809265137,-1.5800000429153442,161.99000549316406,-0.00311279296875,0.0059814453125,1.0142822265625,36.529998779296875,0.0,-26.0,0.8986053466796875,2.0935821533203125,Closing,0.0,0.0,0.0,0.0,0.0,0.0,0.0,0.125,
5.996593999999997,0.0,0.0,-4391.0,0.375,52.5,420.0,0.0,0.25,0.770263593,4.932114068287955,0.0,3419.0,0.875,-127.5,-420.0,0.0,0.25,0.46630854600000005,4.96363219324112,0.0,10023.0,1.375,90.0,420.0,0.0,0.0,3.350829735,4.9402628420511885,0.0,-3126.0,1.0,-97.5,-420.0,0.0,0.25,1.567382652,4.957862353430854,0.0,0.7599999904632568,-1.3200000524520874,162.0,0.05535888671875,0.037353515625,0.9722900390625,36.560001373291016,0.0,-66.0,0.8970794677734375,2.0926361083984375,Closing,0.0,0.0,0.0,0.0,0.0,0.0,0.0,0.0,
6.065898000000001,0.0,0.0,-4391.0,0.5,150.0,420.0,0.0,0.25,0.767822187,0.01,0.0,3419.0,1.125,-105.0,-420.0,0.0,0.25,0.47973627900000004,0.01,0.009765624000000805,10023.0,1.5,105.0,420.0,0.0,0.0,3.334960596,0.01,-0.009765623999999917,-3126.0,1.875,-60.0,-420.0,0.0,0.25,1.588134603,0.01,0.0,0.7599999904632568,-1.1799999475479126,161.97999572753906,0.02142333984375,0.037841796875,1.058837890625,36.560001373291016,0.0,-34.0,0.8931732177734375,2.0903778076171875,Closing,0.0,0.0,0.0,0.0,0.0,0.0,0.0,0.0,
6.132987999999997,0.0,0.0,-4376.0,0.875,90.0,420.0,0.0,0.25,0.770263593,4.931976927519862,0.0012207030000004337,3405.0,2.0,-67.5,-420.0,0.0,0.25,0.5029296360000001,4.963494176090241,0.009765623999999917,10035.0,2.25,75.0,420.0,0.0,0.0,3.3239742690000003,4.9401254747009276,0.0,-3138.0,2.375,-82.5,-420.0,0.0,0.375,1.6064451480000002,4.957724496714274,0.02685546600000066,0.75,-1.0199999809265137,161.97999572753906,0.05517578125,0.02239990234375,1.0040283203125,36.560001373291016,0.0,-66.0,0.888824462890625,2.087890625,Closing,0.0,0.0,0.0,0.0,0.0,0.0,0.0,0.0,
6.198535999999993,0.0,0.0,-4376.0,1.375,120.0,420.0,0.0,0.25,0.770263593,4.931976927519862,0.0012207029999995456,3405.0,2.625,-112.5,-420.0,0.0,0.125,0.5029296360000001,4.963494176090241,0.019531247999999835,10035.0,2.75,120.0,420.0,0.0,0.0,3.3239742690000003,4.9401254747009276,-0.009765623999999917,-3138.0,2.875,-112.5,-420.0,0.0,0.125,1.612548663,4.957724496714274,0.0183105449999994,0.7400000095367432,-0.8299999833106995,161.9600067138672,0.0567626953125,0.019775390625,0.98822021484375,36.560001373291016,0.0,-65.0,0.8830718994140625,2.084930419921875,Closing,0.0,0.0,0.0,0.0,0.0,0.0,0.0,0.0,
6.265888999999995,0.0,0.0,-4351.0,1.5,150.0,420.00000000000006,0.0,0.25,0.773925702,4.931703064095773,-0.0012207029999995456,3381.0,2.875,-150.0,-420.00000000000006,0.0,0.0,0.5029296360000001,4.96321856257248,-0.0012207030000004337,10060.0,2.75,165.0,420.00000000000006,0.0,0.0,3.3239742690000003,4.939851158803304,0.0,-3162.0,2.875,-157.5,-420.00000000000006,0.0,0.125,1.640624832,4.957449203575982,0.0,0.7300000190734863,-0.6200000047683716,161.94000244140625,0.10272216796875,0.03863525390625,1.0130615234375,36.560001373291016,0.0,-100.0,0.87384033203125,2.0806732177734375,Closing,0.0,0.0,0.0,0.0,0.0,0.0,0.0,0.0,
6.332792000000001,0.0,0.0,-4351.0,0.625,195.0,0.0,0.0,0.25,0.773925702,0.01,0.003662108999999525,3381.0,1.25,-202.5,-0.0,0.0,0.0,0.5029296360000001,0.01,0.0012207030000004337,10060.0,1.375,210.0,0.0,0.0,0.0,3.3251949720000002,0.01,0.0,-3162.0,1.75,-210.0,-0.0,0.0,0.125,1.6552732680000002,0.01,-4.929923831,0.7300000190734863,-0.5400000214576721,161.9499969482422,-0.02117919921875,0.03399658203125,1.0184326171875,36.560001373291016,0.0,17.0,0.864959716796875,2.0767822265625,Closing,0.0,0.0,0.0,0.0,0.0,0.0,0.0,0.0,
6.396061000000001,0.0,0.0,-4324.0,0.125,157.5,0.0,0.0,0.25,0.773925702,0.01,-0.0012207029999995456,3348.0,0.25,-195.0,-0.0,0.0,0.125,0.5029296360000001,0.01,0.0012207029999995456,10096.0,0.5,217.5,0.0,0.0,0.0,3.3251949720000002,0.01,-0.0012207029999995456,-3199.0,0.625,-225.0,-0.0,0.0,0.25,1.665038892,0.01,0.015869139000000088,0.7400000095367432,-0.7799999713897705,162.02999877929688,-0.20794677734375,0.01458740234375,1.04998779296875,36.560001373291016,0.0,184.0,0.8570556640625,2.0731658935546875,Closing,0.0,0.0,0.0,0.0,0.0,0.0,0.0,0.0,
6.467120999999999,0.0,0.0,-4324.0,1.875,120.0,840.0,0.0,4.5,0.666503838,2.4673585125765456,0.0,3316.0,2.625,-195.0,-840.0,0.0,8.625,0.383300742,2.483125892005918,-0.0012207029999995456,10115.0,3.625,165.0,840.0,0.0,5.0,3.2141109990000003,2.4714350497436497,0.0,-3226.0,5.0,-165.0,-840.0,0.0,6.5,1.882324026,2.480239449564613,0.0,0.6800000071525574,-1.1699999570846558,162.47999572753906,0.05926513671875,-0.07769775390625,0.91937255859375,36.56999969482422,0.0,-101.0,0.8520965576171875,2.0704345703125,Closing,0.0,0.0,0.0,0.0,0.0,0.0,0.0,0.125,
6.534000999999989,0.0,0.0,-4300.0,5.875,165.0,840.0,0.0,1.5,0.172119123,2.4735237845153364,-0.18798826200000018,3316.0,9.875,-172.5,-840.0,0.0,2.625,4.887694812,2.4893305624275186,-0.17456052899999985,10115.0,10.125,82.5,840.0,0.0,1.5,2.766112998,2.4776105078633606,0.0,-3226.0,7.75,-165.0,-840.0,0.0,1.625,2.332763433,2.486436907535127,0.22705075800000007,0.6499999761581421,-0.9900000095367432,162.63999938964844,-0.0308837890625,-0.00860595703125,0.89459228515625,36.56999969482422,0.0,9.0,0.848358154296875,2.068145751953125,Closing,0.0,0.0,0.0,0.0,0.0,0.0,0.0,0.0,
6.604482999999993,0.0,0.0,-4278.0,7.875,135.0,840.0,0.0,1.5,4.637450697,2.475715946244343,-0.45532221900000014,3288.0,12.875,-165.0,-840.0,0.0,2.0,4.470214386,2.4915367329215976,4.526366724,10135.0,14.5,120.0,840.0,0.0,1.25,2.3229978090000003,2.479806291453041,-0.45532221899999925,-3262.0,10.0,-217.5,-840.0,0.0,1.5,2.8076169,2.488640513526066,0.4577636249999999,0.5699999928474426,-1.100000023841858,163.47000122070312,-0.1180419921875,-0.07830810546875,0.99761962890625,36.56999969482422,0.0,69.0,0.843963623046875,2.0652618408203125,Closing,0.0,0.0,0.0,0.0,0.0,0.0,0.0,0.0,
6.670202999999994,0.0,0.0,-4278.0,9.0,157.5,840.0,0.0,1.0,4.208983944,2.4870875500255134,-0.46081591099999963,3288.0,17.25,-180.0,-840.0,0.0,2.375,4.058837475,2.5029810056686372,0.0,10135.0,18.0,82.5,840.0,0.0,1.5,1.882324026,2.4911966832478813,-0.4541015160000006,-3262.0,11.75,-247.5,-840.0,0.0,1.0,3.251952792,2.5000714831882025,0.0,0.33000001311302185,-1.309999942779541,164.14999389648438,-0.14190673828125,-0.081298828125,0.995849609375,36.56999969482422,0.0,90.0,0.84173583984375,2.0641632080078125,Closing,0.0,0.0,0.0,0.0,0.0,0.0,0.0,0.0,
6.735466999999989,0.0,0.0,-4232.0,10.5,255.0,840.0,0.0,1.125,3.768310161,2.4973630729421807,-0.44677729799999977,3264.0,21.25,-142.5,-840.0,0.0,2.625,3.696288684,2.513322193168638,-0.38696285099999983,10157.0,18.875,135.0,840.0,0.0,1.0,1.4648436,2.501489183247882,0.0,-3285.0,16.5,-135.0,-840.0,0.0,1.25,3.669433218,2.5104006498548697,0.42724604999999993,-0.07999999821186066,-1.5099999904632568,164.39999389648438,-0.14404296875,-0.16363525390625,0.946044921875,36.56999969482422,0.0,71.0,0.8402557373046875,2.066650390625,Closing,0.0,0.0,0.0,0.0,0.0,0.0,0.0,0.0,
6.80647099999999,0.0,0.0,-4232.0,10.625,382.5,839.9999999999999,0.0,0.625,3.4130855880000004,2.499829098095277,-0.44189448600000025,3264.0,22.625,-217.5,-839.9999999999999,0.0,2.0,3.333739893,2.5158039771804783,-0.36987300900000086,10157.0,18.625,330.0,839.9999999999999,0.0,0.75,1.051025283,2.503959282735186,-0.4418944859999998,-3285.0,25.5,-112.5,-839.9999999999999,0.0,0.75,4.031982009,2.512879548984101,0.4394530800000003,-0.029999999329447746,-2.0799999237060547,164.8800048828125,-0.33154296875,0.26995849609375,0.95611572265625,36.56999969482422,0.0,410.0,0.8433837890625,2.0728759765625,Closing,0.0,0.0,0.0,0.0,0.0,0.0,0.0,0.125,
6.870649999999994,0.0,0.0,-4159.0,11.0,457.5,840.0,0.0,0.25,3.289794585,2.507638595858847,0.0,3212.0,23.0,-375.0,-840.0,0.0,0.25,3.1103512440000003,2.523663380668638,0.0,10223.0,17.625,465.0,840.0,0.0,0.125,0.8447264760000001,2.511781683247882,-0.4028319899999997,-3320.0,22.875,-315.0,-840.0,0.0,0.375,4.151610903,2.5207298165215364,0.0,0.6000000238418579,-2.9600000381469727,165.17999267578125,-0.3382568359375,0.020263671875,0.90277099609375,36.56999969482422,0.0,284.0,0.8533172607421875,2.076202392578125,Closing,0.0,0.0,0.0,0.0,0.0,0.0,0.0,0.125,
6.942765,0.0,0.0,-4159.0,10.125,600.0,840.0,0.0,0.125,3.2702633370000003,2.5105156252041265,-0.08666991300000015,3212.0,19.75,-585.0,-840.0,0.0,0.25,3.028564143,2.5265587953491186,-0.1928710739999997,10223.0,15.5,570.0,840.0,0.0,0.125,0.798339762,2.514663465983071,0.0,-3433.0,19.0,-585.0,-840.0,0.0,0.125,4.252929252,2.52362186550564,0.11840819099999944,0.6700000166893005,-3.6500000953674316,165.38999938964844,-0.3448486328125,-0.05517578125,1.0435791015625,36.56999969482422,0.0,251.0,0.869384765625,2.0796051025390625,Closing,0.0,0.0,0.0,0.0,0.0,0.0,0.0,0.125,
7.00930799999999,0.0,0.0,-4033.0,8.125,817.5,840.0,0.0,0.25,3.293456694,2.5140779402777755,-0.004882811999999959,3100.0,15.25,-825.0,-840.0,0.0,0.125,3.0053707860000003,2.5301438749999976,-0.08789061600000014,10320.0,14.375,630.0,840.0,0.0,0.125,0.811767495,2.5182316666666646,-0.032958981000000165,-3433.0,13.125,-862.5,-840.0,0.0,0.25,4.274901906,2.5272027777777755,0.104980458,0.699999988079071,-4.190000057220459,165.50999450683594,-0.32574462890625,-0.0521240234375,0.84112548828125,36.58000183105469,0.0,239.0,0.8960723876953125,2.085205078125,Closing,0.0,0.0,0.0,0.0,0.0,0.0,0.0,0.0,
7.074077999999994,0.0,0.0,-4033.0,5.375,1005.0,839.9999999999999,0.0,0.25,3.292235991,2.5150368803741854,0.0,2923.0,10.0,-1042.5,-839.9999999999999,0.0,0.25,3.0041500830000003,2.531108943096158,0.0,10440.0,14.25,705.0,839.9999999999999,0.0,0.125,0.852050694,2.519192191111244,0.01831054500000029,-3601.0,9.75,-1035.0,-839.9999999999999,0.0,0.5,4.252929252,2.528166724056665,0.02075195100000027,0.8299999833106995,-4.570000171661377,165.2100067138672,-0.29931640625,0.0369873046875,1.10235595703125,36.58000183105469,0.0,208.0,0.9267425537109375,2.09027099609375,Closing,0.0,0.0,0.0,0.0,0.0,0.0,0.0,0.0,
7.146902999999991,0.0,0.0,-3865.0,4.125,1095.0,840.0000000000001,0.0,0.25,3.293456694,2.510926838452358,0.0,2923.0,6.125,-1192.5,-840.0000000000001,0.0,0.25,3.0041500830000003,2.526972636409757,-0.0012207029999999897,10440.0,12.5,832.5,840.0000000000001,0.0,0.125,0.8789061600000001,2.5150753586324033,0.03173827799999973,-3601.0,6.625,-1185.0,-840.0000000000001,0.0,0.5,4.210204647,2.5240352255079457,-0.024414059999999793,0.8799999952316284,-4.730000019073486,164.8000030517578,-0.08221435546875,0.04315185546875,1.08709716796875,36.58000183105469,0.0,0.0,0.939727783203125,2.093536376953125,Closing,0.0,0.0,0.0,0.0,0.0,0.0,0.0,0.125,
7.209887999999991,0.0,0.0,-3680.0,3.0,1140.0,840.0,0.0,0.125,3.292235991,2.5053095024177954,-0.0012207029999999897,2714.0,3.0,-1305.0,-840.0,0.0,0.125,2.9992672710000003,2.5213194034156774,0.0012207029999999897,10585.0,11.125,907.5,840.0,0.0,0.0,0.887451081,2.509448741709389,0.028076169000000206,-3802.0,4.375,-1260.0,-840.0,0.0,0.25,4.176024963000001,2.5183885639614507,-0.04272460500000008,0.9300000071525574,-4.78000020980835,164.19000244140625,-0.00146484375,0.01025390625,1.0821533203125,36.58000183105469,0.0,-87.0,0.94049072265625,2.09588623046875,Closing,0.0,0.0,0.0,0.0,0.0,0.0,0.0,0.0,
7.278881999999998,0.0,0.0,-3680.0,1.625,1207.5,840.0,0.0,0.125,3.293456694,2.4969520687499975,0.0,2714.0,1.375,-1320.0,-840.0,0.0,0.125,3.0004879740000003,2.512908562499997,0.0,10585.0,9.75,982.5,840.0,0.0,0.0,0.89111319,2.5010774999999974,0.009765623999999917,-3802.0,3.125,-1297.5,-840.0,0.0,0.25,4.151610903,2.509987499999997,-0.03417968399999971,1.0299999713897705,-4.670000076293945,163.89999389648438,-0.09759521484375,0.05078125,0.9959716796875,36.58000183105469,0.0,24.0,0.9403228759765625,2.0977325439453125,Closing,0.0,0.0,0.0,0.0,0.0,0.0,0.0,0.0,
7.3469969999999885,0.0,0.0,-3477.0,0.75,1260.0,840.0,0.0,0.125,3.291015288,2.492567745291983,-0.0024414059999999793,2507.0,0.75,-1290.0,-840.0,0.0,0.125,2.9992672710000003,2.5084962215118383,0.0,10752.0,8.5,1050.0,840.0,0.0,0.0,0.89111319,2.4966859328206352,0.0,-4011.0,1.375,-1297.5,-840.0,0.0,0.25,4.1381831700000005,2.505580288018118,-0.02929687200000064,1.149999976158142,-4.46999979019165,163.8000030517578,-0.04620361328125,-0.02508544921875,1.09063720703125,36.58000183105469,0.0,-50.0,0.9397125244140625,2.0994110107421875,Closing,0.0,0.0,0.0,0.0,0.0,0.0,0.0,0.0,
7.411319999999993,0.0,0.0,-3477.0,0.375,1245.0,840.0,0.0,0.125,3.292235991,2.491608805195573,0.0,2507.0,0.5,-1245.0,-840.0,0.0,0.125,3.0029293800000003,2.5075311534156777,0.0,10752.0,6.875,1147.5,840.0,0.0,0.0,0.8959960020000001,2.495725408376056,0.0,-4011.0,1.0,-1275.0,-840.0,0.0,0.125,4.1381831700000005,2.5046163417392284,-0.009765623999999917,1.1399999856948853,-4.28000020980835,163.86000061035156,0.0369873046875,0.13995361328125,1.42523193359375,36.58000183105469,0.0,-106.0,0.9378509521484375,2.1002960205078125,Closing,0.0,0.0,0.0,0.0,0.0,0.0,0.0,0.125,
7.4757579999999875,0.0,0.0,-3289.0,0.375,1170.0,840.0,0.0,0.125,3.287353179,2.4924308135799387,0.0,2314.0,0.375,-1185.0,-840.0,0.0,0.125,2.9992672710000003,2.508358414752958,0.0,10946.0,5.125,1215.0,840.0,0.0,0.0,0.8923338930000001,2.496548774871824,0.0,-4214.0,0.625,-1237.5,-840.0,0.0,0.125,4.136962467,2.505442641448972,0.0,1.2599999904632568,-3.809999942779541,163.91000366210938,0.1822509765625,-0.03790283203125,1.17474365234375,36.58000183105469,0.0,-267.0,0.9344329833984375,2.0998687744140625,Closing,0.0,0.0,0.0,0.0,0.0,0.0,0.0,0.0,
7.546333999999988,0.0,0.0,-3289.0,0.125,1207.5,0.0,0.0,3.625,3.292235991,0.01,-0.003662108999999969,2314.0,0.375,-1177.5,-0.0,0.0,0.125,3.0004879740000003,0.01,0.0,11140.0,1.5,1200.0,0.0,0.0,0.0,0.900878814,0.01,0.0,-4392.0,0.125,-1147.5,-0.0,0.0,4.75,4.195556211,0.01,0.0,1.2699999809265137,-3.069999933242798,164.0399932861328,0.188232421875,0.155517578125,0.9033203125,36.47999954223633,0.0,-190.0,0.924896240234375,2.0980682373046875,Closing,0.0,0.0,0.0,0.0,0.0,0.0,0.0,0.125,
7.612085999999996,0.0,0.0,-3103.0,1.25,1087.5,0.0,0.0,3.25,3.775634379,0.01,0.04516601100000006,2126.0,1.75,-1057.5,-0.0,0.0,3.375,3.3740230920000003,0.01,0.009765623999999917,11140.0,0.375,1132.5,0.0,0.0,6.0,1.3720701720000001,0.01,0.029296872000000196,-4392.0,0.25,-1020.0,-0.0,0.0,3.125,4.676513193,0.01,0.04150390200000054,0.9900000095367432,-1.7799999713897705,164.41000366210938,0.505859375,-0.2803955078125,1.066162109375,36.47999954223633,0.0,-599.0,0.9039306640625,2.0931396484375,Closing,0.0,0.0,0.0,0.0,0.0,0.0,0.0,0.0,
7.680084999999992,0.0,0.0,-3014.0,1.25,787.5,0.0,0.0,0.75,4.29687456,0.01,0.0,2008.0,2.25,-847.5,-0.0,0.0,1.75,3.867187104,0.01,0.0,11273.0,0.25,907.5,0.0,0.0,1.0,1.8920896500000002,0.01,0.4663085459999996,-4515.0,0.625,-847.5,-0.0,0.0,1.375,0.249023412,0.01,0.5004882299999993,0.3700000047683716,0.009999999776482582,164.35000610351562,0.57098388671875,0.07232666015625,1.00830078125,36.47999954223633,0.0,-531.0,0.8726043701171875,2.0902862548828125,Closing,0.0,0.0,0.0,0.0,0.0,0.0,0.0,0.125,
7.748114000000001,0.0,0.0,-3014.0,0.625,397.5,0.0,0.0,0.875,4.801024899000001,0.01,0.5529784590000002,2008.0,1.375,-450.0,-0.0,0.0,1.25,4.38232377,0.01,0.5480956469999998,11273.0,0.125,682.5,0.0,0.0,1.375,2.407226316,0.01,0.5615233800000001,-4515.0,0.375,-472.5,-0.0,0.0,1.5,0.7519530480000001,0.01,0.5634692000000001,0.7099999785423279,1.1200000047683716,164.07000732421875,0.24530029296875,0.14117431640625,1.1859130859375,36.47999954223633,0.0,-178.0,0.8171844482421875,2.0814971923828125,Closing,0.0,0.0,0.0,0.0,0.0,0.0,0.0,0.0,
7.811175999999993,0.0,0.0,-2991.0,0.125,157.5,0.0,0.0,1.375,0.34912105800000004,0.01,0.4919433089999994,1973.0,0.5,-225.0,-0.0,0.0,1.5,4.884032703,0.01,0.4943847150000007,11341.0,0.125,457.5,0.0,0.0,1.375,2.9016110310000003,0.01,0.48950190299999985,-4569.0,0.25,-300.0,-0.0,0.0,1.625,1.207275267,0.01,0.474853467,0.9300000071525574,1.0399999618530273,164.19000244140625,-0.04290771484375,0.09039306640625,0.9224853515625,36.47999954223633,0.0,78.0,0.7819671630859375,2.072906494140625,Closing,0.0,0.0,0.0,0.0,0.0,0.0,0.0,0.0,
7.87421699999999,0.0,0.0,-2991.0,0.125,67.5,0.0,0.0,1.0,0.70800774,0.01,0.0,1973.0,0.375,-210.0,-0.0,0.0,1.0,0.34912105800000004,0.01,0.0,11341.0,0.375,172.5,0.0,0.0,0.75,3.2958981,0.01,0.46874995200000047,-4569.0,0.25,-210.0,-0.0,0.0,0.875,1.534423671,0.01,0.0,1.2000000476837158,0.9200000166893005,164.24000549316406,-0.0645751953125,0.19281005859375,0.95703125,36.47999954223633,0.0,123.0,0.736480712890625,2.059783935546875,Closing,0.0,0.0,0.0,0.0,0.0,0.0,0.0,0.125,
7.945398000000001,0.0,0.0,-2988.0,0.125,15.0,0.0,0.0,0.75,0.8837889720000001,0.01,0.31738278,1954.0,0.375,-120.0,-0.0,0.0,1.0,0.638427669,0.01,-4.528808130000001,11359.0,0.375,105.0,0.0,0.0,0.125,3.3776852010000002,0.01,0.0,-4592.0,0.25,-112.5,-0.0,0.0,0.75,1.704101388,0.01,0.3430175430000002,1.440000057220459,0.6700000166893005,164.1199951171875,-0.0123291015625,-0.00604248046875,0.965576171875,36.47999954223633,0.0,14.0,0.6822662353515625,2.04046630859375,Closing,0.0,0.0,0.0,0.0,0.0,0.0,0.0,0.125,
8.009093999999997,0.0,0.0,-2988.0,0.125,0.0,0.0,0.0,0.375,0.898437408,0.01,-4.765014688999999,1954.0,0.125,-30.0,-0.0,0.0,0.5,0.681152274,0.01,0.28320309600000027,11359.0,0.5,150.0,0.0,0.0,0.125,3.3776852010000002,0.01,-4.867157819999999,-4592.0,0.125,-22.5,-0.0,0.0,0.5,1.699218576,0.01,-4.78710158,1.3600000143051147,0.6100000143051147,164.11000061035156,6.103515625E-4,-0.0185546875,1.0001220703125,36.41999816894531,0.0,-1.0,0.650299072265625,2.0252532958984375,Closing,0.0,0.0,0.0,0.0,0.0,0.0,0.0,0.0,
8.072460999999995,0.0,0.0,-2988.0,0.125,0.0,0.0,0.0,0.25,0.8569335060000001,0.01,0.0,1952.0,0.125,0.0,-0.0,0.0,0.25,0.6079100940000001,0.01,0.0,11375.0,0.5,52.5,0.0,0.0,0.125,3.3789059040000002,0.01,0.0,-4593.0,0.125,0.0,-0.0,0.0,0.25,1.650390456,0.01,0.0,1.3300000429153442,0.6000000238418579,164.1300048828125,-0.01409912109375,0.05657958984375,0.99365234375,36.41999816894531,0.0,32.0,0.6503143310546875,2.0144195556640625,Closing,0.0,0.0,0.0,0.0,0.0,0.0,0.0,0.0,
8.149867999999987,0.0,0.0,-2988.0,0.125,0.0,0.0,0.0,0.25,0.811767495,0.01,-0.04638671400000005,1952.0,0.125,0.0,-0.0,0.0,0.25,0.574951113,0.01,-0.07812499200000023,11375.0,0.5,0.0,0.0,0.0,0.125,3.3789059040000002,0.01,0.0,-4593.0,0.125,0.0,-0.0,0.0,0.25,1.6076658510000001,0.01,-0.05126952600000001,1.350000023841858,0.5,164.1199951171875,-0.014892578125,0.0057373046875,1.04766845703125,36.41999816894531,0.0,17.0,0.6510467529296875,2.014373779296875,Closing,0.0,0.0,0.0,0.0,0.0,0.0,0.0,0.125,
8.212293999999995,0.0,0.0,-2987.0,0.125,0.0,0.0,0.0,0.25,0.8178710100000001,0.01,4.901733425,1952.0,0.125,0.0,-0.0,0.0,0.25,0.574951113,0.01,-0.024414059999999793,11375.0,0.75,0.0,0.0,0.0,0.125,3.3789059040000002,0.01,0.0,-4593.0,0.125,0.0,-0.0,0.0,0.25,1.593017415,0.01,4.922599613,1.2699999809265137,0.4399999976158142,164.11000061035156,-0.01519775390625,0.02105712890625,1.04644775390625,36.41999816894531,0.0,21.0,0.65130615234375,2.014984130859375,Closing,0.0,0.0,0.0,0.0,0.0,0.0,0.0,0.0,
8.274566999999996,0.0,0.0,-2987.0,0.125,0.0,0.0,0.0,0.125,0.8178710100000001,0.01,0.0,1952.0,0.125,0.0,-0.0,0.0,0.25,0.5664061920000001,0.01,0.0,11375.0,0.75,0.0,0.0,0.0,0.125,3.3789059040000002,0.01,0.0,-4593.0,0.125,0.0,-0.0,0.0,0.25,1.596679524,0.01,0.0,1.2999999523162842,0.38999998569488525,164.11000061035156,-0.007568359375,0.02569580078125,1.034423828125,36.41999816894531,0.0,14.0,0.6514434814453125,2.01519775390625,Closing,0.0,0.0,0.0,0.0,0.0,0.0,0.0,0.0,
8.347180999999997,0.0,0.0,-2987.0,0.125,0.0,0.0,0.0,0.125,0.8178710100000001,0.01,-0.0012207029999995456,1952.0,0.125,0.0,-0.0,0.0,0.25,0.552978459,0.01,-0.014648435999999876,11375.0,0.75,0.0,0.0,0.0,0.125,3.3789059040000002,0.01,0.0,-4593.0,0.125,0.0,-0.0,0.0,0.25,1.597900227,0.01,0.004882811999999959,1.25,0.3499999940395355,164.10000610351562,-0.01739501953125,0.00177001953125,1.02728271484375,36.41999816894531,0.0,17.0,0.6514434814453125,2.015472412109375,Closing,0.0,0.0,0.0,0.0,0.0,0.0,0.0,0.0,
8.409396999999997,0.0,0.0,-2987.0,0.125,0.0,0.0,0.0,0.125,0.811767495,0.01,0.0,1952.0,0.125,0.0,-0.0,0.0,0.25,0.546874944,0.01,-0.009765623999999917,11375.0,0.75,0.0,0.0,0.0,0.125,3.3789059040000002,0.01,0.0,-4593.0,0.125,0.0,-0.0,0.0,0.25,1.597900227,0.01,0.0,1.25,0.30000001192092896,164.11000061035156,-0.00823974609375,0.0384521484375,1.01861572265625,36.41999816894531,0.0,17.0,0.651580810546875,2.015625,Closing,0.0,0.0,0.0,0.0,0.0,0.0,0.0,0.0,
8.473862999999998,0.0,0.0,-2987.0,0.125,0.0,0.0,0.0,0.125,0.8178710100000001,0.01,0.0,1952.0,0.125,0.0,-0.0,0.0,0.25,0.546874944,0.01,-0.003662109000000413,11375.0,0.75,0.0,0.0,0.0,0.125,3.3789059040000002,0.01,0.0,-4593.0,0.125,0.0,-0.0,0.0,0.25,1.597900227,0.01,0.0,1.2400000095367432,0.25,164.10000610351562,-0.0087890625,0.00701904296875,1.0130615234375,36.41999816894531,0.0,8.0,0.651580810546875,2.015625,Closing,0.0,0.0,0.0,0.0,0.0,0.0,0.0,0.0,
8.544990999999994,0.0,0.0,-2987.0,0.125,0.0,0.0,0.0,0.125,0.8142089010000001,0.01,0.0,1952.0,0.125,0.0,-0.0,0.0,0.25,0.546874944,0.01,-0.0012207029999995456,11375.0,0.75,0.0,0.0,0.0,0.125,3.3776852010000002,0.01,0.0,-4593.0,0.125,0.0,-0.0,0.0,0.25,1.597900227,0.01,0.0,1.2200000286102295,0.20000000298023224,164.11000061035156,-0.00604248046875,0.02984619140625,1.02545166015625,36.400001525878906,0.0,11.0,0.651580810546875,2.015625,Closing,0.0,0.0,0.0,0.0,0.0,0.0,0.0,0.0,
8.609444999999992,0.0,0.0,-2987.0,0.125,0.0,0.0,0.0,0.125,0.8178710100000001,0.01,0.0012207029999995456,1952.0,0.125,0.0,-0.0,0.0,0.25,0.546874944,0.01,0.0,11375.0,0.75,0.0,0.0,0.0,0.125,3.3776852010000002,0.01,0.0,-4593.0,0.125,0.0,-0.0,0.0,0.25,1.596679524,0.01,0.0012207030000004337,1.2200000286102295,0.17000000178813934,164.08999633789062,-0.01214599609375,0.0128173828125,1.022705078125,36.400001525878906,0.0,12.0,0.651580810546875,2.015625,Closing,0.0,0.0,0.0,0.0,0.0,0.0,0.0,0.0,
8.673032999999997,0.0,0.0,-2987.0,0.125,0.0,0.0,0.0,0.125,0.8276366340000001,0.01,-0.0012207029999995456,1952.0,0.125,0.0,-0.0,0.0,0.25,0.546874944,0.01,0.0,11375.0,0.75,0.0,0.0,0.0,0.125,3.3789059040000002,0.01,0.0,-4593.0,0.125,0.0,-0.0,0.0,0.25,1.597900227,0.01,0.0,1.2000000476837158,0.12999999523162842,164.10000610351562,-0.00909423828125,0.0242919921875,1.02777099609375,36.400001525878906,0.0,11.0,0.651580810546875,2.015625,Closing,0.0,0.0,0.0,0.0,0.0,0.0,0.0,0.125,
8.74303,0.0,0.0,-2987.0,0.125,0.0,0.0,0.0,0.125,0.8142089010000001,0.01,0.0,1952.0,0.125,0.0,-0.0,0.0,0.25,0.535888617,0.01,0.0,11375.0,0.75,0.0,0.0,0.0,0.125,3.3776852010000002,0.01,0.0,-4593.0,0.125,0.0,-0.0,0.0,0.25,1.596679524,0.01,0.0,1.2000000476837158,0.09000000357627869,164.08999633789062,-0.01190185546875,0.01300048828125,1.02154541015625,36.400001525878906,0.0,10.0,0.651580810546875,2.015625,Closing,0.0,0.0,0.0,0.0,0.0,0.0,0.0,0.0,
8.806822,0.0,0.0,-2987.0,0.125,0.0,0.0,0.0,0.125,0.8178710100000001,0.01,0.0012207029999995456,1952.0,0.125,0.0,-0.0,0.0,0.25,0.546874944,0.01,0.0,11375.0,0.75,0.0,0.0,0.0,0.125,3.3776852010000002,0.01,0.0,-4593.0,0.125,0.0,-0.0,0.0,0.25,1.597900227,0.01,-0.0012207030000004337,1.1699999570846558,0.05999999865889549,164.08999633789062,-0.00872802734375,0.0184326171875,1.01727294921875,36.400001525878906,0.0,8.0,0.651580810546875,2.015625,Closing,0.0,0.0,0.0,0.0,0.0,0.0,0.0,0.0,
8.871458999999987,0.0,0.0,-2987.0,0.125,0.0,0.0,0.0,0.125,0.8178710100000001,0.01,-0.0012207029999995456,1952.0,0.125,0.0,-0.0,0.0,0.25,0.54931635,0.01,0.0,11375.0,0.75,0.0,0.0,0.0,0.125,3.3789059040000002,0.01,0.0,-4593.0,0.125,0.0,-0.0,0.0,0.25,1.597900227,0.01,0.0,1.1699999570846558,0.029999999329447746,164.08999633789062,-0.0103759765625,0.01495361328125,1.02099609375,36.400001525878906,0.0,8.0,0.651580810546875,2.015625,Closing,0.0,0.0,0.0,0.0,0.0,0.0,0.0,0.0,
8.936325999999987,0.0,0.0,-2987.0,0.125,0.0,0.0,0.0,0.125,0.8178710100000001,0.01,0.0012207029999995456,1952.0,0.125,0.0,-0.0,0.0,0.25,0.546874944,0.01,0.0,11375.0,0.75,0.0,0.0,0.0,0.125,3.3801266070000002,0.01,0.0,-4593.0,0.125,0.0,-0.0,0.0,0.25,1.597900227,0.01,0.0012207030000004337,1.149999976158142,0.0,164.08999633789062,-0.00701904296875,0.0172119140625,1.01934814453125,36.400001525878906,0.0,5.0,0.651580810546875,2.015625,Closing,0.0,0.0,0.0,0.0,0.0,0.0,0.0,0.0,
9.006876999999992,0.0,0.0,-2987.0,0.125,0.0,0.0,0.0,0.125,0.8178710100000001,0.01,0.0,1952.0,0.125,0.0,-0.0,0.0,0.25,0.546874944,0.01,0.0,11375.0,0.75,0.0,0.0,0.0,0.125,3.3789059040000002,0.01,0.0,-4593.0,0.125,0.0,-0.0,0.0,0.25,1.59912093,0.01,-0.0012207030000004337,1.149999976158142,-0.029999999329447746,164.0800018310547,-0.01123046875,0.01495361328125,1.01995849609375,36.40999984741211,0.0,8.0,0.651580810546875,2.015625,Closing,0.0,0.0,0.0,0.0,0.0,0.0,0.0,0.0,
9.07054399999998,0.0,0.0,-2987.0,0.125,0.0,0.0,0.0,0.125,0.8166503070000001,0.01,0.0,1952.0,0.125,0.0,-0.0,0.0,0.25,0.545654241,0.01,0.0012207029999995456,11375.0,0.75,0.0,0.0,0.0,0.125,3.3776852010000002,0.01,0.0,-4593.0,0.125,0.0,-0.0,0.0,0.25,1.597900227,0.01,0.0,1.1399999856948853,-0.05000000074505806,164.0800018310547,-0.01068115234375,0.01397705078125,1.01934814453125,36.40999984741211,0.0,7.0,0.651580810546875,2.015625,Closing,0.0,0.0,0.0,0.0,0.0,0.0,0.0,0.0,
9.137048999999985,0.0,0.0,-2987.0,0.125,0.0,0.0,0.0,0.25,0.8178710100000001,0.01,0.0,1952.0,0.125,0.0,-0.0,0.0,0.25,0.546874944,0.01,-0.0012207029999995456,11375.0,0.75,0.0,0.0,0.0,0.125,3.3789059040000002,0.01,0.0,-4593.0,0.125,0.0,-0.0,0.0,0.25,1.597900227,0.01,0.0,1.1299999952316284,-0.07000000029802322,164.07000732421875,-0.0101318359375,0.02044677734375,1.01483154296875,36.40999984741211,0.0,8.0,0.651580810546875,2.015625,Closing,0.0,0.0,0.0,0.0,0.0,0.0,0.0,0.0,
9.205673999999984,0.0,0.0,-2987.0,0.125,0.0,0.0,0.0,0.125,0.819091713,0.01,-0.0012207029999995456,1952.0,0.125,0.0,-0.0,0.0,0.25,0.546874944,0.01,0.0012207029999995456,11375.0,0.75,0.0,0.0,0.0,0.125,3.3776852010000002,0.01,-0.0012207029999999897,-4593.0,0.125,0.0,-0.0,0.0,0.25,1.597900227,0.01,0.0,1.1200000047683716,-0.10000000149011612,164.07000732421875,-0.0084228515625,0.0162353515625,1.018310546875,36.40999984741211,0.0,5.0,0.651580810546875,2.015625,Closing,0.0,0.0,0.0,0.0,0.0,0.0,0.0,0.0,
9.270150000000008,0.0,0.0,-2987.0,0.125,0.0,0.0,0.0,0.125,0.8166503070000001,0.01,0.0,1952.0,0.125,0.0,-0.0,0.0,0.25,0.546874944,0.01,-0.0012207029999995456,11375.0,0.75,0.0,0.0,0.0,0.125,3.3789059040000002,0.01,0.0012207029999999897,-4593.0,0.125,0.0,-0.0,0.0,0.25,1.597900227,0.01,0.0,1.1200000047683716,-0.12999999523162842,164.05999755859375,-0.01068115234375,0.0167236328125,1.02142333984375,36.40999984741211,0.0,7.0,0.651580810546875,2.015625,Closing,0.0,0.0,0.0,0.0,0.0,0.0,0.0,0.0,
9.342002999999982,0.0,0.0,-2987.0,0.125,0.0,0.0,0.0,0.125,0.8166503070000001,0.01,0.0012207029999995456,1952.0,0.125,0.0,-0.0,0.0,0.25,0.546874944,0.01,0.0,11375.0,0.75,0.0,0.0,0.0,0.125,3.3776852010000002,0.01,0.0,-4593.0,0.125,0.0,-0.0,0.0,0.25,1.596679524,0.01,0.0,1.1100000143051147,-0.15000000596046448,164.05999755859375,-0.0101318359375,0.01629638671875,1.02117919921875,36.40999984741211,0.0,6.0,0.651580810546875,2.015625,Closing,0.0,0.0,0.0,0.0,0.0,0.0,0.0,0.125,
9.412088999999993,0.0,0.0,-2987.0,0.125,0.0,0.0,0.0,0.125,0.8178710100000001,0.01,0.0,1952.0,0.125,0.0,-0.0,0.0,0.25,0.546874944,0.01,0.0,11375.0,0.75,0.0,0.0,0.0,0.125,3.3789059040000002,0.01,0.0,-4593.0,0.125,0.0,-0.0,0.0,0.25,1.597900227,0.01,0.0,1.100000023841858,-0.17000000178813934,164.05999755859375,-0.00860595703125,0.0172119140625,1.0169677734375,36.40999984741211,0.0,4.0,0.651580810546875,2.015625,Closing,0.0,0.0,0.0,0.0,0.0,0.0,0.0,0.125,
9.475536000000007,0.0,0.0,-2987.0,0.125,0.0,0.0,0.0,0.125,0.8178710100000001,0.01,0.0,1952.0,0.125,0.0,-0.0,0.0,0.25,0.545654241,0.01,0.0,11375.0,0.75,0.0,0.0,0.0,0.125,3.3789059040000002,0.01,0.0,-4593.0,0.125,0.0,-0.0,0.0,0.25,1.597900227,0.01,0.0,1.090000033378601,-0.1899999976158142,164.0500030517578,-0.01171875,0.0145263671875,1.0189208984375,36.40999984741211,0.0,6.0,0.651580810546875,2.015625,Closing,0.0,0.0,0.0,0.0,0.0,0.0,0.0,0.0,
9.547585999999995,0.0,0.0,-2987.0,0.125,0.0,0.0,0.0,0.125,0.8178710100000001,0.01,0.0,1952.0,0.125,0.0,-0.0,0.0,0.25,0.546874944,0.01,0.0012207029999995456,11375.0,0.75,0.0,0.0,0.0,0.125,3.3789059040000002,0.01,0.0,-4593.0,0.125,0.0,-0.0,0.0,0.25,1.597900227,0.01,-0.0012207030000004337,1.090000033378601,-0.20999999344348907,164.0500030517578,-0.01055908203125,0.01727294921875,1.0147705078125,36.41999816894531,0.0,5.0,0.651580810546875,2.015625,Closing,0.0,0.0,0.0,0.0,0.0,0.0,0.0,0.125,
9.613153999999994,0.0,0.0,-2987.0,0.125,0.0,0.0,0.0,0.125,0.8178710100000001,0.01,0.0,1952.0,0.125,0.0,-0.0,0.0,0.25,0.546874944,0.01,0.0,11375.0,0.75,0.0,0.0,0.0,0.125,3.3776852010000002,0.01,0.0,-4593.0,0.125,0.0,-0.0,0.0,0.25,1.589355306,0.01,0.0,1.0800000429153442,-0.23999999463558197,164.0500030517578,-0.0108642578125,0.01715087890625,1.02105712890625,36.41999816894531,0.0,5.0,0.651580810546875,2.015625,Closing,0.0,0.0,0.0,0.0,0.0,0.0,0.0,0.0,
9.678721999999995,0.0,0.0,-2987.0,0.125,0.0,0.0,0.0,0.125,0.8178710100000001,0.01,0.0,1952.0,0.125,0.0,-0.0,0.0,0.25,0.548095647,0.01,0.0,11375.0,0.75,0.0,0.0,0.0,0.125,3.3776852010000002,0.01,0.0,-4593.0,0.125,0.0,-0.0,0.0,0.25,1.597900227,0.01,0.0,1.0800000429153442,-0.25,164.0500030517578,-0.0069580078125,0.015625,1.014404296875,36.41999816894531,0.0,1.0,0.651580810546875,2.015625,Closing,0.0,0.0,0.0,0.0,0.0,0.0,0.0,0.125,
9.749191000000007,0.0,0.0,-2987.0,0.125,0.0,0.0,0.0,0.125,0.8178710100000001,0.01,-0.0012207029999995456,1952.0,0.125,0.0,-0.0,0.0,0.25,0.546874944,0.01,-0.0012207029999995456,11375.0,0.75,0.0,0.0,0.0,0.125,3.3776852010000002,0.01,0.0,-4593.0,0.125,0.0,-0.0,0.0,0.25,1.597900227,0.01,0.0012207030000004337,1.0700000524520874,-0.27000001072883606,164.0399932861328,-0.01312255859375,0.0185546875,1.01263427734375,36.41999816894531,0.0,7.0,0.651580810546875,2.015625,Closing,0.0,0.0,0.0,0.0,0.0,0.0,0.0,0.0,
9.812252999999982,0.0,0.0,-2987.0,0.125,0.0,0.0,0.0,0.25,0.8178710100000001,0.01,0.0,1952.0,0.125,0.0,-0.0,0.0,0.25,0.546874944,0.01,0.0012207029999995456,11375.0,0.75,0.0,0.0,0.0,0.125,3.3776852010000002,0.01,0.0,-4593.0,0.125,0.0,-0.0,0.0,0.25,1.597900227,0.01,0.0,1.0700000524520874,-0.28999999165534973,164.0399932861328,-0.01025390625,0.01806640625,1.0181884765625,36.41999816894531,0.0,4.0,0.651580810546875,2.015625,Closing,0.0,0.0,0.0,0.0,0.0,0.0,0.0,0.0,
9.873917,0.0,0.0,-2987.0,0.125,0.0,0.0,0.0,0.125,0.8178710100000001,0.01,0.0,1952.0,0.125,0.0,-0.0,0.0,0.25,0.546874944,0.01,0.0,11375.0,0.75,0.0,0.0,0.0,0.125,3.3789059040000002,0.01,0.0,-4593.0,0.125,0.0,-0.0,0.0,0.25,1.597900227,0.01,0.0,1.059999942779541,-0.28999999165534973,164.02999877929688,-0.0123291015625,0.01776123046875,1.02044677734375,36.41999816894531,0.0,6.0,0.651580810546875,2.015625,Closing,0.0,0.0,0.0,0.0,0.0,0.0,0.0,0.0,
9.945877999999983,0.0,0.0,-2987.0,0.125,0.0,0.0,0.0,0.125,0.8178710100000001,0.01,-0.0012207029999995456,1952.0,0.125,0.0,-0.0,0.0,0.25,0.546874944,0.01,0.0,11375.0,0.75,0.0,0.0,0.0,0.125,3.3776852010000002,0.01,0.0,-4593.0,0.125,0.0,-0.0,0.0,0.25,1.597900227,0.01,0.0,1.059999942779541,-0.3100000023841858,164.02999877929688,-0.0111083984375,0.0147705078125,1.01708984375,36.41999816894531,0.0,4.0,0.651580810546875,2.015625,Closing,0.0,0.0,0.0,0.0,0.0,0.0,0.0,0.0,
10.00929299999999,0.0,0.0,-2987.0,0.125,0.0,0.0,0.0,0.25,0.8178710100000001,0.01,0.0,1952.0,0.125,0.0,-0.0,0.0,0.25,0.563964786,0.01,-0.0012207029999995456,11375.0,0.75,0.0,0.0,0.0,0.125,3.3789059040000002,0.01,0.0,-4593.0,0.125,0.0,-0.0,0.0,0.25,1.597900227,0.01,0.0012207030000004337,1.0499999523162842,-0.3199999928474426,164.02000427246094,-0.0123291015625,0.016845703125,1.01849365234375,36.41999816894531,0.0,5.0,0.651580810546875,2.015625,Closing,0.0,0.0,0.0,0.0,0.0,0.0,0.0,0.0,
10.073566999999995,0.0,0.0,-2987.0,0.125,0.0,0.0,0.0,0.125,0.8166503070000001,0.01,0.0,1952.0,0.125,0.0,-0.0,0.0,0.25,0.546874944,0.01,0.0012207029999995456,11375.0,0.75,0.0,0.0,0.0,0.125,3.3776852010000002,0.01,0.0,-4593.0,0.125,0.0,-0.0,0.0,0.25,1.597900227,0.01,0.0,1.0499999523162842,-0.3400000035762787,164.02000427246094,-0.00762939453125,0.0181884765625,1.013671875,36.43000030517578,0.0,1.0,0.651580810546875,2.015625,Closing,0.0,0.0,0.0,0.0,0.0,0.0,0.0,0.0,
10.14937999999999,0.0,0.0,-2987.0,0.125,0.0,0.0,0.0,0.125,0.8178710100000001,0.01,0.0,1952.0,0.125,0.0,-0.0,0.0,0.25,0.546874944,0.01,-0.0012207029999995456,11375.0,0.75,0.0,0.0,0.0,0.125,3.3789059040000002,0.01,0.0,-4593.0,0.125,0.0,-0.0,0.0,0.25,1.595458821,0.01,0.0012207030000004337,1.0499999523162842,-0.3499999940395355,164.02000427246094,-0.01007080078125,0.0196533203125,1.01226806640625,36.43000030517578,0.0,4.0,0.651580810546875,2.015625,Closing,0.0,0.0,0.0,0.0,0.0,0.0,0.0,0.125,
10.213670999999987,0.0,0.0,-2987.0,0.125,0.0,0.0,0.0,0.125,0.8178710100000001,0.01,0.0,1952.0,0.125,0.0,-0.0,0.0,0.25,0.545654241,0.01,0.0,11375.0,0.75,0.0,0.0,0.0,0.125,3.3776852010000002,0.01,0.0,-4593.0,0.125,0.0,-0.0,0.0,0.25,1.596679524,0.01,0.0,1.0399999618530273,-0.3499999940395355,164.00999450683594,-0.0103759765625,0.01995849609375,1.0198974609375,36.43000030517578,0.0,4.0,0.651580810546875,2.015625,Closing,0.0,0.0,0.0,0.0,0.0,0.0,0.0,0.0,
10.288687999999981,0.0,0.0,-2987.0,0.125,0.0,0.0,0.0,0.125,0.8178710100000001,0.01,0.0,1952.0,0.125,0.0,-0.0,0.0,0.25,0.546874944,0.01,0.0,11375.0,0.75,0.0,0.0,0.0,0.125,3.3776852010000002,0.01,0.0,-4593.0,0.125,0.0,-0.0,0.0,0.25,1.597900227,0.01,0.0,1.0399999618530273,-0.3700000047683716,164.00999450683594,-0.00927734375,0.01873779296875,1.01678466796875,36.43000030517578,0.0,2.0,0.651580810546875,2.015625,Closing,0.0,0.0,0.0,0.0,0.0,0.0,0.0,0.0,
10.36318799999998,0.0,0.0,-2987.0,0.125,0.0,0.0,0.0,0.125,0.8178710100000001,0.01,0.0,1952.0,0.125,0.0,-0.0,0.0,0.25,0.546874944,0.01,0.0012207029999995456,11375.0,0.75,0.0,0.0,0.0,0.125,3.3776852010000002,0.01,0.0,-4593.0,0.125,0.0,-0.0,0.0,0.25,1.590576009,0.01,-0.0012207030000004337,1.0399999618530273,-0.3799999952316284,164.0,-0.00927734375,0.01666259765625,1.0194091796875,36.43000030517578,0.0,1.0,0.651580810546875,2.015625,Closing,0.0,0.0,0.0,0.0,0.0,0.0,0.0,0.0,
10.424368000000003,0.0,0.0,-2987.0,0.125,0.0,0.0,0.0,0.125,0.8178710100000001,0.01,0.0,1952.0,0.125,0.0,-0.0,0.0,0.25,0.546874944,0.01,0.0,11375.0,0.75,0.0,0.0,0.0,0.125,3.3776852010000002,0.01,0.0,-4593.0,0.125,0.0,-0.0,0.0,0.25,1.597900227,0.01,0.0,1.0299999713897705,-0.38999998569488525,164.0,-0.008056640625,0.0205078125,1.0179443359375,36.43000030517578,0.0,1.0,0.651580810546875,2.015625,Closing,0.0,0.0,0.0,0.0,0.0,0.0,0.0,0.0,
10.493382999999987,0.0,0.0,-2987.0,0.125,0.0,0.0,0.0,0.125,0.8178710100000001,0.01,0.0,1952.0,0.125,0.0,-0.0,0.0,0.25,0.546874944,0.01,-0.0012207029999995456,11375.0,0.75,0.0,0.0,0.0,0.125,3.3789059040000002,0.01,0.0,-4593.0,0.125,0.0,-0.0,0.0,0.25,1.59912093,0.01,0.0012207030000004337,1.0299999713897705,-0.4000000059604645,164.0,-0.01031494140625,0.0177001953125,1.0244140625,36.43000030517578,0.0,2.0,0.651580810546875,2.015625,Closing,0.0,0.0,0.0,0.0,0.0,0.0,0.0,0.0,
10.566213000000003,0.0,0.0,-2987.0,0.125,0.0,0.0,0.0,0.125,0.8178710100000001,0.01,0.0,1952.0,0.125,0.0,-0.0,0.0,0.25,0.546874944,0.01,0.0012207029999995456,11375.0,0.75,0.0,0.0,0.0,0.125,3.3776852010000002,0.01,0.0,-4593.0,0.125,0.0,-0.0,0.0,0.25,1.597900227,0.01,0.0,1.0299999713897705,-0.4000000059604645,164.0,-0.010986328125,0.017578125,1.02313232421875,36.47999954223633,0.0,3.0,0.651580810546875,2.015625,Closing,0.0,0.0,0.0,0.0,0.0,0.0,0.0,0.125,
10.648770000000004,0.0,0.0,-2987.0,0.125,0.0,0.0,0.0,0.25,0.8178710100000001,0.01,0.0,1952.0,0.125,0.0,-0.0,0.0,0.25,0.546874944,0.01,-0.0012207029999995456,11375.0,0.75,0.0,0.0,0.0,0.125,3.3776852010000002,0.01,0.0,-4593.0,0.125,0.0,-0.0,0.0,0.25,1.597900227,0.01,0.0,1.0299999713897705,-0.4099999964237213,163.99000549316406,-0.00909423828125,0.01629638671875,1.01751708984375,36.47999954223633,0.0,1.0,0.651580810546875,2.015625,Closing,0.0,0.0,0.0,0.0,0.0,0.0,0.0,0.0,
10.725400999999998,0.0,0.0,-2987.0,0.125,0.0,0.0,0.0,0.125,0.8178710100000001,0.01,0.0,1952.0,0.125,0.0,-0.0,0.0,0.25,0.545654241,0.01,0.0,11375.0,0.75,0.0,0.0,0.0,0.125,3.3776852010000002,0.01,0.0,-4593.0,0.125,0.0,-0.0,0.0,0.25,1.597900227,0.01,0.0,1.0299999713897705,-0.4300000071525574,163.97999572753906,-0.01361083984375,0.02020263671875,1.01873779296875,36.47999954223633,0.0,6.0,0.651580810546875,2.015625,Closing,0.0,0.0,0.0,0.0,0.0,0.0,0.0,0.0,
10.795113999999987,0.0,0.0,-2987.0,0.125,0.0,0.0,0.0,0.125,0.8178710100000001,0.01,0.0,1952.0,0.125,0.0,-0.0,0.0,0.25,0.5554198650000001,0.01,0.0,11375.0,0.75,0.0,0.0,0.0,0.125,3.3776852010000002,0.01,0.0,-4593.0,0.125,0.0,-0.0,0.0,0.25,1.597900227,0.01,-0.0012207030000004337,1.0199999809265137,-0.4300000071525574,163.97999572753906,-0.00860595703125,0.0185546875,1.0211181640625,36.47999954223633,0.0,0.0,0.651580810546875,2.015625,Closing,0.0,0.0,0.0,0.0,0.0,0.0,0.0,0.0,
10.867920999999988,0.0,0.0,-2987.0,0.125,0.0,0.0,0.0,0.125,0.8178710100000001,0.01,0.0012207029999995456,1952.0,0.125,0.0,-0.0,0.0,0.25,0.546874944,0.01,0.0012207029999995456,11375.0,0.75,0.0,0.0,0.0,0.125,3.3776852010000002,0.01,0.0,-4593.0,0.125,0.0,-0.0,0.0,0.25,1.597900227,0.01,0.0,1.0299999713897705,-0.4399999976158142,163.97999572753906,-0.00909423828125,0.01666259765625,1.0211181640625,36.47999954223633,0.0,0.0,0.651580810546875,2.015625,Closing,0.0,0.0,0.0,0.0,0.0,0.0,0.0,0.125,
10.934009000000005,0.0,0.0,-2987.0,0.125,0.0,0.0,0.0,0.125,0.8178710100000001,0.01,0.0,1952.0,0.125,0.0,-0.0,0.0,0.25,0.546874944,0.01,0.0,11375.0,0.75,0.0,0.0,0.0,0.125,3.3691402800000003,0.01,0.0,-4593.0,0.125,0.0,-0.0,0.0,0.25,1.597900227,0.01,0.0,1.0199999809265137,-0.44999998807907104,163.97999572753906,-0.00994873046875,0.0169677734375,1.018310546875,36.47999954223633,0.0,1.0,0.651580810546875,2.015625,Closing,0.0,0.0,0.0,0.0,0.0,0.0,0.0,0.0,
