Time,ClimberA1,ClimberA2,FRpos,FRCurrent,FRspeed,FRsetpoint,FRApos,FRACurrent,FREncpos,FREncSetpoint,FREncSpeed,FLpos,FLCurrent,FLspeed,FLsetpoint,FLApos,FLACurrent,FLEncpos,FLEncSetpoint,FLEncSpeed,BRpos,BRCurrent,BRspeed,BRsetpoint,BRApos,BRACurrent,BREncpos,BREncSetpoint,BREncSpeed,BLpos,BLCurrent,BLspeed,BLsetpoint,BLApos,BLACurrent,BLEncpos,BLEncSetpoint,BLEncSpeed,navx_Pitch,navx_Roll,navx_Yaw,navx_XAcc,navx_YAcc,navx_ZAcc,navx_Temp,navx_Bar,navx_Alt,navx_XDis,navx_YDis,GearPlacerState,ShootOutputV,ShootOutputCurrent,ShootEncPos,ShootEncVelocity,ShootSpeed,ShootSetpoint,CarouselSetpoint,CarouselCurrent,
0.13878099999998814,0.0,0.0,6963.0,0.0,0.0,0.0,0.0,0.25,0.9985350540000001,0.18726900825683945,0.0,-20117.0,0.0,0.0,0.0,0.0,0.25,0.9497069340000001,0.4121889808374862,0.0,32671.0,0.0,0.0,0.0,0.0,0.125,3.19824186,4.752821588359536,0.0,-34616.0,0.125,0.0,0.0,0.0,0.25,3.708495714,2.0672901570797486,0.0,0.5799999833106995,-0.38999998569488525,171.11000061035156,-0.0069580078125,0.0120849609375,1.016357421875,36.470001220703125,0.0,0.0,1.4661407470703125,2.6209259033203125,Closing,0.0,0.0,0.0,0.0,0.0,0.0,0.0,0.125,
0.2597079999999842,0.0,0.0,6963.0,0.0,0.0,0.0,0.0,0.125,0.9985350540000001,0.18726900825683945,0.0,-20117.0,0.0,0.0,0.0,0.0,0.25,0.9497069340000001,0.4121889808374862,0.0,32671.0,0.0,0.0,0.0,0.0,0.125,3.199462563,4.752821588359536,0.0,-34616.0,0.125,0.0,0.0,0.0,0.25,3.708495714,2.0672901570797486,0.0,0.5799999833106995,-0.4000000059604645,171.11000061035156,-0.0057373046875,0.0089111328125,1.01593017578125,36.470001220703125,0.0,-1.0,1.4661407470703125,2.6209259033203125,Closing,0.0,0.0,0.0,0.0,0.0,0.0,0.0,0.0,
0.3730149999999849,0.0,0.0,6963.0,0.0,0.0,0.0,0.0,0.125,0.9985350540000001,0.18726900825683945,0.0,-20117.0,0.0,0.0,0.0,0.0,0.25,0.9497069340000001,0.4121889808374862,0.0,32671.0,0.0,0.0,0.0,0.0,0.125,3.19824186,4.752821588359536,0.0,-34616.0,0.125,0.0,0.0,0.0,0.25,3.709716417,2.0672901570797486,0.0,0.5899999737739563,-0.4000000059604645,171.11000061035156,-0.00823974609375,0.012939453125,1.021484375,36.470001220703125,0.0,1.0,1.4661407470703125,2.6209259033203125,Closing,0.0,0.0,0.0,0.0,0.0,0.0,0.0,0.0,
0.488752999999997,0.0,0.0,6963.0,0.0,0.0,0.0,0.0,0.125,0.9997557570000001,0.18726900825683945,0.0,-20117.0,0.0,0.0,0.0,0.0,0.25,0.9484862310000001,0.4121889808374862,0.0,32671.0,0.0,0.0,0.0,0.0,0.125,3.19824186,4.752821588359536,0.0,-34616.0,0.125,0.0,0.0,0.0,0.25,3.708495714,2.0672901570797486,0.0,0.6000000238418579,-0.4000000059604645,171.11000061035156,-0.007080078125,0.00970458984375,1.01641845703125,36.470001220703125,0.0,0.0,1.4661407470703125,2.6209259033203125,Closing,0.0,0.0,0.0,0.0,0.0,0.0,0.0,0.0,
0.6102019999999903,0.0,0.0,6963.0,0.375,-37.5,-396.8503922224045,0.0,0.375,0.938720607,4.932250999999998,0.0,-20098.0,0.625,52.5,396.8503922224045,0.0,1.5,0.7775878110000001,4.963769999999998,0.0,32666.0,0.875,-15.0,-396.8503922224045,0.0,0.125,3.229980138,0.01,0.0,-34618.0,0.75,0.0,-396.8503922224045,0.0,1.375,3.8818355400000004,2.4790000000000023,0.0,0.6200000047683716,-0.4699999988079071,171.13999938964844,-0.0137939453125,0.05621337890625,1.113037109375,36.470001220703125,0.0,11.0,1.46649169921875,2.620941162109375,Closing,0.0,0.0,0.0,0.0,0.0,0.0,0.0,0.0,
0.729619000000006,0.0,0.0,6952.0,18.375,-225.0,-1885.0393724441528,0.0,0.375,0.8703612390000001,4.932250999999998,0.0,-20051.0,24.5,240.0,1885.0393724441528,0.0,0.25,0.518798775,4.963769999999998,0.0,32634.0,22.25,-142.5,-1885.0393724441528,0.0,0.0,3.383788716,0.01,0.0,-34683.0,19.0,-375.0,-1885.0393724441528,0.0,0.375,4.146728091,2.4790000000000023,0.0,0.5199999809265137,-1.809999942779541,171.5399932861328,-0.311767578125,-0.01971435546875,0.9261474609375,36.470001220703125,0.0,275.0,1.4768218994140625,2.6243743896484375,Closing,0.0,0.0,0.0,0.0,0.0,0.0,0.0,0.0,
0.847676999999996,0.0,0.0,6883.0,11.0,-675.0,-1309.6062755584717,0.0,0.25,0.847167882,4.932250999999998,0.0,-20051.0,15.625,667.5,1309.6062755584717,0.0,0.0,0.36132808800000005,4.963769999999998,0.0,32634.0,17.125,-397.5,-1309.6062755584717,0.0,0.125,3.44238246,0.01,0.0,-34814.0,11.75,-622.5,-1309.6062755584717,0.0,0.25,4.219970271,2.4790000000000023,0.0,0.6100000143051147,-3.2100000381469727,171.88999938964844,-0.3087158203125,0.0660400390625,1.31060791015625,36.470001220703125,0.0,239.0,1.51605224609375,2.6284332275390625,Closing,0.0,0.0,0.0,0.0,0.0,0.0,0.0,0.0,
0.963051999999996,0.0,0.0,6751.0,9.375,-967.5,-1289.7637653350828,0.0,0.25,0.836181555,4.932250999999998,0.0,-19913.0,7.375,1200.0,1289.7637653350828,0.0,0.25,0.35522457300000004,4.963769999999998,0.0,32562.0,21.375,-555.0,-1289.7637653350828,0.0,0.125,3.4313961330000002,0.01,0.0,-35007.0,6.625,-1140.0,-1289.7637653350828,0.0,0.25,4.166259339,2.4790000000000023,0.0,0.6700000166893005,-3.9600000381469727,170.39999389648438,-0.153564453125,-0.01690673828125,1.31439208984375,36.470001220703125,0.0,55.0,1.573394775390625,2.63250732421875,Closing,0.0,0.0,0.0,0.0,0.0,0.0,0.0,0.125,
1.0807369999999936,0.0,0.0,6578.0,3.75,-1185.0,-932.5984311103821,0.0,0.25,0.8435057730000001,4.932250999999998,0.0,-19712.0,1.75,1297.5,932.5984311103821,0.0,0.25,0.38940425700000003,4.963769999999998,0.0,32465.0,16.625,-720.0,-932.5984311103821,0.0,0.125,3.4167476970000004,0.01,0.0,-35215.0,1.25,-1297.5,-932.5984311103821,0.0,0.25,4.094237862,2.4790000000000023,0.0,0.7099999785423279,-4.159999847412109,169.25999450683594,-0.08001708984375,0.00555419921875,0.8892822265625,36.45000076293945,0.0,13.0,1.638885498046875,2.6417999267578125,Closing,0.0,0.0,0.0,0.0,0.0,0.0,0.0,0.0,
1.2005959999999904,0.0,0.0,6376.0,0.375,-1260.0,-714.3307435512543,0.0,0.25,0.8288573370000001,4.932250999999998,0.0,-19503.0,0.25,1207.5,714.3307435512543,0.0,0.25,0.47363276400000004,4.963769999999998,0.0,32340.0,10.875,-907.5,-714.3307435512543,0.0,0.125,3.403319964,0.01,0.0,-35409.0,0.375,-1192.5,-714.3307435512543,0.0,0.125,4.050292554,2.4790000000000023,0.0,0.8100000023841858,-3.859999895095825,168.97999572753906,0.02301025390625,0.08880615234375,1.1527099609375,36.45000076293945,0.0,-85.0,1.7040252685546875,2.6489715576171875,Closing,0.0,0.0,0.0,0.0,0.0,0.0,0.0,0.0,
1.324869000000006,0.0,0.0,6185.0,0.0,-1222.5,-694.4881582260131,0.0,0.25,0.8154296040000001,4.932250999999998,0.0,-19121.0,0.0,1237.5,694.4881582260131,0.0,0.25,0.538330023,4.963769999999998,0.0,32001.0,6.25,-1125.0,-694.4881582260131,0.0,0.125,3.39355434,0.01,0.0,-35604.0,0.125,-1230.0,-694.4881582260131,0.0,0.25,4.034423415,2.4790000000000023,0.0,0.8500000238418579,-3.319999933242798,169.7100067138672,0.12109375,0.0089111328125,1.1160888671875,36.45000076293945,0.0,-183.0,1.769561767578125,2.652923583984375,Closing,0.0,0.0,0.0,0.0,0.0,0.0,0.0,0.0,
1.4550050000000048,0.0,0.0,5979.0,0.0,-1222.5,-694.4881582260131,0.0,0.125,0.8020018710000001,4.932250999999998,0.0,-18952.0,0.0,1087.5,694.4881582260131,0.0,0.25,0.5419921320000001,4.963769999999998,0.0,31799.0,3.0,-1275.0,-694.4881582260131,0.0,0.125,3.391112934,0.01,0.0,-35774.0,0.125,-1072.5,-694.4881582260131,0.0,0.375,4.062499584,2.4790000000000023,0.0,0.6499999761581421,-2.240000009536743,170.85000610351562,0.28564453125,0.013671875,0.49786376953125,36.45000076293945,0.0,-299.0,1.82232666015625,2.650634765625,Closing,0.0,0.0,0.0,0.0,0.0,0.0,0.0,0.0,
1.5711529999999911,0.0,0.0,5796.0,0.0,-1035.0,-861.4944640223727,0.0,2.0,0.994872945,0.5268426443875216,0.0,-18952.0,0.125,930.0,861.4944640223727,0.0,2.125,0.755615157,0.5302093735561,0.0,31626.0,3.375,-1087.5,-861.4944640223727,0.0,1.625,3.591308226,0.527713086850631,0.0,-35924.0,0.125,-952.5,-861.4944640223727,0.0,2.5,4.361571819,3.00859304602976,0.0,0.6100000143051147,-1.940000057220459,171.4199981689453,0.02813720703125,-0.13848876953125,1.1900634765625,36.36000061035156,0.0,-90.0,1.8519287109375,2.646484375,Closing,0.0,0.0,0.0,0.0,0.0,0.0,0.0,0.0,
1.686283999999985,0.0,0.0,5638.0,0.125,-930.0,-998.6525529948182,0.0,0.5,1.437988134,0.6717214110742963,0.0,-18807.0,0.5,802.5,998.6525529948182,0.0,0.5,1.17187488,0.6760139718453622,0.0,31626.0,5.75,-1005.0,-998.6525529948182,0.0,0.25,4.031982009,0.672831220323429,0.0,-36053.0,0.375,-847.5,-998.6525529948182,0.0,0.375,4.812011226,3.1542281577126468,0.0,-0.8500000238418579,-0.7200000286102295,172.07000732421875,0.23565673828125,-0.2147216796875,0.95880126953125,36.36000061035156,0.0,-273.0,1.8685760498046875,2.6524810791015625,Closing,0.0,0.0,0.0,0.0,0.0,0.0,0.0,0.125,
1.8051999999999826,0.0,0.0,5495.0,0.625,-930.0,-1238.847196143081,0.0,0.375,1.6027830390000002,0.7958994524224036,0.0,-18681.0,2.25,922.5,1238.847196143081,0.0,0.25,1.466064303,0.8009855591191029,0.0,31331.0,11.625,-892.5,-1238.847196143081,0.0,0.125,4.3481440860000005,0.79721442699239,0.0,-36204.0,1.375,-870.0,-1238.847196143081,0.0,0.375,0.157470687,3.2790544751494353,0.0,-1.5199999809265137,0.1599999964237213,172.38999938964844,-0.01983642578125,-0.20343017578125,0.90777587890625,36.36000061035156,0.0,-1.0,1.867095947265625,2.6752777099609375,Closing,0.0,0.0,0.0,0.0,0.0,0.0,0.0,0.0,
1.925078999999998,0.0,0.0,5338.0,3.875,-915.0,-1469.5526080961617,0.0,0.25,1.646728347,0.7597260502354592,0.0,-18378.0,6.375,922.5,1469.5526080961617,0.0,0.25,1.485595551,0.764580994839327,0.0,31180.0,16.875,-930.0,-1469.5526080961617,0.0,0.5,4.317626511,0.7609812595878155,0.0,-36346.0,4.625,-892.5,-1469.5526080961617,0.0,0.625,0.09765624,3.242692228369441,0.0,-1.9700000286102295,0.20000000298023224,172.75,-0.055908203125,-0.05780029296875,0.9683837890625,36.36000061035156,0.0,55.0,1.856292724609375,2.7092742919921875,Closing,0.0,0.0,0.0,0.0,0.0,0.0,0.0,0.0,
2.0497509999999894,0.0,0.0,5183.0,5.125,-1110.0,-1552.5424562115322,0.0,0.375,1.612548663,0.7018295865872574,0.0,-18188.0,7.625,1147.5,1552.5424562115322,0.0,0.25,1.248779169,0.706314550296453,0.0,31017.0,21.125,-990.0,-1552.5424562115322,0.0,0.25,4.116210516000001,0.7029891401665661,0.0,-36517.0,7.25,-1027.5,-1552.5424562115322,0.0,0.5,4.801024899000001,3.1844935140769643,0.0,-2.25,-0.7799999713897705,173.0800018310547,-0.1556396484375,-0.0302734375,0.895751953125,36.290000915527344,0.0,142.0,1.8534088134765625,2.747344970703125,Closing,0.0,0.0,0.0,0.0,0.0,0.0,0.0,0.0,
2.1765210000000077,0.0,0.0,4993.0,4.0,-1312.5,-1463.511933595431,0.0,0.375,1.468505709,0.5562660447614374,0.0,-17969.0,4.5,1350.0,1463.511933595431,0.0,0.25,1.065673719,0.5598208008889816,0.0,30830.0,21.125,-1147.5,-1463.511933595431,0.0,0.25,3.9379878780000004,0.5571851001782767,0.0,-36732.0,4.875,-1312.5,-1463.511933595431,0.0,0.25,4.630126479,3.038170052360921,0.0,-1.909999966621399,-1.7799999713897705,172.74000549316406,-0.2652587890625,-0.0338134765625,0.9820556640625,36.290000915527344,0.0,232.0,1.8691253662109375,2.787506103515625,Closing,0.0,0.0,0.0,0.0,0.0,0.0,0.0,0.0,
2.3047699999999893,0.0,0.0,4546.0,3.375,-1432.5,-1490.8322589700506,0.0,0.375,1.23291003,0.36863223776729753,0.0,-17723.0,3.0,1522.5,1490.8322589700506,0.0,0.25,0.9313963890000001,0.3709879409750595,0.0,30623.0,20.75,-1282.5,-1490.8322589700506,0.0,0.25,3.8317867170000004,0.36924128708485365,0.0,-36977.0,2.5,-1537.5,-1490.8322589700506,0.0,0.5,4.510497585,2.8495566960907426,0.0,-1.409999966621399,-2.8299999237060547,172.02000427246094,-0.08636474609375,0.2259521484375,0.87322998046875,36.290000915527344,0.0,76.0,1.911346435546875,2.8326568603515625,Closing,0.0,0.0,0.0,0.0,0.0,0.0,0.0,0.0,
2.4331239999999816,0.0,0.0,4307.0,1.875,-1485.0,-1412.1685368341214,0.0,0.25,1.046142471,0.23513025444361194,0.0,-17470.0,1.125,1575.0,1412.1685368341214,0.0,0.25,0.7519530480000001,0.2366328281142966,0.0,30393.0,17.625,-1432.5,-1412.1685368341214,0.0,0.25,3.6328121280000003,0.23551873354645178,0.0,-37227.0,1.375,-1560.0,-1412.1685368341214,0.0,0.25,4.344481977,2.715357760692111,0.0,-0.25999999046325684,-3.3299999237060547,171.2100067138672,-0.0830078125,0.24462890625,0.83587646484375,36.290000915527344,0.0,71.0,1.9651947021484375,2.8577728271484375,Closing,0.0,0.0,0.0,0.0,0.0,0.0,0.0,0.0,
2.5678169999999807,0.0,0.0,4087.0,0.125,-1380.0,-297.63780355453486,0.0,0.375,0.8801268630000001,4.932250999999998,0.0,-17235.0,0.0,1447.5,297.63780355453486,0.0,0.25,0.5566405680000001,4.963769999999998,0.0,30155.0,0.875,-1477.5,-297.63780355453486,0.0,0.25,3.383788716,0.01,0.0,-37465.0,0.25,-1470.0,-297.63780355453486,0.0,0.5,4.1284175460000005,2.4790000000000023,0.0,0.8999999761581421,-2.990000009536743,170.89999389648438,-0.15533447265625,0.26776123046875,1.21575927734375,36.220001220703125,0.0,129.0,2.01019287109375,2.8599395751953125,Closing,0.0,0.0,0.0,0.0,0.0,0.0,0.0,0.0,
2.6916229999999923,0.0,0.0,3854.0,0.0,-1410.0,0.0,0.0,0.25,0.7641600780000001,4.932250999999998,0.0,-17010.0,0.0,1327.5,0.0,0.0,0.25,0.456542922,4.963769999999998,0.0,29948.0,0.0,-1207.5,0.0,0.0,0.125,3.2714840400000003,0.01,0.0,-37688.0,0.125,-1267.5,0.0,0.0,0.25,3.9489742050000003,2.4790000000000023,0.0,2.390000104904175,-2.0799999237060547,171.35000610351562,0.08380126953125,0.00372314453125,1.156005859375,36.220001220703125,0.0,-131.0,2.0646820068359375,2.8316650390625,Closing,0.0,0.0,0.0,0.0,0.0,0.0,0.0,0.0,
2.8288889999999958,0.0,0.0,3650.0,0.0,-1245.0,0.0,0.0,0.25,0.740966721,4.932250999999998,0.0,-16825.0,0.0,1125.0,0.0,0.0,0.25,0.41381831700000005,4.963769999999998,0.0,29766.0,0.0,-1140.0,0.0,0.0,0.125,3.3105465360000004,0.01,0.0,-37871.0,0.125,-1110.0,0.0,0.0,0.375,3.957519126,2.4790000000000023,0.0,2.369999885559082,-1.4500000476837158,172.24000549316406,0.1033935546875,-0.02508544921875,1.05841064453125,36.220001220703125,0.0,-138.0,2.0952911376953125,2.798553466796875,Closing,0.0,0.0,0.0,0.0,0.0,0.0,0.0,0.0,
2.9505029999999968,0.0,0.0,3476.0,0.0,-1042.5,0.0,0.0,0.25,0.76904289,4.932250999999998,0.0,-16660.0,0.0,975.0,0.0,0.0,0.25,0.444335892,4.963769999999998,0.0,29589.0,0.0,-1035.0,0.0,0.0,0.0,3.339843408,0.01,0.0,-38035.0,0.125,-975.0,0.0,0.0,0.25,4.099120674,2.4790000000000023,0.0,2.049999952316284,-0.8199999928474426,172.6300048828125,0.09307861328125,-0.1041259765625,1.201171875,36.220001220703125,0.0,-128.0,2.114501953125,2.769073486328125,Closing,0.0,0.0,0.0,0.0,0.0,0.0,0.0,0.0,
3.0803269999999903,0.0,0.0,3335.0,0.0,-847.5,0.0,0.0,0.25,0.7897948410000001,4.932250999999998,0.0,-16513.0,0.0,877.5,0.0,0.0,0.25,0.49316401200000004,4.963769999999998,0.0,29442.0,0.0,-840.0,0.0,0.0,0.0,3.348388329,0.01,0.0,-38184.0,0.125,-885.0,0.0,0.0,0.125,4.1809077750000005,2.4790000000000023,0.0,1.6200000047683716,-0.4099999964237213,172.19000244140625,0.1278076171875,-0.061279296875,0.86181640625,36.209999084472656,0.0,-144.0,2.124053955078125,2.746429443359375,Closing,0.0,0.0,0.0,0.0,0.0,0.0,0.0,0.0,
3.2058310000000056,0.0,0.0,3251.0,10.5,-247.5,754.6875,0.0,0.875,1.127929572,0.5498168668524888,0.0,-16383.0,0.0,697.5,754.6875,0.0,2.0,0.445556595,4.410439589772222,0.0,29325.0,19.75,-600.0,754.6875,0.0,1.875,3.2031246720000004,4.389674732977289,0.0,-38313.0,0.125,-712.5,-754.6875,0.0,1.875,4.320067917,3.0316872062785585,0.0,1.4600000381469727,1.3799999952316284,170.39999389648438,0.27789306640625,0.2025146484375,1.16668701171875,36.209999084472656,0.0,-217.0,2.1143646240234375,2.7215576171875,Closing,0.0,0.0,0.0,0.0,0.0,0.0,0.0,0.125,
3.3268450000000014,0.0,0.0,3257.0,0.0,-7.5,0.0,0.0,0.375,1.4978025810000002,0.5498168668524888,0.0,-16314.0,0.0,142.5,0.0,0.0,0.875,4.949950665,4.410439589772222,0.0,29266.0,0.0,-165.0,0.0,0.0,0.5,2.805175494,4.389674732977289,0.0,-38394.0,0.125,-202.5,0.0,0.0,0.625,4.703368659000001,3.0316872062785585,0.0,1.1299999952316284,2.2100000381469727,169.8300018310547,0.03631591796875,0.10662841796875,0.8436279296875,36.209999084472656,0.0,12.0,2.071990966796875,2.6941070556640625,Closing,0.0,0.0,0.0,0.0,0.0,0.0,0.0,0.0,
3.4605080000000017,0.0,0.0,3247.0,0.0,-45.0,0.0,0.0,0.375,1.4733885210000002,0.5498168668524888,0.0,-16307.0,0.0,15.0,0.0,0.0,0.25,4.8205561470000005,4.410439589772222,0.0,29261.0,0.0,0.0,0.0,0.0,0.0,2.764892295,4.389674732977289,0.0,-38399.0,0.125,0.0,0.0,0.0,0.25,4.7082514710000005,3.0316872062785585,0.0,1.159999966621399,1.7000000476837158,170.1300048828125,0.00311279296875,-0.0325927734375,0.989013671875,36.209999084472656,0.0,16.0,2.0317840576171875,2.6678009033203125,Closing,0.0,0.0,0.0,0.0,0.0,0.0,0.0,0.125,
3.5874419999999807,0.0,0.0,3247.0,0.0,0.0,0.0,0.0,0.375,1.41601548,0.5498168668524888,0.0,-16306.0,0.0,0.0,0.0,0.0,0.25,4.859618643,4.410439589772222,0.0,29260.0,0.0,0.0,0.0,0.0,0.0,2.77099581,4.389674732977289,0.0,-38399.0,0.125,0.0,0.0,0.0,0.25,4.670409678,3.0316872062785585,0.0,1.090000033378601,1.6299999952316284,169.8000030517578,-0.03070068359375,0.0118408203125,1.08514404296875,36.16999816894531,0.0,59.0,2.0279693603515625,2.6570892333984375,Closing,0.0,0.0,0.0,0.0,0.0,0.0,0.0,0.0,
3.7104340000000082,0.0,0.0,3251.0,6.125,157.5,1164.84375,0.0,0.25,1.3964842320000002,0.5498168668524888,0.0,-16306.0,8.125,232.5,1164.84375,0.0,0.25,4.8632807520000005,4.410439589772222,0.0,29260.0,8.625,105.0,1164.84375,0.0,0.0,2.731933314,4.389674732977289,0.0,-38399.0,5.875,-172.5,-1164.84375,0.0,0.25,4.678954599,3.031687206278559,0.0,1.090000033378601,1.3300000429153442,168.67999267578125,0.07708740234375,0.13836669921875,1.14013671875,36.16999816894531,0.0,-26.0,2.0310821533203125,2.65667724609375,Closing,0.0,0.0,0.0,0.0,0.0,0.0,0.0,0.0,
3.830960999999981,0.0,0.0,3292.0,0.0,165.0,0.0,0.0,0.25,1.381835796,0.5498168668524888,0.0,-16255.0,0.0,165.0,0.0,0.0,0.25,4.853515128000001,4.410439589772222,0.0,29284.0,0.0,150.0,0.0,0.0,0.0,2.77099581,4.389674732977289,0.0,-38440.0,0.125,-165.0,0.0,0.0,0.25,4.641112806000001,3.031687206278559,0.0,0.8899999856948853,1.409999966621399,164.8699951171875,0.0648193359375,0.0648193359375,1.011962890625,36.16999816894531,0.0,-25.0,2.0349884033203125,2.654632568359375,Closing,0.0,0.0,0.0,0.0,0.0,0.0,0.0,0.125,
3.9451699999999836,0.0,0.0,3320.0,0.0,255.0,0.0,0.0,0.125,1.3757322810000001,0.5498168668524888,0.0,-16227.0,0.0,180.0,0.0,0.0,0.25,4.881591297,4.410439589772222,0.0,29300.0,0.0,67.5,0.0,0.0,0.0,2.77099581,4.389674732977289,0.0,-38468.0,0.125,-195.0,0.0,0.0,0.125,4.639892103,3.031687206278559,0.0,0.800000011920929,1.2899999618530273,162.57000732421875,-0.06396484375,0.05389404296875,1.0,36.16999816894531,0.0,94.0,2.0365447998046875,2.6528167724609375,Closing,0.0,0.0,0.0,0.0,0.0,0.0,0.0,0.0,
4.067356999999989,0.0,0.0,3336.0,0.0,22.5,0.0,0.0,0.125,1.3757322810000001,0.5498168668524888,0.0,-16210.0,0.0,37.5,0.0,0.0,0.25,4.897460436,4.410439589772222,0.0,29309.0,0.0,22.5,0.0,0.0,0.0,2.769775107,4.389674732977289,0.0,-38487.0,0.125,-45.0,0.0,0.0,0.125,4.642333509,3.031687206278559,0.0,0.6600000262260437,1.0099999904632568,162.1699981689453,-0.0040283203125,0.00738525390625,0.98516845703125,36.16999816894531,0.0,19.0,2.0381317138671875,2.6551513671875,Closing,0.0,0.0,0.0,0.0,0.0,0.0,0.0,0.0,
4.18875999999998,0.0,0.0,3337.0,0.0,0.0,0.0,0.0,0.125,1.376952984,0.5498168668524888,0.0,-16209.0,0.0,0.0,0.0,0.0,0.125,4.898681139000001,4.410439589772222,0.0,29311.0,0.0,0.0,0.0,0.0,0.0,2.77099581,4.389674732977289,0.0,-38489.0,0.125,0.0,0.0,0.0,0.125,4.639892103,3.031687206278559,0.0,0.6899999976158142,0.8600000143051147,162.57000732421875,-0.023193359375,-7.32421875E-4,1.081787109375,36.130001068115234,0.0,33.0,2.04010009765625,2.6557159423828125,Closing,0.0,0.0,0.0,0.0,0.0,0.0,0.0,0.125,
4.307780999999988,0.0,0.0,3337.0,0.0,0.0,0.0,0.0,0.125,1.3757322810000001,0.5498168668524888,0.0,-16209.0,0.0,0.0,0.0,0.0,0.125,4.898681139000001,4.410439589772222,0.0,29311.0,0.0,0.0,0.0,0.0,0.0,2.769775107,4.389674732977289,0.0,-38489.0,0.125,0.0,0.0,0.0,0.125,4.641112806000001,3.031687206278559,0.0,0.6299999952316284,0.7300000190734863,162.52000427246094,-0.0023193359375,0.0147705078125,1.0030517578125,36.130001068115234,0.0,15.0,2.0411224365234375,2.656524658203125,Closing,0.0,0.0,0.0,0.0,0.0,0.0,0.0,0.125,
4.425315000000002,0.0,0.0,3337.0,0.0,0.0,0.0,0.0,0.125,1.3708494690000002,0.5498168668524888,0.0,-16209.0,0.0,0.0,0.0,0.0,0.125,4.896239733000001,4.410439589772222,0.0,29311.0,0.0,0.0,0.0,0.0,0.0,2.769775107,4.389674732977289,0.0,-38489.0,0.125,0.0,0.0,0.0,0.125,4.641112806000001,3.031687206278559,0.0,0.6200000047683716,0.5899999737739563,162.4600067138672,-0.01605224609375,-0.0035400390625,0.99591064453125,36.130001068115234,0.0,20.0,2.0423126220703125,2.6566162109375,Closing,0.0,0.0,0.0,0.0,0.0,0.0,0.0,0.0,
4.54525099999999,0.0,0.0,3337.0,0.125,-37.5,-297.63780355453486,0.0,3.625,1.674804516,1.2330627499999984,0.0,-16209.0,0.25,0.0,-297.63780355453486,0.0,1.75,4.622802261,3.7228274999999984,0.0,29311.0,0.5,30.0,297.63780355453486,0.0,1.125,2.396239989,3.7052999999999985,0.0,-38489.0,0.375,-30.0,-297.63780355453486,0.0,1.5,0.20141599500000001,3.7184999999999984,0.0,0.5699999928474426,0.4399999976158142,162.55999755859375,0.0264892578125,-0.1375732421875,1.04656982421875,36.130001068115234,0.0,-61.0,2.0461578369140625,2.657379150390625,Closing,0.0,0.0,0.0,0.0,0.0,0.0,0.0,0.0,
4.668171999999991,0.0,0.0,3323.0,2.25,-105.0,-674.6456480026245,0.0,0.875,2.1215818140000002,1.2330627499999984,0.0,-16209.0,4.5,-52.5,-674.6456480026245,0.0,0.5,4.1406245760000004,3.7228274999999984,0.0,29322.0,3.125,90.0,674.6456480026245,0.0,0.25,1.9677732360000002,3.7052999999999985,0.0,-38504.0,2.125,-180.0,-674.6456480026245,0.0,0.375,0.571289004,3.7184999999999984,0.0,0.05000000074505806,0.3400000035762787,162.8000030517578,-0.02520751953125,-0.12188720703125,1.122314453125,36.150001525878906,0.0,-5.0,2.0487060546875,2.66607666015625,Closing,0.0,0.0,0.0,0.0,0.0,0.0,0.0,0.125,
4.785573000000004,0.0,0.0,3293.0,4.0,-240.0,-754.0157639980315,0.0,0.375,2.252197035,1.2330627499999984,0.0,-16228.0,6.25,-210.0,-754.0157639980315,0.0,0.25,4.067382396,3.7228274999999984,0.0,29340.0,5.625,210.0,754.0157639980315,0.0,0.375,1.906738086,3.7052999999999985,0.0,-38531.0,3.875,-210.0,-754.0157639980315,0.0,0.5,0.563964786,3.7184999999999984,0.0,-0.38999998569488525,0.3100000023841858,162.77999877929688,-0.01080322265625,-0.0364990234375,1.01861572265625,36.150001525878906,0.0,7.0,2.048187255859375,2.6818084716796875,Closing,0.0,0.0,0.0,0.0,0.0,0.0,0.0,0.125,
4.90590399999998,0.0,0.0,3244.0,5.25,-322.5,-773.8582742214203,0.0,0.375,2.156982201,1.2330627499999984,0.0,-16272.0,8.0,-307.5,-773.8582742214203,0.0,0.25,4.197997617,3.7228274999999984,0.0,29380.0,7.75,255.0,773.8582742214203,0.0,0.5,1.98974589,3.7052999999999985,0.0,-38575.0,5.375,-322.5,-773.8582742214203,0.0,0.5,0.42724605000000004,3.7184999999999984,0.0,-0.5400000214576721,0.2199999988079071,162.85000610351562,-0.0426025390625,-0.0223388671875,0.97784423828125,36.150001525878906,0.0,40.0,2.0487060546875,2.7031097412109375,Closing,0.0,0.0,0.0,0.0,0.0,0.0,0.0,0.125,
5.025316999999981,0.0,0.0,3184.0,6.0,-435.0,-773.8582742214203,0.0,0.375,2.054443149,1.2330627499999984,0.0,-16334.0,8.25,-480.0,-773.8582742214203,0.0,0.125,4.300536669,3.7228274999999984,0.0,29428.0,9.125,375.0,773.8582742214203,0.0,0.25,2.0678708820000002,3.7052999999999985,0.0,-38634.0,6.0,-435.0,-773.8582742214203,0.0,0.25,0.35522457300000004,3.7184999999999984,0.0,-1.1100000143051147,0.10999999940395355,162.85000610351562,-0.1202392578125,-0.1749267578125,1.1103515625,36.150001525878906,0.0,71.0,2.0486297607421875,2.7270050048828125,Closing,0.0,0.0,0.0,0.0,0.0,0.0,0.0,0.0,
5.143391999999992,0.0,0.0,3095.0,0.0,-457.5,0.0,0.0,0.25,2.025146277,1.2330627499999984,0.0,-16426.0,0.0,-435.0,0.0,0.0,0.25,4.302978075,3.7228274999999984,0.0,29504.0,0.0,502.5,0.0,0.0,0.0,2.139892359,3.7052999999999985,0.0,-38721.0,0.125,-465.0,0.0,0.0,0.25,0.35522457300000004,3.7184999999999984,0.0,-1.0199999809265137,0.10999999940395355,162.88999938964844,-0.12451171875,0.2535400390625,0.9046630859375,36.189998626708984,0.0,200.0,2.0493316650390625,2.76422119140625,Closing,0.0,0.0,0.0,0.0,0.0,0.0,0.0,0.0,
5.263899999999994,0.0,0.0,3021.0,0.0,-532.5,0.0,0.0,0.25,2.025146277,1.2330627499999984,0.0,-16504.0,0.0,-472.5,0.0,0.0,0.25,4.261474173,3.7228274999999984,0.0,29572.0,0.0,412.5,0.0,0.0,0.125,2.149657983,3.7052999999999985,0.0,-38797.0,0.125,-487.5,0.0,0.0,0.25,0.35522457300000004,3.7184999999999984,0.0,-0.47999998927116394,0.03999999910593033,162.9499969482422,-0.00665283203125,0.12213134765625,1.01605224609375,36.189998626708984,0.0,45.0,2.055755615234375,2.7848358154296875,Closing,0.0,0.0,0.0,0.0,0.0,0.0,0.0,0.0,
5.385373999999982,0.0,0.0,2959.0,0.0,-337.5,0.0,0.0,0.125,2.02636698,1.2330627499999984,0.0,-16565.0,0.0,-345.0,0.0,0.0,0.125,4.191894102,3.7228274999999984,0.0,29635.0,0.0,330.0,0.0,0.0,0.125,2.149657983,3.7052999999999985,0.0,-38859.0,0.125,-352.5,0.0,0.0,0.25,0.360107385,3.7184999999999984,0.0,0.0,-0.09000000357627869,162.77000427246094,6.7138671875E-4,0.06378173828125,0.99615478515625,36.189998626708984,0.0,16.0,2.066497802734375,2.798065185546875,Closing,0.0,0.0,0.0,0.0,0.0,0.0,0.0,0.0,
5.503089000000007,0.0,0.0,2914.0,0.0,-217.5,0.0,0.0,0.125,2.025146277,1.2330627499999984,0.0,-16605.0,0.0,-210.0,0.0,0.0,0.25,4.1833491810000005,3.7228274999999984,0.0,29684.0,0.0,240.0,0.0,0.0,0.125,2.149657983,3.7052999999999985,0.0,-38908.0,0.125,-240.0,0.0,0.0,0.25,0.35522457300000004,3.7184999999999984,0.0,0.4699999988079071,-0.12999999523162842,162.60000610351562,-0.0093994140625,0.0924072265625,0.975830078125,36.189998626708984,0.0,31.0,2.0810394287109375,2.8043670654296875,Closing,0.0,0.0,0.0,0.0,0.0,0.0,0.0,0.0,
5.622353000000003,0.0,0.0,2892.0,0.0,-90.0,0.0,0.0,0.125,2.025146277,1.2330627499999984,0.0,-16631.0,0.0,-82.5,0.0,0.0,0.25,4.1833491810000005,3.7228274999999984,0.0,29713.0,0.0,97.5,0.0,0.0,0.125,2.149657983,3.7052999999999985,0.0,-38938.0,0.125,-105.0,0.0,0.0,0.25,0.35522457300000004,3.7184999999999984,0.0,0.8700000047683716,-0.20000000298023224,162.5,-0.01800537109375,0.06378173828125,0.99066162109375,36.20000076293945,0.0,28.0,2.0986480712890625,2.8038787841796875,Closing,0.0,0.0,0.0,0.0,0.0,0.0,0.0,0.125,
5.737149000000005,0.0,0.0,2887.0,0.0,-7.5,0.0,0.0,0.125,2.025146277,1.2330627499999984,0.0,-16638.0,0.0,-7.5,0.0,0.0,0.25,4.1833491810000005,3.7228274999999984,0.0,29720.0,0.0,0.0,0.0,0.0,0.125,2.149657983,3.7052999999999985,0.0,-38947.0,0.125,0.0,0.0,0.0,0.25,0.35522457300000004,3.7184999999999984,0.0,1.0099999904632568,-0.25,162.52999877929688,-0.0045166015625,0.012451171875,1.00970458984375,36.20000076293945,0.0,-1.0,2.110870361328125,2.8004608154296875,Closing,0.0,0.0,0.0,0.0,0.0,0.0,0.0,0.0,
5.855014999999985,0.0,0.0,2887.0,0.0,0.0,0.0,0.0,0.25,2.025146277,1.2330627499999984,0.0,-16638.0,0.0,0.0,0.0,0.0,0.25,4.18701129,3.7228274999999984,0.0,29720.0,0.0,0.0,0.0,0.0,0.125,2.149657983,3.7052999999999985,0.0,-38947.0,0.125,0.0,0.0,0.0,0.25,0.35522457300000004,3.7184999999999984,0.0,0.8799999952316284,-0.28999999165534973,162.55999755859375,-0.0072021484375,-0.01739501953125,1.0286865234375,36.20000076293945,0.0,-8.0,2.110870361328125,2.801483154296875,Closing,0.0,0.0,0.0,0.0,0.0,0.0,0.0,0.125,
5.971589000000007,0.0,0.0,2887.0,0.0,0.0,0.0,0.0,0.125,2.025146277,1.2330627499999984,0.0,-16638.0,0.0,0.0,0.0,0.0,0.25,4.191894102,3.7228274999999984,0.0,29720.0,0.0,0.0,0.0,0.0,0.125,2.149657983,3.7052999999999985,0.0,-38947.0,0.125,0.0,0.0,0.0,0.25,0.35522457300000004,3.7184999999999984,0.0,0.7599999904632568,-0.3199999928474426,162.5500030517578,-0.01263427734375,-0.012939453125,1.00848388671875,36.20000076293945,0.0,-1.0,2.110870361328125,2.804412841796875,Closing,0.0,0.0,0.0,0.0,0.0,0.0,0.0,0.125,
6.090258000000001,0.0,0.0,2887.0,0.0,0.0,0.0,0.0,0.125,2.025146277,1.2330627499999984,0.0,-16638.0,0.0,0.0,0.0,0.0,0.25,4.1931148050000004,3.7228274999999984,0.0,29720.0,0.0,0.0,0.0,0.0,0.125,2.149657983,3.7052999999999985,0.0,-38947.0,0.125,0.0,0.0,0.0,0.25,0.35522457300000004,3.7184999999999984,0.0,0.7099999785423279,-0.36000001430511475,162.5500030517578,-0.01385498046875,0.0133056640625,1.01434326171875,36.20000076293945,0.0,7.0,2.110870361328125,2.8049774169921875,Closing,0.0,0.0,0.0,0.0,0.0,0.0,0.0,0.0,
6.206760999999998,0.0,0.0,2887.0,0.0,0.0,0.0,0.0,0.125,2.02636698,1.2330627499999984,0.0,-16638.0,0.0,0.0,0.0,0.0,0.25,4.1931148050000004,3.7228274999999984,0.0,29720.0,0.0,0.0,0.0,0.0,0.125,2.149657983,3.7052999999999985,0.0,-38947.0,0.125,0.0,0.0,0.0,0.25,0.35644527600000003,3.7184999999999984,0.0,0.7099999785423279,-0.3799999952316284,162.5500030517578,-0.01336669921875,0.005859375,1.01995849609375,36.220001220703125,0.0,4.0,2.110870361328125,2.8049774169921875,Closing,0.0,0.0,0.0,0.0,0.0,0.0,0.0,0.0,
6.3245829999999845,0.0,0.0,2887.0,0.0,0.0,0.0,0.0,0.125,2.025146277,1.2330627499999984,0.0,-16638.0,0.0,0.0,0.0,0.0,0.25,4.1931148050000004,3.7228274999999984,0.0,29720.0,0.0,0.0,0.0,0.0,0.125,2.149657983,3.7052999999999985,0.0,-38947.0,0.125,0.0,0.0,0.0,0.25,0.35522457300000004,3.7184999999999984,0.0,0.6499999761581421,-0.4099999964237213,162.5500030517578,-0.017333984375,7.32421875E-4,1.0107421875,36.220001220703125,0.0,6.0,2.110870361328125,2.8049774169921875,Closing,0.0,0.0,0.0,0.0,0.0,0.0,0.0,0.0,
6.439003999999986,0.0,0.0,2887.0,0.0,0.0,0.0,0.0,0.125,2.025146277,1.2330627499999984,0.0,-16638.0,0.0,0.0,0.0,0.0,0.25,4.194335508,3.7228274999999984,0.0,29720.0,0.0,0.0,0.0,0.0,0.125,2.149657983,3.7052999999999985,0.0,-38947.0,0.125,0.0,0.0,0.0,0.25,0.35522457300000004,3.7184999999999984,0.0,0.6200000047683716,-0.4399999976158142,162.5500030517578,-0.00811767578125,0.008056640625,1.01959228515625,36.220001220703125,0.0,0.0,2.110870361328125,2.8049774169921875,Closing,0.0,0.0,0.0,0.0,0.0,0.0,0.0,0.0,
6.550309000000008,0.0,0.0,2887.0,0.0,0.0,0.0,0.0,0.25,2.023925574,1.2330627499999984,0.0,-16638.0,0.0,0.0,0.0,0.0,0.25,4.1931148050000004,3.7228274999999984,0.0,29720.0,0.0,0.0,0.0,0.0,0.125,2.14843728,3.7052999999999985,0.0,-38947.0,0.125,0.0,0.0,0.0,0.25,0.35522457300000004,3.7184999999999984,0.0,0.5799999833106995,-0.46000000834465027,162.5399932861328,-0.0133056640625,-4.2724609375E-4,1.02069091796875,36.220001220703125,0.0,1.0,2.110870361328125,2.8049774169921875,Closing,0.0,0.0,0.0,0.0,0.0,0.0,0.0,0.125,
6.6810199999999895,0.0,0.0,2887.0,0.0,0.0,0.0,0.0,0.125,2.025146277,1.2330627499999984,0.0,-16638.0,0.0,0.0,0.0,0.0,0.25,4.1931148050000004,3.7228274999999984,0.0,29720.0,0.0,0.0,0.0,0.0,0.125,2.149657983,3.7052999999999985,0.0,-38947.0,0.125,0.0,0.0,0.0,0.25,0.35522457300000004,3.7184999999999984,0.0,0.5400000214576721,-0.47999998927116394,162.5399932861328,-0.01031494140625,0.00616455078125,1.0262451171875,36.279998779296875,0.0,0.0,2.110870361328125,2.8049774169921875,Closing,0.0,0.0,0.0,0.0,0.0,0.0,0.0,0.0,
6.790377000000007,0.0,0.0,2887.0,0.0,0.0,0.0,0.0,0.125,2.025146277,1.2330627499999984,0.0,-16638.0,0.0,0.0,0.0,0.0,0.25,4.1931148050000004,3.7228274999999984,0.0,29720.0,0.0,0.0,0.0,0.0,0.125,2.149657983,3.7052999999999985,0.0,-38947.0,0.125,0.0,0.0,0.0,0.25,0.35522457300000004,3.7184999999999984,0.0,0.5299999713897705,-0.5,162.5399932861328,-0.01019287109375,0.007568359375,1.0177001953125,36.279998779296875,0.0,0.0,2.110870361328125,2.8049774169921875,Closing,0.0,0.0,0.0,0.0,0.0,0.0,0.0,0.0,
6.905937999999995,0.0,0.0,2887.0,0.0,0.0,0.0,0.0,0.125,2.025146277,1.2330627499999984,0.0,-16638.0,0.0,0.0,0.0,0.0,0.25,4.1931148050000004,3.7228274999999984,0.0,29720.0,0.0,0.0,0.0,0.0,0.125,2.149657983,3.7052999999999985,0.0,-38947.0,0.125,0.0,0.0,0.0,0.25,0.35522457300000004,3.7184999999999984,0.0,0.5099999904632568,-0.5099999904632568,162.5399932861328,-0.01385498046875,0.00640869140625,1.01806640625,36.279998779296875,0.0,3.0,2.110870361328125,2.8049774169921875,Closing,0.0,0.0,0.0,0.0,0.0,0.0,0.0,0.0,
7.0261680000000055,0.0,0.0,2887.0,0.0,0.0,0.0,0.0,0.25,2.025146277,1.2330627499999984,0.0,-16638.0,0.0,0.0,0.0,0.0,0.25,4.191894102,3.7228274999999984,0.0,29720.0,0.0,0.0,0.0,0.0,0.125,2.149657983,3.7052999999999985,0.0,-38947.0,0.125,0.0,0.0,0.0,0.25,0.351562464,3.7184999999999984,0.0,0.49000000953674316,-0.5299999713897705,162.52999877929688,-0.0147705078125,0.00726318359375,1.01971435546875,36.279998779296875,0.0,4.0,2.110870361328125,2.8049774169921875,Closing,0.0,0.0,0.0,0.0,0.0,0.0,0.0,0.0,
7.140627999999997,0.0,0.0,2887.0,0.0,0.0,0.0,0.0,0.125,2.025146277,1.2330627499999984,0.0,-16638.0,0.0,0.0,0.0,0.0,0.25,4.1931148050000004,3.7228274999999984,0.0,29720.0,0.0,0.0,0.0,0.0,0.125,2.149657983,3.7052999999999985,0.0,-38947.0,0.125,0.0,0.0,0.0,0.25,0.35522457300000004,3.7184999999999984,0.0,0.46000000834465027,-0.550000011920929,162.52999877929688,-0.01025390625,0.0045166015625,1.01300048828125,36.279998779296875,0.0,0.0,2.110870361328125,2.8049774169921875,Closing,0.0,0.0,0.0,0.0,0.0,0.0,0.0,0.0,
7.257252999999997,0.0,0.0,2887.0,0.125,0.0,-238.1102353334427,0.0,2.25,1.488036957,4.932250999999998,0.0,-16638.0,0.125,0.0,-238.1102353334427,0.0,4.75,3.708495714,2.481884999999998,0.0,29720.0,0.375,0.0,-238.1102353334427,0.0,2.125,2.7954098700000003,0.01,0.0,-38948.0,0.375,-7.5,-238.1102353334427,0.0,2.5,4.642333509,2.4790000000000023,0.0,0.46000000834465027,-0.5099999904632568,162.55999755859375,0.029541015625,-0.036376953125,0.890869140625,36.27000045776367,0.0,-48.0,2.110595703125,2.805877685546875,Closing,0.0,0.0,0.0,0.0,0.0,0.0,0.0,0.125,
7.380619999999995,0.0,0.0,2865.0,12.125,-135.0,-1527.874038219452,0.0,0.75,0.8178710100000001,4.932250999999998,0.0,-16659.0,16.5,-172.5,-1527.874038219452,0.0,1.125,3.043212579,2.481884999999998,0.0,29713.0,12.875,-60.0,-1527.874038219452,0.0,0.0,3.509521125,0.01,0.0,-38961.0,13.875,-112.5,-1527.874038219452,0.0,0.5,3.975829671,2.4790000000000023,0.0,-0.03999999910593033,-1.4800000190734863,162.8000030517578,-0.3834228515625,-0.16748046875,0.66387939453125,36.27000045776367,0.0,300.0,2.114013671875,2.8116455078125,Closing,0.0,0.0,0.0,0.0,0.0,0.0,0.0,0.0,
7.500271999999997,0.0,0.0,2789.0,18.625,-472.5,-1666.7716097831726,0.0,0.25,0.6213378270000001,4.932250999999998,0.0,-16719.0,23.875,-465.0,-1666.7716097831726,0.0,0.25,2.6440426980000002,2.481884999999998,0.0,29668.0,24.625,-337.5,-1666.7716097831726,0.0,0.375,3.6779781390000004,0.01,0.0,-39017.0,20.125,-442.5,-1666.7716097831726,0.0,0.375,3.8366695290000004,2.4790000000000023,0.0,0.8199999928474426,-2.7300000190734863,162.72000122070312,-0.20294189453125,-0.01593017578125,0.9041748046875,36.27000045776367,0.0,143.0,2.143890380859375,2.8241119384765625,Closing,0.0,0.0,0.0,0.0,0.0,0.0,0.0,0.0,
7.623073000000004,0.0,0.0,2684.0,3.25,-660.0,-297.63780355453486,0.0,0.375,0.701904225,4.932250999999998,0.0,-16849.0,2.25,-810.0,-297.63780355453486,0.0,0.25,2.781982137,2.481884999999998,0.0,29589.0,7.875,-510.0,-297.63780355453486,0.0,0.5,3.488769174,0.01,0.0,-39142.0,2.75,-772.5,-297.63780355453486,0.0,0.625,3.964843344,2.4790000000000023,0.0,0.7300000190734863,-2.630000114440918,161.16000366210938,-0.04833984375,-0.0528564453125,1.02886962890625,36.27000045776367,0.0,-20.0,2.1807861328125,2.831329345703125,Closing,0.0,0.0,0.0,0.0,0.0,0.0,0.0,0.125,
7.747767999999982,0.0,0.0,2600.0,0.0,-480.0,0.0,0.0,0.375,0.799560465,4.932250999999998,0.0,-16958.0,0.0,-570.0,0.0,0.0,0.5,3.024902034,2.481884999999998,0.0,29510.0,0.0,-405.0,0.0,0.0,0.125,3.3154293480000003,0.01,0.0,-39242.0,0.0,-585.0,0.0,0.0,0.375,4.143065982,2.4790000000000023,0.0,0.23000000417232513,-2.069999933242798,160.60000610351562,0.39599609375,-0.210205078125,1.114990234375,36.279998779296875,0.0,-113.0,2.2109222412109375,2.84765625,Closing,0.0,0.0,0.0,0.0,0.0,0.0,0.0,0.125,
7.868669999999984,0.0,0.0,2526.0,0.0,-480.0,0.0,0.0,0.125,0.822753822,4.932250999999998,0.0,-17039.0,0.0,-465.0,0.0,0.0,0.25,3.144530928,2.481884999999998,0.0,29466.0,0.0,-315.0,0.0,0.0,0.125,3.2617184160000003,0.01,0.0,-39327.0,0.125,-427.5,0.0,0.0,0.25,4.200439023,2.4790000000000023,0.0,0.05000000074505806,0.5699999928474426,161.17999267578125,0.2862548828125,0.22430419921875,1.0833740234375,36.279998779296875,0.0,-188.0,2.212554931640625,2.858184814453125,Closing,0.0,0.0,0.0,0.0,0.0,0.0,0.0,0.0,
7.987820999999996,0.0,0.0,2533.0,0.0,52.5,0.0,0.0,0.125,0.812988198,4.932250999999998,0.0,-17043.0,0.0,60.0,0.0,0.0,0.25,3.0993649170000004,2.481884999999998,0.0,29443.0,0.0,-52.5,0.0,0.0,0.125,3.287353179,0.01,0.0,-39333.0,0.125,97.5,0.0,0.0,0.25,4.169921448,2.4790000000000023,0.0,0.09000000357627869,0.4099999964237213,160.57000732421875,-0.13818359375,-0.06866455078125,1.03485107421875,36.279998779296875,0.0,113.0,2.195281982421875,2.8574676513671875,Closing,0.0,0.0,0.0,0.0,0.0,0.0,0.0,0.0,
8.105038999999989,0.0,0.0,2548.0,0.0,82.5,0.0,0.0,0.125,0.819091713,4.932250999999998,0.0,-17025.0,0.0,60.0,0.0,0.0,0.25,3.0627438270000003,2.481884999999998,0.0,29456.0,0.0,67.5,0.0,0.0,0.0,3.339843408,0.01,0.0,-39318.0,0.125,90.0,0.0,0.0,0.25,4.127196843,2.4790000000000023,0.0,0.14000000059604645,-0.20999999344348907,160.67999267578125,-0.07647705078125,-0.03045654296875,1.01715087890625,36.279998779296875,0.0,57.0,2.185943603515625,2.862213134765625,Closing,0.0,0.0,0.0,0.0,0.0,0.0,0.0,0.0,
8.228081000000005,0.0,0.0,2548.0,0.0,0.0,0.0,0.0,0.125,0.8166503070000001,4.932250999999998,0.0,-17024.0,0.0,0.0,0.0,0.0,0.25,3.013915707,2.481884999999998,0.0,29456.0,0.0,0.0,0.0,0.0,0.0,3.359374656,0.01,0.0,-39314.0,0.125,0.0,0.0,0.0,0.25,4.107665595,2.4790000000000023,0.0,0.10000000149011612,-0.3100000023841858,160.6300048828125,0.00128173828125,0.0244140625,1.01287841796875,36.27000045776367,0.0,0.0,2.1844024658203125,2.8631591796875,Closing,0.0,0.0,0.0,0.0,0.0,0.0,0.0,0.0,
8.343880000000004,0.0,0.0,2548.0,0.0,0.0,0.0,0.0,0.25,0.8178710100000001,4.932250999999998,0.0,-17024.0,0.0,0.0,0.0,0.0,0.25,3.0041500830000003,2.481884999999998,0.0,29456.0,0.0,0.0,0.0,0.0,0.0,3.358153953,0.01,0.0,-39314.0,0.125,0.0,0.0,0.0,0.125,4.107665595,2.4790000000000023,0.0,0.17000000178813934,-0.23000000417232513,160.7100067138672,0.02093505859375,-0.00665283203125,1.03350830078125,36.27000045776367,0.0,-27.0,2.1843109130859375,2.8629302978515625,Closing,0.0,0.0,0.0,0.0,0.0,0.0,0.0,0.0,
8.465710999999981,0.0,0.0,2548.0,0.0,0.0,0.0,0.0,0.25,0.8178710100000001,4.932250999999998,0.0,-17024.0,0.0,0.0,0.0,0.0,0.125,3.0041500830000003,2.481884999999998,0.0,29456.0,0.0,0.0,0.0,0.0,0.0,3.359374656,0.01,0.0,-39314.0,0.125,0.0,0.0,0.0,0.125,4.108886298,2.4790000000000023,0.0,0.15000000596046448,-0.1899999976158142,160.7100067138672,-0.01312255859375,0.012939453125,1.01397705078125,36.27000045776367,0.0,12.0,2.1842193603515625,2.863037109375,Closing,0.0,0.0,0.0,0.0,0.0,0.0,0.0,0.0,
8.583570000000007,0.0,0.0,2548.0,0.0,0.0,0.0,0.0,0.125,0.8178710100000001,4.932250999999998,0.0,-17024.0,0.0,0.0,0.0,0.0,0.125,3.0053707860000003,2.481884999999998,0.0,29456.0,0.0,0.0,0.0,0.0,0.0,3.359374656,0.01,0.0,-39314.0,0.125,0.0,0.0,0.0,0.125,4.108886298,2.4790000000000023,0.0,0.1599999964237213,-0.27000001072883606,160.67999267578125,-0.02496337890625,0.0045166015625,1.01922607421875,36.27000045776367,0.0,19.0,2.1843719482421875,2.863037109375,Closing,0.0,0.0,0.0,0.0,0.0,0.0,0.0,0.125,
8.701316999999982,0.0,0.0,2548.0,0.0,0.0,0.0,0.0,0.125,0.8178710100000001,4.932250999999998,0.0,-17024.0,0.0,0.0,0.0,0.0,0.125,3.0041500830000003,2.481884999999998,0.0,29456.0,0.0,0.0,0.0,0.0,0.0,3.359374656,0.01,0.0,-39314.0,0.125,0.0,0.0,0.0,0.125,4.110107001,2.4790000000000023,0.0,0.17000000178813934,-0.3100000023841858,160.69000244140625,-0.00146484375,0.01129150390625,1.021240234375,36.2400016784668,0.0,-1.0,2.1843719482421875,2.863037109375,Closing,0.0,0.0,0.0,0.0,0.0,0.0,0.0,0.125,
8.816772999999987,0.0,0.0,2548.0,0.0,0.0,0.0,0.0,0.125,0.8166503070000001,4.932250999999998,0.0,-17024.0,0.0,0.0,0.0,0.0,0.125,3.0053707860000003,2.481884999999998,0.0,29456.0,0.0,0.0,0.0,0.0,0.0,3.359374656,0.01,0.0,-39314.0,0.125,0.0,0.0,0.0,0.125,4.107665595,2.4790000000000023,0.0,0.17000000178813934,-0.3199999928474426,160.6999969482422,-0.01348876953125,0.00994873046875,1.0140380859375,36.2400016784668,0.0,9.0,2.1843719482421875,2.863037109375,Closing,0.0,0.0,0.0,0.0,0.0,0.0,0.0,0.0,
8.939199999999982,0.0,0.0,2548.0,0.0,0.0,0.0,0.0,0.25,0.8178710100000001,4.932250999999998,0.0,-17024.0,0.0,0.0,0.0,0.0,0.125,3.0053707860000003,2.481884999999998,0.0,29456.0,0.0,0.0,0.0,0.0,0.0,3.359374656,0.01,0.0,-39314.0,0.125,0.0,0.0,0.0,0.125,4.108886298,2.4790000000000023,0.0,0.17000000178813934,-0.36000001430511475,160.69000244140625,-0.0145263671875,0.004638671875,1.02105712890625,36.2400016784668,0.0,7.0,2.1843719482421875,2.863037109375,Closing,0.0,0.0,0.0,0.0,0.0,0.0,0.0,0.0,
9.053185999999988,0.0,0.0,2548.0,0.0,0.0,0.0,0.0,0.125,0.8178710100000001,4.932250999999998,0.0,-17024.0,0.0,0.0,0.0,0.0,0.125,3.0041500830000003,2.481884999999998,0.0,29456.0,0.0,0.0,0.0,0.0,0.0,3.359374656,0.01,0.0,-39314.0,0.125,0.0,0.0,0.0,0.125,4.107665595,2.4790000000000023,0.0,0.1899999976158142,-0.3799999952316284,160.67999267578125,-0.01495361328125,2.44140625E-4,1.01959228515625,36.2400016784668,0.0,6.0,2.1843719482421875,2.863037109375,Closing,0.0,0.0,0.0,0.0,0.0,0.0,0.0,0.0,
9.170285000000003,0.0,0.0,2548.0,0.0,0.0,0.0,0.0,0.25,0.8178710100000001,4.932250999999998,0.0,-17024.0,0.0,0.0,0.0,0.0,0.125,3.0041500830000003,2.481884999999998,0.0,29456.0,0.0,0.0,0.0,0.0,0.0,3.359374656,0.01,0.0,-39314.0,0.125,0.0,0.0,0.0,0.125,4.107665595,2.4790000000000023,0.0,0.20000000298023224,-0.4099999964237213,160.69000244140625,-0.00994873046875,0.00384521484375,1.0172119140625,36.2400016784668,0.0,2.0,2.1843719482421875,2.863037109375,Closing,0.0,0.0,0.0,0.0,0.0,0.0,0.0,0.0,
9.288149999999995,0.0,0.0,2548.0,0.0,0.0,0.0,0.0,0.25,0.8178710100000001,4.932250999999998,0.0,-17024.0,0.0,0.0,0.0,0.0,0.125,3.0041500830000003,2.481884999999998,0.0,29456.0,0.0,0.0,0.0,0.0,0.0,3.358153953,0.01,0.0,-39314.0,0.125,0.0,0.0,0.0,0.125,4.108886298,2.4790000000000023,0.0,0.20000000298023224,-0.41999998688697815,160.67999267578125,-0.01263427734375,0.00537109375,1.017333984375,36.25,0.0,5.0,2.1843719482421875,2.863037109375,Closing,0.0,0.0,0.0,0.0,0.0,0.0,0.0,0.0,
9.409147999999986,0.0,0.0,2548.0,0.0,0.0,0.0,0.0,0.25,0.8166503070000001,4.932250999999998,0.0,-17024.0,0.0,0.0,0.0,0.0,0.125,3.0041500830000003,2.481884999999998,0.0,29456.0,0.0,0.0,0.0,0.0,0.0,3.359374656,0.01,0.0,-39314.0,0.125,0.0,0.0,0.0,0.125,4.108886298,2.4790000000000023,0.0,0.20000000298023224,-0.4399999976158142,160.67999267578125,-0.00836181640625,0.00311279296875,1.0230712890625,36.25,0.0,0.0,2.1843719482421875,2.863037109375,Closing,0.0,0.0,0.0,0.0,0.0,0.0,0.0,0.0,
9.541709999999991,0.0,0.0,2548.0,0.0,0.0,0.0,0.0,0.125,0.8178710100000001,4.932250999999998,0.0,-17024.0,0.0,0.0,0.0,0.0,0.125,3.0041500830000003,2.481884999999998,0.0,29456.0,0.0,0.0,0.0,0.0,0.0,3.358153953,0.01,0.0,-39314.0,0.125,0.0,0.0,0.0,0.125,4.108886298,2.4790000000000023,0.0,0.20000000298023224,-0.46000000834465027,160.67999267578125,-0.0111083984375,0.00262451171875,1.0184326171875,36.25,0.0,2.0,2.1843719482421875,2.863037109375,Closing,0.0,0.0,0.0,0.0,0.0,0.0,0.0,0.0,
9.66719199999998,0.0,0.0,2548.0,0.0,0.0,0.0,0.0,0.125,0.8178710100000001,4.932250999999998,0.0,-17024.0,0.0,0.0,0.0,0.0,0.125,3.0041500830000003,2.481884999999998,0.0,29456.0,0.0,0.0,0.0,0.0,0.0,3.359374656,0.01,0.0,-39314.0,0.125,0.0,0.0,0.0,0.125,4.107665595,2.4790000000000023,0.0,0.20999999344348907,-0.4699999988079071,160.67999267578125,-0.01080322265625,0.00311279296875,1.0181884765625,36.25,0.0,1.0,2.1843719482421875,2.863037109375,Closing,0.0,0.0,0.0,0.0,0.0,0.0,0.0,0.125,
9.789451000000001,0.0,0.0,2548.0,0.0,0.0,0.0,0.0,0.125,0.8178710100000001,4.932250999999998,0.0,-17024.0,0.0,0.0,0.0,0.0,0.125,3.0053707860000003,2.481884999999998,0.0,29456.0,0.0,0.0,0.0,0.0,0.0,3.359374656,0.01,0.0,-39314.0,0.125,0.0,0.0,0.0,0.125,4.108886298,2.4790000000000023,0.0,0.2199999988079071,-0.49000000953674316,160.67999267578125,-0.01043701171875,0.005859375,1.0225830078125,36.31999969482422,0.0,2.0,2.1843719482421875,2.863037109375,Closing,0.0,0.0,0.0,0.0,0.0,0.0,0.0,0.0,
9.924703000000008,0.0,0.0,2548.0,0.0,0.0,0.0,0.0,0.125,0.8178710100000001,4.932250999999998,0.0,-17024.0,0.0,0.0,0.0,0.0,0.125,3.0041500830000003,2.481884999999998,0.0,29456.0,0.0,0.0,0.0,0.0,0.0,3.359374656,0.01,0.0,-39314.0,0.125,0.0,0.0,0.0,0.125,4.108886298,2.4790000000000023,0.0,0.2199999988079071,-0.5099999904632568,160.6699981689453,-0.009521484375,0.00311279296875,1.02044677734375,36.31999969482422,0.0,0.0,2.1843719482421875,2.863037109375,Closing,0.0,0.0,0.0,0.0,0.0,0.0,0.0,0.125,
10.049070000000007,0.0,0.0,2548.0,0.0,0.0,0.0,0.0,0.125,0.8166503070000001,4.932250999999998,0.0,-17024.0,0.0,0.0,0.0,0.0,0.125,3.0041500830000003,2.481884999999998,0.0,29456.0,0.0,0.0,0.0,0.0,0.0,3.359374656,0.01,0.0,-39314.0,0.125,0.0,0.0,0.0,0.125,4.108886298,2.4790000000000023,0.0,0.2199999988079071,-0.5199999809265137,160.6699981689453,-0.01068115234375,0.00506591796875,1.01654052734375,36.31999969482422,0.0,1.0,2.1843719482421875,2.863037109375,Closing,0.0,0.0,0.0,0.0,0.0,0.0,0.0,0.0,
10.18322,0.0,0.0,2548.0,0.0,0.0,0.0,0.0,0.125,0.8178710100000001,4.932250999999998,0.0,-17024.0,0.0,0.0,0.0,0.0,0.125,3.0053707860000003,2.481884999999998,0.0,29456.0,0.0,0.0,0.0,0.0,0.0,3.358153953,0.01,0.0,-39314.0,0.125,0.0,0.0,0.0,0.125,4.108886298,2.4790000000000023,0.0,0.23000000417232513,-0.5299999713897705,160.6699981689453,-0.0115966796875,0.00531005859375,1.0206298828125,36.31999969482422,0.0,2.0,2.1843719482421875,2.863037109375,Closing,0.0,0.0,0.0,0.0,0.0,0.0,0.0,0.0,
10.307380000000006,0.0,0.0,2548.0,0.0,0.0,0.0,0.0,0.125,0.8178710100000001,4.932250999999998,0.0,-17024.0,0.0,0.0,0.0,0.0,0.125,3.0053707860000003,2.481884999999998,0.0,29456.0,0.0,0.0,0.0,0.0,0.0,3.3605953590000004,0.01,0.0,-39314.0,0.125,0.0,0.0,0.0,0.125,4.107665595,2.4790000000000023,0.0,0.23000000417232513,-0.550000011920929,160.6699981689453,-0.013916015625,0.0048828125,1.01513671875,36.31999969482422,0.0,4.0,2.1843719482421875,2.863037109375,Closing,0.0,0.0,0.0,0.0,0.0,0.0,0.0,0.0,
10.440785999999992,0.0,0.0,2548.0,0.0,0.0,0.0,0.0,0.125,0.8166503070000001,4.932250999999998,0.0,-17024.0,0.0,0.0,0.0,0.0,0.125,3.0041500830000003,2.481884999999998,0.0,29456.0,0.0,0.0,0.0,0.0,0.0,3.359374656,0.01,0.0,-39314.0,0.125,0.0,0.0,0.0,0.125,4.107665595,2.4790000000000023,0.0,0.23000000417232513,-0.550000011920929,160.6699981689453,-0.01324462890625,0.00445556640625,1.021728515625,36.31999969482422,0.0,3.0,2.1843719482421875,2.863037109375,Closing,0.0,0.0,0.0,0.0,0.0,0.0,0.0,0.125,
10.563725999999996,0.0,0.0,2548.0,0.0,0.0,0.0,0.0,0.25,0.8178710100000001,4.932250999999998,0.0,-17024.0,0.0,0.0,0.0,0.0,0.125,3.0041500830000003,2.481884999999998,0.0,29456.0,0.0,0.0,0.0,0.0,0.0,3.359374656,0.01,0.0,-39314.0,0.125,0.0,0.0,0.0,0.125,4.107665595,2.4790000000000023,0.0,0.23000000417232513,-0.5600000023841858,160.6699981689453,-0.00994873046875,0.00457763671875,1.02117919921875,36.31999969482422,0.0,0.0,2.1843719482421875,2.863037109375,Closing,0.0,0.0,0.0,0.0,0.0,0.0,0.0,0.0,
10.687318999999988,0.0,0.0,2548.0,0.0,0.0,0.0,0.0,0.125,0.8178710100000001,4.932250999999998,0.0,-17024.0,0.0,0.0,0.0,0.0,0.125,3.0041500830000003,2.481884999999998,0.0,29456.0,0.0,0.0,0.0,0.0,0.0,3.3605953590000004,0.01,0.0,-39314.0,0.125,0.0,0.0,0.0,0.125,4.108886298,2.4790000000000023,0.0,0.23000000417232513,-0.5600000023841858,160.66000366210938,-0.01226806640625,0.00518798828125,1.022705078125,36.31999969482422,0.0,2.0,2.1843719482421875,2.863037109375,Closing,0.0,0.0,0.0,0.0,0.0,0.0,0.0,0.0,
10.809502000000007,0.0,0.0,2548.0,0.0,0.0,0.0,0.0,0.25,0.8178710100000001,4.932250999999998,0.0,-17024.0,0.0,0.0,0.0,0.0,0.125,3.0053707860000003,2.481884999999998,0.0,29456.0,0.0,0.0,0.0,0.0,0.0,3.358153953,0.01,0.0,-39314.0,0.125,0.0,0.0,0.0,0.125,4.107665595,2.4790000000000023,0.0,0.23000000417232513,-0.5699999928474426,160.66000366210938,-0.01153564453125,0.0035400390625,1.018310546875,36.29999923706055,0.0,1.0,2.1843719482421875,2.863037109375,Closing,0.0,0.0,0.0,0.0,0.0,0.0,0.0,0.0,
10.942940999999992,0.0,0.0,2548.0,0.0,0.0,0.0,0.0,0.125,0.8178710100000001,4.932250999999998,0.0,-17024.0,0.0,0.0,0.0,0.0,0.125,3.0053707860000003,2.481884999999998,0.0,29456.0,0.0,0.0,0.0,0.0,0.0,3.358153953,0.01,0.0,-39314.0,0.125,0.0,0.0,0.0,0.125,4.107665595,2.4790000000000023,0.0,0.23999999463558197,-0.5699999928474426,160.66000366210938,-0.01318359375,0.00494384765625,1.01751708984375,36.29999923706055,0.0,2.0,2.1843719482421875,2.863037109375,Closing,0.0,0.0,0.0,0.0,0.0,0.0,0.0,0.0,
11.063584999999993,0.0,0.0,2548.0,0.0,0.0,0.0,0.0,0.25,0.8178710100000001,4.932250999999998,0.0,-17024.0,0.0,0.0,0.0,0.0,0.125,3.0041500830000003,2.481884999999998,0.0,29456.0,0.0,0.0,0.0,0.0,0.0,3.359374656,0.01,0.0,-39314.0,0.125,0.0,0.0,0.0,0.125,4.107665595,2.4790000000000023,0.0,0.23999999463558197,-0.5799999833106995,160.66000366210938,-0.007568359375,0.0052490234375,1.0185546875,36.29999923706055,0.0,-2.0,2.1843719482421875,2.863037109375,Closing,0.0,0.0,0.0,0.0,0.0,0.0,0.0,0.0,
11.179978999999992,0.0,0.0,2548.0,0.0,0.0,0.0,0.0,0.125,0.8166503070000001,4.932250999999998,0.0,-17024.0,0.0,0.0,0.0,0.0,0.125,3.0029293800000003,2.481884999999998,0.0,29456.0,0.0,0.0,0.0,0.0,0.0,3.359374656,0.01,0.0,-39314.0,0.125,0.0,0.0,0.0,0.125,4.107665595,2.4790000000000023,0.0,0.23999999463558197,-0.5899999737739563,160.66000366210938,-0.01080322265625,0.001953125,1.02099609375,36.29999923706055,0.0,0.0,2.1843719482421875,2.863037109375,Closing,0.0,0.0,0.0,0.0,0.0,0.0,0.0,0.0,
11.291559999999997,0.0,0.0,2548.0,0.0,0.0,0.0,0.0,0.125,0.8178710100000001,4.932250999999998,0.0,-17024.0,0.0,0.0,0.0,0.0,0.125,3.0041500830000003,2.481884999999998,0.0,29456.0,0.0,0.0,0.0,0.0,0.0,3.359374656,0.01,0.0,-39314.0,0.125,0.0,0.0,0.0,0.125,4.107665595,2.4790000000000023,0.0,0.23999999463558197,-0.5899999737739563,160.66000366210938,-0.0108642578125,0.003662109375,1.01605224609375,36.349998474121094,0.0,0.0,2.1843719482421875,2.863037109375,Closing,0.0,0.0,0.0,0.0,0.0,0.0,0.0,0.0,
11.407323000000003,0.0,0.0,2548.0,0.0,0.0,0.0,0.0,0.125,0.8178710100000001,4.932250999999998,0.0,-17024.0,0.0,0.0,0.0,0.0,0.125,3.0041500830000003,2.481884999999998,0.0,29456.0,0.0,0.0,0.0,0.0,0.0,3.359374656,0.01,0.0,-39314.0,0.125,0.0,0.0,0.0,0.125,4.107665595,2.4790000000000023,0.0,0.23999999463558197,-0.5899999737739563,160.66000366210938,-0.0107421875,0.00311279296875,1.0174560546875,36.349998474121094,0.0,0.0,2.1843719482421875,2.863037109375,Closing,0.0,0.0,0.0,0.0,0.0,0.0,0.0,0.125,
11.526427999999985,0.0,0.0,2548.0,0.0,0.0,0.0,0.0,0.25,0.8166503070000001,4.932250999999998,0.0,-17024.0,0.0,0.0,0.0,0.0,0.125,3.0041500830000003,2.481884999999998,0.0,29456.0,0.0,0.0,0.0,0.0,0.0,3.359374656,0.01,0.0,-39314.0,0.125,0.0,0.0,0.0,0.125,4.107665595,2.4790000000000023,0.0,0.25,-0.5899999737739563,160.66000366210938,-0.01025390625,0.004638671875,1.02105712890625,36.349998474121094,0.0,0.0,2.1843719482421875,2.863037109375,Closing,0.0,0.0,0.0,0.0,0.0,0.0,0.0,0.0,
11.636886999999987,0.0,0.0,2548.0,0.0,0.0,0.0,0.0,0.125,0.8178710100000001,4.932250999999998,0.0,-17024.0,0.0,0.0,0.0,0.0,0.125,3.0053707860000003,2.481884999999998,0.0,29456.0,0.0,0.0,0.0,0.0,0.0,3.359374656,0.01,0.0,-39314.0,0.125,0.0,0.0,0.0,0.125,4.107665595,2.4790000000000023,0.0,0.25,-0.5899999737739563,160.66000366210938,-0.00830078125,0.00555419921875,1.01507568359375,36.349998474121094,0.0,-1.0,2.1843719482421875,2.863037109375,Closing,0.0,0.0,0.0,0.0,0.0,0.0,0.0,0.0,
11.741943,0.0,0.0,2548.0,0.0,0.0,0.0,0.0,0.125,0.8178710100000001,4.932250999999998,0.0,-17024.0,0.0,0.0,0.0,0.0,0.125,3.0053707860000003,2.481884999999998,0.0,29456.0,0.0,0.0,0.0,0.0,0.0,3.358153953,0.01,0.0,-39314.0,0.125,0.0,0.0,0.0,0.125,4.108886298,2.4790000000000023,0.0,0.25,-0.5899999737739563,160.64999389648438,-0.01544189453125,0.00518798828125,1.02227783203125,36.349998474121094,0.0,4.0,2.1843719482421875,2.863037109375,Closing,0.0,0.0,0.0,0.0,0.0,0.0,0.0,0.0,
11.863448999999994,0.0,0.0,2548.0,0.0,0.0,0.0,0.0,0.125,0.8178710100000001,4.932250999999998,0.0,-17024.0,0.0,0.0,0.0,0.0,0.125,3.0041500830000003,2.481884999999998,0.0,29456.0,0.0,0.0,0.0,0.0,0.0,3.3605953590000004,0.01,0.0,-39314.0,0.125,0.0,0.0,0.0,0.125,4.108886298,2.4790000000000023,0.0,0.25,-0.6000000238418579,160.64999389648438,-0.012939453125,0.00677490234375,1.0220947265625,36.349998474121094,0.0,2.0,2.1843719482421875,2.863037109375,Closing,0.0,0.0,0.0,0.0,0.0,0.0,0.0,0.0,
11.987073000000004,0.0,0.0,2548.0,0.0,0.0,0.0,0.0,0.125,0.8178710100000001,4.932250999999998,0.0,-17024.0,0.0,0.0,0.0,0.0,0.125,3.0053707860000003,2.481884999999998,0.0,29456.0,0.0,0.0,0.0,0.0,0.0,3.359374656,0.01,0.0,-39314.0,0.125,0.0,0.0,0.0,0.125,4.108886298,2.4790000000000023,0.0,0.25,-0.6100000143051147,160.64999389648438,-0.01092529296875,0.00360107421875,1.01409912109375,36.349998474121094,0.0,0.0,2.1843719482421875,2.863037109375,Closing,0.0,0.0,0.0,0.0,0.0,0.0,0.0,0.0,
12.10905900000001,0.0,0.0,2548.0,0.0,0.0,0.0,0.0,0.25,0.8178710100000001,4.932250999999998,0.0,-17024.0,0.0,0.0,0.0,0.0,0.125,3.0041500830000003,2.481884999999998,0.0,29456.0,0.0,0.0,0.0,0.0,0.0,3.359374656,0.01,0.0,-39314.0,0.125,0.0,0.0,0.0,0.125,4.107665595,2.4790000000000023,0.0,0.25,-0.6100000143051147,160.63999938964844,-0.01348876953125,0.00634765625,1.02520751953125,36.349998474121094,0.0,3.0,2.1843719482421875,2.863037109375,Closing,0.0,0.0,0.0,0.0,0.0,0.0,0.0,0.125,
12.228342000000005,0.0,0.0,2548.0,0.0,0.0,0.0,0.0,0.125,0.8166503070000001,4.932250999999998,0.0,-17024.0,0.0,0.0,0.0,0.0,0.125,3.0041500830000003,2.481884999999998,0.0,29456.0,0.0,0.0,0.0,0.0,0.0,3.359374656,0.01,0.0,-39314.0,0.125,0.0,0.0,0.0,0.125,4.107665595,2.4790000000000023,0.0,0.25,-0.6100000143051147,160.63999938964844,-0.011474609375,0.00811767578125,1.0179443359375,36.349998474121094,0.0,1.0,2.1843719482421875,2.863037109375,Closing,0.0,0.0,0.0,0.0,0.0,0.0,0.0,0.125,
12.344600999999995,0.0,0.0,2548.0,0.0,0.0,0.0,0.0,0.125,0.8178710100000001,4.932250999999998,0.0,-17024.0,0.0,0.0,0.0,0.0,0.125,3.0053707860000003,2.481884999999998,0.0,29456.0,0.0,0.0,0.0,0.0,0.0,3.359374656,0.01,0.0,-39314.0,0.125,0.0,0.0,0.0,0.125,4.108886298,2.4790000000000023,0.0,0.25,-0.6100000143051147,160.63999938964844,-0.010009765625,0.0048828125,1.02301025390625,36.349998474121094,0.0,0.0,2.1843719482421875,2.863037109375,Closing,0.0,0.0,0.0,0.0,0.0,0.0,0.0,0.0,
12.463837999999988,0.0,0.0,2548.0,0.0,0.0,0.0,0.0,0.25,0.8166503070000001,4.932250999999998,0.0,-17024.0,0.0,0.0,0.0,0.0,0.125,3.0053707860000003,2.481884999999998,0.0,29456.0,0.0,0.0,0.0,0.0,0.0,3.358153953,0.01,0.0,-39314.0,0.125,0.0,0.0,0.0,0.125,4.108886298,2.4790000000000023,0.0,0.25999999046325684,-0.6100000143051147,160.63999938964844,-0.01214599609375,0.00494384765625,1.02069091796875,36.349998474121094,0.0,1.0,2.1843719482421875,2.863037109375,Closing,0.0,0.0,0.0,0.0,0.0,0.0,0.0,0.0,
12.583092999999993,0.0,0.0,2548.0,0.0,0.0,0.0,0.0,0.125,0.8178710100000001,4.932250999999998,0.0,-17024.0,0.0,0.0,0.0,0.0,0.125,3.0041500830000003,2.481884999999998,0.0,29456.0,0.0,0.0,0.0,0.0,0.0,3.359374656,0.01,0.0,-39314.0,0.125,0.0,0.0,0.0,0.125,4.107665595,2.4790000000000023,0.0,0.25,-0.6100000143051147,160.63999938964844,-0.0107421875,0.00506591796875,1.0194091796875,36.349998474121094,0.0,0.0,2.1843719482421875,2.863037109375,Closing,0.0,0.0,0.0,0.0,0.0,0.0,0.0,0.0,
12.699324999999982,0.0,0.0,2548.0,0.0,0.0,0.0,0.0,0.125,0.8178710100000001,4.932250999999998,0.0,-17024.0,0.0,0.0,0.0,0.0,0.125,3.0029293800000003,2.481884999999998,0.0,29456.0,0.0,0.0,0.0,0.0,0.0,3.358153953,0.01,0.0,-39314.0,0.125,0.0,0.0,0.0,0.125,4.107665595,2.4790000000000023,0.0,0.25,-0.6100000143051147,160.6300048828125,-0.0125732421875,0.00433349609375,1.017333984375,36.349998474121094,0.0,1.0,2.1843719482421875,2.863037109375,Closing,0.0,0.0,0.0,0.0,0.0,0.0,0.0,0.125,
12.811048999999999,0.0,0.0,2548.0,0.0,0.0,0.0,0.0,0.125,0.8178710100000001,4.932250999999998,0.0,-17024.0,0.0,0.0,0.0,0.0,0.125,3.0041500830000003,2.481884999999998,0.0,29456.0,0.0,0.0,0.0,0.0,0.0,3.359374656,0.01,0.0,-39314.0,0.125,0.0,0.0,0.0,0.125,4.108886298,2.4790000000000023,0.0,0.25999999046325684,-0.6100000143051147,160.6300048828125,-0.01434326171875,0.005615234375,1.0150146484375,36.33000183105469,0.0,3.0,2.1843719482421875,2.863037109375,Closing,0.0,0.0,0.0,0.0,0.0,0.0,0.0,0.125,
12.931228999999991,0.0,0.0,2548.0,0.0,0.0,0.0,0.0,0.125,0.8178710100000001,4.932250999999998,0.0,-17024.0,0.0,0.0,0.0,0.0,0.125,3.0053707860000003,2.481884999999998,0.0,29456.0,0.0,0.0,0.0,0.0,0.0,3.359374656,0.01,0.0,-39314.0,0.125,0.0,0.0,0.0,0.125,4.107665595,2.4790000000000023,0.0,0.25999999046325684,-0.6100000143051147,160.6300048828125,-0.013427734375,0.00433349609375,1.01788330078125,36.33000183105469,0.0,2.0,2.1843719482421875,2.863037109375,Closing,0.0,0.0,0.0,0.0,0.0,0.0,0.0,0.125,
13.048195000000007,0.0,0.0,2548.0,0.0,0.0,0.0,0.0,0.25,0.8178710100000001,4.932250999999998,0.0,-17024.0,0.0,0.0,0.0,0.0,0.125,3.0041500830000003,2.481884999999998,0.0,29456.0,0.0,0.0,0.0,0.0,0.0,3.358153953,0.01,0.0,-39314.0,0.125,0.0,0.0,0.0,0.125,4.108886298,2.4790000000000023,0.0,0.25999999046325684,-0.6100000143051147,160.6199951171875,-0.0108642578125,0.0028076171875,1.01751708984375,36.33000183105469,0.0,0.0,2.1843719482421875,2.863037109375,Closing,0.0,0.0,0.0,0.0,0.0,0.0,0.0,0.0,
13.16975999999998,0.0,0.0,2548.0,0.0,0.0,0.0,0.0,0.25,0.8178710100000001,4.932250999999998,0.0,-17024.0,0.0,0.0,0.0,0.0,0.125,3.0041500830000003,2.481884999999998,0.0,29456.0,0.0,0.0,0.0,0.0,0.0,3.359374656,0.01,0.0,-39314.0,0.125,0.0,0.0,0.0,0.125,4.107665595,2.4790000000000023,0.0,0.25,-0.6100000143051147,160.6199951171875,-0.00872802734375,0.00653076171875,1.02020263671875,36.33000183105469,0.0,-1.0,2.1843719482421875,2.863037109375,Closing,0.0,0.0,0.0,0.0,0.0,0.0,0.0,0.0,
13.28807800000001,0.0,0.0,2548.0,0.0,0.0,0.0,0.0,0.25,0.8166503070000001,4.932250999999998,0.0,-17024.0,0.0,0.0,0.0,0.0,0.125,3.0053707860000003,2.481884999999998,0.0,29456.0,0.0,0.0,0.0,0.0,0.0,3.359374656,0.01,0.0,-39314.0,0.125,0.0,0.0,0.0,0.125,4.108886298,2.4790000000000023,0.0,0.25999999046325684,-0.6200000047683716,160.61000061035156,-0.00982666015625,0.005859375,1.01300048828125,36.349998474121094,0.0,0.0,2.1843719482421875,2.863037109375,Closing,0.0,0.0,0.0,0.0,0.0,0.0,0.0,0.0,
13.406070999999995,0.0,0.0,2548.0,0.0,0.0,0.0,0.0,0.25,0.8166503070000001,4.932250999999998,0.0,-17024.0,0.0,0.0,0.0,0.0,0.125,3.0053707860000003,2.481884999999998,0.0,29456.0,0.0,0.0,0.0,0.0,0.0,3.359374656,0.01,0.0,-39314.0,0.125,0.0,0.0,0.0,0.125,4.107665595,2.4790000000000023,0.0,0.25999999046325684,-0.6200000047683716,160.61000061035156,-0.00970458984375,0.0057373046875,1.01947021484375,36.349998474121094,0.0,0.0,2.1843719482421875,2.863037109375,Closing,0.0,0.0,0.0,0.0,0.0,0.0,0.0,0.0,
13.522347999999997,0.0,0.0,2548.0,0.0,0.0,0.0,0.0,0.125,0.8178710100000001,4.932250999999998,0.0,-17024.0,0.0,0.0,0.0,0.0,0.125,3.0041500830000003,2.481884999999998,0.0,29456.0,0.0,0.0,0.0,0.0,0.0,3.359374656,0.01,0.0,-39314.0,0.125,0.0,0.0,0.0,0.125,4.107665595,2.4790000000000023,0.0,0.25999999046325684,-0.6200000047683716,160.61000061035156,-0.01202392578125,0.0059814453125,1.015380859375,36.349998474121094,0.0,1.0,2.1843719482421875,2.863037109375,Closing,0.0,0.0,0.0,0.0,0.0,0.0,0.0,0.0,
13.641372999999993,0.0,0.0,2548.0,0.0,0.0,0.0,0.0,0.25,0.8178710100000001,4.932250999999998,0.0,-17024.0,0.0,0.0,0.0,0.0,0.125,3.0041500830000003,2.481884999999998,0.0,29456.0,0.0,0.0,0.0,0.0,0.0,3.359374656,0.01,0.0,-39314.0,0.125,0.0,0.0,0.0,0.125,4.107665595,2.4790000000000023,0.0,0.27000001072883606,-0.6200000047683716,160.61000061035156,-0.0098876953125,0.00543212890625,1.01641845703125,36.349998474121094,0.0,-1.0,2.1843719482421875,2.863037109375,Closing,0.0,0.0,0.0,0.0,0.0,0.0,0.0,0.125,
13.753788,0.0,0.0,2548.0,0.0,0.0,0.0,0.0,0.125,0.8178710100000001,0.01,0.0,-17024.0,0.0,0.0,-0.0,0.0,8.25,3.348388329,0.01,0.0,29456.0,0.0,0.0,0.0,0.0,0.0,3.358153953,0.01,0.0,-39314.0,0.125,0.0,-0.0,0.0,8.5,3.6364742370000003,0.01,0.0,0.23999999463558197,-0.6399999856948853,160.58999633789062,0.0355224609375,0.013671875,0.9881591796875,36.349998474121094,0.0,-40.0,2.1847381591796875,2.8627166748046875,Closing,0.0,0.0,0.0,0.0,0.0,0.0,0.0,0.0,
13.86836499999999,0.0,0.0,2548.0,0.0,0.0,0.0,0.0,0.125,0.8178710100000001,0.01,0.0,-17024.0,0.0,0.0,-0.0,0.0,1.5,4.246825737,0.01,0.0,29456.0,0.0,0.0,0.0,0.0,0.0,3.358153953,0.01,0.0,-39311.0,0.125,45.0,-0.0,0.0,2.25,2.763671592,0.01,0.0,0.25,-0.6600000262260437,160.5500030517578,0.0050048828125,0.072509765625,1.0340576171875,36.36000061035156,0.0,6.0,2.1851043701171875,2.8622283935546875,Closing,0.0,0.0,0.0,0.0,0.0,0.0,0.0,0.0,
