Time,ClimberA1,ClimberA2,FRpos,FRCurrent,FRspeed,FRsetpoint,FRApos,FRACurrent,FREncpos,FREncSetpoint,FREncSpeed,FLpos,FLCurrent,FLspeed,FLsetpoint,FLApos,FLACurrent,FLEncpos,FLEncSetpoint,FLEncSpeed,BRpos,BRCurrent,BRspeed,BRsetpoint,BRApos,BRACurrent,BREncpos,BREncSetpoint,BREncSpeed,BLpos,BLCurrent,BLspeed,BLsetpoint,BLApos,BLACurrent,BLEncpos,BLEncSetpoint,BLEncSpeed,navx_Pitch,navx_Roll,navx_Yaw,navx_XAcc,navx_YAcc,navx_ZAcc,navx_Temp,navx_Bar,navx_Alt,navx_XDis,navx_YDis,GearPlacerState,ShootOutputV,ShootOutputCurrent,ShootEncPos,ShootEncVelocity,ShootSpeed,ShootSetpoint,CarouselSetpoint,CarouselCurrent,
0.13710000000003492,0.0,0.0,13387.0,0.0,0.0,0.0,0.0,0.25,0.850829991,0.01,0.0,-34938.0,0.0,0.0,-0.0,0.0,0.125,0.532226508,0.01,0.0,40321.0,0.125,0.0,0.0,0.0,0.0,3.358153953,0.01,0.0,-50901.0,0.125,0.0,-0.0,0.0,0.25,1.597900227,0.01,0.0,0.4000000059604645,-0.28999999165534973,96.58999633789062,-0.00494384765625,0.00897216796875,1.019775390625,36.25,0.0,1.0,2.2194976806640625,2.08465576171875,Closing,0.0,0.0,0.0,0.0,0.0,0.0,0.0,0.125,
0.3070310000000172,0.0,0.0,13387.0,0.0,0.0,0.0,0.0,0.25,0.850829991,0.01,0.0,-34938.0,0.0,0.0,-0.0,0.0,0.125,0.533447211,0.01,0.0,40321.0,0.0,0.0,0.0,0.0,0.0,3.358153953,0.01,0.0,-50901.0,0.125,0.0,-0.0,0.0,0.25,1.597900227,0.01,0.0,0.3199999928474426,-0.33000001311302185,96.5999984741211,0.034423828125,0.05853271484375,1.0423583984375,36.25,0.0,47.0,2.2173309326171875,2.0849151611328125,Closing,0.0,0.0,0.0,0.0,0.0,0.0,0.0,0.0,
0.4749530000000377,0.0,0.0,13387.0,0.0,0.0,0.0,0.0,0.25,0.852050694,0.01,0.0,-34938.0,0.0,0.0,-0.0,0.0,0.125,0.527343696,0.01,0.0,40321.0,0.0,0.0,0.0,0.0,0.0,3.358153953,0.01,0.0,-50901.0,0.125,0.0,-0.0,0.0,0.25,1.597900227,0.01,0.0,0.3400000035762787,-0.2800000011920929,96.58999633789062,-0.0091552734375,-0.01519775390625,0.9456787109375,36.2400016784668,0.0,-20.0,2.21112060546875,2.0855560302734375,Closing,0.0,0.0,0.0,0.0,0.0,0.0,0.0,0.0,
0.6476579999999958,0.0,0.0,13387.0,0.0,0.0,0.0,0.0,0.25,0.852050694,0.01,0.0,-34938.0,0.0,0.0,-0.0,0.0,0.125,0.526122993,0.01,0.0,40321.0,0.125,0.0,0.0,0.0,0.0,3.359374656,0.01,0.0,-50901.0,0.125,0.0,-0.0,0.0,0.25,1.597900227,0.01,0.0,0.3400000035762787,-0.3100000023841858,96.58999633789062,-0.015625,0.00787353515625,1.0540771484375,36.2400016784668,0.0,2.0,2.2068939208984375,2.0860595703125,Closing,0.0,0.0,0.0,0.0,0.0,0.0,0.0,0.0,
0.8132370000000229,0.0,0.0,13387.0,0.0,0.0,0.0,0.0,0.25,0.850829991,0.01,0.0,-34938.0,0.0,0.0,-0.0,0.0,0.125,0.527343696,0.01,0.0,40321.0,0.0,0.0,0.0,0.0,0.0,3.359374656,0.01,0.0,-50901.0,0.125,0.0,-0.0,0.0,0.25,1.597900227,0.01,0.0,0.3400000035762787,-0.3100000023841858,96.58999633789062,-0.01800537109375,0.00823974609375,1.0269775390625,36.2400016784668,0.0,3.0,2.206939697265625,2.08599853515625,Closing,0.0,0.0,0.0,0.0,0.0,0.0,0.0,0.0,
0.9749569999999949,0.0,0.0,13387.0,0.0,0.0,0.0,0.0,0.25,0.850829991,0.01,0.0,-34938.0,0.0,0.0,-0.0,0.0,0.125,0.527343696,0.01,0.0,40321.0,0.0,0.0,0.0,0.0,0.0,3.359374656,0.01,0.0,-50901.0,0.125,0.0,-0.0,0.0,0.25,1.597900227,0.01,0.0,0.3499999940395355,-0.28999999165534973,96.58999633789062,-0.00836181640625,0.00225830078125,0.97833251953125,36.279998779296875,0.0,-3.0,2.206939697265625,2.0859527587890625,Closing,0.0,0.0,0.0,0.0,0.0,0.0,0.0,0.125,
1.1515520000000252,0.0,0.0,13387.0,0.0,0.0,0.0,0.0,0.25,0.852050694,0.01,0.0,-34938.0,0.0,0.0,-0.0,0.0,0.125,0.5285643990000001,0.01,0.0,40321.0,0.0,0.0,0.0,0.0,0.0,3.359374656,0.01,0.0,-50901.0,0.125,0.0,-0.0,0.0,0.25,1.597900227,0.01,0.0,0.36000001430511475,-0.28999999165534973,96.58999633789062,-0.00311279296875,0.00604248046875,1.0380859375,36.279998779296875,0.0,0.0,2.206939697265625,2.0859527587890625,Closing,0.0,0.0,0.0,0.0,0.0,0.0,0.0,0.0,
1.3157470000000322,0.0,0.0,13387.0,0.0,0.0,0.0,0.0,0.25,0.852050694,0.01,0.0,-34938.0,0.0,0.0,-0.0,0.0,0.125,0.527343696,0.01,0.0,40321.0,0.0,0.0,0.0,0.0,0.0,3.358153953,0.01,0.0,-50901.0,0.125,0.0,-0.0,0.0,0.25,1.597900227,0.01,0.0,0.36000001430511475,-0.28999999165534973,96.58000183105469,-0.0023193359375,0.00860595703125,1.02960205078125,36.279998779296875,0.0,1.0,2.206939697265625,2.0859527587890625,Closing,0.0,0.0,0.0,0.0,0.0,0.0,0.0,0.0,
1.4965520000000252,0.0,0.0,13387.0,0.0,0.0,0.0,0.0,0.25,0.850829991,0.01,0.0,-34938.0,0.0,0.0,-0.0,0.0,0.125,0.527343696,0.01,0.0,40321.0,0.0,0.0,0.0,0.0,0.0,3.359374656,0.01,0.0,-50901.0,0.125,0.0,-0.0,0.0,0.25,1.597900227,0.01,0.0,0.36000001430511475,-0.28999999165534973,96.58000183105469,-0.0035400390625,0.00970458984375,1.01007080078125,36.2599983215332,0.0,3.0,2.206939697265625,2.0859527587890625,Closing,0.0,0.0,0.0,0.0,0.0,0.0,0.0,0.0,
1.6680320000000066,0.0,0.0,13387.0,0.0,0.0,0.0,0.0,0.25,0.850829991,0.01,0.0,-34938.0,0.0,0.0,-0.0,0.0,0.125,0.527343696,0.01,0.0,40321.0,0.0,0.0,0.0,0.0,0.0,3.359374656,0.01,0.0,-50901.0,0.125,0.0,-0.0,0.0,0.25,1.597900227,0.01,0.0,0.3700000047683716,-0.2800000011920929,96.58000183105469,-0.00677490234375,0.00848388671875,1.02264404296875,36.2599983215332,0.0,2.0,2.206939697265625,2.0859527587890625,Closing,0.0,0.0,0.0,0.0,0.0,0.0,0.0,0.125,
1.8428270000000484,0.0,0.0,13387.0,0.0,0.0,0.0,0.0,0.25,0.852050694,0.01,0.0,-34938.0,0.0,0.0,-0.0,0.0,0.125,0.527343696,0.01,0.0,40321.0,0.0,0.0,0.0,0.0,0.0,3.358153953,0.01,0.0,-50901.0,0.125,0.0,-0.0,0.0,0.25,1.597900227,0.01,0.0,0.3700000047683716,-0.28999999165534973,96.58999633789062,-0.0081787109375,0.00830078125,1.01416015625,36.2599983215332,0.0,1.0,2.206939697265625,2.0859527587890625,Closing,0.0,0.0,0.0,0.0,0.0,0.0,0.0,0.0,
2.012503000000026,0.0,0.0,13387.0,0.0,0.0,0.0,0.0,0.25,0.850829991,0.01,0.0,-34938.0,0.0,0.0,-0.0,0.0,0.125,0.5285643990000001,0.01,0.0,40321.0,0.0,0.0,0.0,0.0,0.0,3.359374656,0.01,0.0,-50901.0,0.125,0.0,-0.0,0.0,0.25,1.596679524,0.01,0.0,0.3700000047683716,-0.28999999165534973,96.58000183105469,-0.00543212890625,0.0064697265625,1.01129150390625,36.29999923706055,0.0,0.0,2.206939697265625,2.0859527587890625,Closing,0.0,0.0,0.0,0.0,0.0,0.0,0.0,0.125,
2.176558000000019,0.0,0.0,13387.0,0.0,0.0,0.0,0.0,0.25,0.850829991,0.01,0.0,-34938.0,0.0,0.0,-0.0,0.0,0.125,0.5285643990000001,0.01,0.0,40321.0,0.125,0.0,0.0,0.0,0.0,3.359374656,0.01,0.0,-50901.0,0.125,0.0,-0.0,0.0,0.25,1.596679524,0.01,0.0,0.3799999952316284,-0.28999999165534973,96.58000183105469,-0.00543212890625,0.0062255859375,1.01544189453125,36.29999923706055,0.0,0.0,2.206939697265625,2.0859527587890625,Closing,0.0,0.0,0.0,0.0,0.0,0.0,0.0,0.0,
2.3520080000000307,0.0,0.0,13387.0,0.0,0.0,0.0,0.0,0.25,0.849609288,0.01,0.0,-34938.0,0.0,0.0,-0.0,0.0,0.125,0.527343696,0.01,0.0,40321.0,0.0,0.0,0.0,0.0,0.0,3.359374656,0.01,0.0,-50901.0,0.125,0.0,-0.0,0.0,0.25,1.596679524,0.01,0.0,0.38999998569488525,-0.28999999165534973,96.58000183105469,-0.00518798828125,0.00958251953125,1.017333984375,36.29999923706055,0.0,2.0,2.206939697265625,2.0859527587890625,Closing,0.0,0.0,0.0,0.0,0.0,0.0,0.0,0.0,
2.51601800000004,0.0,0.0,13387.0,0.0,0.0,0.0,0.0,0.25,0.850829991,0.01,0.0,-34938.0,0.0,0.0,-0.0,0.0,0.125,0.527343696,0.01,0.0,40321.0,0.0,0.0,0.0,0.0,0.0,3.358153953,0.01,0.0,-50901.0,0.125,0.0,-0.0,0.0,0.25,1.597900227,0.01,0.0,0.38999998569488525,-0.28999999165534973,96.58000183105469,-0.00543212890625,0.0074462890625,1.018310546875,36.310001373291016,0.0,0.0,2.206939697265625,2.0859527587890625,Closing,0.0,0.0,0.0,0.0,0.0,0.0,0.0,0.0,
2.6917910000000265,0.0,0.0,13387.0,0.0,0.0,0.0,0.0,0.25,0.852050694,0.01,0.0,-34938.0,0.0,0.0,-0.0,0.0,0.125,0.527343696,0.01,0.0,40321.0,0.0,0.0,0.0,0.0,0.0,3.358153953,0.01,0.0,-50901.0,0.125,0.0,-0.0,0.0,0.25,1.597900227,0.01,0.0,0.38999998569488525,-0.28999999165534973,96.58000183105469,-0.00311279296875,0.0064697265625,1.0174560546875,36.310001373291016,0.0,0.0,2.206939697265625,2.0859527587890625,Closing,0.0,0.0,0.0,0.0,0.0,0.0,0.0,0.0,
2.8683369999999995,0.0,0.0,13387.0,0.0,0.0,0.0,0.0,0.25,0.850829991,0.01,0.0,-34938.0,0.0,0.0,-0.0,0.0,0.125,0.527343696,0.01,0.0,40321.0,0.0,0.0,0.0,0.0,0.0,3.358153953,0.01,0.0,-50901.0,0.125,0.0,-0.0,0.0,0.25,1.597900227,0.01,0.0,0.4000000059604645,-0.30000001192092896,96.58000183105469,-0.006591796875,0.00958251953125,1.0169677734375,36.310001373291016,0.0,2.0,2.206939697265625,2.0859527587890625,Closing,0.0,0.0,0.0,0.0,0.0,0.0,0.0,0.0,
3.0350439999999943,0.0,0.0,13387.0,0.0,0.0,0.0,0.0,0.25,0.850829991,0.01,0.0,-34938.0,0.0,0.0,-0.0,0.0,0.125,0.5285643990000001,0.01,0.0,40321.0,0.0,0.0,0.0,0.0,0.0,3.359374656,0.01,0.0,-50901.0,0.125,0.0,-0.0,0.0,0.25,1.59912093,0.01,0.0,0.38999998569488525,-0.30000001192092896,96.56999969482422,-0.00518798828125,0.0081787109375,1.0133056640625,36.290000915527344,0.0,1.0,2.206939697265625,2.0859527587890625,Closing,0.0,0.0,0.0,0.0,0.0,0.0,0.0,0.125,
3.208622000000032,0.0,0.0,13387.0,0.0,0.0,0.0,0.0,0.25,0.850829991,0.01,0.0,-34938.0,0.0,0.0,-0.0,0.0,0.125,0.527343696,0.01,0.0,40321.0,0.0,0.0,0.0,0.0,0.0,3.359374656,0.01,0.0,-50901.0,0.125,0.0,-0.0,0.0,0.25,1.597900227,0.01,0.0,0.4000000059604645,-0.30000001192092896,96.56999969482422,-0.0068359375,0.007568359375,1.01629638671875,36.290000915527344,0.0,0.0,2.206939697265625,2.0859527587890625,Closing,0.0,0.0,0.0,0.0,0.0,0.0,0.0,0.0,
3.3756780000000144,0.0,0.0,13387.0,0.0,0.0,0.0,0.0,0.25,0.850829991,0.01,0.0,-34938.0,0.0,0.0,-0.0,0.0,0.125,0.527343696,0.01,0.0,40321.0,0.0,0.0,0.0,0.0,0.0,3.358153953,0.01,0.0,-50901.0,0.125,0.0,-0.0,0.0,0.25,1.597900227,0.01,0.0,0.4000000059604645,-0.30000001192092896,96.56999969482422,-0.00537109375,0.00836181640625,1.01715087890625,36.290000915527344,0.0,1.0,2.206939697265625,2.0859527587890625,Closing,0.0,0.0,0.0,0.0,0.0,0.0,0.0,0.125,
3.550504000000015,0.0,0.0,13387.0,0.0,0.0,0.0,0.0,0.25,0.850829991,0.01,0.0,-34938.0,0.0,0.0,-0.0,0.0,0.125,0.527343696,0.01,0.0,40321.0,0.0,0.0,0.0,0.0,0.0,3.359374656,0.01,0.0,-50901.0,0.125,0.0,-0.0,0.0,0.25,1.597900227,0.01,0.0,0.4000000059604645,-0.30000001192092896,96.56999969482422,-0.00390625,0.0067138671875,1.0174560546875,36.29999923706055,0.0,0.0,2.206939697265625,2.0859527587890625,Closing,0.0,0.0,0.0,0.0,0.0,0.0,0.0,0.125,
3.7140109999999984,0.0,0.0,13387.0,0.125,0.0,-198.42519611120224,0.0,0.25,0.850829991,4.932250999999998,0.0,-34938.0,0.5,0.0,198.42519611120224,0.0,0.125,0.523681587,4.963769999999998,0.0,40319.0,0.375,-52.5,-198.42519611120224,0.0,0.0,3.358153953,0.01,0.0,-50901.0,0.5,0.0,198.42519611120224,0.0,0.25,1.590576009,0.01,0.0,0.38999998569488525,-0.28999999165534973,96.56999969482422,-0.003173828125,0.00970458984375,1.018798828125,36.29999923706055,0.0,2.0,2.206939697265625,2.0859527587890625,Closing,0.0,0.0,0.0,0.0,0.0,0.0,0.0,0.0,
3.8886089999999967,0.0,0.0,13378.0,11.875,-300.0,-1369.1338062286377,0.0,0.25,0.850829991,4.932250999999998,0.0,-34873.0,15.25,315.0,1369.1338062286377,0.0,0.125,0.523681587,4.963769999999998,0.0,40272.0,12.5,-165.0,-1369.1338062286377,0.0,0.0,3.3789059040000002,0.01,0.0,-50852.0,13.375,285.0,1369.1338062286377,0.0,0.25,1.5539549190000002,0.01,0.0,0.3499999940395355,-2.0399999618530273,96.7300033569336,-0.27130126953125,-0.00677490234375,0.77178955078125,36.29999923706055,0.0,17.0,2.208038330078125,2.1046295166015625,Closing,0.0,0.0,0.0,0.0,0.0,0.0,0.0,0.125,
4.06825,0.0,0.0,13194.0,2.875,-825.0,-754.0157639980315,0.0,0.25,0.848388585,4.932250999999998,0.0,-34765.0,4.5,765.0,754.0157639980315,0.0,0.125,0.507812448,4.963769999999998,0.0,40210.0,7.25,-457.5,-754.0157639980315,0.0,0.125,3.3789059040000002,0.01,0.0,-50750.0,4.0,750.0,754.0157639980315,0.0,0.25,1.6027830390000002,0.01,0.0,0.5099999904632568,-2.9800000190734863,97.58999633789062,-0.190185546875,-0.09033203125,0.9791259765625,36.310001373291016,0.0,-79.0,2.2101593017578125,2.1482696533203125,Closing,0.0,0.0,0.0,0.0,0.0,0.0,0.0,0.125,
4.246247000000032,0.0,0.0,13037.0,8.125,-1147.5,-1607.2440791130064,0.0,0.25,0.845947179,4.932250999999998,0.0,-34431.0,12.25,1125.0,1607.2440791130064,0.0,0.0,0.507812448,4.963769999999998,0.0,39980.0,20.0,-787.5,-1607.2440791130064,0.0,0.125,3.383788716,0.01,0.0,-50429.0,10.125,1140.0,1607.2440791130064,0.0,0.25,1.624755693,0.01,0.0,0.44999998807907104,-4.059999942779541,98.36000061035156,-0.26727294921875,0.0726318359375,0.67095947265625,36.310001373291016,0.0,98.0,2.2147979736328125,2.1642608642578125,Closing,0.0,0.0,0.0,0.0,0.0,0.0,0.0,0.0,
4.414840000000026,0.0,0.0,12583.0,4.375,-1627.5,-1636.4383312967054,0.0,0.25,0.9326170920000001,0.18052120264929425,0.0,-34232.0,0.75,1200.0,800.5844830527319,0.0,0.5,0.8435057730000001,0.3829056451356613,0.0,39810.0,21.75,-1305.0,-1636.4383312967054,0.0,0.25,3.2177731080000003,4.75958054260244,0.0,-50227.0,0.875,1222.5,800.5844830527319,0.0,0.5,1.339111191,4.575539453161084,0.0,0.7400000095367432,-4.25,101.19000244140625,-0.0501708984375,0.44879150390625,1.3018798828125,36.310001373291016,0.0,414.0,2.2239227294921875,2.195770263671875,Closing,0.0,0.0,0.0,0.0,0.0,0.0,0.0,0.0,
4.595195000000007,0.0,0.0,12277.0,0.125,-2002.5,-1612.6220684147834,0.0,0.25,1.03759755,0.18857327868461105,0.0,-33885.0,0.625,997.5,760.0020113124215,0.0,0.25,1.00097646,0.41806334286015634,0.0,39173.0,5.25,-2085.0,-1612.6220684147834,0.0,0.125,3.148193037,4.751515163033379,0.0,-49899.0,1.25,922.5,760.0020113124215,0.0,0.5,1.091308482,4.540422623550113,0.0,0.8500000238418579,-3.619999885559082,114.80000305175781,0.0648193359375,0.2689208984375,1.0321044921875,36.20000076293945,0.0,175.0,2.2535400390625,2.20477294921875,Closing,0.0,0.0,0.0,0.0,0.0,0.0,0.0,0.0,
4.775222999999998,0.0,0.0,11638.0,0.125,-1897.5,-916.3331835340475,0.0,0.25,1.1352537900000002,0.3391320818151151,0.0,-33749.0,0.375,697.5,391.54758277311515,0.0,0.75,2.149657983,1.3996401094015283,0.0,38886.0,0.125,-1537.5,-916.3331835340475,0.0,0.125,2.99072235,4.600707608635612,0.0,-49780.0,0.5,532.5,391.54758277311515,0.0,1.5,0.05981444700000001,3.5599868643364263,0.0,1.149999976158142,-2.130000114440918,131.05999755859375,0.28802490234375,0.0206298828125,0.9910888671875,36.20000076293945,0.0,-212.0,2.29718017578125,2.17340087890625,Closing,0.0,0.0,0.0,0.0,0.0,0.0,0.0,0.125,
4.969115000000049,0.0,0.0,11239.0,0.375,-1057.5,-775.0330021265557,0.0,0.25,1.234130733,0.4065343751828612,0.0,-33632.0,2.75,180.0,450.9008448722164,0.0,0.125,3.2128902960000003,1.6778880302012942,0.0,38478.0,0.375,-1065.0,-775.0330021265557,0.0,0.125,2.922362982,4.533193954088426,0.0,-49609.0,1.5,420.0,450.9008448722164,0.0,0.5,4.486083525000001,3.282062385296253,0.0,1.5700000524520874,-0.05999999865889549,146.1999969482422,0.10894775390625,0.2899169921875,1.34210205078125,36.20000076293945,0.0,48.0,2.3104705810546875,2.084320068359375,Closing,0.0,0.0,0.0,0.0,0.0,0.0,0.0,0.0,
5.15429700000002,0.0,0.0,11201.0,0.125,-60.0,-438.1149535933038,0.0,0.375,1.206054564,0.29320685136530683,0.0,-33624.0,1.0,0.0,-162.40732745372725,0.0,1.25,4.000243731,3.5828370158275127,0.0,38392.0,4.125,-322.5,-438.1149535933038,0.0,0.125,2.9992672710000003,4.646708716144989,0.0,-49586.0,2.625,30.0,162.40732745372725,0.0,1.875,0.267333957,3.8583277560256,0.0,1.8899999856948853,0.5199999809265137,148.80999755859375,0.0126953125,0.02203369140625,0.9224853515625,36.130001068115234,0.0,-7.0,2.2995452880859375,1.958587646484375,Closing,0.0,0.0,0.0,0.0,0.0,0.0,0.0,0.0,
5.33354800000001,0.0,0.0,11184.0,0.125,-7.5,-198.42519611120224,0.0,0.625,0.8032225740000001,4.932250999999998,0.0,-33615.0,0.125,60.0,-198.42519611120224,0.0,1.125,3.338622705,2.481884999999998,0.0,38351.0,4.625,-135.0,-198.42519611120224,0.0,0.375,3.458251599,0.01,0.0,-49569.0,0.5,75.0,-198.42519611120224,0.0,2.25,4.4531245440000005,2.4790000000000023,0.0,1.4199999570846558,0.05000000074505806,149.91000366210938,0.03228759765625,0.02667236328125,1.0767822265625,36.130001068115234,0.0,-27.0,2.2876129150390625,1.8380126953125,Closing,0.0,0.0,0.0,0.0,0.0,0.0,0.0,0.0,
5.532360000000044,0.0,0.0,11169.0,0.375,-45.0,-198.42519611120224,0.0,0.25,0.6591796200000001,4.932250999999998,0.0,-33609.0,0.0,-15.0,-198.42519611120224,0.0,0.5,2.707519254,2.481884999999998,0.0,38338.0,6.625,-30.0,-198.42519611120224,0.0,0.125,3.5266109670000003,0.01,0.0,-49566.0,0.375,-22.5,-198.42519611120224,0.0,0.625,3.7878414090000003,2.4790000000000023,0.0,1.4500000476837158,-0.10000000149011612,149.75,-0.06024169921875,0.02508544921875,0.97564697265625,36.099998474121094,0.0,50.0,2.2882080078125,1.7938385009765625,Closing,0.0,0.0,0.0,0.0,0.0,0.0,0.0,0.0,
5.710704000000027,0.0,0.0,11138.0,1.625,-120.0,-357.2757613693006,0.0,0.625,0.963134667,0.2624430885318288,0.0,-33632.0,0.0,-127.5,-131.40367108972043,0.0,1.0,3.339843408,3.3525653871644563,0.0,38317.0,10.25,-75.0,-357.2757613693006,0.0,0.625,3.1164547590000002,4.677523306461361,0.0,-49582.0,0.5,-52.5,-131.40367108972043,0.0,1.25,3.1579586610000003,1.6093317116704895,0.0,1.3899999856948853,-0.33000001311302185,149.83999633789062,-0.05474853515625,-0.066162109375,1.03778076171875,36.099998474121094,0.0,-3.0,2.29473876953125,1.796661376953125,Closing,0.0,0.0,0.0,0.0,0.0,0.0,0.0,0.0,
5.896074000000023,0.0,0.0,11101.0,2.625,-375.0,-582.6145413580416,0.0,0.125,1.080322155,0.17373056326733213,0.0,-33668.0,0.0,-75.0,-294.23011912293316,0.0,0.25,3.551025027,2.837124594185636,0.0,38242.0,14.625,-292.5,-582.6145413580416,0.0,0.0,2.930907903,4.766382401389158,0.0,-49633.0,0.25,-217.5,-294.23011912293316,0.0,0.75,3.7292476650000004,2.1241733444594764,0.0,1.3700000047683716,-1.090000033378601,152.8800048828125,-0.10076904296875,-0.01519775390625,1.06585693359375,36.099998474121094,0.0,53.0,2.3025665283203125,1.8024444580078125,Closing,0.0,0.0,0.0,0.0,0.0,0.0,0.0,0.0,
6.084030000000028,0.0,0.0,10930.0,2.0,-592.5,-660.2786605135137,0.0,0.375,1.0083006780000001,0.1530146032449828,0.0,-33708.0,0.0,-277.5,-367.33386638520966,0.0,0.25,3.34472622,2.762818890492088,0.0,38140.0,11.625,-645.0,-660.2786605135137,0.0,0.125,3.2666012280000003,4.7871325880472195,0.0,-49669.0,0.25,-232.5,-367.33386638520966,0.0,0.375,4.012450761,2.1983926735002286,0.0,0.9599999785423279,-1.649999976158142,157.55999755859375,-0.067138671875,0.0333251953125,0.9364013671875,36.08000183105469,0.0,43.0,2.3227996826171875,1.8256988525390625,Closing,0.0,0.0,0.0,0.0,0.0,0.0,0.0,0.0,
6.269830000000017,0.0,0.0,10826.0,1.375,-660.0,-660.2786605135137,0.0,0.25,0.9594725580000001,0.1530146032449828,0.0,-33760.0,0.0,-397.5,-367.33386638520966,0.0,0.25,3.1628414730000003,2.762818890492088,0.0,38029.0,10.75,-682.5,-660.2786605135137,0.0,0.125,3.359374656,4.7871325880472195,0.0,-49780.0,0.125,-375.0,-367.33386638520966,0.0,0.5,3.924560145,2.1983926735002286,0.0,1.0800000429153442,-1.8899999856948853,160.1300048828125,-0.06463623046875,-0.08837890625,0.867919921875,36.08000183105469,0.0,-1.0,2.3411712646484375,1.82354736328125,Closing,0.0,0.0,0.0,0.0,0.0,0.0,0.0,0.0,
6.436190999999992,0.0,0.0,10610.0,0.375,-675.0,-515.9055286645889,0.0,0.375,0.8422850700000001,4.932250999999998,0.0,-33895.0,0.125,-397.5,-515.9055286645889,0.0,0.25,3.0004879740000003,2.481884999999998,0.0,37804.0,7.25,-720.0,-515.9055286645889,0.0,0.0,3.354491844,0.01,0.0,-49847.0,0.25,-420.0,-515.9055286645889,0.0,0.375,3.9990230280000003,2.4790000000000023,0.0,1.1799999475479126,-1.7100000381469727,162.9600067138672,-0.006103515625,0.13238525390625,1.03411865234375,36.08000183105469,0.0,8.0,2.3398590087890625,1.81634521484375,Closing,0.0,0.0,0.0,0.0,0.0,0.0,0.0,0.125,
6.613380999999994,0.0,0.0,10515.0,1.875,-555.0,-694.4881582260131,0.0,0.25,0.7751464050000001,4.932250999999998,0.0,-33962.0,0.375,-480.0,-694.4881582260131,0.0,0.0,2.884521189,2.481884999999998,0.0,37698.0,10.0,-637.5,-694.4881582260131,0.0,0.0,3.353271141,0.01,0.0,-49917.0,0.375,-480.0,-694.4881582260131,0.0,0.25,4.146728091,2.4790000000000023,0.0,1.190000057220459,-1.7000000476837158,163.97999572753906,-0.0672607421875,-0.009033203125,1.0810546875,36.11000061035156,0.0,25.0,2.3387603759765625,1.8112030029296875,Closing,0.0,0.0,0.0,0.0,0.0,0.0,0.0,0.0,
6.777804999999993,0.0,0.0,10332.0,2.875,-600.0,-714.3307435512543,0.0,0.25,0.7751464050000001,4.932250999999998,0.0,-34141.0,0.5,-607.5,-714.3307435512543,0.0,0.25,2.9602047750000002,2.481884999999998,0.0,37495.0,11.125,-660.0,-714.3307435512543,0.0,0.0,3.354491844,0.01,0.0,-50096.0,0.375,-615.0,-714.3307435512543,0.0,0.25,4.161376527,2.4790000000000023,0.0,0.949999988079071,-1.75,163.6199951171875,-0.0740966796875,-0.06988525390625,1.05108642578125,36.11000061035156,0.0,15.0,2.33856201171875,1.8156280517578125,Closing,0.0,0.0,0.0,0.0,0.0,0.0,0.0,0.0,
7.044133000000031,0.0,0.0,10125.0,3.0,-675.0,-734.173253774643,0.0,0.25,0.7653807810000001,4.932250999999998,0.0,-34355.0,0.375,-697.5,-734.173253774643,0.0,0.25,2.974853211,2.481884999999998,0.0,37275.0,10.875,-712.5,-734.173253774643,0.0,0.0,3.35693325,0.01,0.0,-50305.0,0.375,-690.0,-734.173253774643,0.0,0.25,4.125976140000001,2.4790000000000023,0.0,0.8100000023841858,-1.8899999856948853,163.3300018310547,0.00518798828125,0.0413818359375,0.967529296875,36.06999969482422,0.0,-27.0,2.3443145751953125,1.818115234375,Closing,0.0,0.0,0.0,0.0,0.0,0.0,0.0,0.0,
7.216364000000001,0.0,0.0,10005.0,2.5,-750.0,-734.173253774643,0.0,0.25,0.7751464050000001,4.932250999999998,0.0,-34470.0,0.25,-735.0,-734.173253774643,0.0,0.125,2.976073914,2.481884999999998,0.0,37154.0,8.875,-817.5,-734.173253774643,0.0,0.0,3.354491844,0.01,0.0,-50422.0,0.375,-727.5,-734.173253774643,0.0,0.25,4.045409742,2.4790000000000023,0.0,0.9100000262260437,-1.8600000143051147,163.41000366210938,-0.021728515625,0.020751953125,1.22735595703125,36.06999969482422,0.0,-17.0,2.3502197265625,1.8169403076171875,Closing,0.0,0.0,0.0,0.0,0.0,0.0,0.0,0.0,
7.390391999999992,0.0,0.0,9751.0,1.375,-810.0,-734.173253774643,0.0,0.25,0.767822187,4.932250999999998,0.0,-34711.0,0.125,-750.0,-734.173253774643,0.0,0.125,2.976073914,2.481884999999998,0.0,36880.0,6.875,-870.0,-734.173253774643,0.0,0.0,3.353271141,0.01,0.0,-50662.0,0.375,-750.0,-734.173253774643,0.0,0.25,4.073485911000001,2.4790000000000023,0.0,0.8600000143051147,-1.649999976158142,164.0500030517578,0.01239013671875,-0.056884765625,0.9395751953125,36.06999969482422,0.0,-57.0,2.347137451171875,1.8135223388671875,Closing,0.0,0.0,0.0,0.0,0.0,0.0,0.0,0.0,
7.569333000000042,0.0,0.0,9624.0,1.25,-787.5,-734.173253774643,0.0,0.25,0.773925702,4.932250999999998,0.0,-34831.0,0.125,-750.0,-734.173253774643,0.0,0.125,2.976073914,2.481884999999998,0.0,36742.0,6.125,-825.0,-734.173253774643,0.0,0.0,3.348388329,0.01,0.0,-50780.0,0.125,-735.0,-734.173253774643,0.0,0.25,4.0881343470000004,2.4790000000000023,0.0,0.800000011920929,-1.4299999475479126,164.38999938964844,-0.0084228515625,-0.0338134765625,0.9669189453125,36.119998931884766,0.0,-27.0,2.3387451171875,1.8106231689453125,Closing,0.0,0.0,0.0,0.0,0.0,0.0,0.0,0.0,
7.743161000000022,0.0,0.0,9396.0,0.375,-675.0,-527.5433622534205,0.0,0.375,0.48095698200000003,4.608450881458409,0.0,-35096.0,0.875,-907.5,-1007.4972780650323,0.0,0.25,2.864989941,2.3148091141975753,0.0,36488.0,3.375,-757.5,-527.5433622534205,0.0,0.25,3.718261338,0.32433509682351513,0.0,-51020.0,0.625,-772.5,-1007.4972780650323,0.0,0.375,4.274901906,2.645881672963981,0.0,0.7200000286102295,-1.0399999618530273,163.77999877929688,0.049072265625,-0.03497314453125,0.99017333984375,36.119998931884766,0.0,-77.0,2.323822021484375,1.808807373046875,Closing,0.0,0.0,0.0,0.0,0.0,0.0,0.0,0.0,
7.923945000000007,0.0,0.0,9325.0,2.75,-412.5,-607.4318279162175,0.0,0.375,0.43945308000000005,4.780997762236805,0.0,-35224.0,0.75,-825.0,-879.8779727914434,0.0,0.125,2.8454586930000003,2.377141083434427,0.0,36398.0,6.875,-487.5,-607.4318279162175,0.0,0.25,3.713378526,0.15150313636619248,0.0,-51158.0,0.375,-870.0,-879.8779727914434,0.0,0.25,4.311522996,2.5836221598365987,0.0,0.49000000953674316,-0.44999998807907104,158.27000427246094,0.02764892578125,-0.036376953125,0.7413330078125,36.119998931884766,0.0,-47.0,2.2924957275390625,1.81036376953125,Closing,0.0,0.0,0.0,0.0,0.0,0.0,0.0,0.0,
8.091693000000028,0.0,0.0,9177.0,0.75,-487.5,-317.4803137779236,0.0,0.5,0.8447264760000001,4.932250999999998,0.0,-35461.0,0.0,-630.0,-317.4803137779236,0.0,0.25,2.860107129,2.481884999999998,0.0,36249.0,4.25,-465.0,-317.4803137779236,0.0,0.25,3.2958981,0.01,0.0,-51415.0,0.25,-757.5,-317.4803137779236,0.0,0.5,4.102782783,2.4790000000000023,0.0,0.38999998569488525,-0.5199999809265137,154.25999450683594,0.004638671875,0.13409423828125,1.0272216796875,36.11000061035156,0.0,42.0,2.2570953369140625,1.8142242431640625,Closing,0.0,0.0,0.0,0.0,0.0,0.0,0.0,0.0,
8.274956000000005,0.0,0.0,9112.0,0.0,-322.5,0.0,0.0,0.25,1.0351561440000001,4.932250999999998,0.0,-35552.0,0.0,-465.0,0.0,0.0,0.25,3.023681331,2.481884999999998,0.0,36181.0,0.0,-307.5,0.0,0.0,0.0,3.2043453750000004,0.01,0.0,-51505.0,0.125,-412.5,0.0,0.0,0.125,3.9343257690000004,2.4790000000000023,0.0,0.3700000047683716,0.3700000047683716,154.2899932861328,0.070068359375,-0.08892822265625,1.0859375,36.11000061035156,0.0,-98.0,2.2163848876953125,1.812957763671875,Closing,0.0,0.0,0.0,0.0,0.0,0.0,0.0,0.0,
8.448983999999998,0.0,0.0,9038.0,0.0,-165.0,0.0,0.0,0.375,0.8569335060000001,4.932250999999998,0.0,-35612.0,0.0,-97.5,0.0,0.0,0.25,3.033446955,2.481884999999998,0.0,36104.0,0.0,-217.5,0.0,0.0,0.125,3.39355434,0.01,0.0,-51569.0,0.125,-105.0,0.0,0.0,0.375,4.04052693,2.4790000000000023,0.0,0.3700000047683716,1.1100000143051147,155.4600067138672,0.085693359375,0.01885986328125,0.99713134765625,36.11000061035156,0.0,-55.0,2.149383544921875,1.803314208984375,Closing,0.0,0.0,0.0,0.0,0.0,0.0,0.0,0.125,
8.627466000000014,0.0,0.0,9037.0,0.0,0.0,0.0,0.0,0.25,0.7788085140000001,4.932250999999998,0.0,-35614.0,0.0,0.0,0.0,0.0,0.25,3.033446955,2.481884999999998,0.0,36100.0,0.0,0.0,0.0,0.0,0.125,3.4313961330000002,0.01,0.0,-51573.0,0.125,0.0,0.0,0.0,0.25,4.099120674,2.4790000000000023,0.0,0.3799999952316284,1.1699999570846558,155.47000122070312,-0.0224609375,0.00897216796875,1.00439453125,36.09000015258789,0.0,40.0,2.1116943359375,1.79937744140625,Closing,0.0,0.0,0.0,0.0,0.0,0.0,0.0,0.125,
8.802140000000014,0.0,0.0,9037.0,0.0,0.0,0.0,0.0,0.25,0.7788085140000001,4.932250999999998,0.0,-35614.0,0.0,0.0,0.0,0.0,0.25,3.032226252,2.481884999999998,0.0,36100.0,0.0,0.0,0.0,0.0,0.125,3.388671528,0.01,0.0,-51573.0,0.125,0.0,0.0,0.0,0.125,4.097899971,2.4790000000000023,0.0,0.3799999952316284,0.8500000238418579,155.4499969482422,-0.00433349609375,0.01019287109375,1.014892578125,36.09000015258789,0.0,19.0,2.11865234375,1.799835205078125,Closing,0.0,0.0,0.0,0.0,0.0,0.0,0.0,0.0,
8.976994000000007,0.0,0.0,9037.0,0.0,0.0,0.0,0.0,0.25,0.7788085140000001,4.932250999999998,0.0,-35614.0,0.0,0.0,0.0,0.0,0.25,3.033446955,2.481884999999998,0.0,36100.0,0.0,0.0,0.0,0.0,0.125,3.3691402800000003,0.01,0.0,-51573.0,0.125,0.0,0.0,0.0,0.125,4.099120674,2.4790000000000023,0.0,0.38999998569488525,0.7099999785423279,155.4600067138672,-0.01287841796875,0.0076904296875,1.01470947265625,36.09000015258789,0.0,23.0,2.121734619140625,1.799835205078125,Closing,0.0,0.0,0.0,0.0,0.0,0.0,0.0,0.0,
9.143019000000029,0.0,0.0,9037.0,0.0,0.0,0.0,0.0,0.25,0.780029217,4.932250999999998,0.0,-35614.0,0.0,0.0,0.0,0.0,0.25,3.028564143,2.481884999999998,0.0,36100.0,0.0,0.0,0.0,0.0,0.0,3.3679195770000003,0.01,0.0,-51573.0,0.125,0.0,0.0,0.0,0.125,4.102782783,2.4790000000000023,0.0,0.38999998569488525,0.5600000023841858,155.4600067138672,-0.00665283203125,0.00433349609375,1.02099609375,36.029998779296875,0.0,14.0,2.123687744140625,1.799835205078125,Closing,0.0,0.0,0.0,0.0,0.0,0.0,0.0,0.0,
9.310357000000018,0.0,0.0,9037.0,0.0,0.0,0.0,0.0,0.25,0.780029217,4.932250999999998,0.0,-35614.0,0.0,0.0,0.0,0.0,0.25,3.028564143,2.481884999999998,0.0,36100.0,0.0,0.0,0.0,0.0,0.0,3.3691402800000003,0.01,0.0,-51573.0,0.125,0.0,0.0,0.0,0.125,4.102782783,2.4790000000000023,0.0,0.4000000059604645,0.4300000071525574,155.47000122070312,-0.00830078125,0.0086669921875,1.0185546875,36.029998779296875,0.0,15.0,2.123687744140625,1.799835205078125,Closing,0.0,0.0,0.0,0.0,0.0,0.0,0.0,0.125,
9.47568200000003,0.0,0.0,9037.0,0.0,0.0,0.0,0.0,0.25,0.7788085140000001,4.932250999999998,0.0,-35614.0,0.0,0.0,0.0,0.0,0.25,3.028564143,2.481884999999998,0.0,36100.0,0.0,0.0,0.0,0.0,0.0,3.3691402800000003,0.01,0.0,-51573.0,0.125,0.0,0.0,0.0,0.125,4.104003486,2.4790000000000023,0.0,0.4000000059604645,0.30000001192092896,155.47000122070312,-0.00946044921875,0.0068359375,1.0128173828125,36.029998779296875,0.0,13.0,2.123687744140625,1.799835205078125,Closing,0.0,0.0,0.0,0.0,0.0,0.0,0.0,0.0,
9.657084000000031,0.0,0.0,9037.0,0.0,0.0,0.0,0.0,0.25,0.780029217,4.932250999999998,0.0,-35614.0,0.0,0.0,0.0,0.0,0.25,3.028564143,2.481884999999998,0.0,36100.0,0.0,0.0,0.0,0.0,0.0,3.3679195770000003,0.01,0.0,-51573.0,0.125,0.0,0.0,0.0,0.125,4.100341377,2.4790000000000023,0.0,0.4000000059604645,0.1899999976158142,155.4600067138672,-0.00994873046875,0.0068359375,1.01470947265625,36.04999923706055,0.0,12.0,2.123687744140625,1.799835205078125,Closing,0.0,0.0,0.0,0.0,0.0,0.0,0.0,0.0,
9.831201,0.0,0.0,9037.0,0.0,0.0,0.0,0.0,0.25,0.7788085140000001,4.932250999999998,0.0,-35614.0,0.0,0.0,0.0,0.0,0.25,3.028564143,2.481884999999998,0.0,36100.0,0.125,0.0,0.0,0.0,0.0,3.3691402800000003,0.01,0.0,-51573.0,0.125,0.0,0.0,0.0,0.125,4.102782783,2.4790000000000023,0.0,0.4000000059604645,0.10999999940395355,155.4600067138672,-0.00885009765625,0.00604248046875,1.0189208984375,36.04999923706055,0.0,9.0,2.123687744140625,1.799835205078125,Closing,0.0,0.0,0.0,0.0,0.0,0.0,0.0,0.0,
9.997798999999999,0.0,0.0,9037.0,0.0,0.0,0.0,0.0,0.25,0.78124992,4.932250999999998,0.0,-35614.0,0.0,0.0,0.0,0.0,0.25,3.029784846,2.481884999999998,0.0,36100.0,0.0,0.0,0.0,0.0,0.0,3.3691402800000003,0.01,0.0,-51573.0,0.125,0.0,0.0,0.0,0.125,4.104003486,2.4790000000000023,0.0,0.4000000059604645,0.029999999329447746,155.4600067138672,-0.0107421875,0.00970458984375,1.015869140625,36.04999923706055,0.0,11.0,2.123687744140625,1.799835205078125,Closing,0.0,0.0,0.0,0.0,0.0,0.0,0.0,0.125,
10.173763000000035,0.0,0.0,9037.0,0.0,0.0,0.0,0.0,0.25,0.780029217,4.932250999999998,0.0,-35614.0,0.0,0.0,0.0,0.0,0.25,3.028564143,2.481884999999998,0.0,36100.0,0.0,0.0,0.0,0.0,0.0,3.3691402800000003,0.01,0.0,-51573.0,0.125,0.0,0.0,0.0,0.125,4.102782783,2.4790000000000023,0.0,0.4000000059604645,-0.029999999329447746,155.4600067138672,-0.01080322265625,0.0076904296875,1.02099609375,36.099998474121094,0.0,9.0,2.123687744140625,1.799835205078125,Closing,0.0,0.0,0.0,0.0,0.0,0.0,0.0,0.0,
10.348089000000037,0.0,0.0,9037.0,0.0,0.0,0.0,0.0,0.25,0.780029217,4.932250999999998,0.0,-35614.0,0.0,0.0,0.0,0.0,0.25,3.029784846,2.481884999999998,0.0,36100.0,0.125,0.0,0.0,0.0,0.0,3.3691402800000003,0.01,0.0,-51573.0,0.125,0.0,0.0,0.0,0.125,4.100341377,2.4790000000000023,0.0,0.4000000059604645,-0.09000000357627869,155.4600067138672,-0.01300048828125,0.00927734375,1.015380859375,36.099998474121094,0.0,11.0,2.123687744140625,1.799835205078125,Closing,0.0,0.0,0.0,0.0,0.0,0.0,0.0,0.125,
10.522368000000016,0.0,0.0,9037.0,0.0,0.0,0.0,0.0,0.25,0.780029217,4.932250999999998,0.0,-35614.0,0.0,0.0,0.0,0.0,0.25,3.028564143,2.481884999999998,0.0,36100.0,0.0,0.0,0.0,0.0,0.0,3.3691402800000003,0.01,0.0,-51573.0,0.125,0.0,0.0,0.0,0.125,4.102782783,2.4790000000000023,0.0,0.4000000059604645,-0.15000000596046448,155.4600067138672,-0.0111083984375,0.005615234375,1.0191650390625,36.099998474121094,0.0,6.0,2.123687744140625,1.799835205078125,Closing,0.0,0.0,0.0,0.0,0.0,0.0,0.0,0.0,
10.688649000000034,0.0,0.0,8999.0,16.875,-375.0,-1944.5669031143188,0.0,0.25,0.7788085140000001,4.932250999999998,0.0,-35646.0,25.5,-382.5,-1944.5669031143188,0.0,0.25,3.034667658,2.481884999999998,0.0,36094.0,23.125,-157.5,-1944.5669031143188,0.0,0.0,3.3740230920000003,0.01,0.0,-51607.0,20.375,-412.5,-1944.5669031143188,0.0,0.125,4.166259339,2.4790000000000023,0.0,0.4300000071525574,-2.200000047683716,155.58999633789062,-0.58392333984375,-0.00457763671875,1.15557861328125,36.08000183105469,0.0,485.0,2.137176513671875,1.8073577880859375,Closing,0.0,0.0,0.0,0.0,0.0,0.0,0.0,0.0,
10.873819000000017,0.0,0.0,8814.0,0.0,-600.0,0.0,0.0,0.25,0.7751464050000001,4.932250999999998,0.0,-35818.0,0.0,-570.0,0.0,0.0,0.25,3.018798519,2.481884999999998,0.0,35978.0,0.0,-450.0,0.0,0.0,0.0,3.341064111,0.01,0.0,-51783.0,0.125,-592.5,0.0,0.0,0.25,4.084472238,2.4790000000000023,0.0,0.5899999737739563,-1.9900000095367432,155.1999969482422,0.126708984375,0.0155029296875,0.949462890625,36.08000183105469,0.0,-142.0,2.189208984375,1.829193115234375,Closing,0.0,0.0,0.0,0.0,0.0,0.0,0.0,0.125,
11.051673999999998,0.0,0.0,8735.0,0.0,-465.0,0.0,0.0,0.25,0.7751464050000001,4.932250999999998,0.0,-35898.0,0.0,-450.0,0.0,0.0,0.25,3.018798519,2.481884999999998,0.0,35902.0,0.0,-375.0,0.0,0.0,0.0,3.339843408,0.01,0.0,-51860.0,0.125,-420.0,0.0,0.0,0.125,4.016112870000001,2.4790000000000023,0.0,0.5600000023841858,-1.1699999570846558,155.72999572753906,0.11163330078125,0.04986572265625,0.9744873046875,36.08000183105469,0.0,-103.0,2.2161865234375,1.8339996337890625,Closing,0.0,0.0,0.0,0.0,0.0,0.0,0.0,0.0,
11.224204000000027,0.0,0.0,8631.0,0.0,-277.5,0.0,0.0,0.25,0.7788085140000001,4.932250999999998,0.0,-35997.0,0.0,-255.0,0.0,0.0,0.25,3.018798519,2.481884999999998,0.0,35805.0,0.125,-232.5,0.0,0.0,0.0,3.339843408,0.01,0.0,-51960.0,0.125,-240.0,0.0,0.0,0.25,4.084472238,2.4790000000000023,0.0,0.5,-0.38999998569488525,156.07000732421875,0.0885009765625,-0.0130615234375,0.99822998046875,36.06999969482422,0.0,-95.0,2.2264556884765625,1.8286285400390625,Closing,0.0,0.0,0.0,0.0,0.0,0.0,0.0,0.0,
11.39203700000001,0.0,0.0,8615.0,0.125,-52.5,-138.89763727784157,0.0,0.25,0.780029217,4.932250999999998,0.0,-36015.0,0.0,-52.5,-138.89763727784157,0.0,0.25,3.018798519,2.481884999999998,0.0,35785.0,0.125,-52.5,-138.89763727784157,0.0,0.0,3.339843408,0.01,0.0,-51980.0,0.25,-60.0,-138.89763727784157,0.0,0.125,4.107665595,2.4790000000000023,0.0,0.4699999988079071,0.18000000715255737,156.10000610351562,0.069091796875,-1.220703125E-4,1.02203369140625,36.06999969482422,0.0,-30.0,2.2199859619140625,1.8265533447265625,Closing,0.0,0.0,0.0,0.0,0.0,0.0,0.0,0.0,
11.570480000000039,0.0,0.0,8615.0,0.375,-82.5,-317.4803137779236,0.0,0.25,0.780029217,4.932250999999998,0.0,-36031.0,0.375,-52.5,-317.4803137779236,0.0,0.25,3.020019222,2.481884999999998,0.0,35780.0,0.625,-22.5,-317.4803137779236,0.0,0.0,3.33251919,0.01,0.0,-51998.0,0.625,-97.5,-317.4803137779236,0.0,0.125,4.10156208,2.4790000000000023,0.0,0.4699999988079071,-0.029999999329447746,156.1199951171875,-0.0479736328125,0.0235595703125,0.93975830078125,36.06999969482422,0.0,49.0,2.217681884765625,1.82720947265625,Closing,0.0,0.0,0.0,0.0,0.0,0.0,0.0,0.0,
11.742438000000023,0.0,0.0,8602.0,0.0,0.0,0.0,0.0,0.25,0.780029217,4.932250999999998,0.0,-36037.0,0.0,0.0,0.0,0.0,0.25,3.018798519,2.481884999999998,0.0,35781.0,0.0,7.5,0.0,0.0,0.0,3.339843408,0.01,0.0,-51998.0,0.125,0.0,0.0,0.0,0.125,4.108886298,2.4790000000000023,0.0,0.49000000953674316,-0.05000000074505806,156.08999633789062,0.0106201171875,-0.003662109375,1.0562744140625,36.099998474121094,0.0,-15.0,2.220184326171875,1.8276824951171875,Closing,0.0,0.0,0.0,0.0,0.0,0.0,0.0,0.0,
11.916053000000014,0.0,0.0,8568.0,3.75,-112.5,-813.5432946681976,0.0,0.25,0.780029217,4.932250999999998,0.0,-36061.0,6.0,-105.0,-813.5432946681976,0.0,0.25,3.018798519,2.481884999999998,0.0,35768.0,5.375,-45.0,-813.5432946681976,0.0,0.0,3.3691402800000003,0.01,0.0,-52022.0,4.75,-127.5,-813.5432946681976,0.0,0.125,4.127196843,2.4790000000000023,0.0,0.4699999988079071,-1.0299999713897705,156.11000061035156,-0.2034912109375,0.020263671875,1.09393310546875,36.099998474121094,0.0,172.0,2.2285614013671875,1.8328857421875,Closing,0.0,0.0,0.0,0.0,0.0,0.0,0.0,0.0,
12.108271000000007,0.0,0.0,8553.0,0.0,-90.0,0.0,0.0,0.25,0.780029217,4.932250999999998,0.0,-36079.0,0.0,-75.0,0.0,0.0,0.25,3.018798519,2.481884999999998,0.0,35750.0,0.125,-67.5,0.0,0.0,0.0,3.339843408,0.01,0.0,-52038.0,0.125,-142.5,0.0,0.0,0.25,4.112548407,2.4790000000000023,0.0,0.46000000834465027,-0.5899999737739563,156.0500030517578,0.04901123046875,-0.07989501953125,0.9296875,36.099998474121094,0.0,-89.0,2.245086669921875,1.843170166015625,Closing,0.0,0.0,0.0,0.0,0.0,0.0,0.0,0.0,
12.294824000000022,0.0,0.0,8524.0,0.0,-37.5,0.0,0.0,0.25,0.780029217,4.932250999999998,0.0,-36107.0,0.0,-30.0,0.0,0.0,0.25,3.018798519,2.481884999999998,0.0,35723.0,0.0,-15.0,0.0,0.0,0.0,3.338622705,0.01,0.0,-52071.0,0.125,-22.5,0.0,0.0,0.125,4.112548407,2.4790000000000023,0.0,0.4300000071525574,-0.029999999329447746,156.0800018310547,0.00537109375,6.103515625E-4,1.049072265625,36.11000061035156,0.0,-8.0,2.2457275390625,1.847137451171875,Closing,0.0,0.0,0.0,0.0,0.0,0.0,0.0,0.0,
12.476378000000025,0.0,0.0,8510.0,0.375,-97.5,-337.32282400131226,0.0,0.25,0.780029217,4.932250999999998,0.0,-36109.0,0.375,-105.0,-337.32282400131226,0.0,0.25,3.018798519,2.481884999999998,0.0,35723.0,1.25,-15.0,-337.32282400131226,0.0,0.0,3.339843408,0.01,0.0,-52078.0,0.375,-112.5,-337.32282400131226,0.0,0.125,4.112548407,2.4790000000000023,0.0,0.44999998807907104,-0.3199999928474426,156.11000061035156,-0.05426025390625,-0.02801513671875,1.01043701171875,36.11000061035156,0.0,29.0,2.2470550537109375,1.8473358154296875,Closing,0.0,0.0,0.0,0.0,0.0,0.0,0.0,0.0,
12.665608999999996,0.0,0.0,8477.0,3.625,-157.5,-674.6456480026245,0.0,0.25,0.780029217,4.932250999999998,0.0,-36152.0,5.25,-157.5,-674.6456480026245,0.0,0.25,3.020019222,2.481884999999998,0.0,35699.0,4.75,-150.0,-674.6456480026245,0.0,0.0,3.3691402800000003,0.01,0.0,-52112.0,4.25,-142.5,-674.6456480026245,0.0,0.125,4.1284175460000005,2.4790000000000023,0.0,0.4300000071525574,-1.1100000143051147,156.0800018310547,-0.14599609375,0.06787109375,0.99609375,36.119998931884766,0.0,140.0,2.26287841796875,1.85296630859375,Closing,0.0,0.0,0.0,0.0,0.0,0.0,0.0,0.0,
12.850179999999993,0.0,0.0,8424.0,4.375,-435.0,-714.3307435512543,0.0,0.25,0.780029217,4.932250999999998,0.0,-36204.0,5.375,-465.0,-714.3307435512543,0.0,0.25,3.018798519,2.481884999999998,0.0,35655.0,6.5,-307.5,-714.3307435512543,0.0,0.0,3.3728023890000003,0.01,0.0,-52241.0,4.625,-450.0,-714.3307435512543,0.0,0.25,4.178466369000001,2.4790000000000023,0.0,0.3700000047683716,-2.0299999713897705,155.8300018310547,-0.1436767578125,-0.0411376953125,0.92242431640625,36.119998931884766,0.0,81.0,2.302490234375,1.8669891357421875,Closing,0.0,0.0,0.0,0.0,0.0,0.0,0.0,0.125,
13.03654800000001,0.0,0.0,8235.0,3.0,-682.5,-714.3307435512543,0.0,0.25,0.780029217,4.932250999999998,0.0,-36397.0,3.375,-712.5,-714.3307435512543,0.0,0.25,3.0102535980000003,2.481884999999998,0.0,35507.0,5.5,-682.5,-714.3307435512543,0.0,0.0,3.3691402800000003,0.01,0.0,-52347.0,3.0,-705.0,-714.3307435512543,0.0,0.25,4.123534734000001,2.4790000000000023,0.0,0.3100000023841858,-2.549999952316284,155.44000244140625,-0.05377197265625,-0.05279541015625,1.0462646484375,36.119998931884766,0.0,-17.0,2.3537750244140625,1.8920440673828125,Closing,0.0,0.0,0.0,0.0,0.0,0.0,0.0,0.0,
13.231668000000004,0.0,0.0,8130.0,0.0,-532.5,0.0,0.0,0.25,0.780029217,4.932250999999998,0.0,-36600.0,0.0,-562.5,0.0,0.0,0.25,3.020019222,2.481884999999998,0.0,35298.0,0.0,-540.0,0.0,0.0,0.0,3.339843408,0.01,0.0,-52554.0,0.125,-570.0,0.0,0.0,0.25,4.074706614,2.4790000000000023,0.0,0.30000001192092896,-1.75,155.4600067138672,0.0098876953125,0.0826416015625,1.292236328125,36.099998474121094,0.0,-13.0,2.4031524658203125,1.9210205078125,Closing,0.0,0.0,0.0,0.0,0.0,0.0,0.0,0.125,
13.41289300000004,0.0,0.0,7986.0,0.875,-300.0,-115.74803106486797,0.0,0.875,1.36718736,0.5498168668524864,0.0,-36643.0,2.0,-165.0,115.74803106486797,0.0,0.5,2.333984136,1.92855458977222,0.0,35259.0,0.375,-127.5,-115.74803106486797,0.0,0.5,2.930907903,4.389674732977291,0.0,-52607.0,2.0,-187.5,115.74803106486797,0.0,1.25,4.664306163,3.031687206278561,0.0,0.11999999731779099,0.6100000143051147,156.24000549316406,0.18487548828125,0.0477294921875,0.97760009765625,36.099998474121094,0.0,-141.0,2.409271240234375,1.9256744384765625,Closing,0.0,0.0,0.0,0.0,0.0,0.0,0.0,0.0,
13.595553000000015,0.0,0.0,7968.0,0.0,-67.5,0.0,0.0,0.25,1.510009611,0.5498168668524864,0.0,-36629.0,0.0,0.0,0.0,0.0,0.25,2.211913836,1.92855458977222,0.0,35242.0,0.125,-52.5,0.0,0.0,0.25,2.64892551,4.389674732977291,0.0,-52608.0,0.125,0.0,0.0,0.0,0.25,0.05981444700000001,3.031687206278561,0.0,0.23000000417232513,0.20000000298023224,157.39999389648438,0.0679931640625,-0.03045654296875,1.02099609375,36.099998474121094,0.0,-72.0,2.3947906494140625,1.9185638427734375,Closing,0.0,0.0,0.0,0.0,0.0,0.0,0.0,0.0,
13.77324900000001,0.0,0.0,7959.0,0.0,0.0,0.0,0.0,0.375,1.409911965,0.5498168668524864,0.0,-36629.0,0.0,0.0,0.0,0.0,0.25,2.357177493,1.92855458977222,0.0,35241.0,0.0,0.0,0.0,0.0,0.125,2.6977536300000002,4.389674732977291,0.0,-52608.0,0.125,0.0,0.0,0.0,0.5,4.611815934,3.031687206278561,0.0,0.3199999928474426,0.10000000149011612,157.3000030517578,-0.0042724609375,-0.0081787109375,0.97406005859375,36.08000183105469,0.0,0.0,2.3862457275390625,1.9179534912109375,Closing,0.0,0.0,0.0,0.0,0.0,0.0,0.0,0.0,
13.948993000000018,0.0,0.0,7959.0,0.125,-52.5,-281.1023533344269,0.0,0.25,1.365966657,0.5498168668524864,0.0,-36628.0,0.75,7.5,281.1023533344269,0.0,0.25,2.4792477930000003,1.92855458977222,0.0,35240.0,0.375,-97.5,-281.1023533344269,0.0,0.125,2.818603227,4.389674732977291,0.0,-52601.0,0.75,45.0,281.1023533344269,0.0,0.25,4.494628446,3.031687206278561,0.0,0.3799999952316284,0.009999999776482582,157.07000732421875,-0.056884765625,-0.01605224609375,1.04376220703125,36.08000183105469,0.0,43.0,2.3868255615234375,1.9181671142578125,Closing,0.0,0.0,0.0,0.0,0.0,0.0,0.0,0.0,
14.129112000000022,0.0,0.0,7943.0,0.0,0.0,0.0,0.0,0.125,1.365966657,0.5498168668524864,0.0,-36626.0,0.0,0.0,0.0,0.0,0.25,2.449950921,1.92855458977222,0.0,35226.0,0.125,0.0,0.0,0.0,0.125,2.8540036140000002,4.389674732977291,0.0,-52600.0,0.125,0.0,0.0,0.0,0.375,4.631347182,3.031687206278561,0.0,0.3499999940395355,-0.03999999910593033,157.22999572753906,-0.01934814453125,-0.01318359375,0.9864501953125,36.08000183105469,0.0,9.0,2.3899688720703125,1.9193115234375,Closing,0.0,0.0,0.0,0.0,0.0,0.0,0.0,0.125,
14.29701800000004,0.0,0.0,7944.0,0.0,0.0,0.0,0.0,0.125,1.365966657,0.5498168668524864,0.0,-36626.0,0.0,0.0,0.0,0.0,0.125,2.440185297,1.92855458977222,0.0,35226.0,0.0,0.0,0.0,0.0,0.125,2.814941118,4.389674732977291,0.0,-52601.0,0.125,0.0,0.0,0.0,0.25,4.689940926,3.031687206278561,0.0,0.33000001311302185,-0.11999999731779099,157.25999450683594,-0.00726318359375,-0.01287841796875,1.004150390625,36.11000061035156,0.0,-2.0,2.3905029296875,1.9202117919921875,Closing,0.0,0.0,0.0,0.0,0.0,0.0,0.0,0.125,
14.473129000000016,0.0,0.0,7920.0,3.0,-135.0,-727.55908370018,0.0,0.125,1.365966657,0.5498168668524864,0.0,-36608.0,4.0,127.5,727.55908370018,0.0,0.0,2.440185297,1.92855458977222,0.0,35213.0,3.625,-82.5,-727.55908370018,0.0,0.125,2.833251663,4.389674732977291,0.0,-52587.0,3.5,112.5,727.55908370018,0.0,0.25,4.666747569,3.031687206278561,0.0,0.28999999165534973,-0.25999999046325684,158.91000366210938,0.01776123046875,-0.0062255859375,1.00518798828125,36.11000061035156,0.0,-24.0,2.3906707763671875,1.9203948974609375,Closing,0.0,0.0,0.0,0.0,0.0,0.0,0.0,0.0,
14.649972000000009,0.0,0.0,7903.0,0.0,-60.0,0.0,0.0,0.125,1.365966657,0.5498168668524864,0.0,-36583.0,0.0,30.0,0.0,0.0,0.0,2.454833733,1.92855458977222,0.0,35202.0,0.0,-22.5,0.0,0.0,0.125,2.833251663,4.389674732977291,0.0,-52565.0,0.125,67.5,0.0,0.0,0.125,4.698485847000001,3.031687206278561,0.0,0.3700000047683716,-0.3700000047683716,162.82000732421875,-0.004150390625,-0.0267333984375,1.05694580078125,36.11000061035156,0.0,-12.0,2.3918609619140625,1.9183349609375,Closing,0.0,0.0,0.0,0.0,0.0,0.0,0.0,0.0,
14.820454000000026,0.0,0.0,7883.0,0.0,0.0,0.0,0.0,0.125,1.36718736,0.5498168668524864,0.0,-36576.0,0.0,0.0,0.0,0.0,0.125,2.454833733,1.92855458977222,0.0,35195.0,0.0,-7.5,0.0,0.0,0.125,2.829589554,4.389674732977291,0.0,-52547.0,0.125,0.0,0.0,0.0,0.25,4.685058114,3.031687206278561,0.0,0.30000001192092896,-0.30000001192092896,162.75,-0.01361083984375,0.00286865234375,0.99664306640625,36.08000183105469,0.0,7.0,2.39117431640625,1.917022705078125,Closing,0.0,0.0,0.0,0.0,0.0,0.0,0.0,0.125,
14.990896999999997,0.0,0.0,7883.0,0.0,0.0,0.0,0.0,0.125,1.365966657,0.5498168668524864,0.0,-36576.0,0.0,0.0,0.0,0.0,0.125,2.45361303,1.92855458977222,0.0,35195.0,0.0,0.0,0.0,0.0,0.125,2.834472366,4.389674732977291,0.0,-52547.0,0.125,0.0,0.0,0.0,0.25,4.67529249,3.031687206278561,0.0,0.30000001192092896,-0.4000000059604645,162.39999389648438,-0.00885009765625,0.0089111328125,1.02423095703125,36.08000183105469,0.0,2.0,2.3919219970703125,1.917022705078125,Closing,0.0,0.0,0.0,0.0,0.0,0.0,0.0,0.0,
15.168592999999994,0.0,0.0,7883.0,0.0,0.0,0.0,0.0,0.125,1.36718736,0.5498168668524864,0.0,-36576.0,0.0,0.0,0.0,0.0,0.125,2.454833733,1.92855458977222,0.0,35195.0,0.0,0.0,0.0,0.0,0.125,2.834472366,4.389674732977291,0.0,-52547.0,0.125,0.0,0.0,0.0,0.25,4.67529249,3.031687206278561,0.0,0.30000001192092896,-0.4300000071525574,162.47000122070312,-0.0068359375,0.0040283203125,1.020751953125,36.08000183105469,0.0,-1.0,2.3919219970703125,1.917022705078125,Closing,0.0,0.0,0.0,0.0,0.0,0.0,0.0,0.0,
15.339871000000043,0.0,0.0,7873.0,0.125,-82.5,-277.79527455568314,0.0,1.5,1.8701169960000001,1.2330627499999984,0.0,-36576.0,0.5,37.5,277.79527455568314,0.0,0.875,1.959228315,1.2409424999999985,0.0,35200.0,0.5,60.0,277.79527455568314,0.0,1.0,2.149657983,3.7052999999999985,0.0,-52553.0,0.375,-75.0,-277.79527455568314,0.0,1.25,0.21972654000000003,3.7184999999999984,0.0,0.30000001192092896,-0.4699999988079071,162.47000122070312,0.00390625,0.0345458984375,0.973876953125,36.119998931884766,0.0,-2.0,2.392486572265625,1.9155120849609375,Closing,0.0,0.0,0.0,0.0,0.0,0.0,0.0,0.0,
15.511440999999992,0.0,0.0,7864.0,1.25,-45.0,-377.00788199901575,0.0,0.5,2.092284942,1.2330627499999984,0.0,-36537.0,1.25,75.0,377.00788199901575,0.0,0.25,1.593017415,1.2409424999999985,0.0,35216.0,1.875,37.5,377.00788199901575,0.0,0.0,1.986083781,3.7052999999999985,0.0,-52576.0,1.375,-60.0,-377.00788199901575,0.0,0.625,0.552978459,3.7184999999999984,0.0,0.07000000029802322,-0.49000000953674316,162.4199981689453,-0.0040283203125,-0.04095458984375,1.01104736328125,36.119998931884766,0.0,-17.0,2.391571044921875,1.9150238037109375,Closing,0.0,0.0,0.0,0.0,0.0,0.0,0.0,0.125,
15.690398000000044,0.0,0.0,7825.0,2.0,-157.5,-416.69290244579315,0.0,0.25,2.103271269,1.2330627499999984,0.0,-36513.0,2.375,165.0,416.69290244579315,0.0,0.25,1.563720543,1.2409424999999985,0.0,35219.0,4.25,37.5,416.69290244579315,0.0,0.125,2.039794713,3.7052999999999985,0.0,-52597.0,2.375,-157.5,-416.69290244579315,0.0,0.5,0.552978459,3.7184999999999984,0.0,-0.3100000023841858,-0.5099999904632568,162.47000122070312,-0.03271484375,0.03326416015625,0.943603515625,36.119998931884766,0.0,34.0,2.3907928466796875,1.9234771728515625,Closing,0.0,0.0,0.0,0.0,0.0,0.0,0.0,0.0,
15.85626900000003,0.0,0.0,7789.0,2.25,-247.5,-416.69290244579315,0.0,0.25,2.102050566,1.2330627499999984,0.0,-36478.0,3.0,240.0,416.69290244579315,0.0,0.5,1.699218576,1.2409424999999985,0.0,35250.0,4.0,202.5,416.69290244579315,0.0,0.125,2.082519318,3.7052999999999985,0.0,-52632.0,2.625,-247.5,-416.69290244579315,0.0,0.5,0.37475582100000004,3.7184999999999984,0.0,-0.5699999928474426,-0.49000000953674316,162.3699951171875,-0.0565185546875,-0.12835693359375,0.99530029296875,36.08000183105469,0.0,9.0,2.3903045654296875,1.933563232421875,Closing,0.0,0.0,0.0,0.0,0.0,0.0,0.0,0.0,
16.027607000000017,0.0,0.0,7675.0,1.875,-405.0,-416.69290244579315,0.0,0.25,2.102050566,1.2330627499999984,0.0,-36369.0,2.25,405.0,416.69290244579315,0.0,0.25,1.774902162,1.2409424999999985,0.0,35353.0,3.25,405.0,416.69290244579315,0.0,0.0,2.082519318,3.7052999999999985,0.0,-52744.0,2.125,-420.0,-416.69290244579315,0.0,0.125,0.291748017,3.7184999999999984,0.0,-0.9399999976158142,-0.6100000143051147,161.9499969482422,-0.063720703125,4.2724609375E-4,1.15155029296875,36.08000183105469,0.0,54.0,2.3890228271484375,1.9468231201171875,Closing,0.0,0.0,0.0,0.0,0.0,0.0,0.0,0.0,
16.205723,0.0,0.0,7632.0,0.0,-172.5,0.0,0.0,0.25,2.08740213,1.2330627499999984,0.0,-36325.0,0.0,225.0,0.0,0.0,0.25,1.774902162,1.2409424999999985,0.0,35420.0,0.0,277.5,0.0,0.0,0.0,2.1203611110000002,3.7052999999999985,0.0,-52802.0,0.125,-262.5,0.0,0.0,0.25,0.33569332500000004,3.7184999999999984,0.0,-0.3100000023841858,-0.5600000023841858,161.3300018310547,0.0423583984375,0.06195068359375,0.8267822265625,36.08000183105469,0.0,-26.0,2.3893585205078125,1.94085693359375,Closing,0.0,0.0,0.0,0.0,0.0,0.0,0.0,0.125,
16.380179999999992,0.0,0.0,7567.0,0.0,-142.5,0.0,0.0,0.25,2.0690915850000002,1.2330627499999984,0.0,-36253.0,0.0,172.5,0.0,0.0,0.25,1.776122865,1.2409424999999985,0.0,35488.0,0.0,172.5,0.0,0.0,0.0,2.1203611110000002,3.7052999999999985,0.0,-52882.0,0.125,-195.0,0.0,0.0,0.25,0.364990197,3.7184999999999984,0.0,0.3499999940395355,-0.6600000262260437,161.10000610351562,-0.01666259765625,0.08642578125,1.1187744140625,36.119998931884766,0.0,11.0,2.392974853515625,1.9134521484375,Closing,0.0,0.0,0.0,0.0,0.0,0.0,0.0,0.0,
16.54897200000001,0.0,0.0,7562.0,0.0,-15.0,0.0,0.0,0.25,2.0642087730000003,1.2330627499999984,0.0,-36244.0,0.0,22.5,0.0,0.0,0.25,1.774902162,1.2409424999999985,0.0,35496.0,0.0,15.0,0.0,0.0,0.0,2.1203611110000002,3.7052999999999985,0.0,-52891.0,0.125,-7.5,0.0,0.0,0.125,0.37475582100000004,3.7184999999999984,0.0,0.7799999713897705,-0.6399999856948853,161.05999755859375,-0.00238037109375,0.02508544921875,0.977294921875,36.119998931884766,0.0,-4.0,2.3935699462890625,1.8794403076171875,Closing,0.0,0.0,0.0,0.0,0.0,0.0,0.0,0.125,
16.719303000000014,0.0,0.0,7562.0,0.0,0.0,0.0,0.0,0.25,2.0642087730000003,1.2330627499999984,0.0,-36244.0,0.0,0.0,0.0,0.0,0.25,1.774902162,1.2409424999999985,0.0,35496.0,0.125,0.0,0.0,0.0,0.0,2.1203611110000002,3.7052999999999985,0.0,-52891.0,0.125,0.0,0.0,0.0,0.125,0.37475582100000004,3.7184999999999984,0.0,0.6299999952316284,-0.6499999761581421,161.0800018310547,-0.01873779296875,-0.0152587890625,1.05224609375,36.11000061035156,0.0,-2.0,2.3935699462890625,1.8812103271484375,Closing,0.0,0.0,0.0,0.0,0.0,0.0,0.0,0.0,
16.89543200000003,0.0,0.0,7574.0,5.0,52.5,833.3858048915863,0.0,2.125,2.725829799,2.4661254999999977,0.0,-36265.0,4.5,-142.5,-833.3858048915863,0.0,1.25,2.5903317660000003,2.481884999999998,0.0,35505.0,5.25,82.5,833.3858048915863,0.0,1.375,1.3488768150000001,2.4702000000000024,0.0,-52909.0,4.75,-112.5,-833.3858048915863,0.0,2.125,4.665526866,2.4790000000000023,0.0,0.5799999833106995,-0.6899999976158142,160.52000427246094,-0.076171875,-0.05523681640625,0.8724365234375,36.11000061035156,0.0,40.0,2.39385986328125,1.883209228515625,Closing,0.0,0.0,0.0,0.0,0.0,0.0,0.0,0.125,
17.06364400000003,0.0,0.0,7576.0,14.875,97.5,1011.9684720039367,0.0,1.25,3.4118648850000004,2.4661254999999977,0.0,-36292.0,11.375,-330.0,-1011.9684720039367,0.0,0.5,3.2556149010000004,2.481884999999998,0.0,35536.0,13.5,105.0,1011.9684720039367,0.0,0.5,0.6323241540000001,2.4702000000000024,0.0,-52974.0,11.0,-277.5,-1011.9684720039367,0.0,0.625,3.812255469,2.4790000000000023,0.0,0.6600000262260437,-1.7899999618530273,159.07000732421875,-0.0999755859375,0.0511474609375,0.95806884765625,36.11000061035156,0.0,79.0,2.405364990234375,1.885589599609375,Closing,0.0,0.0,0.0,0.0,0.0,0.0,0.0,0.0,
17.247165000000038,0.0,0.0,7652.0,19.5,225.0,1011.9684720039367,0.0,0.25,3.565673463,2.4661254999999977,0.0,-36369.0,32.375,-22.5,-1011.9684720039367,0.0,0.25,3.402099261,2.481884999999998,0.0,35553.0,34.0,82.5,1011.9684720039367,0.0,0.5,0.539550726,2.4702000000000024,0.0,-52991.0,29.25,-37.5,-1011.9684720039367,0.0,0.375,4.005126543,2.4790000000000023,0.0,0.6200000047683716,-0.550000011920929,160.5,-0.1683349609375,-0.0906982421875,1.09869384765625,36.15999984741211,0.0,114.0,2.4132232666015625,1.88018798828125,Closing,0.0,0.0,0.0,0.0,0.0,0.0,0.0,0.125,
17.41780900000001,0.0,0.0,7654.0,36.25,7.5,853.2283151149749,0.0,0.375,3.392333637,2.4661254999999977,0.0,-36369.0,51.5,0.0,-853.2283151149749,0.0,0.875,3.184814127,2.481884999999998,0.0,35555.0,43.5,7.5,853.2283151149749,0.0,0.875,0.677490165,2.4702000000000024,0.0,-52995.0,40.625,-22.5,-853.2283151149749,0.0,0.25,4.107665595,2.4790000000000023,0.0,0.49000000953674316,-0.6000000238418579,160.5500030517578,-0.0013427734375,0.01080322265625,0.9853515625,36.15999984741211,0.0,-7.0,2.412384033203125,1.8744659423828125,Closing,0.0,0.0,0.0,0.0,0.0,0.0,0.0,0.0,
17.593045000000043,0.0,0.0,7615.0,0.0,-217.5,0.0,0.0,0.25,3.225097326,2.4661254999999977,0.0,-36339.0,0.0,187.5,0.0,0.0,0.25,2.9077145460000002,2.481884999999998,0.0,35528.0,0.0,-202.5,0.0,0.0,0.25,0.9106444380000001,2.4702000000000024,0.0,-52957.0,0.125,285.0,0.0,0.0,0.125,4.1284175460000005,2.4790000000000023,0.0,0.5099999904632568,0.029999999329447746,160.0800018310547,-0.103271484375,-0.0972900390625,1.1143798828125,36.15999984741211,0.0,61.0,2.40606689453125,1.87042236328125,Closing,0.0,0.0,0.0,0.0,0.0,0.0,0.0,0.0,
17.76738400000002,0.0,0.0,7599.0,0.0,-45.0,0.0,0.0,0.25,3.225097326,2.4661254999999977,0.0,-36319.0,0.0,67.5,0.0,0.0,0.25,2.874755565,2.481884999999998,0.0,35519.0,0.125,-45.0,0.0,0.0,0.125,0.943603419,2.4702000000000024,0.0,-52953.0,0.125,45.0,0.0,0.0,0.25,4.127196843,2.4790000000000023,0.0,0.4399999976158142,-0.7200000286102295,160.27000427246094,-0.0535888671875,-0.03839111328125,0.980224609375,36.130001068115234,0.0,23.0,2.4169464111328125,1.8706817626953125,Closing,0.0,0.0,0.0,0.0,0.0,0.0,0.0,0.125,
17.938858000000007,0.0,0.0,7599.0,0.0,0.0,0.0,0.0,0.25,3.253173495,2.4661254999999977,0.0,-36314.0,0.0,0.0,0.0,0.0,0.25,2.922362982,2.481884999999998,0.0,35518.0,0.0,0.0,0.0,0.0,0.125,0.9204100620000001,2.4702000000000024,0.0,-52950.0,0.125,0.0,0.0,0.0,0.25,4.1284175460000005,2.4790000000000023,0.0,0.4099999964237213,-0.6800000071525574,160.22999572753906,-0.00238037109375,-0.02252197265625,1.00701904296875,36.130001068115234,0.0,-6.0,2.419403076171875,1.8734130859375,Closing,0.0,0.0,0.0,0.0,0.0,0.0,0.0,0.0,
18.117340000000027,0.0,0.0,7599.0,0.0,0.0,0.0,0.0,0.25,3.2580563070000004,2.4661254999999977,0.0,-36314.0,0.0,0.0,0.0,0.0,0.25,2.974853211,2.481884999999998,0.0,35518.0,0.125,0.0,0.0,0.0,0.125,0.902099517,2.4702000000000024,0.0,-52950.0,0.125,0.0,0.0,0.0,0.25,4.132079655,2.4790000000000023,0.0,0.38999998569488525,-0.6899999976158142,160.25999450683594,-0.02313232421875,-0.00506591796875,0.9974365234375,36.130001068115234,0.0,6.0,2.419403076171875,1.873565673828125,Closing,0.0,0.0,0.0,0.0,0.0,0.0,0.0,0.0,
18.29658500000002,0.0,0.0,7599.0,0.0,0.0,0.0,0.0,0.125,3.2592770100000004,2.4661254999999977,0.0,-36314.0,0.0,0.0,0.0,0.0,0.0,2.989501647,2.481884999999998,0.0,35518.0,0.125,0.0,0.0,0.0,0.125,0.902099517,2.4702000000000024,0.0,-52950.0,0.125,0.0,0.0,0.0,0.25,4.127196843,2.4790000000000023,0.0,0.3799999952316284,-0.6800000071525574,160.25999450683594,-0.01275634765625,-0.0028076171875,1.01416015625,36.150001525878906,0.0,-2.0,2.419403076171875,1.873565673828125,Closing,0.0,0.0,0.0,0.0,0.0,0.0,0.0,0.0,
18.470338000000048,0.0,0.0,7599.0,0.0,0.0,0.0,0.0,0.125,3.2580563070000004,2.4661254999999977,0.0,-36314.0,0.0,0.0,0.0,0.0,0.0,2.99072235,2.481884999999998,0.0,35518.0,0.0,0.0,0.0,0.0,0.125,0.900878814,2.4702000000000024,0.0,-52950.0,0.125,0.0,0.0,0.0,0.25,4.1333003580000005,2.4790000000000023,0.0,0.3499999940395355,-0.699999988079071,160.25999450683594,-0.0118408203125,0.002197265625,1.00921630859375,36.150001525878906,0.0,-1.0,2.419403076171875,1.873565673828125,Closing,0.0,0.0,0.0,0.0,0.0,0.0,0.0,0.0,
18.644265000000015,0.0,0.0,7599.0,0.0,0.0,0.0,0.0,0.25,3.2580563070000004,2.4661254999999977,0.0,-36314.0,0.0,0.0,0.0,0.0,0.0,2.989501647,2.481884999999998,0.0,35518.0,0.0,0.0,0.0,0.0,0.125,0.902099517,2.4702000000000024,0.0,-52950.0,0.125,0.0,0.0,0.0,0.25,4.1284175460000005,2.4790000000000023,0.0,0.3400000035762787,-0.699999988079071,160.25999450683594,-0.00927734375,-0.00341796875,1.022705078125,36.150001525878906,0.0,-6.0,2.419403076171875,1.873565673828125,Closing,0.0,0.0,0.0,0.0,0.0,0.0,0.0,0.0,
18.810168999999995,0.0,0.0,7599.0,0.0,0.0,0.0,0.0,0.25,3.2580563070000004,2.4661254999999977,0.0,-36314.0,0.0,0.0,0.0,0.0,0.0,2.99072235,2.481884999999998,0.0,35518.0,0.0,0.0,0.0,0.0,0.125,0.902099517,2.4702000000000024,0.0,-52950.0,0.125,0.0,0.0,0.0,0.25,4.132079655,2.4790000000000023,0.0,0.33000001311302185,-0.699999988079071,160.25999450683594,-0.01312255859375,-0.00848388671875,0.9886474609375,36.15999984741211,0.0,-3.0,2.419403076171875,1.873443603515625,Closing,0.0,0.0,0.0,0.0,0.0,0.0,0.0,0.0,
18.976174,0.0,0.0,7599.0,0.0,0.0,0.0,0.0,0.125,3.2580563070000004,2.4661254999999977,0.0,-36314.0,0.0,0.0,0.0,0.0,0.0,2.99072235,2.481884999999998,0.0,35518.0,0.125,0.0,0.0,0.0,0.125,0.900878814,2.4702000000000024,0.0,-52950.0,0.125,0.0,0.0,0.0,0.25,4.129638249,2.4790000000000023,0.0,0.3100000023841858,-0.6899999976158142,160.27000427246094,-0.01116943359375,0.0107421875,1.0213623046875,36.15999984741211,0.0,0.0,2.419403076171875,1.8733367919921875,Closing,0.0,0.0,0.0,0.0,0.0,0.0,0.0,0.125,
19.155498000000023,0.0,0.0,7599.0,0.0,0.0,0.0,0.0,0.25,3.2580563070000004,2.4661254999999977,0.0,-36314.0,0.0,0.0,0.0,0.0,0.0,2.989501647,2.481884999999998,0.0,35518.0,0.125,0.0,0.0,0.0,0.125,0.900878814,2.4702000000000024,0.0,-52950.0,0.125,0.0,0.0,0.0,0.25,4.132079655,2.4790000000000023,0.0,0.28999999165534973,-0.699999988079071,160.25999450683594,0.0069580078125,0.01165771484375,1.04571533203125,36.15999984741211,0.0,-16.0,2.419158935546875,1.8732147216796875,Closing,0.0,0.0,0.0,0.0,0.0,0.0,0.0,0.0,
19.329592999999992,0.0,0.0,7599.0,0.0,0.0,0.0,0.0,0.25,3.2580563070000004,2.4661254999999977,0.0,-36314.0,0.0,0.0,0.0,0.0,0.0,2.989501647,2.481884999999998,0.0,35518.0,0.125,0.0,0.0,0.0,0.125,0.900878814,2.4702000000000024,0.0,-52950.0,0.125,0.0,0.0,0.0,0.25,4.132079655,2.4790000000000023,0.0,0.28999999165534973,-0.6899999976158142,160.25,0.001220703125,0.01995849609375,1.00390625,36.189998626708984,0.0,-7.0,2.419158935546875,1.8732147216796875,Closing,0.0,0.0,0.0,0.0,0.0,0.0,0.0,0.0,
19.507802000000027,0.0,0.0,7599.0,0.0,0.0,0.0,0.0,0.125,3.2580563070000004,2.4661254999999977,0.0,-36314.0,0.0,0.0,0.0,0.0,0.0,2.99072235,2.481884999999998,0.0,35518.0,0.0,0.0,0.0,0.0,0.125,0.900878814,2.4702000000000024,0.0,-52950.0,0.125,0.0,0.0,0.0,0.25,4.1333003580000005,2.4790000000000023,0.0,0.28999999165534973,-0.699999988079071,160.25,-0.01617431640625,0.00823974609375,1.01953125,36.189998626708984,0.0,4.0,2.4190826416015625,1.8732147216796875,Closing,0.0,0.0,0.0,0.0,0.0,0.0,0.0,0.125,
19.687367000000027,0.0,0.0,7599.0,0.0,0.0,0.0,0.0,0.125,3.2592770100000004,2.4661254999999977,0.0,-36314.0,0.0,0.0,0.0,0.0,0.0,2.99072235,2.481884999999998,0.0,35518.0,0.125,0.0,0.0,0.0,0.125,0.902099517,2.4702000000000024,0.0,-52950.0,0.125,0.0,0.0,0.0,0.25,4.1333003580000005,2.4790000000000023,0.0,0.2800000011920929,-0.6899999976158142,160.25,-0.00177001953125,-0.00164794921875,1.02618408203125,36.189998626708984,0.0,-12.0,2.4190826416015625,1.873382568359375,Closing,0.0,0.0,0.0,0.0,0.0,0.0,0.0,0.125,
19.87388200000004,0.0,0.0,7599.0,0.0,0.0,0.0,0.0,0.125,3.2580563070000004,2.4661254999999977,0.0,-36314.0,0.0,0.0,0.0,0.0,0.0,2.99072235,2.481884999999998,0.0,35518.0,0.0,0.0,0.0,0.0,0.125,0.902099517,2.4702000000000024,0.0,-52950.0,0.125,0.0,0.0,0.0,0.25,4.132079655,2.4790000000000023,0.0,0.25999999046325684,-0.6899999976158142,160.25,-0.01654052734375,0.0045166015625,1.01470947265625,36.18000030517578,0.0,3.0,2.4190826416015625,1.873382568359375,Closing,0.0,0.0,0.0,0.0,0.0,0.0,0.0,0.0,
20.056226000000024,0.0,0.0,7599.0,0.0,0.0,0.0,0.0,0.125,3.2580563070000004,2.4661254999999977,0.0,-36314.0,0.0,0.0,0.0,0.0,0.0,2.99072235,2.481884999999998,0.0,35518.0,0.0,0.0,0.0,0.0,0.125,0.902099517,2.4702000000000024,0.0,-52950.0,0.125,0.0,0.0,0.0,0.25,4.1284175460000005,2.4790000000000023,0.0,0.27000001072883606,-0.699999988079071,160.25,-0.07012939453125,0.03265380859375,1.12347412109375,36.18000030517578,0.0,62.0,2.419219970703125,1.87322998046875,Closing,0.0,0.0,0.0,0.0,0.0,0.0,0.0,0.0,
