Time,ClimberA1,ClimberA2,FRpos,FRCurrent,FRspeed,FRsetpoint,FRApos,FRACurrent,FREncpos,FREncSetpoint,FREncSpeed,FLpos,FLCurrent,FLspeed,FLsetpoint,FLApos,FLACurrent,FLEncpos,FLEncSetpoint,FLEncSpeed,BRpos,BRCurrent,BRspeed,BRsetpoint,BRApos,BRACurrent,BREncpos,BREncSetpoint,BREncSpeed,BLpos,BLCurrent,BLspeed,BLsetpoint,BLApos,BLACurrent,BLEncpos,BLEncSetpoint,BLEncSpeed,navx_Pitch,navx_Roll,navx_Yaw,navx_XAcc,navx_YAcc,navx_ZAcc,navx_Temp,navx_Bar,navx_Alt,navx_XDis,navx_YDis,GearPlacerState,ShootOutputV,ShootOutputCurrent,ShootEncPos,ShootEncVelocity,ShootSpeed,ShootSetpoint,CarouselSetpoint,CarouselCurrent,
0.14216700000001584,0.0,0.0,23961.0,0.0,0.0,0.0,0.0,0.125,0.808105386,0.01,0.0,-63345.0,0.0,0.0,-0.0,0.0,0.0,0.522460884,0.01,0.0,53789.0,0.125,0.0,0.0,0.0,0.0,3.352050438,0.01,0.0,-78849.0,0.125,0.0,-0.0,0.0,0.25,1.6638181890000001,0.01,0.0,0.5099999904632568,-0.4399999976158142,90.47000122070312,-0.00921630859375,0.00738525390625,1.025390625,36.09000015258789,0.0,-1.0,2.53631591796875,0.3887786865234375,Closing,0.0,0.0,0.0,0.0,0.0,0.0,0.0,0.0,
0.27197100000001956,0.0,0.0,23961.0,0.0,0.0,0.0,0.0,0.125,0.808105386,0.01,0.0,-63345.0,0.0,0.0,-0.0,0.0,0.0,0.522460884,0.01,0.0,53789.0,0.125,0.0,0.0,0.0,0.0,3.352050438,0.01,0.0,-78849.0,0.125,0.0,-0.0,0.0,0.25,1.6625974860000001,0.01,0.0,0.47999998927116394,-0.5,90.47000122070312,-0.0833740234375,-0.04547119140625,0.9765625,36.09000015258789,0.0,-53.0,2.536590576171875,0.388916015625,Closing,0.0,0.0,0.0,0.0,0.0,0.0,0.0,0.0,
0.3997860000000219,0.0,0.0,23961.0,0.0,0.0,0.0,0.0,0.125,0.808105386,0.01,0.0,-63345.0,0.0,0.0,-0.0,0.0,0.0,0.527343696,0.01,0.0,53789.0,0.125,0.0,0.0,0.0,0.0,3.353271141,0.01,0.0,-78849.0,0.125,0.0,-0.0,0.0,0.25,1.6625974860000001,0.01,0.0,0.44999998807907104,-0.5199999809265137,90.47000122070312,0.03643798828125,-0.02032470703125,1.1229248046875,36.09000015258789,0.0,-29.0,2.5379638671875,0.390655517578125,Closing,0.0,0.0,0.0,0.0,0.0,0.0,0.0,0.0,
0.5298410000000149,0.0,0.0,23961.0,0.0,0.0,0.0,0.0,0.125,0.808105386,0.01,0.0,-63345.0,0.0,0.0,-0.0,0.0,0.125,0.527343696,0.01,0.0,53788.0,0.125,0.0,0.0,0.0,0.0,3.354491844,0.01,0.0,-78849.0,0.125,0.0,-0.0,0.0,0.25,1.6625974860000001,0.01,0.0,0.44999998807907104,-0.44999998807907104,90.4800033569336,0.05010986328125,-0.03350830078125,0.97467041015625,36.09000015258789,0.0,-41.0,2.538330078125,0.392791748046875,Closing,0.0,0.0,0.0,0.0,0.0,0.0,0.0,0.0,
0.6545059999999939,0.0,0.0,23961.0,0.0,0.0,0.0,0.0,0.25,0.808105386,0.01,0.0,-63345.0,0.0,0.0,-0.0,0.0,0.125,0.527343696,0.01,0.0,53788.0,0.125,0.0,0.0,0.0,0.0,3.352050438,0.01,0.0,-78849.0,0.125,0.0,-0.0,0.0,0.25,1.6625974860000001,0.01,0.0,0.44999998807907104,-0.44999998807907104,90.47000122070312,-0.014404296875,0.0047607421875,1.029052734375,36.09000015258789,0.0,-3.0,2.5384063720703125,0.3938751220703125,Closing,0.0,0.0,0.0,0.0,0.0,0.0,0.0,0.0,
0.7758070000000298,0.0,0.0,23961.0,0.0,0.0,0.0,0.0,0.125,0.808105386,0.01,0.0,-63345.0,0.0,0.0,-0.0,0.0,0.125,0.5285643990000001,0.01,0.0,53788.0,0.0,0.0,0.0,0.0,0.0,3.353271141,0.01,0.0,-78849.0,0.125,0.0,-0.0,0.0,0.25,1.6613767830000001,0.01,0.0,0.46000000834465027,-0.46000000834465027,90.47000122070312,0.00531005859375,0.0201416015625,1.03271484375,36.09000015258789,0.0,11.0,2.5382537841796875,0.3940277099609375,Closing,0.0,0.0,0.0,0.0,0.0,0.0,0.0,0.0,
0.9069050000000279,0.0,0.0,23961.0,0.0,0.0,0.0,0.0,0.125,0.808105386,0.01,0.0,-63345.0,0.0,0.0,-0.0,0.0,0.125,0.527343696,0.01,0.0,53788.0,0.0,0.0,0.0,0.0,0.0,3.353271141,0.01,0.0,-78849.0,0.125,0.0,-0.0,0.0,0.25,1.6625974860000001,0.01,0.0,0.46000000834465027,-0.46000000834465027,90.45999908447266,-0.00732421875,0.005615234375,1.01116943359375,36.09000015258789,0.0,-2.0,2.5382537841796875,0.3940582275390625,Closing,0.0,0.0,0.0,0.0,0.0,0.0,0.0,0.0,
1.0292079999999841,0.0,0.0,23961.0,0.0,0.0,0.0,0.0,0.25,0.808105386,0.01,0.0,-63345.0,0.0,0.0,-0.0,0.0,0.125,0.526122993,0.01,0.0,53788.0,0.125,0.0,0.0,0.0,0.0,3.353271141,0.01,0.0,-78849.0,0.125,0.0,-0.0,0.0,0.25,1.6625974860000001,0.01,0.0,0.46000000834465027,-0.46000000834465027,90.45999908447266,-0.0155029296875,0.01788330078125,1.0076904296875,36.09000015258789,0.0,9.0,2.5382537841796875,0.3940582275390625,Closing,0.0,0.0,0.0,0.0,0.0,0.0,0.0,0.0,
1.1513279999999795,0.0,0.0,23961.0,0.0,0.0,0.0,0.0,0.25,0.808105386,0.01,0.0,-63345.0,0.0,0.0,-0.0,0.0,0.125,0.527343696,0.01,0.0,53788.0,0.0,0.0,0.0,0.0,0.0,3.353271141,0.01,0.0,-78849.0,0.125,0.0,-0.0,0.0,0.25,1.6625974860000001,0.01,0.0,0.4699999988079071,-0.46000000834465027,90.45999908447266,0.0020751953125,0.00921630859375,1.01849365234375,36.09000015258789,0.0,0.0,2.5382537841796875,0.3940582275390625,Closing,0.0,0.0,0.0,0.0,0.0,0.0,0.0,0.0,
1.269933000000019,0.0,0.0,23961.0,0.0,0.0,0.0,0.0,0.125,0.808105386,0.01,0.0,-63345.0,0.0,0.0,-0.0,0.0,0.125,0.527343696,0.01,0.0,53788.0,0.125,0.0,0.0,0.0,0.0,3.353271141,0.01,0.0,-78849.0,0.125,0.0,-0.0,0.0,0.25,1.6625974860000001,0.01,0.0,0.4699999988079071,-0.46000000834465027,90.45999908447266,-0.006591796875,0.009033203125,1.0120849609375,36.09000015258789,0.0,0.0,2.5382537841796875,0.3940582275390625,Closing,0.0,0.0,0.0,0.0,0.0,0.0,0.0,0.0,
1.3886230000000215,0.0,0.0,23961.0,0.0,0.0,0.0,0.0,0.25,0.808105386,0.01,0.0,-63345.0,0.0,0.0,-0.0,0.0,0.125,0.527343696,0.01,0.0,53788.0,0.125,0.0,0.0,0.0,0.0,3.353271141,0.01,0.0,-78849.0,0.125,0.0,-0.0,0.0,0.25,1.6625974860000001,0.01,0.0,0.47999998927116394,-0.44999998807907104,90.44999694824219,-0.00335693359375,0.0079345703125,1.0169677734375,36.09000015258789,0.0,0.0,2.5382537841796875,0.3940582275390625,Closing,0.0,0.0,0.0,0.0,0.0,0.0,0.0,0.0,
1.522689000000013,0.0,0.0,23961.0,0.0,0.0,0.0,0.0,0.125,0.809326089,0.01,0.0,-63345.0,0.0,0.0,-0.0,0.0,0.125,0.527343696,0.01,0.0,53788.0,0.0,0.0,0.0,0.0,0.0,3.353271141,0.01,0.0,-78849.0,0.125,0.0,-0.0,0.0,0.25,1.6625974860000001,0.01,0.0,0.47999998927116394,-0.44999998807907104,90.44999694824219,-0.01104736328125,0.01214599609375,1.009765625,36.09000015258789,0.0,3.0,2.5382537841796875,0.3940582275390625,Closing,0.0,0.0,0.0,0.0,0.0,0.0,0.0,0.0,
1.636122000000032,0.0,0.0,23961.0,0.0,0.0,0.0,0.0,0.25,0.808105386,0.01,0.0,-63345.0,0.0,0.0,-0.0,0.0,0.125,0.527343696,0.01,0.0,53788.0,0.0,0.0,0.0,0.0,0.0,3.353271141,0.01,0.0,-78849.0,0.125,0.0,-0.0,0.0,0.25,1.6625974860000001,0.01,0.0,0.49000000953674316,-0.44999998807907104,90.45999908447266,-0.01129150390625,0.01025390625,1.01495361328125,36.09000015258789,0.0,1.0,2.5382537841796875,0.3940582275390625,Closing,0.0,0.0,0.0,0.0,0.0,0.0,0.0,0.0,
1.7551680000000052,0.0,0.0,23961.0,0.0,0.0,0.0,0.0,0.125,0.808105386,0.01,0.0,-63345.0,0.0,0.0,-0.0,0.0,0.125,0.527343696,0.01,0.0,53788.0,0.125,0.0,0.0,0.0,0.0,3.352050438,0.01,0.0,-78849.0,0.125,0.0,-0.0,0.0,0.25,1.6625974860000001,0.01,0.0,0.49000000953674316,-0.44999998807907104,90.44999694824219,-0.0098876953125,0.0074462890625,1.0140380859375,36.11000061035156,0.0,-1.0,2.5382537841796875,0.3940582275390625,Closing,0.0,0.0,0.0,0.0,0.0,0.0,0.0,0.0,
1.8713489999999875,0.0,0.0,23961.0,0.0,0.0,0.0,0.0,0.25,0.808105386,0.01,0.0,-63345.0,0.0,0.0,-0.0,0.0,0.125,0.527343696,0.01,0.0,53788.0,0.125,0.0,0.0,0.0,0.0,3.354491844,0.01,0.0,-78849.0,0.125,0.0,-0.0,0.0,0.25,1.6625974860000001,0.01,0.0,0.49000000953674316,-0.44999998807907104,90.44999694824219,-0.0064697265625,0.008056640625,1.0179443359375,36.11000061035156,0.0,0.0,2.5382537841796875,0.3940582275390625,Closing,0.0,0.0,0.0,0.0,0.0,0.0,0.0,0.0,
1.9874050000000278,0.0,0.0,23961.0,0.0,0.0,0.0,0.0,0.25,0.806884683,0.01,0.0,-63345.0,0.0,0.0,-0.0,0.0,0.125,0.527343696,0.01,0.0,53788.0,0.125,0.0,0.0,0.0,0.0,3.354491844,0.01,0.0,-78849.0,0.125,0.0,-0.0,0.0,0.25,1.6613767830000001,0.01,0.0,0.49000000953674316,-0.44999998807907104,90.44999694824219,-0.00665283203125,0.00469970703125,1.01495361328125,36.11000061035156,0.0,-4.0,2.5382537841796875,0.3940582275390625,Closing,0.0,0.0,0.0,0.0,0.0,0.0,0.0,0.0,
2.107869000000006,0.0,0.0,23954.0,6.75,-60.0,-1157.480263710022,0.0,2.0,0.9704588850000001,0.5498168668524864,0.0,-63361.0,7.75,-202.5,-1157.480263710022,0.0,3.0,0.357665979,4.41043958977222,0.0,53788.0,6.75,-45.0,-1157.480263710022,0.0,1.75,3.197021157,4.389674732977291,0.0,-78854.0,5.875,-172.5,-1157.480263710022,0.0,1.875,1.7614744290000002,0.552687206278561,0.0,0.5899999737739563,-0.4399999976158142,91.12999725341797,-0.19293212890625,-0.0556640625,0.98028564453125,36.11000061035156,0.0,-62.0,2.5380401611328125,0.3946685791015625,Closing,0.0,0.0,0.0,0.0,0.0,0.0,0.0,0.0,
2.225734999999986,0.0,0.0,23931.0,12.75,-202.5,-1240.1575148105621,0.0,0.625,1.3232420520000001,0.5498168668524864,0.0,-63388.0,15.0,-255.0,-1240.1575148105621,0.0,0.5,0.014648436,4.41043958977222,0.0,53772.0,15.0,-82.5,-1240.1575148105621,0.0,0.25,2.812499712,4.389674732977291,0.0,-78884.0,13.25,-180.0,-1240.1575148105621,0.0,0.75,2.126464626,0.552687206278561,0.0,0.44999998807907104,-0.4399999976158142,93.43000030517578,-0.015625,0.08123779296875,1.14404296875,36.119998931884766,0.0,72.0,2.534637451171875,0.3956451416015625,Closing,0.0,0.0,0.0,0.0,0.0,0.0,0.0,0.0,
2.3471959999999963,0.0,0.0,23846.0,11.875,-592.5,-1240.1575148105621,0.0,0.125,1.459960788,0.5498168668524864,0.0,-63472.0,14.25,-637.5,-1240.1575148105621,0.0,0.25,4.888915515,4.41043958977222,0.0,53742.0,20.0,-247.5,-1240.1575148105621,0.0,0.0,2.727050502,4.389674732977291,0.0,-78945.0,13.0,-622.5,-1240.1575148105621,0.0,0.375,2.332763433,0.552687206278561,0.0,0.6100000143051147,-0.6899999976158142,101.2699966430664,-0.08148193359375,-0.08441162109375,1.140869140625,36.119998931884766,0.0,-81.0,2.5322265625,0.39691162109375,Closing,0.0,0.0,0.0,0.0,0.0,0.0,0.0,0.0,
2.4624029999999912,0.0,0.0,23681.0,8.25,-1012.5,-1240.1575148105621,0.0,0.375,1.4477537580000002,0.5498168668524864,0.0,-63625.0,9.625,-1057.5,-1240.1575148105621,0.0,0.25,4.887694812,4.41043958977222,0.0,53660.0,19.0,-735.0,-1240.1575148105621,0.0,0.0,2.7502438590000002,4.389674732977291,0.0,-79094.0,8.125,-1072.5,-1240.1575148105621,0.0,0.5,2.3291013240000003,0.552687206278561,0.0,0.6399999856948853,-1.0299999713897705,114.91000366210938,-0.11163330078125,-0.008544921875,1.00567626953125,36.119998931884766,0.0,21.0,2.5318450927734375,0.4017333984375,Closing,0.0,0.0,0.0,0.0,0.0,0.0,0.0,0.0,
2.5717260000000244,0.0,0.0,23476.0,5.0,-1305.0,-1240.1575148105621,0.0,0.375,1.442870946,0.5498168668524864,0.0,-63816.0,7.0,-1245.0,-1240.1575148105621,0.0,0.25,4.887694812,4.41043958977222,0.0,53457.0,10.0,-1357.5,-1240.1575148105621,0.0,0.0,2.7990719790000003,4.389674732977291,0.0,-79294.0,5.0,-1320.0,-1240.1575148105621,0.0,0.5,2.211913836,0.552687206278561,0.0,0.30000001192092896,-1.2999999523162842,129.27999877929688,-0.04302978515625,0.0179443359375,0.910400390625,36.119998931884766,0.0,24.0,2.5337677001953125,0.4072265625,Closing,0.0,0.0,0.0,0.0,0.0,0.0,0.0,0.125,
2.687603999999992,0.0,0.0,23270.0,0.0,-1245.0,0.0,0.0,0.375,1.4282225100000001,0.5498168668524864,0.0,-64021.0,0.0,-1185.0,0.0,0.0,0.25,4.884032703,4.41043958977222,0.0,53232.0,0.0,-1327.5,0.0,0.0,0.0,2.808837603,4.389674732977291,0.0,-79503.0,0.125,-1200.0,0.0,0.0,0.25,2.150878686,0.552687206278561,0.0,-0.07999999821186066,-1.1799999475479126,144.44000244140625,-0.02618408203125,0.087158203125,1.11041259765625,36.119998931884766,0.0,54.0,2.5315093994140625,0.411895751953125,Closing,0.0,0.0,0.0,0.0,0.0,0.0,0.0,0.0,
2.815652000000002,0.0,0.0,23100.0,0.125,-1035.0,-1408.818826675415,0.0,2.125,1.225585812,4.932250999999998,0.0,-64163.0,54.25,-510.0,1408.818826675415,0.0,2.125,4.945067853,4.963769999999998,0.0,53060.0,0.125,-1012.5,-1408.818826675415,0.0,1.5,2.968749696,0.01,0.0,-79654.0,40.125,-570.0,1408.818826675415,0.0,1.375,1.9506833940000001,0.01,0.0,-0.23000000417232513,-1.8899999856948853,158.02999877929688,-0.1358642578125,0.2257080078125,1.68524169921875,36.119998931884766,0.0,161.0,2.5298614501953125,0.4176483154296875,Closing,0.0,0.0,0.0,0.0,0.0,0.0,0.0,0.0,
2.9311440000000295,0.0,0.0,23009.0,3.5,-540.0,-1547.7165484428406,0.0,0.5,0.925292874,4.932250999999998,0.0,-64142.0,45.0,202.5,1547.7165484428406,0.0,1.25,0.340576137,4.963769999999998,0.0,52955.0,4.625,-495.0,-1547.7165484428406,0.0,0.25,3.3239742690000003,0.01,0.0,-79634.0,34.0,300.0,1547.7165484428406,0.0,0.25,1.5539549190000002,0.01,0.0,0.15000000596046448,-1.9199999570846558,158.10000610351562,-0.13885498046875,-0.00634765625,0.89056396484375,36.119998931884766,0.0,97.0,2.5380096435546875,0.4181976318359375,Closing,0.0,0.0,0.0,0.0,0.0,0.0,0.0,0.0,
3.052558000000019,0.0,0.0,22950.0,10.125,-412.5,-1547.7165484428406,0.0,0.375,0.8544921000000001,4.932250999999998,0.0,-64038.0,43.25,750.0,1547.7165484428406,0.0,0.75,0.583496034,4.963769999999998,0.0,52902.0,10.625,-307.5,-1547.7165484428406,0.0,0.0,3.4301754300000002,0.01,0.0,-79517.0,30.0,810.0,1547.7165484428406,0.0,0.375,1.494140472,0.01,0.0,0.3499999940395355,-2.940000057220459,156.8300018310547,-0.0693359375,-0.2366943359375,0.3951416015625,36.119998931884766,0.0,-48.0,2.55865478515625,0.417327880859375,Closing,0.0,0.0,0.0,0.0,0.0,0.0,0.0,0.0,
3.1677210000000198,0.0,0.0,22793.0,7.875,-952.5,-1547.7165484428406,0.0,0.25,0.8007811680000001,4.932250999999998,0.0,-63875.0,38.0,1147.5,1547.7165484428406,0.0,0.25,0.5798339250000001,4.963769999999998,0.0,52817.0,14.5,-622.5,-1547.7165484428406,0.0,0.125,3.4289547270000003,0.01,0.0,-79353.0,27.0,1132.5,1547.7165484428406,0.0,0.375,1.522216641,0.01,0.0,0.05000000074505806,-4.309999942779541,157.02000427246094,-0.05609130859375,-0.2193603515625,0.4471435546875,36.119998931884766,0.0,-65.0,2.6012420654296875,0.4275970458984375,Closing,0.0,0.0,0.0,0.0,0.0,0.0,0.0,0.125,
3.2865659999999917,0.0,0.0,22567.0,4.875,-1380.0,-1547.7165484428406,0.0,0.25,0.826415931,4.932250999999998,0.0,-63636.0,28.5,1522.5,1547.7165484428406,0.0,0.25,0.56152338,4.963769999999998,0.0,52659.0,14.25,-1110.0,-1547.7165484428406,0.0,0.125,3.4155269940000004,0.01,0.0,-79124.0,19.125,1552.5,1547.7165484428406,0.0,0.25,1.5783689790000002,0.01,0.0,0.23000000417232513,-5.340000152587891,157.2100067138672,-0.28863525390625,0.01934814453125,0.9859619140625,36.08000183105469,0.0,186.0,2.66680908203125,0.442413330078125,Closing,0.0,0.0,0.0,0.0,0.0,0.0,0.0,0.0,
3.4123279999999796,0.0,0.0,22303.0,1.875,-1680.0,-1547.7165484428406,0.0,0.25,0.820312416,4.932250999999998,0.0,-63352.0,18.375,1852.5,1547.7165484428406,0.0,0.25,0.47607417,4.963769999999998,0.0,52408.0,7.75,-1642.5,-1547.7165484428406,0.0,0.125,3.394775043,0.01,0.0,-78848.0,12.625,1815.0,1547.7165484428406,0.0,0.25,1.59912093,0.01,0.0,0.5,-5.570000171661377,157.1199951171875,-0.17626953125,-0.19818115234375,0.94134521484375,36.08000183105469,0.0,-2.0,2.737274169921875,0.456878662109375,Closing,0.0,0.0,0.0,0.0,0.0,0.0,0.0,0.0,
3.5278570000000182,0.0,0.0,22043.0,0.0,-1605.0,-977.1307458043314,0.0,1.0,0.9704588850000001,0.39961665063524093,0.0,-63044.0,2.875,1897.5,977.1307458043314,0.0,1.75,0.6738280560000001,0.40217035627823683,0.0,52127.0,0.625,-1732.5,-977.1307458043314,0.0,0.875,3.507079719,0.4002768919907653,0.0,-78552.0,3.125,1822.5,977.1307458043314,0.0,1.375,1.8164060640000002,0.4017028642397811,0.0,0.4699999988079071,-4.960000038146973,156.57000732421875,-0.02398681640625,-0.02508544921875,0.92535400390625,36.08000183105469,0.0,-64.0,2.8087158203125,0.4677276611328125,Closing,0.0,0.0,0.0,0.0,0.0,0.0,0.0,0.0,
3.6476330000000305,0.0,0.0,21775.0,0.125,-1672.5,-1368.414755856267,0.0,0.75,1.519775235,0.8283608579393095,0.0,-62766.0,5.75,1702.5,1368.414755856267,0.0,1.5,1.199951049,0.8336544056280603,0.0,51870.0,1.0,-1620.0,-1368.414755856267,0.0,0.75,4.057616772,0.8297294648150235,0.0,-78271.0,5.125,1687.5,1368.414755856267,0.0,1.25,2.353515384,0.8326853466425566,0.0,-1.6100000143051147,-3.5799999237060547,156.47999572753906,0.37921142578125,-0.67779541015625,0.7816162109375,36.08000183105469,0.0,-653.0,2.8484649658203125,0.4893798828125,Closing,0.0,0.0,0.0,0.0,0.0,0.0,0.0,0.0,
3.7696429999999816,0.0,0.0,21543.0,0.625,-1440.0,-1524.778562813962,0.0,0.25,1.881103323,0.7544845412671013,0.0,-62513.0,9.625,1545.0,1524.778562813962,0.0,0.125,1.6882322490000001,0.7593059905924089,0.0,51608.0,3.625,-1575.0,-1524.778562813962,0.0,0.125,4.440917514000001,0.7557310906675242,0.0,-78036.0,10.375,1380.0,1524.778562813962,0.0,0.25,2.7453610470000003,0.7584233559083444,0.0,-3.319999933242798,-0.27000001072883606,156.61000061035156,0.50408935546875,-0.22705078125,1.0968017578125,35.939998626708984,0.0,-532.0,2.842803955078125,0.529266357421875,Closing,0.0,0.0,0.0,0.0,0.0,0.0,0.0,0.0,
3.8877270000000137,0.0,0.0,21311.0,0.75,-1455.0,-1547.843738733269,0.0,0.625,1.751708805,0.7379828911509613,0.0,-62278.0,11.375,1470.0,1547.843738733269,0.0,0.5,1.593017415,0.7426988885213682,0.0,51398.0,5.875,-1297.5,-1547.843738733269,0.0,0.625,4.318847214,0.7392021767428724,0.0,-77816.0,11.25,1402.5,1547.843738733269,0.0,0.875,2.542724349,0.741835558313327,0.0,-3.680000066757202,0.8600000143051147,156.85000610351562,-0.17938232421875,0.00775146484375,0.9364013671875,35.939998626708984,0.0,204.0,2.791351318359375,0.5691375732421875,Closing,0.0,0.0,0.0,0.0,0.0,0.0,0.0,0.0,
4.009608999999997,0.0,0.0,21082.0,3.125,-1432.5,-1839.3705091408435,0.0,0.5,1.5246580470000002,0.5865843937886628,0.0,-62020.0,14.125,1642.5,1839.3705091408435,0.0,0.5,1.1621092560000001,0.5903328959447423,0.0,51189.0,10.75,-1357.5,-1839.3705091408435,0.0,0.375,3.9929195130000004,0.5875535407815843,0.0,-77575.0,14.875,1567.5,1839.3705091408435,0.0,0.5,2.227782975,0.5896466794581602,0.0,-3.0899999141693115,-1.2999999523162842,157.4499969482422,-0.3046875,0.16192626953125,1.14593505859375,35.939998626708984,0.0,343.0,2.7456207275390625,0.60052490234375,Closing,0.0,0.0,0.0,0.0,0.0,0.0,0.0,0.0,
4.132498000000021,0.0,0.0,20823.0,5.125,-1612.5,-2002.1289134402725,0.0,0.5,1.220703,0.2697944125142793,0.0,-61747.0,16.25,1717.5,2002.1289134402725,0.0,0.25,0.8288573370000001,0.2715185036215724,0.0,50937.0,11.875,-1582.5,-2002.1289134402725,0.0,0.375,3.701171496,0.2702401632815413,0.0,-77301.0,13.25,1807.5,2002.1289134402725,0.0,0.5,1.932372849,0.2712028842907218,0.0,-1.809999942779541,-3.180000066757202,156.6699981689453,-0.2811279296875,0.06640625,1.1837158203125,35.939998626708984,0.0,238.0,2.742401123046875,0.5950775146484375,Closing,0.0,0.0,0.0,0.0,0.0,0.0,0.0,0.0,
4.249027000000002,0.0,0.0,20564.0,6.75,-1620.0,-2007.9218076063503,0.0,0.25,1.026611223,0.25257165213001426,0.0,-61447.0,13.75,1912.5,2007.9218076063503,0.0,0.25,0.721435473,0.25418568310765227,0.0,50674.0,13.75,-1672.5,-2007.9218076063503,0.0,0.125,3.5742183840000004,0.2529889476798976,0.0,-76990.0,11.5,1972.5,2007.9218076063503,0.0,0.25,1.773681459,0.2538902118445738,0.0,-0.3100000023841858,-4.389999866485596,155.50999450683594,-0.2252197265625,0.29876708984375,0.79791259765625,35.849998474121094,0.0,274.0,2.7724151611328125,0.576507568359375,Closing,0.0,0.0,0.0,0.0,0.0,0.0,0.0,0.0,
4.372917000000016,0.0,0.0,20267.0,5.625,-1867.5,-2007.9218076063503,0.0,0.25,0.9838866180000001,0.25257165213001426,0.0,-61125.0,10.875,2040.0,2007.9218076063503,0.0,0.25,0.638427669,0.25418568310765227,0.0,50380.0,12.375,-1897.5,-2007.9218076063503,0.0,0.0,3.557128542,0.2529889476798976,0.0,-76673.0,10.5,2010.0,2007.9218076063503,0.0,0.375,1.7639158350000002,0.2538902118445738,0.0,0.7699999809265137,-4.460000038146973,154.91000366210938,-0.17376708984375,0.07806396484375,0.906982421875,35.849998474121094,0.0,120.0,2.8248443603515625,0.5406036376953125,Closing,0.0,0.0,0.0,0.0,0.0,0.0,0.0,0.0,
4.49099099999998,0.0,0.0,19948.0,2.25,-1987.5,-1765.092195190641,0.0,0.375,1.014404193,0.28886214234650415,0.0,-60782.0,5.0,2152.5,1765.092195190641,0.0,0.25,0.7104491460000001,0.2907080836549695,0.0,50049.0,5.625,-2092.5,-1765.092195190641,0.0,0.0,3.5803218990000003,0.28933939656531454,0.0,-76326.0,4.75,2175.0,1765.092195190641,0.0,0.25,1.8640134810000002,0.2903701579165309,0.0,0.5400000214576721,-4.21999979019165,154.0399932861328,0.148193359375,-0.01336669921875,1.13739013671875,35.849998474121094,0.0,-218.0,2.8795166015625,0.4993743896484375,Closing,0.0,0.0,0.0,0.0,0.0,0.0,0.0,0.0,
4.612603000000003,0.0,0.0,19634.0,0.0,-1957.5,0.0,0.0,0.25,1.070556531,0.28886214234650415,0.0,-60458.0,0.125,1935.0,0.0,0.0,0.25,0.8142089010000001,0.2907080836549695,0.0,49724.0,0.0,-1867.5,0.0,0.0,0.0,3.604735959,0.28933939656531454,0.0,-75992.0,0.125,1927.5,0.0,0.0,0.25,1.903075977,0.2903701579165309,0.0,-0.11999999731779099,-3.119999885559082,153.80999755859375,0.2945556640625,-0.009521484375,0.9998779296875,35.849998474121094,0.0,-316.0,2.9264068603515625,0.458099365234375,Closing,0.0,0.0,0.0,0.0,0.0,0.0,0.0,0.0,
4.729967000000004,0.0,0.0,19331.0,0.0,-1927.5,0.0,0.0,0.25,1.091308482,0.28886214234650415,0.0,-60168.0,0.125,1837.5,0.0,0.0,0.125,0.838622961,0.2907080836549695,0.0,49440.0,0.125,-1822.5,0.0,0.0,0.0,3.619384395,0.28933939656531454,0.0,-75701.0,0.125,1830.0,0.0,0.0,0.125,1.906738086,0.2903701579165309,0.0,-0.009999999776482582,-2.559999942779541,154.3000030517578,-0.07818603515625,0.156494140625,1.42156982421875,35.849998474121094,0.0,81.0,2.944732666015625,0.42645263671875,Closing,0.0,0.0,0.0,0.0,0.0,0.0,0.0,0.0,
4.846722999999998,0.0,0.0,19031.0,0.0,-1882.5,0.0,0.0,0.25,1.104736215,0.28886214234650415,0.0,-59886.0,0.0,1740.0,0.0,0.0,0.25,0.833740149,0.2907080836549695,0.0,49152.0,0.0,-1747.5,0.0,0.0,0.0,3.6206050980000004,0.28933939656531454,0.0,-75435.0,0.125,1620.0,0.0,0.0,0.125,1.906738086,0.2903701579165309,0.0,0.12999999523162842,-1.899999976158142,155.47999572753906,0.027099609375,-0.30035400390625,1.10064697265625,35.79999923706055,0.0,-183.0,2.958892822265625,0.3802337646484375,Closing,0.0,0.0,0.0,0.0,0.0,0.0,0.0,0.0,
4.9663690000000065,0.0,0.0,18757.0,0.0,-1717.5,0.0,0.0,0.25,1.090087779,0.28886214234650415,0.0,-59635.0,0.125,1537.5,0.0,0.0,0.25,0.8288573370000001,0.2907080836549695,0.0,48886.0,0.125,-1642.5,0.0,0.0,0.0,3.619384395,0.28933939656531454,0.0,-75193.0,0.125,1447.5,0.0,0.0,0.125,1.907958789,0.2903701579165309,0.0,0.5400000214576721,-1.350000023841858,156.72999572753906,0.12139892578125,-0.0631103515625,0.9383544921875,35.79999923706055,0.0,-160.0,2.96771240234375,0.33465576171875,Closing,0.0,0.0,0.0,0.0,0.0,0.0,0.0,0.0,
5.083646000000008,0.0,0.0,18515.0,0.0,-1500.0,0.0,0.0,0.125,1.090087779,0.28886214234650415,0.0,-59410.0,0.0,1372.5,0.0,0.0,0.25,0.819091713,0.2907080836549695,0.0,48652.0,0.125,-1402.5,0.0,0.0,0.0,3.6206050980000004,0.28933939656531454,0.0,-74974.0,0.125,1327.5,0.0,0.0,0.125,1.907958789,0.2903701579165309,0.0,0.7400000095367432,-0.8899999856948853,157.6699981689453,0.1546630859375,0.1953125,1.04595947265625,35.79999923706055,0.0,-89.0,2.9689178466796875,0.3302764892578125,Closing,0.0,0.0,0.0,0.0,0.0,0.0,0.0,0.0,
5.207770000000019,0.0,0.0,18387.0,14.75,-667.5,452.81249999999994,0.0,0.375,0.955810449,0.01,0.0,-59279.0,11.0,270.0,-452.81249999999994,0.0,0.5,0.819091713,0.01,0.0,48462.0,23.375,-982.5,452.81249999999994,0.0,0.25,3.513183234,0.01,0.0,-74807.0,21.25,817.5,-452.81249999999994,0.0,0.5,1.8395994210000002,0.01,0.0,1.9500000476837158,1.9500000476837158,158.1199951171875,0.452392578125,0.3021240234375,0.98321533203125,35.79999923706055,0.0,-288.0,2.9454498291015625,0.3095703125,Closing,0.0,0.0,0.0,0.0,0.0,0.0,0.0,0.0,
5.331,0.0,0.0,18345.0,0.0,-240.0,0.0,0.0,0.25,0.808105386,0.01,0.0,-59302.0,0.0,7.5,0.0,0.0,0.25,0.599365173,0.01,0.0,48443.0,0.125,7.5,0.0,0.0,0.125,3.3752437950000003,0.01,0.0,-74741.0,0.125,397.5,0.0,0.0,0.5,1.646728347,0.01,0.0,2.309999942779541,3.369999885559082,157.9600067138672,0.0418701171875,0.0887451171875,0.8145751953125,35.790000915527344,0.0,26.0,2.8902435302734375,0.267913818359375,Closing,0.0,0.0,0.0,0.0,0.0,0.0,0.0,0.0,
5.446910000000033,0.0,0.0,18342.0,0.0,0.0,0.0,0.0,0.125,0.79345695,0.01,0.0,-59297.0,0.125,0.0,0.0,0.0,0.25,0.522460884,0.01,0.0,48435.0,0.0,-30.0,0.0,0.0,0.125,3.359374656,0.01,0.0,-74727.0,0.125,-7.5,0.0,0.0,0.25,1.600341633,0.01,0.0,2.2100000381469727,2.9800000190734863,158.05999755859375,-0.0048828125,0.0576171875,0.94586181640625,35.790000915527344,0.0,58.0,2.842681884765625,0.25250244140625,Closing,0.0,0.0,0.0,0.0,0.0,0.0,0.0,0.0,
5.568798999999999,0.0,0.0,18344.0,0.0,7.5,0.0,0.0,0.25,0.79345695,0.01,0.0,-59297.0,0.0,0.0,0.0,0.0,0.0,0.522460884,0.01,0.0,48436.0,0.125,7.5,0.0,0.0,0.0,3.3605953590000004,0.01,0.0,-74728.0,0.125,-7.5,0.0,0.0,0.25,1.638183426,0.01,0.0,1.9900000095367432,2.5399999618530273,158.0800018310547,-0.0054931640625,0.02093505859375,0.9031982421875,35.790000915527344,0.0,38.0,2.7874755859375,0.2566680908203125,Closing,0.0,0.0,0.0,0.0,0.0,0.0,0.0,0.0,
5.686834000000031,0.0,0.0,18344.0,0.0,0.0,0.0,0.0,0.125,0.79345695,0.01,0.0,-59297.0,0.0,0.0,0.0,0.0,0.0,0.522460884,0.01,0.0,48436.0,0.125,0.0,0.0,0.0,0.0,3.359374656,0.01,0.0,-74728.0,0.125,0.0,0.0,0.0,0.125,1.638183426,0.01,0.0,1.840000033378601,2.259999990463257,158.0800018310547,-0.0233154296875,-0.0078125,1.051513671875,35.790000915527344,0.0,44.0,2.742767333984375,0.2652587890625,Closing,0.0,0.0,0.0,0.0,0.0,0.0,0.0,0.0,
5.800243000000017,0.0,0.0,18344.0,0.0,0.0,0.0,0.0,0.125,0.79345695,0.01,0.0,-59297.0,0.0,0.0,0.0,0.0,0.0,0.522460884,0.01,0.0,48436.0,0.0,0.0,0.0,0.0,0.0,3.359374656,0.01,0.0,-74728.0,0.125,0.0,0.0,0.0,0.125,1.639404129,0.01,0.0,1.75,2.0399999618530273,158.0800018310547,-0.02532958984375,-0.01300048828125,1.0120849609375,35.75,0.0,40.0,2.7064361572265625,0.2760009765625,Closing,0.0,0.0,0.0,0.0,0.0,0.0,0.0,0.125,
5.9171500000000234,0.0,0.0,18344.0,0.0,0.0,0.0,0.0,0.125,0.794677653,0.01,0.0,-59297.0,0.0,0.0,0.0,0.0,0.0,0.522460884,0.01,0.0,48436.0,0.125,0.0,0.0,0.0,0.0,3.3618160620000004,0.01,0.0,-74728.0,0.125,0.0,0.0,0.0,0.125,1.639404129,0.01,0.0,1.6200000047683716,1.7999999523162842,158.08999633789062,-0.02178955078125,0.00543212890625,0.9959716796875,35.75,0.0,40.0,2.6678466796875,0.291778564453125,Closing,0.0,0.0,0.0,0.0,0.0,0.0,0.0,0.0,
6.03766399999999,0.0,0.0,18344.0,0.0,0.0,0.0,0.0,0.125,0.794677653,0.01,0.0,-59297.0,0.125,0.0,0.0,0.0,0.0,0.522460884,0.01,0.0,48436.0,0.125,0.0,0.0,0.0,0.0,3.3605953590000004,0.01,0.0,-74728.0,0.125,0.0,0.0,0.0,0.125,1.638183426,0.01,0.0,1.4900000095367432,1.5700000524520874,158.10000610351562,-0.0123291015625,0.0081787109375,1.0203857421875,35.75,0.0,30.0,2.632110595703125,0.3109893798828125,Closing,0.0,0.0,0.0,0.0,0.0,0.0,0.0,0.125,
6.155302000000026,0.0,0.0,18344.0,0.0,0.0,0.0,0.0,0.25,0.7922362470000001,0.01,0.0,-59297.0,0.125,0.0,0.0,0.0,0.0,0.522460884,0.01,0.0,48436.0,0.125,0.0,0.0,0.0,0.0,3.359374656,0.01,0.0,-74728.0,0.125,0.0,0.0,0.0,0.125,1.638183426,0.01,0.0,1.3799999952316284,1.3799999952316284,158.08999633789062,-0.00396728515625,0.01617431640625,1.03216552734375,35.75,0.0,23.0,2.5989532470703125,0.3332672119140625,Closing,0.0,0.0,0.0,0.0,0.0,0.0,0.0,0.0,
6.274038000000001,0.0,0.0,18344.0,0.0,0.0,0.0,0.0,0.25,0.79345695,0.01,0.0,-59297.0,0.125,0.0,0.0,0.0,0.0,0.522460884,0.01,0.0,48436.0,0.125,0.0,0.0,0.0,0.0,3.3605953590000004,0.01,0.0,-74728.0,0.125,0.0,0.0,0.0,0.125,1.638183426,0.01,0.0,1.2799999713897705,1.190000057220459,158.10000610351562,-0.004150390625,0.0062255859375,1.023193359375,35.779998779296875,0.0,17.0,2.568115234375,0.3582916259765625,Closing,0.0,0.0,0.0,0.0,0.0,0.0,0.0,0.0,
6.3929100000000325,0.0,0.0,18344.0,0.0,0.0,0.0,0.0,0.25,0.794677653,0.01,0.0,-59297.0,0.125,0.0,0.0,0.0,0.0,0.522460884,0.01,0.0,48436.0,0.125,0.0,0.0,0.0,0.0,3.359374656,0.01,0.0,-74728.0,0.125,0.0,0.0,0.0,0.125,1.638183426,0.01,0.0,1.190000057220459,1.0199999809265137,158.10000610351562,-0.01556396484375,0.00604248046875,1.021484375,35.779998779296875,0.0,25.0,2.569061279296875,0.3858489990234375,Closing,0.0,0.0,0.0,0.0,0.0,0.0,0.0,0.0,
6.512749000000011,0.0,0.0,18344.0,0.0,0.0,0.0,0.0,0.25,0.7922362470000001,0.01,0.0,-59297.0,0.125,0.0,0.0,0.0,0.0,0.523681587,0.01,0.0,48436.0,0.0,0.0,0.0,0.0,0.0,3.359374656,0.01,0.0,-74728.0,0.125,0.0,0.0,0.0,0.125,1.638183426,0.01,0.0,1.1200000047683716,0.8700000047683716,158.10000610351562,-0.01776123046875,0.006591796875,1.0240478515625,35.779998779296875,0.0,25.0,2.5720672607421875,0.4156646728515625,Closing,0.0,0.0,0.0,0.0,0.0,0.0,0.0,0.0,
6.634689000000013,0.0,0.0,18344.0,0.0,0.0,0.0,0.0,0.125,0.79345695,0.01,0.0,-59297.0,0.125,0.0,0.0,0.0,0.0,0.522460884,0.01,0.0,48436.0,0.125,0.0,0.0,0.0,0.0,3.3605953590000004,0.01,0.0,-74728.0,0.125,0.0,0.0,0.0,0.125,1.639404129,0.01,0.0,1.0399999618530273,0.7300000190734863,158.11000061035156,-0.0152587890625,0.0020751953125,1.013916015625,35.779998779296875,0.0,20.0,2.5732879638671875,0.4475860595703125,Closing,0.0,0.0,0.0,0.0,0.0,0.0,0.0,0.0,
6.750960000000021,0.0,0.0,18344.0,0.0,0.0,0.0,0.0,0.25,0.79345695,0.01,0.0,-59297.0,0.0,0.0,0.0,0.0,0.0,0.522460884,0.01,0.0,48436.0,0.125,0.0,0.0,0.0,0.0,3.3605953590000004,0.01,0.0,-74728.0,0.125,0.0,0.0,0.0,0.125,1.638183426,0.01,0.0,0.9800000190734863,0.6000000238418579,158.10000610351562,-0.0128173828125,0.0020751953125,1.01971435546875,35.779998779296875,0.0,16.0,2.5735321044921875,0.46026611328125,Closing,0.0,0.0,0.0,0.0,0.0,0.0,0.0,0.0,
6.873232000000018,0.0,0.0,18344.0,0.0,0.0,0.0,0.0,0.125,0.79345695,0.01,0.0,-59297.0,0.125,0.0,0.0,0.0,0.0,0.522460884,0.01,0.0,48436.0,0.125,0.0,0.0,0.0,0.0,3.3605953590000004,0.01,0.0,-74728.0,0.125,0.0,0.0,0.0,0.125,1.638183426,0.01,0.0,0.9100000262260437,0.49000000953674316,158.10000610351562,-0.01123046875,0.00390625,1.0211181640625,35.810001373291016,0.0,13.0,2.5735321044921875,0.4605255126953125,Closing,0.0,0.0,0.0,0.0,0.0,0.0,0.0,0.0,
6.994978000000002,0.0,0.0,18344.0,0.0,0.0,0.0,0.0,0.25,0.79345695,0.01,0.0,-59297.0,0.125,0.0,0.0,0.0,0.0,0.522460884,0.01,0.0,48436.0,0.125,0.0,0.0,0.0,0.0,3.3605953590000004,0.01,0.0,-74728.0,0.125,0.0,0.0,0.0,0.125,1.638183426,0.01,0.0,0.8600000143051147,0.38999998569488525,158.10000610351562,-0.0146484375,0.00592041015625,1.02178955078125,35.810001373291016,0.0,16.0,2.5735321044921875,0.460693359375,Closing,0.0,0.0,0.0,0.0,0.0,0.0,0.0,0.0,
7.129511999999988,0.0,0.0,18344.0,0.0,0.0,0.0,0.0,0.25,0.794677653,0.01,0.0,-59297.0,0.0,0.0,0.0,0.0,0.0,0.522460884,0.01,0.0,48436.0,0.125,0.0,0.0,0.0,0.0,3.3605953590000004,0.01,0.0,-74728.0,0.125,0.0,0.0,0.0,0.125,1.639404129,0.01,0.0,0.8100000023841858,0.27000001072883606,158.10000610351562,-0.01190185546875,0.00537109375,1.0162353515625,35.810001373291016,0.0,12.0,2.5735321044921875,0.460845947265625,Closing,0.0,0.0,0.0,0.0,0.0,0.0,0.0,0.0,
7.251118000000017,0.0,0.0,18344.0,0.0,0.0,0.0,0.0,0.25,0.79345695,0.01,0.0,-59297.0,0.0,0.0,0.0,0.0,0.0,0.522460884,0.01,0.0,48436.0,0.125,0.0,0.0,0.0,0.0,3.3605953590000004,0.01,0.0,-74728.0,0.125,0.0,0.0,0.0,0.125,1.638183426,0.01,0.0,0.7599999904632568,0.18000000715255737,158.10000610351562,-0.0147705078125,0.00433349609375,1.0213623046875,35.810001373291016,0.0,13.0,2.5735321044921875,0.460845947265625,Closing,0.0,0.0,0.0,0.0,0.0,0.0,0.0,0.125,
7.3730840000000315,0.0,0.0,18344.0,0.0,0.0,0.0,0.0,0.125,0.79345695,0.01,0.0,-59297.0,0.0,0.0,0.0,0.0,0.0,0.522460884,0.01,0.0,48436.0,0.125,0.0,0.0,0.0,0.0,3.3618160620000004,0.01,0.0,-74728.0,0.125,0.0,0.0,0.0,0.125,1.638183426,0.01,0.0,0.7200000286102295,0.10000000149011612,158.10000610351562,-0.014404296875,0.0030517578125,1.01544189453125,35.869998931884766,0.0,11.0,2.5735321044921875,0.460845947265625,Closing,0.0,0.0,0.0,0.0,0.0,0.0,0.0,0.0,
7.492289999999979,0.0,0.0,18344.0,0.0,0.0,0.0,0.0,0.25,0.79345695,0.01,0.0,-59297.0,0.125,0.0,0.0,0.0,0.0,0.522460884,0.01,0.0,48436.0,0.125,0.0,0.0,0.0,0.0,3.355712547,0.01,0.0,-74728.0,0.125,0.0,0.0,0.0,0.125,1.639404129,0.01,0.0,0.6800000071525574,0.029999999329447746,158.10000610351562,-0.0140380859375,0.00628662109375,1.0223388671875,35.869998931884766,0.0,11.0,2.5735321044921875,0.460845947265625,Closing,0.0,0.0,0.0,0.0,0.0,0.0,0.0,0.0,
7.622586999999999,0.0,0.0,18344.0,0.0,0.0,0.0,0.0,0.25,0.794677653,0.01,0.0,-59297.0,0.125,0.0,0.0,0.0,0.0,0.522460884,0.01,0.0,48436.0,0.125,0.0,0.0,0.0,0.0,3.355712547,0.01,0.0,-74728.0,0.125,0.0,0.0,0.0,0.125,1.638183426,0.01,0.0,0.6299999952316284,-0.03999999910593033,158.10000610351562,-0.01251220703125,0.00262451171875,1.0206298828125,35.869998931884766,0.0,7.0,2.5735321044921875,0.460845947265625,Closing,0.0,0.0,0.0,0.0,0.0,0.0,0.0,0.0,
7.748356000000029,0.0,0.0,18344.0,0.0,0.0,0.0,0.0,0.25,0.79345695,0.01,0.0,-59297.0,0.125,0.0,0.0,0.0,0.0,0.522460884,0.01,0.0,48436.0,0.125,0.0,0.0,0.0,0.0,3.355712547,0.01,0.0,-74728.0,0.125,0.0,0.0,0.0,0.125,1.639404129,0.01,0.0,0.6000000238418579,-0.10000000149011612,158.10000610351562,-0.0125732421875,0.00604248046875,1.0196533203125,35.869998931884766,0.0,8.0,2.5735321044921875,0.460845947265625,Closing,0.0,0.0,0.0,0.0,0.0,0.0,0.0,0.0,
7.872066999999981,0.0,0.0,18344.0,0.0,0.0,0.0,0.0,0.125,0.79345695,0.01,0.0,-59297.0,0.0,0.0,0.0,0.0,0.0,0.523681587,0.01,0.0,48436.0,0.0,0.0,0.0,0.0,0.0,3.359374656,0.01,0.0,-74728.0,0.125,0.0,0.0,0.0,0.125,1.638183426,0.01,0.0,0.5699999928474426,-0.1599999964237213,158.10000610351562,-0.01171875,0.0029296875,1.01904296875,35.81999969482422,0.0,5.0,2.5735321044921875,0.460845947265625,Closing,0.0,0.0,0.0,0.0,0.0,0.0,0.0,0.0,
8.007520000000019,0.0,0.0,18344.0,0.375,0.0,-374.0625,0.0,4.0,0.267333957,3.6991882500000015,0.0,-59297.0,0.5,-52.5,-374.0625,0.0,8.375,0.766601484,1.2409425000000012,0.0,48436.0,0.875,-7.5,-374.0625,0.0,2.625,2.7929684640000003,3.7053000000000016,0.0,-74728.0,0.375,-127.5,-374.0625,0.0,1.5,2.260741956,1.2395000000000012,0.0,0.5199999809265137,-0.23999999463558197,158.1999969482422,-0.066162109375,0.00372314453125,1.04974365234375,35.81999969482422,0.0,55.0,2.5731201171875,0.461822509765625,Closing,0.0,0.0,0.0,0.0,0.0,0.0,0.0,0.0,
8.132527000000001,0.0,0.0,18344.0,2.0,0.0,-413.4375,0.0,0.75,4.420165563,3.6991882500000015,0.0,-59312.0,1.5,-90.0,-413.4375,0.0,1.5,1.74560529,1.2409425000000012,0.0,48435.0,1.875,-37.5,-413.4375,0.0,0.5,2.025146277,3.7053000000000016,0.0,-74780.0,0.75,-135.0,-413.4375,0.0,0.75,2.979736023,1.2395000000000012,0.0,0.7799999713897705,-0.2800000011920929,158.85000610351562,0.0159912109375,0.07611083984375,1.03143310546875,35.81999969482422,0.0,2.0,2.57342529296875,0.463287353515625,Closing,0.0,0.0,0.0,0.0,0.0,0.0,0.0,0.0,
8.258919999999984,0.0,0.0,18341.0,2.5,-67.5,-413.4375,0.0,0.25,4.306640184,3.6991882500000015,0.0,-59331.0,2.0,-172.5,-413.4375,0.0,0.25,2.352294681,1.2409425000000012,0.0,48406.0,3.25,-97.5,-413.4375,0.0,0.0,1.906738086,3.7053000000000016,0.0,-74806.0,1.625,-172.5,-413.4375,0.0,0.25,3.0493160940000004,1.2395000000000012,0.0,0.949999988079071,-0.3499999940395355,158.8699951171875,-0.05572509765625,0.03350830078125,1.096923828125,35.81999969482422,0.0,51.0,2.57440185546875,0.461181640625,Closing,0.0,0.0,0.0,0.0,0.0,0.0,0.0,0.0,
8.390689000000012,0.0,0.0,18313.0,0.0,-112.5,0.0,0.0,0.375,4.403075721,3.6991882500000015,0.0,-59369.0,0.0,-112.5,0.0,0.0,2.375,2.18505837,1.2409425000000012,0.0,48402.0,0.125,-30.0,0.0,0.0,0.25,2.0080564350000003,3.7053000000000016,0.0,-74810.0,0.125,-37.5,0.0,0.0,0.5,2.9577633690000003,1.2395000000000012,0.0,0.3799999952316284,-0.33000001311302185,158.3699951171875,0.052734375,-0.10125732421875,0.9578857421875,35.849998474121094,0.0,-93.0,2.5754547119140625,0.4644927978515625,Closing,0.0,0.0,0.0,0.0,0.0,0.0,0.0,0.0,
8.51208600000001,0.0,0.0,18312.0,0.0,0.0,0.0,0.0,0.375,4.476317901,3.6991882500000015,0.0,-59369.0,0.125,0.0,0.0,0.0,0.5,1.730956854,1.2409425000000012,0.0,48403.0,0.0,0.0,0.0,0.0,0.125,2.089843536,3.7053000000000016,0.0,-74809.0,0.125,7.5,0.0,0.0,0.5,2.874755565,1.2395000000000012,0.0,0.20999999344348907,-0.4099999964237213,158.32000732421875,-0.040283203125,0.0748291015625,1.097900390625,35.849998474121094,0.0,56.0,2.5726318359375,0.473114013671875,Closing,0.0,0.0,0.0,0.0,0.0,0.0,0.0,0.0,
8.629892999999981,0.0,0.0,18312.0,0.0,0.0,0.0,0.0,0.25,4.4958491490000005,3.6991882500000015,0.0,-59366.0,0.125,30.0,0.0,0.0,0.25,1.612548663,1.2409425000000012,0.0,48404.0,0.125,7.5,0.0,0.0,0.0,2.109374784,3.7053000000000016,0.0,-74808.0,0.125,7.5,0.0,0.0,0.25,2.860107129,1.2395000000000012,0.0,0.46000000834465027,-0.4099999964237213,158.3800048828125,-0.02618408203125,0.0130615234375,1.0435791015625,35.849998474121094,0.0,19.0,2.5721282958984375,0.4802703857421875,Closing,0.0,0.0,0.0,0.0,0.0,0.0,0.0,0.0,
8.74987599999999,0.0,0.0,18312.0,2.375,-52.5,-728.4375,0.0,0.25,4.4982905550000005,3.6991882500000015,0.0,-59363.0,3.0,-75.0,-728.4375,0.0,0.25,1.697997873,1.2409425000000012,0.0,48393.0,3.125,-30.0,-728.4375,0.0,0.0,2.1191404080000003,3.7053000000000016,0.0,-74819.0,3.625,-45.0,-728.4375,0.0,0.125,2.861327832,1.2395000000000012,0.0,0.7699999809265137,-0.4300000071525574,158.3699951171875,-0.02734375,0.1162109375,1.0338134765625,35.849998474121094,0.0,55.0,2.5721588134765625,0.481781005859375,Closing,0.0,0.0,0.0,0.0,0.0,0.0,0.0,0.0,
8.87032799999998,0.0,0.0,18292.0,7.5,-210.0,-1161.5625,0.0,0.125,4.520263209,3.6991882500000015,0.0,-59380.0,11.125,-217.5,-1161.5625,0.0,0.25,1.697997873,1.2409425000000012,0.0,48368.0,10.5,-172.5,-1161.5625,0.0,0.0,2.153320092,3.7053000000000016,0.0,-74863.0,10.375,-240.0,-1161.5625,0.0,0.125,2.863769238,1.2395000000000012,0.0,1.7300000190734863,-0.49000000953674316,158.3800048828125,-0.024169921875,0.23980712890625,1.08294677734375,35.869998931884766,0.0,89.0,2.5761871337890625,0.4722900390625,Closing,0.0,0.0,0.0,0.0,0.0,0.0,0.0,0.0,
8.988071999999985,0.0,0.0,18236.0,8.0,-540.0,-1161.5625,0.0,0.125,4.526366724,3.6991882500000015,0.0,-59429.0,11.875,-585.0,-1161.5625,0.0,0.25,1.7065427940000002,1.2409425000000012,0.0,48273.0,14.0,-442.5,-1161.5625,0.0,0.125,2.155761498,3.7053000000000016,0.0,-74963.0,10.75,-540.0,-1161.5625,0.0,0.125,2.860107129,1.2395000000000012,0.0,2.7200000286102295,-0.5199999809265137,158.5399932861328,-0.0628662109375,0.2130126953125,0.89794921875,35.869998931884766,0.0,113.0,2.587554931640625,0.4462738037109375,Closing,0.0,0.0,0.0,0.0,0.0,0.0,0.0,0.0,
9.111206999999995,0.0,0.0,18127.0,0.0,-660.0,0.0,0.0,0.25,4.511718288,3.6991882500000015,0.0,-59537.0,0.125,-660.0,0.0,0.0,0.25,1.746825993,1.2409425000000012,0.0,48188.0,0.0,-637.5,0.0,0.0,0.125,2.1191404080000003,3.7053000000000016,0.0,-75075.0,0.125,-615.0,0.0,0.0,0.125,2.8552243170000002,1.2395000000000012,0.0,2.3299999237060547,-0.4000000059604645,158.57000732421875,0.02850341796875,0.06805419921875,0.64849853515625,35.869998931884766,0.0,-15.0,2.601287841796875,0.4143218994140625,Closing,0.0,0.0,0.0,0.0,0.0,0.0,0.0,0.0,
9.229201000000002,0.0,0.0,18030.0,0.0,-705.0,0.0,0.0,0.125,4.511718288,3.6991882500000015,0.0,-59746.0,0.0,-720.0,0.0,0.0,0.0,1.756591617,1.2409425000000012,0.0,48101.0,0.125,-442.5,0.0,0.0,0.0,2.1142575960000003,3.7053000000000016,0.0,-75168.0,0.125,-630.0,0.0,0.0,0.125,2.8552243170000002,1.2395000000000012,0.0,1.8799999952316284,-0.5600000023841858,158.39999389648438,-0.062744140625,-0.1424560546875,1.10821533203125,35.869998931884766,0.0,-17.0,2.6093597412109375,0.39617919921875,Closing,0.0,0.0,0.0,0.0,0.0,0.0,0.0,0.0,
9.349489000000002,0.0,0.0,17926.0,0.0,-570.0,0.0,0.0,0.25,4.511718288,3.6991882500000015,0.0,-59746.0,0.125,-570.0,0.0,0.0,0.0,1.751708805,1.2409425000000012,0.0,48042.0,0.125,-397.5,0.0,0.0,0.0,2.1142575960000003,3.7053000000000016,0.0,-75253.0,0.125,-555.0,0.0,0.0,0.125,2.8552243170000002,1.2395000000000012,0.0,1.2899999618530273,-0.49000000953674316,158.33999633789062,0.00177001953125,-0.04498291015625,1.02581787109375,35.91999816894531,0.0,-34.0,2.6068115234375,0.388397216796875,Closing,0.0,0.0,0.0,0.0,0.0,0.0,0.0,0.0,
9.470955000000016,0.0,0.0,17843.0,2.5,-285.0,238.1102353334427,0.0,0.125,4.510497585,3.6991882499999984,0.0,-59871.0,4.25,-322.5,238.1102353334427,0.0,0.0,1.749267399,1.2409424999999985,0.0,48003.0,2.875,-277.5,238.1102353334427,0.0,0.0,2.1118161900000003,3.7052999999999985,0.0,-75296.0,3.5,-330.0,238.1102353334427,0.0,0.125,2.833251663,1.2394999999999985,0.0,-0.14000000059604645,-0.550000011920929,158.33999633789062,-0.05029296875,-0.359130859375,1.20953369140625,35.91999816894531,0.0,-95.0,2.5988616943359375,0.39398193359375,Closing,0.0,0.0,0.0,0.0,0.0,0.0,0.0,0.0,
9.590776000000012,0.0,0.0,17821.0,9.25,37.5,1071.4960777759552,0.0,0.125,4.547118675,3.6991882499999984,0.0,-59871.0,14.0,45.0,1071.4960777759552,0.0,0.0,1.743163884,1.2409424999999985,0.0,48034.0,11.0,0.0,1071.4960777759552,0.0,0.0,2.1142575960000003,3.7052999999999985,0.0,-75265.0,11.375,112.5,1071.4960777759552,0.0,0.125,2.7978512760000003,1.2394999999999985,0.0,-1.649999976158142,-0.550000011920929,158.27999877929688,-0.0040283203125,-0.2921142578125,1.08746337890625,35.91999816894531,0.0,-102.0,2.5812530517578125,0.4246826171875,Closing,0.0,0.0,0.0,0.0,0.0,0.0,0.0,0.125,
9.710476000000025,0.0,0.0,17868.0,0.0,270.0,0.0,0.0,0.25,4.520263209,3.6991882499999984,0.0,-59789.0,0.0,262.5,0.0,0.0,0.0,1.750488102,1.2409424999999985,0.0,48083.0,0.125,360.0,0.0,0.0,0.0,2.143554468,3.7052999999999985,0.0,-75218.0,0.125,262.5,0.0,0.0,0.25,2.8491208020000003,1.2394999999999985,0.0,-1.4600000381469727,-0.47999998927116394,158.19000244140625,0.00970458984375,-0.09344482421875,0.920654296875,35.91999816894531,0.0,-42.0,2.5597686767578125,0.4641571044921875,Closing,0.0,0.0,0.0,0.0,0.0,0.0,0.0,0.125,
9.831794999999984,0.0,0.0,17912.0,0.0,367.5,0.0,0.0,0.25,4.520263209,3.6991882499999984,0.0,-59789.0,0.0,345.0,0.0,0.0,0.0,1.751708805,1.2409424999999985,0.0,48083.0,0.125,330.0,0.0,0.0,0.125,2.143554468,3.7052999999999985,0.0,-75166.0,0.125,337.5,0.0,0.0,0.125,2.888183298,1.2394999999999985,0.0,-1.0399999618530273,-0.550000011920929,158.16000366210938,-0.05523681640625,0.27569580078125,1.1317138671875,35.91999816894531,0.0,151.0,2.5440826416015625,0.4878997802734375,Closing,0.0,0.0,0.0,0.0,0.0,0.0,0.0,0.0,
9.946972999999998,0.0,0.0,17957.0,0.0,232.5,0.0,0.0,0.25,4.521483912,3.6991882499999984,0.0,-59741.0,0.0,232.5,0.0,0.0,0.0,1.750488102,1.2409424999999985,0.0,48129.0,0.125,97.5,0.0,0.0,0.125,2.143554468,3.7052999999999985,0.0,-75140.0,0.125,195.0,0.0,0.0,0.25,2.8930661100000004,1.2394999999999985,0.0,-0.4699999988079071,-0.5699999928474426,158.17999267578125,-0.00970458984375,0.14996337890625,0.93603515625,35.86000061035156,0.0,59.0,2.5292205810546875,0.5074615478515625,Closing,0.0,0.0,0.0,0.0,0.0,0.0,0.0,0.0,
10.066217000000004,0.0,0.0,17982.0,0.0,67.5,0.0,0.0,0.25,4.521483912,3.6991882499999984,0.0,-59709.0,0.0,67.5,0.0,0.0,0.0,1.750488102,1.2409424999999985,0.0,48148.0,0.0,67.5,0.0,0.0,0.125,2.143554468,3.7052999999999985,0.0,-75134.0,0.125,45.0,0.0,0.0,0.25,2.8991696250000003,1.2394999999999985,0.0,0.14000000059604645,-0.6399999856948853,158.13999938964844,-0.00933837890625,0.06781005859375,1.0716552734375,35.86000061035156,0.0,21.0,2.517303466796875,0.519683837890625,Closing,0.0,0.0,0.0,0.0,0.0,0.0,0.0,0.0,
10.19008400000003,0.0,0.0,17985.0,0.0,0.0,0.0,0.0,0.25,4.521483912,3.6991882499999984,0.0,-59709.0,0.0,0.0,0.0,0.0,0.0,1.751708805,1.2409424999999985,0.0,48148.0,0.0,0.0,0.0,0.0,0.125,2.14843728,3.7052999999999985,0.0,-75134.0,0.125,0.0,0.0,0.0,0.25,2.8979489220000003,1.2394999999999985,0.0,0.20999999344348907,-0.6499999761581421,158.1199951171875,-0.0179443359375,8.544921875E-4,1.0281982421875,35.86000061035156,0.0,4.0,2.516357421875,0.52215576171875,Closing,0.0,0.0,0.0,0.0,0.0,0.0,0.0,0.0,
10.30886599999998,0.0,0.0,17985.0,0.375,-52.5,-476.2204706668854,0.0,2.375,0.095214834,4.932250999999998,0.0,-59709.0,1.0,-90.0,-476.2204706668854,0.0,2.375,2.347411869,2.481884999999998,0.0,48124.0,1.0,-112.5,-476.2204706668854,0.0,2.75,2.672118867,0.01,0.0,-75150.0,1.0,-75.0,-476.2204706668854,0.0,4.5,3.3715816860000003,2.4790000000000023,0.0,0.2199999988079071,-0.6600000262260437,158.17999267578125,0.015380859375,0.09478759765625,0.9588623046875,35.86000061035156,0.0,9.0,2.5162200927734375,0.5218048095703125,Closing,0.0,0.0,0.0,0.0,0.0,0.0,0.0,0.0,
10.428785000000033,0.0,0.0,17960.0,6.625,-217.5,-1269.9212551116943,0.0,0.875,0.850829991,4.932250999999998,0.0,-59728.0,11.375,-157.5,-1269.9212551116943,0.0,0.5,3.1018063230000004,2.481884999999998,0.0,48086.0,8.375,-187.5,-1269.9212551116943,0.0,0.25,3.4643551140000004,0.01,0.0,-75196.0,10.875,-255.0,-1269.9212551116943,0.0,0.625,4.219970271,2.4790000000000023,0.0,0.41999998688697815,-1.5,158.66000366210938,-0.25018310546875,-0.15350341796875,1.002197265625,35.849998474121094,0.0,149.0,2.5214385986328125,0.520965576171875,Closing,0.0,0.0,0.0,0.0,0.0,0.0,0.0,0.0,
10.547378000000027,0.0,0.0,17904.0,8.75,-495.0,-1269.9212551116943,0.0,0.375,1.1096190270000001,4.932250999999998,0.0,-59763.0,16.25,-442.5,-1269.9212551116943,0.0,0.25,3.330077784,2.481884999999998,0.0,47998.0,11.625,-472.5,-1269.9212551116943,0.0,0.25,3.7243648530000004,0.01,0.0,-75280.0,12.625,-480.0,-1269.9212551116943,0.0,0.5,4.525146021,2.4790000000000023,0.0,-0.9900000095367432,-2.5,158.9499969482422,-0.23199462890625,-0.19110107421875,1.00006103515625,35.849998474121094,0.0,113.0,2.5276641845703125,0.5408172607421875,Closing,0.0,0.0,0.0,0.0,0.0,0.0,0.0,0.0,
10.673338999999977,0.0,0.0,17807.0,3.75,-690.0,-714.3307435512543,0.0,0.375,0.9106444380000001,4.932250999999998,0.0,-59981.0,5.5,-780.0,-714.3307435512543,0.0,0.5,3.139648116,2.481884999999998,0.0,47875.0,5.875,-712.5,-714.3307435512543,0.0,0.375,3.457030896,0.01,0.0,-75413.0,4.25,-825.0,-714.3307435512543,0.0,0.5,4.176024963000001,2.4790000000000023,0.0,-0.7900000214576721,-3.140000104904175,158.41000366210938,-0.0888671875,0.28961181640625,0.8272705078125,35.849998474121094,0.0,151.0,2.5336456298828125,0.57275390625,Closing,0.0,0.0,0.0,0.0,0.0,0.0,0.0,0.0,
10.794636999999987,0.0,0.0,17685.0,0.0,-630.0,0.0,0.0,0.25,0.7507323450000001,4.932250999999998,0.0,-60075.0,0.0,-600.0,0.0,0.0,0.25,2.932128606,2.481884999999998,0.0,47765.0,0.125,-757.5,0.0,0.0,0.125,3.2702633370000003,0.01,0.0,-75513.0,0.125,-630.0,0.0,0.0,0.25,3.9428706900000003,2.4790000000000023,0.0,0.36000001430511475,-2.0999999046325684,158.6199951171875,0.38897705078125,-0.2989501953125,1.077392578125,35.849998474121094,0.0,-510.0,2.54595947265625,0.589019775390625,Closing,0.0,0.0,0.0,0.0,0.0,0.0,0.0,0.0,
10.912727000000013,0.0,0.0,17582.0,0.0,-397.5,0.0,0.0,0.25,0.759277266,4.932250999999998,0.0,-60067.0,0.0,-277.5,0.0,0.0,0.25,2.937011418,2.481884999999998,0.0,47722.0,0.125,-397.5,0.0,0.0,0.125,3.2739254460000002,0.01,0.0,-75503.0,0.125,-52.5,0.0,0.0,0.375,4.007567949,2.4790000000000023,0.0,-0.18000000715255737,1.0099999904632568,158.47000122070312,-0.0037841796875,0.0738525390625,0.77166748046875,35.810001373291016,0.0,44.0,2.5082855224609375,0.586273193359375,Closing,0.0,0.0,0.0,0.0,0.0,0.0,0.0,0.0,
11.03420199999999,0.0,0.0,17630.0,0.0,225.0,0.0,0.0,0.25,0.7788085140000001,4.932250999999998,0.0,-60034.0,0.125,225.0,0.0,0.0,0.25,2.9528805570000003,2.481884999999998,0.0,47749.0,0.0,202.5,0.0,0.0,0.0,3.339843408,0.01,0.0,-75467.0,0.125,232.5,0.0,0.0,0.375,4.090575753,2.4790000000000023,0.0,0.07000000029802322,0.2800000011920929,158.0,-0.12506103515625,-0.07818603515625,0.90570068359375,35.810001373291016,0.0,90.0,2.478118896484375,0.5848388671875,Closing,0.0,0.0,0.0,0.0,0.0,0.0,0.0,0.0,
11.152028999999981,0.0,0.0,17649.0,0.0,142.5,0.0,0.0,0.25,0.797119059,4.932250999999998,0.0,-60015.0,0.0,142.5,0.0,0.0,0.25,2.969970399,2.481884999999998,0.0,47753.0,0.125,45.0,0.0,0.0,0.0,3.359374656,0.01,0.0,-75446.0,0.125,150.0,0.0,0.0,0.125,4.11376911,2.4790000000000023,0.0,0.07999999821186066,-0.1899999976158142,158.14999389648438,-0.1229248046875,0.0701904296875,1.12841796875,35.810001373291016,0.0,135.0,2.461700439453125,0.5859375,Closing,0.0,0.0,0.0,0.0,0.0,0.0,0.0,0.0,
11.269406000000018,0.0,0.0,17661.0,0.0,22.5,0.0,0.0,0.25,0.798339762,4.932250999999998,0.0,-60015.0,0.0,30.0,0.0,0.0,0.125,2.976073914,2.481884999999998,0.0,47754.0,0.125,0.0,0.0,0.0,0.0,3.359374656,0.01,0.0,-75445.0,0.125,15.0,0.0,0.0,0.125,4.112548407,2.4790000000000023,0.0,0.05000000074505806,-0.6000000238418579,158.08999633789062,-0.05029296875,0.0072021484375,1.042236328125,35.810001373291016,0.0,38.0,2.4475860595703125,0.58953857421875,Closing,0.0,0.0,0.0,0.0,0.0,0.0,0.0,0.0,
11.388215000000026,0.0,0.0,17661.0,0.0,0.0,0.0,0.0,0.25,0.799560465,4.932250999999998,0.0,-60013.0,0.0,0.0,0.0,0.0,0.125,2.976073914,2.481884999999998,0.0,47754.0,0.125,0.0,0.0,0.0,0.0,3.3605953590000004,0.01,0.0,-75445.0,0.125,0.0,0.0,0.0,0.125,4.112548407,2.4790000000000023,0.0,0.11999999731779099,-0.6000000238418579,158.10000610351562,-0.009033203125,-0.0347900390625,1.01739501953125,35.790000915527344,0.0,-15.0,2.4419403076171875,0.5931396484375,Closing,0.0,0.0,0.0,0.0,0.0,0.0,0.0,0.0,
11.506293999999995,0.0,0.0,17661.0,0.0,0.0,0.0,0.0,0.125,0.798339762,4.932250999999998,0.0,-60013.0,0.0,0.0,0.0,0.0,0.125,2.976073914,2.481884999999998,0.0,47754.0,0.0,0.0,0.0,0.0,0.0,3.359374656,0.01,0.0,-75445.0,0.125,0.0,0.0,0.0,0.125,4.112548407,2.4790000000000023,0.0,0.12999999523162842,-0.5299999713897705,158.13999938964844,-0.0048828125,0.01885986328125,1.015625,35.790000915527344,0.0,1.0,2.4414825439453125,0.5929718017578125,Closing,0.0,0.0,0.0,0.0,0.0,0.0,0.0,0.0,
11.615901000000013,0.0,0.0,17661.0,0.0,0.0,0.0,0.0,0.25,0.799560465,4.932250999999998,0.0,-60013.0,0.0,0.0,0.0,0.0,0.125,2.976073914,2.481884999999998,0.0,47754.0,0.125,0.0,0.0,0.0,0.0,3.3605953590000004,0.01,0.0,-75445.0,0.125,0.0,0.0,0.0,0.25,4.112548407,2.4790000000000023,0.0,0.12999999523162842,-0.49000000953674316,158.10000610351562,-0.02081298828125,0.021484375,1.025634765625,35.790000915527344,0.0,18.0,2.4414825439453125,0.5928192138671875,Closing,0.0,0.0,0.0,0.0,0.0,0.0,0.0,0.0,
11.743641000000004,0.0,0.0,17661.0,0.125,-30.0,-277.79527455568314,0.0,0.25,0.798339762,4.932250999999998,0.0,-60013.0,0.25,-15.0,-277.79527455568314,0.0,0.125,2.980956726,2.481884999999998,0.0,47754.0,0.375,0.0,-277.79527455568314,0.0,0.0,3.3605953590000004,0.01,0.0,-75452.0,0.375,-30.0,-277.79527455568314,0.0,0.125,4.112548407,2.4790000000000023,0.0,0.15000000596046448,-0.5899999737739563,158.1300048828125,-0.04864501953125,0.00946044921875,1.0433349609375,35.790000915527344,0.0,37.0,2.441741943359375,0.5929718017578125,Closing,0.0,0.0,0.0,0.0,0.0,0.0,0.0,0.0,
11.85397000000003,0.0,0.0,17651.0,2.75,-90.0,-773.8582742214203,0.0,0.25,0.799560465,4.932250999999998,0.0,-60020.0,5.0,-105.0,-773.8582742214203,0.0,0.125,2.9956051620000004,2.481884999999998,0.0,47754.0,4.875,-37.5,-773.8582742214203,0.0,0.0,3.389892231,0.01,0.0,-75473.0,4.25,-90.0,-773.8582742214203,0.0,0.25,4.122314031,2.4790000000000023,0.0,0.12999999523162842,-1.149999976158142,158.17999267578125,-0.2237548828125,0.00787353515625,1.1090087890625,35.790000915527344,0.0,188.0,2.4470367431640625,0.5947265625,Closing,0.0,0.0,0.0,0.0,0.0,0.0,0.0,0.0,
11.98709500000003,0.0,0.0,17622.0,3.75,-307.5,-773.8582742214203,0.0,0.125,0.8032225740000001,4.932250999999998,0.0,-60099.0,6.375,-307.5,-773.8582742214203,0.0,0.0,2.9956051620000004,2.481884999999998,0.0,47685.0,5.625,-300.0,-773.8582742214203,0.0,0.125,3.398437152,0.01,0.0,-75527.0,5.25,-285.0,-773.8582742214203,0.0,0.25,4.166259339,2.4790000000000023,0.0,0.15000000596046448,-1.909999966621399,158.19000244140625,-0.02642822265625,0.05078125,1.17315673828125,35.849998474121094,0.0,5.0,2.4660491943359375,0.601898193359375,Closing,0.0,0.0,0.0,0.0,0.0,0.0,0.0,0.0,
12.110500999999989,0.0,0.0,17562.0,6.5,-277.5,-773.8582742214203,0.0,0.25,0.8032225740000001,4.932250999999998,0.0,-60099.0,12.125,-270.0,-773.8582742214203,0.0,0.0,2.9992672710000003,2.481884999999998,0.0,47653.0,8.75,-322.5,-773.8582742214203,0.0,0.125,3.388671528,0.01,0.0,-75549.0,10.875,-202.5,-773.8582742214203,0.0,0.25,4.167480042,2.4790000000000023,0.0,0.27000001072883606,-0.28999999165534973,158.2899932861328,-0.49224853515625,0.09991455078125,1.04656982421875,35.849998474121094,0.0,487.0,2.46954345703125,0.6041717529296875,Closing,0.0,0.0,0.0,0.0,0.0,0.0,0.0,0.0,
12.23388400000002,0.0,0.0,17557.0,0.0,157.5,0.0,0.0,0.125,0.8032225740000001,4.932250999999998,0.0,-60093.0,0.0,165.0,0.0,0.0,0.125,2.994384459,2.481884999999998,0.0,47656.0,0.0,15.0,0.0,0.0,0.125,3.389892231,0.01,0.0,-75529.0,0.125,142.5,0.0,0.0,0.25,4.1381831700000005,2.4790000000000023,0.0,0.12999999523162842,-0.25,158.41000366210938,-0.0499267578125,0.1556396484375,0.97052001953125,35.849998474121094,0.0,98.0,2.46783447265625,0.60748291015625,Closing,0.0,0.0,0.0,0.0,0.0,0.0,0.0,0.0,
12.351889000000025,0.0,0.0,17579.0,0.0,7.5,0.0,0.0,0.125,0.8032225740000001,4.932250999999998,0.0,-60093.0,0.125,0.0,0.0,0.0,0.0,2.989501647,2.481884999999998,0.0,47656.0,0.125,0.0,0.0,0.0,0.125,3.388671528,0.01,0.0,-75528.0,0.125,7.5,0.0,0.0,0.25,4.127196843,2.4790000000000023,0.0,0.07000000029802322,-0.7699999809265137,158.30999755859375,-0.10467529296875,-0.13116455078125,1.14178466796875,35.849998474121094,0.0,33.0,2.4712066650390625,0.6111297607421875,Closing,0.0,0.0,0.0,0.0,0.0,0.0,0.0,0.0,
12.468043999999994,0.0,0.0,17579.0,0.0,0.0,0.0,0.0,0.25,0.8032225740000001,4.932250999999998,0.0,-60093.0,0.0,0.0,0.0,0.0,0.0,2.989501647,2.481884999999998,0.0,47656.0,0.125,0.0,0.0,0.0,0.125,3.389892231,0.01,0.0,-75528.0,0.125,0.0,0.0,0.0,0.25,4.1284175460000005,2.4790000000000023,0.0,0.11999999731779099,-0.6800000071525574,158.3699951171875,0.09454345703125,-0.00421142578125,0.984619140625,35.83000183105469,0.0,-101.0,2.4773406982421875,0.616546630859375,Closing,0.0,0.0,0.0,0.0,0.0,0.0,0.0,0.0,
12.588368000000017,0.0,0.0,17579.0,0.0,0.0,0.0,0.0,0.25,0.8032225740000001,4.932250999999998,0.0,-60093.0,0.0,0.0,0.0,0.0,0.0,2.989501647,2.481884999999998,0.0,47656.0,0.125,0.0,0.0,0.0,0.125,3.388671528,0.01,0.0,-75528.0,0.125,0.0,0.0,0.0,0.25,4.127196843,2.4790000000000023,0.0,0.12999999523162842,-0.6200000047683716,158.3800048828125,-0.0582275390625,-0.01043701171875,1.0484619140625,35.83000183105469,0.0,38.0,2.481231689453125,0.62078857421875,Closing,0.0,0.0,0.0,0.0,0.0,0.0,0.0,0.125,
12.705582999999985,0.0,0.0,17579.0,0.0,0.0,0.0,0.0,0.25,0.8032225740000001,4.932250999999998,0.0,-60093.0,0.0,0.0,0.0,0.0,0.0,2.989501647,2.481884999999998,0.0,47656.0,0.125,0.0,0.0,0.0,0.125,3.389892231,0.01,0.0,-75528.0,0.125,0.0,0.0,0.0,0.25,4.127196843,2.4790000000000023,0.0,0.14000000059604645,-0.5899999737739563,158.3800048828125,-0.00146484375,-0.00677490234375,0.989990234375,35.83000183105469,0.0,-11.0,2.4843292236328125,0.6235198974609375,Closing,0.0,0.0,0.0,0.0,0.0,0.0,0.0,0.0,
12.823831999999994,0.0,0.0,17579.0,0.0,0.0,0.0,0.0,0.25,0.8032225740000001,4.932250999999998,0.0,-60093.0,0.0,0.0,0.0,0.0,0.0,2.99072235,2.481884999999998,0.0,47656.0,0.125,0.0,0.0,0.0,0.125,3.389892231,0.01,0.0,-75528.0,0.125,0.0,0.0,0.0,0.25,4.127196843,2.4790000000000023,0.0,0.1599999964237213,-0.6100000143051147,158.38999938964844,-0.0018310546875,-0.00628662109375,1.01678466796875,35.83000183105469,0.0,-11.0,2.484222412109375,0.6234130859375,Closing,0.0,0.0,0.0,0.0,0.0,0.0,0.0,0.0,
12.943693000000028,0.0,0.0,17579.0,0.0,0.0,0.0,0.0,0.25,0.8032225740000001,4.932250999999998,0.0,-60093.0,0.0,0.0,0.0,0.0,0.0,2.99072235,2.481884999999998,0.0,47656.0,0.125,0.0,0.0,0.0,0.125,3.389892231,0.01,0.0,-75528.0,0.125,0.0,0.0,0.0,0.25,4.1284175460000005,2.4790000000000023,0.0,0.15000000596046448,-0.6299999952316284,158.3800048828125,0.0057373046875,0.00567626953125,1.01348876953125,35.83000183105469,0.0,-14.0,2.484222412109375,0.6234130859375,Closing,0.0,0.0,0.0,0.0,0.0,0.0,0.0,0.0,
13.06039500000002,0.0,0.0,17579.0,0.0,0.0,0.0,0.0,0.125,0.8032225740000001,4.932250999999998,0.0,-60093.0,0.0,0.0,0.0,0.0,0.0,2.99072235,2.481884999999998,0.0,47656.0,0.125,0.0,0.0,0.0,0.125,3.388671528,0.01,0.0,-75528.0,0.125,0.0,0.0,0.0,0.25,4.127196843,2.4790000000000023,0.0,0.1599999964237213,-0.6600000262260437,158.3800048828125,-0.0255126953125,7.32421875E-4,1.02862548828125,35.83000183105469,0.0,1.0,2.484222412109375,0.6234130859375,Closing,0.0,0.0,0.0,0.0,0.0,0.0,0.0,0.0,
13.190137999999978,0.0,0.0,17579.0,0.0,0.0,0.0,0.0,0.125,0.8032225740000001,4.932250999999998,0.0,-60093.0,0.0,0.0,0.0,0.0,0.0,2.989501647,2.481884999999998,0.0,47656.0,0.125,0.0,0.0,0.0,0.125,3.389892231,0.01,0.0,-75528.0,0.125,0.0,0.0,0.0,0.25,4.127196843,2.4790000000000023,0.0,0.17000000178813934,-0.6399999856948853,158.3699951171875,-0.01873779296875,0.0079345703125,1.00140380859375,35.83000183105469,0.0,8.0,2.484222412109375,0.6234130859375,Closing,0.0,0.0,0.0,0.0,0.0,0.0,0.0,0.0,
13.308022999999986,0.0,0.0,17579.0,0.0,0.0,0.0,0.0,0.125,0.8032225740000001,4.932250999999998,0.0,-60093.0,0.0,0.0,0.0,0.0,0.0,2.985839538,2.481884999999998,0.0,47656.0,0.125,0.0,0.0,0.0,0.125,3.388671528,0.01,0.0,-75528.0,0.125,0.0,0.0,0.0,0.25,4.1284175460000005,2.4790000000000023,0.0,0.18000000715255737,-0.6399999856948853,158.3699951171875,-0.01824951171875,0.00189208984375,1.0074462890625,35.83000183105469,0.0,5.0,2.484222412109375,0.6234130859375,Closing,0.0,0.0,0.0,0.0,0.0,0.0,0.0,0.0,
13.426533999999986,0.0,0.0,17579.0,0.0,0.0,0.0,0.0,0.25,0.8032225740000001,4.932250999999998,0.0,-60093.0,0.125,0.0,0.0,0.0,0.0,2.99072235,2.481884999999998,0.0,47656.0,0.125,0.0,0.0,0.0,0.125,3.388671528,0.01,0.0,-75528.0,0.125,0.0,0.0,0.0,0.25,4.1284175460000005,2.4790000000000023,0.0,0.18000000715255737,-0.6499999761581421,158.3699951171875,-0.0113525390625,0.00531005859375,1.025634765625,35.849998474121094,0.0,0.0,2.484222412109375,0.6234130859375,Closing,0.0,0.0,0.0,0.0,0.0,0.0,0.0,0.0,
13.540337,0.0,0.0,17579.0,0.0,0.0,0.0,0.0,0.25,0.8032225740000001,4.932250999999998,0.0,-60093.0,0.0,0.0,0.0,0.0,0.0,2.985839538,2.481884999999998,0.0,47656.0,0.125,0.0,0.0,0.0,0.125,3.389892231,0.01,0.0,-75528.0,0.125,0.0,0.0,0.0,0.25,4.1284175460000005,2.4790000000000023,0.0,0.20000000298023224,-0.6499999761581421,158.3699951171875,0.00543212890625,0.04425048828125,1.03582763671875,35.849998474121094,0.0,-1.0,2.484466552734375,0.6234893798828125,Closing,0.0,0.0,0.0,0.0,0.0,0.0,0.0,0.0,
13.655274000000034,0.0,0.0,17579.0,0.0,0.0,0.0,0.0,0.125,0.8032225740000001,4.932250999999998,0.0,-60093.0,0.0,0.0,0.0,0.0,0.0,2.984618835,2.481884999999998,0.0,47656.0,0.125,0.0,0.0,0.0,0.125,3.389892231,0.01,0.0,-75528.0,0.125,0.0,0.0,0.0,0.25,4.1284175460000005,2.4790000000000023,0.0,0.18000000715255737,-0.6700000166893005,158.3699951171875,0.00286865234375,-0.0045166015625,1.00933837890625,35.849998474121094,0.0,-16.0,2.4846343994140625,0.6234893798828125,Closing,0.0,0.0,0.0,0.0,0.0,0.0,0.0,0.0,
13.779693000000028,0.0,0.0,17579.0,0.0,0.0,0.0,0.0,0.25,0.8032225740000001,4.932250999999998,0.0,-60093.0,0.0,0.0,0.0,0.0,0.0,2.985839538,2.481884999999998,0.0,47656.0,0.125,0.0,0.0,0.0,0.125,3.389892231,0.01,0.0,-75528.0,0.125,0.0,0.0,0.0,0.25,4.127196843,2.4790000000000023,0.0,0.20000000298023224,-0.6600000262260437,158.3699951171875,0.01190185546875,0.01190185546875,1.03411865234375,35.849998474121094,0.0,-19.0,2.4847412109375,0.6233978271484375,Closing,0.0,0.0,0.0,0.0,0.0,0.0,0.0,0.125,
13.895433000000018,0.0,0.0,17579.0,0.0,0.0,0.0,0.0,0.125,0.8032225740000001,4.932250999999998,0.0,-60093.0,0.125,0.0,0.0,0.0,0.0,2.985839538,2.481884999999998,0.0,47656.0,0.0,0.0,0.0,0.0,0.125,3.389892231,0.01,0.0,-75528.0,0.125,0.0,0.0,0.0,0.25,4.1284175460000005,2.4790000000000023,0.0,0.20999999344348907,-0.6700000166893005,158.3699951171875,-0.0101318359375,-0.0101318359375,0.99176025390625,35.849998474121094,0.0,-6.0,2.4848480224609375,0.6234283447265625,Closing,0.0,0.0,0.0,0.0,0.0,0.0,0.0,0.0,
14.012079000000027,0.0,0.0,17579.0,0.0,0.0,0.0,0.0,0.25,0.8032225740000001,4.932250999999998,0.0,-60093.0,0.0,0.0,0.0,0.0,0.0,2.984618835,2.481884999999998,0.0,47656.0,0.125,0.0,0.0,0.0,0.125,3.389892231,0.01,0.0,-75528.0,0.125,0.0,0.0,0.0,0.25,4.1284175460000005,2.4790000000000023,0.0,0.20999999344348907,-0.6700000166893005,158.38999938964844,-0.0106201171875,0.00787353515625,0.98260498046875,35.869998931884766,0.0,0.0,2.4848175048828125,0.6235504150390625,Closing,0.0,0.0,0.0,0.0,0.0,0.0,0.0,0.0,
14.141825000000011,0.0,0.0,17579.0,0.0,0.0,0.0,0.0,0.25,0.8032225740000001,4.932250999999998,0.0,-60093.0,0.125,0.0,0.0,0.0,0.0,2.984618835,2.481884999999998,0.0,47656.0,0.125,0.0,0.0,0.0,0.125,3.388671528,0.01,0.0,-75528.0,0.125,0.0,0.0,0.0,0.25,4.129638249,2.4790000000000023,0.0,0.2199999988079071,-0.6600000262260437,158.3800048828125,-0.0167236328125,2.44140625E-4,1.09783935546875,35.869998931884766,0.0,2.0,2.4845733642578125,0.623565673828125,Closing,0.0,0.0,0.0,0.0,0.0,0.0,0.0,0.0,
