Time,ClimberA1,ClimberA2,FRpos,FRCurrent,FRspeed,FRsetpoint,FRApos,FRACurrent,FREncpos,FREncSetpoint,FREncSpeed,FLpos,FLCurrent,FLspeed,FLsetpoint,FLApos,FLACurrent,FLEncpos,FLEncSetpoint,FLEncSpeed,BRpos,BRCurrent,BRspeed,BRsetpoint,BRApos,BRACurrent,BREncpos,BREncSetpoint,BREncSpeed,BLpos,BLCurrent,BLspeed,BLsetpoint,BLApos,BLACurrent,BLEncpos,BLEncSetpoint,BLEncSpeed,navx_Pitch,navx_Roll,navx_Yaw,navx_XAcc,navx_YAcc,navx_ZAcc,navx_Temp,navx_Bar,navx_Alt,navx_XDis,navx_YDis,GearPlacerState,ShootOutputV,ShootOutputCurrent,ShootEncPos,ShootEncVelocity,ShootSpeed,ShootSetpoint,CarouselSetpoint,CarouselCurrent,
0.1536359999999986,0.0,0.0,11336.0,0.0,0.0,0.0,0.0,0.125,0.8032225740000001,0.01,0.0,-42862.0,0.0,0.0,0.0,0.0,0.0,0.522460884,0.01,-0.0012207029999995456,39515.0,0.0,0.0,0.0,0.0,0.0,3.348388329,0.01,0.0,-59584.0,0.125,0.0,0.0,0.0,0.125,1.622314287,0.01,-0.0012207029999995456,0.2800000011920929,-0.6899999976158142,160.1300048828125,-0.01373291015625,0.00439453125,1.02069091796875,36.400001525878906,0.0,1.0,2.9877471923828125,0.3054046630859375,Closing,0.0,0.0,0.0,0.0,0.0,0.0,0.0,0.0,
0.21092300000000977,0.0,0.0,11336.0,2.25,0.0,1470.0,0.0,0.25,0.8007811680000001,0.01,0.0,-42862.0,4.375,-45.0,-1470.0,0.0,0.0,0.522460884,0.01,0.0,39515.0,5.0,0.0,1470.0,0.0,0.0,3.33251919,0.01,0.0,-59584.0,3.75,-15.0,-1470.0,0.0,0.125,1.6320799110000002,0.01,0.0024414059999999793,0.2800000011920929,-0.6399999856948853,160.13999938964844,0.53631591796875,0.38671875,0.801513671875,36.400001525878906,0.0,-382.0,2.9874114990234375,0.304901123046875,Closing,0.0,0.0,0.0,0.0,0.0,0.0,0.0,0.0,
0.268137000000017,0.0,0.0,11379.0,7.375,225.0,1470.0,0.0,0.25,0.784912029,0.01,-0.0024414059999999793,-42901.0,9.875,-247.5,-1470.0,0.0,0.0,0.522460884,0.01,-0.0012207029999995456,39522.0,11.25,45.0,1470.0,0.0,0.0,3.3142086450000003,0.01,-0.037841793000000123,-59614.0,9.0,-262.5,-1470.0,0.0,0.125,1.674804516,0.01,0.003662109000000413,0.27000001072883606,0.41999998688697815,160.16000366210938,0.4765625,0.04718017578125,0.90313720703125,36.400001525878906,0.0,-427.0,2.9811859130859375,0.3011016845703125,Closing,0.0,0.0,0.0,0.0,0.0,0.0,0.0,0.125,
0.32434600000001956,0.0,0.0,11379.0,9.75,375.0,1470.0,0.0,0.25,0.783691326,0.01,-0.017089841999999855,-42901.0,12.625,-405.0,-1470.0,0.0,0.0,0.522460884,0.01,0.0012207029999995456,39522.0,17.0,150.0,1470.0,0.0,0.0,3.3142086450000003,0.01,0.003662109000000413,-59614.0,11.5,-345.0,-1470.0,0.0,0.25,1.668701001,0.01,-4.914054692000001,0.23999999463558197,0.8399999737739563,160.1199951171875,0.25018310546875,0.04132080078125,0.88848876953125,36.400001525878906,0.0,-210.0,2.9676513671875,0.2937469482421875,Closing,0.0,0.0,0.0,0.0,0.0,0.0,0.0,0.125,
0.38025800000000165,0.0,0.0,11449.0,10.875,412.5,1476.428839352389,0.0,0.25,0.784912029,0.01,0.0,-42963.0,14.5,-435.0,-1463.591079274562,0.0,0.0,0.522460884,0.01,0.0,39555.0,21.25,217.5,1476.428839352389,0.0,0.0,3.3154293480000003,4.937518254267379,0.0,-59668.0,12.75,-367.5,-1463.591079274562,0.0,0.25,1.666259595,4.955082621008312,-0.003662108999999969,0.3100000023841858,1.3799999952316284,160.0,0.26678466796875,-0.0037841796875,1.2203369140625,36.400001525878906,0.0,-226.0,2.9493865966796875,0.2838897705078125,Closing,0.0,0.0,0.0,0.0,0.0,0.0,0.0,0.0,
0.44013200000001235,0.0,0.0,11449.0,11.25,645.0,1419.2802860581874,0.0,0.125,0.786132732,4.908290929804674,0.0012207029999995456,-42963.0,16.0,-675.0,-1521.9972283315174,0.0,0.25,0.522460884,4.941284627968515,-0.0012207029999995456,39555.0,23.375,330.0,1419.2802860581874,0.0,0.0,3.3154293480000003,0.023999656707046905,0.0,-59668.0,14.375,-577.5,-1521.9972283315174,0.0,0.25,1.669921704,0.02245923451975073,0.0,0.36000001430511475,1.7899999618530273,159.94000244140625,0.179931640625,-0.0242919921875,0.9754638671875,36.400001525878906,0.0,-150.0,2.932830810546875,0.2752838134765625,Closing,0.0,0.0,0.0,0.0,0.0,0.0,0.0,0.0,
0.49665400000000953,0.0,0.0,11583.0,10.25,780.0,1382.1659411065766,0.0,0.25,0.782470623,4.889181208847185,-0.0012207029999995456,-43098.0,15.5,-825.0,-1561.754330896387,0.0,0.25,0.522460884,4.9254134588035,0.0,39618.0,24.5,412.5,1382.1659411065766,0.0,0.125,3.3154293480000003,0.04314095049326699,0.0012207029999995456,-59785.0,15.0,-780.0,-1561.754330896387,0.0,0.125,1.671142407,0.03831195467401721,0.0,0.3799999952316284,2.369999885559082,159.88999938964844,0.392822265625,-0.00811767578125,1.1407470703125,36.400001525878906,0.0,-329.0,2.900299072265625,0.25897216796875,Closing,0.0,0.0,0.0,0.0,0.0,0.0,0.0,0.125,
0.5633800000000047,0.0,0.0,11583.0,8.5,967.5,1322.2578687634746,0.0,0.25,0.786132732,4.854983755528133,0.0,-43098.0,14.625,-1042.5,-1629.332062371927,0.0,0.25,0.522460884,4.900699191914709,0.0,39618.0,25.5,472.5,1322.2578687634746,0.0,0.125,3.3154293480000003,0.07739490439331041,-0.0012207029999995456,-59785.0,15.125,-982.5,-1629.332062371927,0.0,0.125,1.669921704,0.06299749313261352,0.0,0.3799999952316284,2.8499999046325684,159.86000061035156,0.26129150390625,-0.0264892578125,0.85662841796875,36.400001525878906,0.0,-216.0,2.8778076171875,0.247650146484375,Closing,0.0,0.0,0.0,0.0,0.0,0.0,0.0,0.0,
0.616710000000021,0.0,0.0,11771.0,6.5,1125.0,1304.8055800670556,0.0,0.25,0.784912029,4.844120457169018,-0.0012207030000004337,-43294.0,13.125,-1245.0,-1649.897613208755,0.0,0.25,0.531005805,4.893682774740994,0.0,39707.0,26.25,555.0,1304.8055800670556,0.0,0.125,3.339843408,0.08827615095058679,0.004882811999999959,-59959.0,14.625,-1170.0,-1649.897613208755,0.0,0.25,1.671142407,0.07000575426221439,0.0,0.4000000059604645,3.2200000286102295,159.82000732421875,0.38653564453125,-0.06121826171875,0.98486328125,36.400001525878906,0.0,-333.0,2.846221923828125,0.23095703125,Closing,0.0,0.0,0.0,0.0,0.0,0.0,0.0,0.0,
0.6762820000000065,0.0,0.0,11771.0,4.875,1275.0,1287.6099210102616,0.0,0.25,0.783691326,4.832964821824909,0.0024414059999999793,-43294.0,11.75,-1395.0,-1670.590097933501,0.0,0.25,0.506591745,4.88683964419318,0.0012207029999995456,39707.0,27.625,637.5,1287.6099210102616,0.0,0.125,3.3679195770000003,0.09945021748816561,0.019531247999999835,-59959.0,13.375,-1350.0,-1670.590097933501,0.0,0.25,1.671142407,0.07684093019825942,0.0,0.5,3.5399999618530273,159.83999633789062,0.38775634765625,0.1217041015625,1.193603515625,36.31999969482422,0.0,-255.0,2.812103271484375,0.2133331298828125,Closing,0.0,0.0,0.0,0.0,0.0,0.0,0.0,0.0,
0.734127999999997,0.0,0.0,11997.0,3.5,1402.5,1281.9397308270545,0.0,0.25,0.7751464050000001,4.829181987192949,-0.0012207029999995456,-43532.0,10.25,-1500.0,-1677.511463579823,0.0,0.25,0.483398388,4.884597315566293,-0.01831054500000029,39823.0,28.875,735.0,1281.9397308270545,0.0,0.125,3.392333637,0.10323930206957335,-4.911103128000001,-60190.0,11.75,-1470.0,-1677.511463579823,0.0,0.25,1.669921704,0.07908065229096382,0.0012207029999999897,0.550000011920929,3.609999895095825,159.9600067138672,0.0806884765625,0.17523193359375,1.1468505859375,36.31999969482422,0.0,48.0,2.7746734619140625,0.194732666015625,Closing,0.0,0.0,0.0,0.0,0.0,0.0,0.0,0.0,
0.79281700000001,0.0,0.0,11997.0,2.25,1462.5,1316.415517930111,0.0,0.25,0.75683586,4.851396519475584,-0.010986327000000351,-43532.0,9.0,-1590.0,-1636.169362918398,0.0,0.25,0.468749952,4.898341989581827,-0.02075195099999938,39823.0,30.25,847.5,1316.415517930111,0.0,0.0,3.403319964,0.08098806722991776,0.024414059999999793,-60190.0,9.875,-1605.0,-1636.169362918398,0.0,0.125,1.669921704,0.06535195539948507,-0.0012207029999999897,0.8100000023841858,4.0,160.2100067138672,0.03814697265625,-0.0567626953125,0.8231201171875,36.31999969482422,0.0,-4.0,2.7360687255859375,0.174957275390625,Closing,0.0,0.0,0.0,0.0,0.0,0.0,0.0,0.0,
0.855085000000021,0.0,0.0,12250.0,1.25,1560.0,1388.290394805229,0.0,0.25,0.754394454,4.892435289669166,-0.013427732999999442,-43804.0,6.25,-1695.0,-1555.0886956336885,0.0,0.25,0.462646437,4.928000879042744,0.0,39970.0,31.75,907.5,1388.290394805229,0.0,0.0,3.402099261,0.03988149332190377,0.009765623999999917,-60457.0,7.375,-1687.5,-1555.0886956336885,0.0,0.125,1.6625974860000001,0.03572754211135373,0.0,0.6600000262260437,3.9600000381469727,160.66000366210938,0.23675537109375,-0.22235107421875,0.79840087890625,36.31999969482422,0.0,-247.0,2.696502685546875,0.1550140380859375,Closing,0.0,0.0,0.0,0.0,0.0,0.0,0.0,0.0,
0.9127339999999967,0.0,0.0,12250.0,2.25,1597.5,1832.9883285129313,0.0,0.25,0.7653807810000001,0.12339400065232235,0.0,-43804.0,3.125,-1747.5,-1165.4861824671489,0.0,0.0,0.46752924900000004,0.1965221504123151,0.0012207030000004337,39970.0,35.5,1012.5,1832.9883285129313,0.0,0.125,3.397216449,4.816802129408513,0.0,-60457.0,3.75,-1755.0,-1165.4861824671489,0.0,0.125,1.669921704,4.761706291438914,0.0012207029999999897,0.6200000047683716,3.9600000381469727,161.1999969482422,-0.09625244140625,-0.24676513671875,1.0428466796875,36.31999969482422,0.0,76.0,2.6555328369140625,0.1356048583984375,Closing,0.0,0.0,0.0,0.0,0.0,0.0,0.0,0.0,
0.9715899999999965,0.0,0.0,12529.0,5.0,1687.5,2127.716306998925,0.0,0.375,0.771484296,0.18754000453050748,0.0,-44070.0,0.625,-1657.5,-1007.5470074208985,0.0,0.75,0.5029296360000001,0.4134037207098812,-0.0012207030000004337,40152.0,37.125,1140.0,2127.716306998925,0.0,0.25,3.337402002,4.752550144349402,-0.004882811999999959,-60733.0,1.25,-1725.0,-1007.5470074208985,0.0,0.625,1.5844724940000001,4.545076829248819,-0.0012207029999999897,0.8500000238418579,4.309999942779541,161.63999938964844,0.23382568359375,0.2227783203125,1.17803955078125,36.31999969482422,0.0,-72.0,2.6143035888671875,0.1169281005859375,Closing,0.0,0.0,0.0,0.0,0.0,0.0,0.0,0.0,
1.0302950000000128,0.0,0.0,12529.0,8.125,1807.5,2495.199676754763,0.0,0.5,0.845947179,0.24407274572851798,0.02075195099999938,-44070.0,0.0,-1635.0,-949.3888262202016,0.0,0.75,0.6335448570000001,0.7379573718382714,0.04638671399999961,40152.0,34.5,1275.0,2495.199676754763,0.0,0.25,3.23486295,4.695924000502576,4.865937117,-60733.0,0.125,-1672.5,-949.3888262202016,0.0,0.875,1.384277202,4.220900446722118,4.856681651,1.0700000524520874,4.440000057220459,161.5399932861328,0.225341796875,0.043701171875,0.800537109375,36.31999969482422,0.0,-145.0,2.5717926025390625,0.09515380859375,Closing,0.0,0.0,0.0,0.0,0.0,0.0,0.0,0.0,
1.0883270000000194,0.0,0.0,12844.0,10.25,1882.5,2612.208131938396,0.0,0.5,0.9497069340000001,0.2584519614172537,-4.849243196,-44343.0,0.0,-1702.5,-965.6367050129818,0.0,1.75,0.9350584980000001,0.8411307938174499,0.1611327960000004,40368.0,31.875,1327.5,2612.208131938396,0.0,0.125,3.146972334,4.681521027663474,-0.09399413099999965,-61004.0,0.125,-1695.0,-965.6367050129818,0.0,1.25,1.097411997,4.117846955893017,-0.19897458899999965,0.7099999785423279,4.090000152587891,159.77999877929688,-0.261962890625,0.05889892578125,0.816650390625,36.31999969482422,0.0,316.0,2.52923583984375,0.074676513671875,Closing,0.0,0.0,0.0,0.0,0.0,0.0,0.0,0.0,
1.1443340000000026,0.0,0.0,12844.0,9.0,2085.0,2317.634199617698,0.0,0.375,1.016845599,0.21922148954666762,0.09277342799999999,-44343.0,0.0,-1515.0,-956.7142750192638,0.0,0.75,1.141357305,0.5776510750929583,0.28930661099999977,40368.0,27.25,1402.5,2317.634199617698,0.0,0.0,3.1079098380000003,4.720816315601871,-0.08911131900000058,-61004.0,0.375,-1417.5,-956.7142750192638,0.0,0.5,0.8935545960000001,4.381020399754443,-0.2722167689999999,0.6600000262260437,3.5199999809265137,155.08999633789062,-0.392578125,0.14306640625,0.9361572265625,36.13999938964844,0.0,463.0,2.490386962890625,0.0554351806640625,Closing,0.0,0.0,0.0,0.0,0.0,0.0,0.0,0.0,
1.2075510000000067,0.0,0.0,13208.0,2.25,2310.0,951.0314857295006,0.0,0.25,1.036376847,4.317041752376069,0.06958007099999997,-44524.0,6.625,-1147.5,-2363.729988394925,0.0,0.25,1.1608885530000002,4.7362598167437095,0.18188474700000068,40616.0,23.875,1530.0,951.0314857295006,0.0,0.0,3.1054684320000003,0.6162256882225321,0.0,-61199.0,8.5,-1237.5,-2363.729988394925,0.0,0.375,0.9057616260000001,0.22724572020554681,0.0,0.7200000286102295,3.380000114440918,147.94000244140625,-0.00555419921875,0.08660888671875,0.86480712890625,36.13999938964844,0.0,88.0,2.45709228515625,0.0356903076171875,Closing,0.0,0.0,0.0,0.0,0.0,0.0,0.0,0.0,
1.266814000000013,0.0,0.0,13208.0,0.0,2235.0,2048.364572497004,0.0,3.75,0.9082030320000001,3.3934168682319457,0.019531248000000057,-44524.0,29.625,-1290.0,-4172.912960767234,0.0,5.375,1.040038956,4.591389409360767,0.013427732999999442,40616.0,18.875,1695.0,2048.364572497004,0.0,4.0,3.338622705,1.5413765732090472,0.0,-61199.0,21.625,-1395.0,-4172.912960767234,0.0,3.875,1.1132811360000001,0.3719477269070323,0.01831054500000029,0.9100000262260437,3.609999895095825,140.32000732421875,0.4725341796875,0.302490234375,0.61700439453125,36.13999938964844,0.0,-146.0,2.4261474609375,0.0147247314453125,Closing,0.0,0.0,0.0,0.0,0.0,0.0,0.0,0.0,
1.323622000000003,0.0,0.0,13592.0,0.0,2347.5,2048.364572497004,0.0,1.125,0.563964786,3.3934168682319457,-0.17822263799999993,-44781.0,38.25,-1545.0,-4172.912960767234,0.0,1.75,0.731201097,4.591389409360767,-0.13183592399999977,40912.0,19.25,1830.0,2048.364572497004,0.0,1.375,3.6938472780000002,1.5413765732090472,-4.681610964000001,-61446.0,35.5,-1500.0,-4172.912960767234,0.0,0.75,1.511230314,0.3719477269070323,0.2136230250000004,1.090000033378601,3.7899999618530273,133.89999389648438,0.16766357421875,0.30621337890625,0.6495361328125,36.13999938964844,0.0,125.0,2.3979949951171875,-0.0127716064453125,Closing,0.0,0.0,0.0,0.0,0.0,0.0,0.0,0.0,
1.3810830000000132,0.0,0.0,13592.0,0.0,2325.0,2048.364572497004,0.0,1.25,0.229492164,3.3934168682319457,4.600219783999999,-44781.0,38.375,-1650.0,-4172.912960767234,0.0,1.5,0.429687456,4.591389409360767,-0.3088378590000005,40912.0,25.375,1920.0,2048.364572497004,0.0,1.0,4.062499584,1.5413765732090472,0.3369140279999998,-61446.0,32.75,-1492.5,-4172.912960767234,0.0,0.375,1.848144342,0.3719477269070323,0.38452144499999985,1.2100000381469727,3.3499999046325684,130.97000122070312,-0.5211181640625,-0.10833740234375,0.76727294921875,36.13999938964844,0.0,277.0,2.3750762939453125,-0.0414886474609375,Closing,0.0,0.0,0.0,0.0,0.0,0.0,0.0,0.125,
1.4392419999999984,0.0,0.0,13849.0,3.125,1792.5,2048.364572497004,0.0,1.5,4.792479978,3.3934168682319457,-0.3332519189999994,-45065.0,32.625,-1807.5,-4172.912960767234,0.0,0.25,0.24291989700000002,4.591389409360767,-0.3051757500000001,41199.0,32.375,1792.5,2048.364572497004,0.0,0.75,4.436034702000001,1.5413765732090472,0.37475582099999993,-61717.0,27.125,-1717.5,-4172.912960767234,0.0,0.25,2.039794713,0.3719477269070323,-4.614982457,1.2100000381469727,2.6700000762939453,132.3300018310547,-0.71014404296875,-0.26617431640625,0.902587890625,36.13999938964844,0.0,295.0,2.35797119140625,-0.064239501953125,Closing,0.0,0.0,0.0,0.0,0.0,0.0,0.0,0.0,
1.5104189999999944,0.0,0.0,13849.0,8.5,1320.0,2048.364572497004,0.0,1.5,4.472655792,3.3934168682319457,0.0,-45065.0,29.375,-2010.0,-4172.912960767234,0.0,0.25,0.169677717,4.591389409360767,-0.1818847469999998,41199.0,33.0,1515.0,2048.364572497004,0.0,0.875,4.7631831060000005,1.5413765732090472,0.41625972300000047,-61717.0,22.375,-2040.0,-4172.912960767234,0.0,0.375,2.13623025,0.3719477269070323,0.20507810400000026,1.4900000095367432,0.9100000262260437,137.77999877929688,-0.13714599609375,-0.01483154296875,1.64404296875,36.13999938964844,0.0,82.0,2.3489837646484375,-0.0781097412109375,Closing,0.0,0.0,0.0,0.0,0.0,0.0,0.0,0.0,
1.566377999999997,0.0,0.0,13971.0,22.125,817.5,2048.364572497004,0.0,1.125,4.204101132,3.3934168682319457,-0.33203121599999985,-45432.0,26.125,-2257.5,-4172.912960767234,0.0,0.25,0.14160154800000002,4.591389409360767,-0.08178710099999975,41424.0,31.625,1417.5,2048.364572497004,0.0,0.25,4.957274883,1.5413765732090472,0.31005856200000004,-62080.0,19.0,-2317.5,-4172.912960767234,0.0,0.25,2.145995874,0.3719477269070323,0.08056639799999976,1.559999942779541,-0.25999999046325684,146.5500030517578,-0.314208984375,-0.043212890625,1.6630859375,36.13999938964844,0.0,206.0,2.3459930419921875,-0.087615966796875,Closing,0.0,0.0,0.0,0.0,0.0,0.0,0.0,0.0,
1.6269030000000202,0.0,0.0,13971.0,16.75,780.0,0.0,0.0,0.25,4.093017159,0.01,-0.2221679459999999,-45432.0,22.125,-2400.0,-0.0,0.0,0.5,0.14526365700000002,0.01,-0.008544921000000372,41424.0,29.375,1357.5,0.0,0.0,3.5,4.956054180000001,0.01,0.15380857799999959,-62080.0,13.625,-2550.0,-0.0,0.0,0.875,2.092284942,0.01,0.003662108999999969,1.3300000429153442,-0.8600000143051147,157.38999938964844,-0.25390625,-0.193115234375,0.560546875,36.13999938964844,0.0,147.0,2.3452911376953125,-0.0929718017578125,Closing,0.0,0.0,0.0,0.0,0.0,0.0,0.0,0.0,
1.6877510000000184,0.0,0.0,14112.0,2.5,825.0,0.0,0.0,6.25,4.417724157,0.01,-0.07812499200000023,-45818.0,10.125,-2415.0,-0.0,0.0,0.75,0.19409177700000002,0.01,0.003662109000000413,41648.0,21.5,1395.0,0.0,0.0,5.0,4.554442893,0.01,-0.006103514999999504,-62502.0,7.125,-2647.5,-0.0,0.0,1.0,1.877441214,0.01,-0.05981444699999994,0.5699999928474426,-1.1299999952316284,169.07000732421875,0.156005859375,-0.38641357421875,1.1871337890625,36.08000183105469,0.0,-251.0,2.3462066650390625,-0.0931549072265625,Closing,0.0,0.0,0.0,0.0,0.0,0.0,0.0,0.0,
1.7490660000000207,0.0,0.0,14112.0,1.875,847.5,0.0,0.0,1.0,4.842528801,0.01,0.3857421479999994,-45818.0,3.25,-2325.0,-0.0,0.0,0.5,0.386962851,0.01,0.0805663980000002,41648.0,17.5,1477.5,0.0,0.0,0.75,4.134521061,0.01,-0.44921870400000063,-62502.0,1.0,-2565.0,-0.0,0.0,0.5,1.723632636,0.01,-0.2246093520000001,-0.18000000715255737,-0.28999999165534973,179.9600067138672,0.17718505859375,-0.19384765625,0.8140869140625,36.08000183105469,0.0,-181.0,2.343048095703125,-0.088775634765625,Closing,0.0,0.0,0.0,0.0,0.0,0.0,0.0,0.0,
1.8078619999999936,0.0,0.0,14183.0,2.125,570.0,0.0,0.0,0.75,0.347900355,0.01,0.39184566300000023,-46163.0,0.375,-2145.0,-0.0,0.0,0.5,0.450439407,0.01,0.16723631099999992,41893.0,14.25,1530.0,0.0,0.0,0.5,3.717040635,0.01,-0.38208003899999987,-62870.0,0.125,-2272.5,-0.0,0.0,0.25,1.669921704,0.01,0.0,-0.5600000023841858,0.7300000190734863,-172.27000427246094,0.58660888671875,-0.33355712890625,0.8795166015625,36.08000183105469,0.0,-526.0,2.3330535888671875,-0.079254150390625,Closing,0.0,0.0,0.0,0.0,0.0,0.0,0.0,0.125,
1.8667010000000008,0.0,0.0,14183.0,2.25,367.5,0.0,0.0,0.875,0.7360839090000001,0.01,0.0,-46163.0,0.125,-1912.5,-0.0,0.0,0.25,0.484619091,0.01,0.06103514999999948,41893.0,10.875,1455.0,0.0,0.0,0.5,3.353271141,0.01,-0.43579097099999986,-62870.0,0.125,-1882.5,-0.0,0.0,0.5,1.6613767830000001,0.01,-0.05371093199999999,-1.2000000476837158,0.6899999976158142,-168.69000244140625,0.1502685546875,-0.302734375,1.08984375,36.08000183105469,0.0,-79.0,2.3226165771484375,-0.0671844482421875,Closing,0.0,0.0,0.0,0.0,0.0,0.0,0.0,0.0,
1.9168630000000122,0.0,0.0,14290.0,1.5,517.5,0.0,0.0,0.5,1.070556531,0.01,0.3894042569999998,-46398.0,0.0,-1500.0,-0.0,0.0,0.25,0.498046824,0.01,0.0341796840000006,42091.0,7.25,1267.5,0.0,0.0,0.0,3.120116868,0.01,4.612030893,-63123.0,0.125,-1545.0,-0.0,0.0,0.25,1.6613767830000001,0.01,-0.009765623999999917,-1.899999976158142,0.949999988079071,-166.1300048828125,-0.052734375,0.0318603515625,0.9937744140625,36.08000183105469,0.0,51.0,2.30859375,-0.045867919921875,Closing,0.0,0.0,0.0,0.0,0.0,0.0,0.0,0.0,
1.97663400000002,0.0,0.0,14290.0,0.375,720.0,0.0,0.0,0.125,1.093749888,0.01,-4.652710013,-46398.0,0.0,-1312.5,-0.0,0.0,0.25,0.509033151,0.01,0.008544920999999484,42091.0,5.0,1117.5,0.0,0.0,0.0,3.1018063230000004,0.01,-0.2380370850000002,-63123.0,0.125,-1350.0,-0.0,0.0,0.25,1.6638181890000001,0.01,0.0012207029999999897,-1.7599999904632568,0.7799999713897705,-165.58999633789062,-0.0599365234375,-0.00537109375,0.7996826171875,36.08000183105469,0.0,63.0,2.296142578125,-0.0248260498046875,Closing,0.0,0.0,0.0,0.0,0.0,0.0,0.0,0.0,
2.0312390000000016,0.0,0.0,14290.0,0.125,750.0,0.0,0.0,0.5,1.047363174,0.01,0.008544920999999928,-46567.0,0.0,-1177.5,-0.0,0.0,0.0,0.5297851020000001,0.01,0.014648435999999876,42259.0,3.5,1065.0,0.0,0.0,0.375,3.150634443,0.01,-0.014648435999999876,-63288.0,0.125,-1057.5,-0.0,0.0,0.25,1.6613767830000001,0.01,-0.0012207029999999897,-1.5499999523162842,0.3199999928474426,-165.91000366210938,-0.15478515625,0.17138671875,1.0699462890625,36.08000183105469,0.0,107.0,2.2890472412109375,-0.0106964111328125,Closing,0.0,0.0,0.0,0.0,0.0,0.0,0.0,0.0,
2.0885560000000116,0.0,0.0,14428.0,0.125,892.5,0.0,0.0,0.5,0.941162013,0.01,-0.0634765559999999,-46567.0,0.0,-900.0,-0.0,0.0,0.125,0.527343696,0.01,0.01586913900000031,42259.0,2.0,1027.5,0.0,0.0,0.25,3.248290683,0.01,0.05615233800000041,-63288.0,0.125,-892.5,-0.0,0.0,0.25,1.666259595,0.01,0.0,-1.4299999475479126,-0.17000000178813934,-166.77000427246094,-0.1436767578125,-0.04913330078125,0.94482421875,36.08000183105469,0.0,142.0,2.2830810546875,0.0061187744140625,Closing,0.0,0.0,0.0,0.0,0.0,0.0,0.0,0.0,
2.149412000000011,0.0,0.0,14428.0,0.875,877.5,0.0,0.0,0.375,0.865478427,0.01,-0.10742186400000009,-46672.0,0.125,-705.0,-0.0,0.0,0.125,0.522460884,0.01,0.0,42401.0,0.875,937.5,0.0,0.0,0.125,3.328857081,0.01,0.1110839729999995,-63398.0,0.375,-727.5,-0.0,0.0,0.25,1.665038892,0.01,0.0,-1.3600000143051147,-0.6299999952316284,-167.57000732421875,-0.22100830078125,0.11956787109375,0.97174072265625,36.08000183105469,0.0,174.0,2.2814788818359375,0.005767822265625,Closing,0.0,0.0,0.0,0.0,0.0,0.0,0.0,0.0,
2.203895000000019,0.0,0.0,14555.0,0.5,795.0,420.0,0.0,1.875,0.889892487,0.5498168668524888,-0.06347655600000002,-46672.0,0.625,-615.0,-420.0,0.0,0.125,0.527343696,1.9285545897722227,0.0,42401.0,2.25,780.0,420.0,0.0,1.75,3.305663724,4.389674732977289,0.0646972589999999,-63398.0,0.625,-622.5,-420.0,0.0,0.25,1.6613767830000001,3.0316872062785585,0.0,-1.25,-1.0199999809265137,-167.9499969482422,-0.05712890625,0.05963134765625,1.23583984375,36.06999969482422,0.0,16.0,2.2827301025390625,0.003814697265625,Closing,0.0,0.0,0.0,0.0,0.0,0.0,0.0,0.0,
2.26013400000002,0.0,0.0,14555.0,0.125,735.0,420.0,0.0,1.25,1.101074106,0.5498168668524888,0.05371093199999999,-46672.0,0.75,-622.5,-420.0,0.0,8.25,0.729980394,1.9285545897722227,0.0,42401.0,2.875,690.0,420.0,0.0,0.5,3.084716481,4.389674732977289,-0.0402831990000001,-63496.0,0.75,-600.0,-420.0,0.0,7.5,1.3964842320000002,3.0316872062785585,0.0,-1.1399999856948853,-1.0399999618530273,-168.10000610351562,0.03814697265625,-0.06390380859375,1.22674560546875,36.06999969482422,0.0,-51.0,2.2847442626953125,0.0010223388671875,Closing,0.0,0.0,0.0,0.0,0.0,0.0,0.0,0.0,
2.3141150000000197,0.0,0.0,14655.0,0.125,607.5,420.0,0.0,0.625,1.275634635,0.5498168668524888,0.0,-46776.0,0.5,-660.0,-420.0,0.0,2.375,1.1596678500000002,1.9285545897722227,0.2880859080000002,42507.0,2.875,652.5,420.0,0.0,0.375,2.867431347,4.389674732977289,-0.22583005499999942,-63496.0,0.75,-592.5,-420.0,0.0,2.5,0.980224509,3.0316872062785585,4.693107449,-1.100000023841858,-1.4500000476837158,-168.58999633789062,-0.32489013671875,0.0931396484375,1.10137939453125,36.06999969482422,0.0,268.0,2.2878265380859375,-0.0021820068359375,Closing,0.0,0.0,0.0,0.0,0.0,0.0,0.0,0.0,
2.3706760000000067,0.0,0.0,14655.0,0.0,487.5,420.0,0.0,0.625,1.390380717,0.5498168668524888,0.18554685599999998,-46776.0,0.5,-637.5,-420.0,0.0,1.25,1.6076658510000001,1.9285545897722227,0.41870112899999956,42507.0,2.75,645.0,420.0,0.0,0.25,2.712402066,4.389674732977289,-0.22094724300000035,-63496.0,1.625,-465.0,-420.0,0.0,1.375,0.590820252,3.0316872062785585,-0.4321288620000008,-0.9800000190734863,-1.9299999475479126,-169.6300048828125,-0.29315185546875,0.02081298828125,0.9971923828125,36.06999969482422,0.0,248.0,2.2933197021484375,-0.0063323974609375,Closing,0.0,0.0,0.0,0.0,0.0,0.0,0.0,0.0,
2.4260200000000185,0.0,0.0,14731.0,0.0,480.0,420.0,0.0,0.375,1.406249856,0.5498168668524888,0.08789061600000014,-46854.0,1.25,-442.5,-420.0,0.0,1.0,2.045898228,1.9285545897722227,0.4223632380000004,42606.0,3.0,607.5,420.0,0.0,0.125,2.672118867,4.389674732977289,-0.14404295399999967,-63551.0,2.5,-315.0,-420.0,0.0,1.75,0.206298807,3.0316872062785585,-0.4077148019999992,-0.7799999713897705,-2.380000114440918,-171.3699951171875,-0.171142578125,0.0242919921875,0.93695068359375,36.06999969482422,0.0,124.0,2.3042449951171875,-0.014434814453125,Closing,0.0,0.0,0.0,0.0,0.0,0.0,0.0,0.0,
2.4761940000000178,0.0,0.0,14731.0,0.0,457.5,420.0,0.0,0.25,1.402587747,0.5498168668524888,0.004882811999999959,-46854.0,2.375,-315.0,-420.0,0.0,0.75,2.396239989,1.9285545897722227,0.4052733960000001,42606.0,3.875,472.5,420.0,0.0,0.0,2.67333957,4.389674732977289,-0.02929687200000064,-63551.0,4.75,-97.5,-420.0,0.0,1.875,4.771728027,3.0316872062785585,-0.36865230600000043,-0.7400000095367432,-2.5999999046325684,-172.77999877929688,-0.06951904296875,-0.11163330078125,1.10260009765625,36.06999969482422,0.0,31.0,2.3176727294921875,-0.0234832763671875,Closing,0.0,0.0,0.0,0.0,0.0,0.0,0.0,0.0,
2.5316260000000184,0.0,0.0,14780.0,0.125,345.0,420.0,0.0,0.25,1.4001463410000001,0.5498168668524888,0.0,-46900.0,3.125,-285.0,-420.0,0.0,0.125,2.574462627,1.9285545897722227,0.35766597899999963,42665.0,4.375,367.5,420.0,0.0,0.125,2.6977536300000002,4.389674732977289,0.0,-63570.0,6.0,-127.5,-420.0,0.0,0.5,4.597167498,3.0316872062785585,-0.37059812599999997,-0.8999999761581421,-2.7100000381469727,-173.86000061035156,-0.1148681640625,0.0223388671875,1.007080078125,36.06999969482422,0.0,62.0,2.3285064697265625,-0.0291900634765625,Closing,0.0,0.0,0.0,0.0,0.0,0.0,0.0,0.0,
2.5881320000000123,0.0,0.0,14780.0,0.125,247.5,420.0,0.0,0.25,1.3977049350000001,0.5498168668524888,-0.004882811999999959,-46900.0,3.875,-247.5,-420.0,0.0,0.25,2.653808322,1.9285545897722227,0.18066404400000025,42665.0,5.5,322.5,420.0,0.0,0.125,2.719726284,4.389674732977289,0.02929687200000064,-63570.0,5.5,-202.5,-420.0,0.0,0.375,4.556884299,3.0316872062785585,-0.18310544999999934,-0.7599999904632568,-2.990000009536743,-175.58999633789062,-0.14190673828125,0.0777587890625,1.00860595703125,36.06999969482422,0.0,81.0,2.3443145751953125,-0.0370330810546875,Closing,0.0,0.0,0.0,0.0,0.0,0.0,0.0,0.0,
2.64447100000002,0.0,0.0,14817.0,0.125,217.5,420.0,0.0,0.25,1.380615093,0.5498168668524888,0.0,-46953.0,3.875,-292.5,-420.0,0.0,0.25,2.6330563710000003,1.9285545897722227,0.04760741700000004,42718.0,6.375,330.0,420.0,0.0,0.125,2.755126671,4.389674732977289,0.03417968399999971,-63623.0,4.5,-337.5,-420.0,0.0,0.375,4.576415547,3.0316872062785585,-0.0341796840000006,-0.49000000953674316,-3.109999895095825,-177.77000427246094,-0.02294921875,-0.0040283203125,1.0364990234375,36.06999969482422,0.0,-33.0,2.3614959716796875,-0.0463104248046875,Closing,0.0,0.0,0.0,0.0,0.0,0.0,0.0,0.0,
2.6954100000000034,0.0,0.0,14817.0,0.125,255.0,420.0,0.0,0.125,1.385497905,0.5498168668524888,-0.019531248000000057,-46953.0,3.0,-412.5,-420.0,0.0,0.25,2.619628638,1.9285545897722227,-0.014648435999999876,42718.0,6.0,307.5,420.0,0.0,0.0,2.762450889,4.389674732977289,0.019531247999999835,-63623.0,3.375,-457.5,-420.0,0.0,0.25,4.567870626,3.0316872062785585,0.01586913900000031,-0.36000001430511475,-2.940000057220459,179.67999267578125,0.0294189453125,-0.0692138671875,1.06219482421875,36.08000183105469,0.0,-84.0,2.378204345703125,-0.0559844970703125,Closing,0.0,0.0,0.0,0.0,0.0,0.0,0.0,0.125,
2.7509649999999963,0.0,0.0,14817.0,0.125,292.5,420.0,0.0,0.125,1.378173687,0.5498168668524888,0.0,-47032.0,2.25,-487.5,-420.0,0.0,0.25,2.55126927,1.9285545897722227,-0.021972654000000258,42770.0,6.5,315.0,420.0,0.0,0.0,2.766112998,4.389674732977289,0.009765623999999917,-63705.0,2.875,-502.5,-420.0,0.0,0.25,4.586181171000001,3.0316872062785585,0.0,-0.2199999988079071,-2.7300000190734863,176.9600067138672,0.04425048828125,0.02398681640625,0.98651123046875,36.08000183105469,0.0,-89.0,2.3936767578125,-0.065826416015625,Closing,0.0,0.0,0.0,0.0,0.0,0.0,0.0,0.0,
2.814439000000013,0.0,0.0,14868.0,0.125,315.0,420.0,0.0,0.25,1.389160014,0.5498168668524888,0.0,-47032.0,1.75,-495.0,-420.0,0.0,0.25,2.493896229,1.9285545897722227,-0.07324217999999982,42770.0,6.375,367.5,420.0,0.0,0.0,2.766112998,4.389674732977289,0.0,-63705.0,2.375,-517.5,-420.0,0.0,0.25,4.615478043,3.0316872062785585,0.02075195100000027,-0.10999999940395355,-2.619999885559082,175.5500030517578,-0.01123046875,0.0277099609375,1.07061767578125,36.08000183105469,0.0,-35.0,2.4009552001953125,-0.0709228515625,Closing,0.0,0.0,0.0,0.0,0.0,0.0,0.0,0.0,
2.8693800000000045,0.0,0.0,14868.0,0.125,367.5,420.0,0.0,0.125,1.385497905,0.5498168668524888,0.004882811999999959,-47113.0,1.625,-495.0,-420.0,0.0,0.25,2.440185297,1.9285545897722227,-0.05737304099999996,42840.0,5.75,405.0,420.0,0.0,0.0,2.77099581,4.389674732977289,0.0012207030000004337,-63789.0,2.125,-525.0,-420.0,0.0,0.25,4.635009291,3.0316872062785585,0.029296871999999752,0.05000000074505806,-2.4200000762939453,172.64999389648438,0.080322265625,0.011474609375,1.123046875,36.08000183105469,0.0,-125.0,2.414459228515625,-0.0816650390625,Closing,0.0,0.0,0.0,0.0,0.0,0.0,0.0,0.0,
2.9245629999999947,0.0,0.0,14934.0,0.375,420.0,420.0,0.0,0.25,1.385497905,0.5498168668524888,-0.0012207029999999897,-47113.0,1.25,-510.0,-420.0,0.0,0.0,2.396239989,1.9285545897722227,-0.04638671400000005,42840.0,5.25,450.0,420.0,0.0,0.0,2.766112998,4.389674732977289,-0.0012207030000004337,-63789.0,2.125,-525.0,-420.0,0.0,0.25,4.644774915,3.0316872062785585,0.01831054500000029,0.25,-2.259999990463257,169.55999755859375,0.00634765625,0.0047607421875,1.06695556640625,36.08000183105469,0.0,-47.0,2.4264068603515625,-0.0933990478515625,Closing,0.0,0.0,0.0,0.0,0.0,0.0,0.0,0.0,
2.980697000000015,0.0,0.0,14934.0,0.125,457.5,0.0,0.0,1.0,1.390380717,0.01,0.0,-47189.0,0.5,-510.0,-0.0,0.0,0.5,2.352294681,0.01,-0.04272460500000008,42917.0,2.625,472.5,0.0,0.0,0.0,2.785644246,0.01,0.0,-63870.0,0.875,-525.0,-0.0,0.0,1.875,4.709472174,0.01,0.009765623999999917,0.3499999940395355,-2.0899999141693115,166.35000610351562,0.0233154296875,-0.04302978515625,0.97393798828125,36.08000183105469,0.0,-68.0,2.4319305419921875,-0.0934295654296875,Closing,0.0,0.0,0.0,0.0,0.0,0.0,0.0,0.0,
3.0360690000000177,0.0,0.0,15007.0,0.125,457.5,0.0,0.0,2.125,1.19628894,0.01,0.0,-47189.0,0.125,-420.0,-0.0,0.0,9.5,1.987304484,0.01,-0.05493163499999998,42917.0,1.375,480.0,0.0,0.0,2.5,3.013915707,0.01,0.021972654000000702,-63870.0,0.375,-405.0,-0.0,0.0,6.625,0.175781232,0.01,0.06835936800000031,0.41999998688697815,-1.9700000286102295,163.38999938964844,0.087646484375,0.07080078125,0.9678955078125,36.08000183105469,0.0,-97.0,2.4314422607421875,-0.0939483642578125,Closing,0.0,0.0,0.0,0.0,0.0,0.0,0.0,0.0,
3.0915510000000066,0.0,0.0,15007.0,0.625,427.5,0.0,0.0,0.625,0.9851073210000001,0.01,-0.23315427300000002,-47189.0,0.125,-247.5,-0.0,0.0,1.5,1.5820310880000001,0.01,-0.40405269300000013,42917.0,1.125,412.5,0.0,0.0,0.625,3.24706998,0.01,0.2502441149999992,-63870.0,0.375,-322.5,-0.0,0.0,1.375,0.551757756,0.01,0.4279711669999995,0.44999998807907104,-1.5399999618530273,161.77999877929688,0.19708251953125,0.02142333984375,1.02288818359375,36.08000183105469,0.0,-209.0,2.429351806640625,-0.095001220703125,Closing,0.0,0.0,0.0,0.0,0.0,0.0,0.0,0.0,
3.1489210000000023,0.0,0.0,15064.0,0.75,345.0,0.0,0.0,0.25,0.839843664,0.01,-0.21362302499999997,-47222.0,0.125,-202.5,-0.0,0.0,1.5,1.151122929,0.01,-0.4016112869999997,42970.0,1.25,262.5,0.0,0.0,0.125,3.3728023890000003,0.01,0.22705075800000074,-63922.0,0.375,-345.0,-0.0,0.0,1.625,0.982665915,0.01,0.40405269300000013,0.38999998569488525,-1.409999966621399,160.94000244140625,-0.05194091796875,0.0277099609375,1.03851318359375,36.08000183105469,0.0,31.0,2.4239044189453125,-0.0961151123046875,Closing,0.0,0.0,0.0,0.0,0.0,0.0,0.0,0.0,
3.2069130000000006,0.0,0.0,15064.0,0.625,240.0,0.0,0.0,0.125,0.821533119,0.01,-0.10620116099999999,-47222.0,0.125,-150.0,-0.0,0.0,0.875,0.819091713,0.01,-0.417480426,42970.0,1.625,187.5,0.0,0.0,0.125,3.383788716,0.01,-4.831757433,-63922.0,0.375,-255.0,-0.0,0.0,1.0,1.35498033,0.01,0.3991698809999997,0.3799999952316284,-1.600000023841858,160.72000122070312,-0.10357666015625,0.01995849609375,0.99114990234375,36.060001373291016,0.0,75.0,2.4192047119140625,-0.0959625244140625,Closing,0.0,0.0,0.0,0.0,0.0,0.0,0.0,0.0,
3.269518000000011,0.0,0.0,15080.0,0.375,112.5,0.0,0.0,0.25,0.812988198,0.01,0.0,-47237.0,0.25,-82.5,-0.0,0.0,1.125,0.546874944,0.01,-0.3710937120000004,42990.0,1.75,105.0,0.0,0.0,0.125,3.3801266070000002,0.01,0.0,-63952.0,0.375,-112.5,-0.0,0.0,1.375,1.669921704,0.01,0.4296874559999999,0.3700000047683716,-1.7100000381469727,160.6199951171875,-0.05560302734375,0.00885009765625,1.014892578125,36.060001373291016,0.0,24.0,2.41583251953125,-0.095703125,Closing,0.0,0.0,0.0,0.0,0.0,0.0,0.0,0.0,
3.324790000000008,0.0,0.0,15080.0,0.125,37.5,8.4,0.0,0.125,0.822753822,4.931428991615634,0.0,-47237.0,0.5,-37.5,-8.4,0.0,0.125,0.449218704,4.962942738662719,-0.21850583700000037,42990.0,2.125,37.5,8.4,0.0,0.125,3.383788716,4.939576633504232,0.0,-63952.0,0.375,-75.0,-8.4,0.0,0.75,1.772460756,4.957173700290256,-4.704093776,0.36000001430511475,-1.6699999570846558,160.72999572753906,0.0352783203125,0.0369873046875,1.04254150390625,36.060001373291016,0.0,-52.0,2.4126129150390625,-0.0955963134765625,Closing,0.0,0.0,0.0,0.0,0.0,0.0,0.0,0.0,
3.3766270000000076,0.0,0.0,15082.0,0.125,15.0,8.4,0.0,0.125,0.822753822,0.01,0.0,-47240.0,0.5,-15.0,-8.4,0.0,0.25,0.450439407,0.01,-0.07446288299999981,42994.0,2.25,15.0,8.4,0.0,0.125,3.382568013,0.01,0.0,-63964.0,0.375,-75.0,-8.4,0.0,0.25,1.752929508,0.01,0.10131834900000003,0.4000000059604645,-1.5499999523162842,160.77000427246094,-6.7138671875E-4,0.01007080078125,1.0167236328125,36.060001373291016,0.0,-24.0,2.408599853515625,-0.0961456298828125,Closing,0.0,0.0,0.0,0.0,0.0,0.0,0.0,0.125,
3.4313740000000106,0.0,0.0,15082.0,0.125,7.5,8.4,0.0,0.25,0.820312416,0.01,0.0,-47240.0,0.5,-22.5,-8.4,0.0,0.25,0.469970655,0.01,0.0,42994.0,2.25,22.5,8.4,0.0,0.125,3.382568013,0.01,0.0,-63964.0,0.375,-52.5,-8.4,0.0,0.25,1.690673655,0.01,-0.028076168999999984,0.38999998569488525,-1.4900000095367432,160.75,-0.01275634765625,0.0118408203125,1.0009765625,36.060001373291016,0.0,-10.0,2.405181884765625,-0.0961456298828125,Closing,0.0,0.0,0.0,0.0,0.0,0.0,0.0,0.0,
3.4873850000000095,0.0,0.0,15088.0,0.125,30.0,8.400000000000002,0.0,0.125,0.821533119,0.01,0.0,-47246.0,0.5,-37.5,-8.400000000000002,0.0,0.25,0.47851557600000005,0.01,0.02441406000000068,42999.0,2.375,30.0,8.400000000000002,0.0,0.125,3.383788716,0.01,0.0,-63968.0,0.375,-15.0,-8.400000000000002,0.0,0.25,1.674804516,0.01,-0.05493163499999998,0.4000000059604645,-1.4600000381469727,160.74000549316406,-9.1552734375E-4,-0.00848388671875,1.006591796875,36.060001373291016,0.0,-28.0,2.4051361083984375,-0.0962677001953125,Closing,0.0,0.0,0.0,0.0,0.0,0.0,0.0,0.0,
3.536689000000013,0.0,0.0,15088.0,0.125,30.0,8.4,0.0,0.125,0.822753822,0.01,-0.0012207029999999897,-47246.0,0.375,-30.0,-8.4,0.0,0.25,0.484619091,0.01,0.003662108999999525,42999.0,2.125,37.5,8.4,0.0,0.125,3.389892231,0.01,0.0,-63968.0,0.375,-22.5,-8.4,0.0,0.25,1.679687328,0.01,-0.012207030000000119,0.38999998569488525,-1.4500000476837158,160.75,-0.03515625,0.00677490234375,1.03533935546875,36.060001373291016,0.0,8.0,2.4050750732421875,-0.0962677001953125,Closing,0.0,0.0,0.0,0.0,0.0,0.0,0.0,0.0,
3.5943889999999956,0.0,0.0,15088.0,0.125,22.5,0.0,0.0,0.125,0.8312987430000001,0.01,0.0012207029999999897,-47250.0,0.375,-22.5,-0.0,0.0,0.25,0.489501903,0.01,0.009765623999999917,43004.0,2.125,22.5,0.0,0.0,0.125,3.38134731,0.01,0.0,-63971.0,0.375,-22.5,-0.0,0.0,0.25,1.671142407,0.01,0.003662108999999969,0.4000000059604645,-1.4299999475479126,160.75,-0.025634765625,0.0167236328125,1.01397705078125,36.060001373291016,0.0,3.0,2.404998779296875,-0.0962677001953125,Closing,0.0,0.0,0.0,0.0,0.0,0.0,0.0,0.125,
3.6495230000000154,0.0,0.0,15091.0,0.875,22.5,1260.0,0.0,0.125,0.821533119,0.01,0.0,-47250.0,3.75,-22.5,-1260.0,0.0,0.25,0.4882812,0.01,0.0012207030000004337,43004.0,5.625,15.0,1260.0,0.0,0.125,3.382568013,0.01,0.0,-63971.0,5.375,-30.0,-1260.0,0.0,0.25,1.665038892,0.01,-0.010986326999999907,0.38999998569488525,-1.2200000286102295,160.75999450683594,0.4503173828125,-0.001220703125,1.11865234375,36.060001373291016,0.0,-450.0,2.4045257568359375,-0.0965118408203125,Closing,0.0,0.0,0.0,0.0,0.0,0.0,0.0,0.0,
3.7051290000000154,0.0,0.0,15091.0,2.75,210.0,1260.0,0.0,0.25,0.8166503070000001,0.01,0.0012207029999999897,-47250.0,14.625,-157.5,-1260.0,0.0,0.25,0.489501903,0.01,-0.0012207030000004337,43013.0,21.5,30.0,1260.0,0.0,0.125,3.383788716,0.01,0.0,-63999.0,12.0,-105.0,-1260.0,0.0,0.25,1.666259595,0.01,-0.003662108999999969,0.41999998688697815,-0.4699999988079071,161.0,0.1763916015625,-0.099365234375,1.16204833984375,36.04999923706055,0.0,-210.0,2.4005889892578125,-0.0976409912109375,Closing,0.0,0.0,0.0,0.0,0.0,0.0,0.0,0.125,
3.7511300000000047,0.0,0.0,15144.0,3.75,345.0,1260.0,0.0,0.125,0.808105386,0.01,4.917602564,-47288.0,15.625,-285.0,-1260.0,0.0,0.25,0.4882812,0.01,0.0012207030000004337,43013.0,23.5,75.0,1260.0,0.0,0.125,3.382568013,0.01,0.0,-63999.0,12.75,-270.0,-1260.0,0.0,0.25,1.666259595,0.01,0.0,0.47999998927116394,0.23000000417232513,161.16000366210938,0.204833984375,0.08477783203125,1.0556640625,36.04999923706055,0.0,-165.0,2.3907012939453125,-0.10009765625,Closing,0.0,0.0,0.0,0.0,0.0,0.0,0.0,0.0,
3.8072000000000115,0.0,0.0,15144.0,3.75,382.5,1260.0,0.0,0.125,0.810546792,0.01,-0.004882811999999959,-47288.0,15.625,-480.0,-1260.0,0.0,0.25,0.4882812,0.01,-0.0012207030000004337,43013.0,26.75,165.0,1260.0,0.0,0.125,3.383788716,0.01,0.0,-63999.0,13.375,-390.0,-1260.0,0.0,0.25,1.668701001,0.01,0.0,0.5600000023841858,0.5600000023841858,161.22000122070312,0.35400390625,0.14862060546875,1.10076904296875,36.04999923706055,0.0,-280.0,2.383880615234375,-0.1021270751953125,Closing,0.0,0.0,0.0,0.0,0.0,0.0,0.0,0.0,
3.855420000000013,0.0,0.0,15235.0,4.375,495.0,1260.0,0.0,0.125,0.8020018710000001,0.01,0.003662109000000413,-47391.0,14.75,-630.0,-1260.0,0.0,0.25,0.4882812,0.01,0.0012207030000004337,43051.0,29.25,225.0,1260.0,0.0,0.125,3.383788716,0.01,0.0,-64087.0,12.25,-622.5,-1260.0,0.0,0.25,1.666259595,0.01,0.0,0.5799999833106995,1.2000000476837158,161.3800048828125,0.1651611328125,0.01275634765625,1.08349609375,36.04999923706055,0.0,-134.0,2.366058349609375,-0.1076812744140625,Closing,0.0,0.0,0.0,0.0,0.0,0.0,0.0,0.0,
3.9138160000000206,0.0,0.0,15235.0,3.75,705.0,1260.0,0.0,0.25,0.8032225740000001,0.01,0.0,-47391.0,12.625,-847.5,-1260.0,0.0,0.25,0.4882812,0.01,0.0,43051.0,32.875,322.5,1260.0,0.0,0.125,3.382568013,0.01,0.0,-64087.0,11.125,-772.5,-1260.0,0.0,0.25,1.665038892,0.01,0.0,0.550000011920929,1.7300000190734863,161.52000427246094,0.22772216796875,-0.096435546875,0.810546875,36.04999923706055,0.0,-225.0,2.3438720703125,-0.114471435546875,Closing,0.0,0.0,0.0,0.0,0.0,0.0,0.0,0.0,
3.9695770000000192,0.0,0.0,15387.0,3.25,892.5,1260.0,0.0,0.25,0.8166503070000001,0.01,0.0,-47553.0,10.125,-1027.5,-1260.0,0.0,0.25,0.506591745,0.01,0.004882811999999959,43117.0,35.375,427.5,1260.0,0.0,0.125,3.382568013,0.01,0.0,-64239.0,9.5,-960.0,-1260.0,0.0,0.25,1.6601560800000001,0.01,0.0,0.5099999904632568,2.0399999618530273,161.61000061035156,0.04473876953125,0.066162109375,0.91717529296875,36.04999923706055,0.0,6.0,2.3251495361328125,-0.120208740234375,Closing,0.0,0.0,0.0,0.0,0.0,0.0,0.0,0.0,
4.0301050000000105,0.0,0.0,15387.0,2.625,997.5,1260.0,0.0,0.25,0.8178710100000001,0.01,0.01342773300000033,-47553.0,8.75,-1132.5,-1260.0,0.0,0.125,0.509033151,0.01,0.013427732999999442,43117.0,36.5,585.0,1260.0,0.0,0.125,3.382568013,0.01,0.0,-64239.0,8.0,-1110.0,-1260.0,0.0,0.25,1.64794905,0.01,-0.004882811999999959,0.5799999833106995,2.359999895095825,161.69000244140625,0.1446533203125,0.024658203125,0.95172119140625,36.04999923706055,0.0,-95.0,2.298492431640625,-0.128662109375,Closing,0.0,0.0,0.0,0.0,0.0,0.0,0.0,0.0,
4.083219000000012,0.0,0.0,15580.0,1.5,1147.5,1260.0,0.0,0.125,0.8166503070000001,0.01,0.0,-47753.0,7.0,-1230.0,-1260.0,0.0,0.0,0.507812448,0.01,0.0012207030000004337,43243.0,36.625,750.0,1260.0,0.0,0.125,3.383788716,0.01,0.0,-64434.0,6.375,-1230.0,-1260.0,0.0,0.25,1.6613767830000001,0.01,0.0,0.5799999833106995,2.609999895095825,161.6300048828125,0.2689208984375,0.04046630859375,0.77996826171875,36.04999923706055,0.0,-210.0,2.2691497802734375,-0.136932373046875,Closing,0.0,0.0,0.0,0.0,0.0,0.0,0.0,0.0,
4.136697000000015,0.0,0.0,15580.0,0.875,1260.0,1260.0,0.0,0.25,0.8166503070000001,0.01,0.0012207029999995456,-47753.0,5.5,-1312.5,-1260.0,0.0,0.0,0.510253854,0.01,-0.0012207030000004337,43243.0,33.125,952.5,1260.0,0.0,0.125,3.382568013,0.01,0.0,-64434.0,5.75,-1290.0,-1260.0,0.0,0.25,1.6613767830000001,0.01,0.0,0.6600000262260437,2.8499999046325684,161.5399932861328,0.171630859375,0.10546875,1.0877685546875,36.04999923706055,0.0,-81.0,2.23590087890625,-0.1456756591796875,Closing,0.0,0.0,0.0,0.0,0.0,0.0,0.0,0.0,
4.192257000000012,0.0,0.0,15580.0,0.5,1305.0,1260.0,0.0,0.125,0.8154296040000001,0.01,-0.0024414059999999793,-47978.0,4.375,-1372.5,-1260.0,0.0,0.125,0.509033151,0.01,0.0,43426.0,31.5,1065.0,1260.0,0.0,0.125,3.38134731,0.01,0.0,-64653.0,4.5,-1365.0,-1260.0,0.0,0.25,1.6601560800000001,0.01,0.0,0.7099999785423279,2.940000057220459,161.49000549316406,0.11151123046875,0.0382080078125,1.300537109375,36.04999923706055,0.0,-35.0,2.21826171875,-0.154632568359375,Closing,0.0,0.0,0.0,0.0,0.0,0.0,0.0,0.0,
4.2490760000000005,0.0,0.0,15792.0,0.5,1327.5,1260.0,0.0,0.125,0.806884683,0.01,0.0024414059999999793,-47978.0,3.125,-1455.0,-1260.0,0.0,0.0,0.507812448,0.01,0.0012207030000004337,43426.0,28.625,1252.5,1260.0,0.0,0.125,3.382568013,0.01,0.0,-64653.0,3.875,-1425.0,-1260.0,0.0,0.25,1.6613767830000001,0.01,0.0,0.6299999952316284,2.9200000762939453,161.4199981689453,-0.113037109375,0.04144287109375,0.980224609375,36.04999923706055,0.0,164.0,2.218231201171875,-0.1613922119140625,Closing,0.0,0.0,0.0,0.0,0.0,0.0,0.0,0.0,
4.300648000000016,0.0,0.0,15792.0,0.375,1342.5,1260.0,0.0,0.125,0.8178710100000001,0.01,-0.0012207029999995456,-48220.0,1.875,-1500.0,-1260.0,0.0,0.125,0.509033151,0.01,-0.0012207030000004337,43654.0,24.125,1372.5,1260.0,0.0,0.125,3.383788716,0.01,0.0,-64893.0,2.625,-1492.5,-1260.0,0.0,0.25,1.6625974860000001,0.01,0.0,0.5099999904632568,2.809999942779541,161.3300018310547,0.15875244140625,0.06622314453125,1.11370849609375,36.04999923706055,0.0,-80.0,2.2186126708984375,-0.17022705078125,Closing,0.0,0.0,0.0,0.0,0.0,0.0,0.0,0.0,
4.357311000000016,0.0,0.0,16027.0,0.375,1470.0,1260.0,0.0,0.25,0.838622961,0.01,0.0,-48220.0,1.375,-1507.5,-1260.0,0.0,0.0,0.506591745,0.01,0.0012207030000004337,43654.0,22.25,1492.5,1260.0,0.0,0.125,3.385009419,0.01,0.0,-64893.0,1.625,-1515.0,-1260.0,0.0,0.25,1.6601560800000001,0.01,0.0,0.4399999976158142,2.8399999141693115,161.25999450683594,-0.15618896484375,-0.06317138671875,0.96002197265625,36.04999923706055,0.0,170.0,2.2194366455078125,-0.17767333984375,Closing,0.0,0.0,0.0,0.0,0.0,0.0,0.0,0.0,
4.413729000000021,0.0,0.0,16027.0,0.125,1522.5,1260.0,0.0,0.25,0.8178710100000001,0.01,-0.0012207030000004337,-48220.0,1.125,-1492.5,-1260.0,0.0,0.125,0.5041503390000001,0.01,-0.0012207030000004337,43654.0,17.75,1672.5,1260.0,0.0,0.125,3.383788716,0.01,0.0,-64893.0,1.375,-1522.5,-1260.0,0.0,0.25,1.6613767830000001,0.01,0.0,0.7300000190734863,2.359999895095825,161.24000549316406,-0.3175048828125,-0.02392578125,1.99993896484375,36.04999923706055,0.0,362.0,2.2206878662109375,-0.1823272705078125,Closing,0.0,0.0,0.0,0.0,0.0,0.0,0.0,0.0,
4.469994000000006,0.0,0.0,16264.0,0.125,1500.0,1260.0,0.0,0.125,0.8166503070000001,0.01,0.0,-48455.0,1.125,-1462.5,-1260.0,0.0,0.125,0.5029296360000001,0.01,-0.003662108999999525,43926.0,15.125,1687.5,1260.0,0.0,0.125,3.382568013,0.01,0.0,-65134.0,1.25,-1470.0,-1260.0,0.0,0.25,1.6613767830000001,0.01,0.0,0.5199999809265137,1.9900000095367432,161.25999450683594,-0.12701416015625,0.13018798828125,1.628662109375,36.04999923706055,0.0,211.0,2.222686767578125,-0.1862640380859375,Closing,0.0,0.0,0.0,0.0,0.0,0.0,0.0,0.0,
4.525736000000005,0.0,0.0,16264.0,0.125,1477.5,1260.0,0.0,0.125,0.79345695,0.01,0.0,-48455.0,0.625,-1477.5,-1260.0,0.0,0.125,0.5029296360000001,0.01,0.0,43926.0,13.625,1597.5,1260.0,0.0,0.125,3.382568013,0.01,0.0,-65134.0,1.0,-1440.0,-1260.0,0.0,0.25,1.6601560800000001,0.01,0.0,0.5299999713897705,2.180000066757202,161.24000549316406,0.0458984375,0.2872314453125,0.72540283203125,36.04999923706055,0.0,72.0,2.2265777587890625,-0.189361572265625,Closing,0.0,0.0,0.0,0.0,0.0,0.0,0.0,0.0,
4.577287000000011,0.0,0.0,16502.0,0.125,1477.5,1260.0,0.0,0.25,0.8142089010000001,0.01,-0.012207029999999897,-48698.0,0.25,-1522.5,-1260.0,0.0,0.125,0.5029296360000001,0.01,0.0,44175.0,13.125,1545.0,1260.0,0.0,0.125,3.383788716,0.01,0.0,-65370.0,0.75,-1477.5,-1260.0,0.0,0.25,1.6601560800000001,0.01,0.0,0.6399999856948853,2.200000047683716,161.22999572753906,0.02435302734375,-0.1329345703125,0.98895263671875,36.04999923706055,0.0,-33.0,2.230712890625,-0.1928863525390625,Closing,0.0,0.0,0.0,0.0,0.0,0.0,0.0,0.125,
4.6317090000000025,0.0,0.0,16502.0,1.5,1447.5,0.0,0.0,0.25,0.812988198,0.01,0.008544920999999484,-48698.0,0.625,-1492.5,-0.0,0.0,0.125,0.5029296360000001,0.01,-0.0012207030000004337,44175.0,8.5,1545.0,0.0,0.0,0.125,3.385009419,0.01,0.0,-65370.0,0.625,-1485.0,-0.0,0.0,0.25,1.6601560800000001,0.01,0.0,0.5699999928474426,1.6200000047683716,161.27999877929688,-0.33538818359375,-0.0174560546875,1.0008544921875,36.04999923706055,0.0,335.0,2.23492431640625,-0.194427490234375,Closing,0.0,0.0,0.0,0.0,0.0,0.0,0.0,0.0,
4.689619999999995,0.0,0.0,16706.0,2.875,1320.0,420.0,0.0,0.125,0.812988198,0.01,-0.0012207029999995456,-48913.0,1.625,-1350.0,-420.0,0.0,0.125,0.509033151,0.01,0.0012207030000004337,44397.0,1.125,1395.0,420.0,0.0,0.125,3.386230122,0.01,-0.0012207029999999897,-65591.0,0.625,-1387.5,-420.0,0.0,0.25,1.612548663,0.01,-0.00732421800000016,0.3799999952316284,0.7099999785423279,161.39999389648438,-0.05682373046875,-0.01983642578125,0.67578125,36.04999923706055,0.0,54.0,2.2462005615234375,-0.1943359375,Closing,0.0,0.0,0.0,0.0,0.0,0.0,0.0,0.0,
4.7707069999999945,0.0,0.0,16706.0,4.25,1072.5,NaN,0.0,0.125,0.812988198,NaN,0.0,-48913.0,1.625,-1155.0,NaN,0.0,0.125,0.509033151,NaN,0.003662108999999525,44397.0,0.875,1200.0,NaN,0.0,0.125,3.382568013,NaN,0.0012207029999999897,-65591.0,1.625,-1215.0,NaN,0.0,0.25,1.6564939710000002,NaN,0.0,0.3799999952316284,-0.07999999821186066,161.74000549316406,-0.51593017578125,-0.04168701171875,0.440185546875,35.970001220703125,0.0,475.0,2.2678070068359375,-0.19134521484375,Closing,0.0,0.0,0.0,0.0,0.0,0.0,0.0,0.0,
4.827692999999999,0.0,0.0,16848.0,6.5,877.5,NaN,0.0,0.125,0.811767495,NaN,-0.0012207029999995456,-49078.0,5.75,-877.5,NaN,0.0,0.0,0.507812448,NaN,0.0012207030000004337,44588.0,0.375,1140.0,NaN,0.0,0.0,3.382568013,NaN,0.0,-65763.0,3.625,-922.5,NaN,0.0,0.125,1.617431475,NaN,0.0024414060000002014,0.3400000035762787,-1.409999966621399,161.5500030517578,-0.319091796875,-0.02008056640625,0.85479736328125,35.970001220703125,0.0,274.0,2.3001708984375,-0.183502197265625,Closing,0.0,0.0,0.0,0.0,0.0,0.0,0.0,0.0,
4.894695000000007,0.0,0.0,16848.0,6.5,645.0,NaN,0.0,0.125,0.812988198,NaN,0.0012207029999995456,-49161.0,5.0,-637.5,NaN,0.0,0.0,0.5041503390000001,NaN,0.0,44707.0,0.375,780.0,NaN,0.0,0.0,3.387450825,NaN,0.0,-65847.0,2.625,-472.5,NaN,0.0,0.125,1.612548663,NaN,0.0,0.3499999940395355,-2.569999933242798,161.55999755859375,-0.33990478515625,-0.02923583984375,1.04937744140625,35.970001220703125,0.0,266.0,2.3436737060546875,-0.170928955078125,Closing,0.0,0.0,0.0,0.0,0.0,0.0,0.0,0.0,
4.985963000000018,0.0,0.0,16918.0,4.25,232.5,NaN,0.0,0.125,0.812988198,NaN,0.0012207030000004337,-49161.0,3.125,-232.5,NaN,0.0,0.0,0.507812448,NaN,0.0,44707.0,0.375,450.0,NaN,0.0,0.0,3.392333637,NaN,0.004882811999999959,-65847.0,1.75,-255.0,NaN,0.0,0.125,1.6076658510000001,NaN,-0.004882811999999959,0.3100000023841858,-3.5299999713897705,161.5500030517578,-0.22491455078125,-0.0074462890625,1.02972412109375,35.970001220703125,0.0,148.0,2.408233642578125,-0.15106201171875,Closing,0.0,0.0,0.0,0.0,0.0,0.0,0.0,0.0,
5.054883000000002,0.0,0.0,16926.0,2.75,7.5,NaN,0.0,0.125,0.8178710100000001,NaN,0.0,-49177.0,1.25,-22.5,NaN,0.0,0.0,0.5041503390000001,NaN,0.0,44754.0,0.75,187.5,NaN,0.0,0.0,3.38134731,NaN,0.0,-65865.0,0.875,-22.5,NaN,0.0,0.125,1.6113279600000001,NaN,0.0,0.28999999165534973,-3.6500000953674316,161.67999267578125,-0.005615234375,0.03045654296875,1.04766845703125,35.970001220703125,0.0,-50.0,2.466949462890625,-0.13262939453125,Closing,0.0,0.0,0.0,0.0,0.0,0.0,0.0,0.0,
5.135581999999995,0.0,0.0,16926.0,1.75,-67.5,NaN,0.0,0.125,0.811767495,NaN,0.0,-49169.0,0.75,45.0,NaN,0.0,0.0,0.5029296360000001,NaN,-0.004882811999999959,44756.0,1.125,45.0,NaN,0.0,0.0,3.383788716,NaN,-0.009765623999999917,-65862.0,0.625,15.0,NaN,0.0,0.125,1.6027830390000002,NaN,-0.004882811999999959,0.3400000035762787,-3.4600000381469727,161.66000366210938,9.1552734375E-4,0.009521484375,1.074462890625,35.970001220703125,0.0,-61.0,2.5130767822265625,-0.1184844970703125,Closing,0.0,0.0,0.0,0.0,0.0,0.0,0.0,0.0,
5.198755999999994,0.0,0.0,16913.0,1.5,-60.0,NaN,0.0,0.25,0.812988198,NaN,-0.0012207030000004337,-49169.0,0.625,45.0,NaN,0.0,0.0,0.498046824,NaN,-0.0012207030000004337,44756.0,1.375,-30.0,NaN,0.0,0.0,3.382568013,NaN,0.0,-65862.0,0.5,0.0,NaN,0.0,0.125,1.6027830390000002,NaN,-0.009765623999999917,0.33000001311302185,-3.069999933242798,161.50999450683594,0.06396484375,-0.0098876953125,1.024658203125,35.970001220703125,0.0,-117.0,2.5678863525390625,-0.1017608642578125,Closing,0.0,0.0,0.0,0.0,0.0,0.0,0.0,0.125,
5.272358000000008,0.0,0.0,16912.0,1.75,-22.5,NaN,0.0,0.125,0.812988198,NaN,-0.0012207029999995456,-49164.0,0.75,30.0,NaN,0.0,0.0,0.49316401200000004,NaN,-0.009765623999999917,44755.0,1.375,-7.5,NaN,0.0,0.0,3.383788716,NaN,0.0,-65855.0,0.5,45.0,NaN,0.0,0.125,1.6027830390000002,NaN,0.0012207030000004337,0.3199999928474426,-2.8499999046325684,161.5399932861328,0.008544921875,0.03765869140625,1.00311279296875,35.959999084472656,0.0,-45.0,2.609222412109375,-0.0890350341796875,Closing,0.0,0.0,0.0,0.0,0.0,0.0,0.0,0.0,
5.3369470000000145,0.0,0.0,16912.0,1.875,0.0,NaN,0.0,0.25,0.812988198,NaN,0.0,-49164.0,0.875,0.0,NaN,0.0,0.0,0.49194330900000005,NaN,0.0,44755.0,1.375,0.0,NaN,0.0,0.0,3.38134731,NaN,0.0,-65855.0,0.5,67.5,NaN,0.0,0.125,1.6040037420000002,NaN,0.0,0.36000001430511475,-2.809999942779541,161.61000061035156,-0.05072021484375,0.02630615234375,1.03363037109375,35.959999084472656,0.0,6.0,2.6194305419921875,-0.0829315185546875,Closing,0.0,0.0,0.0,0.0,0.0,0.0,0.0,0.0,
5.435849000000016,0.0,0.0,16912.0,1.875,0.0,NaN,0.0,0.125,0.811767495,NaN,0.0,-49164.0,0.875,0.0,NaN,0.0,0.0,0.49316401200000004,NaN,0.0,44755.0,1.375,0.0,NaN,0.0,0.0,3.382568013,NaN,0.0,-65851.0,0.5,0.0,NaN,0.0,0.125,1.6027830390000002,NaN,0.0,0.3799999952316284,-2.5999999046325684,161.55999755859375,0.00445556640625,0.013427734375,0.986328125,35.959999084472656,0.0,-44.0,2.6182708740234375,-0.0831298828125,Closing,0.0,0.0,0.0,0.0,0.0,0.0,0.0,0.0,
5.526559000000009,0.0,0.0,16912.0,2.0,0.0,NaN,0.0,0.125,0.810546792,NaN,0.0,-49164.0,0.875,0.0,NaN,0.0,0.0,0.49316401200000004,NaN,0.0,44755.0,1.375,0.0,NaN,0.0,0.0,3.382568013,NaN,0.0,-65851.0,0.625,0.0,NaN,0.0,0.125,1.596679524,NaN,0.0,0.4000000059604645,-2.5199999809265137,161.5800018310547,-0.02685546875,0.020751953125,1.0169677734375,35.959999084472656,0.0,-12.0,2.617401123046875,-0.083343505859375,Closing,0.0,0.0,0.0,0.0,0.0,0.0,0.0,0.125,
5.60102800000002,0.0,0.0,16912.0,2.0,0.0,NaN,0.0,0.25,0.812988198,NaN,0.0012207029999995456,-49164.0,0.875,0.0,NaN,0.0,0.0,0.49194330900000005,NaN,-0.0012207030000004337,44755.0,1.375,0.0,NaN,0.0,0.0,3.383788716,NaN,0.0,-65851.0,0.625,0.0,NaN,0.0,0.125,1.6027830390000002,NaN,0.0,0.4099999964237213,-2.4100000858306885,161.57000732421875,-0.001220703125,-0.002685546875,1.01617431640625,35.959999084472656,0.0,-42.0,2.6169281005859375,-0.083343505859375,Closing,0.0,0.0,0.0,0.0,0.0,0.0,0.0,0.0,
5.745288,0.0,0.0,16912.0,2.0,0.0,NaN,0.0,0.125,0.812988198,NaN,0.0012207029999995456,-49164.0,0.875,0.0,NaN,0.0,0.0,0.49316401200000004,NaN,0.0,44755.0,1.5,0.0,NaN,0.0,0.0,3.383788716,NaN,0.0,-65851.0,0.625,0.0,NaN,0.0,0.125,1.6015623360000002,NaN,0.0,0.4300000071525574,-2.2699999809265137,161.57000732421875,-0.01336669921875,0.00592041015625,1.00909423828125,35.93000030517578,0.0,-25.0,2.6152801513671875,-0.0834808349609375,Closing,0.0,0.0,0.0,0.0,0.0,0.0,0.0,0.0,
5.794804000000004,0.0,0.0,16912.0,1.25,0.0,420.0,0.0,0.25,0.811767495,0.01,-0.0012207029999995456,-49164.0,0.625,0.0,-420.0,0.0,0.0,0.498046824,0.01,0.0012207030000004337,44755.0,3.375,0.0,420.0,0.0,0.0,3.382568013,0.01,0.0,-65851.0,0.375,0.0,-420.0,0.0,0.125,1.6027830390000002,0.01,0.0,0.41999998688697815,-2.2200000286102295,161.5800018310547,0.001708984375,0.00848388671875,1.02606201171875,35.93000030517578,0.0,-39.0,2.6148529052734375,-0.0834808349609375,Closing,0.0,0.0,0.0,0.0,0.0,0.0,0.0,0.0,
5.848928000000014,0.0,0.0,16912.0,0.125,7.5,420.0,0.0,0.125,0.812988198,0.01,0.0012207029999995456,-49164.0,0.0,0.0,-420.0,0.0,0.125,0.489501903,0.01,-0.0012207030000004337,44755.0,5.25,0.0,420.0,0.0,0.125,3.383788716,0.01,0.0,-65851.0,0.375,0.0,-420.0,0.0,0.25,1.59912093,0.01,-0.0012207030000004337,0.4300000071525574,-2.130000114440918,161.57000732421875,-0.0115966796875,0.02593994140625,1.0157470703125,35.93000030517578,0.0,-24.0,2.61358642578125,-0.0836334228515625,Closing,0.0,0.0,0.0,0.0,0.0,0.0,0.0,0.0,
5.905369999999995,0.0,0.0,16915.0,0.125,7.5,420.0,0.0,0.125,0.812988198,0.01,-0.0012207029999995456,-49164.0,0.0,0.0,-420.0,0.0,0.125,0.49316401200000004,0.01,0.0,44756.0,5.875,0.0,420.0,0.0,0.125,3.382568013,0.01,-0.0012207029999999897,-65857.0,0.375,-52.5,-420.0,0.0,0.25,1.6027830390000002,0.01,0.0012207030000004337,0.44999998807907104,-2.059999942779541,161.55999755859375,-0.00555419921875,0.01446533203125,1.02777099609375,35.93000030517578,0.0,-27.0,2.6122589111328125,-0.0836334228515625,Closing,0.0,0.0,0.0,0.0,0.0,0.0,0.0,0.0,
5.949286000000022,0.0,0.0,16915.0,0.0,15.0,420.0,0.0,0.125,0.812988198,4.932113859231906,0.0012207029999995456,-49164.0,0.125,-7.5,-420.0,0.0,0.125,0.5041503390000001,4.9636319828491215,0.0012207030000004337,44756.0,6.875,7.5,420.0,0.0,0.125,3.382568013,4.940262632649739,0.0012207029999999897,-65857.0,0.375,-112.5,-420.0,0.0,0.125,1.6027830390000002,4.95786214328342,-0.0012207030000004337,0.4399999976158142,-1.9900000095367432,161.5399932861328,-0.0250244140625,0.0064697265625,1.03228759765625,35.93000030517578,0.0,-10.0,2.6105499267578125,-0.0836334228515625,Closing,0.0,0.0,0.0,0.0,0.0,0.0,0.0,0.0,
5.994021000000008,0.0,0.0,16915.0,0.125,15.0,420.0,0.0,0.125,0.812988198,4.931839786751769,-0.0012207029999995456,-49172.0,0.25,-30.0,-420.0,0.0,0.125,0.498046824,4.963356158939361,-0.0012207030000004337,44760.0,7.875,15.0,420.0,0.0,0.125,3.382568013,4.9399881073506675,0.0,-65876.0,0.375,-120.0,-420.0,0.0,0.125,1.6027830390000002,4.957586639997694,0.0012207030000004337,0.4300000071525574,-1.8899999856948853,161.58999633789062,-0.009765625,0.0137939453125,1.03021240234375,35.93000030517578,0.0,-21.0,2.6076812744140625,-0.083770751953125,Closing,0.0,0.0,0.0,0.0,0.0,0.0,0.0,0.0,
6.0513960000000075,0.0,0.0,16918.0,0.125,22.5,420.0,0.0,0.125,0.812988198,0.01,0.0012207029999995456,-49172.0,0.375,-90.0,-420.0,0.0,0.125,0.498046824,0.01,0.004882811999999959,44760.0,9.5,30.0,420.0,0.0,0.125,3.382568013,0.01,0.0,-65876.0,0.625,-75.0,-420.0,0.0,0.25,1.617431475,0.01,0.0,0.44999998807907104,-1.7799999713897705,161.58999633789062,0.03851318359375,0.0185546875,1.02215576171875,35.93000030517578,0.0,-63.0,2.6048736572265625,-0.0838623046875,Closing,0.0,0.0,0.0,0.0,0.0,0.0,0.0,0.0,
6.106335000000021,0.0,0.0,16918.0,0.125,52.5,420.0,0.0,0.25,0.808105386,0.01,-0.0012207029999995456,-49199.0,0.375,-135.0,-420.0,0.0,0.125,0.498046824,0.01,0.0012207030000004337,44770.0,10.375,60.0,420.0,0.0,0.125,3.383788716,0.01,0.0,-65888.0,1.25,-60.0,-420.0,0.0,0.125,1.641845535,0.01,0.013427732999999442,0.46000000834465027,-1.6200000047683716,161.5399932861328,0.02081298828125,0.0076904296875,1.0223388671875,35.93000030517578,0.0,-47.0,2.6000213623046875,-0.0843353271484375,Closing,0.0,0.0,0.0,0.0,0.0,0.0,0.0,0.0,
6.161426999999996,0.0,0.0,16933.0,0.125,90.0,420.0,0.0,0.25,0.812988198,4.931839786751769,0.0012207029999995456,-49199.0,0.625,-172.5,-420.0,0.0,0.0,0.5029296360000001,4.963356158939361,0.0,44770.0,11.75,75.0,420.0,0.0,0.125,3.383788716,4.9399881073506675,0.0,-65888.0,1.625,-82.5,-420.0,0.0,0.25,1.6552732680000002,4.957586639997694,-4.9384687519999995,0.4399999976158142,-1.4199999570846558,161.5800018310547,0.0562744140625,0.02362060546875,1.04345703125,35.93000030517578,0.0,-73.0,2.59381103515625,-0.0847320556640625,Closing,0.0,0.0,0.0,0.0,0.0,0.0,0.0,0.0,
6.217198000000004,0.0,0.0,16933.0,0.125,127.5,0.0,0.0,0.25,0.812988198,0.01,0.0,-49199.0,0.5,-150.0,-0.0,0.0,0.0,0.50048823,0.01,0.004882811999999959,44770.0,10.875,82.5,0.0,0.0,0.125,3.382568013,0.01,0.0,-65888.0,0.75,-120.0,-0.0,0.0,0.25,1.6613767830000001,0.01,0.019531248000000057,0.44999998807907104,-1.2599999904632568,161.60000610351562,0.0169677734375,0.005859375,1.0435791015625,35.93000030517578,0.0,-38.0,2.588134765625,-0.0854949951171875,Closing,0.0,0.0,0.0,0.0,0.0,0.0,0.0,0.0,
6.271337,0.0,0.0,16953.0,0.125,135.0,0.0,0.0,0.25,0.812988198,0.01,-0.0012207029999995456,-49214.0,0.0,-75.0,-0.0,0.0,0.125,0.5029296360000001,0.01,0.0,44786.0,6.5,97.5,0.0,0.0,0.125,3.382568013,0.01,0.0,-65907.0,0.375,-120.0,-0.0,0.0,0.25,1.6613767830000001,0.01,0.0,0.46000000834465027,-1.2000000476837158,161.58999633789062,0.00592041015625,0.059814453125,1.05035400390625,35.95000076293945,0.0,-10.0,2.5799560546875,-0.0870361328125,Closing,0.0,0.0,0.0,0.0,0.0,0.0,0.0,0.0,
6.322819000000018,0.0,0.0,16953.0,0.125,127.5,420.0,0.0,0.25,0.812988198,2.4661255000000026,0.0,-49214.0,0.25,-30.0,-420.0,0.0,0.125,0.5041503390000001,2.4818850000000023,0.0,44786.0,6.875,135.0,420.0,0.0,0.125,3.383788716,2.470199999999998,0.0,-65907.0,0.625,-112.5,-420.0,0.0,0.25,1.6589353770000002,2.4789999999999974,-0.0012207029999999897,0.4300000071525574,-1.0700000524520874,161.6300048828125,-0.0103759765625,-0.09881591796875,1.13818359375,35.95000076293945,0.0,-44.0,2.57122802734375,-0.08868408203125,Closing,0.0,0.0,0.0,0.0,0.0,0.0,0.0,0.0,
6.374056000000011,0.0,0.0,16988.0,0.125,195.0,420.0,0.0,5.25,0.942382716,2.4661255000000026,0.0,-49245.0,0.625,-180.0,-420.0,0.0,9.5,0.306396453,2.4818850000000023,0.0,44817.0,10.125,195.0,420.0,0.0,5.125,3.6303707220000003,2.470199999999998,0.0,-65939.0,1.0,-180.0,-420.0,0.0,6.625,1.8420408270000002,2.4789999999999974,0.0,0.41999998688697815,-0.8600000143051147,161.5800018310547,-0.001708984375,0.03143310546875,1.08575439453125,35.95000076293945,0.0,-6.0,2.5635833740234375,-0.0893096923828125,Closing,0.0,0.0,0.0,0.0,0.0,0.0,0.0,0.0,
6.429559000000008,0.0,0.0,16988.0,0.125,210.0,420.0,0.0,1.75,1.365966657,2.4661255000000026,-4.708862351,-49245.0,1.0,-330.0,-420.0,0.0,2.0,4.842528801,2.4818850000000023,-0.2685546600000004,44817.0,11.625,195.0,420.0,0.0,2.25,4.0332027120000005,2.470199999999998,0.29663082900000015,-65939.0,1.0,-277.5,-420.0,0.0,2.0,2.247314223,2.4789999999999974,0.21972653999999991,0.5199999809265137,-0.8100000023841858,161.47999572753906,-0.09942626953125,0.03387451171875,0.9532470703125,35.95000076293945,0.0,89.0,2.5524749755859375,-0.0896453857421875,Closing,0.0,0.0,0.0,0.0,0.0,0.0,0.0,0.0,
6.485341000000015,0.0,0.0,16988.0,0.125,210.0,420.0,0.0,1.375,1.7639158350000002,2.4661255000000026,0.38818355400000004,-49266.0,1.5,-180.0,-420.0,0.0,1.5,4.4506831380000005,2.4818850000000023,4.572753438,44842.0,12.75,165.0,420.0,0.0,2.25,4.427489781,2.470199999999998,0.3784179299999999,-65989.0,0.75,-322.5,-420.0,0.0,1.25,2.6867673030000003,2.4789999999999974,0.39184566300000023,0.6800000071525574,-1.3799999952316284,161.8300018310547,-0.3717041015625,0.221923828125,1.02587890625,35.95000076293945,0.0,394.0,2.5440826416015625,-0.0897979736328125,Closing,0.0,0.0,0.0,0.0,0.0,0.0,0.0,0.0,
