Time,ClimberA1,ClimberA2,FRpos,FRCurrent,FRspeed,FRsetpoint,FRApos,FRACurrent,FREncpos,FREncSetpoint,FREncSpeed,FLpos,FLCurrent,FLspeed,FLsetpoint,FLApos,FLACurrent,FLEncpos,FLEncSetpoint,FLEncSpeed,BRpos,BRCurrent,BRspeed,BRsetpoint,BRApos,BRACurrent,BREncpos,BREncSetpoint,BREncSpeed,BLpos,BLCurrent,BLspeed,BLsetpoint,BLApos,BLACurrent,BLEncpos,BLEncSetpoint,BLEncSpeed,navx_Pitch,navx_Roll,navx_Yaw,navx_XAcc,navx_YAcc,navx_ZAcc,navx_Temp,navx_Bar,navx_Alt,navx_XDis,navx_YDis,GearPlacerState,ShootOutputV,ShootOutputCurrent,ShootEncPos,ShootEncVelocity,ShootSpeed,ShootSetpoint,CarouselSetpoint,CarouselCurrent,
0.15273200000001816,0.0,0.0,2548.0,0.0,0.0,0.0,0.0,0.125,0.8178710100000001,0.01,0.0,-17032.0,0.0,0.0,0.0,0.0,0.125,0.49316401200000004,0.01,0.0,29456.0,0.0,0.0,0.0,0.0,0.0,3.359374656,0.01,0.0,-39283.0,0.125,0.0,0.0,0.0,0.125,1.641845535,0.01,0.0,0.25,-0.6399999856948853,160.5800018310547,-0.0130615234375,0.00408935546875,1.01800537109375,36.40999984741211,0.0,1.0,2.1854705810546875,2.8626708984375,Closing,0.0,0.0,0.0,0.0,0.0,0.0,0.0,0.0,
0.2893369999999995,0.0,0.0,2584.0,10.125,277.5,1470.0,0.0,0.25,0.8032225740000001,0.01,0.0,-17069.0,13.25,-337.5,-1470.0,0.0,0.125,0.490722606,0.01,0.0,29459.0,15.125,37.5,1470.0,0.0,0.0,3.354491844,0.01,0.0,-39311.0,11.0,-247.5,-1470.0,0.0,0.125,1.704101388,0.01,0.0,0.14000000059604645,0.36000001430511475,160.5800018310547,0.20477294921875,0.12322998046875,1.06500244140625,36.369998931884766,0.0,-146.0,2.1743316650390625,2.8593902587890625,Closing,0.0,0.0,0.0,0.0,0.0,0.0,0.0,0.125,
0.42450400000001537,0.0,0.0,2659.0,13.125,540.0,1470.0,0.0,0.125,0.811767495,4.931976927519862,0.0,-17139.0,15.75,-600.0,-1470.0,0.0,0.125,0.48706049700000004,4.963494176090241,0.0,29488.0,23.0,322.5,1470.0,0.0,0.0,3.343505517,4.9401254747009276,0.0,-39368.0,14.25,-517.5,-1470.0,0.0,0.5,1.6857908430000001,4.957724496714274,0.0,0.2800000011920929,1.7599999904632568,160.69000244140625,0.2017822265625,0.02447509765625,1.39129638671875,36.369998931884766,0.0,-144.0,2.132781982421875,2.8429718017578125,Closing,0.0,0.0,0.0,0.0,0.0,0.0,0.0,0.125,
0.5624670000000042,0.0,0.0,2800.0,10.625,1042.5,1470.0,0.0,0.125,0.811767495,0.01,0.0,-17284.0,11.0,-1117.5,-1470.0,0.0,0.125,0.49438471500000003,0.01,0.0,29572.0,23.625,817.5,1470.0,0.0,0.0,3.354491844,0.01,0.0,-39495.0,11.875,-1012.5,-1470.0,0.0,0.25,1.650390456,0.01,0.0,0.3799999952316284,2.940000057220459,160.77000427246094,0.07305908203125,-0.10516357421875,0.79010009765625,36.369998931884766,0.0,-66.0,2.0590667724609375,2.8144989013671875,Closing,0.0,0.0,0.0,0.0,0.0,0.0,0.0,0.0,
0.6975690000000176,0.0,0.0,2999.0,7.875,1365.0,1470.0,0.0,0.25,0.812988198,0.01,0.0,-17484.0,7.5,-1395.0,-1470.0,0.0,0.125,0.49316401200000004,0.01,0.0,29740.0,19.625,1072.5,1470.0,0.0,0.0,3.345946923,0.01,0.0,-39912.0,7.875,-1395.0,-1470.0,0.0,0.25,1.6638181890000001,0.01,0.0,0.4399999976158142,3.490000009536743,160.72999572753906,0.33306884765625,0.0263671875,0.90631103515625,36.31999969482422,0.0,-255.0,1.9782257080078125,2.7837677001953125,Closing,0.0,0.0,0.0,0.0,0.0,0.0,0.0,0.0,
0.8375030000000261,0.0,0.0,3238.0,4.375,1612.5,1470.0,0.0,0.125,0.8142089010000001,0.01,0.0,-17980.0,3.75,-1605.0,-1470.0,0.0,0.125,0.4882812,0.01,0.0,30114.0,21.375,1207.5,1470.0,0.0,0.0,3.353271141,0.01,0.0,-40169.0,5.25,-1582.5,-1470.0,0.0,0.25,1.645507644,0.01,0.0,0.46000000834465027,3.7699999809265137,160.49000549316406,0.1474609375,0.1646728515625,1.0689697265625,36.31999969482422,0.0,-20.0,1.9013214111328125,2.7531585693359375,Closing,0.0,0.0,0.0,0.0,0.0,0.0,0.0,0.0,
0.9747640000000247,0.0,0.0,3781.0,2.0,1710.0,1470.0,0.0,0.25,0.810546792,4.930469842463176,0.0,-18250.0,1.875,-1672.5,-1470.0,0.0,0.125,0.489501903,4.961977460174561,0.0,30332.0,20.125,1365.0,1470.0,0.0,0.0,3.350829735,4.9386158996582035,0.0,-40442.0,2.25,-1710.0,-1470.0,0.0,0.25,1.646728347,4.956209543863932,0.0,0.5400000214576721,3.940000057220459,160.13999938964844,-0.0728759765625,0.009765625,1.111572265625,36.31999969482422,0.0,140.0,1.8021392822265625,2.7153472900390625,Closing,0.0,0.0,0.0,0.0,0.0,0.0,0.0,0.0,
1.111796000000002,0.0,0.0,4066.0,0.5,1777.5,1470.0,0.0,0.25,0.822753822,4.926222659773255,0.0,-18515.0,0.875,-1665.0,-1470.0,0.0,0.125,0.489501903,4.9577031363372805,0.0,30603.0,14.625,1725.0,1470.0,0.0,0.0,3.354491844,4.934361699829101,0.0,-40725.0,1.0,-1755.0,-1470.0,0.0,0.25,1.645507644,4.951940188598633,0.0,-0.029999999329447746,3.3299999237060547,159.66000366210938,-0.05059814453125,-0.12109375,1.222900390625,36.31999969482422,0.0,72.0,1.7175750732421875,2.69049072265625,Closing,0.0,0.0,0.0,0.0,0.0,0.0,0.0,0.0,
1.2466110000000044,0.0,0.0,4343.0,0.5,1725.0,1470.0000000000002,0.0,0.25,0.826415931,4.919646383642282,0.0,-18802.0,0.125,-1777.5,-1470.0000000000002,0.0,0.0,0.4882812,4.95108483524704,0.0,30899.0,9.75,1837.5,1470.0000000000002,0.0,0.125,3.353271141,4.927774558461508,0.0,-40998.0,0.375,-1755.0,-1470.0000000000002,0.0,0.25,1.6564939710000002,4.945329580773247,0.0,0.009999999776482582,2.9800000190734863,159.17999267578125,0.0693359375,-0.00103759765625,0.53277587890625,36.13999938964844,0.0,-39.0,1.6381683349609375,2.667205810546875,Closing,0.0,0.0,0.0,0.0,0.0,0.0,0.0,0.125,
1.3818559999999998,0.0,0.0,4631.0,0.125,1792.5,1470.0,0.0,0.25,0.836181555,4.91306989845526,0.0,-19079.0,0.0,-1710.0,-1470.0,0.0,0.0,0.483398388,4.944466323764801,0.0,31186.0,7.75,1777.5,1470.0,0.0,0.125,3.343505517,4.921187207692465,0.0,-41276.0,0.375,-1687.5,-1470.0,0.0,0.25,1.6308592080000002,4.938718762800429,0.0,0.20999999344348907,2.2100000381469727,158.55999755859375,0.064697265625,-0.01531982421875,0.92242431640625,36.13999938964844,0.0,-33.0,1.5678253173828125,2.647308349609375,Closing,0.0,0.0,0.0,0.0,0.0,0.0,0.0,0.0,
1.5099300000000222,0.0,0.0,4911.0,0.125,1732.5,1470.0,0.0,0.25,0.822753822,4.904575533075418,0.0,-19347.0,0.0,-1642.5,-1470.0,0.0,0.0,0.484619091,4.935917676090241,0.0,31463.0,7.125,1665.0,1470.0,0.0,0.125,3.353271141,4.912678808034261,0.0,-41542.0,0.125,-1650.0,-1470.0,0.0,0.25,1.6113279600000001,4.930180052269829,0.0,0.3199999928474426,1.8200000524520874,158.02000427246094,-0.072021484375,0.01739501953125,0.9423828125,36.13999938964844,0.0,-68.0,1.5101165771484375,2.64935302734375,Closing,0.0,0.0,0.0,0.0,0.0,0.0,0.0,0.0,
1.6437720000000262,0.0,0.0,5179.0,0.125,1635.0,1470.0,0.0,0.25,0.8300780400000001,4.89621809940762,0.0,-19605.0,0.0,-1575.0,-1470.0,0.0,0.125,0.47363276400000004,4.927506835174561,0.0,31720.0,7.625,1567.5,1470.0,0.0,0.125,3.34472622,4.90430756632487,0.0,-41803.0,0.375,-1575.0,-1470.0,0.0,0.25,1.6076658510000001,4.921778988308377,0.0,0.2199999988079071,1.2999999523162842,157.36000061035156,-0.06768798828125,-0.02532958984375,0.83258056640625,36.13999938964844,0.0,68.0,1.4679718017578125,2.6546783447265625,Closing,0.0,0.0,0.0,0.0,0.0,0.0,0.0,0.125,
1.7711440000000003,0.0,0.0,5416.0,5.875,1312.5,0.0,0.0,0.125,0.821533119,0.01,0.0,-19844.0,7.25,-1245.0,-0.0,0.0,0.25,0.483398388,0.01,0.0,31969.0,0.125,1410.0,0.0,0.0,0.0,3.3691402800000003,0.01,0.0,-42046.0,3.125,-1260.0,-0.0,0.0,0.25,1.539306483,0.01,0.0,0.05000000074505806,-0.9700000286102295,156.7100067138672,-0.54071044921875,0.12060546875,1.5859375,36.02000045776367,0.0,518.0,1.437774658203125,2.66937255859375,Closing,0.0,0.0,0.0,0.0,0.0,0.0,0.0,0.0,
1.9068310000000055,0.0,0.0,5573.0,6.0,735.0,0.0,0.0,0.125,0.820312416,0.01,0.0,-20003.0,6.0,-645.0,-0.0,0.0,0.25,0.483398388,0.01,0.0,32150.0,0.0,750.0,0.0,0.0,0.0,3.3642574680000004,0.01,0.0,-42204.0,2.75,-570.0,-0.0,0.0,0.375,1.597900227,0.01,0.0,0.1899999976158142,-3.190000057220459,156.0500030517578,-0.41314697265625,0.01031494140625,1.02569580078125,36.02000045776367,0.0,327.0,1.45111083984375,2.7046966552734375,Closing,0.0,0.0,0.0,0.0,0.0,0.0,0.0,0.0,
2.0316960000000255,0.0,0.0,5641.0,3.25,195.0,0.0,0.0,0.25,0.812988198,0.01,0.0,-20074.0,3.0,-172.5,-0.0,0.0,0.25,0.483398388,0.01,0.0,32236.0,0.375,210.0,0.0,0.0,0.0,3.3630367650000004,0.01,0.0,-42293.0,1.25,-142.5,-0.0,0.0,0.25,1.627197099,0.01,0.0,0.20999999344348907,-4.170000076293945,156.05999755859375,-0.112060546875,0.0084228515625,1.01171875,36.02000045776367,0.0,36.0,1.4890899658203125,2.7458648681640625,Closing,0.0,0.0,0.0,0.0,0.0,0.0,0.0,0.0,
2.164243000000017,0.0,0.0,5645.0,1.25,-75.0,0.0,0.0,0.125,0.821533119,0.01,0.0,-20073.0,0.875,60.0,-0.0,0.0,0.25,0.483398388,0.01,0.0,32262.0,0.5,60.0,0.0,0.0,0.0,3.348388329,0.01,0.0,-42287.0,0.5,30.0,-0.0,0.0,0.25,1.625976396,0.01,0.0,0.28999999165534973,-3.940000057220459,156.1300048828125,0.01007080078125,0.01458740234375,1.0888671875,36.02000045776367,0.0,-74.0,1.49365234375,2.7446746826171875,Closing,0.0,0.0,0.0,0.0,0.0,0.0,0.0,0.0,
2.298263000000006,0.0,0.0,5629.0,1.0,-37.5,0.0,0.0,0.25,0.820312416,0.01,0.0,-20067.0,0.875,45.0,-0.0,0.0,0.25,0.47363276400000004,0.01,0.0,32260.0,0.75,-7.5,0.0,0.0,0.0,3.341064111,0.01,0.0,-42287.0,0.75,0.0,-0.0,0.0,0.125,1.627197099,0.01,0.0,0.30000001192092896,-3.309999942779541,156.0500030517578,0.03778076171875,0.007080078125,1.04022216796875,36.02000045776367,0.0,-88.0,1.484710693359375,2.7389068603515625,Closing,0.0,0.0,0.0,0.0,0.0,0.0,0.0,0.0,
2.4264770000000135,0.0,0.0,5633.0,0.125,15.0,420.0,0.0,2.0,1.065673719,0.5498168668524888,0.0,-20070.0,0.0,-7.5,-420.0,0.0,5.25,0.8679198330000001,1.9285545897722227,0.0,32263.0,3.125,7.5,420.0,0.0,1.875,3.087157887,4.389674732977289,0.0,-42287.0,0.375,0.0,-420.0,0.0,2.25,1.130370978,3.0316872062785585,0.0,0.3100000023841858,-2.9600000381469727,156.0500030517578,0.01080322265625,0.02825927734375,0.9871826171875,36.02000045776367,0.0,-47.0,1.4684295654296875,2.728515625,Closing,0.0,0.0,0.0,0.0,0.0,0.0,0.0,0.0,
2.549985000000015,0.0,0.0,5639.0,0.125,22.5,420.0,0.0,0.5,1.3757322810000001,0.5498168668524888,0.0,-20087.0,0.0,-97.5,-420.0,0.0,1.5,1.8737791050000001,1.9285545897722227,0.0,32278.0,5.125,90.0,420.0,0.0,0.25,2.75878878,4.389674732977289,0.0,-42291.0,0.625,-15.0,-420.0,0.0,1.75,0.12939451800000001,3.0316872062785585,0.0,0.3400000035762787,-2.569999933242798,155.8699951171875,-0.0037841796875,-0.0521240234375,1.05279541015625,36.02000045776367,0.0,-63.0,1.4491119384765625,2.7105865478515625,Closing,0.0,0.0,0.0,0.0,0.0,0.0,0.0,0.125,
2.686253000000026,0.0,0.0,5660.0,0.125,127.5,420.0,0.0,0.25,1.434326025,0.5498168668524888,0.0,-20107.0,0.25,-142.5,-420.0,0.0,0.5,2.5854489540000003,1.9285545897722227,0.0,32298.0,6.25,135.0,420.0,0.0,0.0,2.652587619,4.389674732977289,0.0,-42300.0,1.375,-90.0,-420.0,0.0,0.625,4.471435089,3.0316872062785585,0.0,0.38999998569488525,-2.549999952316284,154.33999633789062,-0.08197021484375,0.03985595703125,0.9705810546875,36.02000045776367,0.0,49.0,1.4420166015625,2.7022247314453125,Closing,0.0,0.0,0.0,0.0,0.0,0.0,0.0,0.0,
2.8191140000000012,0.0,0.0,5690.0,0.375,195.0,420.0,0.0,0.375,1.4233396980000002,0.5498168668524888,0.0,-20140.0,0.25,-240.0,-420.0,0.0,0.5,2.8515622080000003,1.9285545897722227,0.0,32326.0,7.75,165.0,420.0,0.0,0.125,2.712402066,4.389674732977289,0.0,-42326.0,1.625,-202.5,-420.0,0.0,0.375,4.332274947,3.0316872062785585,0.0,0.5099999904632568,-2.5999999046325684,151.82000732421875,-0.05401611328125,0.01123046875,1.0950927734375,36.02000045776367,0.0,4.0,1.4429473876953125,2.701904296875,Closing,0.0,0.0,0.0,0.0,0.0,0.0,0.0,0.0,
2.9513000000000176,0.0,0.0,5718.0,0.875,135.0,420.0,0.0,0.25,1.383056499,0.5498168668524888,0.0,-20187.0,0.625,-232.5,-420.0,0.0,0.875,2.629394262,1.9285545897722227,0.0,32340.0,13.125,45.0,420.0,0.0,0.125,2.75878878,4.389674732977289,0.0,-42361.0,2.125,-165.0,-420.0,0.0,0.625,4.61425734,3.0316872062785585,0.0,0.5400000214576721,-2.1600000858306885,150.49000549316406,0.025634765625,0.00799560546875,1.02447509765625,36.02000045776367,0.0,-56.0,1.438385009765625,2.700408935546875,Closing,0.0,0.0,0.0,0.0,0.0,0.0,0.0,0.125,
3.0850100000000094,0.0,0.0,5731.0,1.875,120.0,420.0,0.0,0.25,1.392822123,0.5498168668524888,0.0,-20203.0,2.25,-150.0,-420.0,0.0,0.25,2.4267575640000003,1.9285545897722227,0.0,32350.0,15.25,127.5,420.0,0.0,0.0,2.762450889,4.389674732977289,0.0,-42383.0,3.0,-187.5,-420.0,0.0,0.25,4.7155756890000005,3.0316872062785585,0.0,0.5899999737739563,-1.9600000381469727,148.27000427246094,0.05682373046875,-0.009765625,1.05523681640625,36.02000045776367,0.0,-89.0,1.42889404296875,2.6984710693359375,Closing,0.0,0.0,0.0,0.0,0.0,0.0,0.0,0.0,
3.2196820000000006,0.0,0.0,5768.0,1.5,337.5,420.0,0.0,0.125,1.357421736,0.5498168668524888,0.0,-20243.0,1.5,-360.0,-420.0,0.0,0.125,2.303466561,1.9285545897722227,0.0,32386.0,12.0,360.0,420.0,0.0,0.0,2.761230186,4.389674732977289,0.0,-42426.0,2.25,-382.5,-420.0,0.0,0.25,4.692382332,3.0316872062785585,0.0,0.7400000095367432,-1.5499999523162842,143.4199981689453,-0.07000732421875,0.0057373046875,0.963623046875,36.02000045776367,0.0,31.0,1.4169769287109375,2.696258544921875,Closing,0.0,0.0,0.0,0.0,0.0,0.0,0.0,0.125,
3.345963000000018,0.0,0.0,5844.0,0.375,540.0,420.0,0.0,0.125,1.358642439,0.5498168668524888,0.0,-20308.0,0.625,-480.0,-420.0,0.0,0.25,2.303466561,1.9285545897722227,0.0,32451.0,8.875,517.5,420.0,0.0,0.0,2.761230186,4.389674732977289,0.0,-42583.0,1.25,-502.5,-420.0,0.0,0.25,4.649657727,3.0316872062785585,0.0,0.9700000286102295,-1.2599999904632568,135.57000732421875,-0.01995849609375,-0.0262451171875,0.9854736328125,36.09000015258789,0.0,-31.0,1.4033203125,2.6900634765625,Closing,0.0,0.0,0.0,0.0,0.0,0.0,0.0,0.0,
3.478503000000026,0.0,0.0,5933.0,0.125,555.0,420.0,0.0,0.125,1.357421736,0.5498168668524888,0.0,-20390.0,0.25,-525.0,-420.0,0.0,0.25,2.391357177,1.9285545897722227,0.0,32655.0,5.875,675.0,420.0,0.0,0.0,2.762450889,4.389674732977289,0.0,-42672.0,0.625,-555.0,-420.0,0.0,0.125,4.636229994000001,3.0316872062785585,0.0,1.1299999952316284,-1.090000033378601,127.7300033569336,-0.02734375,0.00433349609375,1.08270263671875,36.09000015258789,0.0,-9.0,1.39093017578125,2.68658447265625,Closing,0.0,0.0,0.0,0.0,0.0,0.0,0.0,0.0,
3.609885000000009,0.0,0.0,6031.0,0.375,600.0,420.0,0.0,0.25,1.356201033,0.5498168668524888,0.0,-20568.0,0.125,-585.0,-420.0,0.0,0.25,2.4255368610000003,1.9285545897722227,0.0,32757.0,4.5,652.5,420.0,0.0,0.0,2.762450889,4.389674732977289,0.0,-42759.0,0.375,-532.5,-420.0,0.0,0.125,4.636229994000001,3.0316872062785585,0.0,1.1299999952316284,-1.059999942779541,119.18000030517578,-0.0242919921875,-0.02789306640625,0.89398193359375,36.09000015258789,0.0,-35.0,1.377838134765625,2.6874847412109375,Closing,0.0,0.0,0.0,0.0,0.0,0.0,0.0,0.0,
3.7339940000000063,0.0,0.0,6124.0,0.375,540.0,420.0,0.0,0.25,1.356201033,0.5498168668524888,0.0,-20653.0,0.125,-540.0,-420.0,0.0,0.125,2.4255368610000003,1.9285545897722227,0.0,32846.0,4.5,562.5,420.0,0.0,0.0,2.761230186,4.389674732977289,0.0,-42850.0,0.375,-570.0,-420.0,0.0,0.125,4.631347182,3.0316872062785585,0.0,1.190000057220459,-0.800000011920929,112.19999694824219,0.00677490234375,0.06195068359375,1.1368408203125,36.09000015258789,0.0,26.0,1.3744659423828125,2.688812255859375,Closing,0.0,0.0,0.0,0.0,0.0,0.0,0.0,0.125,
3.8660810000000057,0.0,0.0,6276.0,0.125,435.0,0.0,0.0,1.75,1.1340330870000002,0.01,0.0,-20725.0,0.375,-435.0,-0.0,0.0,6.0,2.1203611110000002,0.01,0.0,32913.0,1.375,412.5,0.0,0.0,2.5,3.0480953910000004,0.01,0.0,-42930.0,0.25,-487.5,-0.0,0.0,7.75,0.19531248,0.01,0.0,1.0700000524520874,-0.6399999856948853,105.6500015258789,0.04736328125,0.0582275390625,1.0333251953125,36.150001525878906,0.0,21.0,1.374298095703125,2.689544677734375,Closing,0.0,0.0,0.0,0.0,0.0,0.0,0.0,0.0,
3.99615300000002,0.0,0.0,6313.0,0.375,247.5,0.0,0.0,0.5,0.7885741380000001,0.01,0.0,-20744.0,0.125,-82.5,-0.0,0.0,1.5,1.1083983240000002,0.01,0.0,32950.0,1.625,202.5,0.0,0.0,0.375,3.4802242530000003,0.01,0.0,-42971.0,0.125,-172.5,-0.0,0.0,1.875,1.2121580790000002,0.01,0.0,1.100000023841858,-0.4399999976158142,103.30000305175781,-0.0960693359375,0.03729248046875,1.06158447265625,36.150001525878906,0.0,36.0,1.373138427734375,2.6849212646484375,Closing,0.0,0.0,0.0,0.0,0.0,0.0,0.0,0.0,
4.132579000000027,0.0,0.0,6319.0,0.125,22.5,0.0,0.0,0.25,0.694580007,0.01,0.0,-20744.0,0.0,0.0,-0.0,0.0,0.5,0.37841793,0.01,0.0,32954.0,2.875,7.5,0.0,0.0,0.125,3.509521125,0.01,0.0,-42984.0,0.125,-37.5,-0.0,0.0,0.875,1.877441214,0.01,0.0,0.9599999785423279,-0.6000000238418579,103.30000305175781,1.8310546875E-4,0.01861572265625,1.0382080078125,36.150001525878906,0.0,-1.0,1.371246337890625,2.6834716796875,Closing,0.0,0.0,0.0,0.0,0.0,0.0,0.0,0.125,
4.270402000000002,0.0,0.0,6319.0,0.125,0.0,8.4,0.0,0.375,0.771484296,0.01,0.0,-20744.0,0.0,0.0,-8.4,0.0,0.75,0.175781232,0.01,0.0,32956.0,3.0,7.5,8.4,0.0,0.125,3.4130855880000004,0.01,0.0,-42987.0,0.125,-30.0,-8.4,0.0,1.0,1.9152830070000002,0.01,0.0,0.9399999976158142,-0.5,103.43000030517578,0.01153564453125,-0.00726318359375,1.03424072265625,36.15999984741211,0.0,-28.0,1.3701171875,2.6831207275390625,Closing,0.0,0.0,0.0,0.0,0.0,0.0,0.0,0.0,
4.4014980000000214,0.0,0.0,6323.0,0.125,15.0,8.400000000000002,0.0,0.25,0.798339762,0.01,0.0,-20744.0,0.0,0.0,-8.400000000000002,0.0,0.5,0.363769494,0.01,0.0,32958.0,3.0,15.0,8.400000000000002,0.0,0.125,3.35693325,0.01,0.0,-42991.0,0.125,-7.5,-8.400000000000002,0.0,0.5,1.6833494370000002,0.01,0.0,0.9100000262260437,-0.5799999833106995,103.4800033569336,-0.01214599609375,-0.0111083984375,1.04168701171875,36.15999984741211,0.0,-26.0,1.3697967529296875,2.683502197265625,Closing,0.0,0.0,0.0,0.0,0.0,0.0,0.0,0.125,
4.53011500000002,0.0,0.0,6323.0,0.125,0.0,0.0,0.0,0.125,0.799560465,0.01,0.0,-20745.0,0.0,-15.0,-0.0,0.0,0.25,0.56152338,0.01,0.0,32961.0,3.0,0.0,0.0,0.0,0.0,3.349609032,0.01,0.0,-42992.0,0.125,7.5,-0.0,0.0,0.25,1.573486167,0.01,0.0,0.8500000238418579,-0.6000000238418579,103.5,-0.0203857421875,0.00347900390625,1.02886962890625,36.15999984741211,0.0,-9.0,1.369354248046875,2.683563232421875,Closing,0.0,0.0,0.0,0.0,0.0,0.0,0.0,0.125,
4.670062000000005,0.0,0.0,6325.0,0.125,97.5,420.0,0.0,0.125,0.799560465,0.01,0.0,-20778.0,0.5,-195.0,-420.0,0.0,0.25,0.5810546280000001,0.01,0.0,32966.0,9.75,15.0,420.0,0.0,0.0,3.331298487,0.01,0.0,-43011.0,0.625,-135.0,-420.0,0.0,0.25,1.617431475,0.01,0.0,0.7900000214576721,-0.3100000023841858,103.48999786376953,0.0240478515625,0.01055908203125,0.97607421875,36.15999984741211,0.0,-9.0,1.369110107421875,2.6808013916015625,Closing,0.0,0.0,0.0,0.0,0.0,0.0,0.0,0.125,
4.948932000000001,0.0,0.0,6388.0,0.125,67.5,NaN,0.0,0.125,0.8032225740000001,NaN,0.0,-20812.0,0.125,-60.0,NaN,0.0,0.0,0.5664061920000001,NaN,0.0,32988.0,5.875,142.5,NaN,0.0,0.0,3.3166500510000003,NaN,0.0,-43053.0,0.375,-60.0,NaN,0.0,0.125,1.6613767830000001,NaN,0.0,0.7900000214576721,0.07000000029802322,103.12999725341797,0.001953125,0.00103759765625,1.05535888671875,36.220001220703125,0.0,-13.0,1.368560791015625,2.6676483154296875,Closing,0.0,0.0,0.0,0.0,0.0,0.0,0.0,0.0,
5.230018000000011,0.0,0.0,6460.0,0.125,217.5,430.9364451129221,0.0,0.375,0.825195228,0.1772289037632384,0.0,-20870.0,0.375,-307.5,-430.9364451129221,0.0,0.25,0.577392519,0.1783614653092168,0.0,33061.0,8.625,202.5,430.9364451129221,0.0,0.25,3.349609032,0.17752171901874073,0.0,-43101.0,0.75,-217.5,-430.9364451129221,0.0,0.375,1.6845701400000002,0.1781541338545293,0.0,0.7400000095367432,-0.019999999552965164,102.63999938964844,0.03826904296875,-0.0091552734375,0.942138671875,36.220001220703125,0.0,-29.0,1.3650970458984375,2.67828369140625,Closing,0.0,0.0,0.0,0.0,0.0,0.0,0.0,0.0,
5.381789000000019,0.0,0.0,6547.0,0.125,307.5,428.24059247000696,0.0,0.375,0.9875487270000001,0.15424620790777568,0.0,-20959.0,1.125,-285.0,-428.24059247000696,0.0,0.25,0.678710868,0.15523190109878424,0.0,33143.0,9.25,292.5,428.24059247000696,0.0,0.125,3.5375972940000002,0.15450105145654083,0.0,-43183.0,1.375,-217.5,-428.24059247000696,0.0,0.25,1.796874816,0.1550514559795825,0.0,0.9200000166893005,0.23000000417232513,102.37000274658203,0.02508544921875,0.022216796875,0.99993896484375,36.209999084472656,0.0,1.0,1.3635711669921875,2.6796112060546875,Closing,0.0,0.0,0.0,0.0,0.0,0.0,0.0,0.125,
5.688399000000005,0.0,0.0,6659.0,0.125,367.5,NaN,0.0,0.125,1.1389158990000001,NaN,0.0,-21060.0,0.0,-217.5,NaN,0.0,0.0,0.7897948410000001,NaN,0.0,33270.0,2.125,397.5,NaN,0.0,0.0,3.6840816540000003,NaN,0.0,-43301.0,0.375,-240.0,NaN,0.0,0.125,1.912841601,NaN,0.0,1.1200000047683716,0.09000000357627869,102.08999633789062,-0.07257080078125,0.02825927734375,1.17132568359375,36.209999084472656,0.0,20.0,1.3680877685546875,2.67193603515625,Closing,0.0,0.0,0.0,0.0,0.0,0.0,0.0,0.0,
5.953809000000009,0.0,0.0,6754.0,0.125,255.0,423.9696204936888,0.0,0.375,1.026611223,0.10750455483864146,0.0,-21198.0,0.25,-262.5,-423.9696204936888,0.0,0.25,0.7751464050000001,0.1081915507080648,0.0,33412.0,5.75,262.5,423.9696204936888,0.0,0.25,3.5375972940000002,0.10768217244516232,0.0,-43436.0,0.375,-285.0,-423.9696204936888,0.0,0.5,1.834716609,0.1080657863701552,0.0,0.8399999737739563,-0.25,101.9800033569336,0.01116943359375,-0.018310546875,1.0125732421875,36.18000030517578,0.0,-35.0,1.3695526123046875,2.6787261962890625,Closing,0.0,0.0,0.0,0.0,0.0,0.0,0.0,0.0,
6.284162000000011,0.0,0.0,6893.0,0.125,315.0,420.7870906111546,0.0,0.375,0.6970214130000001,0.04802077676867344,0.0,-21291.0,0.875,-300.0,-420.7870906111546,0.0,0.0,0.44189448600000003,0.04832764818762024,0.0,33519.0,6.125,352.5,420.7870906111546,0.0,0.125,3.2080074840000004,0.04810011606221059,0.0,-43521.0,1.25,-307.5,-420.7870906111546,0.0,0.25,1.5502928100000002,0.04827147102186869,0.0,0.28999999165534973,0.10000000149011612,101.33000183105469,0.0404052734375,0.03717041015625,1.02655029296875,36.150001525878906,0.0,23.0,1.3597564697265625,2.6769866943359375,Closing,0.0,0.0,0.0,0.0,0.0,0.0,0.0,0.0,
6.556418000000005,0.0,0.0,7015.0,0.125,405.0,420.19691087185544,0.0,0.25,0.7751464050000001,4.908218127627576,0.0,-21410.0,0.625,-420.0,-420.19691087185544,0.0,0.25,0.458984328,4.939583548236683,0.0,33719.0,5.25,442.5,420.19691087185544,0.0,0.0,3.334960596,4.916327420833059,0.0,-43707.0,0.625,-427.5,-420.19691087185544,0.0,0.125,1.6076658510000001,4.933841663122481,0.0,0.47999998927116394,0.30000001192092896,101.23999786376953,0.04669189453125,0.03131103515625,1.07708740234375,36.150001525878906,0.0,13.0,1.36187744140625,2.6668243408203125,Closing,0.0,0.0,0.0,0.0,0.0,0.0,0.0,0.125,
6.816648000000016,0.0,0.0,7152.0,0.125,442.5,423.9696204936888,0.0,0.375,0.7653807810000001,4.824746445161359,0.0,-21621.0,0.375,-442.5,-423.9696204936888,0.0,0.25,0.46386714,4.855578449291936,0.0,33869.0,4.5,472.5,423.9696204936888,0.0,0.125,3.2568356040000004,4.832717827554839,0.0,-43848.0,0.625,-427.5,-423.9696204936888,0.0,0.25,1.5295408590000001,4.849934213629845,0.0,0.41999998688697815,0.33000001311302185,101.16999816894531,-0.06103515625,0.00677490234375,0.9744873046875,36.099998474121094,0.0,12.0,1.362548828125,2.6587371826171875,Closing,0.0,0.0,0.0,0.0,0.0,0.0,0.0,0.125,
7.090578000000009,0.0,0.0,7375.0,0.375,472.5,424.8953961344487,0.0,0.125,0.688476492,4.812975549907741,0.0,-21759.0,0.375,-420.0,-424.8953961344487,0.0,0.125,0.379638633,4.84373233344482,0.0,34032.0,3.25,502.5,424.8953961344487,0.0,0.0,3.1652828790000003,4.82092748458345,0.0,-43985.0,0.625,-427.5,-424.8953961344487,0.0,0.25,1.4489744610000002,4.838101867979261,0.0,0.17000000178813934,0.15000000596046448,100.08000183105469,-0.03973388671875,0.01458740234375,1.04913330078125,36.099998474121094,0.0,18.0,1.3550262451171875,2.6619415283203125,Closing,0.0,0.0,0.0,0.0,0.0,0.0,0.0,0.125,
7.427255000000005,0.0,0.0,7593.0,0.375,442.5,425.9162806985224,0.0,0.125,0.6970214130000001,4.801258457807891,0.0,-21964.0,0.375,-427.5,-425.9162806985224,0.0,0.0,0.38208003900000004,4.831940364574527,0.0,34262.0,3.0,465.0,425.9162806985224,0.0,0.0,3.2104488900000003,4.809191033658689,0.0,-44195.0,0.625,-435.0,-425.9162806985224,0.0,0.25,1.467285006,4.826323606363813,0.0,0.20999999344348907,-0.029999999329447746,99.48999786376953,0.01177978515625,0.03887939453125,1.14019775390625,36.119998931884766,0.0,32.0,1.3558197021484375,2.6644744873046875,Closing,0.0,0.0,0.0,0.0,0.0,0.0,0.0,0.0,
7.6869680000000224,0.0,0.0,7730.0,0.375,412.5,430.9364451129221,0.0,0.25,0.688476492,4.755022096236761,0.0,-22096.0,0.625,-405.0,-430.9364451129221,0.0,0.25,0.358886682,4.785408534690783,0.0,34404.0,3.0,427.5,430.9364451129221,0.0,0.125,3.2031246720000004,4.762878280981259,0.0,-44329.0,0.75,-405.0,-430.9364451129221,0.0,0.25,1.468505709,4.77984586614547,0.0,0.28999999165534973,-0.1599999964237213,99.05999755859375,0.02581787109375,-0.0211181640625,1.02142333984375,36.119998931884766,0.0,-30.0,1.3576507568359375,2.6688385009765625,Closing,0.0,0.0,0.0,0.0,0.0,0.0,0.0,0.0,
8.01721100000001,0.0,0.0,7864.0,0.375,420.0,433.99691499659593,0.0,0.375,0.6604003230000001,4.732344317004644,0.0,-22226.0,0.625,-405.0,-433.99691499659593,0.0,0.125,0.324706998,4.762585835639374,0.0,34544.0,3.0,435.0,433.99691499659593,0.0,0.125,3.1738278,4.7401630338216245,0.0,-44527.0,0.75,-420.0,-433.99691499659593,0.0,0.25,1.4477537580000002,4.757049696722454,0.0,0.3100000023841858,-0.12999999523162842,98.69999694824219,0.00372314453125,0.00628662109375,1.131103515625,36.11000061035156,0.0,0.0,1.3577728271484375,2.67010498046875,Closing,0.0,0.0,0.0,0.0,0.0,0.0,0.0,0.0,
8.285891000000003,0.0,0.0,8067.0,0.375,420.0,435.66151586552843,0.0,0.125,0.5932616580000001,4.721129584569014,0.0,-22425.0,0.75,-420.0,-435.66151586552843,0.0,0.25,0.324706998,4.751299436706716,0.0,34755.0,2.875,442.5,435.66151586552843,0.0,0.0,3.1054684320000003,4.728929772553091,0.0,-44661.0,0.75,-420.0,-435.66151586552843,0.0,0.25,1.409911965,4.745776417358559,0.0,0.18000000715255737,-0.14000000059604645,98.3499984741211,-0.01617431640625,0.04486083984375,1.10577392578125,36.11000061035156,0.0,42.0,1.357147216796875,2.6715087890625,Closing,0.0,0.0,0.0,0.0,0.0,0.0,0.0,0.125,
8.561349000000016,0.0,0.0,8207.0,0.375,435.0,439.2543575481068,0.0,0.125,0.5676268950000001,4.698966387762507,0.0,-22561.0,0.75,-442.5,-439.2543575481068,0.0,0.25,0.31005856200000004,4.728994608462525,0.0,34900.0,2.625,457.5,439.2543575481068,0.0,0.0,3.1054684320000003,4.706729958005359,0.0,-44797.0,0.75,-442.5,-439.2543575481068,0.0,0.25,1.406249856,4.723497516757868,0.0,0.3100000023841858,-0.2199999988079071,98.02999877929688,0.01959228515625,0.0537109375,0.94940185546875,36.11000061035156,0.0,44.0,1.360992431640625,2.672119140625,Closing,0.0,0.0,0.0,0.0,0.0,0.0,0.0,0.0,
8.893304000000004,0.0,0.0,8413.0,0.375,420.0,439.2543575481068,0.0,0.25,0.583496034,4.698966387762507,0.0,-22763.0,1.0,-412.5,-439.2543575481068,0.0,0.125,0.28076169,4.728994608462525,0.0,35116.0,2.625,442.5,439.2543575481068,0.0,0.0,3.1079098380000003,4.706729958005359,0.0,-44998.0,1.0,-412.5,-439.2543575481068,0.0,0.25,1.409911965,4.723497516757868,0.0,0.3100000023841858,-0.23000000417232513,97.63999938964844,-0.00726318359375,-0.02752685546875,1.03387451171875,36.130001068115234,0.0,-32.0,1.3642578125,2.673675537109375,Closing,0.0,0.0,0.0,0.0,0.0,0.0,0.0,0.125,
9.228290000000008,0.0,0.0,8624.0,0.375,435.0,435.66151586552843,0.0,0.125,0.5810546280000001,4.721129584569014,0.0,-22976.0,0.875,-450.0,-435.66151586552843,0.0,0.125,0.28076169,4.751299436706716,0.0,35335.0,2.25,457.5,435.66151586552843,0.0,0.0,3.1066891350000003,4.728929772553091,0.0,-45210.0,1.0,-450.0,-435.66151586552843,0.0,0.125,1.409911965,4.745776417358559,0.0,0.33000001311302185,-0.27000001072883606,97.66999816894531,-0.03643798828125,-0.0479736328125,1.052490234375,36.130001068115234,0.0,-49.0,1.3645172119140625,2.6737518310546875,Closing,0.0,0.0,0.0,0.0,0.0,0.0,0.0,0.0,
9.492043000000006,0.0,0.0,8763.0,0.375,435.0,429.54249080416946,0.0,0.375,0.592040955,4.766477385014434,0.0,-23118.0,0.875,-435.0,-429.54249080416946,0.0,0.25,0.300292938,4.796937027213962,0.0,35479.0,2.125,442.5,429.54249080416946,0.0,0.0,3.132323898,4.774352496035848,0.0,-45354.0,0.75,-442.5,-429.54249080416946,0.0,0.25,1.434326025,4.7913609576847485,0.0,0.28999999165534973,-0.3499999940395355,97.72000122070312,-0.007568359375,-0.0255126953125,0.97265625,36.150001525878906,0.0,-30.0,1.365203857421875,2.6736907958984375,Closing,0.0,0.0,0.0,0.0,0.0,0.0,0.0,0.0,
9.749913000000001,0.0,0.0,8900.0,0.375,405.0,422.40583311735,0.0,0.375,0.6994628190000001,4.848429690877773,0.0,-23261.0,0.625,-427.5,-422.40583311735,0.0,0.25,0.391845663,4.8794130401490845,0.0,35621.0,2.25,412.5,422.40583311735,0.0,0.0,3.2666012280000003,4.856440202417223,0.0,-45495.0,0.75,-435.0,-422.40583311735,0.0,0.25,1.5063475020000001,4.873741098612378,0.0,0.49000000953674316,-0.3499999940395355,97.91000366210938,-0.013916015625,0.0748291015625,1.27740478515625,36.150001525878906,0.0,64.0,1.366912841796875,2.6725921630859375,Closing,0.0,0.0,0.0,0.0,0.0,0.0,0.0,0.125,
9.925994000000006,0.0,0.0,8965.0,0.125,397.5,420.4429197751611,0.0,0.375,0.8410643670000001,0.03603524225560903,0.0,-23395.0,0.75,-412.5,-420.4429197751611,0.0,0.25,0.49438471500000003,0.03626552145280612,0.0,35751.0,2.375,397.5,420.4429197751611,0.0,0.125,3.385009419,0.03609477920722422,0.0,-45631.0,0.75,-412.5,-420.4429197751611,0.0,0.375,1.667480298,0.03622336557959227,0.0,0.6800000071525574,-0.4099999964237213,97.88999938964844,-0.06671142578125,0.04437255859375,1.03936767578125,36.119998931884766,0.0,39.0,1.3713226318359375,2.6737823486328125,Closing,0.0,0.0,0.0,0.0,0.0,0.0,0.0,0.0,
10.230045000000041,0.0,0.0,9135.0,0.125,300.0,NaN,0.0,0.125,0.9997557570000001,NaN,0.0,-23494.0,0.125,-172.5,NaN,0.0,0.0,0.682372977,NaN,0.0,35861.0,0.5,307.5,NaN,0.0,0.0,3.50341761,NaN,0.0,-45734.0,0.375,-172.5,NaN,0.0,0.125,1.8676755900000002,NaN,0.0,0.8100000023841858,-0.7599999904632568,98.1500015258789,-0.1175537109375,-0.0562744140625,0.80682373046875,36.119998931884766,0.0,-51.0,1.390777587890625,2.6815185546875,Closing,0.0,0.0,0.0,0.0,0.0,0.0,0.0,0.125,
10.399331000000005,0.0,0.0,9176.0,0.125,292.5,544.9849609450246,0.0,3.375,0.7507323450000001,4.389888419759704,0.0,-23543.0,1.375,-405.0,-544.9849609450246,0.0,4.75,0.496826121,4.41794151217175,0.0,35904.0,3.625,270.0,544.9849609450246,0.0,3.25,3.194579751,4.397141335463431,0.0,-45835.0,1.875,-382.5,-544.9849609450246,0.0,5.25,1.5502928100000002,4.4128059957144545,0.0,0.7099999785423279,-0.8500000238418579,98.30000305175781,-0.10662841796875,-0.10235595703125,0.98974609375,36.15999984741211,0.0,-100.0,1.40130615234375,2.6920928955078125,Closing,0.0,0.0,0.0,0.0,0.0,0.0,0.0,0.0,
10.580640000000013,0.0,0.0,9254.0,0.125,217.5,NaN,0.0,0.125,0.45166011,NaN,0.0,-23622.0,0.25,-120.0,NaN,0.0,0.0,4.670409678,NaN,0.0,35979.0,1.25,105.0,NaN,0.0,0.0,2.858886426,NaN,0.0,-45856.0,1.0,-75.0,NaN,0.0,0.125,0.9851073210000001,NaN,0.0,0.5099999904632568,-1.600000023841858,98.77999877929688,-0.038330078125,0.09539794921875,1.131103515625,36.15999984741211,0.0,85.0,1.4016265869140625,2.71490478515625,Closing,0.0,0.0,0.0,0.0,0.0,0.0,0.0,0.0,
10.828950000000011,0.0,0.0,9252.0,0.125,0.0,NaN,0.0,0.125,0.45410151600000004,NaN,0.0,-23623.0,1.0,0.0,NaN,0.0,0.0,4.665526866,NaN,0.0,35978.0,2.375,0.0,NaN,0.0,0.0,2.858886426,NaN,0.0,-45856.0,1.25,0.0,NaN,0.0,0.125,1.101074106,NaN,0.0,0.46000000834465027,-1.25,98.75,-0.01751708984375,0.0242919921875,0.987548828125,36.15999984741211,0.0,15.0,1.40252685546875,2.733428955078125,Closing,0.0,0.0,0.0,0.0,0.0,0.0,0.0,0.0,
11.047823000000033,0.0,0.0,9261.0,2.375,45.0,557.4780828441263,0.0,0.375,0.43457026800000004,4.368948721070494,0.0,-23629.0,8.25,-30.0,-557.4780828441263,0.0,0.5,4.670409678,4.3968680006731375,0.0,35982.0,9.25,22.5,557.4780828441263,0.0,0.125,2.835693069,4.376167040480435,0.0,-45862.0,7.0,-37.5,-557.4780828441263,0.0,0.25,1.1108397300000001,4.3917569805485375,0.0,0.4000000059604645,-1.0199999809265137,98.7699966430664,0.00274658203125,0.0286865234375,0.981689453125,36.08000183105469,0.0,18.0,1.4019012451171875,2.7321014404296875,Closing,0.0,0.0,0.0,0.0,0.0,0.0,0.0,0.0,
11.21492100000003,0.0,0.0,9263.0,1.0,0.0,NaN,0.0,0.125,0.36132808800000005,NaN,0.0,-23634.0,4.25,0.0,NaN,0.0,0.0,4.741210452000001,NaN,0.0,35984.0,6.75,0.0,NaN,0.0,0.0,2.830810257,NaN,0.0,-45866.0,5.375,0.0,NaN,0.0,0.125,1.101074106,NaN,0.0,0.47999998927116394,-0.9900000095367432,98.79000091552734,-0.0018310546875,0.02423095703125,1.04156494140625,36.08000183105469,0.0,12.0,1.403961181640625,2.7321014404296875,Closing,0.0,0.0,0.0,0.0,0.0,0.0,0.0,0.0,
11.389136999999987,0.0,0.0,9263.0,1.125,0.0,NaN,0.0,0.25,0.36132808800000005,NaN,0.0,-23634.0,4.5,0.0,NaN,0.0,0.0,4.738769046,NaN,0.0,35984.0,6.75,0.0,NaN,0.0,0.0,2.828368851,NaN,0.0,-45866.0,5.5,0.0,NaN,0.0,0.125,1.092529185,NaN,0.0,0.4699999988079071,-0.8799999952316284,98.80000305175781,-0.00152587890625,0.00445556640625,1.02105712890625,36.099998474121094,0.0,-6.0,1.403961181640625,2.7321014404296875,Closing,0.0,0.0,0.0,0.0,0.0,0.0,0.0,0.0,
11.63480800000002,0.0,0.0,9263.0,1.125,0.0,NaN,0.0,0.125,0.36254879100000004,NaN,0.0,-23634.0,4.5,0.0,NaN,0.0,0.0,4.739989749,NaN,0.0,35984.0,6.625,0.0,NaN,0.0,0.0,2.828368851,NaN,0.0,-45866.0,5.625,0.0,NaN,0.0,0.125,1.101074106,NaN,0.0,0.4699999988079071,-0.7799999713897705,98.80000305175781,-0.00128173828125,0.00714111328125,1.01763916015625,36.099998474121094,0.0,-3.0,1.403961181640625,2.7321014404296875,Closing,0.0,0.0,0.0,0.0,0.0,0.0,0.0,0.0,
11.787748000000022,0.0,0.0,9266.0,5.25,15.0,528.9635539488993,0.0,0.25,0.379638633,4.419316466454968,0.0,-23637.0,14.875,-22.5,-528.9635539488993,0.0,0.25,4.761962403,4.447557615517778,0.0,35986.0,16.75,7.5,528.9635539488993,0.0,0.0,2.823486039,4.426618002789016,0.0,-45868.0,13.625,-7.5,-528.9635539488993,0.0,0.125,1.102294809,4.442387672623257,0.0,0.47999998927116394,-0.7200000286102295,98.80999755859375,-0.00146484375,-0.027587890625,1.07891845703125,36.099998474121094,0.0,-38.0,1.403533935546875,2.731597900390625,Closing,0.0,0.0,0.0,0.0,0.0,0.0,0.0,0.125,
11.964766000000003,0.0,0.0,9266.0,3.125,0.0,NaN,0.0,0.25,0.36254879100000004,NaN,0.0,-23641.0,9.375,0.0,NaN,0.0,0.0,4.830321771,NaN,0.0,35986.0,12.25,0.0,NaN,0.0,0.0,2.824706742,NaN,0.0,-45869.0,9.5,0.0,NaN,0.0,0.125,1.102294809,NaN,0.0,0.46000000834465027,-0.6499999761581421,98.81999969482422,-8.544921875E-4,-0.0028076171875,0.9931640625,36.13999938964844,0.0,-12.0,1.40338134765625,2.73150634765625,Closing,0.0,0.0,0.0,0.0,0.0,0.0,0.0,0.125,
12.10082699999999,0.0,0.0,9267.0,7.125,7.5,420.0,0.0,1.0,0.380859336,4.932113963759931,0.0,-23642.0,18.375,-7.5,-420.0,0.0,2.125,4.904784654,4.96363208804512,0.0,35986.0,19.875,0.0,420.0,0.0,0.875,2.8393551780000004,4.940262737350464,0.0,-45869.0,16.5,0.0,-420.0,0.0,1.375,1.174316286,4.957862248357137,0.0,0.46000000834465027,-0.6100000143051147,98.80999755859375,0.0218505859375,0.0291748046875,1.03411865234375,36.13999938964844,0.0,15.0,1.403472900390625,2.73126220703125,Closing,0.0,0.0,0.0,0.0,0.0,0.0,0.0,0.125,
12.22650900000002,0.0,0.0,9267.0,10.25,0.0,420.0,0.0,0.75,0.6970214130000001,4.931976927519862,0.0,-23646.0,21.375,-67.5,-420.0,0.0,1.0,0.417480426,4.963494176090241,0.0,35986.0,24.875,0.0,420.0,0.0,1.0,3.233642247,4.9401254747009276,0.0,-45876.0,19.125,-30.0,-420.0,0.0,0.75,1.507568205,4.957724496714274,0.0,0.4399999976158142,-0.550000011920929,98.83999633789062,0.01031494140625,0.02227783203125,1.04827880859375,36.13999938964844,0.0,10.0,1.4037017822265625,2.73016357421875,Closing,0.0,0.0,0.0,0.0,0.0,0.0,0.0,0.125,
12.361489,0.0,0.0,9267.0,13.5,0.0,420.0,0.0,0.375,0.8178710100000001,0.01,0.0,-23670.0,25.125,-75.0,-420.0,0.0,0.25,0.58593744,0.01,0.0,35985.0,29.625,-7.5,420.0,0.0,0.25,3.359374656,0.01,0.0,-45879.0,26.125,-22.5,-420.0,0.0,0.375,1.646728347,0.01,0.0,0.47999998927116394,-0.5099999904632568,98.91999816894531,0.001220703125,0.01416015625,1.0323486328125,36.13999938964844,0.0,3.0,1.403778076171875,2.7299041748046875,Closing,0.0,0.0,0.0,0.0,0.0,0.0,0.0,0.0,
12.490545000000042,0.0,0.0,9267.0,10.5,0.0,0.0,0.0,0.25,0.8178710100000001,0.01,0.0,-23681.0,20.375,-60.0,-0.0,0.0,0.25,0.576171816,0.01,0.0,35985.0,24.75,0.0,0.0,0.0,0.0,3.348388329,0.01,0.0,-45879.0,22.0,0.0,-0.0,0.0,0.25,1.640624832,0.01,0.0,0.46000000834465027,-0.47999998927116394,98.91000366210938,-0.00714111328125,8.544921875E-4,1.006591796875,36.13999938964844,0.0,-7.0,1.403778076171875,2.7299041748046875,Closing,0.0,0.0,0.0,0.0,0.0,0.0,0.0,0.0,
12.641216000000014,0.0,0.0,9267.0,10.5,0.0,0.0,0.0,0.125,0.8178710100000001,0.01,0.0,-23682.0,20.375,-7.5,-0.0,0.0,0.25,0.576171816,0.01,0.0,35985.0,24.75,0.0,0.0,0.0,0.0,3.349609032,0.01,0.0,-45879.0,21.875,0.0,-0.0,0.0,0.125,1.641845535,0.01,0.0,0.4399999976158142,-0.49000000953674316,98.91000366210938,-0.13677978515625,-0.1126708984375,1.1478271484375,36.13999938964844,0.0,-100.0,1.404022216796875,2.7302398681640625,Closing,0.0,0.0,0.0,0.0,0.0,0.0,0.0,0.125,
12.767440999999991,0.0,0.0,9269.0,15.75,7.5,420.0,0.0,2.5,1.229247921,2.4661255000000026,0.0,-23686.0,27.0,-67.5,-420.0,0.0,1.25,1.064453016,2.4818850000000023,0.0,35987.0,33.0,15.0,420.0,0.0,1.125,2.883300486,2.470199999999998,0.0,-45881.0,31.75,-22.5,-420.0,0.0,2.375,2.097167754,2.4789999999999974,0.0,0.5400000214576721,-0.5,98.91999816894531,-0.097412109375,0.07867431640625,1.09173583984375,36.13999938964844,0.0,81.0,1.4044647216796875,2.73193359375,Closing,0.0,0.0,0.0,0.0,0.0,0.0,0.0,0.125,
12.905619000000007,0.0,0.0,9270.0,20.0,7.5,420.0,0.0,2.375,1.856689263,2.4661255000000026,0.0,-23736.0,22.875,-345.0,-420.0,0.0,0.75,1.851806451,2.4818850000000023,0.0,35996.0,39.375,67.5,420.0,0.0,1.875,2.2265622720000002,2.470199999999998,0.0,-45895.0,34.0,-97.5,-420.0,0.0,1.625,2.763671592,2.4789999999999974,0.0,0.75,-0.49000000953674316,98.94000244140625,-0.026611328125,0.0157470703125,1.1014404296875,36.13999938964844,0.0,3.0,1.4079132080078125,2.7316741943359375,Closing,0.0,0.0,0.0,0.0,0.0,0.0,0.0,0.125,
13.03054999999999,0.0,0.0,9283.0,21.125,90.0,420.0,0.0,2.75,2.451171624,2.4661255000000026,0.0,-23786.0,23.625,-277.5,-420.0,0.0,0.75,2.608642311,2.4818850000000023,0.0,36007.0,48.0,60.0,420.0,0.0,1.375,1.566161949,2.470199999999998,0.0,-45918.0,32.375,-210.0,-420.0,0.0,2.0,3.40576137,2.4789999999999974,0.0,1.159999966621399,-0.7799999713897705,98.79000091552734,-0.12060546875,0.054443359375,1.181884765625,36.16999816894531,0.0,45.0,1.4143524169921875,2.733428955078125,Closing,0.0,0.0,0.0,0.0,0.0,0.0,0.0,0.0,
13.163690000000003,0.0,0.0,9320.0,20.375,292.5,420.0,0.0,1.75,3.037109064,2.4661255000000026,0.0,-23838.0,23.5,-390.0,-420.0,0.0,0.5,2.9992672710000003,2.4818850000000023,0.0,36021.0,39.25,202.5,420.0,0.0,0.5,0.96435537,2.470199999999998,0.0,-45966.0,26.125,-465.0,-420.0,0.0,0.625,4.045409742,2.4789999999999974,0.0,0.7300000190734863,-2.2300000190734863,98.30000305175781,-0.39190673828125,-0.094482421875,1.1468505859375,36.16999816894531,0.0,-57.0,1.42840576171875,2.74908447265625,Closing,0.0,0.0,0.0,0.0,0.0,0.0,0.0,0.125,
13.29249900000001,0.0,0.0,9412.0,10.75,795.0,420.0,0.0,0.5,3.5229488580000003,2.4661255000000026,0.0,-23925.0,13.0,-795.0,-420.0,0.0,0.25,3.139648116,2.4818850000000023,0.0,36069.0,29.375,405.0,420.0,0.0,0.125,0.576171816,2.470199999999998,0.0,-46066.0,16.25,-817.5,-420.0,0.0,0.375,4.279784718,2.4789999999999974,0.0,-0.27000001072883606,-3.700000047683716,99.04000091552734,-0.03839111328125,-0.00628662109375,1.2103271484375,36.16999816894531,0.0,-6.0,1.43548583984375,2.79876708984375,Closing,0.0,0.0,0.0,0.0,0.0,0.0,0.0,0.125,
13.422743000000017,0.0,0.0,9584.0,2.0,1237.5,420.0,0.0,0.375,3.446044569,2.4661255000000026,0.0,-24072.0,4.625,-1027.5,-420.0,0.0,0.25,3.181152018,2.4818850000000023,0.0,36144.0,23.875,532.5,420.0,0.0,0.5,0.716552661,2.470199999999998,0.0,-46373.0,8.625,-975.0,-420.0,0.0,0.5,4.19921832,2.4789999999999974,0.0,-0.6899999976158142,-3.799999952316284,101.30000305175781,-0.0814208984375,0.2122802734375,0.6600341796875,36.16999816894531,0.0,223.0,1.4344940185546875,2.85308837890625,Closing,0.0,0.0,0.0,0.0,0.0,0.0,0.0,0.125,
13.556776000000012,0.0,0.0,9794.0,0.125,1282.5,420.0,0.0,0.25,3.302001615,2.4661255000000026,0.0,-24240.0,1.75,-990.0,-420.0,0.0,0.25,3.038329767,2.4818850000000023,0.0,36337.0,22.375,622.5,420.0,0.0,0.25,0.8532713970000001,2.470199999999998,0.0,-46542.0,3.375,-1042.5,-420.0,0.0,0.25,4.079589426,2.4789999999999974,0.0,0.15000000596046448,-3.9200000762939453,104.68000030517578,0.08111572265625,0.16009521484375,0.86749267578125,36.15999984741211,0.0,116.0,1.4488067626953125,2.91033935546875,Closing,0.0,0.0,0.0,0.0,0.0,0.0,0.0,0.125,
13.689589000000037,0.0,0.0,10009.0,0.0,1365.0,420.0,0.0,0.125,3.243407871,2.4661255000000026,0.0,-24583.0,0.0,-1155.0,-420.0,0.0,0.25,2.8479000990000003,2.4818850000000023,0.0,36457.0,19.125,742.5,420.0,0.0,0.0,0.871581942,2.470199999999998,0.0,-46715.0,0.625,-1095.0,-420.0,0.0,0.25,4.016112870000001,2.4789999999999974,0.0,0.8500000238418579,-3.5899999141693115,106.62999725341797,-0.07135009765625,0.11297607421875,1.14337158203125,36.15999984741211,0.0,91.0,1.478912353515625,2.9624481201171875,Closing,0.0,0.0,0.0,0.0,0.0,0.0,0.0,0.0,
13.823902000000002,0.0,0.0,10414.0,1.25,1200.0,420.0,0.0,0.25,3.242187168,2.4661255000000026,0.0,-24758.0,0.0,-1087.5,-420.0,0.0,0.25,2.874755565,2.4818850000000023,0.0,36595.0,14.75,855.0,420.0,0.0,0.0,0.8691405360000001,2.470199999999998,0.0,-46897.0,0.125,-1155.0,-420.0,0.0,0.25,4.027099197,2.4789999999999974,0.0,0.949999988079071,-2.799999952316284,107.76000213623047,0.15863037109375,-0.0213623046875,1.13189697265625,36.15999984741211,0.0,-103.0,1.5149993896484375,3.005523681640625,Closing,0.0,0.0,0.0,0.0,0.0,0.0,0.0,0.125,
13.962323000000033,0.0,0.0,10557.0,6.125,945.0,0.0,0.0,6.25,2.857665723,0.01,0.0,-24910.0,3.25,-922.5,-0.0,0.0,6.0,2.5317380220000003,0.01,0.0,36743.0,4.625,930.0,0.0,0.0,2.25,0.405273396,0.01,0.0,-47061.0,1.5,-930.0,-0.0,0.0,3.5,3.598632444,0.01,0.0,0.7599999904632568,-1.1699999570846558,108.30000305175781,0.1171875,0.3106689453125,1.26434326171875,36.099998474121094,0.0,233.0,1.5416259765625,3.0271148681640625,Closing,0.0,0.0,0.0,0.0,0.0,0.0,0.0,0.125,
14.088744999999996,0.0,0.0,10612.0,4.0,300.0,0.0,0.0,1.5,1.9238279280000001,0.01,0.0,-24959.0,1.0,-180.0,-0.0,0.0,1.5,1.5832517910000001,0.01,0.0,36869.0,3.25,682.5,0.0,0.0,1.375,4.451903841,0.01,0.0,-47136.0,0.75,-360.0,-0.0,0.0,1.875,2.668456758,0.01,0.0,1.1200000047683716,1.3200000524520874,109.44000244140625,0.10028076171875,-0.110107421875,1.0736083984375,36.099998474121094,0.0,-148.0,1.5600128173828125,3.004638671875,Closing,0.0,0.0,0.0,0.0,0.0,0.0,0.0,0.0,
14.222739999999991,0.0,0.0,10635.0,3.125,127.5,0.0,0.0,2.25,1.071777234,0.01,0.0,-24970.0,0.375,-30.0,-0.0,0.0,1.5,0.643310481,0.01,0.0,36928.0,5.125,247.5,0.0,0.0,1.125,3.461913708,0.01,0.0,-47157.0,0.25,-22.5,-0.0,0.0,1.75,1.6857908430000001,0.01,0.0,0.46000000834465027,1.1699999570846558,109.44000244140625,-0.05987548828125,-0.08905029296875,0.9432373046875,36.099998474121094,0.0,-64.0,1.56402587890625,2.96795654296875,Closing,0.0,0.0,0.0,0.0,0.0,0.0,0.0,0.0,
14.356614000000002,0.0,0.0,10638.0,2.375,0.0,0.0,0.0,0.375,0.511474557,0.01,0.0,-24970.0,0.25,7.5,-0.0,0.0,0.25,0.18432615300000002,0.01,0.0,36948.0,7.25,60.0,0.0,0.0,0.125,2.994384459,0.01,0.0,-47155.0,0.125,15.0,-0.0,0.0,0.25,1.2402342480000002,0.01,0.0,0.4099999964237213,1.100000023841858,109.62000274658203,-0.0731201171875,-0.0316162109375,1.07855224609375,36.099998474121094,0.0,-5.0,1.5640411376953125,2.95440673828125,Closing,0.0,0.0,0.0,0.0,0.0,0.0,0.0,0.125,
14.497288000000001,0.0,0.0,10638.0,2.25,0.0,0.0,0.0,0.75,0.601806579,0.01,0.0,-24967.0,0.25,0.0,-0.0,0.0,0.75,0.32348629500000003,0.01,0.0,36951.0,9.125,7.5,0.0,0.0,0.375,3.12499968,0.01,0.0,-47154.0,0.25,-15.0,-0.0,0.0,0.375,1.539306483,0.01,0.0,0.38999998569488525,0.9399999976158142,109.58999633789062,0.02813720703125,0.00103759765625,1.06488037109375,36.0099983215332,0.0,-9.0,1.5643768310546875,2.9560089111328125,Closing,0.0,0.0,0.0,0.0,0.0,0.0,0.0,0.0,
14.631758000000032,0.0,0.0,10637.0,2.25,0.0,0.0,0.0,0.375,0.8007811680000001,0.01,0.0,-24967.0,0.25,0.0,-0.0,0.0,0.25,0.47241206100000005,0.01,0.0,36952.0,9.375,0.0,0.0,0.0,0.375,3.3679195770000003,0.01,0.0,-47160.0,0.25,-7.5,-0.0,0.0,0.375,1.650390456,0.01,0.0,0.3799999952316284,0.8199999928474426,109.58999633789062,-0.02490234375,0.03173828125,1.02764892578125,36.0099983215332,0.0,36.0,1.56451416015625,2.9565277099609375,Closing,0.0,0.0,0.0,0.0,0.0,0.0,0.0,0.0,
14.781193000000028,0.0,0.0,10637.0,2.25,0.0,0.0,0.0,0.125,0.8666991300000001,0.01,0.0,-24967.0,0.25,0.0,-0.0,0.0,0.25,0.522460884,0.01,0.0,36951.0,8.75,0.0,0.0,0.0,0.0,3.408202776,0.01,0.0,-47160.0,0.25,0.0,-0.0,0.0,0.25,1.650390456,0.01,0.0,0.38999998569488525,0.6600000262260437,109.55999755859375,-0.00634765625,0.0338134765625,1.00799560546875,36.0099983215332,0.0,31.0,1.5651702880859375,2.95819091796875,Closing,0.0,0.0,0.0,0.0,0.0,0.0,0.0,0.0,
14.926367000000027,0.0,0.0,10637.0,2.375,0.0,0.0,0.0,0.25,0.861816318,0.01,0.0,-24967.0,0.25,0.0,-0.0,0.0,0.0,0.5175780720000001,0.01,0.0,36952.0,8.375,0.0,0.0,0.0,0.125,3.3740230920000003,0.01,0.0,-47160.0,0.25,0.0,-0.0,0.0,0.25,1.650390456,0.01,0.0,0.38999998569488525,0.5699999928474426,109.55999755859375,-7.32421875E-4,0.01605224609375,0.98968505859375,36.0099983215332,0.0,12.0,1.5654754638671875,2.9591522216796875,Closing,0.0,0.0,0.0,0.0,0.0,0.0,0.0,0.125,
15.062628000000027,0.0,0.0,10637.0,2.375,0.0,0.0,0.0,0.25,0.875244051,0.01,0.0,-24967.0,0.25,0.0,-0.0,0.0,0.0,0.518798775,0.01,0.0,36952.0,8.875,0.0,0.0,0.0,0.0,3.358153953,0.01,0.0,-47160.0,0.25,0.0,-0.0,0.0,0.25,1.650390456,0.01,0.0,0.38999998569488525,0.47999998927116394,109.55999755859375,-0.021240234375,0.00189208984375,1.04583740234375,36.040000915527344,0.0,5.0,1.5659637451171875,2.9592132568359375,Closing,0.0,0.0,0.0,0.0,0.0,0.0,0.0,0.125,
15.199374000000011,0.0,0.0,10637.0,2.375,0.0,0.0,0.0,0.25,0.860595615,0.01,0.0,-24967.0,0.25,0.0,-0.0,0.0,0.0,0.5175780720000001,0.01,0.0,36952.0,9.0,0.0,0.0,0.0,0.0,3.358153953,0.01,0.0,-47160.0,0.25,0.0,-0.0,0.0,0.25,1.650390456,0.01,0.0,0.4000000059604645,0.3799999952316284,109.56999969482422,-0.0145263671875,-0.0059814453125,1.01708984375,36.040000915527344,0.0,-5.0,1.5663299560546875,2.9599761962890625,Closing,0.0,0.0,0.0,0.0,0.0,0.0,0.0,0.0,
15.344717000000005,0.0,0.0,10637.0,2.375,0.0,0.0,0.0,0.25,0.860595615,0.01,0.0,-24967.0,0.25,0.0,-0.0,0.0,0.0,0.5175780720000001,0.01,0.0,36952.0,9.0,0.0,0.0,0.0,0.0,3.358153953,0.01,0.0,-47160.0,0.25,0.0,-0.0,0.0,0.25,1.650390456,0.01,0.0,0.38999998569488525,0.30000001192092896,109.58000183105469,0.0120849609375,0.03179931640625,1.03302001953125,36.040000915527344,0.0,20.0,1.56640625,2.960845947265625,Closing,0.0,0.0,0.0,0.0,0.0,0.0,0.0,0.0,
15.483683000000019,0.0,0.0,10637.0,2.375,0.0,0.0,0.0,0.25,0.860595615,0.01,0.0,-24967.0,0.25,0.0,-0.0,0.0,0.0,0.520019478,0.01,0.0,36952.0,9.125,0.0,0.0,0.0,0.0,3.358153953,0.01,0.0,-47160.0,0.25,0.0,-0.0,0.0,0.25,1.650390456,0.01,0.0,0.4099999964237213,0.23999999463558197,109.58000183105469,0.01300048828125,0.026123046875,1.01947021484375,36.029998779296875,0.0,14.0,1.5664825439453125,2.9615325927734375,Closing,0.0,0.0,0.0,0.0,0.0,0.0,0.0,0.125,
15.622167000000015,0.0,0.0,10637.0,2.375,0.0,0.0,0.0,0.25,0.860595615,0.01,0.0,-24967.0,0.25,0.0,-0.0,0.0,0.0,0.520019478,0.01,0.0,36952.0,9.125,0.0,0.0,0.0,0.0,3.359374656,0.01,0.0,-47160.0,0.25,0.0,-0.0,0.0,0.25,1.651611159,0.01,0.0,0.4099999964237213,0.1899999976158142,109.58000183105469,-0.0167236328125,-0.0379638671875,1.01409912109375,36.029998779296875,0.0,-35.0,1.56695556640625,2.961700439453125,Closing,0.0,0.0,0.0,0.0,0.0,0.0,0.0,0.0,
15.759105000000039,0.0,0.0,10637.0,2.375,0.0,0.0,0.0,0.25,0.861816318,0.01,0.0,-24967.0,0.25,0.0,-0.0,0.0,0.0,0.5175780720000001,0.01,0.0,36952.0,9.125,0.0,0.0,0.0,0.0,3.359374656,0.01,0.0,-47160.0,0.25,0.0,-0.0,0.0,0.25,1.650390456,0.01,0.0,0.4000000059604645,0.14000000059604645,109.58000183105469,-0.0205078125,-0.00714111328125,1.05938720703125,36.029998779296875,0.0,-6.0,1.5669708251953125,2.96246337890625,Closing,0.0,0.0,0.0,0.0,0.0,0.0,0.0,0.125,
15.898688000000023,0.0,0.0,10637.0,2.375,0.0,0.0,0.0,0.25,0.860595615,0.01,0.0,-24967.0,0.25,0.0,-0.0,0.0,0.0,0.5175780720000001,0.01,0.0,36952.0,9.125,0.0,0.0,0.0,0.0,3.359374656,0.01,0.0,-47160.0,0.25,0.0,-0.0,0.0,0.25,1.650390456,0.01,0.0,0.4000000059604645,0.07999999821186066,109.58000183105469,-0.00128173828125,0.01953125,1.04656982421875,36.029998779296875,0.0,12.0,1.5671539306640625,2.9629364013671875,Closing,0.0,0.0,0.0,0.0,0.0,0.0,0.0,0.0,
16.031772999999987,0.0,0.0,10637.0,2.375,0.0,0.0,0.0,0.25,0.864257724,0.01,0.0,-24967.0,0.25,0.0,-0.0,0.0,0.0,0.518798775,0.01,0.0,36952.0,9.25,0.0,0.0,0.0,0.0,3.3703609830000003,0.01,0.0,-47160.0,0.25,0.0,-0.0,0.0,0.25,1.650390456,0.01,0.0,0.4000000059604645,0.029999999329447746,109.58000183105469,0.01116943359375,0.05816650390625,1.00579833984375,35.970001220703125,0.0,44.0,1.5670318603515625,2.963836669921875,Closing,0.0,0.0,0.0,0.0,0.0,0.0,0.0,0.0,
16.166445999999997,0.0,0.0,10637.0,2.375,0.0,0.0,0.0,0.25,0.860595615,0.01,0.0,-24967.0,0.25,0.0,-0.0,0.0,0.0,0.5175780720000001,0.01,0.0,36952.0,9.25,0.0,0.0,0.0,0.0,3.358153953,0.01,0.0,-47160.0,0.25,0.0,-0.0,0.0,0.25,1.651611159,0.01,0.0,0.4099999964237213,0.009999999776482582,109.58000183105469,0.0084228515625,0.01043701171875,0.99359130859375,35.970001220703125,0.0,0.0,1.5670318603515625,2.9644927978515625,Closing,0.0,0.0,0.0,0.0,0.0,0.0,0.0,0.0,
16.288445999999997,0.0,0.0,10637.0,2.5,0.0,0.0,0.0,0.25,0.8569335060000001,0.01,0.0,-24967.0,0.25,0.0,-0.0,0.0,0.0,0.518798775,0.01,0.0,36952.0,9.25,0.0,0.0,0.0,0.0,3.359374656,0.01,0.0,-47160.0,0.25,0.0,-0.0,0.0,0.25,1.650390456,0.01,0.0,0.4099999964237213,-0.019999999552965164,109.58000183105469,-0.02685546875,-0.00738525390625,1.0347900390625,35.970001220703125,0.0,-5.0,1.5675201416015625,2.964202880859375,Closing,0.0,0.0,0.0,0.0,0.0,0.0,0.0,0.0,
16.420408999999985,0.0,0.0,10637.0,2.5,0.0,0.0,0.0,0.25,0.859374912,0.01,0.0,-24967.0,0.25,0.0,-0.0,0.0,0.0,0.5163573690000001,0.01,0.0,36952.0,9.25,0.0,0.0,0.0,0.0,3.358153953,0.01,0.0,-47160.0,0.25,0.0,-0.0,0.0,0.25,1.650390456,0.01,0.0,0.4099999964237213,-0.05999999865889549,109.58000183105469,-0.0106201171875,0.005615234375,1.0283203125,35.970001220703125,0.0,1.0,1.5675201416015625,2.9650421142578125,Closing,0.0,0.0,0.0,0.0,0.0,0.0,0.0,0.0,
16.54713200000004,0.0,0.0,10637.0,2.375,0.0,0.0,0.0,0.25,0.863037021,0.01,0.0,-24967.0,0.25,0.0,-0.0,0.0,0.0,0.5175780720000001,0.01,0.0,36952.0,9.25,0.0,0.0,0.0,0.0,3.358153953,0.01,0.0,-47160.0,0.25,0.0,-0.0,0.0,0.25,1.650390456,0.01,0.0,0.4099999964237213,-0.07999999821186066,109.56999969482422,0.0213623046875,0.04986572265625,1.001953125,36.060001373291016,0.0,32.0,1.5673370361328125,2.9652862548828125,Closing,0.0,0.0,0.0,0.0,0.0,0.0,0.0,0.0,
16.673852000000014,0.0,0.0,10637.0,2.5,0.0,0.0,0.0,0.25,0.8691405360000001,0.01,0.0,-24967.0,0.25,0.0,-0.0,0.0,0.0,0.5175780720000001,0.01,0.0,36952.0,9.25,0.0,0.0,0.0,0.0,3.358153953,0.01,0.0,-47160.0,0.25,0.0,-0.0,0.0,0.25,1.650390456,0.01,0.0,0.41999998688697815,-0.10000000149011612,109.58000183105469,0.0023193359375,0.024658203125,1.0047607421875,36.060001373291016,0.0,14.0,1.5675048828125,2.9657135009765625,Closing,0.0,0.0,0.0,0.0,0.0,0.0,0.0,0.125,
16.809024000000033,0.0,0.0,10637.0,2.5,0.0,0.0,0.0,0.25,0.860595615,0.01,0.0,-24967.0,0.25,0.0,-0.0,0.0,0.0,0.5175780720000001,0.01,0.0,36952.0,9.25,0.0,0.0,0.0,0.0,3.358153953,0.01,0.0,-47160.0,0.25,0.0,-0.0,0.0,0.25,1.644286941,0.01,0.0,0.41999998688697815,-0.11999999731779099,109.58000183105469,-0.036865234375,-0.016845703125,1.00421142578125,36.060001373291016,0.0,-11.0,1.56744384765625,2.966064453125,Closing,0.0,0.0,0.0,0.0,0.0,0.0,0.0,0.0,
16.935340000000025,0.0,0.0,10637.0,2.5,0.0,0.0,0.0,0.25,0.861816318,0.01,0.0,-24967.0,0.25,0.0,-0.0,0.0,0.0,0.5175780720000001,0.01,0.0,36952.0,9.25,0.0,0.0,0.0,0.0,3.359374656,0.01,0.0,-47160.0,0.25,0.0,-0.0,0.0,0.25,1.651611159,0.01,0.0,0.4099999964237213,-0.15000000596046448,109.58000183105469,3.0517578125E-4,0.0213623046875,1.0516357421875,36.060001373291016,0.0,11.0,1.5675811767578125,2.9661407470703125,Closing,0.0,0.0,0.0,0.0,0.0,0.0,0.0,0.0,
17.06581800000003,0.0,0.0,10637.0,2.5,0.0,0.0,0.0,0.25,0.861816318,0.01,0.0,-24967.0,0.25,0.0,-0.0,0.0,0.0,0.5175780720000001,0.01,0.0,36952.0,9.25,0.0,0.0,0.0,0.0,3.355712547,0.01,0.0,-47160.0,0.25,0.0,-0.0,0.0,0.25,1.650390456,0.01,0.0,0.41999998688697815,-0.1599999964237213,109.58000183105469,0.013916015625,0.0369873046875,1.00946044921875,36.08000183105469,0.0,22.0,1.56744384765625,2.9667510986328125,Closing,0.0,0.0,0.0,0.0,0.0,0.0,0.0,0.0,
17.190779000000038,0.0,0.0,10637.0,2.5,0.0,0.0,0.0,0.25,0.861816318,0.01,0.0,-24967.0,0.25,0.0,-0.0,0.0,0.0,0.5175780720000001,0.01,0.0,36952.0,9.25,0.0,0.0,0.0,0.0,3.359374656,0.01,0.0,-47160.0,0.25,0.0,-0.0,0.0,0.25,1.650390456,0.01,0.0,0.41999998688697815,-0.18000000715255737,109.58000183105469,-0.00360107421875,-0.0364990234375,1.01629638671875,36.08000183105469,0.0,-41.0,1.5673828125,2.9672088623046875,Closing,0.0,0.0,0.0,0.0,0.0,0.0,0.0,0.125,
17.324967000000004,0.0,0.0,10637.0,2.5,0.0,0.0,0.0,0.25,0.860595615,0.01,0.0,-24967.0,0.25,0.0,-0.0,0.0,0.0,0.5163573690000001,0.01,0.0,36952.0,9.25,0.0,0.0,0.0,0.0,3.358153953,0.01,0.0,-47160.0,0.25,0.0,-0.0,0.0,0.25,1.650390456,0.01,0.0,0.41999998688697815,-0.1899999976158142,109.58999633789062,-0.03021240234375,-0.0067138671875,1.03106689453125,36.08000183105469,0.0,-4.0,1.5677642822265625,2.9668731689453125,Closing,0.0,0.0,0.0,0.0,0.0,0.0,0.0,0.0,
17.457569000000017,0.0,0.0,10637.0,2.5,0.0,0.0,0.0,0.25,0.861816318,0.01,0.0,-24967.0,0.25,0.0,-0.0,0.0,0.0,0.5175780720000001,0.01,0.0,36952.0,9.25,0.0,0.0,0.0,0.0,3.359374656,0.01,0.0,-47160.0,0.25,0.0,-0.0,0.0,0.25,1.651611159,0.01,0.0,0.4099999964237213,-0.20999999344348907,109.58999633789062,0.0072021484375,0.0294189453125,1.0557861328125,36.08000183105469,0.0,16.0,1.56781005859375,2.96759033203125,Closing,0.0,0.0,0.0,0.0,0.0,0.0,0.0,0.125,
17.58116200000001,0.0,0.0,10637.0,2.5,0.0,0.0,0.0,0.25,0.8532713970000001,0.01,0.0,-24967.0,0.25,0.0,-0.0,0.0,0.0,0.5175780720000001,0.01,0.0,36952.0,9.25,0.0,0.0,0.0,0.0,3.358153953,0.01,0.0,-47160.0,0.25,0.0,-0.0,0.0,0.25,1.650390456,0.01,0.0,0.41999998688697815,-0.2199999988079071,109.58999633789062,0.01788330078125,0.05419921875,1.00262451171875,36.150001525878906,0.0,36.0,1.5676422119140625,2.9680328369140625,Closing,0.0,0.0,0.0,0.0,0.0,0.0,0.0,0.0,
17.708348999999988,0.0,0.0,10637.0,2.5,0.0,0.0,0.0,0.25,0.860595615,0.01,0.0,-24967.0,0.25,0.0,-0.0,0.0,0.0,0.5175780720000001,0.01,0.0,36952.0,9.125,0.0,0.0,0.0,0.0,3.359374656,0.01,0.0,-47160.0,0.25,0.0,-0.0,0.0,0.25,1.649169753,0.01,0.0,0.41999998688697815,-0.23999999463558197,109.58999633789062,0.01019287109375,0.00408935546875,1.00201416015625,36.150001525878906,0.0,-7.0,1.5678863525390625,2.96826171875,Closing,0.0,0.0,0.0,0.0,0.0,0.0,0.0,0.125,
17.830494999999996,0.0,0.0,10642.0,0.0,45.0,0.0,0.0,0.125,0.860595615,0.01,0.0,-24967.0,0.0,0.0,-0.0,0.0,0.0,0.5175780720000001,0.01,0.0,36952.0,0.125,-37.5,0.0,0.0,0.0,3.358153953,0.01,0.0,-47160.0,0.125,0.0,-0.0,0.0,0.125,1.650390456,0.01,0.0,0.4399999976158142,-0.27000001072883606,109.63999938964844,-0.01153564453125,0.03521728515625,0.9327392578125,36.150001525878906,0.0,28.0,1.5683746337890625,2.9684906005859375,Closing,0.0,0.0,0.0,0.0,0.0,0.0,0.0,0.0,
