Time,ClimberA1,ClimberA2,FRpos,FRCurrent,FRspeed,FRsetpoint,FRApos,FRACurrent,FREncpos,FREncSetpoint,FREncSpeed,FLpos,FLCurrent,FLspeed,FLsetpoint,FLApos,FLACurrent,FLEncpos,FLEncSetpoint,FLEncSpeed,BRpos,BRCurrent,BRspeed,BRsetpoint,BRApos,BRACurrent,BREncpos,BREncSetpoint,BREncSpeed,BLpos,BLCurrent,BLspeed,BLsetpoint,BLApos,BLACurrent,BLEncpos,BLEncSetpoint,BLEncSpeed,navx_Pitch,navx_Roll,navx_Yaw,navx_XAcc,navx_YAcc,navx_ZAcc,navx_Temp,navx_Bar,navx_Alt,navx_XDis,navx_YDis,GearPlacerState,ShootOutputV,ShootOutputCurrent,ShootEncPos,ShootEncVelocity,ShootSpeed,ShootSetpoint,CarouselSetpoint,CarouselCurrent,
0.29152700000000187,0.0,0.0,-2110.0,0.0,0.0,0.0,0.0,0.25,0.875244051,0.01,0.0,-2740.0,0.0,0.0,-0.0,0.0,0.125,0.49438471500000003,0.01,0.0,-1657.0,0.0,0.0,0.0,0.0,0.0,3.358153953,0.01,0.0,1536.0,0.0,0.0,-0.0,0.0,0.25,1.6809080310000002,0.01,0.0,0.5,-0.38999998569488525,-9.489999771118164,0.00115966796875,0.0045166015625,1.0430908203125,36.97999954223633,0.0,9.0,1.907989501953125,-0.8076324462890625,Closing,0.0,0.0,0.0,0.0,0.0,0.0,0.0,0.0,
0.3455670000000391,0.0,0.0,-2110.0,0.0,0.0,0.0,0.0,0.25,0.874023348,0.01,0.0,-2740.0,0.0,0.0,-0.0,0.0,0.125,0.49438471500000003,0.01,0.0,-1657.0,0.0,0.0,0.0,0.0,0.0,3.358153953,0.01,0.0,1536.0,0.0,0.0,-0.0,0.0,0.25,1.6821287340000002,0.01,-0.003662109000000191,0.49000000953674316,-0.4000000059604645,-9.489999771118164,0.0179443359375,0.01434326171875,1.0570068359375,36.97999954223633,0.0,24.0,1.90814208984375,-0.8076324462890625,Closing,0.0,0.0,0.0,0.0,0.0,0.0,0.0,0.0,
0.39108700000005775,0.0,0.0,-2110.0,0.0,0.0,0.0,0.0,0.25,0.875244051,0.01,-0.0012207029999999897,-2740.0,0.0,0.0,-0.0,0.0,0.125,0.49316401200000004,0.01,0.0,-1657.0,0.0,0.0,0.0,0.0,0.0,3.35693325,0.01,0.0,1536.0,0.0,0.0,-0.0,0.0,0.25,1.679687328,0.01,0.0012207030000002117,0.49000000953674316,-0.38999998569488525,-9.489999771118164,0.0313720703125,0.04827880859375,1.05865478515625,36.97999954223633,0.0,31.0,1.9088134765625,-0.8073577880859375,Closing,0.0,0.0,0.0,0.0,0.0,0.0,0.0,0.0,
0.4361380000000354,0.0,0.0,-2110.0,0.0,0.0,0.0,0.0,0.25,0.8691405360000001,0.01,0.0,-2740.0,0.0,0.0,-0.0,0.0,0.125,0.49316401200000004,0.01,0.0,-1657.0,0.0,0.0,0.0,0.0,0.0,3.35693325,0.01,0.0,1536.0,0.0,0.0,-0.0,0.0,0.25,1.6809080310000002,0.01,0.0012207029999999897,0.49000000953674316,-0.38999998569488525,-9.489999771118164,0.0198974609375,0.05615234375,1.05462646484375,36.97999954223633,0.0,18.0,1.909393310546875,-0.806488037109375,Closing,0.0,0.0,0.0,0.0,0.0,0.0,0.0,0.0,
0.48973400000005496,0.0,0.0,-2110.0,0.0,0.0,0.0,0.0,0.25,0.875244051,0.01,0.0012207029999999897,-2740.0,0.0,0.0,-0.0,0.0,0.125,0.49316401200000004,0.01,0.0,-1657.0,0.0,0.0,0.0,0.0,0.0,3.358153953,0.01,0.0,1536.0,0.0,0.0,-0.0,0.0,0.25,1.6809080310000002,0.01,-0.0012207029999999897,0.49000000953674316,-0.38999998569488525,-9.489999771118164,0.01080322265625,0.029052734375,1.0443115234375,36.97999954223633,0.0,14.0,1.909393310546875,-0.805084228515625,Closing,0.0,0.0,0.0,0.0,0.0,0.0,0.0,0.0,
0.5316310000000521,0.0,0.0,-2110.0,0.0,0.0,0.0,0.0,0.25,0.874023348,0.01,0.0,-2740.0,0.0,0.0,-0.0,0.0,0.125,0.49316401200000004,0.01,0.0,-1657.0,0.0,0.0,0.0,0.0,0.0,3.358153953,0.01,0.0,1536.0,0.0,0.0,-0.0,0.0,0.25,1.6821287340000002,0.01,0.0,0.49000000953674316,-0.4000000059604645,-9.489999771118164,0.01361083984375,0.031494140625,1.02886962890625,36.97999954223633,0.0,16.0,1.909393310546875,-0.8034210205078125,Closing,0.0,0.0,0.0,0.0,0.0,0.0,0.0,0.0,
0.5725250000000233,0.0,0.0,-2110.0,0.0,0.0,0.0,0.0,0.25,0.875244051,0.01,0.0,-2740.0,0.0,0.0,-0.0,0.0,0.125,0.49316401200000004,0.01,0.0,-1657.0,0.0,0.0,0.0,0.0,0.0,3.358153953,0.01,0.0,1536.0,0.0,0.0,-0.0,0.0,0.25,1.6857908430000001,0.01,-0.0012207030000002117,0.47999998927116394,-0.38999998569488525,-9.489999771118164,0.00128173828125,0.033447265625,1.01898193359375,36.97999954223633,0.0,4.0,1.909393310546875,-0.8014068603515625,Closing,0.0,0.0,0.0,0.0,0.0,0.0,0.0,0.0,
0.6125050000000046,0.0,0.0,-2110.0,0.0,0.0,0.0,0.0,0.25,0.875244051,0.01,0.0,-2740.0,0.0,0.0,-0.0,0.0,0.125,0.49316401200000004,0.01,0.0,-1657.0,0.0,0.0,0.0,0.0,0.0,3.358153953,0.01,0.0,1536.0,0.0,0.0,-0.0,0.0,0.25,1.6821287340000002,0.01,0.0024414060000002014,0.47999998927116394,-0.4000000059604645,-9.489999771118164,0.00799560546875,0.010986328125,1.0186767578125,36.97999954223633,0.0,14.0,1.909393310546875,-0.8006744384765625,Closing,0.0,0.0,0.0,0.0,0.0,0.0,0.0,0.0,
0.6507530000000261,0.0,0.0,-2110.0,0.0,0.0,0.0,0.0,0.25,0.875244051,0.01,0.0,-2740.0,0.0,0.0,-0.0,0.0,0.125,0.49316401200000004,0.01,0.0,-1657.0,0.0,0.0,0.0,0.0,0.0,3.35693325,0.01,0.0,1536.0,0.0,0.0,-0.0,0.0,0.25,1.6809080310000002,0.01,0.0024414060000002014,0.47999998927116394,-0.38999998569488525,-9.489999771118164,0.00592041015625,-0.0015869140625,1.0062255859375,36.97999954223633,0.0,14.0,1.909393310546875,-0.8006744384765625,Closing,0.0,0.0,0.0,0.0,0.0,0.0,0.0,0.0,
0.6910410000000847,0.0,0.0,-2110.0,0.0,0.0,0.0,0.0,0.25,0.874023348,0.01,0.0,-2740.0,0.0,0.0,-0.0,0.0,0.125,0.49316401200000004,0.01,0.0,-1657.0,0.0,0.0,0.0,0.0,0.0,3.35693325,0.01,0.0,1536.0,0.0,0.0,-0.0,0.0,0.25,1.6809080310000002,0.01,-0.0024414060000002014,0.47999998927116394,-0.38999998569488525,-9.489999771118164,-0.01226806640625,0.01116943359375,0.994140625,37.040000915527344,0.0,-5.0,1.909393310546875,-0.8006744384765625,Closing,0.0,0.0,0.0,0.0,0.0,0.0,0.0,0.0,
0.7289139999999897,0.0,0.0,-2110.0,0.0,0.0,0.0,0.0,0.25,0.875244051,0.01,0.0,-2740.0,0.0,0.0,-0.0,0.0,0.125,0.49316401200000004,0.01,0.0,-1657.0,0.0,0.0,0.0,0.0,0.0,3.358153953,0.01,0.0,1536.0,0.0,0.0,-0.0,0.0,0.25,1.6809080310000002,0.01,0.0,0.49000000953674316,-0.38999998569488525,-9.489999771118164,-0.0255126953125,0.00225830078125,0.98370361328125,37.040000915527344,0.0,-17.0,1.909393310546875,-0.8006744384765625,Closing,0.0,0.0,0.0,0.0,0.0,0.0,0.0,0.0,
0.7683460000000195,0.0,0.0,-2110.0,0.0,0.0,0.0,0.0,0.25,0.874023348,0.01,0.0,-2740.0,0.0,0.0,-0.0,0.0,0.125,0.49316401200000004,0.01,0.0,-1657.0,0.0,0.0,0.0,0.0,0.0,3.358153953,0.01,0.0012207030000004337,1536.0,0.0,0.0,-0.0,0.0,0.25,1.6809080310000002,0.01,0.0012207030000002117,0.49000000953674316,-0.38999998569488525,-9.489999771118164,-0.034912109375,-0.02667236328125,0.97943115234375,37.040000915527344,0.0,-22.0,1.9093170166015625,-0.8008575439453125,Closing,0.0,0.0,0.0,0.0,0.0,0.0,0.0,0.0,
0.8086689999999944,0.0,0.0,-2110.0,0.0,0.0,0.0,0.0,0.25,0.875244051,0.01,0.0,-2740.0,0.0,0.0,-0.0,0.0,0.125,0.49316401200000004,0.01,0.0,-1657.0,0.0,0.0,0.0,0.0,0.0,3.358153953,0.01,0.0012207030000004337,1536.0,0.0,0.0,-0.0,0.0,0.25,1.6857908430000001,0.01,0.0012207030000002117,0.49000000953674316,-0.38999998569488525,-9.489999771118164,-0.04779052734375,-0.0191650390625,0.988525390625,37.040000915527344,0.0,-35.0,1.9091033935546875,-0.801239013671875,Closing,0.0,0.0,0.0,0.0,0.0,0.0,0.0,0.0,
0.8495890000000363,0.0,0.0,-2110.0,0.0,0.0,0.0,0.0,0.25,0.874023348,0.01,0.0,-2740.0,0.0,0.0,-0.0,0.0,0.125,0.49438471500000003,0.01,0.0,-1657.0,0.0,0.0,0.0,0.0,0.0,3.35693325,0.01,0.0,1536.0,0.0,0.0,-0.0,0.0,0.25,1.6809080310000002,0.01,0.0,0.49000000953674316,-0.38999998569488525,-9.489999771118164,-0.0389404296875,-0.0238037109375,0.99761962890625,37.040000915527344,0.0,-26.0,1.9087066650390625,-0.8018035888671875,Closing,0.0,0.0,0.0,0.0,0.0,0.0,0.0,0.0,
0.8824390000000131,0.0,0.0,-2110.0,0.0,0.0,0.0,0.0,0.25,0.874023348,0.01,0.0,-2740.0,0.0,0.0,-0.0,0.0,0.125,0.49316401200000004,0.01,0.0,-1657.0,0.0,0.0,0.0,0.0,0.0,3.358153953,0.01,0.0,1536.0,0.0,0.0,-0.0,0.0,0.25,1.6809080310000002,0.01,0.0,0.5,-0.3799999952316284,-9.489999771118164,-0.02691650390625,-0.03778076171875,1.02423095703125,37.040000915527344,0.0,-12.0,1.907867431640625,-0.8030548095703125,Closing,0.0,0.0,0.0,0.0,0.0,0.0,0.0,0.0,
0.9270339999999851,0.0,0.0,-2110.0,0.0,0.0,0.0,0.0,0.25,0.875244051,0.01,0.0,-2740.0,0.0,0.0,-0.0,0.0,0.125,0.49316401200000004,0.01,0.0,-1657.0,0.0,0.0,0.0,0.0,0.0,3.358153953,0.01,-0.0012207030000004337,1536.0,0.0,0.0,-0.0,0.0,0.25,1.6809080310000002,0.01,0.0,0.49000000953674316,-0.3799999952316284,-9.489999771118164,-0.01837158203125,-0.0107421875,1.00933837890625,37.040000915527344,0.0,-8.0,1.907867431640625,-0.804168701171875,Closing,0.0,0.0,0.0,0.0,0.0,0.0,0.0,0.0,
0.968,0.0,0.0,-2110.0,0.0,0.0,0.0,0.0,0.25,0.874023348,0.01,0.0,-2740.0,0.0,0.0,-0.0,0.0,0.125,0.49316401200000004,0.01,0.0,-1657.0,0.0,0.0,0.0,0.0,0.0,3.358153953,0.01,0.0012207030000004337,1536.0,0.0,0.0,-0.0,0.0,0.25,1.6821287340000002,0.01,0.0,0.49000000953674316,-0.38999998569488525,-9.489999771118164,-0.00457763671875,0.01239013671875,1.01708984375,37.040000915527344,0.0,1.0,1.907867431640625,-0.80474853515625,Closing,0.0,0.0,0.0,0.0,0.0,0.0,0.0,0.0,
1.008527000000002,0.0,0.0,-2110.0,0.0,0.0,0.0,0.0,0.25,0.874023348,0.01,0.0,-2740.0,0.0,0.0,-0.0,0.0,0.125,0.49316401200000004,0.01,0.0,-1657.0,0.0,0.0,0.0,0.0,0.0,3.358153953,0.01,0.0012207030000004337,1536.0,0.0,0.0,-0.0,0.0,0.25,1.6857908430000001,0.01,0.0,0.49000000953674316,-0.38999998569488525,-9.489999771118164,0.0081787109375,0.005615234375,1.03790283203125,37.040000915527344,0.0,15.0,1.907867431640625,-0.80474853515625,Closing,0.0,0.0,0.0,0.0,0.0,0.0,0.0,0.0,
1.0489990000000688,0.0,0.0,-2110.0,0.0,0.0,0.0,0.0,0.25,0.875244051,0.01,0.0,-2740.0,0.0,0.0,-0.0,0.0,0.125,0.49316401200000004,0.01,0.0,-1657.0,0.0,0.0,0.0,0.0,0.0,3.358153953,0.01,0.0,1536.0,0.0,0.0,-0.0,0.0,0.25,1.6809080310000002,0.01,0.0012207029999999897,0.49000000953674316,-0.38999998569488525,-9.489999771118164,0.031494140625,0.05377197265625,1.0540771484375,37.040000915527344,0.0,30.0,1.908050537109375,-0.8046417236328125,Closing,0.0,0.0,0.0,0.0,0.0,0.0,0.0,0.0,
1.0873150000000604,0.0,0.0,-2110.0,0.0,0.0,0.0,0.0,0.25,0.874023348,0.01,0.0,-2740.0,0.0,0.0,-0.0,0.0,0.125,0.49438471500000003,0.01,0.0,-1657.0,0.0,0.0,0.0,0.0,0.0,3.358153953,0.01,0.0,1536.0,0.0,0.0,-0.0,0.0,0.25,1.6821287340000002,0.01,-0.0012207029999999897,0.49000000953674316,-0.3799999952316284,-9.489999771118164,0.0140380859375,0.04559326171875,1.0517578125,37.040000915527344,0.0,14.0,1.908355712890625,-0.8039398193359375,Closing,0.0,0.0,0.0,0.0,0.0,0.0,0.0,0.125,
1.1277200000000884,0.0,0.0,-2110.0,0.0,0.0,0.0,0.0,0.25,0.875244051,0.01,0.0,-2740.0,0.0,0.0,-0.0,0.0,0.125,0.49316401200000004,0.01,0.0,-1657.0,0.0,0.0,0.0,0.0,0.0,3.358153953,0.01,-0.0012207030000004337,1536.0,0.0,0.0,-0.0,0.0,0.25,1.679687328,0.01,0.0,0.49000000953674316,-0.38999998569488525,-9.489999771118164,0.01373291015625,0.0213623046875,1.04364013671875,37.040000915527344,0.0,18.0,1.908355712890625,-0.8032073974609375,Closing,0.0,0.0,0.0,0.0,0.0,0.0,0.0,0.125,
1.1625400000000372,0.0,0.0,-2110.0,0.0,0.0,0.0,0.0,0.25,0.874023348,0.01,0.0,-2740.0,0.0,0.0,-0.0,0.0,0.125,0.49316401200000004,0.01,0.0,-1657.0,0.0,0.0,0.0,0.0,0.0,3.359374656,0.01,0.0,1536.0,0.0,0.0,-0.0,0.0,0.25,1.6809080310000002,0.01,0.0,0.49000000953674316,-0.38999998569488525,-9.5,0.00341796875,0.03558349609375,1.025146484375,37.040000915527344,0.0,5.0,1.908355712890625,-0.802978515625,Closing,0.0,0.0,0.0,0.0,0.0,0.0,0.0,0.0,
1.2086419999999924,0.0,0.0,-2110.0,0.0,0.0,0.0,0.0,0.25,0.874023348,0.01,0.0,-2740.0,0.0,0.0,-0.0,0.0,0.125,0.49316401200000004,0.01,0.0,-1657.0,0.0,0.0,0.0,0.0,0.0,3.358153953,0.01,0.0,1536.0,0.0,0.0,-0.0,0.0,0.25,1.6809080310000002,0.01,0.0,0.49000000953674316,-0.38999998569488525,-9.5,0.00616455078125,0.00848388671875,1.0224609375,37.040000915527344,0.0,13.0,1.908355712890625,-0.80267333984375,Closing,0.0,0.0,0.0,0.0,0.0,0.0,0.0,0.0,
1.2506440000000876,0.0,0.0,-2110.0,0.0,0.0,0.0,0.0,0.25,0.875244051,0.01,0.0,-2740.0,0.0,0.0,-0.0,0.0,0.125,0.49316401200000004,0.01,0.0,-1657.0,0.0,0.0,0.0,0.0,0.0,3.358153953,0.01,0.0,1536.0,0.0,0.0,-0.0,0.0,0.25,1.6809080310000002,0.01,0.0,0.49000000953674316,-0.3799999952316284,-9.5,-0.0015869140625,0.00244140625,1.005615234375,37.040000915527344,0.0,6.0,1.908355712890625,-0.80267333984375,Closing,0.0,0.0,0.0,0.0,0.0,0.0,0.0,0.0,
1.2884770000000718,0.0,0.0,-2110.0,0.0,0.0,0.0,0.0,0.25,0.874023348,0.01,0.0,-2740.0,0.0,0.0,-0.0,0.0,0.125,0.49316401200000004,0.01,0.0,-1657.0,0.0,0.0,0.0,0.0,0.0,3.358153953,0.01,0.0,1536.0,0.0,0.0,-0.0,0.0,0.25,1.6809080310000002,0.01,0.0,0.49000000953674316,-0.3799999952316284,-9.5,-0.02655029296875,0.00714111328125,0.99273681640625,37.040000915527344,0.0,-19.0,1.908355712890625,-0.80267333984375,Closing,0.0,0.0,0.0,0.0,0.0,0.0,0.0,0.0,
1.3274040000000968,0.0,0.0,-2110.0,0.0,0.0,0.0,0.0,0.25,0.874023348,0.01,0.0,-2740.0,0.0,0.0,-0.0,0.0,0.125,0.49316401200000004,0.01,0.0,-1657.0,0.0,0.0,0.0,0.0,0.0,3.359374656,0.01,0.0,1536.0,0.0,0.0,-0.0,0.0,0.25,1.6809080310000002,0.01,0.0,0.49000000953674316,-0.3799999952316284,-9.5,-0.03228759765625,-0.02081298828125,0.9871826171875,37.040000915527344,0.0,-20.0,1.9083404541015625,-0.802703857421875,Closing,0.0,0.0,0.0,0.0,0.0,0.0,0.0,0.0,
1.3694760000000241,0.0,0.0,-2110.0,0.0,0.0,0.0,0.0,0.25,0.874023348,0.01,0.0,-2740.0,0.0,0.0,-0.0,0.0,0.125,0.49316401200000004,0.01,0.0,-1657.0,0.0,0.0,0.0,0.0,0.0,3.35693325,0.01,0.0,1536.0,0.0,0.0,-0.0,0.0,0.25,1.6809080310000002,0.01,0.0,0.49000000953674316,-0.3799999952316284,-9.5,-0.04742431640625,-0.01666259765625,0.98602294921875,37.040000915527344,0.0,-36.0,1.9080657958984375,-0.8031005859375,Closing,0.0,0.0,0.0,0.0,0.0,0.0,0.0,0.0,
1.4101980000000913,0.0,0.0,-2110.0,0.0,0.0,0.0,0.0,0.25,0.874023348,0.01,0.0,-2740.0,0.0,0.0,-0.0,0.0,0.125,0.49316401200000004,0.01,0.0,-1657.0,0.0,0.0,0.0,0.0,0.0,3.358153953,0.01,0.0,1536.0,0.0,0.0,-0.0,0.0,0.25,1.6809080310000002,0.01,0.0,0.49000000953674316,-0.3700000047683716,-9.489999771118164,-0.03204345703125,-0.03375244140625,1.017822265625,37.040000915527344,0.0,-17.0,1.9074249267578125,-0.803924560546875,Closing,0.0,0.0,0.0,0.0,0.0,0.0,0.0,0.125,
1.450265000000014,0.0,0.0,-2110.0,0.0,0.0,0.0,0.0,0.25,0.875244051,0.01,0.0,-2740.0,0.0,0.0,-0.0,0.0,0.125,0.49316401200000004,0.01,0.0,-1657.0,0.0,0.0,0.0,0.0,0.0,3.359374656,0.01,0.0,1536.0,0.0,0.0,-0.0,0.0,0.25,1.6857908430000001,0.01,0.0012207029999999897,0.49000000953674316,-0.3700000047683716,-9.489999771118164,-0.01947021484375,-0.003662109375,1.01898193359375,37.040000915527344,0.0,-10.0,1.9074249267578125,-0.80523681640625,Closing,0.0,0.0,0.0,0.0,0.0,0.0,0.0,0.0,
1.4907120000000578,0.0,0.0,-2110.0,0.0,0.0,0.0,0.0,0.25,0.875244051,0.01,0.0012207029999999897,-2740.0,0.0,0.0,-0.0,0.0,0.125,0.49316401200000004,0.01,0.0,-1657.0,0.0,0.0,0.0,0.0,0.0,3.358153953,0.01,0.0,1536.0,0.0,0.0,-0.0,0.0,0.25,1.6809080310000002,0.01,-0.0012207029999999897,0.49000000953674316,-0.3799999952316284,-9.5,-0.00665283203125,0.0137939453125,1.01898193359375,37.040000915527344,0.0,0.0,1.9074249267578125,-0.8057098388671875,Closing,0.0,0.0,0.0,0.0,0.0,0.0,0.0,0.0,
1.5281680000000633,0.0,0.0,-2110.0,0.0,0.0,0.0,0.0,0.25,0.874023348,0.01,-0.0012207029999999897,-2740.0,0.0,0.0,-0.0,0.0,0.125,0.49316401200000004,0.01,0.0,-1657.0,0.0,0.0,0.0,0.0,0.0,3.358153953,0.01,0.0,1536.0,0.0,0.0,-0.0,0.0,0.25,1.6809080310000002,0.01,-0.0012207030000002117,0.49000000953674316,-0.38999998569488525,-9.5,0.01617431640625,0.0128173828125,1.0400390625,37.040000915527344,0.0,22.0,1.907440185546875,-0.8057098388671875,Closing,0.0,0.0,0.0,0.0,0.0,0.0,0.0,0.0,
1.568386999999988,0.0,0.0,-2110.0,0.0,0.0,0.0,0.0,0.25,0.8825682690000001,0.01,-0.0012207029999999897,-2740.0,0.0,0.0,-0.0,0.0,0.125,0.49316401200000004,0.01,0.0,-1657.0,0.0,0.0,0.0,0.0,0.0,3.35693325,0.01,0.0,1536.0,0.0,0.0,-0.0,0.0,0.25,1.6809080310000002,0.01,0.0012207030000002117,0.47999998927116394,-0.3799999952316284,-9.489999771118164,0.02325439453125,0.06365966796875,1.0572509765625,37.040000915527344,0.0,20.0,1.9077301025390625,-0.8054351806640625,Closing,0.0,0.0,0.0,0.0,0.0,0.0,0.0,0.0,
1.60826800000004,0.0,0.0,-2110.0,0.0,0.0,0.0,0.0,0.25,0.875244051,0.01,0.0,-2740.0,0.0,0.0,-0.0,0.0,0.125,0.49316401200000004,0.01,0.0,-1657.0,0.0,0.0,0.0,0.0,0.0,3.358153953,0.01,0.0,1536.0,0.0,0.0,-0.0,0.0,0.25,1.6809080310000002,0.01,0.0012207030000002117,0.49000000953674316,-0.3799999952316284,-9.489999771118164,0.0115966796875,0.02960205078125,1.05902099609375,37.040000915527344,0.0,15.0,1.9078826904296875,-0.804931640625,Closing,0.0,0.0,0.0,0.0,0.0,0.0,0.0,0.0,
1.6487700000000187,0.0,0.0,-2110.0,0.0,0.0,0.0,0.0,0.25,0.872802645,0.01,0.0,-2740.0,0.0,0.0,-0.0,0.0,0.125,0.49316401200000004,0.01,0.0,-1657.0,0.0,0.0,0.0,0.0,0.0,3.358153953,0.01,0.0,1536.0,0.0,0.0,-0.0,0.0,0.25,1.6809080310000002,0.01,0.0,0.49000000953674316,-0.38999998569488525,-9.489999771118164,0.01470947265625,0.033447265625,1.03411865234375,37.040000915527344,0.0,17.0,1.9078826904296875,-0.8039703369140625,Closing,0.0,0.0,0.0,0.0,0.0,0.0,0.0,0.0,
1.6863790000000736,0.0,0.0,-2110.0,0.0,0.0,0.0,0.0,0.25,0.8947752990000001,0.01,0.0,-2740.0,0.0,0.0,-0.0,0.0,0.125,0.49316401200000004,0.01,0.0,-1657.0,0.0,0.0,0.0,0.0,0.0,3.358153953,0.01,0.0012207030000004337,1536.0,0.0,0.0,-0.0,0.0,0.25,1.6833494370000002,0.01,0.0,0.47999998927116394,-0.38999998569488525,-9.489999771118164,0.0028076171875,0.01873779296875,1.01910400390625,37.0,0.0,7.0,1.9078826904296875,-0.80267333984375,Closing,0.0,0.0,0.0,0.0,0.0,0.0,0.0,0.0,
1.7268000000000465,0.0,0.0,-2110.0,0.0,0.0,0.0,0.0,0.25,0.874023348,0.01,0.0,-2740.0,0.0,0.0,-0.0,0.0,0.125,0.49316401200000004,0.01,0.0,-1657.0,0.0,0.0,0.0,0.0,0.0,3.358153953,0.01,-0.0012207030000004337,1536.0,0.0,0.0,-0.0,0.0,0.25,1.6857908430000001,0.01,0.0012207029999999897,0.47999998927116394,-0.38999998569488525,-9.489999771118164,0.00384521484375,-0.0047607421875,1.0172119140625,37.0,0.0,12.0,1.9078826904296875,-0.8022003173828125,Closing,0.0,0.0,0.0,0.0,0.0,0.0,0.0,0.0,
1.7666469999999972,0.0,0.0,-2110.0,0.0,0.0,0.0,0.0,0.25,0.874023348,0.01,0.0,-2740.0,0.0,0.0,-0.0,0.0,0.125,0.49316401200000004,0.01,0.0,-1657.0,0.0,0.0,0.0,0.0,0.0,3.358153953,0.01,0.0,1536.0,0.0,0.0,-0.0,0.0,0.25,1.6809080310000002,0.01,-0.0012207029999999897,0.47999998927116394,-0.3799999952316284,-9.489999771118164,-0.020263671875,0.015625,1.00347900390625,37.0,0.0,-14.0,1.9078826904296875,-0.8022003173828125,Closing,0.0,0.0,0.0,0.0,0.0,0.0,0.0,0.0,
1.8074880000000122,0.0,0.0,-2110.0,0.0,0.0,0.0,0.0,0.25,0.875244051,0.01,0.0,-2740.0,0.0,0.0,-0.0,0.0,0.125,0.49316401200000004,0.01,0.0,-1657.0,0.0,0.0,0.0,0.0,0.0,3.355712547,0.01,0.0,1536.0,0.0,0.0,-0.0,0.0,0.25,1.6809080310000002,0.01,-0.0012207029999999897,0.49000000953674316,-0.38999998569488525,-9.489999771118164,-0.0299072265625,-0.01629638671875,0.9833984375,37.0,0.0,-18.0,1.9078826904296875,-0.8022308349609375,Closing,0.0,0.0,0.0,0.0,0.0,0.0,0.0,0.0,
1.8434320000000297,0.0,0.0,-2110.0,0.0,0.0,0.0,0.0,0.25,0.874023348,0.01,0.0,-2740.0,0.0,0.0,-0.0,0.0,0.125,0.49316401200000004,0.01,0.0,-1657.0,0.0,0.0,0.0,0.0,0.0,3.358153953,0.01,0.0,1536.0,0.0,0.0,-0.0,0.0,0.25,1.6809080310000002,0.01,0.0,0.49000000953674316,-0.38999998569488525,-9.489999771118164,-0.04150390625,-0.02294921875,0.97686767578125,37.0,0.0,-29.0,1.907806396484375,-0.8024139404296875,Closing,0.0,0.0,0.0,0.0,0.0,0.0,0.0,0.0,
1.883173999999999,0.0,0.0,-2110.0,0.0,0.0,0.0,0.0,0.25,0.874023348,0.01,-0.0012207029999999897,-2740.0,0.0,0.0,-0.0,0.0,0.125,0.49316401200000004,0.01,0.0,-1657.0,0.0,0.0,0.0,0.0,0.0,3.35693325,0.01,0.0,1536.0,0.0,0.0,-0.0,0.0,0.25,1.6809080310000002,0.01,-0.0012207030000002117,0.49000000953674316,-0.38999998569488525,-9.489999771118164,-0.0416259765625,-0.0206298828125,0.98980712890625,37.0,0.0,-29.0,1.9075469970703125,-0.8027801513671875,Closing,0.0,0.0,0.0,0.0,0.0,0.0,0.0,0.0,
1.922551000000094,0.0,0.0,-2110.0,0.0,0.0,0.0,0.0,0.25,0.874023348,0.01,0.0012207029999999897,-2740.0,0.0,0.0,-0.0,0.0,0.125,0.49316401200000004,0.01,0.0,-1657.0,0.0,0.0,0.0,0.0,0.0,3.35693325,0.01,0.0,1536.0,0.0,0.0,-0.0,0.0,0.25,1.6809080310000002,0.01,0.0012207030000002117,0.49000000953674316,-0.3799999952316284,-9.489999771118164,-0.02764892578125,-0.03021240234375,1.0196533203125,37.0,0.0,-14.0,1.9069061279296875,-0.8037109375,Closing,0.0,0.0,0.0,0.0,0.0,0.0,0.0,0.0,
1.9640160000000615,0.0,0.0,-2110.0,0.0,0.0,0.0,0.0,0.25,0.874023348,0.01,0.0012207029999999897,-2740.0,0.0,0.0,-0.0,0.0,0.125,0.49438471500000003,0.01,0.0,-1657.0,0.0,0.0,0.0,0.0,0.0,3.358153953,0.01,0.0,1536.0,0.0,0.0,-0.0,0.0,0.25,1.6857908430000001,0.01,0.0,0.49000000953674316,-0.3799999952316284,-9.489999771118164,-0.02044677734375,0.01239013671875,1.00830078125,37.0,0.0,-8.0,1.9069061279296875,-0.805023193359375,Closing,0.0,0.0,0.0,0.0,0.0,0.0,0.0,0.0,
2.0046959999999965,0.0,0.0,-2110.0,0.0,0.0,-231.49606212973595,0.0,0.25,0.874023348,0.5498168668524864,0.0,-2740.0,0.0,0.0,-231.49606212973595,0.0,0.125,0.49316401200000004,4.41043958977222,0.0,-1657.0,0.125,0.0,-231.49606212973595,0.0,0.0,3.358153953,4.389674732977291,0.0,1536.0,0.125,0.0,-231.49606212973595,0.0,0.25,1.6809080310000002,0.5526872062785609,0.0024414059999999793,0.49000000953674316,-0.38999998569488525,-9.489999771118164,0.0028076171875,4.8828125E-4,1.02374267578125,37.0,0.0,11.0,1.9069061279296875,-0.805023193359375,Closing,0.0,0.0,0.0,0.0,0.0,0.0,0.0,0.0,
2.0374239999999992,0.0,0.0,-2110.0,0.125,0.0,-479.5275494456292,0.0,1.25,0.8935545960000001,0.5498168668524864,0.0,-2740.0,0.25,0.0,-479.5275494456292,0.0,2.0,0.468749952,4.41043958977222,0.0,-1657.0,0.375,0.0,-479.5275494456292,0.0,0.75,3.334960596,4.389674732977291,0.0,1536.0,0.375,0.0,-479.5275494456292,0.0,1.0,1.72119123,0.552687206278561,0.0,0.4699999988079071,-0.38999998569488525,-9.489999771118164,0.035888671875,0.0499267578125,1.051513671875,37.0,0.0,35.0,1.907012939453125,-0.8049774169921875,Closing,0.0,0.0,0.0,0.0,0.0,0.0,0.0,0.0,
2.0766620000000113,0.0,0.0,-2118.0,0.375,-22.5,-677.9527455568314,0.0,1.75,1.01318349,0.5498168668524864,0.0,-2747.0,0.875,-52.5,-677.9527455568314,0.0,2.375,0.41503902000000004,4.41043958977222,0.0,-1660.0,0.875,-22.5,-677.9527455568314,0.0,1.875,3.197021157,4.389674732977291,0.0,1534.0,0.75,-15.0,-677.9527455568314,0.0,1.875,1.8164060640000002,0.552687206278561,0.0,0.47999998927116394,-0.3700000047683716,-9.489999771118164,0.01654052734375,0.03985595703125,1.07562255859375,37.0,0.0,18.0,1.90728759765625,-0.8047332763671875,Closing,0.0,0.0,0.0,0.0,0.0,0.0,0.0,0.0,
2.1177550000000047,0.0,0.0,-2118.0,1.375,-105.0,-760.6299340724945,0.0,0.75,1.14746082,0.5498168668524864,0.0,-2747.0,2.25,-157.5,-760.6299340724945,0.0,0.5,0.25146481800000003,4.41043958977222,0.0,-1660.0,2.125,-120.0,-760.6299340724945,0.0,0.5,3.02734344,4.389674732977291,0.0,1534.0,1.875,-112.5,-760.6299340724945,0.0,0.625,1.96533183,0.552687206278561,0.0,0.41999998688697815,-0.4099999964237213,-9.4399995803833,-0.04638671875,-0.16412353515625,1.218994140625,37.0,0.0,-8.0,1.9080657958984375,-0.8043670654296875,Closing,0.0,0.0,0.0,0.0,0.0,0.0,0.0,0.0,
2.159829000000027,0.0,0.0,-2118.0,2.375,-157.5,-777.1653592586516,0.0,0.625,1.2707518230000001,0.5498168668524864,0.1440429540000001,-2747.0,3.0,-180.0,-777.1653592586516,0.0,0.5,0.1220703,4.41043958977222,-0.157470687,-1660.0,3.0,-225.0,-777.1653592586516,0.0,0.375,2.8930661100000004,4.389674732977291,-0.157470687,1534.0,2.625,-195.0,-777.1653592586516,0.0,0.625,2.080077912,0.552687206278561,0.0,0.4300000071525574,-0.4300000071525574,-9.010000228881836,-0.07476806640625,-0.01080322265625,1.1116943359375,37.0,0.0,-62.0,1.90972900390625,-0.8054351806640625,Closing,0.0,0.0,0.0,0.0,0.0,0.0,0.0,0.0,
2.20671100000001,0.0,0.0,-2143.0,2.875,-142.5,-777.1653592586516,0.0,0.5,1.337890488,0.5498168668524864,0.12084959699999986,-2773.0,3.75,-150.0,-777.1653592586516,0.0,0.25,0.014648436,4.41043958977222,-0.1330566270000002,-1697.0,3.375,-225.0,-777.1653592586516,0.0,0.25,2.7978512760000003,4.389674732977291,-0.14282225100000012,1503.0,2.875,-187.5,-777.1653592586516,0.0,0.375,2.156982201,0.552687206278561,0.12451170600000006,0.4000000059604645,-0.3700000047683716,-8.40999984741211,-0.0567626953125,-0.05755615234375,0.90374755859375,37.02000045776367,0.0,-40.0,1.9113922119140625,-0.807342529296875,Closing,0.0,0.0,0.0,0.0,0.0,0.0,0.0,0.0,
2.2466570000000066,0.0,0.0,-2143.0,3.75,-165.0,-777.1653592586516,0.0,0.25,1.390380717,0.5498168668524864,0.0,-2773.0,6.375,-195.0,-777.1653592586516,0.0,4.0,0.029296872,4.41043958977222,0.0,-1697.0,4.125,-150.0,-777.1653592586516,0.0,0.0,2.7502438590000002,4.389674732977291,0.0,1503.0,4.25,-172.5,-777.1653592586516,0.0,0.125,2.2216794600000003,0.552687206278561,0.0,0.3700000047683716,-0.4300000071525574,-6.679999828338623,0.01422119140625,0.1181640625,0.9794921875,37.02000045776367,0.0,8.0,1.91326904296875,-0.8112945556640625,Closing,0.0,0.0,0.0,0.0,0.0,0.0,0.0,0.0,
2.3183860000000567,0.0,0.0,-2187.0,4.5,-225.0,-777.1653592586516,0.0,0.125,1.405029153,0.5498168668524864,0.05371093199999999,-2821.0,6.375,-285.0,-777.1653592586516,0.0,0.75,0.21362302500000002,4.41043958977222,-4.313964402,-1725.0,4.625,-172.5,-777.1653592586516,0.0,0.0,2.7502438590000002,4.389674732977291,-0.046386714000000495,1461.0,4.5,-255.0,-777.1653592586516,0.0,0.125,2.252197035,0.552687206278561,0.0,0.47999998927116394,-0.44999998807907104,-5.010000228881836,0.010009765625,0.11810302734375,1.10443115234375,37.02000045776367,0.0,9.0,1.91326904296875,-0.8125762939453125,Closing,0.0,0.0,0.0,0.0,0.0,0.0,0.0,0.0,
2.357734000000055,0.0,0.0,-2187.0,4.625,-322.5,-777.1653592586516,0.0,0.25,1.405029153,0.5498168668524864,0.009765623999999917,-2821.0,6.0,-390.0,-777.1653592586516,0.0,0.875,0.314941374,4.41043958977222,0.1818847469999998,-1725.0,5.5,-210.0,-777.1653592586516,0.0,0.0,2.752685265,4.389674732977291,-0.0012207029999995456,1461.0,4.375,-352.5,-777.1653592586516,0.0,0.25,2.2766110950000003,0.552687206278561,0.029296871999999752,0.6499999761581421,-0.5400000214576721,-2.880000114440918,0.0037841796875,0.06341552734375,1.01763916015625,37.02000045776367,0.0,10.0,1.91326904296875,-0.8129119873046875,Closing,0.0,0.0,0.0,0.0,0.0,0.0,0.0,0.0,
2.398003000000026,0.0,0.0,-2187.0,4.5,-420.0,-777.1653592586516,0.0,0.25,1.406249856,0.5498168668524864,0.0,-2821.0,6.125,-472.5,-777.1653592586516,0.0,0.5,0.313720671,4.41043958977222,0.0,-1725.0,5.875,-240.0,-777.1653592586516,0.0,0.0,2.761230186,4.389674732977291,0.0,1377.0,4.0,-442.5,-777.1653592586516,0.0,0.25,2.2656247680000003,0.552687206278561,0.0,0.7699999809265137,-0.5099999904632568,-1.2799999713897705,-0.03765869140625,0.06585693359375,1.04559326171875,37.02000045776367,0.0,-29.0,1.9132232666015625,-0.8126678466796875,Closing,0.0,0.0,0.0,0.0,0.0,0.0,0.0,0.0,
2.4411710000000895,0.0,0.0,-2266.0,4.25,-480.0,-777.1653592586516,0.0,0.25,1.406249856,0.5498168668524864,0.0,-2902.0,5.75,-517.5,-777.1653592586516,0.0,0.5,0.29052731400000004,4.41043958977222,0.0,-1764.0,6.5,-247.5,-777.1653592586516,0.0,0.0,2.774657919,4.389674732977291,0.0,1377.0,3.625,-532.5,-777.1653592586516,0.0,0.25,2.247314223,0.552687206278561,0.0,0.75,-0.5400000214576721,1.2699999809265137,0.1021728515625,-0.00921630859375,0.87322998046875,37.02000045776367,0.0,110.0,1.91326904296875,-0.8124847412109375,Closing,0.0,0.0,0.0,0.0,0.0,0.0,0.0,0.0,
2.482433000000077,0.0,0.0,-2266.0,4.375,-495.0,-777.1653592586516,0.0,0.25,1.406249856,0.5498168668524864,0.0,-2902.0,5.75,-547.5,-777.1653592586516,0.0,0.25,0.185546856,4.41043958977222,0.0,-1764.0,7.25,-262.5,-777.1653592586516,0.0,0.0,2.773437216,4.389674732977291,0.0,1377.0,3.25,-607.5,-777.1653592586516,0.0,0.25,2.227782975,0.552687206278561,0.0,0.699999988079071,-0.5600000023841858,4.070000171661377,-0.0531005859375,0.06475830078125,1.00506591796875,37.02000045776367,0.0,-39.0,1.914093017578125,-0.812255859375,Closing,0.0,0.0,0.0,0.0,0.0,0.0,0.0,0.0,
2.526030000000028,0.0,0.0,-2266.0,4.5,-517.5,-777.1653592586516,0.0,0.25,1.406249856,0.5498168668524864,0.0,-2902.0,5.875,-592.5,-777.1653592586516,0.0,0.25,0.092773428,4.41043958977222,0.0,-1764.0,7.75,-330.0,-777.1653592586516,0.0,0.0,2.774657919,4.389674732977291,0.0,1263.0,3.0,-667.5,-777.1653592586516,0.0,0.25,2.208251727,0.552687206278561,0.0,0.6000000238418579,-0.6000000238418579,7.110000133514404,0.04730224609375,-0.11285400390625,1.2064208984375,37.02000045776367,0.0,44.0,1.91522216796875,-0.812713623046875,Closing,0.0,0.0,0.0,0.0,0.0,0.0,0.0,0.125,
2.566594000000041,0.0,0.0,-2359.0,4.5,-562.5,-777.1653592586516,0.0,0.25,1.4001463410000001,0.5498168668524864,-0.0012207029999999897,-3005.0,5.0,-660.0,-777.1653592586516,0.0,0.25,0.021972654,4.41043958977222,-0.09643553700000052,-1824.0,8.125,-390.0,-777.1653592586516,0.0,0.0,2.774657919,4.389674732977291,-0.0012207029999995456,1263.0,2.625,-712.5,-777.1653592586516,0.0,0.25,2.199706806,0.552687206278561,-0.01953124800000028,0.5,-0.6399999856948853,9.34000015258789,-0.041015625,-0.07977294921875,0.92486572265625,37.02000045776367,0.0,-44.0,1.915802001953125,-0.8138275146484375,Closing,0.0,0.0,0.0,0.0,0.0,0.0,0.0,0.0,
2.6060990000000457,0.0,0.0,-2359.0,4.25,-630.0,-777.1653592586516,0.0,0.25,1.40380845,0.5498168668524864,0.0,-3005.0,2.75,-720.0,777.1653592586516,0.0,0.125,4.913329575000001,1.92855458977222,0.0,-1824.0,8.375,-397.5,-777.1653592586516,0.0,0.0,2.774657919,4.389674732977291,0.0,1263.0,2.25,-765.0,-777.1653592586516,0.0,0.25,2.193603291,0.552687206278561,0.0,0.44999998807907104,-0.7799999713897705,12.90999984741211,-0.118408203125,0.05322265625,1.0897216796875,37.02000045776367,0.0,-90.0,1.9167022705078125,-0.815948486328125,Closing,0.0,0.0,0.0,0.0,0.0,0.0,0.0,0.0,
2.6457449999999954,0.0,0.0,-2359.0,3.75,-712.5,-777.1653592586516,0.0,0.25,1.405029153,0.5498168668524864,0.0,-3005.0,1.125,-637.5,-777.1653592586516,0.0,0.125,4.882812,4.41043958977222,0.0,-1824.0,9.125,-405.0,-777.1653592586516,0.0,0.0,2.774657919,4.389674732977291,0.0,1132.0,1.875,-810.0,-777.1653592586516,0.0,0.25,2.194823994,0.552687206278561,0.0,0.38999998569488525,-0.8600000143051147,15.4399995803833,-0.0084228515625,0.02783203125,0.9844970703125,37.02000045776367,0.0,11.0,1.917205810546875,-0.8171539306640625,Closing,0.0,0.0,0.0,0.0,0.0,0.0,0.0,0.0,
2.6866460000000663,0.0,0.0,-2484.0,3.125,-780.0,-777.1653592586516,0.0,0.25,1.4013670440000001,0.5498168668524864,0.0,-3104.0,1.125,-600.0,-777.1653592586516,0.0,0.125,4.877929188,4.41043958977222,0.0,-1892.0,9.75,-435.0,-777.1653592586516,0.0,0.0,2.774657919,4.389674732977291,0.0,1132.0,1.375,-825.0,-777.1653592586516,0.0,0.25,2.194823994,0.552687206278561,0.0,0.28999999165534973,-0.9200000166893005,19.270000457763672,0.03057861328125,-0.118896484375,0.89703369140625,37.02000045776367,0.0,1.0,1.9174041748046875,-0.818695068359375,Closing,0.0,0.0,0.0,0.0,0.0,0.0,0.0,0.0,
2.7267250000000933,0.0,0.0,-2484.0,2.75,-832.5,-777.1653592586516,0.0,0.25,1.3964842320000002,0.5498168668524864,0.0,-3104.0,0.75,-712.5,-777.1653592586516,0.0,0.25,4.887694812,4.41043958977222,0.0,-1892.0,10.0,-442.5,-777.1653592586516,0.0,0.0,2.774657919,4.389674732977291,0.0,1132.0,1.25,-825.0,-777.1653592586516,0.0,0.25,2.196044697,0.552687206278561,0.0,0.20999999344348907,-1.090000033378601,21.90999984741211,-0.01043701171875,-0.13592529296875,1.15167236328125,37.029998779296875,0.0,-41.0,1.9171295166015625,-0.8206329345703125,Closing,0.0,0.0,0.0,0.0,0.0,0.0,0.0,0.0,
2.7682610000000567,0.0,0.0,-2484.0,1.875,-877.5,-777.1653592586516,0.0,0.25,1.4013670440000001,0.5498168668524864,-0.004882811999999959,-3104.0,1.0,-937.5,-777.1653592586516,0.0,0.25,4.887694812,4.41043958977222,0.0024414059999999793,-1892.0,10.25,-495.0,-777.1653592586516,0.0,0.0,2.779540731,4.389674732977291,0.0,996.0,1.25,-840.0,-777.1653592586516,0.0,0.25,2.194823994,0.552687206278561,-0.0012207029999999897,0.05000000074505806,-1.0700000524520874,26.079999923706055,-0.0482177734375,0.01263427734375,0.79156494140625,37.029998779296875,0.0,-24.0,1.9160614013671875,-0.8237762451171875,Closing,0.0,0.0,0.0,0.0,0.0,0.0,0.0,0.0,
2.8104280000000728,0.0,0.0,-2633.0,1.375,-930.0,-777.1653592586516,0.0,0.25,1.4013670440000001,0.5498168668524864,0.0,-3257.0,0.5,-930.0,-777.1653592586516,0.0,0.25,4.887694812,4.41043958977222,0.0,-1994.0,10.125,-637.5,-777.1653592586516,0.0,0.0,2.774657919,4.389674732977291,0.0,996.0,1.0,-862.5,-777.1653592586516,0.0,0.25,2.194823994,0.552687206278561,0.0,-0.029999999329447746,-1.1399999856948853,30.43000030517578,-0.08441162109375,0.0997314453125,1.04400634765625,37.029998779296875,0.0,-3.0,1.91485595703125,-0.826873779296875,Closing,0.0,0.0,0.0,0.0,0.0,0.0,0.0,0.0,
2.847734000000055,0.0,0.0,-2633.0,1.25,-945.0,-611.8110448122025,0.0,0.25,1.3940428260000002,0.5498168668524864,0.0,-3257.0,0.375,-795.0,-611.8110448122025,0.0,0.25,4.886474109,4.41043958977222,0.0,-1994.0,8.375,-780.0,-611.8110448122025,0.0,0.0,2.774657919,4.389674732977291,0.0,996.0,0.75,-877.5,-611.8110448122025,0.0,0.25,2.194823994,0.552687206278561,0.0,0.0,-1.1399999856948853,33.38999938964844,-0.00970458984375,0.02081298828125,1.18988037109375,37.029998779296875,0.0,23.0,1.914398193359375,-0.8284454345703125,Closing,0.0,0.0,0.0,0.0,0.0,0.0,0.0,0.0,
2.8884309999999824,0.0,0.0,-2633.0,0.625,-952.5,0.0,0.0,0.25,1.4001463410000001,0.5498168668524864,0.0,-3257.0,0.25,-772.5,0.0,0.0,0.25,4.888915515,4.41043958977222,0.0,-2115.0,3.75,-795.0,0.0,0.0,0.0,2.774657919,4.389674732977291,-0.0012207029999995456,860.0,0.25,-877.5,0.0,0.0,0.25,2.194823994,0.552687206278561,0.0,0.0,-1.059999942779541,37.869998931884766,0.08880615234375,0.0533447265625,0.95086669921875,37.029998779296875,0.0,116.0,1.91436767578125,-0.830322265625,Closing,0.0,0.0,0.0,0.0,0.0,0.0,0.0,0.125,
2.929201000000001,0.0,0.0,-2776.0,0.0,-915.0,0.0,0.0,0.25,1.4013670440000001,0.5498168668524864,0.0012207029999999897,-3384.0,0.0,-795.0,0.0,0.0,0.25,4.887694812,4.41043958977222,0.0,-2115.0,0.625,-735.0,0.0,0.0,0.0,2.774657919,4.389674732977291,0.0,860.0,0.125,-832.5,0.0,0.0,0.25,2.196044697,0.552687206278561,0.0,-0.07999999821186066,-1.100000023841858,42.220001220703125,-0.05267333984375,-0.1502685546875,0.91552734375,37.029998779296875,0.0,-126.0,1.9148406982421875,-0.8326873779296875,Closing,0.0,0.0,0.0,0.0,0.0,0.0,0.0,0.0,
2.970364999999991,0.0,0.0,-2776.0,0.0,-817.5,0.0,0.0,0.25,1.3952635290000002,0.5498168668524864,0.0012207029999999897,-3384.0,0.0,-855.0,0.0,0.0,0.25,4.888915515,4.41043958977222,0.0,-2115.0,0.0,-667.5,0.0,0.0,0.0,2.764892295,4.389674732977291,0.0,860.0,0.0,-787.5,0.0,0.0,0.25,2.196044697,0.552687206278561,0.0,-0.09000000357627869,-1.0099999904632568,46.2599983215332,0.00823974609375,0.04302978515625,1.20733642578125,37.029998779296875,0.0,53.0,1.9155426025390625,-0.836090087890625,Closing,0.0,0.0,0.0,0.0,0.0,0.0,0.0,0.0,
3.011076000000001,0.0,0.0,-2776.0,0.0,-690.0,0.0,0.0,0.25,1.3952635290000002,0.5498168668524864,0.0,-3384.0,0.0,-862.5,0.0,0.0,0.25,4.888915515,4.41043958977222,0.0,-2207.0,0.0,-600.0,0.0,0.0,0.0,2.774657919,4.389674732977291,0.0,735.0,0.0,-787.5,0.0,0.0,0.25,2.194823994,0.552687206278561,0.0,-0.05999999865889549,-0.9100000262260437,48.65999984741211,-0.04962158203125,-0.0614013671875,0.9578857421875,37.029998779296875,0.0,-68.0,1.9163970947265625,-0.8384246826171875,Closing,0.0,0.0,0.0,0.0,0.0,0.0,0.0,0.0,
3.0485810000000058,0.0,0.0,-2888.0,0.0,-682.5,0.0,0.0,0.25,1.3952635290000002,0.5498168668524864,-0.004882811999999959,-3518.0,0.0,-802.5,0.0,0.0,0.25,4.888915515,4.41043958977222,0.0,-2207.0,0.0,-570.0,0.0,0.0,0.0,2.774657919,4.389674732977291,0.0012207029999995456,735.0,0.0,-780.0,0.0,0.0,0.25,2.194823994,0.552687206278561,0.0,-0.03999999910593033,-0.9599999785423279,51.970001220703125,-0.07818603515625,-0.0286865234375,1.03253173828125,37.029998779296875,0.0,-59.0,1.9176483154296875,-0.8416290283203125,Closing,0.0,0.0,0.0,0.0,0.0,0.0,0.0,0.0,
3.0874820000000764,0.0,0.0,-2888.0,0.0,-705.0,0.0,0.0,0.25,1.3952635290000002,0.5498168668524864,0.0,-3518.0,0.0,-727.5,0.0,0.0,0.25,4.888915515,4.41043958977222,0.0,-2207.0,0.0,-577.5,0.0,0.0,0.0,2.774657919,4.389674732977291,-0.0012207029999995456,735.0,0.0,-705.0,0.0,0.0,0.25,2.194823994,0.552687206278561,0.0,-0.05999999865889549,-1.0099999904632568,55.0099983215332,-0.06427001953125,0.01727294921875,1.01641845703125,37.029998779296875,0.0,-11.0,1.9188690185546875,-0.8447113037109375,Closing,0.0,0.0,0.0,0.0,0.0,0.0,0.0,0.0,
3.1282430000000168,0.0,0.0,-2888.0,0.0,-645.0,0.0,0.0,0.25,1.3952635290000002,0.5498168668524864,0.0,-3518.0,0.0,-690.0,0.0,0.0,0.25,4.886474109,4.41043958977222,0.0,-2288.0,0.0,-547.5,0.0,0.0,0.0,2.774657919,4.389674732977291,0.0,637.0,0.0,-652.5,0.0,0.0,0.25,2.194823994,0.552687206278561,0.0,-0.11999999731779099,-0.9300000071525574,57.709999084472656,0.02252197265625,0.09637451171875,0.88909912109375,37.029998779296875,0.0,102.0,1.9205474853515625,-0.8476715087890625,Closing,0.0,0.0,0.0,0.0,0.0,0.0,0.0,0.0,
3.168802000000025,0.0,0.0,-2978.0,0.0,-570.0,0.0,0.0,0.25,1.402587747,0.5498168668524864,0.0,-3618.0,0.0,-622.5,0.0,0.0,0.25,4.887694812,4.41043958977222,0.0,-2288.0,0.0,-502.5,0.0,0.0,0.0,2.774657919,4.389674732977291,0.0,637.0,0.0,-577.5,0.0,0.0,0.25,2.194823994,0.552687206278561,0.0,-0.07000000029802322,-0.9599999785423279,59.29999923706055,0.0531005859375,0.072021484375,1.0684814453125,37.029998779296875,0.0,99.0,1.9222564697265625,-0.849517822265625,Closing,0.0,0.0,0.0,0.0,0.0,0.0,0.0,0.0,
3.209210000000079,0.0,0.0,-2978.0,0.0,-517.5,0.0,0.0,0.25,1.3964842320000002,0.5498168668524864,0.0,-3618.0,0.0,-555.0,0.0,0.0,0.25,4.887694812,4.41043958977222,0.0,-2288.0,0.0,-405.0,0.0,0.0,0.0,2.774657919,4.389674732977291,0.0,637.0,0.0,-547.5,0.0,0.0,0.25,2.194823994,0.552687206278561,0.0,-0.07000000029802322,-0.9700000286102295,61.400001525878906,-0.029052734375,0.03009033203125,1.03631591796875,37.029998779296875,0.0,22.0,1.9254302978515625,-0.85223388671875,Closing,0.0,0.0,0.0,0.0,0.0,0.0,0.0,0.0,
3.247261999999988,0.0,0.0,-2978.0,0.0,-487.5,0.0,0.0,0.25,1.3952635290000002,0.5498168668524864,0.0,-3618.0,0.0,-480.0,0.0,0.0,0.25,4.888915515,4.41043958977222,0.0,-2288.0,0.0,-337.5,0.0,0.0,0.0,2.774657919,4.389674732977291,0.0,569.0,0.0,-472.5,0.0,0.0,0.25,2.194823994,0.552687206278561,0.0,-0.07999999821186066,-0.8600000143051147,63.209999084472656,0.045166015625,-0.01190185546875,1.0115966796875,37.0099983215332,0.0,17.0,1.9291534423828125,-0.8547821044921875,Closing,0.0,0.0,0.0,0.0,0.0,0.0,0.0,0.0,
3.2880659999999917,0.0,0.0,-3042.0,0.0,-420.0,0.0,0.0,0.25,1.3964842320000002,0.5498168668524864,0.0,-3686.0,0.0,-412.5,0.0,0.0,0.25,4.887694812,4.41043958977222,0.0,-2341.0,0.0,-322.5,0.0,0.0,0.0,2.774657919,4.389674732977291,0.0,569.0,0.0,-412.5,0.0,0.0,0.25,2.194823994,0.552687206278561,0.0,-0.07999999821186066,-0.9300000071525574,64.2300033569336,-0.01898193359375,0.0013427734375,1.07598876953125,37.0099983215332,0.0,2.0,1.9291534423828125,-0.85662841796875,Closing,0.0,0.0,0.0,0.0,0.0,0.0,0.0,0.0,
3.3281950000000653,0.0,0.0,-3042.0,0.0,-360.0,0.0,0.0,0.25,1.3964842320000002,0.5498168668524864,0.0,-3686.0,0.0,-345.0,0.0,0.0,0.25,4.888915515,4.41043958977222,0.0,-2341.0,0.0,-322.5,0.0,0.0,0.0,2.773437216,4.389674732977291,0.0,569.0,0.0,-352.5,0.0,0.0,0.25,2.194823994,0.552687206278561,0.0,-0.05999999865889549,-0.8399999737739563,65.5,-0.0189208984375,0.01531982421875,1.0966796875,37.0099983215332,0.0,13.0,1.92926025390625,-0.8594818115234375,Closing,0.0,0.0,0.0,0.0,0.0,0.0,0.0,0.0,
3.3682330000000076,0.0,0.0,-3042.0,0.0,-300.0,0.0,0.0,0.25,1.3964842320000002,0.5498168668524864,0.0,-3686.0,0.0,-285.0,0.0,0.0,0.25,4.887694812,4.41043958977222,0.0,-2341.0,0.0,-285.0,0.0,0.0,0.0,2.773437216,4.389674732977291,0.0,531.0,0.0,-285.0,0.0,0.0,0.25,2.194823994,0.552687206278561,0.0,-0.05999999865889549,-0.8299999833106995,66.41999816894531,-0.02716064453125,-0.01092529296875,0.99273681640625,37.0099983215332,0.0,-14.0,1.929168701171875,-0.8594818115234375,Closing,0.0,0.0,0.0,0.0,0.0,0.0,0.0,0.0,
3.412033999999985,0.0,0.0,-3079.0,0.0,-240.0,0.0,0.0,0.25,1.3952635290000002,0.5498168668524864,0.0,-3724.0,0.0,-217.5,0.0,0.0,0.25,4.886474109,4.41043958977222,0.0,-2379.0,0.0,-210.0,0.0,0.0,0.0,2.774657919,4.389674732977291,0.0012207029999995456,531.0,0.0,-217.5,0.0,0.0,0.25,2.194823994,0.552687206278561,0.0,-0.03999999910593033,-0.7599999904632568,66.97000122070312,0.021728515625,-0.0269775390625,1.02044677734375,37.0099983215332,0.0,-10.0,1.9287567138671875,-0.8595123291015625,Closing,0.0,0.0,0.0,0.0,0.0,0.0,0.0,0.0,
3.4488420000000626,0.0,0.0,-3079.0,0.0,-172.5,0.0,0.0,0.25,1.3952635290000002,0.5498168668524864,0.0,-3724.0,0.0,-150.0,0.0,0.0,0.25,4.888915515,4.41043958977222,0.0,-2379.0,0.0,-127.5,0.0,0.0,0.0,2.774657919,4.389674732977291,-0.0012207029999995456,531.0,0.0,-142.5,0.0,0.0,0.25,2.194823994,0.552687206278561,0.0,-0.03999999910593033,-0.7200000286102295,67.12999725341797,-0.01531982421875,0.01910400390625,0.97760009765625,37.0099983215332,0.0,17.0,1.9287567138671875,-0.8596954345703125,Closing,0.0,0.0,0.0,0.0,0.0,0.0,0.0,0.0,
3.488765000000014,0.0,0.0,-3079.0,0.0,-97.5,0.0,0.0,0.25,1.3964842320000002,0.5498168668524864,0.0,-3724.0,0.0,-82.5,0.0,0.0,0.25,4.887694812,4.41043958977222,0.0,-2383.0,0.0,-52.5,0.0,0.0,0.0,2.774657919,4.389674732977291,0.0,524.0,0.0,-75.0,0.0,0.0,0.25,2.194823994,0.552687206278561,0.0,0.0,-0.7200000286102295,67.11000061035156,-0.01885986328125,0.0516357421875,1.04119873046875,37.0099983215332,0.0,45.0,1.9289093017578125,-0.8598175048828125,Closing,0.0,0.0,0.0,0.0,0.0,0.0,0.0,0.0,
3.530158999999985,0.0,0.0,-3085.0,0.0,-37.5,0.0,0.0,0.25,1.3977049350000001,0.5498168668524864,0.0,-3732.0,0.0,-30.0,0.0,0.0,0.25,4.887694812,4.41043958977222,0.0,-2383.0,0.0,-7.5,0.0,0.0,0.0,2.774657919,4.389674732977291,0.0,524.0,0.0,-22.5,0.0,0.0,0.25,2.196044697,0.552687206278561,0.0,0.029999999329447746,-0.75,66.91000366210938,0.01031494140625,0.060791015625,1.0447998046875,37.0099983215332,0.0,64.0,1.9295501708984375,-0.859832763671875,Closing,0.0,0.0,0.0,0.0,0.0,0.0,0.0,0.0,
3.570002000000095,0.0,0.0,-3085.0,0.0,-7.5,0.0,0.0,0.25,1.3952635290000002,0.5498168668524864,0.0,-3732.0,0.0,-7.5,0.0,0.0,0.25,4.890136218,4.41043958977222,0.0,-2383.0,0.0,0.0,0.0,0.0,0.0,2.774657919,4.389674732977291,0.0,524.0,0.0,0.0,0.0,0.0,0.25,2.194823994,0.552687206278561,0.0,0.029999999329447746,-0.7200000286102295,66.75,0.0283203125,0.032470703125,1.0638427734375,37.0099983215332,0.0,45.0,1.93035888671875,-0.8598480224609375,Closing,0.0,0.0,0.0,0.0,0.0,0.0,0.0,0.0,
3.6123429999999934,0.0,0.0,-3085.0,0.125,0.0,-396.8503922224045,0.0,0.25,1.3952635290000002,4.932250999999998,0.0,-3732.0,0.0,0.0,396.8503922224045,0.0,0.25,4.885253406,4.963769999999998,0.0,-2383.0,0.0,0.0,-396.8503922224045,0.0,0.0,2.774657919,0.01,0.0,524.0,0.375,0.0,396.8503922224045,0.0,0.25,2.194823994,0.01,0.0,0.009999999776482582,-0.7200000286102295,66.55999755859375,0.00579833984375,0.018310546875,1.0123291015625,37.0099983215332,0.0,24.0,1.931854248046875,-0.8600921630859375,Closing,0.0,0.0,0.0,0.0,0.0,0.0,0.0,0.0,
3.648332999999984,0.0,0.0,-3088.0,0.125,-15.0,-555.5905491113663,0.0,0.375,1.3757322810000001,4.932250999999998,0.0,-3731.0,0.375,0.0,555.5905491113663,0.0,1.0,4.892577624,4.963769999999998,0.0,-2383.0,0.375,0.0,-555.5905491113663,0.0,1.5,2.775878622,0.01,0.0,524.0,0.75,0.0,555.5905491113663,0.0,2.125,2.152099389,0.01,0.0,0.03999999910593033,-0.7200000286102295,66.41999816894531,-0.00201416015625,0.00897216796875,1.04949951171875,37.0099983215332,0.0,12.0,1.9337158203125,-0.860198974609375,Closing,0.0,0.0,0.0,0.0,0.0,0.0,0.0,0.0,
3.6897839999999853,0.0,0.0,-3088.0,0.625,-82.5,-575.433059334755,0.0,2.375,1.210937376,4.932250999999998,0.0,-3731.0,1.0,45.0,575.433059334755,0.0,3.125,0.039062496,4.963769999999998,0.0,-2383.0,0.875,0.0,-575.433059334755,0.0,2.375,2.9492184480000003,0.01,0.0,524.0,1.25,15.0,575.433059334755,0.0,2.625,1.96533183,0.01,0.0,0.05000000074505806,-0.7599999904632568,66.33999633789062,-0.11187744140625,0.083740234375,0.99462890625,37.0099983215332,0.0,36.0,1.9355621337890625,-0.86016845703125,Closing,0.0,0.0,0.0,0.0,0.0,0.0,0.0,0.0,
3.731216000000015,0.0,0.0,-3088.0,1.0,-105.0,-575.433059334755,0.0,1.0,1.053466689,4.932250999999998,0.0,-3719.0,1.75,90.0,575.433059334755,0.0,0.75,0.235595679,4.963769999999998,0.0,-2400.0,1.0,-30.0,-575.433059334755,0.0,0.75,3.139648116,0.01,0.0,541.0,1.625,82.5,575.433059334755,0.0,0.625,1.796874816,0.01,0.0,0.029999999329447746,-0.8700000047683716,66.31999969482422,-0.09259033203125,0.031494140625,1.0399169921875,37.029998779296875,0.0,-2.0,1.937347412109375,-0.8592529296875,Closing,0.0,0.0,0.0,0.0,0.0,0.0,0.0,0.0,
3.7713059999999823,0.0,0.0,-3101.0,1.625,-90.0,-615.1181173324585,0.0,0.625,0.942382716,4.932250999999998,-0.1464843600000001,-3719.0,2.375,67.5,615.1181173324585,0.0,0.5,0.373535118,4.963769999999998,0.19653318299999967,-2400.0,1.25,-120.0,-615.1181173324585,0.0,0.5,3.2702633370000003,0.01,0.18920896499999973,541.0,1.875,112.5,615.1181173324585,0.0,0.5,1.704101388,0.01,-0.16357420199999995,0.0,-0.8999999761581421,66.30000305175781,-0.11053466796875,0.03228759765625,0.96612548828125,37.029998779296875,0.0,-8.0,1.937347412109375,-0.8582000732421875,Closing,0.0,0.0,0.0,0.0,0.0,0.0,0.0,0.0,
3.8115510000000943,0.0,0.0,-3101.0,2.5,-37.5,-634.9606275558472,0.0,0.375,0.8703612390000001,4.932250999999998,-0.10009764599999993,-3719.0,3.625,37.5,634.9606275558472,0.0,0.5,0.471191358,4.963769999999998,0.12817381500000025,-2400.0,2.125,-210.0,-634.9606275558472,0.0,0.25,3.3728023890000003,0.01,0.12817381500000025,541.0,2.375,135.0,634.9606275558472,0.0,0.25,1.6333006140000002,0.01,-0.09887694300000005,0.07999999821186066,-1.1100000143051147,66.33999633789062,-0.085205078125,0.07879638671875,0.998779296875,37.029998779296875,0.0,44.0,1.9375152587890625,-0.8559722900390625,Closing,0.0,0.0,0.0,0.0,0.0,0.0,0.0,0.0,
3.8481980000000915,0.0,0.0,-3101.0,3.25,-52.5,-654.8031377792358,0.0,0.375,0.8312987430000001,4.932250999999998,0.0,-3719.0,5.0,67.5,654.8031377792358,0.0,0.125,0.523681587,4.963769999999998,0.0,-2400.0,2.5,-157.5,-654.8031377792358,0.0,0.25,3.4191891030000003,0.01,0.0,561.0,3.0,120.0,654.8031377792358,0.0,0.125,1.59912093,0.01,0.0,0.10999999940395355,-1.2100000381469727,66.3499984741211,-0.09832763671875,0.03912353515625,1.1041259765625,37.029998779296875,0.0,3.0,1.9377899169921875,-0.8539886474609375,Closing,0.0,0.0,0.0,0.0,0.0,0.0,0.0,0.0,
3.888082000000053,0.0,0.0,-3122.0,4.125,-120.0,-754.0157639980315,0.0,0.125,0.8312987430000001,4.932250999999998,0.0,-3701.0,6.625,127.5,754.0157639980315,0.0,0.125,0.522460884,4.963769999999998,0.0,-2416.0,3.625,-45.0,-754.0157639980315,0.0,0.125,3.4228512120000003,0.01,0.0,561.0,3.75,142.5,754.0157639980315,0.0,0.125,1.594238118,0.01,0.0,0.09000000357627869,-1.440000057220459,66.30999755859375,-0.14825439453125,-0.04437255859375,1.015869140625,37.029998779296875,0.0,-91.0,1.93792724609375,-0.850006103515625,Closing,0.0,0.0,0.0,0.0,0.0,0.0,0.0,0.0,
3.928021000000066,0.0,0.0,-3122.0,5.25,-180.0,-1031.8110573291779,0.0,0.125,0.8312987430000001,4.932250999999998,0.0,-3701.0,7.375,157.5,1031.8110573291779,0.0,0.125,0.513915963,4.963769999999998,0.0,-2416.0,7.5,0.0,-1031.8110573291779,0.0,0.125,3.439941054,0.01,0.0,561.0,5.25,195.0,1031.8110573291779,0.0,0.25,1.5270994530000002,0.01,0.0,0.14000000059604645,-1.7000000476837158,66.31999969482422,-0.24066162109375,-0.06817626953125,1.001953125,37.029998779296875,0.0,-149.0,1.9372100830078125,-0.8445281982421875,Closing,0.0,0.0,0.0,0.0,0.0,0.0,0.0,0.0,
3.9685320000000064,0.0,0.0,-3122.0,7.625,-262.5,-1170.7086288928986,0.0,0.125,0.8312987430000001,4.932250999999998,0.0,-3701.0,10.875,240.0,1170.7086288928986,0.0,0.125,0.522460884,4.963769999999998,0.0,-2416.0,9.375,-15.0,-1170.7086288928986,0.0,0.125,3.433837539,0.01,0.024414059999999793,614.0,7.875,277.5,1170.7086288928986,0.0,0.25,1.522216641,0.01,-0.06835936800000031,0.15000000596046448,-2.0399999618530273,66.37999725341797,-0.20855712890625,4.2724609375E-4,1.0950927734375,37.029998779296875,0.0,-70.0,1.93597412109375,-0.8396453857421875,Closing,0.0,0.0,0.0,0.0,0.0,0.0,0.0,0.0,
4.008444000000018,0.0,0.0,-3184.0,9.125,-382.5,-1170.7086288928986,0.0,0.125,0.833740149,4.932250999999998,0.0,-3646.0,14.5,337.5,1170.7086288928986,0.0,0.125,0.522460884,4.963769999999998,0.0,-2427.0,13.5,-60.0,-1170.7086288928986,0.0,0.125,3.435058242,0.01,0.0,614.0,8.75,330.0,1170.7086288928986,0.0,0.375,1.5319822650000001,0.01,0.0,0.17000000178813934,-2.5,66.45999908447266,-0.193115234375,0.10516357421875,0.99822998046875,37.029998779296875,0.0,33.0,1.933349609375,-0.829833984375,Closing,0.0,0.0,0.0,0.0,0.0,0.0,0.0,0.125,
4.044842999999993,0.0,0.0,-3184.0,9.5,-525.0,-1190.5512142181394,0.0,0.125,0.8312987430000001,4.932250999999998,0.0,-3646.0,15.375,465.0,1190.5512142181394,0.0,0.125,0.5175780720000001,4.963769999999998,0.0,-2427.0,16.125,-112.5,-1190.5512142181394,0.0,0.125,3.4301754300000002,0.01,0.0,614.0,9.75,487.5,1190.5512142181394,0.0,0.375,1.5527342160000002,0.01,0.0,0.20000000298023224,-2.890000104904175,66.58000183105469,-0.18597412109375,0.03668212890625,0.86419677734375,37.029998779296875,0.0,-25.0,1.9302215576171875,-0.8174591064453125,Closing,0.0,0.0,0.0,0.0,0.0,0.0,0.0,0.0,
4.088183000000077,0.0,0.0,-3184.0,9.625,-592.5,-1190.5512142181394,0.0,0.125,0.8312987430000001,4.932250999999998,0.0,-3646.0,14.5,600.0,1190.5512142181394,0.0,0.125,0.5175780720000001,4.963769999999998,0.0,-2446.0,18.375,-127.5,-1190.5512142181394,0.0,0.125,3.4252926180000003,0.01,0.0,721.0,9.625,547.5,1190.5512142181394,0.0,0.25,1.573486167,0.01,0.0,0.27000001072883606,-3.359999895095825,66.75,-0.1939697265625,-0.07159423828125,1.061767578125,37.029998779296875,0.0,-122.0,1.9289398193359375,-0.802642822265625,Closing,0.0,0.0,0.0,0.0,0.0,0.0,0.0,0.0,
4.127795000000042,0.0,0.0,-3308.0,8.875,-727.5,-1210.3937244415283,0.0,0.125,0.832519446,4.932250999999998,0.0012207029999999897,-3531.0,13.25,735.0,1210.3937244415283,0.0,0.125,0.5175780720000001,4.963769999999998,-0.0012207030000004337,-2446.0,20.875,-120.0,-1210.3937244415283,0.0,0.125,3.4216305090000003,0.01,0.0,721.0,9.125,682.5,1210.3937244415283,0.0,0.25,1.588134603,0.01,0.0,0.30000001192092896,-3.5399999618530273,66.86000061035156,-0.46282958984375,0.07073974609375,1.11737060546875,37.029998779296875,0.0,-94.0,1.9285430908203125,-0.7913665771484375,Closing,0.0,0.0,0.0,0.0,0.0,0.0,0.0,0.0,
4.169054000000004,0.0,0.0,-3308.0,8.0,-855.0,-1210.3937244415283,0.0,0.125,0.8312987430000001,4.932250999999998,0.0,-3531.0,11.625,862.5,1210.3937244415283,0.0,0.125,0.518798775,4.963769999999998,0.0,-2446.0,24.5,-127.5,-1210.3937244415283,0.0,0.125,3.4216305090000003,0.01,-0.006103514999999948,721.0,8.5,810.0,1210.3937244415283,0.0,0.25,1.59912093,0.01,0.014648435999999876,0.30000001192092896,-3.9800000190734863,67.04000091552734,-0.25518798828125,0.06524658203125,1.138916015625,37.029998779296875,0.0,-14.0,1.927337646484375,-0.772186279296875,Closing,0.0,0.0,0.0,0.0,0.0,0.0,0.0,0.0,
4.211680999999983,0.0,0.0,-3308.0,6.75,-975.0,-1210.3937244415283,0.0,0.125,0.8312987430000001,4.932250999999998,0.0,-3531.0,10.0,982.5,1210.3937244415283,0.0,0.125,0.5175780720000001,4.963769999999998,0.0,-2483.0,27.25,-165.0,-1210.3937244415283,0.0,0.125,3.4216305090000003,0.01,0.0012207029999999897,881.0,7.75,922.5,1210.3937244415283,0.0,0.25,1.59912093,0.01,0.008544921000000372,0.27000001072883606,-4.21999979019165,67.2300033569336,-0.26007080078125,0.08612060546875,0.99896240234375,37.029998779296875,0.0,2.0,1.9249420166015625,-0.7513427734375,Closing,0.0,0.0,0.0,0.0,0.0,0.0,0.0,0.0,
4.256795000000042,0.0,0.0,-3485.0,5.25,-1132.5,-1078.7010623987835,0.0,0.125,0.8312987430000001,4.847439302257327,0.0,-3360.0,8.375,1095.0,1353.3838678541022,0.0,0.125,0.5175780720000001,4.895788111650272,0.0,-2483.0,29.25,-262.5,-1078.7010623987835,0.0,0.0,3.4204098060000003,0.08495182251022984,0.0,881.0,6.875,1080.0,1353.3838678541022,0.0,0.25,1.6076658510000001,0.06790286464480674,0.0,0.23000000417232513,-4.489999771118164,67.51000213623047,-0.05706787109375,-0.06512451171875,1.13238525390625,36.9900016784668,0.0,-52.0,1.9219818115234375,-0.72900390625,Closing,0.0,0.0,0.0,0.0,0.0,0.0,0.0,0.0,
4.294702000000049,0.0,0.0,-3485.0,3.375,-1177.5,-829.8241002459724,0.0,0.25,0.826415931,4.79145446044366,0.0,-3360.0,7.625,1200.0,1177.0864479898735,0.0,0.25,0.5175780720000001,4.864147664312546,0.0,-2483.0,27.125,-405.0,-829.8241002459724,0.0,0.0,3.4204098060000003,0.1410291617405809,0.0,881.0,6.5,1125.0,1177.0864479898735,0.0,0.25,1.62353499,0.09950653240146053,0.0,0.25,-4.699999809265137,67.76000213623047,-0.04339599609375,0.0404052734375,0.9534912109375,36.9900016784668,0.0,46.0,1.918914794921875,-0.70709228515625,Closing,0.0,0.0,0.0,0.0,0.0,0.0,0.0,0.0,
4.335106000000029,0.0,0.0,-3485.0,1.125,-1245.0,-173.29205008004885,0.0,0.375,0.767822187,4.024590728700677,0.0,-3151.0,4.625,1275.0,473.46952405674784,0.0,0.25,0.5029296360000001,4.693893745094817,0.0,-2604.0,21.125,-600.0,-173.29205008004885,0.0,0.0,3.439941054,0.9091598956190954,0.0,1082.0,4.375,1222.5,473.46952405674784,0.0,0.375,1.6540525650000002,0.2695625445618749,0.0,0.23999999463558197,-4.639999866485596,67.91000366210938,-0.198486328125,0.028076171875,0.9261474609375,36.9900016784668,0.0,-24.0,1.916656494140625,-0.6925506591796875,Closing,0.0,0.0,0.0,0.0,0.0,0.0,0.0,0.0,
4.375662000000011,0.0,0.0,-3680.0,0.0,-1222.5,246.09374999999997,0.0,4.875,0.54931635,0.5498168668524888,-0.06103514999999948,-3151.0,0.875,1290.0,246.09374999999997,0.0,0.25,0.49316401200000004,4.410439589772222,0.0,-2604.0,9.875,-847.5,246.09374999999997,0.0,3.625,3.6303707220000003,4.389674732977289,0.0,1082.0,1.625,1252.5,246.09374999999997,0.0,0.375,1.729736151,0.5526872062785588,0.0,0.3199999928474426,-4.650000095367432,68.04000091552734,-0.00946044921875,0.0443115234375,1.40411376953125,36.9900016784668,0.0,72.0,1.91357421875,-0.6716461181640625,Closing,0.0,0.0,0.0,0.0,0.0,0.0,0.0,0.0,
4.422254000000073,0.0,0.0,-3680.0,0.0,-1110.0,0.0,0.0,6.25,0.384521445,0.5498168668524888,0.0,-3151.0,0.125,1170.0,0.0,0.0,0.875,0.367431603,4.410439589772222,0.0,-2604.0,1.5,-1087.5,0.0,0.0,7.625,3.6779781390000004,4.389674732977289,0.0,1082.0,0.125,1170.0,0.0,0.0,1.0,1.87988262,0.5526872062785588,0.0,0.25,-3.759999990463257,67.55999755859375,0.40631103515625,0.0272216796875,0.581298828125,36.9900016784668,0.0,192.0,1.912078857421875,-0.65338134765625,Closing,0.0,0.0,0.0,0.0,0.0,0.0,0.0,0.0,
4.466388000000036,0.0,0.0,-3838.0,0.0,-1035.0,0.0,0.0,8.0,0.629882748,0.5498168668524888,-0.27709958100000076,-2963.0,0.0,1125.0,0.0,0.0,0.5,0.189208965,4.410439589772222,-0.01831054500000029,-2788.0,0.0,-1177.5,0.0,0.0,7.0,3.444823866,4.389674732977289,0.20385740100000005,1277.0,0.0,1162.5,0.0,0.0,1.25,2.041015416,0.5526872062785588,0.07202147699999983,0.3799999952316284,-3.180000066757202,66.02999877929688,0.223388671875,0.11468505859375,1.3511962890625,36.9900016784668,0.0,217.0,1.9128875732421875,-0.639617919921875,Closing,0.0,0.0,0.0,0.0,0.0,0.0,0.0,0.0,
4.506216000000015,0.0,0.0,-3838.0,0.0,-990.0,0.0,0.0,2.75,0.9082030320000001,0.5498168668524888,0.1855468560000002,-2963.0,0.0,1245.0,0.0,0.0,0.25,0.039062496,4.410439589772222,-0.30395504699999965,-2788.0,0.0,-1080.0,0.0,0.0,1.875,3.1689449880000002,4.389674732977289,-0.20629880700000003,1277.0,0.0,1282.5,0.0,0.0,0.375,2.147216577,0.5526872062785588,0.312499968,0.36000001430511475,-2.5399999618530273,63.79999923706055,0.4810791015625,-0.116455078125,1.24383544921875,36.9900016784668,0.0,125.0,1.9151611328125,-0.6300201416015625,Closing,0.0,0.0,0.0,0.0,0.0,0.0,0.0,0.0,
4.546246000000043,0.0,0.0,-3838.0,0.0,-877.5,0.0,0.0,0.625,1.152343632,0.5498168668524888,-4.657592825,-2963.0,0.0,1357.5,0.0,0.0,0.0,4.9230951990000005,4.410439589772222,-0.1513671720000005,-2788.0,0.0,-877.5,0.0,0.0,0.375,2.9589840720000002,4.389674732977289,4.652314092,1277.0,0.0,1327.5,0.0,0.0,0.375,2.176513449,0.5526872062785588,0.10742186399999998,0.38999998569488525,-1.8200000524520874,62.400001525878906,0.52801513671875,-0.0709228515625,1.18841552734375,36.9900016784668,0.0,191.0,1.9174652099609375,-0.6269989013671875,Closing,0.0,0.0,0.0,0.0,0.0,0.0,0.0,0.0,
4.586847000000067,0.0,0.0,-3922.0,0.0,-690.0,0.0,0.0,0.5,1.3232420520000001,0.5498168668524888,0.236816382,-2768.0,0.0,1267.5,0.0,0.0,0.0,4.902343248,4.410439589772222,4.887694812,-2883.0,0.0,-652.5,0.0,0.0,0.375,2.8527829110000003,4.389674732977289,-0.20141599499999963,1456.0,0.0,1177.5,0.0,0.0,0.25,2.175292746,0.5526872062785588,0.029296872000000196,0.47999998927116394,-0.7699999809265137,60.5,0.38873291015625,-0.26507568359375,1.0552978515625,36.9900016784668,0.0,-40.0,1.9235076904296875,-0.6280364990234375,Closing,0.0,0.0,0.0,0.0,0.0,0.0,0.0,0.0,
4.627733000000007,0.0,0.0,-3922.0,0.0,-480.0,0.0,0.0,0.375,1.409911965,0.5498168668524888,0.236816382,-2768.0,0.0,1072.5,0.0,0.0,0.0,4.903563951000001,4.410439589772222,4.887694812,-2883.0,0.0,-442.5,0.0,0.0,0.25,2.818603227,4.389674732977289,-0.20141599499999963,1456.0,0.0,952.5,0.0,0.0,0.125,2.175292746,0.5526872062785588,0.0,0.3499999940395355,0.3100000023841858,58.70000076293945,0.452392578125,-0.0010986328125,1.3074951171875,36.9900016784668,0.0,223.0,1.9324951171875,-0.635040283203125,Closing,0.0,0.0,0.0,0.0,0.0,0.0,0.0,0.0,
4.668472000000067,0.0,0.0,-3922.0,0.0,-195.0,0.0,0.0,0.25,1.4282225100000001,0.5498168668524888,0.17822263800000004,-2768.0,0.0,810.0,0.0,0.0,0.125,4.897460436,4.410439589772222,-0.014648435999999876,-2883.0,0.0,-240.0,0.0,0.0,0.125,2.808837603,4.389674732977289,-0.104980458,1456.0,0.0,697.5,0.0,0.0,0.125,2.176513449,0.5526872062785588,0.0,0.2800000011920929,0.8600000143051147,57.650001525878906,0.28509521484375,-0.02105712890625,0.718017578125,36.9900016784668,0.0,125.0,1.9401702880859375,-0.642181396484375,Closing,0.0,0.0,0.0,0.0,0.0,0.0,0.0,0.0,
4.708829000000027,0.0,0.0,-3879.0,0.0,120.0,0.0,0.0,0.25,1.429443213,0.5498168668524888,0.07568358600000002,-2687.0,0.0,540.0,0.0,0.0,0.125,4.882812,4.410439589772222,-0.009765623999999917,-2894.0,0.0,-82.5,0.0,0.0,0.0,2.7893063550000003,4.389674732977289,-0.0341796840000006,1524.0,0.0,457.5,0.0,0.0,0.125,2.176513449,0.5526872062785588,0.0,0.3100000023841858,1.0,56.7400016784668,0.143798828125,-0.0213623046875,1.188720703125,36.9900016784668,0.0,44.0,1.9485931396484375,-0.650299072265625,Closing,0.0,0.0,0.0,0.0,0.0,0.0,0.0,0.0,
4.747158000000054,0.0,0.0,-3879.0,0.0,330.0,0.0,0.0,0.25,1.429443213,0.5498168668524888,0.0,-2687.0,0.0,277.5,0.0,0.0,0.125,4.884032703,4.410439589772222,-0.009765623999999917,-2894.0,0.0,0.0,0.0,0.0,0.0,2.779540731,4.389674732977289,-0.021972653999999814,1524.0,0.0,240.0,0.0,0.0,0.125,2.175292746,0.5526872062785588,0.0,0.20000000298023224,0.9800000190734863,55.599998474121094,-0.10345458984375,-0.07281494140625,0.9378662109375,36.9900016784668,0.0,-130.0,1.960845947265625,-0.6626434326171875,Closing,0.0,0.0,0.0,0.0,0.0,0.0,0.0,0.0,
4.7882970000000205,0.0,0.0,-3879.0,0.0,337.5,0.0,0.0,0.25,1.4245604010000001,0.5498168668524888,0.0,-2687.0,0.0,165.0,0.0,0.0,0.25,4.877929188,4.410439589772222,0.0,-2894.0,0.0,15.0,0.0,0.0,0.0,2.779540731,4.389674732977289,-0.007324217999999938,1524.0,0.0,112.5,0.0,0.0,0.125,2.176513449,0.5526872062785588,0.0,0.18000000715255737,0.6299999952316284,54.7599983215332,-0.22314453125,-0.05218505859375,0.9879150390625,36.900001525878906,0.0,-180.0,1.9713592529296875,-0.67352294921875,Closing,0.0,0.0,0.0,0.0,0.0,0.0,0.0,0.0,
4.828761000000057,0.0,0.0,-3852.0,0.0,232.5,0.0,0.0,0.25,1.4196775890000002,0.5498168668524888,0.0,-2687.0,0.0,30.0,0.0,0.0,0.25,4.882812,4.410439589772222,0.0,-2891.0,0.0,15.0,0.0,0.0,0.0,2.779540731,4.389674732977289,-0.007324217999999938,1539.0,0.0,90.0,0.0,0.0,0.125,2.176513449,0.5526872062785588,0.0,0.17000000178813934,0.25999999046325684,54.29999923706055,-0.1212158203125,-0.051513671875,1.02081298828125,36.900001525878906,0.0,-117.0,1.98016357421875,-0.68255615234375,Closing,0.0,0.0,0.0,0.0,0.0,0.0,0.0,0.0,
4.869045000000042,0.0,0.0,-3852.0,0.0,105.0,0.0,0.0,0.25,1.409911965,0.5498168668524888,-0.003662108999999969,-2687.0,0.0,0.0,0.0,0.0,0.25,4.853515128000001,4.410439589772222,-0.0012207030000004337,-2891.0,0.0,15.0,0.0,0.0,0.0,2.779540731,4.389674732977289,0.0,1539.0,0.0,112.5,0.0,0.0,0.125,2.175292746,0.5526872062785588,0.0,0.14000000059604645,0.23000000417232513,54.220001220703125,0.02545166015625,0.0252685546875,1.01025390625,36.900001525878906,0.0,30.0,1.9855499267578125,-0.68536376953125,Closing,0.0,0.0,0.0,0.0,0.0,0.0,0.0,0.0,
