Time,ClimberA1,ClimberA2,FRpos,FRCurrent,FRspeed,FRsetpoint,FRApos,FRACurrent,FREncpos,FREncSetpoint,FREncSpeed,FLpos,FLCurrent,FLspeed,FLsetpoint,FLApos,FLACurrent,FLEncpos,FLEncSetpoint,FLEncSpeed,BRpos,BRCurrent,BRspeed,BRsetpoint,BRApos,BRACurrent,BREncpos,BREncSetpoint,BREncSpeed,BLpos,BLCurrent,BLspeed,BLsetpoint,BLApos,BLACurrent,BLEncpos,BLEncSetpoint,BLEncSpeed,navx_Pitch,navx_Roll,navx_Yaw,navx_XAcc,navx_YAcc,navx_ZAcc,navx_Temp,navx_Bar,navx_Alt,navx_XDis,navx_YDis,GearPlacerState,ShootOutputV,ShootOutputCurrent,ShootEncPos,ShootEncVelocity,ShootSpeed,ShootSetpoint,CarouselSetpoint,CarouselCurrent,
0.1960069999999978,0.0,0.0,0.0,0.0,0.0,0.0,0.0,0.125,0.850829991,0.01,0.0,0.0,0.0,0.0,0.0,0.0,0.125,0.498046824,0.01,0.0,0.0,0.0,0.0,0.0,0.0,0.0,3.334960596,0.01,0.0,0.0,0.0,0.0,0.0,0.0,0.125,1.641845535,0.01,0.0,0.3799999952316284,-0.49000000953674316,-4.360000133514404,-0.009033203125,0.0081787109375,1.014892578125,36.77000045776367,0.0,0.0,-0.2331390380859375,-0.170135498046875,Waiting,0.0,0.0,0.0,0.0,0.0,0.0,0.0,0.0,
0.2593929999999964,0.0,0.0,0.0,0.0,0.0,0.0,0.0,0.125,0.8557128030000001,0.01,0.0,0.0,0.0,0.0,-0.0,0.0,0.125,0.498046824,0.01,0.0,0.0,0.0,0.0,0.0,0.0,0.0,3.334960596,0.01,0.0,0.0,0.0,0.0,-0.0,0.0,0.125,1.641845535,0.01,0.0,0.3799999952316284,-0.49000000953674316,-4.360000133514404,-0.00897216796875,0.00823974609375,1.02239990234375,36.77000045776367,0.0,0.0,-0.2331390380859375,-0.170135498046875,Closing,0.0,0.0,0.0,0.0,0.0,0.0,0.0,0.0,
0.2848659999999945,0.0,0.0,0.0,0.0,0.0,0.0,0.0,0.125,0.8544921000000001,0.01,0.0,0.0,0.0,0.0,-0.0,0.0,0.125,0.498046824,0.01,0.0,0.0,0.0,0.0,0.0,0.0,0.0,3.336181299,0.01,4.925360596,0.0,0.0,0.0,-0.0,0.0,0.125,1.640624832,0.01,0.020624831999999982,0.3799999952316284,-0.49000000953674316,-4.360000133514404,-0.00439453125,0.00567626953125,1.02227783203125,36.77000045776367,0.0,4.0,-0.2331390380859375,-0.170135498046875,Closing,0.0,0.0,0.0,0.0,0.0,0.0,0.0,0.0,
0.3146729999999952,0.0,0.0,0.0,0.0,0.0,0.0,0.0,0.25,0.8557128030000001,0.01,0.043271397000000045,0.0,0.0,0.0,-0.0,0.0,0.125,0.498046824,0.01,-0.008183175999999293,0.0,0.0,0.0,0.0,0.0,0.0,3.334960596,0.01,4.925360596,0.0,0.0,0.0,-0.0,0.0,0.125,1.641845535,0.01,0.020624831999999982,0.3799999952316284,-0.49000000953674316,-4.360000133514404,-0.010498046875,0.00360107421875,1.0194091796875,36.77000045776367,0.0,-1.0,-0.2331390380859375,-0.170135498046875,Closing,0.0,0.0,0.0,0.0,0.0,0.0,0.0,0.0,
0.3366179999999949,0.0,0.0,0.0,0.0,0.0,0.0,0.0,0.25,0.849609288,0.01,0.0,0.0,0.0,0.0,-0.0,0.0,0.125,0.498046824,0.01,0.0,0.0,0.0,0.0,0.0,0.0,0.0,3.336181299,0.01,0.0,0.0,0.0,0.0,-0.0,0.0,0.125,1.640624832,0.01,0.0,0.3799999952316284,-0.49000000953674316,-4.360000133514404,-0.00958251953125,0.00537109375,1.0174560546875,36.77000045776367,0.0,0.0,-0.2331390380859375,-0.170135498046875,Closing,0.0,0.0,0.0,0.0,0.0,0.0,0.0,0.0,
0.3665169999999998,0.0,0.0,0.0,0.0,0.0,0.0,0.0,0.25,0.8557128030000001,0.01,0.0,0.0,0.0,0.0,-0.0,0.0,0.125,0.498046824,0.01,0.0,0.0,0.0,0.0,0.0,0.0,0.0,3.334960596,0.01,0.0,0.0,0.0,0.0,-0.0,0.0,0.125,1.641845535,0.01,0.0,0.3799999952316284,-0.49000000953674316,-4.360000133514404,-0.00634765625,0.00933837890625,1.02435302734375,36.77000045776367,0.0,2.0,-0.2331390380859375,-0.170135498046875,Closing,0.0,0.0,0.0,0.0,0.0,0.0,0.0,0.0,
0.3923859999999986,0.0,0.0,0.0,0.0,0.0,0.0,0.0,0.25,0.850829991,0.01,-0.0012207030000001007,0.0,0.0,0.0,-0.0,0.0,0.125,0.498046824,0.01,0.0,0.0,0.0,0.0,0.0,0.0,0.0,3.336181299,0.01,0.0,0.0,0.0,0.0,-0.0,0.0,0.125,1.640624832,0.01,0.0,0.3799999952316284,-0.49000000953674316,-4.360000133514404,-0.0101318359375,0.005615234375,1.01165771484375,36.77000045776367,0.0,-1.0,-0.2331390380859375,-0.170135498046875,Closing,0.0,0.0,0.0,0.0,0.0,0.0,0.0,0.0,
0.43111999999999534,0.0,0.0,0.0,0.0,0.0,0.0,0.0,0.25,0.850829991,0.01,-0.0012207030000001007,0.0,0.0,0.0,-0.0,0.0,0.125,0.498046824,0.01,0.0,0.0,0.0,0.0,0.0,0.0,0.0,3.334960596,0.01,0.0,0.0,0.0,0.0,-0.0,0.0,0.125,1.640624832,0.01,0.0,0.3799999952316284,-0.49000000953674316,-4.360000133514404,-0.0062255859375,0.00634765625,1.0162353515625,36.77000045776367,0.0,2.0,-0.2331390380859375,-0.170135498046875,Closing,0.0,0.0,0.0,0.0,0.0,0.0,0.0,0.0,
0.45974399999999876,0.0,0.0,0.0,0.0,0.0,0.0,0.0,0.25,0.8557128030000001,0.01,-0.0012207029999999897,0.0,0.0,0.0,-0.0,0.0,0.125,0.498046824,0.01,0.0,0.0,0.0,0.0,0.0,0.0,0.0,3.334960596,0.01,0.0,0.0,0.0,0.0,-0.0,0.0,0.125,1.641845535,0.01,0.0,0.3799999952316284,-0.49000000953674316,-4.360000133514404,-0.0064697265625,0.007080078125,1.01910400390625,36.77000045776367,0.0,2.0,-0.2331390380859375,-0.170135498046875,Closing,0.0,0.0,0.0,0.0,0.0,0.0,0.0,0.0,
0.48549299999999496,0.0,0.0,0.0,0.0,0.0,0.0,0.0,0.25,0.850829991,0.01,-0.0012207029999999897,0.0,0.0,0.0,-0.0,0.0,0.125,0.498046824,0.01,0.0,0.0,0.0,0.0,0.0,0.0,0.0,3.336181299,0.01,0.0,0.0,0.0,0.0,-0.0,0.0,0.125,1.641845535,0.01,0.0,0.3799999952316284,-0.47999998927116394,-4.360000133514404,-0.009521484375,0.0081787109375,1.0203857421875,36.77000045776367,0.0,0.0,-0.2331390380859375,-0.170135498046875,Closing,0.0,0.0,0.0,0.0,0.0,0.0,0.0,0.0,
0.5105769999999975,0.0,0.0,0.0,0.0,0.0,0.0,0.0,0.25,0.8557128030000001,0.01,0.0,0.0,0.0,0.0,-0.0,0.0,0.125,0.498046824,0.01,0.0,0.0,0.0,0.0,0.0,0.0,0.0,3.336181299,0.01,0.0,0.0,0.0,0.0,-0.0,0.0,0.125,1.641845535,0.01,0.0,0.3799999952316284,-0.47999998927116394,-4.360000133514404,-0.009033203125,0.0081787109375,1.01580810546875,36.77000045776367,0.0,0.0,-0.2331390380859375,-0.170135498046875,Closing,0.0,0.0,0.0,0.0,0.0,0.0,0.0,0.0,
0.5320889999999999,0.0,0.0,0.0,0.0,0.0,0.0,0.0,0.25,0.8557128030000001,0.01,0.0,0.0,0.0,0.0,-0.0,0.0,0.125,0.498046824,0.01,0.0,0.0,0.0,0.0,0.0,0.0,0.0,3.336181299,0.01,0.0,0.0,0.0,0.0,-0.0,0.0,0.125,1.641845535,0.01,0.0,0.3799999952316284,-0.47999998927116394,-4.360000133514404,-0.00921630859375,0.0074462890625,1.02020263671875,36.77000045776367,0.0,0.0,-0.2331390380859375,-0.170135498046875,Closing,0.0,0.0,0.0,0.0,0.0,0.0,0.0,0.0,
0.5554510000000009,0.0,0.0,0.0,0.0,0.0,0.0,0.0,0.25,0.850829991,0.01,0.00366210900000008,0.0,0.0,0.0,-0.0,0.0,0.125,0.498046824,0.01,0.0,0.0,0.0,0.0,0.0,0.0,0.0,3.334960596,0.01,0.0,0.0,0.0,0.0,-0.0,0.0,0.125,1.641845535,0.01,0.0,0.3799999952316284,-0.47999998927116394,-4.360000133514404,-0.00799560546875,0.0086669921875,1.02020263671875,36.77000045776367,0.0,0.0,-0.2331390380859375,-0.170135498046875,Closing,0.0,0.0,0.0,0.0,0.0,0.0,0.0,0.0,
0.5762289999999993,0.0,0.0,0.0,0.0,0.0,0.0,0.0,0.25,0.8557128030000001,0.01,0.00366210900000008,0.0,0.0,0.0,-0.0,0.0,0.125,0.49926752700000004,0.01,0.0,0.0,0.0,0.0,0.0,0.0,0.0,3.334960596,0.01,0.0,0.0,0.0,0.0,-0.0,0.0,0.125,1.640624832,0.01,0.0,0.3799999952316284,-0.47999998927116394,-4.360000133514404,-0.00921630859375,0.0048828125,1.02435302734375,36.77000045776367,0.0,0.0,-0.2331390380859375,-0.170135498046875,Closing,0.0,0.0,0.0,0.0,0.0,0.0,0.0,0.0,
0.6091569999999993,0.0,0.0,0.0,0.0,0.0,0.0,0.0,0.25,0.8557128030000001,0.01,-0.0012207029999999897,0.0,0.0,0.0,-0.0,0.0,0.125,0.498046824,0.01,0.0,0.0,0.0,0.0,0.0,0.0,0.0,3.334960596,0.01,0.0,0.0,0.0,0.0,-0.0,0.0,0.125,1.641845535,0.01,0.0,0.3700000047683716,-0.47999998927116394,-4.360000133514404,-0.0068359375,0.006103515625,1.01324462890625,36.77000045776367,0.0,1.0,-0.2331390380859375,-0.170135498046875,Closing,0.0,0.0,0.0,0.0,0.0,0.0,0.0,0.0,
0.6309890000000014,0.0,0.0,0.0,0.0,0.0,0.0,0.0,0.25,0.850829991,0.01,-0.0012207029999999897,0.0,0.0,0.0,-0.0,0.0,0.125,0.498046824,0.01,0.0,0.0,0.0,0.0,0.0,0.0,0.0,3.336181299,0.01,0.0,0.0,0.0,0.0,-0.0,0.0,0.125,1.640624832,0.01,0.0,0.3700000047683716,-0.47999998927116394,-4.360000133514404,-0.00830078125,0.008056640625,1.0155029296875,36.77000045776367,0.0,0.0,-0.2331390380859375,-0.170135498046875,Closing,0.0,0.0,0.0,0.0,0.0,0.0,0.0,0.0,
0.6558759999999966,0.0,0.0,0.0,0.0,0.0,0.0,0.0,0.25,0.850829991,0.01,0.0012207029999999897,0.0,0.0,0.0,-0.0,0.0,0.125,0.49926752700000004,0.01,0.0,0.0,0.0,0.0,0.0,0.0,0.0,3.336181299,0.01,0.0,0.0,0.0,0.0,-0.0,0.0,0.125,1.641845535,0.01,0.0,0.3700000047683716,-0.47999998927116394,-4.360000133514404,-0.01055908203125,0.00775146484375,1.017333984375,36.77000045776367,0.0,-2.0,-0.2331390380859375,-0.170135498046875,Closing,0.0,0.0,0.0,0.0,0.0,0.0,0.0,0.0,
0.6785179999999964,0.0,0.0,0.0,0.0,0.0,0.0,0.0,0.25,0.8557128030000001,0.01,0.0012207029999999897,0.0,0.0,0.0,-0.0,0.0,0.125,0.498046824,0.01,0.0,0.0,0.0,0.0,0.0,0.0,0.0,3.336181299,0.01,0.0,0.0,0.0,0.0,-0.0,0.0,0.125,1.641845535,0.01,0.0,0.3700000047683716,-0.47999998927116394,-4.360000133514404,-0.00848388671875,0.0078125,1.01690673828125,36.77000045776367,0.0,0.0,-0.2331390380859375,-0.170135498046875,Closing,0.0,0.0,0.0,0.0,0.0,0.0,0.0,0.0,
0.7071169999999983,0.0,0.0,0.0,0.0,0.0,0.0,0.0,0.25,0.8557128030000001,0.01,-0.0024414060000000903,0.0,0.0,0.0,-0.0,0.0,0.125,0.498046824,0.01,0.0,0.0,0.0,0.0,0.0,0.0,0.0,3.334960596,0.01,0.0,0.0,0.0,0.0,-0.0,0.0,0.125,1.640624832,0.01,0.0,0.3700000047683716,-0.47999998927116394,-4.360000133514404,-0.010498046875,0.0069580078125,1.01934814453125,36.77000045776367,0.0,-1.0,-0.2331390380859375,-0.170135498046875,Closing,0.0,0.0,0.0,0.0,0.0,0.0,0.0,0.0,
0.7310109999999986,0.0,0.0,0.0,0.0,0.0,0.0,0.0,0.25,0.8544921000000001,0.01,-0.0024414060000000903,0.0,0.0,0.0,-0.0,0.0,0.125,0.498046824,0.01,0.0,0.0,0.0,0.0,0.0,0.0,0.0,3.334960596,0.01,0.0,0.0,0.0,0.0,-0.0,0.0,0.125,1.641845535,0.01,0.0,0.3700000047683716,-0.47999998927116394,-4.360000133514404,-0.0062255859375,0.00482177734375,1.019287109375,36.77000045776367,0.0,2.0,-0.2331390380859375,-0.170135498046875,Closing,0.0,0.0,0.0,0.0,0.0,0.0,0.0,0.0,
0.7549249999999956,0.0,0.0,0.0,0.0,0.0,0.0,0.0,0.25,0.850829991,0.01,0.0,0.0,0.0,0.0,-0.0,0.0,0.125,0.498046824,0.01,0.0,0.0,0.0,0.0,0.0,0.0,0.0,3.336181299,0.01,0.0,0.0,0.0,0.0,-0.0,0.0,0.125,1.641845535,0.01,0.0,0.3700000047683716,-0.47999998927116394,-4.360000133514404,-0.01080322265625,0.007080078125,1.0203857421875,36.77000045776367,0.0,-2.0,-0.2331390380859375,-0.170135498046875,Closing,0.0,0.0,0.0,0.0,0.0,0.0,0.0,0.0,
0.7837169999999969,0.0,0.0,0.0,0.0,0.0,0.0,0.0,0.25,0.8544921000000001,0.01,0.0,0.0,0.0,0.0,-0.0,0.0,0.125,0.49926752700000004,0.01,0.0,0.0,0.0,0.0,0.0,0.0,0.0,3.333739893,0.01,0.0,0.0,0.0,0.0,-0.0,0.0,0.125,1.641845535,0.01,0.0,0.3700000047683716,-0.47999998927116394,-4.360000133514404,-0.0081787109375,0.00726318359375,1.01971435546875,36.77000045776367,0.0,0.0,-0.2331390380859375,-0.170135498046875,Closing,0.0,0.0,0.0,0.0,0.0,0.0,0.0,0.0,
0.8116589999999997,0.0,0.0,0.0,0.0,0.0,0.0,0.0,0.25,0.8557128030000001,0.01,0.0,0.0,0.0,0.0,-0.0,0.0,0.125,0.498046824,0.01,0.0,0.0,0.0,0.0,0.0,0.0,0.0,3.334960596,0.01,0.0,0.0,0.0,0.0,-0.0,0.0,0.125,1.641845535,0.01,0.0,0.3700000047683716,-0.47999998927116394,-4.360000133514404,-0.0084228515625,0.0076904296875,1.01617431640625,36.77000045776367,0.0,0.0,-0.2331390380859375,-0.170135498046875,Closing,0.0,0.0,0.0,0.0,0.0,0.0,0.0,0.0,
0.8309639999999999,0.0,0.0,0.0,0.0,0.0,0.0,0.0,0.25,0.850829991,0.01,0.0,0.0,0.0,0.0,-0.0,0.0,0.125,0.49926752700000004,0.01,0.0,0.0,0.0,0.0,0.0,0.0,0.0,3.334960596,0.01,0.0,0.0,0.0,0.0,-0.0,0.0,0.125,1.640624832,0.01,0.0,0.3700000047683716,-0.47999998927116394,-4.360000133514404,-0.00872802734375,0.00537109375,1.01397705078125,36.77000045776367,0.0,0.0,-0.2331390380859375,-0.170135498046875,Closing,0.0,0.0,0.0,0.0,0.0,0.0,0.0,0.0,
0.8685570000000007,0.0,0.0,0.0,0.0,0.0,0.0,0.0,0.25,0.8557128030000001,0.01,0.0024414060000000903,0.0,0.0,0.0,-0.0,0.0,0.125,0.498046824,0.01,0.0,0.0,0.0,0.0,0.0,0.0,0.0,3.336181299,0.01,0.0,0.0,0.0,0.0,-0.0,0.0,0.125,1.640624832,0.01,0.0,0.3700000047683716,-0.47999998927116394,-4.360000133514404,-0.0093994140625,0.00830078125,1.01824951171875,36.77000045776367,0.0,0.0,-0.2331390380859375,-0.170135498046875,Closing,0.0,0.0,0.0,0.0,0.0,0.0,0.0,0.0,
0.8902869999999966,0.0,0.0,0.0,0.0,0.0,0.0,0.0,0.25,0.850829991,0.01,0.0024414060000000903,0.0,0.0,0.0,-0.0,0.0,0.125,0.498046824,0.01,0.0,0.0,0.0,0.0,0.0,0.0,0.0,3.336181299,0.01,0.0,0.0,0.0,0.0,-0.0,0.0,0.125,1.641845535,0.01,0.0,0.3700000047683716,-0.47999998927116394,-4.360000133514404,-0.00872802734375,0.00897216796875,1.01409912109375,36.77000045776367,0.0,0.0,-0.2331390380859375,-0.170135498046875,Closing,0.0,0.0,0.0,0.0,0.0,0.0,0.0,0.0,
0.9327139999999999,0.0,0.0,0.0,0.0,0.0,0.0,0.0,0.25,0.8544921000000001,0.01,0.0,0.0,0.0,0.0,-0.0,0.0,0.125,0.49926752700000004,0.01,0.0,0.0,0.0,0.0,0.0,0.0,0.0,3.334960596,0.01,0.0,0.0,0.0,0.0,-0.0,0.0,0.125,1.640624832,0.01,0.0,0.3700000047683716,-0.47999998927116394,-4.360000133514404,-0.0064697265625,0.00579833984375,1.0162353515625,36.77000045776367,0.0,2.0,-0.2331390380859375,-0.170135498046875,Closing,0.0,0.0,0.0,0.0,0.0,0.0,0.0,0.0,
0.9554739999999947,0.0,0.0,0.0,0.0,0.0,0.0,0.0,0.25,0.8557128030000001,0.01,0.0,0.0,0.0,0.0,-0.0,0.0,0.125,0.498046824,0.01,0.0,0.0,0.0,0.0,0.0,0.0,0.0,3.336181299,0.01,0.0,0.0,0.0,0.0,-0.0,0.0,0.125,1.640624832,0.01,0.0,0.3700000047683716,-0.47999998927116394,-4.360000133514404,-0.0120849609375,0.0023193359375,1.0174560546875,36.77000045776367,0.0,1.0,-0.2331390380859375,-0.170135498046875,Closing,0.0,0.0,0.0,0.0,0.0,0.0,0.0,0.0,
0.9737299999999959,0.0,0.0,0.0,0.0,0.0,0.0,0.0,0.25,0.850829991,0.01,0.0,0.0,0.0,0.0,-0.0,0.0,0.125,0.498046824,0.01,0.0,0.0,0.0,0.0,0.0,0.0,0.0,3.336181299,0.01,0.0,0.0,0.0,0.0,-0.0,0.0,0.125,1.640624832,0.01,0.0,0.3700000047683716,-0.47999998927116394,-4.360000133514404,-0.00799560546875,0.00567626953125,1.0225830078125,36.77000045776367,0.0,0.0,-0.2331390380859375,-0.170135498046875,Closing,0.0,0.0,0.0,0.0,0.0,0.0,0.0,0.0,
0.9918940000000003,0.0,0.0,0.0,0.0,0.0,0.0,0.0,0.25,0.8557128030000001,0.01,-0.0024414060000000903,0.0,0.0,0.0,-0.0,0.0,0.125,0.498046824,0.01,0.0,0.0,0.0,0.0,0.0,0.0,0.0,3.336181299,0.01,0.0,0.0,0.0,0.0,-0.0,0.0,0.125,1.641845535,0.01,0.0,0.3700000047683716,-0.47999998927116394,-4.360000133514404,-0.0069580078125,0.00579833984375,1.01715087890625,36.77000045776367,0.0,1.0,-0.2331390380859375,-0.170135498046875,Closing,0.0,0.0,0.0,0.0,0.0,0.0,0.0,0.0,
1.013854999999996,0.0,0.0,0.0,0.0,0.0,0.0,0.0,0.25,0.8557128030000001,0.01,-0.0024414060000000903,0.0,0.0,0.0,-0.0,0.0,0.125,0.498046824,0.01,0.0,0.0,0.0,0.0,0.0,0.0,0.0,3.336181299,0.01,0.0,0.0,0.0,0.0,-0.0,0.0,0.125,1.640624832,0.01,0.0,0.3700000047683716,-0.47999998927116394,-4.360000133514404,-0.00836181640625,0.0052490234375,1.01483154296875,36.77000045776367,0.0,0.0,-0.2331390380859375,-0.170135498046875,Closing,0.0,0.0,0.0,0.0,0.0,0.0,0.0,0.0,
1.0321519999999946,0.0,0.0,0.0,0.0,0.0,0.0,0.0,0.25,0.850829991,0.01,-0.0024414060000000903,0.0,0.0,0.0,-0.0,0.0,0.125,0.498046824,0.01,0.0,0.0,0.0,0.0,0.0,0.0,0.0,3.336181299,0.01,0.0,0.0,0.0,0.0,-0.0,0.0,0.125,1.641845535,0.01,0.0,0.3700000047683716,-0.47999998927116394,-4.360000133514404,-0.00677490234375,0.00469970703125,1.018798828125,36.77000045776367,0.0,1.0,-0.2331390380859375,-0.170135498046875,Closing,0.0,0.0,0.0,0.0,0.0,0.0,0.0,0.0,
1.0527969999999987,0.0,0.0,0.0,0.0,0.0,0.0,0.0,0.25,0.8557128030000001,0.01,0.0012207030000001007,0.0,0.0,0.0,-0.0,0.0,0.125,0.49926752700000004,0.01,0.0,0.0,0.0,0.0,0.0,0.0,0.0,3.334960596,0.01,0.0,0.0,0.0,0.0,-0.0,0.0,0.125,1.640624832,0.01,0.0,0.3700000047683716,-0.47999998927116394,-4.360000133514404,-0.01025390625,0.00537109375,1.01727294921875,36.77000045776367,0.0,-1.0,-0.2331390380859375,-0.170135498046875,Closing,0.0,0.0,0.0,0.0,0.0,0.0,0.0,0.0,
1.0710109999999986,0.0,0.0,0.0,0.0,0.0,0.0,0.0,0.25,0.850829991,0.01,0.0012207030000001007,0.0,0.0,0.0,-0.0,0.0,0.125,0.498046824,0.01,0.0,0.0,0.0,0.0,0.0,0.0,0.0,3.336181299,0.01,0.0,0.0,0.0,0.0,-0.0,0.0,0.125,1.641845535,0.01,0.0,0.3700000047683716,-0.47999998927116394,-4.360000133514404,-0.0048828125,0.00836181640625,1.01629638671875,36.77000045776367,0.0,3.0,-0.2331390380859375,-0.170135498046875,Closing,0.0,0.0,0.0,0.0,0.0,0.0,0.0,0.0,
1.0894269999999961,0.0,0.0,0.0,0.0,0.0,0.0,0.0,0.25,0.850829991,0.01,0.0012207030000001007,0.0,0.0,0.0,-0.0,0.0,0.125,0.498046824,0.01,0.0,0.0,0.0,0.0,0.0,0.0,0.0,3.334960596,0.01,0.0,0.0,0.0,0.0,-0.0,0.0,0.125,1.641845535,0.01,0.0,0.3700000047683716,-0.47999998927116394,-4.360000133514404,-0.009033203125,0.00732421875,1.0184326171875,36.77000045776367,0.0,0.0,-0.2331390380859375,-0.170135498046875,Closing,0.0,0.0,0.0,0.0,0.0,0.0,0.0,0.0,
1.1105049999999974,0.0,0.0,0.0,0.0,0.0,0.0,0.0,0.25,0.8557128030000001,0.01,0.0,0.0,0.0,0.0,-0.0,0.0,0.125,0.498046824,0.01,0.0,0.0,0.0,0.0,0.0,0.0,0.0,3.334960596,0.01,0.0,0.0,0.0,0.0,-0.0,0.0,0.125,1.640624832,0.01,0.0,0.3700000047683716,-0.47999998927116394,-4.360000133514404,-0.00836181640625,0.0059814453125,1.02117919921875,36.77000045776367,0.0,0.0,-0.2331390380859375,-0.170135498046875,Closing,0.0,0.0,0.0,0.0,0.0,0.0,0.0,0.0,
1.1277059999999983,0.0,0.0,0.0,0.0,0.0,0.0,0.0,0.25,0.849609288,0.01,0.0,0.0,0.0,0.0,-0.0,0.0,0.125,0.498046824,0.01,0.0,0.0,0.0,0.0,0.0,0.0,0.0,3.334960596,0.01,0.0,0.0,0.0,0.0,-0.0,0.0,0.125,1.641845535,0.01,0.0,0.3700000047683716,-0.4699999988079071,-4.360000133514404,-0.00848388671875,0.008056640625,1.02593994140625,36.77000045776367,0.0,0.0,-0.2331390380859375,-0.170135498046875,Closing,0.0,0.0,0.0,0.0,0.0,0.0,0.0,0.0,
1.149678,0.0,0.0,0.0,0.0,0.0,0.0,0.0,0.25,0.850829991,0.01,-0.0012207030000001007,0.0,0.0,0.0,-0.0,0.0,0.125,0.498046824,0.01,0.0,0.0,0.0,0.0,0.0,0.0,0.0,3.334960596,0.01,0.0,0.0,0.0,0.0,-0.0,0.0,0.125,1.641845535,0.01,0.0,0.3700000047683716,-0.4699999988079071,-4.360000133514404,-0.01080322265625,0.00860595703125,1.0145263671875,36.77000045776367,0.0,-2.0,-0.2331390380859375,-0.170135498046875,Closing,0.0,0.0,0.0,0.0,0.0,0.0,0.0,0.0,
1.1677489999999962,0.0,0.0,0.0,0.0,0.0,0.0,0.0,0.25,0.8557128030000001,0.01,-0.0012207030000001007,0.0,0.0,0.0,-0.0,0.0,0.125,0.498046824,0.01,0.0,0.0,0.0,0.0,0.0,0.0,0.0,3.334960596,0.01,0.0,0.0,0.0,0.0,-0.0,0.0,0.125,1.641845535,0.01,0.0,0.3700000047683716,-0.47999998927116394,-4.360000133514404,-0.0081787109375,0.009033203125,1.01824951171875,36.77000045776367,0.0,0.0,-0.2331390380859375,-0.170135498046875,Closing,0.0,0.0,0.0,0.0,0.0,0.0,0.0,0.0,
1.1856029999999955,0.0,0.0,0.0,0.0,0.0,0.0,0.0,0.25,0.8544921000000001,0.01,-0.0012207030000001007,0.0,0.0,0.0,-0.0,0.0,0.125,0.498046824,0.01,0.0,0.0,0.0,0.0,0.0,0.0,0.0,3.336181299,0.01,0.0,0.0,0.0,0.0,-0.0,0.0,0.125,1.641845535,0.01,0.0,0.3700000047683716,-0.47999998927116394,-4.360000133514404,-0.0081787109375,0.0074462890625,1.0191650390625,36.77000045776367,0.0,0.0,-0.2331390380859375,-0.170135498046875,Closing,0.0,0.0,0.0,0.0,0.0,0.0,0.0,0.0,
1.2077439999999988,0.0,0.0,0.0,0.0,0.0,0.0,0.0,0.25,0.8557128030000001,0.01,-0.0012207029999999897,0.0,0.0,0.0,-0.0,0.0,0.125,0.49926752700000004,0.01,0.0,0.0,0.0,0.0,0.0,0.0,0.0,3.334960596,0.01,0.0,0.0,0.0,0.0,-0.0,0.0,0.125,1.640624832,0.01,0.0,0.3700000047683716,-0.47999998927116394,-4.360000133514404,-0.00909423828125,0.00518798828125,1.014404296875,36.77000045776367,0.0,0.0,-0.2331390380859375,-0.170135498046875,Closing,0.0,0.0,0.0,0.0,0.0,0.0,0.0,0.0,
1.2261889999999984,0.0,0.0,0.0,0.0,0.0,0.0,0.0,0.25,0.8557128030000001,0.01,-0.0012207029999999897,0.0,0.0,0.0,-0.0,0.0,0.125,0.498046824,0.01,0.0,0.0,0.0,0.0,0.0,0.0,0.0,3.334960596,0.01,0.0,0.0,0.0,0.0,-0.0,0.0,0.125,1.641845535,0.01,0.0,0.3700000047683716,-0.47999998927116394,-4.360000133514404,-0.0081787109375,0.0042724609375,1.02630615234375,36.779998779296875,0.0,0.0,-0.2331390380859375,-0.170135498046875,Closing,0.0,0.0,0.0,0.0,0.0,0.0,0.0,0.0,
1.243065999999999,0.0,0.0,0.0,0.0,0.0,0.0,0.0,0.25,0.849609288,0.01,0.00366210900000008,0.0,0.0,0.0,-0.0,0.0,0.125,0.498046824,0.01,0.0,0.0,0.0,0.0,0.0,0.0,0.0,3.334960596,0.01,0.0,0.0,0.0,0.0,-0.0,0.0,0.125,1.641845535,0.01,0.0,0.3700000047683716,-0.47999998927116394,-4.360000133514404,-0.01025390625,0.0069580078125,1.0218505859375,36.779998779296875,0.0,-1.0,-0.2331390380859375,-0.170135498046875,Closing,0.0,0.0,0.0,0.0,0.0,0.0,0.0,0.0,
1.2685689999999958,0.0,0.0,0.0,0.0,0.0,0.0,0.0,0.25,0.850829991,0.01,0.00366210900000008,0.0,0.0,0.0,-0.0,0.0,0.125,0.498046824,0.01,0.0,0.0,0.0,0.0,0.0,0.0,0.0,3.336181299,0.01,0.0,0.0,0.0,0.0,-0.0,0.0,0.125,1.640624832,0.01,0.0,0.3700000047683716,-0.47999998927116394,-4.360000133514404,-0.00738525390625,0.0068359375,1.01483154296875,36.779998779296875,0.0,1.0,-0.2331390380859375,-0.170135498046875,Closing,0.0,0.0,0.0,0.0,0.0,0.0,0.0,0.0,
1.2925349999999962,0.0,0.0,0.0,0.0,0.0,0.0,0.0,0.25,0.8557128030000001,0.01,-0.0012207029999999897,0.0,0.0,0.0,-0.0,0.0,0.125,0.498046824,0.01,0.0,0.0,0.0,0.0,0.0,0.0,0.0,3.336181299,0.01,0.0,0.0,0.0,0.0,-0.0,0.0,0.125,1.641845535,0.01,0.0,0.3799999952316284,-0.47999998927116394,-4.360000133514404,-0.00921630859375,0.0079345703125,1.018798828125,36.779998779296875,0.0,0.0,-0.2331390380859375,-0.170135498046875,Closing,0.0,0.0,0.0,0.0,0.0,0.0,0.0,0.0,
1.3147439999999988,0.0,0.0,0.0,0.0,0.0,0.0,0.0,0.25,0.8557128030000001,0.01,-0.0012207029999999897,0.0,0.0,0.0,-0.0,0.0,0.125,0.498046824,0.01,0.0,0.0,0.0,0.0,0.0,0.0,0.0,3.336181299,0.01,0.0,0.0,0.0,0.0,-0.0,0.0,0.125,1.641845535,0.01,0.0,0.3799999952316284,-0.47999998927116394,-4.360000133514404,-0.00836181640625,0.008056640625,1.01702880859375,36.779998779296875,0.0,0.0,-0.2331390380859375,-0.170135498046875,Closing,0.0,0.0,0.0,0.0,0.0,0.0,0.0,0.0,
1.3340380000000005,0.0,0.0,0.0,0.0,0.0,0.0,0.0,0.25,0.8557128030000001,0.01,-0.0012207029999999897,0.0,0.0,0.0,-0.0,0.0,0.125,0.498046824,0.01,0.0,0.0,0.0,0.0,0.0,0.0,0.0,3.334960596,0.01,0.0,0.0,0.0,0.0,-0.0,0.0,0.125,1.641845535,0.01,0.0,0.3799999952316284,-0.47999998927116394,-4.360000133514404,-0.00994873046875,0.00860595703125,1.02227783203125,36.779998779296875,0.0,-1.0,-0.2331390380859375,-0.170135498046875,Closing,0.0,0.0,0.0,0.0,0.0,0.0,0.0,0.0,
1.3561800000000004,0.0,0.0,0.0,0.0,0.0,0.0,0.0,0.25,0.8544921000000001,0.01,-0.0012207030000001007,0.0,0.0,0.0,-0.0,0.0,0.125,0.498046824,0.01,0.0,0.0,0.0,0.0,0.0,0.0,0.0,3.336181299,0.01,0.0,0.0,0.0,0.0,-0.0,0.0,0.125,1.641845535,0.01,0.0,0.3799999952316284,-0.47999998927116394,-4.360000133514404,-0.0093994140625,0.00457763671875,1.01220703125,36.779998779296875,0.0,0.0,-0.2331390380859375,-0.170135498046875,Closing,0.0,0.0,0.0,0.0,0.0,0.0,0.0,0.0,
1.3752609999999985,0.0,0.0,0.0,0.0,0.0,0.0,0.0,0.25,0.850829991,0.01,-0.0012207030000001007,0.0,0.0,0.0,-0.0,0.0,0.125,0.49926752700000004,0.01,0.0,0.0,0.0,0.0,0.0,0.0,0.0,3.336181299,0.01,0.0,0.0,0.0,0.0,-0.0,0.0,0.125,1.640624832,0.01,0.0,0.3700000047683716,-0.47999998927116394,-4.360000133514404,-0.00885009765625,0.006591796875,1.01910400390625,36.779998779296875,0.0,0.0,-0.2331390380859375,-0.170135498046875,Closing,0.0,0.0,0.0,0.0,0.0,0.0,0.0,0.0,
1.3995099999999947,0.0,0.0,0.0,0.0,0.0,0.0,0.0,0.25,0.8557128030000001,0.01,-0.0012207029999999897,0.0,0.0,0.0,-0.0,0.0,0.125,0.498046824,0.01,0.0,0.0,0.0,0.0,0.0,0.0,0.0,3.334960596,0.01,0.0,0.0,0.0,0.0,-0.0,0.0,0.125,1.641845535,0.01,0.0,0.3700000047683716,-0.47999998927116394,-4.360000133514404,-0.00579833984375,0.00958251953125,1.01556396484375,36.779998779296875,0.0,2.0,-0.2331390380859375,-0.170135498046875,Closing,0.0,0.0,0.0,0.0,0.0,0.0,0.0,0.0,
1.4185210000000006,0.0,0.0,0.0,0.0,0.0,0.0,0.0,0.25,0.8544921000000001,0.01,-0.0012207029999999897,0.0,0.0,0.0,-0.0,0.0,0.125,0.498046824,0.01,0.0,0.0,0.0,0.0,0.0,0.0,0.0,3.336181299,0.01,0.0,0.0,0.0,0.0,-0.0,0.0,0.125,1.641845535,0.01,0.0,0.3799999952316284,-0.47999998927116394,-4.360000133514404,-0.0101318359375,0.0087890625,1.02069091796875,36.779998779296875,0.0,-1.0,-0.2331390380859375,-0.170135498046875,Closing,0.0,0.0,0.0,0.0,0.0,0.0,0.0,0.0,
1.440875,0.0,0.0,0.0,0.0,0.0,0.0,0.0,0.25,0.850829991,0.01,0.0012207029999999897,0.0,0.0,0.0,-0.0,0.0,0.125,0.498046824,0.01,0.0,0.0,0.0,0.0,0.0,0.0,0.0,3.336181299,0.01,0.0,0.0,0.0,0.0,-0.0,0.0,0.125,1.640624832,0.01,0.0,0.3700000047683716,-0.47999998927116394,-4.360000133514404,-0.00897216796875,0.00634765625,1.01702880859375,36.779998779296875,0.0,0.0,-0.2331390380859375,-0.170135498046875,Closing,0.0,0.0,0.0,0.0,0.0,0.0,0.0,0.0,
1.4686129999999975,0.0,0.0,0.0,0.0,0.0,0.0,0.0,0.25,0.8557128030000001,0.01,0.0012207029999999897,0.0,0.0,0.0,-0.0,0.0,0.125,0.498046824,0.01,0.0,0.0,0.0,0.0,0.0,0.0,0.0,3.334960596,0.01,0.0,0.0,0.0,0.0,-0.0,0.0,0.125,1.641845535,0.01,0.0,0.3799999952316284,-0.47999998927116394,-4.360000133514404,-0.00830078125,0.005859375,1.01776123046875,36.779998779296875,0.0,0.0,-0.2331390380859375,-0.170135498046875,Closing,0.0,0.0,0.0,0.0,0.0,0.0,0.0,0.0,
1.4891559999999955,0.0,0.0,0.0,0.0,0.0,0.0,0.0,0.25,0.8557128030000001,0.01,0.0012207029999999897,0.0,0.0,0.0,-0.0,0.0,0.125,0.498046824,0.01,0.0,0.0,0.0,0.0,0.0,0.0,0.0,3.336181299,0.01,0.0,0.0,0.0,0.0,-0.0,0.0,0.125,1.639404129,0.01,0.0,0.3799999952316284,-0.47999998927116394,-4.360000133514404,-0.0076904296875,0.008056640625,1.0211181640625,36.779998779296875,0.0,0.0,-0.2331390380859375,-0.170135498046875,Closing,0.0,0.0,0.0,0.0,0.0,0.0,0.0,0.0,
1.510987000000001,0.0,0.0,0.0,0.0,0.0,0.0,0.0,0.25,0.850829991,0.01,0.0012207030000001007,0.0,0.0,0.0,-0.0,0.0,0.125,0.49926752700000004,0.01,0.0,0.0,0.0,0.0,0.0,0.0,0.0,3.334960596,0.01,0.0,0.0,0.0,0.0,-0.0,0.0,0.125,1.641845535,0.01,0.0,0.3799999952316284,-0.47999998927116394,-4.360000133514404,-0.01043701171875,0.00970458984375,1.01397705078125,36.779998779296875,0.0,-2.0,-0.2331390380859375,-0.170135498046875,Closing,0.0,0.0,0.0,0.0,0.0,0.0,0.0,0.0,
1.5506979999999966,0.0,0.0,0.0,0.0,0.0,0.0,0.0,0.25,0.849609288,0.01,-0.0012207030000001007,0.0,0.0,0.0,-0.0,0.0,0.125,0.498046824,0.01,0.0,0.0,0.0,0.0,0.0,0.0,0.0,3.336181299,0.01,0.0,0.0,0.0,0.0,-0.0,0.0,0.125,1.640624832,0.01,0.0,0.3799999952316284,-0.47999998927116394,-4.360000133514404,-0.005615234375,0.00860595703125,1.01824951171875,36.779998779296875,0.0,2.0,-0.2331390380859375,-0.170135498046875,Closing,0.0,0.0,0.0,0.0,0.0,0.0,0.0,0.0,
1.5709739999999948,0.0,0.0,0.0,0.0,0.0,0.0,0.0,0.25,0.849609288,0.01,-0.0012207030000001007,0.0,0.0,0.0,-0.0,0.0,0.125,0.498046824,0.01,0.0,0.0,0.0,0.0,0.0,0.0,0.0,3.336181299,0.01,0.0,0.0,0.0,0.0,-0.0,0.0,0.125,1.643066238,0.01,0.0,0.3799999952316284,-0.47999998927116394,-4.360000133514404,-0.010498046875,0.00640869140625,1.0194091796875,36.779998779296875,0.0,-1.0,-0.2331390380859375,-0.170135498046875,Closing,0.0,0.0,0.0,0.0,0.0,0.0,0.0,0.0,
1.589650999999998,0.0,0.0,0.0,0.0,0.0,0.0,0.0,0.25,0.8557128030000001,0.01,-0.0012207030000001007,0.0,0.0,0.0,-0.0,0.0,0.125,0.498046824,0.01,0.0,0.0,0.0,0.0,0.0,0.0,0.0,3.336181299,0.01,0.0,0.0,0.0,0.0,-0.0,0.0,0.125,1.641845535,0.01,0.0,0.3799999952316284,-0.47999998927116394,-4.360000133514404,-0.00732421875,0.00579833984375,1.01934814453125,36.779998779296875,0.0,1.0,-0.2331390380859375,-0.170135498046875,Closing,0.0,0.0,0.0,0.0,0.0,0.0,0.0,0.0,
1.6114189999999944,0.0,0.0,0.0,0.0,0.0,0.0,0.0,0.25,0.849609288,0.01,0.0012207030000001007,0.0,0.0,0.0,-0.0,0.0,0.125,0.498046824,0.01,0.0,0.0,0.0,0.0,0.0,0.0,0.0,3.334960596,0.01,0.0,0.0,0.0,0.0,-0.0,0.0,0.125,1.641845535,0.01,0.0,0.3799999952316284,-0.47999998927116394,-4.360000133514404,-0.01129150390625,0.0103759765625,1.0216064453125,36.779998779296875,0.0,-2.0,-0.2331390380859375,-0.170135498046875,Closing,0.0,0.0,0.0,0.0,0.0,0.0,0.0,0.0,
1.6338969999999973,0.0,0.0,0.0,0.0,0.0,0.0,0.0,0.25,0.8557128030000001,0.01,0.0012207030000001007,0.0,0.0,0.0,-0.0,0.0,0.125,0.498046824,0.01,0.0,0.0,0.0,0.0,0.0,0.0,0.0,3.336181299,0.01,0.0,0.0,0.0,0.0,-0.0,0.0,0.125,1.641845535,0.01,0.0,0.3799999952316284,-0.49000000953674316,-4.360000133514404,-0.00909423828125,0.0054931640625,1.01690673828125,36.779998779296875,0.0,0.0,-0.2331390380859375,-0.170135498046875,Closing,0.0,0.0,0.0,0.0,0.0,0.0,0.0,0.0,
1.655051999999996,0.0,0.0,0.0,0.0,0.0,0.0,0.0,0.25,0.8557128030000001,0.01,-0.0012207030000001007,0.0,0.0,0.0,-0.0,0.0,0.125,0.498046824,0.01,0.0,0.0,0.0,0.0,0.0,0.0,0.0,3.334960596,0.01,0.0,0.0,0.0,0.0,-0.0,0.0,0.125,1.641845535,0.01,0.0,0.3799999952316284,-0.49000000953674316,-4.360000133514404,-0.0076904296875,0.00732421875,1.017333984375,36.779998779296875,0.0,1.0,-0.2331390380859375,-0.170135498046875,Closing,0.0,0.0,0.0,0.0,0.0,0.0,0.0,0.0,
1.6739599999999992,0.0,0.0,0.0,0.0,0.0,0.0,0.0,0.25,0.8557128030000001,0.01,-0.0012207030000001007,0.0,0.0,0.0,-0.0,0.0,0.125,0.49926752700000004,0.01,0.0,0.0,0.0,0.0,0.0,0.0,0.0,3.334960596,0.01,0.0,0.0,0.0,0.0,-0.0,0.0,0.125,1.641845535,0.01,0.0,0.38999998569488525,-0.49000000953674316,-4.360000133514404,-0.0093994140625,0.00555419921875,1.01873779296875,36.779998779296875,0.0,0.0,-0.2331390380859375,-0.170135498046875,Closing,0.0,0.0,0.0,0.0,0.0,0.0,0.0,0.0,
1.6935819999999948,0.0,0.0,0.0,0.0,0.0,0.0,0.0,0.25,0.8557128030000001,0.01,0.0024414060000000903,0.0,0.0,0.0,-0.0,0.0,0.125,0.498046824,0.01,0.0,0.0,0.0,0.0,0.0,0.0,0.0,3.334960596,0.01,0.0,0.0,0.0,0.0,-0.0,0.0,0.125,1.641845535,0.01,0.0,0.3799999952316284,-0.47999998927116394,-4.360000133514404,-0.00732421875,0.005126953125,1.015625,36.779998779296875,0.0,1.0,-0.2331390380859375,-0.170135498046875,Closing,0.0,0.0,0.0,0.0,0.0,0.0,0.0,0.0,
1.7153539999999994,0.0,0.0,0.0,0.0,0.0,0.0,0.0,0.25,0.8544921000000001,0.01,0.0024414060000000903,0.0,0.0,0.0,-0.0,0.0,0.125,0.498046824,0.01,0.0,0.0,0.0,0.0,0.0,0.0,0.0,3.334960596,0.01,0.0,0.0,0.0,0.0,-0.0,0.0,0.125,1.641845535,0.01,0.0,0.3799999952316284,-0.47999998927116394,-4.360000133514404,-0.010498046875,0.008544921875,1.02154541015625,36.779998779296875,0.0,-1.0,-0.2331390380859375,-0.170135498046875,Closing,0.0,0.0,0.0,0.0,0.0,0.0,0.0,0.0,
1.7361800000000003,0.0,0.0,0.0,0.0,0.0,0.0,0.0,0.25,0.8557128030000001,0.01,0.0024414060000000903,0.0,0.0,0.0,-0.0,0.0,0.125,0.498046824,0.01,0.0,0.0,0.0,0.0,0.0,0.0,0.0,3.334960596,0.01,0.0,0.0,0.0,0.0,-0.0,0.0,0.125,1.641845535,0.01,0.0,0.3799999952316284,-0.47999998927116394,-4.360000133514404,-0.00640869140625,0.0062255859375,1.0174560546875,36.790000915527344,0.0,2.0,-0.2331390380859375,-0.170135498046875,Closing,0.0,0.0,0.0,0.0,0.0,0.0,0.0,0.0,
1.761087999999996,0.0,0.0,0.0,0.0,0.0,0.0,0.0,0.25,0.850829991,0.01,0.0,0.0,0.0,0.0,-0.0,0.0,0.125,0.496826121,0.01,0.0,0.0,0.0,0.0,0.0,0.0,0.0,3.336181299,0.01,0.0,0.0,0.0,0.0,-0.0,0.0,0.125,1.641845535,0.01,0.0,0.3799999952316284,-0.47999998927116394,-4.360000133514404,-0.00787353515625,0.00933837890625,1.0157470703125,36.790000915527344,0.0,0.0,-0.2331390380859375,-0.170135498046875,Closing,0.0,0.0,0.0,0.0,0.0,0.0,0.0,0.0,
1.7860679999999993,0.0,0.0,0.0,0.0,0.0,0.0,0.0,0.25,0.8544921000000001,0.01,0.0,0.0,0.0,0.0,-0.0,0.0,0.125,0.498046824,0.01,0.0,0.0,0.0,0.0,0.0,0.0,0.0,3.334960596,0.01,0.0,0.0,0.0,0.0,-0.0,0.0,0.125,1.640624832,0.01,0.0,0.3799999952316284,-0.47999998927116394,-4.360000133514404,-0.00848388671875,0.00738525390625,1.015625,36.790000915527344,0.0,0.0,-0.2331390380859375,-0.170135498046875,Closing,0.0,0.0,0.0,0.0,0.0,0.0,0.0,0.0,
1.8100889999999998,0.0,0.0,0.0,0.0,0.0,0.0,0.0,0.25,0.8544921000000001,0.01,-0.0012207029999999897,0.0,0.0,0.0,-0.0,0.0,0.125,0.498046824,0.01,0.0,0.0,0.0,0.0,0.0,0.0,0.0,3.334960596,0.01,0.0,0.0,0.0,0.0,-0.0,0.0,0.125,1.641845535,0.01,0.0,0.3799999952316284,-0.49000000953674316,-4.360000133514404,-0.00933837890625,0.0081787109375,1.0223388671875,36.790000915527344,0.0,0.0,-0.2331390380859375,-0.170135498046875,Closing,0.0,0.0,0.0,0.0,0.0,0.0,0.0,0.0,
1.8289919999999984,0.0,0.0,0.0,0.0,0.0,0.0,0.0,0.25,0.8557128030000001,0.01,-0.0012207029999999897,0.0,0.0,0.0,-0.0,0.0,0.125,0.498046824,0.01,0.0,0.0,0.0,0.0,0.0,0.0,0.0,3.334960596,0.01,0.0,0.0,0.0,0.0,-0.0,0.0,0.125,1.641845535,0.01,0.0,0.3799999952316284,-0.49000000953674316,-4.360000133514404,-0.006591796875,0.00628662109375,1.016845703125,36.790000915527344,0.0,2.0,-0.2331390380859375,-0.170135498046875,Closing,0.0,0.0,0.0,0.0,0.0,0.0,0.0,0.0,
1.846686999999998,0.0,0.0,0.0,0.0,0.0,0.0,0.0,0.25,0.850829991,0.01,0.0012207029999999897,0.0,0.0,0.0,-0.0,0.0,0.125,0.498046824,0.01,0.0,0.0,0.0,0.0,0.0,0.0,0.0,3.334960596,0.01,0.0,0.0,0.0,0.0,-0.0,0.0,0.125,1.643066238,0.01,0.0,0.3799999952316284,-0.49000000953674316,-4.360000133514404,-0.00836181640625,0.00811767578125,1.02288818359375,36.790000915527344,0.0,0.0,-0.2331390380859375,-0.170135498046875,Closing,0.0,0.0,0.0,0.0,0.0,0.0,0.0,0.0,
1.8673719999999958,0.0,0.0,0.0,0.0,0.0,0.0,0.0,0.25,0.8557128030000001,0.01,0.0012207029999999897,0.0,0.0,0.0,-0.0,0.0,0.125,0.498046824,0.01,0.0,0.0,0.0,0.0,0.0,0.0,0.0,3.334960596,0.01,0.0,0.0,0.0,0.0,-0.0,0.0,0.125,1.640624832,0.01,0.0,0.3799999952316284,-0.49000000953674316,-4.360000133514404,-0.0096435546875,0.007080078125,1.02154541015625,36.790000915527344,0.0,0.0,-0.2331390380859375,-0.170135498046875,Closing,0.0,0.0,0.0,0.0,0.0,0.0,0.0,0.0,
1.8850149999999994,0.0,0.0,0.0,0.0,0.0,0.0,0.0,0.25,0.850829991,0.01,0.0012207029999999897,0.0,0.0,0.0,-0.0,0.0,0.125,0.498046824,0.01,0.0,0.0,0.0,0.0,0.0,0.0,0.0,3.334960596,0.01,0.0,0.0,0.0,0.0,-0.0,0.0,0.125,1.640624832,0.01,0.0,0.3799999952316284,-0.49000000953674316,-4.360000133514404,-0.00860595703125,0.00830078125,1.0191650390625,36.790000915527344,0.0,0.0,-0.2331390380859375,-0.170135498046875,Closing,0.0,0.0,0.0,0.0,0.0,0.0,0.0,0.0,
1.9099969999999957,0.0,0.0,0.0,0.0,0.0,0.0,0.0,0.25,0.849609288,0.01,-0.0012207029999999897,0.0,0.0,0.0,-0.0,0.0,0.125,0.498046824,0.01,0.0,0.0,0.0,0.0,0.0,0.0,0.0,3.336181299,0.01,0.0,0.0,0.0,0.0,-0.0,0.0,0.125,1.641845535,0.01,0.0,0.3799999952316284,-0.49000000953674316,-4.360000133514404,-0.00787353515625,0.00762939453125,1.0206298828125,36.790000915527344,0.0,0.0,-0.2331390380859375,-0.170135498046875,Closing,0.0,0.0,0.0,0.0,0.0,0.0,0.0,0.0,
1.9307279999999956,0.0,0.0,0.0,0.0,0.0,0.0,0.0,0.25,0.849609288,0.01,-0.0012207029999999897,0.0,0.0,0.0,-0.0,0.0,0.125,0.498046824,0.01,0.0,0.0,0.0,0.0,0.0,0.0,0.0,3.336181299,0.01,0.0,0.0,0.0,0.0,-0.0,0.0,0.125,1.640624832,0.01,0.0,0.3799999952316284,-0.49000000953674316,-4.360000133514404,-0.00714111328125,0.0064697265625,1.02008056640625,36.790000915527344,0.0,1.0,-0.2331390380859375,-0.170135498046875,Closing,0.0,0.0,0.0,0.0,0.0,0.0,0.0,0.0,
1.9524739999999947,0.0,0.0,0.0,0.0,0.0,0.0,0.0,0.25,0.850829991,0.01,-0.0012207030000001007,0.0,0.0,0.0,-0.0,0.0,0.125,0.498046824,0.01,0.0,0.0,0.0,0.0,0.0,0.0,0.0,3.334960596,0.01,0.0,0.0,0.0,0.0,-0.0,0.0,0.125,1.641845535,0.01,0.0,0.3799999952316284,-0.49000000953674316,-4.360000133514404,-0.00799560546875,0.0052490234375,1.02313232421875,36.790000915527344,0.0,0.0,-0.2331390380859375,-0.170135498046875,Closing,0.0,0.0,0.0,0.0,0.0,0.0,0.0,0.0,
1.9711129999999975,0.0,0.0,0.0,0.0,0.0,0.0,0.0,0.25,0.8557128030000001,0.01,-0.0012207030000001007,0.0,0.0,0.0,-0.0,0.0,0.125,0.498046824,0.01,0.0,0.0,0.0,0.0,0.0,0.0,0.0,3.336181299,0.01,0.0,0.0,0.0,0.0,-0.0,0.0,0.125,1.640624832,0.01,0.0,0.3799999952316284,-0.47999998927116394,-4.360000133514404,-0.00946044921875,0.0081787109375,1.02789306640625,36.790000915527344,0.0,0.0,-0.2331390380859375,-0.170135498046875,Closing,0.0,0.0,0.0,0.0,0.0,0.0,0.0,0.0,
1.990403999999995,0.0,0.0,0.0,0.0,0.0,0.0,0.0,0.25,0.8544921000000001,0.01,-0.0012207030000001007,0.0,0.0,0.0,-0.0,0.0,0.125,0.498046824,0.01,0.0,0.0,0.0,0.0,0.0,0.0,0.0,3.334960596,0.01,0.0,0.0,0.0,0.0,-0.0,0.0,0.125,1.640624832,0.01,0.0,0.3799999952316284,-0.47999998927116394,-4.360000133514404,-0.0062255859375,0.00799560546875,1.01898193359375,36.790000915527344,0.0,2.0,-0.2331390380859375,-0.170135498046875,Closing,0.0,0.0,0.0,0.0,0.0,0.0,0.0,0.0,
2.0119809999999996,0.0,0.0,0.0,0.0,0.0,0.0,0.0,0.25,0.852050694,0.01,0.0012207030000001007,0.0,0.0,0.0,-0.0,0.0,0.125,0.49926752700000004,0.01,0.0,0.0,0.0,0.0,0.0,0.0,0.0,3.336181299,0.01,0.0,0.0,0.0,0.0,-0.0,0.0,0.125,1.641845535,0.01,0.0,0.3799999952316284,-0.47999998927116394,-4.360000133514404,-0.0064697265625,0.00714111328125,1.01580810546875,36.790000915527344,0.0,2.0,-0.2331390380859375,-0.170135498046875,Closing,0.0,0.0,0.0,0.0,0.0,0.0,0.0,0.0,
2.0303889999999956,0.0,0.0,0.0,0.0,0.0,0.0,0.0,0.25,0.8557128030000001,0.01,0.0012207030000001007,0.0,0.0,0.0,-0.0,0.0,0.125,0.498046824,0.01,0.0,0.0,0.0,0.0,0.0,0.0,0.0,3.336181299,0.01,0.0,0.0,0.0,0.0,-0.0,0.0,0.125,1.641845535,0.01,0.0,0.3799999952316284,-0.47999998927116394,-4.360000133514404,-0.008544921875,0.00714111328125,1.01995849609375,36.790000915527344,0.0,0.0,-0.2331390380859375,-0.170135498046875,Closing,0.0,0.0,0.0,0.0,0.0,0.0,0.0,0.0,
2.053975999999995,0.0,0.0,0.0,0.0,0.0,0.0,0.0,0.25,0.8544921000000001,0.01,0.0012207029999999897,0.0,0.0,0.0,-0.0,0.0,0.125,0.498046824,0.01,0.0,0.0,0.0,0.0,0.0,0.0,0.0,3.334960596,0.01,0.0,0.0,0.0,0.0,-0.0,0.0,0.125,1.640624832,0.01,0.0,0.3799999952316284,-0.47999998927116394,-4.360000133514404,-0.008544921875,0.00689697265625,1.022216796875,36.790000915527344,0.0,0.0,-0.2331390380859375,-0.170135498046875,Closing,0.0,0.0,0.0,0.0,0.0,0.0,0.0,0.0,
2.0736349999999946,0.0,0.0,0.0,0.0,0.0,0.0,0.0,0.25,0.8557128030000001,0.01,0.0012207029999999897,0.0,0.0,0.0,-0.0,0.0,0.125,0.498046824,0.01,0.0,0.0,0.0,0.0,0.0,0.0,0.0,3.334960596,0.01,0.0,0.0,0.0,0.0,-0.0,0.0,0.125,1.641845535,0.01,0.0,0.3799999952316284,-0.47999998927116394,-4.360000133514404,-0.009765625,0.00799560546875,1.02252197265625,36.790000915527344,0.0,-1.0,-0.2331390380859375,-0.170135498046875,Closing,0.0,0.0,0.0,0.0,0.0,0.0,0.0,0.0,
2.0934839999999966,0.0,0.0,0.0,0.0,0.0,0.0,0.0,0.25,0.8557128030000001,0.01,0.0,0.0,0.0,0.0,-0.0,0.0,0.125,0.498046824,0.01,0.0,0.0,0.0,0.0,0.0,0.0,0.0,3.336181299,0.01,0.0,0.0,0.0,0.0,-0.0,0.0,0.125,1.640624832,0.01,0.0,0.3799999952316284,-0.47999998927116394,-4.360000133514404,-0.00750732421875,0.008544921875,1.01788330078125,36.790000915527344,0.0,0.0,-0.2331390380859375,-0.170135498046875,Closing,0.0,0.0,0.0,0.0,0.0,0.0,0.0,0.0,
2.115623,0.0,0.0,0.0,0.0,0.0,0.0,0.0,0.25,0.850829991,0.01,0.0,0.0,0.0,0.0,-0.0,0.0,0.125,0.498046824,0.01,0.0,0.0,0.0,0.0,0.0,0.0,0.0,3.334960596,0.01,0.0,0.0,0.0,0.0,-0.0,0.0,0.125,1.640624832,0.01,0.0,0.3799999952316284,-0.47999998927116394,-4.360000133514404,-0.01068115234375,0.0078125,1.01422119140625,36.790000915527344,0.0,-2.0,-0.2331390380859375,-0.170135498046875,Closing,0.0,0.0,0.0,0.0,0.0,0.0,0.0,0.0,
2.1346129999999977,0.0,0.0,0.0,0.0,0.0,0.0,0.0,0.25,0.8557128030000001,0.01,0.0,0.0,0.0,0.0,-0.0,0.0,0.125,0.498046824,0.01,0.0,0.0,0.0,0.0,0.0,0.0,0.0,3.336181299,0.01,0.0,0.0,0.0,0.0,-0.0,0.0,0.125,1.640624832,0.01,0.0,0.38999998569488525,-0.47999998927116394,-4.360000133514404,-0.007080078125,0.00531005859375,1.0186767578125,36.790000915527344,0.0,1.0,-0.2331390380859375,-0.170135498046875,Closing,0.0,0.0,0.0,0.0,0.0,0.0,0.0,0.0,
2.1670250000000015,0.0,0.0,0.0,0.0,0.0,0.0,0.0,0.25,0.8557128030000001,0.01,-0.0024414060000000903,0.0,0.0,0.0,-0.0,0.0,0.125,0.49926752700000004,0.01,0.0,0.0,0.0,0.0,0.0,0.0,0.0,3.336181299,0.01,0.0,0.0,0.0,0.0,-0.0,0.0,0.125,1.641845535,0.01,0.0,0.38999998569488525,-0.47999998927116394,-4.360000133514404,-0.00762939453125,0.00909423828125,1.01708984375,36.790000915527344,0.0,0.0,-0.2331390380859375,-0.170135498046875,Closing,0.0,0.0,0.0,0.0,0.0,0.0,0.0,0.0,
2.1861800000000002,0.0,0.0,0.0,0.0,0.0,0.0,0.0,0.25,0.8544921000000001,0.01,-0.0024414060000000903,0.0,0.0,0.0,-0.0,0.0,0.125,0.498046824,0.01,0.0,0.0,0.0,0.0,0.0,0.0,0.0,3.336181299,0.01,0.0,0.0,0.0,0.0,-0.0,0.0,0.125,1.640624832,0.01,0.0,0.38999998569488525,-0.47999998927116394,-4.360000133514404,-0.0081787109375,0.005126953125,1.020263671875,36.790000915527344,0.0,0.0,-0.2331390380859375,-0.170135498046875,Closing,0.0,0.0,0.0,0.0,0.0,0.0,0.0,0.0,
2.207341999999997,0.0,0.0,0.0,0.0,0.0,0.0,0.0,0.25,0.850829991,0.01,-0.0012207029999999897,0.0,0.0,0.0,-0.0,0.0,0.125,0.498046824,0.01,0.0,0.0,0.0,0.0,0.0,0.0,0.0,3.334960596,0.01,0.0,0.0,0.0,0.0,-0.0,0.0,0.125,1.640624832,0.01,0.0,0.38999998569488525,-0.47999998927116394,-4.360000133514404,-0.00421142578125,0.0076904296875,1.01904296875,36.790000915527344,0.0,4.0,-0.2331390380859375,-0.170135498046875,Closing,0.0,0.0,0.0,0.0,0.0,0.0,0.0,0.0,
2.2265639999999984,0.0,0.0,0.0,0.0,0.0,0.0,0.0,0.25,0.8557128030000001,0.01,-0.0012207029999999897,0.0,0.0,0.0,-0.0,0.0,0.125,0.498046824,0.01,0.0,0.0,0.0,0.0,0.0,0.0,0.0,3.334960596,0.01,0.0,0.0,0.0,0.0,-0.0,0.0,0.125,1.641845535,0.01,0.0,0.38999998569488525,-0.47999998927116394,-4.360000133514404,-0.00970458984375,0.00830078125,1.021240234375,36.790000915527344,0.0,-1.0,-0.2331390380859375,-0.170135498046875,Closing,0.0,0.0,0.0,0.0,0.0,0.0,0.0,0.0,
2.2456329999999944,0.0,0.0,0.0,0.0,0.0,0.0,0.0,0.25,0.850829991,0.01,0.0024414060000000903,0.0,0.0,0.0,-0.0,0.0,0.125,0.498046824,0.01,0.0,0.0,0.0,0.0,0.0,0.0,0.0,3.334960596,0.01,0.0,0.0,0.0,0.0,-0.0,0.0,0.125,1.640624832,0.01,0.0,0.38999998569488525,-0.47999998927116394,-4.360000133514404,-0.01116943359375,0.0054931640625,1.0230712890625,36.79999923706055,0.0,0.0,-0.2331390380859375,-0.170135498046875,Closing,0.0,0.0,0.0,0.0,0.0,0.0,0.0,0.0,
2.2709189999999944,0.0,0.0,0.0,0.0,0.0,0.0,0.0,0.25,0.850829991,0.01,0.0024414060000000903,0.0,0.0,0.0,-0.0,0.0,0.125,0.498046824,0.01,0.0,0.0,0.0,0.0,0.0,0.0,0.0,3.334960596,0.01,0.0,0.0,0.0,0.0,-0.0,0.0,0.125,1.641845535,0.01,0.0,0.3799999952316284,-0.4699999988079071,-4.360000133514404,-0.00750732421875,0.00457763671875,1.01678466796875,36.79999923706055,0.0,1.0,-0.2331390380859375,-0.170135498046875,Closing,0.0,0.0,0.0,0.0,0.0,0.0,0.0,0.0,
2.290964,0.0,0.0,0.0,0.0,0.0,0.0,0.0,0.25,0.8557128030000001,0.01,0.0024414060000000903,0.0,0.0,0.0,-0.0,0.0,0.125,0.49926752700000004,0.01,0.0,0.0,0.0,0.0,0.0,0.0,0.0,3.336181299,0.01,0.0,0.0,0.0,0.0,-0.0,0.0,0.125,1.641845535,0.01,0.0,0.3799999952316284,-0.4699999988079071,-4.360000133514404,-0.007080078125,0.00531005859375,1.0179443359375,36.79999923706055,0.0,1.0,-0.2331390380859375,-0.170135498046875,Closing,0.0,0.0,0.0,0.0,0.0,0.0,0.0,0.0,
2.312222999999998,0.0,0.0,0.0,0.0,0.0,0.0,0.0,0.25,0.8544921000000001,0.01,-0.0012207030000001007,0.0,0.0,0.0,-0.0,0.0,0.125,0.498046824,0.01,0.0,0.0,0.0,0.0,0.0,0.0,0.0,3.334960596,0.01,0.0,0.0,0.0,0.0,-0.0,0.0,0.125,1.641845535,0.01,0.0,0.3799999952316284,-0.4699999988079071,-4.360000133514404,-0.00762939453125,0.0050048828125,1.02740478515625,36.79999923706055,0.0,1.0,-0.2331390380859375,-0.170135498046875,Closing,0.0,0.0,0.0,0.0,0.0,0.0,0.0,0.0,
2.330951000000001,0.0,0.0,0.0,0.0,0.0,0.0,0.0,0.25,0.8557128030000001,0.01,-0.0012207030000001007,0.0,0.0,0.0,-0.0,0.0,0.125,0.498046824,0.01,0.0,0.0,0.0,0.0,0.0,0.0,0.0,3.334960596,0.01,0.0,0.0,0.0,0.0,-0.0,0.0,0.125,1.641845535,0.01,0.0,0.3799999952316284,-0.4699999988079071,-4.360000133514404,-0.01007080078125,0.00732421875,1.01995849609375,36.79999923706055,0.0,-1.0,-0.2331390380859375,-0.170135498046875,Closing,0.0,0.0,0.0,0.0,0.0,0.0,0.0,0.0,
2.352767999999996,0.0,0.0,0.0,0.0,0.0,0.0,0.0,0.25,0.8557128030000001,0.01,0.0012207030000001007,0.0,0.0,0.0,-0.0,0.0,0.125,0.498046824,0.01,0.0,0.0,0.0,0.0,0.0,0.0,0.0,3.334960596,0.01,0.0,0.0,0.0,0.0,-0.0,0.0,0.125,1.641845535,0.01,0.0,0.3799999952316284,-0.4699999988079071,-4.360000133514404,-0.01141357421875,0.00616455078125,1.0203857421875,36.79999923706055,0.0,-2.0,-0.2331390380859375,-0.170135498046875,Closing,0.0,0.0,0.0,0.0,0.0,0.0,0.0,0.0,
2.3718539999999995,0.0,0.0,0.0,0.0,0.0,0.0,0.0,0.25,0.850829991,0.01,0.0012207030000001007,0.0,0.0,0.0,-0.0,0.0,0.125,0.49926752700000004,0.01,0.0,0.0,0.0,0.0,0.0,0.0,0.0,3.336181299,0.01,0.0,0.0,0.0,0.0,-0.0,0.0,0.125,1.641845535,0.01,0.0,0.3799999952316284,-0.4699999988079071,-4.360000133514404,-0.00775146484375,0.00628662109375,1.01715087890625,36.79999923706055,0.0,0.0,-0.2331390380859375,-0.170135498046875,Closing,0.0,0.0,0.0,0.0,0.0,0.0,0.0,0.0,
2.392140999999996,0.0,0.0,0.0,0.0,0.0,0.0,0.0,0.25,0.8557128030000001,0.01,0.0012207030000001007,0.0,0.0,0.0,-0.0,0.0,0.125,0.498046824,0.01,0.0,0.0,0.0,0.0,0.0,0.0,0.0,3.336181299,0.01,0.0,0.0,0.0,0.0,-0.0,0.0,0.125,1.640624832,0.01,0.0,0.3799999952316284,-0.4699999988079071,-4.360000133514404,-0.007568359375,0.00469970703125,1.01788330078125,36.79999923706055,0.0,1.0,-0.2331390380859375,-0.170135498046875,Closing,0.0,0.0,0.0,0.0,0.0,0.0,0.0,0.0,
2.4140709999999963,0.0,0.0,0.0,0.0,0.0,0.0,0.0,0.25,0.8557128030000001,0.01,0.0,0.0,0.0,0.0,-0.0,0.0,0.125,0.498046824,0.01,0.0,0.0,0.0,0.0,0.0,0.0,0.0,3.336181299,0.01,0.0,0.0,0.0,0.0,-0.0,0.0,0.125,1.641845535,0.01,0.0,0.3799999952316284,-0.4699999988079071,-4.360000133514404,-0.010009765625,0.009033203125,1.02716064453125,36.79999923706055,0.0,-1.0,-0.2331390380859375,-0.170135498046875,Closing,0.0,0.0,0.0,0.0,0.0,0.0,0.0,0.0,
2.4321919999999952,0.0,0.0,0.0,0.0,0.0,0.0,0.0,0.25,0.8557128030000001,0.01,0.0,0.0,0.0,0.0,-0.0,0.0,0.125,0.498046824,0.01,0.0,0.0,0.0,0.0,0.0,0.0,0.0,3.334960596,0.01,0.0,0.0,0.0,0.0,-0.0,0.0,0.125,1.640624832,0.01,0.0,0.3799999952316284,-0.4699999988079071,-4.360000133514404,-0.007568359375,0.00494384765625,1.02020263671875,36.79999923706055,0.0,1.0,-0.2331390380859375,-0.170135498046875,Closing,0.0,0.0,0.0,0.0,0.0,0.0,0.0,0.0,
2.4542839999999995,0.0,0.0,0.0,0.0,0.0,0.0,0.0,0.25,0.8557128030000001,0.01,0.0012207029999999897,0.0,0.0,0.0,-0.0,0.0,0.125,0.498046824,0.01,0.0,0.0,0.0,0.0,0.0,0.0,0.0,3.336181299,0.01,0.0,0.0,0.0,0.0,-0.0,0.0,0.125,1.641845535,0.01,0.0,0.3799999952316284,-0.4699999988079071,-4.360000133514404,-0.0089111328125,0.007080078125,1.018798828125,36.79999923706055,0.0,0.0,-0.2331390380859375,-0.170135498046875,Closing,0.0,0.0,0.0,0.0,0.0,0.0,0.0,0.0,
2.472801999999996,0.0,0.0,0.0,0.0,0.0,0.0,0.0,0.25,0.850829991,0.01,0.0012207029999999897,0.0,0.0,0.0,-0.0,0.0,0.125,0.498046824,0.01,0.0,0.0,0.0,0.0,0.0,0.0,0.0,3.337402002,0.01,0.0,0.0,0.0,0.0,-0.0,0.0,0.125,1.641845535,0.01,0.0,0.3799999952316284,-0.4699999988079071,-4.360000133514404,-0.01043701171875,0.00836181640625,1.0186767578125,36.79999923706055,0.0,-2.0,-0.2331390380859375,-0.170135498046875,Closing,0.0,0.0,0.0,0.0,0.0,0.0,0.0,0.0,
2.4918529999999954,0.0,0.0,0.0,0.0,0.0,0.0,0.0,0.25,0.8557128030000001,0.01,0.0012207029999999897,0.0,0.0,0.0,-0.0,0.0,0.125,0.498046824,0.01,0.0,0.0,0.0,0.0,0.0,0.0,0.0,3.336181299,0.01,0.0,0.0,0.0,0.0,-0.0,0.0,0.125,1.641845535,0.01,0.0,0.3799999952316284,-0.4699999988079071,-4.360000133514404,-0.0076904296875,0.00994873046875,1.0218505859375,36.79999923706055,0.0,0.0,-0.2331390380859375,-0.170135498046875,Closing,0.0,0.0,0.0,0.0,0.0,0.0,0.0,0.0,
2.5137379999999974,0.0,0.0,0.0,0.0,0.0,0.0,0.0,0.25,0.8557128030000001,0.01,-0.0024414060000000903,0.0,0.0,0.0,-0.0,0.0,0.125,0.498046824,0.01,0.0,0.0,0.0,0.0,0.0,0.0,0.0,3.336181299,0.01,0.0,0.0,0.0,0.0,-0.0,0.0,0.125,1.641845535,0.01,0.0,0.3799999952316284,-0.4699999988079071,-4.360000133514404,-0.01092529296875,0.0081787109375,1.02020263671875,36.79999923706055,0.0,-2.0,-0.2331390380859375,-0.170135498046875,Closing,0.0,0.0,0.0,0.0,0.0,0.0,0.0,0.0,
2.532525999999998,0.0,0.0,0.0,0.0,0.0,0.0,0.0,0.25,0.850829991,0.01,-0.0024414060000000903,0.0,0.0,0.0,-0.0,0.0,0.125,0.498046824,0.01,0.0,0.0,0.0,0.0,0.0,0.0,0.0,3.336181299,0.01,0.0,0.0,0.0,0.0,-0.0,0.0,0.125,1.640624832,0.01,0.0,0.3799999952316284,-0.4699999988079071,-4.360000133514404,-0.00830078125,0.005859375,1.02239990234375,36.79999923706055,0.0,0.0,-0.2331390380859375,-0.170135498046875,Closing,0.0,0.0,0.0,0.0,0.0,0.0,0.0,0.0,
2.5546659999999974,0.0,0.0,0.0,0.0,0.0,0.0,0.0,0.25,0.8557128030000001,0.01,0.0024414060000000903,0.0,0.0,0.0,-0.0,0.0,0.125,0.498046824,0.01,0.0,0.0,0.0,0.0,0.0,0.0,0.0,3.334960596,0.01,0.0,0.0,0.0,0.0,-0.0,0.0,0.125,1.641845535,0.01,0.0,0.3799999952316284,-0.4699999988079071,-4.360000133514404,-0.00811767578125,0.0067138671875,1.01947021484375,36.79999923706055,0.0,0.0,-0.2331390380859375,-0.170135498046875,Closing,0.0,0.0,0.0,0.0,0.0,0.0,0.0,0.0,
2.5748689999999987,0.0,0.0,0.0,0.0,0.0,0.0,0.0,0.25,0.8544921000000001,0.01,0.0024414060000000903,0.0,0.0,0.0,-0.0,0.0,0.125,0.498046824,0.01,0.0,0.0,0.0,0.0,0.0,0.0,0.0,3.334960596,0.01,0.0,0.0,0.0,0.0,-0.0,0.0,0.125,1.641845535,0.01,0.0,0.3799999952316284,-0.4699999988079071,-4.360000133514404,-0.0078125,0.00555419921875,1.015869140625,36.79999923706055,0.0,0.0,-0.2331390380859375,-0.170135498046875,Closing,0.0,0.0,0.0,0.0,0.0,0.0,0.0,0.0,
2.595305,0.0,0.0,0.0,0.0,0.0,0.0,0.0,0.25,0.8557128030000001,0.01,-0.0012207029999999897,0.0,0.0,0.0,-0.0,0.0,0.125,0.498046824,0.01,0.0,0.0,0.0,0.0,0.0,0.0,0.0,3.336181299,0.01,0.0,0.0,0.0,0.0,-0.0,0.0,0.125,1.640624832,0.01,0.0,0.3799999952316284,-0.4699999988079071,-4.360000133514404,-0.0098876953125,0.00775146484375,1.01922607421875,36.79999923706055,0.0,-1.0,-0.2331390380859375,-0.170135498046875,Closing,0.0,0.0,0.0,0.0,0.0,0.0,0.0,0.0,
2.6172569999999977,0.0,0.0,0.0,0.0,0.0,0.0,0.0,0.25,0.8557128030000001,0.01,-0.0012207029999999897,0.0,0.0,0.0,-0.0,0.0,0.125,0.498046824,0.01,0.0,0.0,0.0,0.0,0.0,0.0,0.0,3.334960596,0.01,0.0,0.0,0.0,0.0,-0.0,0.0,0.125,1.641845535,0.01,0.0,0.3799999952316284,-0.4699999988079071,-4.360000133514404,-0.0098876953125,0.00775146484375,1.01922607421875,36.79999923706055,0.0,-1.0,-0.2331390380859375,-0.170135498046875,Closing,0.0,0.0,0.0,0.0,0.0,0.0,0.0,0.0,
2.636171999999999,0.0,0.0,0.0,0.0,0.0,0.0,0.0,0.25,0.8557128030000001,0.01,-0.0012207029999999897,0.0,0.0,0.0,-0.0,0.0,0.125,0.498046824,0.01,0.0,0.0,0.0,0.0,0.0,0.0,0.0,3.336181299,0.01,0.0,0.0,0.0,0.0,-0.0,0.0,0.125,1.640624832,0.01,0.0,0.3799999952316284,-0.4699999988079071,-4.360000133514404,-0.0068359375,0.00537109375,1.0206298828125,36.79999923706055,0.0,1.0,-0.2331390380859375,-0.170135498046875,Closing,0.0,0.0,0.0,0.0,0.0,0.0,0.0,0.0,
2.6582069999999947,0.0,0.0,0.0,0.0,0.0,0.0,0.0,0.25,0.8544921000000001,0.01,0.0012207029999999897,0.0,0.0,0.0,-0.0,0.0,0.125,0.498046824,0.01,0.0,0.0,0.0,0.0,0.0,0.0,0.0,3.336181299,0.01,0.0,0.0,0.0,0.0,-0.0,0.0,0.125,1.640624832,0.01,0.0,0.3799999952316284,-0.4699999988079071,-4.360000133514404,-0.0074462890625,0.0076904296875,1.01861572265625,36.79999923706055,0.0,1.0,-0.2331390380859375,-0.170135498046875,Closing,0.0,0.0,0.0,0.0,0.0,0.0,0.0,0.0,
2.6797520000000006,0.0,0.0,0.0,0.0,0.0,0.0,0.0,0.25,0.8557128030000001,0.01,0.0012207029999999897,0.0,0.0,0.0,-0.0,0.0,0.125,0.49926752700000004,0.01,0.0,0.0,0.0,0.0,0.0,0.0,0.0,3.334960596,0.01,0.0,0.0,0.0,0.0,-0.0,0.0,0.125,1.641845535,0.01,0.0,0.3799999952316284,-0.4699999988079071,-4.360000133514404,-0.00775146484375,0.00506591796875,1.01861572265625,36.79999923706055,0.0,0.0,-0.2331390380859375,-0.170135498046875,Closing,0.0,0.0,0.0,0.0,0.0,0.0,0.0,0.0,
2.7005069999999978,0.0,0.0,0.0,0.0,0.0,0.0,0.0,0.25,0.849609288,0.01,0.0,0.0,0.0,0.0,-0.0,0.0,0.125,0.498046824,0.01,0.0,0.0,0.0,0.0,0.0,0.0,0.0,3.336181299,0.01,0.0,0.0,0.0,0.0,-0.0,0.0,0.125,1.641845535,0.01,0.0,0.3799999952316284,-0.4699999988079071,-4.360000133514404,-0.0069580078125,0.00958251953125,1.0196533203125,36.79999923706055,0.0,1.0,-0.2331390380859375,-0.170135498046875,Closing,0.0,0.0,0.0,0.0,0.0,0.0,0.0,0.0,
2.7281889999999986,0.0,0.0,0.0,0.0,0.0,0.0,0.0,0.25,0.849609288,0.01,0.0,0.0,0.0,0.0,-0.0,0.0,0.125,0.498046824,0.01,0.0,0.0,0.0,0.0,0.0,0.0,0.0,3.334960596,0.01,0.0,0.0,0.0,0.0,-0.0,0.0,0.125,1.640624832,0.01,0.0,0.3799999952316284,-0.4699999988079071,-4.360000133514404,-0.00665283203125,0.0074462890625,1.018310546875,36.79999923706055,0.0,1.0,-0.2331390380859375,-0.170135498046875,Closing,0.0,0.0,0.0,0.0,0.0,0.0,0.0,0.0,
2.748053,0.0,0.0,0.0,0.0,0.0,0.0,0.0,0.25,0.8544921000000001,0.01,-0.0012207029999999897,0.0,0.0,0.0,-0.0,0.0,0.125,0.498046824,0.01,0.0,0.0,0.0,0.0,0.0,0.0,0.0,3.334960596,0.01,0.0,0.0,0.0,0.0,-0.0,0.0,0.125,1.641845535,0.01,0.0,0.3799999952316284,-0.4699999988079071,-4.360000133514404,-0.00604248046875,0.00732421875,1.0177001953125,36.79999923706055,0.0,2.0,-0.2331390380859375,-0.170135498046875,Closing,0.0,0.0,0.0,0.0,0.0,0.0,0.0,0.0,
2.770983,0.0,0.0,0.0,0.0,0.0,0.0,0.0,0.25,0.8557128030000001,0.01,-0.0012207029999999897,0.0,0.0,0.0,-0.0,0.0,0.125,0.498046824,0.01,0.0,0.0,0.0,0.0,0.0,0.0,0.0,3.336181299,0.01,0.0,0.0,0.0,0.0,-0.0,0.0,0.125,1.640624832,0.01,0.0,0.3799999952316284,-0.4699999988079071,-4.360000133514404,-0.00762939453125,0.007568359375,1.0179443359375,36.79999923706055,0.0,0.0,-0.2331390380859375,-0.170135498046875,Closing,0.0,0.0,0.0,0.0,0.0,0.0,0.0,0.0,
2.790820999999996,0.0,0.0,0.0,0.0,0.0,0.0,0.0,0.25,0.8557128030000001,0.01,-0.0012207029999999897,0.0,0.0,0.0,-0.0,0.0,0.125,0.498046824,0.01,0.0,0.0,0.0,0.0,0.0,0.0,0.0,3.334960596,0.01,0.0,0.0,0.0,0.0,-0.0,0.0,0.125,1.641845535,0.01,0.0,0.3799999952316284,-0.4699999988079071,-4.360000133514404,-0.01177978515625,0.0047607421875,1.015869140625,36.79999923706055,0.0,-3.0,-0.2331390380859375,-0.170135498046875,Closing,0.0,0.0,0.0,0.0,0.0,0.0,0.0,0.0,
2.812453999999998,0.0,0.0,0.0,0.0,0.0,0.0,0.0,0.25,0.850829991,0.01,0.0,0.0,0.0,0.0,-0.0,0.0,0.125,0.498046824,0.01,0.0,0.0,0.0,0.0,0.0,0.0,0.0,3.336181299,0.01,0.0,0.0,0.0,0.0,-0.0,0.0,0.125,1.641845535,0.01,0.0,0.3799999952316284,-0.4699999988079071,-4.360000133514404,-0.00726318359375,0.00445556640625,1.01947021484375,36.79999923706055,0.0,1.0,-0.2331390380859375,-0.170135498046875,Closing,0.0,0.0,0.0,0.0,0.0,0.0,0.0,0.0,
2.8304479999999965,0.0,0.0,0.0,0.0,0.0,0.0,0.0,0.25,0.8544921000000001,0.01,0.0,0.0,0.0,0.0,-0.0,0.0,0.125,0.498046824,0.01,0.0,0.0,0.0,0.0,0.0,0.0,0.0,3.336181299,0.01,0.0,0.0,0.0,0.0,-0.0,0.0,0.125,1.640624832,0.01,0.0,0.3799999952316284,-0.4699999988079071,-4.360000133514404,-0.00897216796875,0.0042724609375,1.01995849609375,36.79999923706055,0.0,0.0,-0.2331390380859375,-0.170135498046875,Closing,0.0,0.0,0.0,0.0,0.0,0.0,0.0,0.0,
2.8518989999999977,0.0,0.0,0.0,0.0,0.0,0.0,0.0,0.25,0.850829991,0.01,0.0012207029999999897,0.0,0.0,0.0,-0.0,0.0,0.125,0.498046824,0.01,0.0,0.0,0.0,0.0,0.0,0.0,0.0,3.334960596,0.01,0.0,0.0,0.0,0.0,-0.0,0.0,0.125,1.641845535,0.01,0.0,0.3799999952316284,-0.4699999988079071,-4.360000133514404,-0.00604248046875,0.008056640625,1.01812744140625,36.79999923706055,0.0,2.0,-0.2331390380859375,-0.170135498046875,Closing,0.0,0.0,0.0,0.0,0.0,0.0,0.0,0.0,
2.870981999999996,0.0,0.0,0.0,0.0,0.0,0.0,0.0,0.25,0.850829991,0.01,0.0012207029999999897,0.0,0.0,0.0,-0.0,0.0,0.125,0.498046824,0.01,0.0,0.0,0.0,0.0,0.0,0.0,0.0,3.336181299,0.01,0.0,0.0,0.0,0.0,-0.0,0.0,0.125,1.640624832,0.01,0.0,0.3799999952316284,-0.4699999988079071,-4.360000133514404,-0.00946044921875,0.0062255859375,1.0205078125,36.79999923706055,0.0,0.0,-0.2331390380859375,-0.170135498046875,Closing,0.0,0.0,0.0,0.0,0.0,0.0,0.0,0.0,
2.889913999999997,0.0,0.0,0.0,0.0,0.0,0.0,0.0,0.25,0.8557128030000001,0.01,0.0012207029999999897,0.0,0.0,0.0,-0.0,0.0,0.125,0.498046824,0.01,0.0,0.0,0.0,0.0,0.0,0.0,0.0,3.336181299,0.01,0.0,0.0,0.0,0.0,-0.0,0.0,0.125,1.641845535,0.01,0.0,0.3799999952316284,-0.4699999988079071,-4.360000133514404,-0.0064697265625,0.004638671875,1.0157470703125,36.79999923706055,0.0,2.0,-0.2331390380859375,-0.170135498046875,Closing,0.0,0.0,0.0,0.0,0.0,0.0,0.0,0.0,
2.913875,0.0,0.0,0.0,0.0,0.0,0.0,0.0,0.25,0.849609288,0.01,0.0,0.0,0.0,0.0,-0.0,0.0,0.125,0.498046824,0.01,0.0,0.0,0.0,0.0,0.0,0.0,0.0,3.334960596,0.01,0.0,0.0,0.0,0.0,-0.0,0.0,0.125,1.640624832,0.01,0.0,0.3799999952316284,-0.4699999988079071,-4.360000133514404,-0.0078125,0.009033203125,1.0179443359375,36.79999923706055,0.0,0.0,-0.2331390380859375,-0.170135498046875,Closing,0.0,0.0,0.0,0.0,0.0,0.0,0.0,0.0,
2.9316489999999975,0.0,0.0,0.0,0.0,0.0,0.0,0.0,0.25,0.850829991,0.01,0.0,0.0,0.0,0.0,-0.0,0.0,0.125,0.498046824,0.01,0.0,0.0,0.0,0.0,0.0,0.0,0.0,3.334960596,0.01,0.0,0.0,0.0,0.0,-0.0,0.0,0.125,1.641845535,0.01,0.0,0.3799999952316284,-0.4699999988079071,-4.360000133514404,-0.009765625,0.00775146484375,1.0152587890625,36.79999923706055,0.0,-1.0,-0.2331390380859375,-0.170135498046875,Closing,0.0,0.0,0.0,0.0,0.0,0.0,0.0,0.0,
2.9509649999999965,0.0,0.0,0.0,0.0,0.0,0.0,0.0,0.25,0.8557128030000001,0.01,-0.0024414060000000903,0.0,0.0,0.0,-0.0,0.0,0.125,0.498046824,0.01,0.0,0.0,0.0,0.0,0.0,0.0,0.0,3.334960596,0.01,0.0,0.0,0.0,0.0,-0.0,0.0,0.125,1.640624832,0.01,0.0,0.38999998569488525,-0.4699999988079071,-4.360000133514404,-0.00823974609375,0.005859375,1.01995849609375,36.79999923706055,0.0,0.0,-0.2331390380859375,-0.170135498046875,Closing,0.0,0.0,0.0,0.0,0.0,0.0,0.0,0.0,
2.969839,0.0,0.0,0.0,0.0,0.0,0.0,0.0,0.25,0.8557128030000001,0.01,-0.0024414060000000903,0.0,0.0,0.0,-0.0,0.0,0.125,0.498046824,0.01,0.0,0.0,0.0,0.0,0.0,0.0,0.0,3.334960596,0.01,0.0,0.0,0.0,0.0,-0.0,0.0,0.125,1.641845535,0.01,0.0,0.3799999952316284,-0.4699999988079071,-4.360000133514404,-0.00933837890625,0.0050048828125,1.02008056640625,36.79999923706055,0.0,0.0,-0.2331390380859375,-0.170135498046875,Closing,0.0,0.0,0.0,0.0,0.0,0.0,0.0,0.0,
2.9877479999999994,0.0,0.0,0.0,0.0,0.0,0.0,0.0,0.25,0.850829991,0.01,-0.0024414060000000903,0.0,0.0,0.0,-0.0,0.0,0.125,0.498046824,0.01,0.0,0.0,0.0,0.0,0.0,0.0,0.0,3.336181299,0.01,0.0,0.0,0.0,0.0,-0.0,0.0,0.125,1.641845535,0.01,0.0,0.3799999952316284,-0.4699999988079071,-4.360000133514404,-0.01092529296875,0.00738525390625,1.01690673828125,36.79999923706055,0.0,-2.0,-0.2331390380859375,-0.170135498046875,Closing,0.0,0.0,0.0,0.0,0.0,0.0,0.0,0.0,
3.009411,0.0,0.0,0.0,0.0,0.0,0.0,0.0,0.25,0.8557128030000001,0.01,0.0012207030000001007,0.0,0.0,0.0,-0.0,0.0,0.125,0.498046824,0.01,0.0,0.0,0.0,0.0,0.0,0.0,0.0,3.334960596,0.01,0.0,0.0,0.0,0.0,-0.0,0.0,0.125,1.641845535,0.01,0.0,0.3799999952316284,-0.4699999988079071,-4.360000133514404,-0.00909423828125,0.00653076171875,1.019287109375,36.79999923706055,0.0,0.0,-0.2331390380859375,-0.170135498046875,Closing,0.0,0.0,0.0,0.0,0.0,0.0,0.0,0.0,
3.028578999999998,0.0,0.0,0.0,0.0,0.0,0.0,0.0,0.25,0.8557128030000001,0.01,0.0012207030000001007,0.0,0.0,0.0,-0.0,0.0,0.125,0.49926752700000004,0.01,0.0,0.0,0.0,0.0,0.0,0.0,0.0,3.334960596,0.01,0.0,0.0,0.0,0.0,-0.0,0.0,0.125,1.640624832,0.01,0.0,0.3799999952316284,-0.4699999988079071,-4.360000133514404,-0.0118408203125,0.005615234375,1.0216064453125,36.79999923706055,0.0,-3.0,-0.2331390380859375,-0.170135498046875,Closing,0.0,0.0,0.0,0.0,0.0,0.0,0.0,0.0,
3.047515999999996,0.0,0.0,0.0,0.0,0.0,0.0,0.0,0.25,0.8557128030000001,0.01,0.0,0.0,0.0,0.0,-0.0,0.0,0.125,0.498046824,0.01,0.0,0.0,0.0,0.0,0.0,0.0,0.0,3.334960596,0.01,0.0,0.0,0.0,0.0,-0.0,0.0,0.125,1.641845535,0.01,0.0,0.3799999952316284,-0.4699999988079071,-4.360000133514404,-0.00933837890625,0.00567626953125,1.0208740234375,36.79999923706055,0.0,0.0,-0.2331390380859375,-0.170135498046875,Closing,0.0,0.0,0.0,0.0,0.0,0.0,0.0,0.0,
3.0674569999999948,0.0,0.0,0.0,0.0,0.0,0.0,0.0,0.25,0.8557128030000001,0.01,0.0,0.0,0.0,0.0,-0.0,0.0,0.125,0.498046824,0.01,0.0,0.0,0.0,0.0,0.0,0.0,0.0,3.334960596,0.01,0.0,0.0,0.0,0.0,-0.0,0.0,0.125,1.640624832,0.01,0.0,0.3799999952316284,-0.4699999988079071,-4.360000133514404,-0.006103515625,0.0057373046875,1.02117919921875,36.79999923706055,0.0,2.0,-0.2331390380859375,-0.170135498046875,Closing,0.0,0.0,0.0,0.0,0.0,0.0,0.0,0.0,
3.0859289999999966,0.0,0.0,0.0,0.0,0.0,0.0,0.0,0.25,0.850829991,0.01,0.0,0.0,0.0,0.0,-0.0,0.0,0.125,0.498046824,0.01,0.0,0.0,0.0,0.0,0.0,0.0,0.0,3.336181299,0.01,0.0,0.0,0.0,0.0,-0.0,0.0,0.125,1.641845535,0.01,0.0,0.3799999952316284,-0.4699999988079071,-4.360000133514404,-0.00799560546875,0.008544921875,1.02081298828125,36.79999923706055,0.0,0.0,-0.2331390380859375,-0.170135498046875,Closing,0.0,0.0,0.0,0.0,0.0,0.0,0.0,0.0,
3.1062219999999945,0.0,0.0,0.0,0.0,0.0,0.0,0.0,0.25,0.8557128030000001,0.01,0.0,0.0,0.0,0.0,-0.0,0.0,0.125,0.49926752700000004,0.01,0.0,0.0,0.0,0.0,0.0,0.0,0.0,3.334960596,0.01,0.0,0.0,0.0,0.0,-0.0,0.0,0.125,1.641845535,0.01,0.0,0.3799999952316284,-0.4699999988079071,-4.360000133514404,-0.00994873046875,0.00689697265625,1.0174560546875,36.79999923706055,0.0,-1.0,-0.2331390380859375,-0.170135498046875,Closing,0.0,0.0,0.0,0.0,0.0,0.0,0.0,0.0,
3.1243859999999986,0.0,0.0,0.0,0.0,0.0,0.0,0.0,0.25,0.849609288,0.01,0.0,0.0,0.0,0.0,-0.0,0.0,0.125,0.498046824,0.01,0.0,0.0,0.0,0.0,0.0,0.0,0.0,3.334960596,0.01,0.0,0.0,0.0,0.0,-0.0,0.0,0.125,1.641845535,0.01,0.0,0.3799999952316284,-0.4699999988079071,-4.360000133514404,-0.0089111328125,0.00738525390625,1.0186767578125,36.79999923706055,0.0,0.0,-0.2331390380859375,-0.170135498046875,Closing,0.0,0.0,0.0,0.0,0.0,0.0,0.0,0.0,
