Time,ClimberA1,ClimberA2,FRpos,FRCurrent,FRspeed,FRsetpoint,FRApos,FRACurrent,FREncpos,FREncSetpoint,FREncSpeed,FLpos,FLCurrent,FLspeed,FLsetpoint,FLApos,FLACurrent,FLEncpos,FLEncSetpoint,FLEncSpeed,BRpos,BRCurrent,BRspeed,BRsetpoint,BRApos,BRACurrent,BREncpos,BREncSetpoint,BREncSpeed,BLpos,BLCurrent,BLspeed,BLsetpoint,BLApos,BLACurrent,BLEncpos,BLEncSetpoint,BLEncSpeed,navx_Pitch,navx_Roll,navx_Yaw,navx_XAcc,navx_YAcc,navx_ZAcc,navx_Temp,navx_Bar,navx_Alt,navx_XDis,navx_YDis,GearPlacerState,ShootOutputV,ShootOutputCurrent,ShootEncPos,ShootEncVelocity,ShootSpeed,ShootSetpoint,CarouselSetpoint,CarouselCurrent,
0.15342999999999302,0.0,0.0,15827.0,0.0,0.0,0.0,0.0,0.125,0.8276366340000001,0.01,0.0,-55370.0,0.0,0.0,0.0,0.0,0.125,0.53710932,0.01,0.0,45917.0,0.125,0.0,0.0,0.0,0.0,3.3679195770000003,0.01,0.0,-70888.0,0.125,0.0,0.0,0.0,0.125,1.6333006140000002,0.01,0.0,0.25,-0.6800000071525574,159.80999755859375,-0.0146484375,0.00506591796875,1.01995849609375,36.189998626708984,0.0,2.0,2.5158538818359375,-0.42681884765625,Closing,0.0,0.0,0.0,0.0,0.0,0.0,0.0,0.0,
0.25645600000000557,0.0,0.0,15847.0,8.625,105.0,1470.0,0.0,0.125,0.8032225740000001,0.01,0.0012207029999999897,-55410.0,9.625,-247.5,-1470.0,0.0,0.125,0.53710932,0.01,-0.0012207030000004337,45950.0,9.0,225.0,1470.0,0.0,0.0,3.3679195770000003,0.01,0.0,-70917.0,8.625,-180.0,-1470.0,0.0,0.125,1.64794905,0.01,0.0,0.3700000047683716,0.2800000011920929,159.8699951171875,0.37554931640625,-0.253662109375,-0.02484130859375,36.189998626708984,0.0,-439.0,2.51312255859375,-0.4286651611328125,Closing,0.0,0.0,0.0,0.0,0.0,0.0,0.0,0.125,
0.3621449999999604,0.0,0.0,15847.0,12.75,307.5,1470.0,0.0,0.25,0.8032225740000001,0.01,0.0,-55475.0,13.0,-412.5,-1470.0,0.0,0.125,0.5419921320000001,0.01,0.0,46011.0,11.0,390.0,1470.0,0.0,0.0,3.3630367650000004,0.01,0.0,-70969.0,13.125,-330.0,-1470.0,0.0,0.25,1.64794905,0.01,0.0,0.4399999976158142,1.100000023841858,159.91000366210938,0.223388671875,-0.02484130859375,1.21490478515625,36.189998626708984,0.0,-199.0,2.4967498779296875,-0.436614990234375,Closing,0.0,0.0,0.0,0.0,0.0,0.0,0.0,0.0,
0.46744899999996414,0.0,0.0,15914.0,12.75,697.5,1470.0,0.0,0.25,0.8032225740000001,0.01,0.0,-55610.0,14.625,-757.5,-1470.0,0.0,0.125,0.5419921320000001,0.01,0.0,46081.0,18.125,367.5,1470.0,0.0,0.0,3.3679195770000003,0.01,0.0,-71082.0,14.875,-645.0,-1470.0,0.0,0.25,1.646728347,0.01,0.0,0.47999998927116394,2.0299999713897705,159.7899932861328,0.3480224609375,0.0789794921875,1.02459716796875,36.16999816894531,0.0,-268.0,2.4713287353515625,-0.44769287109375,Closing,0.0,0.0,0.0,0.0,0.0,0.0,0.0,0.0,
0.5693360000000103,0.0,0.0,16048.0,11.25,982.5,1470.0,0.0,0.25,0.798339762,4.931428991615634,0.0,-55610.0,12.25,-1087.5,-1470.0,0.0,0.25,0.5810546280000001,4.962942738662719,0.0,46081.0,19.75,802.5,1470.0,0.0,0.125,3.3679195770000003,4.939576633504232,0.0,-71082.0,13.5,-960.0,-1470.0,0.0,0.25,1.638183426,4.957173700290256,0.0,0.6200000047683716,2.9000000953674316,159.52000427246094,0.20928955078125,-0.0635986328125,0.94195556640625,36.16999816894531,0.0,-177.0,2.4307098388671875,-0.463348388671875,Closing,0.0,0.0,0.0,0.0,0.0,0.0,0.0,0.125,
0.671255999999994,0.0,0.0,16242.0,8.625,1275.0,1470.0,0.0,0.125,0.8032225740000001,4.928277889790217,0.0,-55798.0,9.375,-1290.0,-1470.0,0.0,0.25,0.615234312,4.959771500072479,0.0,46228.0,15.75,1147.5,1470.0,0.0,0.125,3.3666988740000003,4.936420325469971,0.0,-71253.0,12.5,-1245.0,-1470.0,0.0,0.25,1.649169753,4.954006148020427,0.0,0.75,3.450000047683716,159.0500030517578,0.0653076171875,0.11248779296875,1.14154052734375,36.16999816894531,0.0,38.0,2.38702392578125,-0.4660186767578125,Closing,0.0,0.0,0.0,0.0,0.0,0.0,0.0,0.0,
0.7712779999999911,0.0,0.0,16481.0,5.25,1552.5,1470.0,0.0,0.25,0.8056639800000001,4.921838545371289,0.0,-56022.0,7.0,-1470.0,-1470.0,0.0,0.25,0.5664061920000001,4.95329100574112,0.0,46439.0,11.875,1447.5,1470.0,0.0,0.125,3.3618160620000004,4.929970342051188,0.0,-71473.0,9.75,-1432.5,-1470.0,0.0,0.25,1.64794905,4.947533186764187,0.0,0.8100000023841858,3.5999999046325684,158.10000610351562,0.19873046875,0.04473876953125,1.19189453125,36.16999816894531,0.0,-104.0,2.3390045166015625,-0.46856689453125,Closing,0.0,0.0,0.0,0.0,0.0,0.0,0.0,0.0,
0.8888019999999669,0.0,0.0,16746.0,3.875,1657.5,1470.0,0.0,0.125,0.8032225740000001,4.908822924821387,0.0,-56271.0,4.875,-1590.0,-1470.0,0.0,0.25,0.507812448,4.940192210319519,0.0,46687.0,9.125,1582.5,1470.0,0.0,0.125,3.358153953,4.916933217264812,0.0,-71714.0,7.625,-1567.5,-1470.0,0.0,0.25,1.644286941,4.934449617682563,0.0,0.7200000286102295,3.700000047683716,157.39999389648438,0.15350341796875,0.0980224609375,1.09710693359375,36.0099983215332,0.0,-43.0,2.296417236328125,-0.4713287353515625,Closing,0.0,0.0,0.0,0.0,0.0,0.0,0.0,0.0,
1.0069149999999791,0.0,0.0,17016.0,2.625,1687.5,1470.0000000000002,0.0,0.25,0.8032225740000001,4.898273329424582,0.0,-56534.0,2.875,-1657.5,-1470.0000000000002,0.0,0.25,0.498046824,4.92957519890976,0.0,46954.0,7.0,1702.5,1470.0000000000002,0.0,0.125,3.347167626,4.9063661919657395,0.0,-71979.0,5.0,-1695.0,-1470.0000000000002,0.0,0.25,1.6369627230000001,4.923844947730171,0.0,0.6200000047683716,3.680000066757202,157.14999389648438,-0.12713623046875,0.0770263671875,1.0269775390625,36.0099983215332,0.0,203.0,2.24945068359375,-0.473114013671875,Closing,0.0,0.0,0.0,0.0,0.0,0.0,0.0,0.0,
1.1208209999999963,0.0,0.0,17290.0,1.25,1702.5,1470.0,0.0,0.25,0.808105386,4.895807095215438,0.0,-56807.0,1.375,-1717.5,-1470.0,0.0,0.25,0.49926752700000004,4.927093204505921,0.0,47224.0,5.625,1650.0,1470.0,0.0,0.125,3.333739893,4.903895883076986,0.0,-72258.0,3.75,-1732.5,-1470.0,0.0,0.25,1.6076658510000001,4.921365838453505,0.0,0.5799999833106995,3.380000114440918,156.89999389648438,-0.035400390625,0.15606689453125,0.87762451171875,36.0099983215332,0.0,137.0,2.2075958251953125,-0.4737091064453125,Closing,0.0,0.0,0.0,0.0,0.0,0.0,0.0,0.0,
1.2286909999999915,0.0,0.0,17568.0,0.75,1740.0,1470.0,0.0,0.25,0.808105386,4.892381920909882,0.0,-57074.0,1.25,-1650.0,-1470.0,0.0,0.25,0.498046824,4.9236461420059205,0.0,47492.0,4.625,1695.0,1470.0,0.0,0.125,3.333739893,4.900465049743652,0.0,-72529.0,2.875,-1687.5,-1470.0,0.0,0.25,1.594238118,4.917922782897949,0.0,0.6800000071525574,3.0899999141693115,156.3699951171875,-0.04095458984375,-0.03955078125,1.0709228515625,36.0099983215332,0.0,69.0,2.1765594482421875,-0.47283935546875,Closing,0.0,0.0,0.0,0.0,0.0,0.0,0.0,0.125,
1.3346229999999633,0.0,0.0,17831.0,0.5,1657.5,1470.0,0.0,0.25,0.8178710100000001,4.885120568106588,0.0,-57326.0,1.375,-1575.0,-1470.0,0.0,0.25,0.49316401200000004,4.91633838633728,0.0,47766.0,3.75,1695.0,1470.0,0.0,0.125,3.333739893,4.893191699829102,0.0,-72792.0,2.5,-1635.0,-1470.0,0.0,0.25,1.595458821,4.910623521931966,0.0,0.7300000190734863,2.569999933242798,155.57000732421875,-0.0849609375,0.0670166015625,1.04315185546875,36.0099983215332,0.0,142.0,2.1504058837890625,-0.469940185546875,Closing,0.0,0.0,0.0,0.0,0.0,0.0,0.0,0.0,
1.446859999999986,0.0,0.0,18103.0,0.375,1687.5,1470.0,0.0,0.25,0.806884683,4.872241879268731,0.0,-57582.0,1.0,-1590.0,-1470.0,0.0,0.25,0.483398388,4.903377397674561,0.0,48037.0,2.875,1687.5,1470.0,0.0,0.125,3.3178707540000003,4.8802917329915365,0.0,-73046.0,2.625,-1567.5,-1470.0,0.0,0.25,1.595458821,4.897677599419488,0.0,0.8199999928474426,2.200000047683716,154.44000244140625,-0.0682373046875,0.02960205078125,0.92327880859375,35.869998931884766,0.0,100.0,2.1279449462890625,-0.4645843505859375,Closing,0.0,0.0,0.0,0.0,0.0,0.0,0.0,0.0,
1.5685430000000051,0.0,0.0,18370.0,0.375,1672.5,1470.0,0.0,0.25,0.78124992,4.856760233565733,0.0,-57836.0,0.75,-1575.0,-1470.0,0.0,0.25,0.46020503100000004,4.887796818241119,0.0,48308.0,1.75,1672.5,1470.0,0.0,0.125,3.3117672390000004,4.864784508717855,0.0,-73289.0,3.25,-1515.0,-1470.0,0.0,0.25,1.595458821,4.882115131208631,0.0,0.75,1.7000000476837158,153.63999938964844,0.00445556640625,0.04742431640625,1.264404296875,35.869998931884766,0.0,43.0,2.1125030517578125,-0.457489013671875,Closing,0.0,0.0,0.0,0.0,0.0,0.0,0.0,0.0,
1.6850169999999927,0.0,0.0,18618.0,0.375,1575.0,1470.0000000000002,0.0,0.25,0.7507323450000001,4.847717723225615,0.0,-58082.0,0.75,-1537.5,-1470.0000000000002,0.0,0.25,0.43945308000000005,4.87869652274704,0.0,48559.0,2.25,1567.5,1470.0000000000002,0.0,0.125,3.294677397,4.8557270584615075,0.0,-73536.0,2.5,-1545.0,-1470.0000000000002,0.0,0.25,1.563720543,4.873025414106581,0.0,0.6399999856948853,1.3200000524520874,153.42999267578125,0.0194091796875,0.10186767578125,1.4290771484375,35.869998931884766,0.0,50.0,2.1029052734375,-0.4528350830078125,Closing,0.0,0.0,0.0,0.0,0.0,0.0,0.0,0.125,
1.7949770000000136,0.0,0.0,18819.0,1.875,1372.5,0.0,0.0,0.25,0.78124992,0.01,0.0,-58293.0,2.25,-1387.5,-0.0,0.0,0.25,0.445556595,0.01,0.0,48739.0,0.25,1117.5,0.0,0.0,0.0,3.3142086450000003,0.01,0.0,-73740.0,0.75,-1237.5,-0.0,0.0,0.25,1.522216641,0.01,0.0,0.5799999833106995,-0.2199999988079071,153.24000549316406,-0.33331298828125,-0.16802978515625,1.1788330078125,35.869998931884766,0.0,212.0,2.1070098876953125,-0.443603515625,Closing,0.0,0.0,0.0,0.0,0.0,0.0,0.0,0.0,
1.9171879999999655,0.0,0.0,18946.0,3.875,930.0,0.0,0.0,0.25,0.821533119,0.01,0.0,-58423.0,4.0,-855.0,-0.0,0.0,0.25,0.445556595,0.01,0.0,48829.0,0.0,615.0,0.0,0.0,0.0,3.35693325,0.01,0.0,-73877.0,1.5,-825.0,-0.0,0.0,0.25,1.5844724940000001,0.01,0.0,0.699999988079071,-1.8600000143051147,152.7899932861328,-0.31317138671875,0.123779296875,1.4005126953125,35.83000183105469,0.0,286.0,2.13446044921875,-0.4207916259765625,Closing,0.0,0.0,0.0,0.0,0.0,0.0,0.0,0.125,
2.028537000000011,0.0,0.0,18946.0,3.0,427.5,0.0,0.0,0.25,0.833740149,0.01,0.0,-58484.0,2.625,-397.5,-0.0,0.0,0.25,0.44677729800000004,0.01,0.0,48884.0,0.0,345.0,0.0,0.0,0.0,3.3679195770000003,0.01,0.0,-73944.0,1.125,-435.0,-0.0,0.0,0.375,1.638183426,0.01,0.0,0.7699999809265137,-3.049999952316284,152.64999389648438,-0.24237060546875,-0.03375244140625,0.87274169921875,35.83000183105469,0.0,152.0,2.1808624267578125,-0.3910064697265625,Closing,0.0,0.0,0.0,0.0,0.0,0.0,0.0,0.0,
2.1441410000000034,0.0,0.0,18998.0,1.5,90.0,0.0,0.0,0.25,0.8300780400000001,0.01,0.0,-58494.0,1.375,-97.5,-0.0,0.0,0.25,0.468749952,0.01,0.0,48895.0,0.25,112.5,0.0,0.0,0.0,3.3679195770000003,0.01,0.0,-73956.0,0.375,-75.0,-0.0,0.0,0.125,1.64794905,0.01,0.0,0.75,-3.8299999237060547,152.67999267578125,-0.07183837890625,0.02490234375,0.9429931640625,35.83000183105469,0.0,13.0,2.24871826171875,-0.3486328125,Closing,0.0,0.0,0.0,0.0,0.0,0.0,0.0,0.125,
2.263094999999972,0.0,0.0,19002.0,0.625,-37.5,0.0,0.0,0.25,0.8312987430000001,0.01,0.0,-58487.0,0.5,30.0,-0.0,0.0,0.25,0.49316401200000004,0.01,0.0,48895.0,0.375,0.0,0.0,0.0,0.0,3.3679195770000003,0.01,0.0,-73956.0,0.25,0.0,-0.0,0.0,0.25,1.652831862,0.01,0.0,0.7200000286102295,-3.569999933242798,152.74000549316406,-7.32421875E-4,0.0040283203125,1.00299072265625,35.83000183105469,0.0,-58.0,2.3178863525390625,-0.3491973876953125,Closing,0.0,0.0,0.0,0.0,0.0,0.0,0.0,0.0,
2.3749259999999777,0.0,0.0,18991.0,0.375,-52.5,0.0,0.0,0.25,0.8312987430000001,0.01,0.0,-58487.0,0.5,15.0,-0.0,0.0,0.125,0.5017089330000001,0.01,0.0,48895.0,0.375,0.0,0.0,0.0,0.0,3.3630367650000004,0.01,0.0,-73956.0,0.25,0.0,-0.0,0.0,0.25,1.646728347,0.01,0.0,0.6800000071525574,-3.2300000190734863,152.72999572753906,0.02777099609375,0.0128173828125,1.04052734375,35.83000183105469,0.0,-76.0,2.3738555908203125,-0.35150146484375,Closing,0.0,0.0,0.0,0.0,0.0,0.0,0.0,0.0,
2.487554000000004,0.0,0.0,18984.0,0.125,-15.0,420.0,0.0,2.0,1.019287005,0.5498168668524888,0.0,-58487.0,0.0,0.0,-420.0,0.0,8.25,0.9057616260000001,1.9285545897722227,0.0,48895.0,1.625,0.0,420.0,0.0,1.875,3.1591793640000003,4.389674732977289,0.0,-73956.0,0.375,0.0,-420.0,0.0,5.625,1.2695311200000001,3.0316872062785585,0.0,0.6899999976158142,-2.819999933242798,152.7100067138672,0.08160400390625,-0.14093017578125,0.9605712890625,35.79999923706055,0.0,-184.0,2.424468994140625,-0.3560333251953125,Closing,0.0,0.0,0.0,0.0,0.0,0.0,0.0,0.0,
2.590771999999997,0.0,0.0,18985.0,0.125,22.5,420.0,0.0,0.5,1.3183592400000002,0.5498168668524888,0.0,-58487.0,0.25,-30.0,-420.0,0.0,1.5,1.7370603690000002,1.9285545897722227,0.0,48900.0,2.25,67.5,420.0,0.0,0.25,2.805175494,4.389674732977289,0.0,-73956.0,1.25,0.0,-420.0,0.0,2.125,0.50048823,3.0316872062785585,0.0,0.6399999856948853,-2.509999990463257,152.66000366210938,-0.0147705078125,0.04620361328125,1.03033447265625,35.79999923706055,0.0,-11.0,2.468353271484375,-0.3589019775390625,Closing,0.0,0.0,0.0,0.0,0.0,0.0,0.0,0.0,
2.693043999999994,0.0,0.0,18999.0,0.125,97.5,420.0,0.0,0.125,1.411132668,0.5498168668524888,0.0,-58501.0,0.375,-112.5,-420.0,0.0,0.75,2.3767087410000003,1.9285545897722227,0.0,48917.0,3.5,127.5,420.0,0.0,0.125,2.720946987,4.389674732977289,0.0,-73955.0,1.875,0.0,-420.0,0.0,1.75,4.739989749,3.0316872062785585,0.0,0.6000000238418579,-2.369999885559082,152.1300048828125,-0.05938720703125,-0.066650390625,0.973876953125,35.79999923706055,0.0,-19.0,2.50958251953125,-0.3605194091796875,Closing,0.0,0.0,0.0,0.0,0.0,0.0,0.0,0.0,
2.7960359999999636,0.0,0.0,19022.0,0.5,135.0,420.0,0.0,0.25,1.406249856,0.5498168668524888,0.0,-58531.0,0.625,-195.0,-420.0,0.0,0.25,2.774657919,1.9285545897722227,0.0,48943.0,3.875,165.0,420.0,0.0,0.0,2.716064175,4.389674732977289,0.0,-73963.0,2.625,-90.0,-420.0,0.0,0.25,4.510497585,3.0316872062785585,0.0,0.699999988079071,-2.549999952316284,150.9600067138672,-0.08062744140625,0.05853271484375,1.0072021484375,35.79999923706055,0.0,53.0,2.510894775390625,-0.360015869140625,Closing,0.0,0.0,0.0,0.0,0.0,0.0,0.0,0.0,
2.911311999999976,0.0,0.0,19051.0,0.75,165.0,420.0,0.0,0.25,1.39160142,0.5498168668524888,-0.006103514999999948,-58564.0,0.875,-210.0,-420.0,0.0,0.5,2.7990719790000003,1.9285545897722227,0.38452144499999985,48965.0,4.875,135.0,420.0,0.0,0.125,2.7502438590000002,4.389674732977289,-0.006103515000000392,-73998.0,2.75,-232.5,-420.0,0.0,0.375,4.486083525000001,3.0316872062785585,0.0,0.6800000071525574,-2.359999895095825,148.72999572753906,-0.0120849609375,-0.04925537109375,1.09002685546875,35.79999923706055,0.0,-60.0,2.5143280029296875,-0.3599090576171875,Closing,0.0,0.0,0.0,0.0,0.0,0.0,0.0,0.0,
3.0136549999999698,0.0,0.0,19071.0,1.125,157.5,420.0,0.0,0.125,1.352538924,0.5498168668524888,-0.0402831990000001,-58596.0,1.5,-195.0,-420.0,0.0,0.5,2.614745826,1.9285545897722227,0.01220703000000034,48991.0,6.0,157.5,420.0,0.0,0.125,2.769775107,4.389674732977289,0.035400387000000144,-74035.0,2.875,-232.5,-420.0,0.0,0.375,4.559325705,3.0316872062785585,0.0,0.8100000023841858,-2.1500000953674316,146.92999267578125,-0.00579833984375,0.03558349609375,0.98870849609375,35.84000015258789,0.0,-14.0,2.514678955078125,-0.3591461181640625,Closing,0.0,0.0,0.0,0.0,0.0,0.0,0.0,0.0,
3.114203999999969,0.0,0.0,19071.0,2.0,135.0,420.0,0.0,0.125,1.352538924,0.5498168668524888,-0.013427732999999886,-58630.0,2.25,-195.0,-420.0,0.0,0.5,2.4255368610000003,1.9285545897722227,0.0,49018.0,8.5,150.0,420.0,0.0,0.0,2.769775107,4.389674732977289,0.0,-74076.0,4.25,-240.0,-420.0,0.0,0.375,4.664306163,3.0316872062785585,0.0,0.8100000023841858,-1.9800000190734863,145.1999969482422,0.0224609375,0.0552978515625,0.965576171875,35.84000015258789,0.0,-22.0,2.5137786865234375,-0.359588623046875,Closing,0.0,0.0,0.0,0.0,0.0,0.0,0.0,0.0,
3.2181969999999858,0.0,0.0,19099.0,1.875,232.5,420.0,0.0,0.25,1.363525251,0.5498168668524888,0.0012207029999999897,-58630.0,2.0,-315.0,-420.0,0.0,0.125,2.3278806210000003,1.9285545897722227,0.0,49018.0,6.875,300.0,420.0,0.0,0.0,2.768554404,4.389674732977289,0.0,-74135.0,3.625,-330.0,-420.0,0.0,0.125,4.719237798,3.0316872062785585,0.0,0.9300000071525574,-1.590000033378601,141.6999969482422,0.025390625,0.0677490234375,1.07830810546875,35.84000015258789,0.0,-12.0,2.5098876953125,-0.36083984375,Closing,0.0,0.0,0.0,0.0,0.0,0.0,0.0,0.0,
3.3221520000000018,0.0,0.0,19158.0,0.875,457.5,420.0,0.0,0.25,1.352538924,0.5498168668524888,0.0,-58685.0,1.5,-405.0,-420.0,0.0,0.25,2.304687264,1.9285545897722227,0.0,49077.0,4.625,517.5,420.0,0.0,0.0,2.769775107,4.389674732977289,0.0,-74135.0,2.875,-435.0,-420.0,0.0,0.25,4.729003422,3.0316872062785585,0.0,1.0499999523162842,-1.2699999809265137,136.64999389648438,-0.00482177734375,0.050048828125,0.97119140625,35.84000015258789,0.0,9.0,2.5068511962890625,-0.3630218505859375,Closing,0.0,0.0,0.0,0.0,0.0,0.0,0.0,0.0,
3.4276749999999883,0.0,0.0,19241.0,0.375,540.0,420.0,0.0,0.25,1.352538924,0.5498168668524888,0.0,-58756.0,1.0,-480.0,-420.0,0.0,0.25,2.348632572,1.9285545897722227,0.0,49170.0,3.0,607.5,420.0,0.0,0.0,2.769775107,4.389674732977289,0.0,-74210.0,2.25,-502.5,-420.0,0.0,0.25,4.7082514710000005,3.0316872062785585,0.0,1.1299999952316284,-1.1100000143051147,130.77000427246094,-0.00177001953125,-0.02960205078125,0.9725341796875,35.84000015258789,0.0,-48.0,2.5067901611328125,-0.3671112060546875,Closing,0.0,0.0,0.0,0.0,0.0,0.0,0.0,0.0,
3.5271599999999745,0.0,0.0,19333.0,0.125,570.0,420.0,0.0,0.25,1.357421736,0.5498168668524888,0.0,-58838.0,0.5,-517.5,-420.0,0.0,0.25,2.401122801,1.9285545897722227,0.0,49270.0,2.375,622.5,420.0,0.0,0.0,2.769775107,4.389674732977289,0.0,-74295.0,1.625,-525.0,-420.0,0.0,0.25,4.6606440540000005,3.0316872062785585,0.0,1.190000057220459,-1.0199999809265137,125.56999969482422,-0.01922607421875,0.00201416015625,1.12274169921875,35.88999938964844,0.0,-17.0,2.50628662109375,-0.37030029296875,Closing,0.0,0.0,0.0,0.0,0.0,0.0,0.0,0.125,
3.627934000000008,0.0,0.0,19412.0,0.375,495.0,420.0,0.0,0.25,1.352538924,0.5498168668524888,0.0,-58920.0,0.375,-502.5,-420.0,0.0,0.25,2.437743891,1.9285545897722227,0.0,49367.0,2.0,585.0,420.0,0.0,0.0,2.769775107,4.389674732977289,0.0,-74380.0,1.25,-532.5,-420.0,0.0,0.125,4.625243667,3.0316872062785585,0.0,1.2000000476837158,-1.0199999809265137,119.5199966430664,-0.0238037109375,0.03802490234375,1.02313232421875,35.88999938964844,0.0,17.0,2.5057830810546875,-0.372772216796875,Closing,0.0,0.0,0.0,0.0,0.0,0.0,0.0,0.0,
3.7318580000000074,0.0,0.0,19491.0,0.375,495.0,420.0,0.0,0.125,1.35498033,0.5498168668524888,0.0,-58997.0,0.375,-480.0,-420.0,0.0,0.0,2.440185297,1.9285545897722227,0.0,49453.0,2.0,540.0,420.0,0.0,0.0,2.768554404,4.389674732977289,0.0,-74469.0,0.75,-547.5,-420.0,0.0,0.25,4.582519062,3.0316872062785585,0.0,1.2300000190734863,-0.8600000143051147,113.69000244140625,-0.01641845703125,0.0430908203125,1.020263671875,35.88999938964844,0.0,19.0,2.5054779052734375,-0.3725128173828125,Closing,0.0,0.0,0.0,0.0,0.0,0.0,0.0,0.0,
3.832060999999987,0.0,0.0,19491.0,0.125,472.5,420.0,0.0,0.125,1.3464354090000001,0.5498168668524888,0.0,-59077.0,0.25,-510.0,-420.0,0.0,0.0,2.440185297,1.9285545897722227,0.0,49533.0,2.0,495.0,420.0,0.0,0.0,2.768554404,4.389674732977289,0.0,-74551.0,0.75,-510.0,-420.0,0.0,0.25,4.597167498,3.0316872062785585,0.0,1.25,-0.7099999785423279,108.20999908447266,0.015380859375,0.021728515625,0.99847412109375,35.88999938964844,0.0,-8.0,2.50469970703125,-0.3724365234375,Closing,0.0,0.0,0.0,0.0,0.0,0.0,0.0,0.0,
3.9322339999999967,0.0,0.0,19567.0,0.125,457.5,420.0,0.0,0.25,1.362304548,0.5498168668524888,0.0,-59077.0,0.25,-480.0,-420.0,0.0,0.0,2.440185297,1.9285545897722227,0.0,49533.0,2.25,450.0,420.0,0.0,0.0,2.769775107,4.389674732977289,0.0,-74627.0,0.625,-487.5,-420.0,0.0,0.25,4.631347182,3.0316872062785585,0.0,1.1399999856948853,-0.5799999833106995,103.27999877929688,-0.0264892578125,-0.01416015625,1.10723876953125,35.88999938964844,0.0,-31.0,2.5021820068359375,-0.372283935546875,Closing,0.0,0.0,0.0,0.0,0.0,0.0,0.0,0.0,
4.039979999999981,0.0,0.0,19635.0,0.0,382.5,0.0,0.0,1.875,1.124267463,0.01,0.0,-59152.0,0.0,-390.0,-0.0,0.0,4.75,2.021484168,0.01,0.0,49602.0,0.375,352.5,0.0,0.0,2.125,3.085937184,0.01,0.0,-74672.0,0.375,-307.5,-0.0,0.0,4.25,0.25634763,0.01,0.0,1.090000033378601,-0.4399999976158142,98.91999816894531,0.0579833984375,0.0625,1.04840087890625,35.93000030517578,0.0,31.0,2.500946044921875,-0.3724365234375,Closing,0.0,0.0,0.0,0.0,0.0,0.0,0.0,0.0,
4.151746999999974,0.0,0.0,19691.0,0.125,322.5,0.0,0.0,0.25,0.845947179,0.01,0.0,-59205.0,0.0,-180.0,-0.0,0.0,1.5,1.248779169,0.01,0.0,49655.0,0.5,225.0,0.0,0.0,0.125,3.400878558,0.01,0.0,-74672.0,0.375,-240.0,-0.0,0.0,1.625,1.021728411,0.01,0.0,0.9700000286102295,-0.029999999329447746,96.5999984741211,-0.05682373046875,0.07757568359375,1.11102294921875,35.93000030517578,0.0,64.0,2.499603271484375,-0.3767547607421875,Closing,0.0,0.0,0.0,0.0,0.0,0.0,0.0,0.125,
4.2552280000000025,0.0,0.0,19717.0,0.125,127.5,0.0,0.0,0.25,0.7897948410000001,0.01,0.0,-59208.0,0.125,0.0,-0.0,0.0,0.875,0.624999936,0.01,0.0,49679.0,0.75,105.0,0.0,0.0,0.125,3.436278945,0.01,0.0,-74702.0,0.375,-112.5,-0.0,0.0,1.0,1.589355306,0.01,0.0,0.9900000095367432,-0.4099999964237213,96.30999755859375,-0.07305908203125,-0.0125732421875,1.09326171875,35.93000030517578,0.0,-24.0,2.498870849609375,-0.3802032470703125,Closing,0.0,0.0,0.0,0.0,0.0,0.0,0.0,0.125,
4.369982000000018,0.0,0.0,19720.0,0.0,15.0,0.0,0.0,0.25,0.7885741380000001,0.01,-0.0012207029999995456,-59208.0,0.125,0.0,-0.0,0.0,0.25,0.11352537900000001,0.01,0.0,49686.0,1.0,22.5,0.0,0.0,0.125,3.394775043,0.01,0.0,-74713.0,0.375,-37.5,-0.0,0.0,0.125,1.667480298,0.01,0.0,0.9200000166893005,-0.4000000059604645,96.41000366210938,0.01171875,0.0167236328125,1.013916015625,35.93000030517578,0.0,-1.0,2.4979095458984375,-0.3806610107421875,Closing,0.0,0.0,0.0,0.0,0.0,0.0,0.0,0.0,
4.470844999999972,0.0,0.0,19721.0,0.125,0.0,8.4,0.0,0.25,0.7897948410000001,0.01,0.0,-59208.0,0.125,0.0,-8.4,0.0,1.25,0.16479490500000002,0.01,0.0,49688.0,1.0,7.5,8.4,0.0,0.125,3.3764644980000003,0.01,0.0,-74713.0,0.375,0.0,-8.4,0.0,0.25,1.619872881,0.01,0.0,0.8700000047683716,-0.4099999964237213,96.44999694824219,-0.00921630859375,0.01239013671875,0.99676513671875,35.91999816894531,0.0,-2.0,2.497772216796875,-0.3807830810546875,Closing,0.0,0.0,0.0,0.0,0.0,0.0,0.0,0.0,
4.572093999999983,0.0,0.0,19722.0,0.0,7.5,8.4,0.0,0.25,0.7885741380000001,0.01,0.0,-59208.0,0.125,0.0,-8.4,0.0,0.5,0.42724605000000004,0.01,0.0,49690.0,1.0,0.0,8.4,0.0,0.125,3.3728023890000003,0.01,0.0,-74723.0,0.375,-75.0,-8.4,0.0,0.125,1.594238118,0.01,0.0,0.8700000047683716,-0.47999998927116394,96.44000244140625,-0.01666259765625,0.0010986328125,1.03216552734375,35.91999816894531,0.0,-13.0,2.497894287109375,-0.380645751953125,Closing,0.0,0.0,0.0,0.0,0.0,0.0,0.0,0.0,
4.686765000000014,0.0,0.0,19722.0,0.0,0.0,0.0,0.0,0.25,0.7897948410000001,0.01,0.0,-59208.0,0.125,0.0,-0.0,0.0,0.5,0.5554198650000001,0.01,0.0,49690.0,1.125,0.0,0.0,0.0,0.0,3.3740230920000003,0.01,0.0,-74729.0,0.375,-30.0,-0.0,0.0,0.25,1.595458821,0.01,0.0,0.8199999928474426,-0.47999998927116394,96.4000015258789,0.0096435546875,0.01190185546875,1.01019287109375,35.91999816894531,0.0,-4.0,2.497894287109375,-0.380645751953125,Closing,0.0,0.0,0.0,0.0,0.0,0.0,0.0,0.0,
4.786435999999987,0.0,0.0,19722.0,4.125,135.0,1260.0,0.0,0.25,0.782470623,0.01,0.0,-59255.0,8.75,-157.5,-1260.0,0.0,0.25,0.5566405680000001,0.01,0.0,49699.0,15.5,30.0,1260.0,0.0,0.0,3.336181299,0.01,0.0,-74750.0,10.0,-105.0,-1260.0,0.0,0.25,1.6540525650000002,0.01,0.0,0.7900000214576721,0.4699999988079071,96.47000122070312,0.20770263671875,0.16363525390625,0.9359130859375,35.91999816894531,0.0,127.0,2.4984588623046875,-0.383819580078125,Closing,0.0,0.0,0.0,0.0,0.0,0.0,0.0,0.0,
4.889765000000014,0.0,0.0,19772.0,6.75,360.0,1260.0,0.0,0.25,0.780029217,0.01,0.0,-59255.0,12.75,-397.5,-1260.0,0.0,0.25,0.551757756,0.01,0.0,49699.0,21.25,195.0,1260.0,0.0,0.0,3.338622705,0.01,0.0,-74820.0,13.125,-330.0,-1260.0,0.0,0.25,1.6821287340000002,0.01,0.0,0.8999999761581421,1.3200000524520874,96.4000015258789,0.2548828125,-0.020751953125,1.02105712890625,35.91999816894531,0.0,-62.0,2.5013275146484375,-0.402801513671875,Closing,0.0,0.0,0.0,0.0,0.0,0.0,0.0,0.125,
5.001185999999987,0.0,0.0,19856.0,6.875,690.0,1260.0,0.0,0.25,0.7788085140000001,0.01,0.0,-59334.0,12.5,-750.0,-1260.0,0.0,0.25,0.545654241,0.01,0.0,49735.0,26.5,292.5,1260.0,0.0,0.0,3.338622705,0.01,0.0,-74820.0,12.375,-660.0,-1260.0,0.0,0.25,1.667480298,0.01,0.0,0.9200000166893005,2.450000047683716,96.31999969482422,0.17474365234375,-0.00482177734375,1.1988525390625,35.939998626708984,0.0,-37.0,2.502838134765625,-0.4373626708984375,Closing,0.0,0.0,0.0,0.0,0.0,0.0,0.0,0.125,
5.107252999999968,0.0,0.0,19997.0,5.0,990.0,1260.0,0.0,0.25,0.7788085140000001,0.01,0.0,-59477.0,9.25,-1020.0,-1260.0,0.0,0.25,0.550537053,0.01,0.0,49790.0,32.375,390.0,1260.0,0.0,0.0,3.338622705,0.01,0.0,-74945.0,10.75,-937.5,-1260.0,0.0,0.25,1.666259595,0.01,0.0,0.8399999737739563,3.0199999809265137,96.11000061035156,0.16339111328125,0.10821533203125,1.1181640625,35.939998626708984,0.0,80.0,2.5025482177734375,-0.4828033447265625,Closing,0.0,0.0,0.0,0.0,0.0,0.0,0.0,0.0,
5.215062999999965,0.0,0.0,20187.0,3.375,1222.5,1260.0,0.0,0.25,0.7788085140000001,0.01,0.0,-59657.0,6.5,-1200.0,-1260.0,0.0,0.25,0.5664061920000001,0.01,0.003662109000000413,49869.0,37.5,577.5,1260.0,0.0,0.0,3.338622705,0.01,0.0,-75119.0,8.375,-1170.0,-1260.0,0.0,0.25,1.6625974860000001,0.01,0.0,0.7799999713897705,3.5,95.69999694824219,-0.00482177734375,-0.01959228515625,0.86102294921875,35.939998626708984,0.0,-25.0,2.501220703125,-0.50439453125,Closing,0.0,0.0,0.0,0.0,0.0,0.0,0.0,0.125,
5.318635000000009,0.0,0.0,20410.0,1.125,1410.0,1260.0,0.0,0.25,0.7751464050000001,0.01,0.0,-59871.0,4.0,-1365.0,-1260.0,0.0,0.25,0.5664061920000001,0.01,0.0,49992.0,36.375,877.5,1260.0,0.0,0.0,3.338622705,0.01,0.0,-75324.0,6.625,-1320.0,-1260.0,0.0,0.25,1.669921704,0.01,0.0,0.8600000143051147,3.7200000286102295,94.91000366210938,0.16839599609375,-0.0267333984375,1.0806884765625,35.939998626708984,0.0,-51.0,2.497955322265625,-0.5055389404296875,Closing,0.0,0.0,0.0,0.0,0.0,0.0,0.0,0.0,
5.425932999999961,0.0,0.0,20646.0,0.5,1470.0,1260.0,0.0,0.25,0.7788085140000001,0.01,0.0,-60102.0,2.125,-1455.0,-1260.0,0.0,0.25,0.550537053,0.01,0.0,50168.0,32.75,1110.0,1260.0,0.0,0.0,3.337402002,0.01,0.0,-75553.0,4.0,-1462.5,-1260.0,0.0,0.25,1.6552732680000002,0.01,0.0,0.8199999928474426,3.9800000190734863,94.04000091552734,0.05828857421875,0.25567626953125,1.0198974609375,35.939998626708984,0.0,241.0,2.49481201171875,-0.508056640625,Closing,0.0,0.0,0.0,0.0,0.0,0.0,0.0,0.125,
5.533546999999962,0.0,0.0,20901.0,0.375,1552.5,1260.0,0.0,0.25,0.767822187,0.01,0.0,-60343.0,1.0,-1507.5,-1260.0,0.0,0.25,0.5407714290000001,0.01,0.0,50391.0,29.875,1357.5,1260.0,0.0,0.0,3.337402002,0.01,0.0,-75793.0,2.5,-1492.5,-1260.0,0.0,0.25,1.6625974860000001,0.01,0.0,0.8199999928474426,3.7699999809265137,93.22000122070312,0.0592041015625,-0.04132080078125,0.906494140625,35.79999923706055,0.0,-54.0,2.4947662353515625,-0.507720947265625,Closing,0.0,0.0,0.0,0.0,0.0,0.0,0.0,0.0,
5.634734999999986,0.0,0.0,20901.0,0.125,1650.0,1260.0,0.0,0.25,0.7775878110000001,0.01,0.0,-60583.0,0.5,-1462.5,-1260.0,0.0,0.125,0.513915963,0.01,0.0,50678.0,18.0,1807.5,1260.0,0.0,0.0,3.338622705,0.01,0.0,-76028.0,2.0,-1462.5,-1260.0,0.0,0.25,1.6625974860000001,0.01,0.0,0.8700000047683716,3.430000066757202,92.70999908447266,-0.12432861328125,0.100830078125,1.50360107421875,35.79999923706055,0.0,87.0,2.4951629638671875,-0.5033416748046875,Closing,0.0,0.0,0.0,0.0,0.0,0.0,0.0,0.0,
5.7412760000000125,0.0,0.0,21164.0,4.125,1507.5,0.0,0.0,0.125,0.79345695,0.01,0.0,-60808.0,3.125,-1507.5,-0.0,0.0,0.125,0.51269526,0.01,0.0,50916.0,0.5,1590.0,0.0,0.0,0.0,3.338622705,0.01,0.0,-76261.0,0.625,-1530.0,-0.0,0.0,0.25,1.6333006140000002,0.01,0.0,0.699999988079071,2.359999895095825,92.58000183105469,-0.44952392578125,0.1207275390625,1.0162353515625,35.79999923706055,0.0,130.0,2.49462890625,-0.4904937744140625,Closing,0.0,0.0,0.0,0.0,0.0,0.0,0.0,0.125,
5.850610999999975,0.0,0.0,21376.0,2.875,1080.0,420.0,0.0,0.125,0.794677653,0.01,0.0,-60964.0,1.625,-990.0,-420.0,0.0,0.0,0.51269526,0.01,0.0,51103.0,1.75,1177.5,420.0,0.0,0.0,3.338622705,0.01,0.0,-76424.0,0.5,-1065.0,-420.0,0.0,0.125,1.594238118,0.01,0.0,0.6299999952316284,0.20999999344348907,92.27999877929688,-0.154052734375,0.07073974609375,0.42547607421875,35.79999923706055,0.0,72.0,2.4967193603515625,-0.4413909912109375,Closing,0.0,0.0,0.0,0.0,0.0,0.0,0.0,0.0,
6.072311999999976,0.0,0.0,21631.0,5.125,517.5,NaN,0.0,0.125,0.79345695,NaN,0.0,-61068.0,3.5,-487.5,NaN,0.0,0.0,0.51269526,NaN,0.0,51296.0,0.875,517.5,NaN,0.0,0.0,3.348388329,NaN,0.0,-76596.0,1.375,-367.5,NaN,0.0,0.125,1.600341633,NaN,0.0,0.6600000262260437,-2.130000114440918,91.47000122070312,-0.23944091796875,0.001708984375,0.97552490234375,35.75,0.0,-4.0,2.513641357421875,-0.2864990234375,Closing,0.0,0.0,0.0,0.0,0.0,0.0,0.0,0.0,
6.334950000000012,0.0,0.0,21687.0,0.125,-7.5,517.46149347228,0.0,1.125,0.721435473,4.442559398396191,0.0,-61130.0,0.0,7.5,-517.46149347228,0.0,1.5,0.498046824,4.470949078823656,0.0,51309.0,10.125,0.0,517.46149347228,0.0,1.25,3.28369107,4.449899336395601,0.0,-76616.0,0.375,-52.5,-517.46149347228,0.0,1.5,1.595458821,4.465751945156139,0.0,0.6100000143051147,-2.4000000953674316,91.41999816894531,0.03179931640625,0.013916015625,1.04541015625,35.75,0.0,0.0,2.519805908203125,-0.076080322265625,Closing,0.0,0.0,0.0,0.0,0.0,0.0,0.0,0.125,
6.601888999999966,0.0,0.0,21738.0,0.125,180.0,592.579214938022,0.0,0.25,0.133056627,4.317563769126311,0.0,-61179.0,1.25,-202.5,-592.579214938022,0.0,0.25,4.791259275,4.345154678923701,0.0,51365.0,16.75,217.5,592.579214938022,0.0,0.0,2.5793454390000004,4.324697190996894,0.0,-76657.0,2.625,-172.5,-592.579214938022,0.0,0.5,0.9350584980000001,4.340103771549389,0.0,-0.12999999523162842,-1.5199999809265137,91.11000061035156,0.05419921875,-0.06353759765625,0.9879150390625,35.709999084472656,0.0,-62.0,2.5051422119140625,0.1445465087890625,Closing,0.0,0.0,0.0,0.0,0.0,0.0,0.0,0.125,
6.873533999999985,0.0,0.0,21860.0,0.125,502.5,601.7220486146925,0.0,0.25,0.128173815,4.305670143725325,0.0,-61293.0,1.25,-487.5,-601.7220486146925,0.0,0.25,4.718017095,4.333185048635897,0.0,51469.0,17.0,457.5,601.7220486146925,0.0,0.25,2.598876687,4.312783915105008,0.0,-76771.0,2.25,-517.5,-601.7220486146925,0.0,0.375,0.8972167050000001,4.328148055034133,0.0,-0.8399999737739563,-0.6800000071525574,90.25,0.00360107421875,0.0037841796875,1.28228759765625,35.709999084472656,0.0,22.0,2.45294189453125,0.3210296630859375,Closing,0.0,0.0,0.0,0.0,0.0,0.0,0.0,0.0,
7.137982000000018,0.0,0.0,22065.0,0.125,682.5,625.152223462414,0.0,0.25,0.198974589,4.277480367376621,0.0,-61576.0,0.625,-637.5,-625.152223462414,0.0,0.25,4.804687008,4.304815128664995,0.0,51813.0,10.25,772.5,625.152223462414,0.0,0.125,2.784423543,4.284547563979907,0.0,-77081.0,0.75,-675.0,-625.152223462414,0.0,0.125,1.046142471,4.299811112908343,0.0,-0.5699999928474426,-0.09000000357627869,89.16000366210938,0.0218505859375,-0.0032958984375,0.9775390625,35.720001220703125,0.0,6.0,2.3972320556640625,0.3094024658203125,Closing,0.0,0.0,0.0,0.0,0.0,0.0,0.0,0.0,
7.404187999999966,0.0,0.0,22287.0,0.125,675.0,574.7209703752445,0.0,0.125,0.202636698,4.342471799961985,0.0,-61682.0,0.125,-690.0,-574.7209703752445,0.0,0.25,4.8681635640000005,4.370221881752835,0.0,52057.0,7.5,757.5,574.7209703752445,0.0,0.125,2.784423543,4.349646374552347,0.0,-77298.0,0.625,-652.5,-574.7209703752445,0.0,0.25,1.064453016,4.365141835687503,0.0,-0.38999998569488525,-0.10999999940395355,89.18000030517578,-0.02191162109375,0.06982421875,0.9814453125,35.720001220703125,0.0,76.0,2.39752197265625,0.292327880859375,Closing,0.0,0.0,0.0,0.0,0.0,0.0,0.0,0.0,
7.612844999999972,0.0,0.0,22501.0,0.125,645.0,479.5871408044633,0.0,0.5,0.291748017,4.536770084489355,0.0,-61894.0,0.125,-600.0,-479.5871408044633,0.0,0.5,0.034179684,4.565761807800479,0.0,52171.0,6.375,630.0,479.5871408044633,0.0,0.125,2.8955075160000003,4.544265676140814,0.0,-77401.0,0.375,-532.5,-479.5871408044633,0.0,0.375,1.120605354,4.560454461644028,0.0,0.2800000011920929,-0.4699999988079071,88.9800033569336,-0.0037841796875,0.03460693359375,0.88916015625,35.79999923706055,0.0,30.0,2.4025421142578125,0.29205322265625,Closing,0.0,0.0,0.0,0.0,0.0,0.0,0.0,0.0,
7.766457999999984,0.0,0.0,22645.0,0.125,412.5,420.4429197751611,0.0,0.625,0.836181555,0.03603524225560903,0.0,-62045.0,0.25,-412.5,-420.4429197751611,0.0,0.5,0.576171816,0.03626552145280612,0.0,52335.0,7.875,450.0,420.4429197751611,0.0,0.5,3.397216449,0.03609477920722422,0.0,-77554.0,0.625,-420.0,-420.4429197751611,0.0,0.75,1.6870115460000001,0.03622336557959227,0.0,1.149999976158142,-0.7400000095367432,88.2699966430664,0.1397705078125,0.279296875,1.19390869140625,35.79999923706055,0.0,259.0,2.4243011474609375,0.3002777099609375,Closing,0.0,0.0,0.0,0.0,0.0,0.0,0.0,0.0,
7.9467829999999955,0.0,0.0,22687.0,0.125,255.0,NaN,0.0,0.125,1.143798711,NaN,0.0,-62095.0,0.0,-285.0,NaN,0.0,0.0,1.0070799750000001,NaN,0.0,52389.0,3.875,300.0,NaN,0.0,0.0,3.663329703,NaN,0.0,-77622.0,0.25,-217.5,NaN,0.0,0.125,2.2229001630000003,NaN,0.0,1.5700000524520874,-1.1299999952316284,87.93000030517578,-0.09637451171875,-0.01519775390625,1.0277099609375,35.79999923706055,0.0,-46.0,2.470855712890625,0.318328857421875,Closing,0.0,0.0,0.0,0.0,0.0,0.0,0.0,0.0,
8.09459700000001,0.0,0.0,22723.0,0.375,150.0,NaN,0.0,0.25,1.173095583,NaN,0.0,-62147.0,0.0,-127.5,NaN,0.0,0.0,1.011962787,NaN,0.0,52447.0,4.375,150.0,NaN,0.0,0.0,3.663329703,NaN,0.0,-77658.0,0.375,-90.0,NaN,0.0,0.125,2.237548599,NaN,0.0,1.2000000476837158,-1.340000033378601,87.69999694824219,-0.09881591796875,0.023681640625,1.03369140625,35.83000183105469,0.0,-1.0,2.4923248291015625,0.332977294921875,Closing,0.0,0.0,0.0,0.0,0.0,0.0,0.0,0.125,
8.251852000000014,0.0,0.0,22735.0,0.125,0.0,NaN,0.0,0.25,1.148681523,NaN,0.0,-62147.0,0.0,0.0,NaN,0.0,0.0,1.011962787,NaN,0.0,52447.0,5.875,0.0,NaN,0.0,0.0,3.662109,NaN,0.0,-77659.0,0.375,0.0,NaN,0.0,0.125,2.237548599,NaN,0.0,0.9399999976158142,-1.4900000095367432,87.5999984741211,0.0189208984375,0.02044677734375,1.05181884765625,35.83000183105469,0.0,5.0,2.5127105712890625,0.3697357177734375,Closing,0.0,0.0,0.0,0.0,0.0,0.0,0.0,0.0,
8.413685999999988,0.0,0.0,22735.0,0.125,0.0,NaN,0.0,0.25,1.142578008,NaN,0.0,-62147.0,0.0,0.0,NaN,0.0,0.0,1.011962787,NaN,0.0,52447.0,6.0,0.0,NaN,0.0,0.0,3.662109,NaN,0.0,-77659.0,0.375,0.0,NaN,0.0,0.125,2.237548599,NaN,0.0,0.8500000238418579,-1.3200000524520874,87.61000061035156,-0.0025634765625,0.0086669921875,1.02032470703125,35.83000183105469,0.0,-5.0,2.5125274658203125,0.3775787353515625,Closing,0.0,0.0,0.0,0.0,0.0,0.0,0.0,0.0,
8.641452999999979,0.0,0.0,22736.0,0.125,0.0,NaN,0.0,0.25,1.068115125,NaN,0.0,-62147.0,0.0,0.0,NaN,0.0,0.0,0.809326089,NaN,0.0,52449.0,5.75,7.5,NaN,0.0,0.0,3.555907839,NaN,0.0,-77659.0,0.375,0.0,NaN,0.0,0.25,1.8933103530000002,NaN,0.0,0.800000011920929,-1.149999976158142,87.62999725341797,0.0084228515625,0.01483154296875,1.04986572265625,35.849998474121094,0.0,1.0,2.5123443603515625,0.376007080078125,Closing,0.0,0.0,0.0,0.0,0.0,0.0,0.0,0.125,
8.75029800000001,0.0,0.0,22736.0,0.125,22.5,420.00000000000006,0.0,0.375,1.0302733320000002,0.01,0.0,-62168.0,0.875,-105.0,-420.00000000000006,0.0,0.5,0.7360839090000001,0.01,0.0,52452.0,13.5,15.0,420.00000000000006,0.0,0.125,3.542480106,0.01,0.0,-77667.0,1.75,-30.0,-420.00000000000006,0.0,0.5,1.849365045,0.01,0.0,0.800000011920929,-1.0,87.5999984741211,0.01422119140625,0.0313720703125,1.06280517578125,35.849998474121094,0.0,17.0,2.5123443603515625,0.3726043701171875,Closing,0.0,0.0,0.0,0.0,0.0,0.0,0.0,0.0,
8.867546999999963,0.0,0.0,22743.0,0.125,97.5,420.00000000000006,0.0,0.375,0.898437408,4.931839995807818,0.0,-62183.0,1.5,-112.5,-420.00000000000006,0.0,0.25,0.565185489,4.96335636933136,0.0,52464.0,14.75,60.0,420.00000000000006,0.0,0.25,3.392333637,4.939988316752116,0.0,-77693.0,2.125,-150.0,-420.00000000000006,0.0,0.5,1.6821287340000002,4.957586850145128,0.0,0.7599999904632568,-0.7699999809265137,87.7300033569336,0.0191650390625,-0.036376953125,1.0145263671875,35.849998474121094,0.0,-48.0,2.51336669921875,0.364227294921875,Closing,0.0,0.0,0.0,0.0,0.0,0.0,0.0,0.0,
8.985256999999983,0.0,0.0,22763.0,0.375,180.0,420.0,0.0,0.25,0.8447264760000001,0.01,0.0,-62197.0,3.0,-97.5,-420.0,0.0,0.25,0.46386714,0.01,0.0,52480.0,17.875,105.0,420.0,0.0,0.125,3.299560209,0.01,0.0,-77705.0,4.125,-75.0,-420.0,0.0,0.25,1.594238118,0.01,0.0,0.6600000262260437,-0.8299999833106995,87.83000183105469,0.01348876953125,1.220703125E-4,1.01153564453125,35.849998474121094,0.0,-10.0,2.513275146484375,0.354095458984375,Closing,0.0,0.0,0.0,0.0,0.0,0.0,0.0,0.0,
9.091406000000017,0.0,0.0,22789.0,0.125,30.0,0.0,0.0,0.25,0.8312987430000001,0.01,0.0,-62197.0,1.875,-30.0,-0.0,0.0,0.25,0.46386714,0.01,0.0,52482.0,14.625,30.0,0.0,0.0,0.0,3.300780912,0.01,0.0,-77707.0,2.5,-22.5,-0.0,0.0,0.25,1.613769366,0.01,0.0,0.6399999856948853,-0.949999988079071,87.83999633789062,0.0482177734375,-0.0135498046875,0.97906494140625,35.900001525878906,0.0,-22.0,2.5127105712890625,0.3470458984375,Closing,0.0,0.0,0.0,0.0,0.0,0.0,0.0,0.0,
9.207945000000008,0.0,0.0,22789.0,0.125,0.0,0.0,0.0,0.25,0.836181555,0.01,0.0,-62199.0,2.25,0.0,-0.0,0.0,0.25,0.489501903,0.01,0.0,52482.0,15.25,0.0,0.0,0.0,0.0,3.3093258330000004,0.01,0.0,-77707.0,2.625,0.0,-0.0,0.0,0.125,1.6296385050000002,0.01,0.0,0.5799999833106995,-0.8899999856948853,87.8499984741211,-0.14715576171875,-0.05126953125,0.9886474609375,35.900001525878906,0.0,-66.0,2.5128021240234375,0.3384552001953125,Closing,0.0,0.0,0.0,0.0,0.0,0.0,0.0,0.0,
9.31507799999998,0.0,0.0,22789.0,1.625,0.0,420.0,0.0,1.5,1.429443213,2.4661255000000026,0.0,-62200.0,7.0,0.0,-420.0,0.0,1.75,4.788817869,2.4818850000000023,0.0,52491.0,25.75,30.0,420.0,0.0,1.25,2.681884491,2.470199999999998,0.0,-77715.0,6.25,-52.5,-420.0,0.0,1.375,2.299804452,2.4789999999999974,0.0,0.5299999713897705,-0.7699999809265137,87.9000015258789,-0.06683349609375,-0.02301025390625,1.07977294921875,35.900001525878906,0.0,-35.0,2.515289306640625,0.3306121826171875,Closing,0.0,0.0,0.0,0.0,0.0,0.0,0.0,0.0,
9.455386999999988,0.0,0.0,22787.0,3.0,-45.0,420.0,0.0,2.0,2.1118161900000003,2.4661255000000026,0.0,-62208.0,9.25,-37.5,-420.0,0.0,2.375,4.1308589520000005,2.4818850000000023,0.0,52512.0,23.875,135.0,420.0,0.0,1.125,1.9470212850000002,2.470199999999998,0.0,-77729.0,9.0,-82.5,-420.0,0.0,1.875,3.023681331,2.4789999999999974,0.0,0.4300000071525574,-0.8100000023841858,87.98999786376953,-0.169677734375,0.06976318359375,0.97601318359375,35.900001525878906,0.0,56.0,2.5153045654296875,0.3312225341796875,Closing,0.0,0.0,0.0,0.0,0.0,0.0,0.0,0.0,
9.568831000000005,0.0,0.0,22775.0,5.75,-52.5,420.0,0.0,2.75,2.773437216,2.4661255000000026,0.0,-62208.0,11.25,-75.0,-420.0,0.0,2.375,3.459472302,2.4818850000000023,0.0,52512.0,25.5,202.5,420.0,0.0,1.125,1.220703,2.470199999999998,0.0,-77741.0,10.75,-67.5,-420.0,0.0,2.125,3.699950793,2.4789999999999974,0.0,0.44999998807907104,-0.9900000095367432,87.9800033569336,0.03387451171875,0.10992431640625,1.0386962890625,35.91999816894531,0.0,103.0,2.514984130859375,0.3318328857421875,Closing,0.0,0.0,0.0,0.0,0.0,0.0,0.0,0.0,
9.686913,0.0,0.0,22774.0,5.875,90.0,420.0,0.0,1.375,3.13720671,2.4661255000000026,0.0,-62223.0,12.125,-135.0,-420.0,0.0,0.875,2.9528805570000003,2.4818850000000023,0.0,52549.0,23.5,270.0,420.0,0.0,0.375,0.6323241540000001,2.470199999999998,0.0,-77741.0,10.75,-217.5,-420.0,0.0,0.625,4.282226124,2.4789999999999974,0.0,0.75,-1.7899999618530273,88.12000274658203,-0.29693603515625,-0.04010009765625,0.8624267578125,35.91999816894531,0.0,-60.0,2.51837158203125,0.3373870849609375,Closing,0.0,0.0,0.0,0.0,0.0,0.0,0.0,0.125,
9.794098999999987,0.0,0.0,22819.0,3.5,397.5,420.0,0.0,0.75,3.3715816860000003,2.4661255000000026,0.0,-62257.0,9.75,-375.0,-420.0,0.0,0.5,2.817382524,2.4818850000000023,0.0,52603.0,18.875,412.5,420.0,0.0,0.75,0.520019478,2.470199999999998,0.0,-77786.0,8.5,-405.0,-420.0,0.0,0.625,4.432372593,2.4789999999999974,0.0,0.6100000143051147,-2.440000057220459,88.33999633789062,-0.00872802734375,0.01141357421875,1.0731201171875,35.91999816894531,0.0,0.0,2.517364501953125,0.355010986328125,Closing,0.0,0.0,0.0,0.0,0.0,0.0,0.0,0.0,
9.895978000000003,0.0,0.0,22904.0,2.25,532.5,420.0,0.0,0.375,3.394775043,2.4661255000000026,0.0,-62340.0,6.25,-570.0,-420.0,0.0,0.25,2.8552243170000002,2.4818850000000023,0.0,52687.0,16.125,615.0,420.0,0.0,0.625,0.7128905520000001,2.470199999999998,0.0,-77863.0,6.375,-547.5,-420.0,0.0,0.875,4.2724605,2.4789999999999974,0.0,0.33000001311302185,-2.390000104904175,88.0999984741211,-0.0404052734375,0.1339111328125,1.100830078125,35.91999816894531,0.0,127.0,2.5150299072265625,0.375762939453125,Closing,0.0,0.0,0.0,0.0,0.0,0.0,0.0,0.0,
10.005679000000004,0.0,0.0,22993.0,1.875,562.5,420.0,0.0,0.375,3.334960596,2.4661255000000026,0.0,-62436.0,4.5,-630.0,-420.0,0.0,0.25,2.979736023,2.4818850000000023,0.0,52785.0,13.375,615.0,420.0,0.0,0.25,0.8801268630000001,2.470199999999998,0.0,-77957.0,4.75,-637.5,-420.0,0.0,0.25,4.08935505,2.4789999999999974,0.0,0.5099999904632568,-2.740000009536743,87.79000091552734,-0.09027099609375,0.05169677734375,1.12261962890625,35.91999816894531,0.0,40.0,2.516265869140625,0.3984222412109375,Closing,0.0,0.0,0.0,0.0,0.0,0.0,0.0,0.125,
10.108392999999982,0.0,0.0,23108.0,0.5,712.5,420.0,0.0,0.25,3.287353179,2.4661255000000026,0.0,-62553.0,2.5,-735.0,-420.0,0.0,0.0,2.983398132,2.4818850000000023,0.0,52893.0,10.125,675.0,420.0,0.0,0.0,0.9228514680000001,2.470199999999998,0.0,-78069.0,2.625,-705.0,-420.0,0.0,0.125,4.017333573,2.4789999999999974,0.0,0.6100000143051147,-2.7899999618530273,88.22000122070312,-0.06964111328125,0.02386474609375,0.9815673828125,35.86000061035156,0.0,12.0,2.518646240234375,0.424102783203125,Closing,0.0,0.0,0.0,0.0,0.0,0.0,0.0,0.0,
10.21144299999997,0.0,0.0,23221.0,0.125,720.0,420.0,0.0,0.125,3.282470367,2.4661255000000026,0.0,-62671.0,1.0,-742.5,-420.0,0.0,0.0,2.984618835,2.4818850000000023,0.0,53020.0,7.125,795.0,420.0,0.0,0.125,0.92773428,2.470199999999998,0.0,-78177.0,2.25,-667.5,-420.0,0.0,0.25,4.04052693,2.4789999999999974,0.0,0.75,-2.7100000381469727,88.79000091552734,-0.0093994140625,-0.0064697265625,0.9442138671875,35.86000061035156,0.0,-18.0,2.522613525390625,0.4450531005859375,Closing,0.0,0.0,0.0,0.0,0.0,0.0,0.0,0.0,
10.316086000000011,0.0,0.0,23221.0,0.375,810.0,420.0,0.0,0.25,3.281249664,2.4661255000000026,0.0,-62788.0,0.375,-742.5,-420.0,0.0,0.0,2.984618835,2.4818850000000023,0.0,53155.0,4.875,832.5,420.0,0.0,0.125,0.924072171,2.470199999999998,0.0,-78295.0,1.0,-742.5,-420.0,0.0,0.25,4.079589426,2.4789999999999974,0.0,0.6499999761581421,-2.5,89.25,0.0511474609375,-0.0140380859375,1.11138916015625,35.86000061035156,0.0,-25.0,2.5280609130859375,0.466094970703125,Closing,0.0,0.0,0.0,0.0,0.0,0.0,0.0,0.0,
10.42145199999999,0.0,0.0,23354.0,0.125,765.0,420.0,0.0,0.25,3.284911773,2.4661255000000026,0.0,-62788.0,0.25,-637.5,-420.0,0.0,0.0,2.985839538,2.4818850000000023,0.0,53155.0,3.125,825.0,420.0,0.0,0.125,0.904540923,2.470199999999998,0.0,-78408.0,0.375,-690.0,-420.0,0.0,0.125,4.104003486,2.4789999999999974,0.0,0.49000000953674316,-2.200000047683716,89.52999877929688,0.14569091796875,-0.049560546875,1.0357666015625,35.86000061035156,0.0,-56.0,2.53271484375,0.4824676513671875,Closing,0.0,0.0,0.0,0.0,0.0,0.0,0.0,0.0,
10.525501999999978,0.0,0.0,23473.0,0.125,735.0,420.0,0.0,0.125,3.282470367,2.4661255000000026,0.0,-62896.0,0.125,-690.0,-420.0,0.0,0.0,2.983398132,2.4818850000000023,0.0,53283.0,2.5,735.0,420.0,0.0,0.125,0.864257724,2.470199999999998,0.0,-78408.0,0.375,-682.5,-420.0,0.0,0.125,4.108886298,2.4789999999999974,0.0,0.5199999809265137,-1.8899999856948853,89.70999908447266,0.03277587890625,0.01068115234375,0.94921875,35.86000061035156,0.0,2.0,2.5354766845703125,0.4925079345703125,Closing,0.0,0.0,0.0,0.0,0.0,0.0,0.0,0.125,
10.632021000000007,0.0,0.0,23588.0,0.125,675.0,420.0,0.0,0.25,3.281249664,2.4661255000000026,0.0,-63000.0,0.125,-622.5,-420.0,0.0,0.0,2.984618835,2.4818850000000023,0.0,53399.0,2.0,682.5,420.0,0.0,0.0,0.865478427,2.470199999999998,0.0,-78512.0,0.375,-600.0,-420.0,0.0,0.125,4.08935505,2.4789999999999974,0.0,0.5,-1.5399999618530273,90.05999755859375,0.08221435546875,0.01629638671875,1.0135498046875,35.83000183105469,0.0,7.0,2.5357513427734375,0.4977874755859375,Closing,0.0,0.0,0.0,0.0,0.0,0.0,0.0,0.125,
10.745554000000004,0.0,0.0,23687.0,0.125,600.0,420.0,0.0,0.25,3.282470367,2.4661255000000026,0.0,-63095.0,0.125,-562.5,-420.0,0.0,0.0,2.985839538,2.4818850000000023,0.0,53502.0,2.0,600.0,420.0,0.0,0.0,0.872802645,2.470199999999998,0.0,-78606.0,0.375,-562.5,-420.0,0.0,0.125,4.0783687230000005,2.4789999999999974,0.0,0.5299999713897705,-1.3700000047683716,90.29000091552734,0.017333984375,-0.0284423828125,1.038818359375,35.83000183105469,0.0,-38.0,2.536773681640625,0.4971771240234375,Closing,0.0,0.0,0.0,0.0,0.0,0.0,0.0,0.0,
10.845402000000002,0.0,0.0,23775.0,0.125,547.5,420.0,0.0,0.25,3.282470367,2.4661255000000026,0.0012207029999999897,-63177.0,0.125,-487.5,-420.0,0.0,0.0,2.987060241,2.4818850000000023,0.0,53592.0,2.0,547.5,420.0,0.0,0.0,0.865478427,2.470199999999998,0.0,-78689.0,0.375,-472.5,-420.0,0.0,0.125,4.084472238,2.4789999999999974,0.0,0.5699999928474426,-1.059999942779541,90.66999816894531,0.09088134765625,0.029296875,1.14129638671875,35.83000183105469,0.0,16.0,2.537353515625,0.4918365478515625,Closing,0.0,0.0,0.0,0.0,0.0,0.0,0.0,0.125,
10.949708999999974,0.0,0.0,23850.0,0.125,472.5,420.0,0.0,0.125,3.289794585,2.4661255000000026,0.0,-63251.0,0.125,-450.0,-420.0,0.0,0.0,2.9956051620000004,2.4818850000000023,0.0,53671.0,2.125,480.0,420.0,0.0,0.0,0.865478427,2.470199999999998,0.0,-78761.0,0.375,-442.5,-420.0,0.0,0.125,4.084472238,2.4789999999999974,0.0,0.5699999928474426,-0.7400000095367432,90.79000091552734,0.0469970703125,0.014892578125,0.9222412109375,35.83000183105469,0.0,4.0,2.5377349853515625,0.48309326171875,Closing,0.0,0.0,0.0,0.0,0.0,0.0,0.0,0.0,
11.052398999999976,0.0,0.0,23907.0,1.0,360.0,0.0,0.0,6.125,3.032226252,0.01,0.0,-63314.0,0.0,-390.0,-0.0,0.0,9.25,2.7404782350000003,0.01,0.0,53735.0,0.5,397.5,0.0,0.0,5.625,0.539550726,0.01,0.0,-78822.0,0.125,-382.5,-0.0,0.0,5.875,3.6816402480000003,0.01,0.0,0.6600000262260437,-0.3400000035762787,90.70999908447266,0.12109375,-0.07586669921875,1.1077880859375,35.83000183105469,0.0,-90.0,2.5375823974609375,0.4696044921875,Closing,0.0,0.0,0.0,0.0,0.0,0.0,0.0,0.0,
11.156613000000013,0.0,0.0,23907.0,1.25,247.5,0.0,0.0,1.5,2.290038828,0.01,0.0,-63340.0,0.0,-195.0,-0.0,0.0,1.5,1.978759563,0.01,0.0,53783.0,0.5,307.5,0.0,0.0,2.125,4.786376463,0.01,0.0,-78844.0,0.25,-165.0,-0.0,0.0,1.75,2.9077145460000002,0.01,0.0,0.8999999761581421,0.5,90.69999694824219,0.243408203125,0.002197265625,0.94708251953125,35.83000183105469,0.0,-15.0,2.5372772216796875,0.44793701171875,Closing,0.0,0.0,0.0,0.0,0.0,0.0,0.0,0.0,
11.262630000000005,0.0,0.0,23938.0,1.0,120.0,0.0,0.0,1.75,1.5502928100000002,0.01,0.0,-63345.0,0.0,-30.0,-0.0,0.0,1.5,1.224365109,0.01,0.0,53792.0,0.75,105.0,0.0,0.0,1.875,4.041747633,0.01,0.0,-78847.0,0.375,-22.5,-0.0,0.0,1.75,2.1154782990000003,0.01,0.0,0.7400000095367432,0.5799999833106995,90.37000274658203,-0.0325927734375,0.072265625,1.01641845703125,35.83000183105469,0.0,59.0,2.5378875732421875,0.4097900390625,Closing,0.0,0.0,0.0,0.0,0.0,0.0,0.0,0.125,
11.36745299999998,0.0,0.0,23956.0,1.0,67.5,0.0,0.0,0.75,0.8959960020000001,0.01,0.0,-63345.0,0.125,-7.5,-0.0,0.0,0.875,0.5932616580000001,0.01,0.0,53792.0,1.125,0.0,0.0,0.0,0.75,3.397216449,0.01,0.0,-78847.0,0.375,0.0,-0.0,0.0,0.625,1.585693197,0.01,0.0,0.6200000047683716,0.5600000023841858,90.4000015258789,0.0177001953125,-0.02008056640625,1.0416259765625,35.83000183105469,0.0,-31.0,2.5377349853515625,0.3869171142578125,Closing,0.0,0.0,0.0,0.0,0.0,0.0,0.0,0.125,
11.472611999999964,0.0,0.0,23958.0,0.75,7.5,0.0,0.0,0.375,0.675048759,0.01,0.0,-63345.0,0.0,0.0,-0.0,0.0,0.25,0.411376911,0.01,0.0,53792.0,1.25,0.0,0.0,0.0,0.25,3.2556149010000004,0.01,0.0,-78847.0,0.375,0.0,-0.0,0.0,0.375,1.546630701,0.01,0.0,0.6299999952316284,0.550000011920929,90.54000091552734,-0.00885009765625,0.04388427734375,1.03900146484375,35.83000183105469,0.0,32.0,2.53643798828125,0.3870086669921875,Closing,0.0,0.0,0.0,0.0,0.0,0.0,0.0,0.0,
11.5755,0.0,0.0,23960.0,0.75,7.5,0.0,0.0,0.375,0.731201097,0.01,0.0,-63345.0,0.0,0.0,-0.0,0.0,0.25,0.46630854600000005,0.01,0.0,53792.0,1.25,0.0,0.0,0.0,0.125,3.3105465360000004,0.01,0.0,-78847.0,0.375,0.0,-0.0,0.0,0.25,1.614990069,0.01,0.0,0.6000000238418579,0.4099999964237213,90.54000091552734,0.01123046875,0.009521484375,1.03460693359375,35.83000183105469,0.0,-1.0,2.53631591796875,0.3883209228515625,Closing,0.0,0.0,0.0,0.0,0.0,0.0,0.0,0.0,
11.686950000000012,0.0,0.0,23959.0,0.75,0.0,0.0,0.0,0.375,0.8032225740000001,0.01,0.0,-63345.0,0.0,0.0,-0.0,0.0,0.25,0.51269526,0.01,0.062255853000000805,53792.0,1.25,0.0,0.0,0.0,0.125,3.339843408,0.01,0.0,-78849.0,0.375,-7.5,-0.0,0.0,0.125,1.667480298,0.01,0.0,0.6100000143051147,0.3700000047683716,90.5199966430664,-0.0130615234375,-0.004638671875,1.00787353515625,35.83000183105469,0.0,-15.0,2.53631591796875,0.3884124755859375,Closing,0.0,0.0,0.0,0.0,0.0,0.0,0.0,0.0,
11.79153899999999,0.0,0.0,23959.0,0.625,0.0,0.0,0.0,0.25,0.808105386,0.01,0.0,-63345.0,0.0,0.0,-0.0,0.0,0.0,0.5175780720000001,0.01,0.0,53792.0,1.25,0.0,0.0,0.0,0.0,3.343505517,0.01,0.0,-78849.0,0.375,0.0,-0.0,0.0,0.25,1.67236311,0.01,0.0,0.6000000238418579,0.30000001192092896,90.52999877929688,-0.0147705078125,0.01458740234375,1.03509521484375,35.83000183105469,0.0,3.0,2.53631591796875,0.388519287109375,Closing,0.0,0.0,0.0,0.0,0.0,0.0,0.0,0.125,
11.893550999999977,0.0,0.0,23959.0,0.75,0.0,0.0,0.0,0.125,0.8276366340000001,0.01,0.0,-63345.0,0.0,0.0,-0.0,0.0,0.0,0.5175780720000001,0.01,0.0,53792.0,1.25,0.0,0.0,0.0,0.0,3.343505517,0.01,0.0,-78849.0,0.375,0.0,-0.0,0.0,0.25,1.6625974860000001,0.01,0.0,0.5899999737739563,0.25,90.52999877929688,-5.4931640625E-4,0.01031494140625,1.00848388671875,35.83000183105469,0.0,0.0,2.53631591796875,0.3886566162109375,Closing,0.0,0.0,0.0,0.0,0.0,0.0,0.0,0.0,
11.994295999999974,0.0,0.0,23959.0,0.75,0.0,0.0,0.0,0.25,0.812988198,0.01,-0.0012207029999995456,-63345.0,0.0,0.0,-0.0,0.0,0.0,0.5163573690000001,0.01,0.0,53792.0,1.25,0.0,0.0,0.0,0.0,3.343505517,0.01,0.0,-78849.0,0.375,0.0,-0.0,0.0,0.25,1.6625974860000001,0.01,0.0,0.5799999833106995,0.18000000715255737,90.52999877929688,-0.0069580078125,0.0069580078125,1.017578125,35.83000183105469,0.0,-3.0,2.53631591796875,0.3886566162109375,Closing,0.0,0.0,0.0,0.0,0.0,0.0,0.0,0.0,
12.094228999999991,0.0,0.0,23959.0,0.25,0.0,0.0,0.0,0.125,0.808105386,0.01,0.0012207029999995456,-63345.0,0.0,0.0,-0.0,0.0,0.0,0.5175780720000001,0.01,0.0,53792.0,0.625,0.0,0.0,0.0,0.0,3.353271141,0.01,0.0,-78849.0,0.125,0.0,-0.0,0.0,0.125,1.6625974860000001,0.01,0.0,0.5899999737739563,0.14000000059604645,90.5199966430664,-0.01629638671875,0.00970458984375,0.98834228515625,35.83000183105469,0.0,0.0,2.53631591796875,0.3886566162109375,Closing,0.0,0.0,0.0,0.0,0.0,0.0,0.0,0.0,
