Time,ClimberA1,ClimberA2,FRpos,FRCurrent,FRspeed,FRsetpoint,FRApos,FRACurrent,FREncpos,FREncSetpoint,FREncSpeed,FLpos,FLCurrent,FLspeed,FLsetpoint,FLApos,FLACurrent,FLEncpos,FLEncSetpoint,FLEncSpeed,BRpos,BRCurrent,BRspeed,BRsetpoint,BRApos,BRACurrent,BREncpos,BREncSetpoint,BREncSpeed,BLpos,BLCurrent,BLspeed,BLsetpoint,BLApos,BLACurrent,BLEncpos,BLEncSetpoint,BLEncSpeed,navx_Pitch,navx_Roll,navx_Yaw,navx_XAcc,navx_YAcc,navx_ZAcc,navx_Temp,navx_Bar,navx_Alt,navx_XDis,navx_YDis,GearPlacerState,ShootOutputV,ShootOutputCurrent,ShootEncPos,ShootEncVelocity,ShootSpeed,ShootSetpoint,CarouselSetpoint,CarouselCurrent,
0.22839199999999982,0.0,0.0,0.0,0.0,0.0,0.0,0.0,0.0,0.834960852,0.01,0.0,0.0,0.0,0.0,0.0,0.0,0.0,0.532226508,0.01,0.0,0.0,0.0,0.0,0.0,0.0,0.0,3.3801266070000002,0.01,0.0,0.0,0.0,0.0,0.0,0.0,0.125,1.6015623360000002,0.01,0.0,0.3799999952316284,-0.3700000047683716,-1.399999976158142,-0.00103759765625,0.0101318359375,1.014892578125,28.200000762939453,0.0,5.0,-2.593994140625E-4,-0.0153961181640625,Waiting,0.0,0.0,0.0,0.0,0.0,0.0,0.0,0.0,
0.3070120000000002,0.0,0.0,0.0,0.0,0.0,0.0,0.0,0.0,0.834960852,0.01,0.0,0.0,0.0,0.0,-0.0,0.0,0.0,0.532226508,0.01,0.0,0.0,0.0,0.0,0.0,0.0,0.0,3.3801266070000002,0.01,0.0,0.0,0.0,0.0,-0.0,0.0,0.125,1.6027830390000002,0.01,0.0,0.3700000047683716,-0.3799999952316284,-1.399999976158142,-0.011474609375,0.01373291015625,1.03790283203125,28.200000762939453,0.0,-4.0,-9.1552734375E-5,-0.015716552734375,Closing,0.0,0.0,0.0,0.0,0.0,0.0,0.0,0.0,
0.3338180000000002,0.0,0.0,0.0,0.0,0.0,0.0,0.0,0.125,0.834960852,0.01,0.024960851999999978,0.0,0.0,0.0,-0.0,0.0,0.0,0.532226508,0.01,0.024775805000000872,0.0,0.0,0.0,0.0,0.0,0.125,3.3789059040000002,0.01,0.03012660700000014,0.0,0.0,0.0,-0.0,0.0,0.125,1.6015623360000002,0.01,4.939562336,0.3799999952316284,-0.3700000047683716,-1.409999966621399,-0.018310546875,-0.0035400390625,1.0009765625,28.200000762939453,0.0,-11.0,-9.1552734375E-5,-0.015716552734375,Closing,0.0,0.0,0.0,0.0,0.0,0.0,0.0,0.0,
0.365779,0.0,0.0,0.0,0.0,0.0,0.0,0.0,0.125,0.834960852,0.01,0.024960851999999978,0.0,0.0,0.0,-0.0,0.0,0.0,0.532226508,0.01,0.024775805000000872,0.0,0.0,0.0,0.0,0.0,0.125,3.3801266070000002,0.01,0.03012660700000014,0.0,0.0,0.0,-0.0,0.0,0.125,1.6015623360000002,0.01,0.0,0.3799999952316284,-0.3700000047683716,-1.409999966621399,-0.02978515625,-0.02777099609375,1.0177001953125,28.200000762939453,0.0,-22.0,-1.8310546875E-4,-0.0158233642578125,Closing,0.0,0.0,0.0,0.0,0.0,0.0,0.0,0.0,
0.39151900000000023,0.0,0.0,0.0,0.0,0.0,0.0,0.0,0.125,0.834960852,0.01,0.0,0.0,0.0,0.0,-0.0,0.0,0.0,0.532226508,0.01,0.0,0.0,0.0,0.0,0.0,0.0,0.125,3.3801266070000002,0.01,0.0,0.0,0.0,0.0,-0.0,0.0,0.125,1.6015623360000002,0.01,0.0,0.3799999952316284,-0.3700000047683716,-1.409999966621399,-0.023193359375,-0.01959228515625,1.0333251953125,28.200000762939453,0.0,-15.0,-2.74658203125E-4,-0.0159454345703125,Closing,0.0,0.0,0.0,0.0,0.0,0.0,0.0,0.0,
0.418681,0.0,0.0,0.0,0.0,0.0,0.0,0.0,0.125,0.836181555,0.01,0.0,0.0,0.0,0.0,-0.0,0.0,0.0,0.532226508,0.01,0.0,0.0,0.0,0.0,0.0,0.0,0.125,3.38134731,0.01,0.0,0.0,0.0,0.0,-0.0,0.0,0.125,1.6015623360000002,0.01,0.0,0.3799999952316284,-0.3700000047683716,-1.399999976158142,0.0052490234375,0.0013427734375,1.02276611328125,28.200000762939453,0.0,12.0,-2.74658203125E-4,-0.0162811279296875,Closing,0.0,0.0,0.0,0.0,0.0,0.0,0.0,0.0,
0.4496689999999999,0.0,0.0,0.0,0.0,0.0,0.0,0.0,0.125,0.834960852,0.01,0.0,0.0,0.0,0.0,-0.0,0.0,0.0,0.532226508,0.01,0.0,0.0,0.0,0.0,0.0,0.0,0.125,3.3801266070000002,0.01,0.0,0.0,0.0,0.0,-0.0,0.0,0.125,1.6027830390000002,0.01,0.0,0.3799999952316284,-0.3700000047683716,-1.409999966621399,0.0142822265625,0.04833984375,1.02593994140625,28.200000762939453,0.0,20.0,-2.593994140625E-4,-0.0162506103515625,Closing,0.0,0.0,0.0,0.0,0.0,0.0,0.0,0.0,
0.482652,0.0,0.0,0.0,0.0,0.0,0.0,0.0,0.125,0.834960852,0.01,0.0,0.0,0.0,0.0,-0.0,0.0,0.0,0.532226508,0.01,0.0,0.0,0.0,0.0,0.0,0.0,0.125,3.3801266070000002,0.01,0.0,0.0,0.0,0.0,-0.0,0.0,0.125,1.6027830390000002,0.01,0.0,0.3700000047683716,-0.3799999952316284,-1.409999966621399,0.00567626953125,0.04290771484375,1.01861572265625,28.200000762939453,0.0,11.0,-1.52587890625E-4,-0.01605224609375,Closing,0.0,0.0,0.0,0.0,0.0,0.0,0.0,0.0,
0.5089279999999999,0.0,0.0,0.0,0.0,0.0,0.0,0.0,0.125,0.836181555,0.01,0.0,0.0,0.0,0.0,-0.0,0.0,0.0,0.532226508,0.01,0.0,0.0,0.0,0.0,0.0,0.0,0.125,3.38134731,0.01,0.0,0.0,0.0,0.0,-0.0,0.0,0.125,1.6015623360000002,0.01,0.0,0.3799999952316284,-0.3700000047683716,-1.409999966621399,-0.0111083984375,0.02099609375,1.02508544921875,28.190000534057617,0.0,-4.0,-1.52587890625E-4,-0.015716552734375,Closing,0.0,0.0,0.0,0.0,0.0,0.0,0.0,0.0,
0.5368800000000001,0.0,0.0,0.0,0.0,0.0,0.0,0.0,0.125,0.836181555,0.01,0.0,0.0,0.0,0.0,-0.0,0.0,0.0,0.532226508,0.01,0.0,0.0,0.0,0.0,0.0,0.0,0.125,3.3801266070000002,0.01,0.0,0.0,0.0,0.0,-0.0,0.0,0.125,1.6015623360000002,0.01,0.0,0.3799999952316284,-0.3700000047683716,-1.409999966621399,-0.0333251953125,-0.02520751953125,1.02691650390625,28.190000534057617,0.0,-25.0,-1.8310546875E-4,-0.0157623291015625,Closing,0.0,0.0,0.0,0.0,0.0,0.0,0.0,0.0,
0.5641550000000002,0.0,0.0,0.0,0.0,0.0,0.0,0.0,0.125,0.834960852,0.01,0.0,0.0,0.0,0.0,-0.0,0.0,0.0,0.532226508,0.01,0.0,0.0,0.0,0.0,0.0,0.0,0.125,3.38134731,0.01,0.0,0.0,0.0,0.0,-0.0,0.0,0.125,1.6015623360000002,0.01,0.0,0.3799999952316284,-0.3700000047683716,-1.409999966621399,-0.03509521484375,-0.0206298828125,1.01593017578125,28.190000534057617,0.0,-27.0,-2.44140625E-4,-0.0158233642578125,Closing,0.0,0.0,0.0,0.0,0.0,0.0,0.0,0.0,
0.5875410000000002,0.0,0.0,0.0,0.0,0.0,0.0,0.0,0.125,0.836181555,0.01,0.0,0.0,0.0,0.0,-0.0,0.0,0.0,0.532226508,0.01,0.0,0.0,0.0,0.0,0.0,0.0,0.125,3.3801266070000002,0.01,0.0,0.0,0.0,0.0,-0.0,0.0,0.125,1.6015623360000002,0.01,0.0,0.3799999952316284,-0.3700000047683716,-1.409999966621399,0.0096435546875,-0.0230712890625,1.036865234375,28.190000534057617,0.0,17.0,-3.35693359375E-4,-0.0160980224609375,Closing,0.0,0.0,0.0,0.0,0.0,0.0,0.0,0.0,
0.6110990000000002,0.0,0.0,0.0,0.0,0.0,0.0,0.0,0.125,0.836181555,0.01,0.0,0.0,0.0,0.0,-0.0,0.0,0.0,0.532226508,0.01,0.0,0.0,0.0,0.0,0.0,0.0,0.125,3.3801266070000002,0.01,0.0,0.0,0.0,0.0,-0.0,0.0,0.125,1.6027830390000002,0.01,0.0,0.3799999952316284,-0.3700000047683716,-1.409999966621399,0.01959228515625,0.03369140625,1.031494140625,28.190000534057617,0.0,25.0,-3.0517578125E-4,-0.016448974609375,Closing,0.0,0.0,0.0,0.0,0.0,0.0,0.0,0.0,
0.6404949999999999,0.0,0.0,0.0,0.0,0.0,0.0,0.0,0.125,0.836181555,0.01,0.0,0.0,0.0,0.0,-0.0,0.0,0.0,0.532226508,0.01,0.0,0.0,0.0,0.0,0.0,0.0,0.0,3.38134731,0.01,0.0,0.0,0.0,0.0,-0.0,0.0,0.125,1.6015623360000002,0.01,0.0,0.3799999952316284,-0.3700000047683716,-1.409999966621399,0.0028076171875,0.03692626953125,1.03033447265625,28.190000534057617,0.0,8.0,-1.678466796875E-4,-0.0166473388671875,Closing,0.0,0.0,0.0,0.0,0.0,0.0,0.0,0.0,
0.6696320000000001,0.0,0.0,0.0,0.0,0.0,0.0,0.0,0.125,0.836181555,0.01,0.0,0.0,0.0,0.0,-0.0,0.0,0.0,0.532226508,0.01,0.0,0.0,0.0,0.0,0.0,0.0,0.0,3.38134731,0.01,0.0,0.0,0.0,0.0,-0.0,0.0,0.125,1.6015623360000002,0.01,0.0,0.3700000047683716,-0.3799999952316284,-1.409999966621399,-0.00823974609375,0.01373291015625,1.03594970703125,28.190000534057617,0.0,-1.0,-1.678466796875E-4,-0.0167236328125,Closing,0.0,0.0,0.0,0.0,0.0,0.0,0.0,0.0,
0.6958589999999999,0.0,0.0,0.0,0.0,0.0,0.0,0.0,0.125,0.836181555,0.01,0.0,0.0,0.0,0.0,-0.0,0.0,0.0,0.532226508,0.01,0.0,0.0,0.0,0.0,0.0,0.0,0.125,3.38134731,0.01,0.0,0.0,0.0,0.0,-0.0,0.0,0.125,1.6015623360000002,0.01,0.0,0.3799999952316284,-0.3700000047683716,-1.409999966621399,-0.0194091796875,0.00677490234375,1.00213623046875,28.190000534057617,0.0,-12.0,-1.678466796875E-4,-0.0167236328125,Closing,0.0,0.0,0.0,0.0,0.0,0.0,0.0,0.0,
0.7278739999999998,0.0,0.0,0.0,0.0,0.0,0.0,0.0,0.125,0.836181555,0.01,0.0,0.0,0.0,0.0,-0.0,0.0,0.0,0.532226508,0.01,0.0,0.0,0.0,0.0,0.0,0.0,0.125,3.38134731,0.01,0.0,0.0,0.0,0.0,-0.0,0.0,0.125,1.6015623360000002,0.01,0.0,0.3799999952316284,-0.3700000047683716,-1.409999966621399,-0.02642822265625,-0.02197265625,1.0196533203125,28.190000534057617,0.0,-19.0,-2.593994140625E-4,-0.0167999267578125,Closing,0.0,0.0,0.0,0.0,0.0,0.0,0.0,0.0,
0.7494920000000002,0.0,0.0,0.0,0.0,0.0,0.0,0.0,0.125,0.834960852,0.01,0.0,0.0,0.0,0.0,-0.0,0.0,0.0,0.532226508,0.01,0.0,0.0,0.0,0.0,0.0,0.0,0.125,3.38134731,0.01,0.0,0.0,0.0,0.0,-0.0,0.0,0.125,1.6015623360000002,0.01,0.0,0.3799999952316284,-0.3700000047683716,-1.409999966621399,0.00616455078125,-0.02410888671875,1.04376220703125,28.190000534057617,0.0,13.0,-3.509521484375E-4,-0.0170440673828125,Closing,0.0,0.0,0.0,0.0,0.0,0.0,0.0,0.0,
0.7709740000000002,0.0,0.0,0.0,0.0,0.0,0.0,0.0,0.125,0.836181555,0.01,0.0,0.0,0.0,0.0,-0.0,0.0,0.0,0.531005805,0.01,0.0,0.0,0.0,0.0,0.0,0.0,0.125,3.3801266070000002,0.01,0.0,0.0,0.0,0.0,-0.0,0.0,0.125,1.6015623360000002,0.01,0.0,0.3799999952316284,-0.3700000047683716,-1.409999966621399,0.005615234375,-0.00115966796875,1.016357421875,28.190000534057617,0.0,12.0,-3.509521484375E-4,-0.017364501953125,Closing,0.0,0.0,0.0,0.0,0.0,0.0,0.0,0.0,
0.8052010000000001,0.0,0.0,0.0,0.0,0.0,0.0,0.0,0.125,0.834960852,0.01,0.0,0.0,0.0,0.0,-0.0,0.0,0.0,0.532226508,0.01,0.0,0.0,0.0,0.0,0.0,0.0,0.125,3.3801266070000002,0.01,0.0,0.0,0.0,0.0,-0.0,0.0,0.125,1.6015623360000002,0.01,0.0,0.3799999952316284,-0.3700000047683716,-1.409999966621399,0.0169677734375,0.04461669921875,1.03277587890625,28.190000534057617,0.0,22.0,-3.204345703125E-4,-0.0174713134765625,Closing,0.0,0.0,0.0,0.0,0.0,0.0,0.0,0.0,
0.849404,0.0,0.0,0.0,0.0,0.0,0.0,0.0,0.125,0.836181555,0.01,0.0,0.0,0.0,0.0,-0.0,0.0,0.0,0.532226508,0.01,0.0,0.0,0.0,0.0,0.0,0.0,0.0,3.3801266070000002,0.01,0.0,0.0,0.0,0.0,-0.0,0.0,0.125,1.6015623360000002,0.01,0.0,0.3799999952316284,-0.3700000047683716,-1.4199999570846558,-0.02008056640625,0.00958251953125,1.0035400390625,28.190000534057617,0.0,-13.0,-2.13623046875E-4,-0.017578125,Closing,0.0,0.0,0.0,0.0,0.0,0.0,0.0,0.0,
0.87352,0.0,0.0,0.0,0.0,0.0,0.0,0.0,0.125,0.836181555,0.01,0.0,0.0,0.0,0.0,-0.0,0.0,0.0,0.532226508,0.01,0.0,0.0,0.0,0.0,0.0,0.0,0.0,3.3801266070000002,0.01,0.0,0.0,0.0,0.0,-0.0,0.0,0.125,1.6015623360000002,0.01,0.0,0.3799999952316284,-0.3700000047683716,-1.4199999570846558,-0.03570556640625,-0.021728515625,1.02435302734375,28.190000534057617,0.0,-28.0,-2.44140625E-4,-0.0175933837890625,Closing,0.0,0.0,0.0,0.0,0.0,0.0,0.0,0.0,
0.9042730000000001,0.0,0.0,0.0,0.0,0.0,0.0,0.0,0.125,0.836181555,0.01,0.0,0.0,0.0,0.0,-0.0,0.0,0.0,0.532226508,0.01,0.0,0.0,0.0,0.0,0.0,0.0,0.0,3.3801266070000002,0.01,0.0,0.0,0.0,0.0,-0.0,0.0,0.125,1.6015623360000002,0.01,0.0,0.3799999952316284,-0.3700000047683716,-1.4199999570846558,-0.0162353515625,-0.025390625,1.0472412109375,28.190000534057617,0.0,-8.0,-3.96728515625E-4,-0.0177459716796875,Closing,0.0,0.0,0.0,0.0,0.0,0.0,0.0,0.0,
0.9299610000000003,0.0,0.0,0.0,0.0,0.0,0.0,0.0,0.125,0.834960852,0.01,0.0,0.0,0.0,0.0,-0.0,0.0,0.0,0.532226508,0.01,0.0,0.0,0.0,0.0,0.0,0.0,0.125,3.38134731,0.01,0.0,0.0,0.0,0.0,-0.0,0.0,0.125,1.6015623360000002,0.01,0.0,0.3799999952316284,-0.3700000047683716,-1.4199999570846558,0.002685546875,0.00146484375,1.0115966796875,28.190000534057617,0.0,9.0,-3.96728515625E-4,-0.0180511474609375,Closing,0.0,0.0,0.0,0.0,0.0,0.0,0.0,0.0,
0.9683629999999999,0.0,0.0,0.0,0.0,0.0,0.0,0.0,0.125,0.836181555,0.01,0.0,0.0,0.0,0.0,-0.0,0.0,0.0,0.532226508,0.01,0.0,0.0,0.0,0.0,0.0,0.0,0.125,3.3801266070000002,0.01,0.0,0.0,0.0,0.0,-0.0,0.0,0.125,1.6015623360000002,0.01,0.0,0.3799999952316284,-0.3700000047683716,-1.4199999570846558,0.0091552734375,0.034423828125,1.01971435546875,28.190000534057617,0.0,15.0,-3.204345703125E-4,-0.0183258056640625,Closing,0.0,0.0,0.0,0.0,0.0,0.0,0.0,0.0,
0.992873,0.0,0.0,0.0,0.0,0.0,0.0,0.0,0.125,0.836181555,0.01,0.0,0.0,0.0,0.0,-0.0,0.0,0.0,0.532226508,0.01,0.0,0.0,0.0,0.0,0.0,0.0,0.125,3.3801266070000002,0.01,0.0,0.0,0.0,0.0,-0.0,0.0,0.125,1.6015623360000002,0.01,0.0,0.3700000047683716,-0.3799999952316284,-1.4199999570846558,-0.0093994140625,0.0166015625,1.0406494140625,28.190000534057617,0.0,-2.0,-2.44140625E-4,-0.0184326171875,Closing,0.0,0.0,0.0,0.0,0.0,0.0,0.0,0.0,
1.025498,0.0,0.0,0.0,0.0,0.0,0.0,0.0,0.125,0.834960852,0.01,0.0,0.0,0.0,0.0,-0.0,0.0,0.0,0.532226508,0.01,0.0,0.0,0.0,0.0,0.0,0.0,0.125,3.3801266070000002,0.01,0.0,0.0,0.0,0.0,-0.0,0.0,0.125,1.6015623360000002,0.01,0.0,0.3799999952316284,-0.3700000047683716,-1.4199999570846558,-0.0345458984375,-0.016845703125,1.023193359375,28.219999313354492,0.0,-27.0,-2.74658203125E-4,-0.0184783935546875,Closing,0.0,0.0,0.0,0.0,0.0,0.0,0.0,0.0,
1.0467600000000001,0.0,0.0,0.0,0.0,0.0,0.0,0.0,0.125,0.836181555,0.01,0.0,0.0,0.0,0.0,-0.0,0.0,0.0,0.532226508,0.01,0.0,0.0,0.0,0.0,0.0,0.0,0.125,3.3801266070000002,0.01,0.0,0.0,0.0,0.0,-0.0,0.0,0.125,1.6027830390000002,0.01,0.0,0.3799999952316284,-0.3700000047683716,-1.4199999570846558,-0.0345458984375,-0.016845703125,1.023193359375,28.219999313354492,0.0,-27.0,-2.74658203125E-4,-0.0184783935546875,Closing,0.0,0.0,0.0,0.0,0.0,0.0,0.0,0.0,
1.067982,0.0,0.0,0.0,0.0,0.0,0.0,0.0,0.125,0.836181555,0.01,0.0,0.0,0.0,0.0,-0.0,0.0,0.0,0.532226508,0.01,0.0,0.0,0.0,0.0,0.0,0.0,0.125,3.3801266070000002,0.01,0.0,0.0,0.0,0.0,-0.0,0.0,0.125,1.6015623360000002,0.01,0.0,0.3799999952316284,-0.3700000047683716,-1.4199999570846558,-0.00958251953125,-0.033203125,1.052001953125,28.219999313354492,0.0,-1.0,-4.119873046875E-4,-0.0186614990234375,Closing,0.0,0.0,0.0,0.0,0.0,0.0,0.0,0.0,
1.0889450000000003,0.0,0.0,0.0,0.0,0.0,0.0,0.0,0.125,0.834960852,0.01,0.0,0.0,0.0,0.0,-0.0,0.0,0.0,0.532226508,0.01,0.0,0.0,0.0,0.0,0.0,0.0,0.125,3.38134731,0.01,0.0,0.0,0.0,0.0,-0.0,0.0,0.125,1.6027830390000002,0.01,0.0,0.3799999952316284,-0.3700000047683716,-1.4199999570846558,0.00213623046875,-0.00518798828125,1.0185546875,28.219999313354492,0.0,9.0,-4.119873046875E-4,-0.018798828125,Closing,0.0,0.0,0.0,0.0,0.0,0.0,0.0,0.0,
1.108556,0.0,0.0,0.0,0.0,0.0,0.0,0.0,0.125,0.836181555,0.01,0.0,0.0,0.0,0.0,-0.0,0.0,0.0,0.532226508,0.01,0.0,0.0,0.0,0.0,0.0,0.0,0.125,3.38134731,0.01,0.0,0.0,0.0,0.0,-0.0,0.0,0.125,1.6015623360000002,0.01,0.0,0.3799999952316284,-0.3799999952316284,-1.4199999570846558,0.009765625,0.0040283203125,1.01123046875,28.219999313354492,0.0,16.0,-4.119873046875E-4,-0.018951416015625,Closing,0.0,0.0,0.0,0.0,0.0,0.0,0.0,0.0,
1.131516,0.0,0.0,0.0,0.0,0.0,0.0,0.0,0.125,0.836181555,0.01,0.0,0.0,0.0,0.0,-0.0,0.0,0.0,0.532226508,0.01,0.0,0.0,0.0,0.0,0.0,0.0,0.125,3.3801266070000002,0.01,0.0,0.0,0.0,0.0,-0.0,0.0,0.125,1.6015623360000002,0.01,0.0,0.36000001430511475,-0.3799999952316284,-1.4199999570846558,-0.00531005859375,0.0313720703125,1.03314208984375,28.219999313354492,0.0,1.0,-4.119873046875E-4,-0.01922607421875,Closing,0.0,0.0,0.0,0.0,0.0,0.0,0.0,0.0,
1.1510880000000001,0.0,0.0,0.0,0.0,0.0,0.0,0.0,0.125,0.836181555,0.01,0.0,0.0,0.0,0.0,-0.0,0.0,0.0,0.532226508,0.01,0.0,0.0,0.0,0.0,0.0,0.0,0.125,3.38134731,0.01,0.0,0.0,0.0,0.0,-0.0,0.0,0.125,1.6015623360000002,0.01,0.0,0.36000001430511475,-0.3799999952316284,-1.4199999570846558,-0.001220703125,0.01739501953125,1.03515625,28.219999313354492,0.0,5.0,-4.119873046875E-4,-0.019256591796875,Closing,0.0,0.0,0.0,0.0,0.0,0.0,0.0,0.0,
1.170386,0.0,0.0,0.0,0.0,0.0,0.0,0.0,0.125,0.834960852,0.01,0.0,0.0,0.0,0.0,-0.0,0.0,0.0,0.533447211,0.01,0.0,0.0,0.0,0.0,0.0,0.0,0.125,3.3801266070000002,0.01,0.0,0.0,0.0,0.0,-0.0,0.0,0.125,1.6015623360000002,0.01,0.0,0.3700000047683716,-0.3700000047683716,-1.4199999570846558,-0.038330078125,-0.0157470703125,1.02215576171875,28.219999313354492,0.0,-30.0,-4.2724609375E-4,-0.0193023681640625,Closing,0.0,0.0,0.0,0.0,0.0,0.0,0.0,0.0,
1.193962,0.0,0.0,0.0,0.0,0.0,0.0,0.0,0.125,0.834960852,0.01,0.0,0.0,0.0,0.0,-0.0,0.0,0.0,0.532226508,0.01,0.0,0.0,0.0,0.0,0.0,0.0,0.125,3.3801266070000002,0.01,0.0,0.0,0.0,0.0,-0.0,0.0,0.125,1.6015623360000002,0.01,0.0,0.3700000047683716,-0.3700000047683716,-1.4199999570846558,-0.02142333984375,-0.0213623046875,1.022705078125,28.219999313354492,0.0,-13.0,-4.8828125E-4,-0.0193634033203125,Closing,0.0,0.0,0.0,0.0,0.0,0.0,0.0,0.0,
1.2144610000000002,0.0,0.0,0.0,0.0,0.0,0.0,0.0,0.125,0.836181555,0.01,0.0,0.0,0.0,0.0,-0.0,0.0,0.0,0.531005805,0.01,0.0,0.0,0.0,0.0,0.0,0.0,0.125,3.3801266070000002,0.01,0.0,0.0,0.0,0.0,-0.0,0.0,0.125,1.6015623360000002,0.01,0.0,0.3799999952316284,-0.3700000047683716,-1.4199999570846558,-0.02154541015625,-0.02044677734375,1.03948974609375,28.219999313354492,0.0,-13.0,-5.645751953125E-4,-0.0194549560546875,Closing,0.0,0.0,0.0,0.0,0.0,0.0,0.0,0.0,
1.2384209999999998,0.0,0.0,0.0,0.0,0.0,0.0,0.0,0.125,0.836181555,0.01,0.0,0.0,0.0,0.0,-0.0,0.0,0.0,0.532226508,0.01,0.0,0.0,0.0,0.0,0.0,0.0,0.125,3.38134731,0.01,0.0,0.0,0.0,0.0,-0.0,0.0,0.125,1.6015623360000002,0.01,0.0,0.3700000047683716,-0.3799999952316284,-1.4199999570846558,0.00115966796875,0.0025634765625,1.01641845703125,28.219999313354492,0.0,8.0,-5.645751953125E-4,-0.0197601318359375,Closing,0.0,0.0,0.0,0.0,0.0,0.0,0.0,0.0,
1.2598220000000002,0.0,0.0,0.0,0.0,0.0,0.0,0.0,0.125,0.836181555,0.01,0.0,0.0,0.0,0.0,-0.0,0.0,0.0,0.532226508,0.01,0.0,0.0,0.0,0.0,0.0,0.0,0.125,3.38134731,0.01,0.0,0.0,0.0,0.0,-0.0,0.0,0.125,1.6015623360000002,0.01,0.0,0.3700000047683716,-0.3799999952316284,-1.4199999570846558,0.021240234375,0.0372314453125,1.02056884765625,28.219999313354492,0.0,27.0,-5.340576171875E-4,-0.0199127197265625,Closing,0.0,0.0,0.0,0.0,0.0,0.0,0.0,0.0,
1.2850680000000003,0.0,0.0,0.0,0.0,0.0,0.0,0.0,0.125,0.834960852,0.01,0.0,0.0,0.0,0.0,-0.0,0.0,0.0,0.531005805,0.01,0.0,0.0,0.0,0.0,0.0,0.0,0.125,3.3801266070000002,0.01,0.0,0.0,0.0,0.0,-0.0,0.0,0.125,1.6015623360000002,0.01,0.0,0.36000001430511475,-0.3799999952316284,-1.4199999570846558,-7.32421875E-4,0.04083251953125,1.03607177734375,28.219999313354492,0.0,5.0,-4.2724609375E-4,-0.0200653076171875,Closing,0.0,0.0,0.0,0.0,0.0,0.0,0.0,0.0,
1.3084230000000003,0.0,0.0,0.0,0.0,0.0,0.0,0.0,0.125,0.836181555,0.01,0.0,0.0,0.0,0.0,-0.0,0.0,0.0,0.531005805,0.01,0.0,0.0,0.0,0.0,0.0,0.0,0.125,3.3801266070000002,0.01,0.0,0.0,0.0,0.0,-0.0,0.0,0.125,1.6027830390000002,0.01,0.0,0.36000001430511475,-0.3799999952316284,-1.4199999570846558,-0.00848388671875,0.01373291015625,1.04656982421875,28.219999313354492,0.0,-1.0,-4.2724609375E-4,-0.020111083984375,Closing,0.0,0.0,0.0,0.0,0.0,0.0,0.0,0.0,
1.3316979999999998,0.0,0.0,0.0,0.0,0.0,0.0,0.0,0.125,0.834960852,0.01,0.0,0.0,0.0,0.0,-0.0,0.0,0.0,0.532226508,0.01,0.0,0.0,0.0,0.0,0.0,0.0,0.125,3.3801266070000002,0.01,0.0,0.0,0.0,0.0,-0.0,0.0,0.125,1.6015623360000002,0.01,0.0,0.3700000047683716,-0.3700000047683716,-1.4199999570846558,-0.03802490234375,-0.00628662109375,1.00164794921875,28.219999313354492,0.0,-31.0,-4.57763671875E-4,-0.0201263427734375,Closing,0.0,0.0,0.0,0.0,0.0,0.0,0.0,0.0,
1.3521889999999999,0.0,0.0,0.0,0.0,0.0,0.0,0.0,0.125,0.836181555,0.01,0.0,0.0,0.0,0.0,-0.0,0.0,0.0,0.532226508,0.01,0.0,0.0,0.0,0.0,0.0,0.0,0.0,3.3801266070000002,0.01,0.0,0.0,0.0,0.0,-0.0,0.0,0.125,1.6015623360000002,0.01,0.0,0.3799999952316284,-0.3799999952316284,-1.4199999570846558,-0.0198974609375,-0.02691650390625,1.02642822265625,28.219999313354492,0.0,-12.0,-5.950927734375E-4,-0.0202178955078125,Closing,0.0,0.0,0.0,0.0,0.0,0.0,0.0,0.0,
1.3719459999999999,0.0,0.0,0.0,0.0,0.0,0.0,0.0,0.125,0.836181555,0.01,0.0,0.0,0.0,0.0,-0.0,0.0,0.0,0.532226508,0.01,0.0,0.0,0.0,0.0,0.0,0.0,0.0,3.38134731,0.01,0.0,0.0,0.0,0.0,-0.0,0.0,0.125,1.6015623360000002,0.01,0.0,0.3799999952316284,-0.3799999952316284,-1.4199999570846558,-4.2724609375E-4,-0.02386474609375,1.043701171875,28.219999313354492,0.0,7.0,-5.950927734375E-4,-0.02032470703125,Closing,0.0,0.0,0.0,0.0,0.0,0.0,0.0,0.0,
1.3970909999999999,0.0,0.0,0.0,0.0,0.0,0.0,0.0,0.125,0.836181555,0.01,0.0,0.0,0.0,0.0,-0.0,0.0,0.0,0.532226508,0.01,0.0,0.0,0.0,0.0,0.0,0.0,0.0,3.3801266070000002,0.01,0.0,0.0,0.0,0.0,-0.0,0.0,0.125,1.6015623360000002,0.01,0.0,0.3799999952316284,-0.3799999952316284,-1.4199999570846558,0.0074462890625,-0.00537109375,1.01708984375,28.219999313354492,0.0,14.0,-5.950927734375E-4,-0.0204620361328125,Closing,0.0,0.0,0.0,0.0,0.0,0.0,0.0,0.0,
1.414654,0.0,0.0,0.0,0.0,0.0,0.0,0.0,0.125,0.836181555,0.01,0.0,0.0,0.0,0.0,-0.0,0.0,0.0,0.533447211,0.01,0.0,0.0,0.0,0.0,0.0,0.0,0.125,3.3801266070000002,0.01,0.0,0.0,0.0,0.0,-0.0,0.0,0.125,1.6027830390000002,0.01,0.0,0.3700000047683716,-0.3799999952316284,-1.4199999570846558,0.01434326171875,0.03826904296875,1.020263671875,28.219999313354492,0.0,20.0,-5.645751953125E-4,-0.02069091796875,Closing,0.0,0.0,0.0,0.0,0.0,0.0,0.0,0.0,
1.443185,0.0,0.0,0.0,0.0,0.0,0.0,0.0,0.125,0.834960852,0.01,0.0,0.0,0.0,0.0,-0.0,0.0,0.0,0.532226508,0.01,0.0,0.0,0.0,0.0,0.0,0.0,0.125,3.3801266070000002,0.01,0.0,0.0,0.0,0.0,-0.0,0.0,0.125,1.6015623360000002,0.01,0.0,0.3700000047683716,-0.3700000047683716,-1.4199999570846558,-0.00201416015625,0.0355224609375,1.02459716796875,28.219999313354492,0.0,4.0,-5.18798828125E-4,-0.0207366943359375,Closing,0.0,0.0,0.0,0.0,0.0,0.0,0.0,0.0,
1.464061,0.0,0.0,0.0,0.0,0.0,0.0,0.0,0.125,0.834960852,0.01,0.0,0.0,0.0,0.0,-0.0,0.0,0.0,0.532226508,0.01,0.0,0.0,0.0,0.0,0.0,0.0,0.125,3.3801266070000002,0.01,0.0,0.0,0.0,0.0,-0.0,0.0,0.125,1.6015623360000002,0.01,0.0,0.3700000047683716,-0.3799999952316284,-1.4199999570846558,-0.0093994140625,0.0244140625,1.03125,28.219999313354492,0.0,-2.0,-4.730224609375E-4,-0.0207672119140625,Closing,0.0,0.0,0.0,0.0,0.0,0.0,0.0,0.0,
1.485857,0.0,0.0,0.0,0.0,0.0,0.0,0.0,0.125,0.834960852,0.01,0.0,0.0,0.0,0.0,-0.0,0.0,0.0,0.532226508,0.01,0.0,0.0,0.0,0.0,0.0,0.0,0.125,3.38134731,0.01,0.0,0.0,0.0,0.0,-0.0,0.0,0.125,1.6015623360000002,0.01,0.0,0.3799999952316284,-0.3700000047683716,-1.4199999570846558,-0.027587890625,6.7138671875E-4,0.99932861328125,28.219999313354492,0.0,-20.0,-4.8828125E-4,-0.0207672119140625,Closing,0.0,0.0,0.0,0.0,0.0,0.0,0.0,0.0,
1.5070749999999997,0.0,0.0,0.0,0.0,0.0,0.0,0.0,0.125,0.834960852,0.01,0.0,0.0,0.0,0.0,-0.0,0.0,0.0,0.532226508,0.01,0.0,0.0,0.0,0.0,0.0,0.0,0.0,3.38134731,0.01,0.0,0.0,0.0,0.0,-0.0,0.0,0.125,1.6015623360000002,0.01,0.0,0.3799999952316284,-0.3700000047683716,-1.4199999570846558,-0.03485107421875,-0.017578125,1.0234375,28.219999313354492,0.0,-27.0,-5.340576171875E-4,-0.020843505859375,Closing,0.0,0.0,0.0,0.0,0.0,0.0,0.0,0.0,
1.5314900000000002,0.0,0.0,0.0,0.0,0.0,0.0,0.0,0.125,0.836181555,0.01,0.0,0.0,0.0,0.0,-0.0,0.0,0.0,0.532226508,0.01,0.0,0.0,0.0,0.0,0.0,0.0,0.0,3.38134731,0.01,0.0,0.0,0.0,0.0,-0.0,0.0,0.125,1.6015623360000002,0.01,0.0,0.3799999952316284,-0.3700000047683716,-1.4199999570846558,-0.00640869140625,-0.02239990234375,1.0443115234375,28.239999771118164,0.0,1.0,-6.256103515625E-4,-0.0209503173828125,Closing,0.0,0.0,0.0,0.0,0.0,0.0,0.0,0.0,
1.5506799999999998,0.0,0.0,0.0,0.0,0.0,0.0,0.0,0.125,0.834960852,0.01,0.0,0.0,0.0,0.0,-0.0,0.0,0.0,0.532226508,0.01,0.0,0.0,0.0,0.0,0.0,0.0,0.125,3.3801266070000002,0.01,0.0,0.0,0.0,0.0,-0.0,0.0,0.125,1.6015623360000002,0.01,0.0,0.3799999952316284,-0.3799999952316284,-1.4199999570846558,0.00616455078125,0.01898193359375,1.01727294921875,28.239999771118164,0.0,12.0,-6.256103515625E-4,-0.021209716796875,Closing,0.0,0.0,0.0,0.0,0.0,0.0,0.0,0.0,
1.569646,0.0,0.0,0.0,0.0,0.0,0.0,0.0,0.125,0.836181555,0.01,0.0,0.0,0.0,0.0,-0.0,0.0,0.0,0.533447211,0.01,0.0,0.0,0.0,0.0,0.0,0.0,0.125,3.38134731,0.01,0.0,0.0,0.0,0.0,-0.0,0.0,0.125,1.6015623360000002,0.01,0.0,0.3799999952316284,-0.3799999952316284,-1.4199999570846558,0.0140380859375,0.04437255859375,1.02459716796875,28.239999771118164,0.0,20.0,-5.950927734375E-4,-0.0212860107421875,Closing,0.0,0.0,0.0,0.0,0.0,0.0,0.0,0.0,
1.591793,0.0,0.0,0.0,0.0,0.0,0.0,0.0,0.125,0.836181555,0.01,0.0,0.0,0.0,0.0,-0.0,0.0,0.0,0.532226508,0.01,0.0,0.0,0.0,0.0,0.0,0.0,0.125,3.3801266070000002,0.01,0.0,0.0,0.0,0.0,-0.0,0.0,0.125,1.6027830390000002,0.01,0.0,0.3799999952316284,-0.38999998569488525,-1.4199999570846558,0.00347900390625,0.033447265625,1.02703857421875,28.239999771118164,0.0,-1.0,-5.035400390625E-4,-0.0213623046875,Closing,0.0,0.0,0.0,0.0,0.0,0.0,0.0,0.0,
1.6131190000000002,0.0,0.0,0.0,0.0,0.0,0.0,0.0,0.125,0.834960852,0.01,0.0,0.0,0.0,0.0,-0.0,0.0,0.0,0.532226508,0.01,0.0,0.0,0.0,0.0,0.0,0.0,0.125,3.3801266070000002,0.01,0.0,0.0,0.0,0.0,-0.0,0.0,0.125,1.6015623360000002,0.01,0.0,0.3799999952316284,-0.38999998569488525,-1.4199999570846558,-0.00634765625,0.021484375,1.03717041015625,28.239999771118164,0.0,0.0,-5.035400390625E-4,-0.0213623046875,Closing,0.0,0.0,0.0,0.0,0.0,0.0,0.0,0.0,
1.6371290000000003,0.0,0.0,0.0,0.0,0.0,0.0,0.0,0.125,0.836181555,0.01,0.0,0.0,0.0,0.0,-0.0,0.0,0.0,0.532226508,0.01,0.0,0.0,0.0,0.0,0.0,0.0,0.125,3.3801266070000002,0.01,0.0,0.0,0.0,0.0,-0.0,0.0,0.125,1.6015623360000002,0.01,0.0,0.3799999952316284,-0.3799999952316284,-1.4199999570846558,-0.03863525390625,-0.01837158203125,1.024169921875,28.239999771118164,0.0,-31.0,-5.340576171875E-4,-0.0213775634765625,Closing,0.0,0.0,0.0,0.0,0.0,0.0,0.0,0.0,
1.6694010000000004,0.0,0.0,0.0,0.0,0.0,0.0,0.0,0.125,0.834960852,0.01,0.0,0.0,0.0,0.0,-0.0,0.0,0.0,0.532226508,0.01,0.0,0.0,0.0,0.0,0.0,0.0,0.125,3.38134731,0.01,0.0,0.0,0.0,0.0,-0.0,0.0,0.125,1.6015623360000002,0.01,0.0,0.3799999952316284,-0.38999998569488525,-1.4199999570846558,-0.02227783203125,-0.01800537109375,1.02996826171875,28.239999771118164,0.0,-14.0,-6.103515625E-4,-0.02142333984375,Closing,0.0,0.0,0.0,0.0,0.0,0.0,0.0,0.0,
1.6916240000000002,0.0,0.0,0.0,0.0,0.0,0.0,0.0,0.125,0.834960852,0.01,0.0,0.0,0.0,0.0,-0.0,0.0,0.0,0.532226508,0.01,0.0,0.0,0.0,0.0,0.0,0.0,0.125,3.3801266070000002,0.01,0.0,0.0,0.0,0.0,-0.0,0.0,0.125,1.6015623360000002,0.01,0.0,0.3799999952316284,-0.38999998569488525,-1.4199999570846558,0.0084228515625,-0.00244140625,1.01800537109375,28.239999771118164,0.0,15.0,-6.7138671875E-4,-0.0216522216796875,Closing,0.0,0.0,0.0,0.0,0.0,0.0,0.0,0.0,
1.7141479999999998,0.0,0.0,0.0,0.0,0.0,0.0,0.0,0.125,0.836181555,0.01,0.0,0.0,0.0,0.0,-0.0,0.0,0.0,0.532226508,0.01,0.0,0.0,0.0,0.0,0.0,0.0,0.0,3.3801266070000002,0.01,0.0,0.0,0.0,0.0,-0.0,0.0,0.125,1.6015623360000002,0.01,0.0,0.3799999952316284,-0.38999998569488525,-1.4199999570846558,0.01361083984375,0.044921875,1.01837158203125,28.239999771118164,0.0,19.0,-6.7138671875E-4,-0.0218658447265625,Closing,0.0,0.0,0.0,0.0,0.0,0.0,0.0,0.0,
1.741863,0.0,0.0,0.0,0.0,0.0,0.0,0.0,0.125,0.836181555,0.01,0.0,0.0,0.0,0.0,-0.0,0.0,0.0,0.532226508,0.01,0.0,0.0,0.0,0.0,0.0,0.0,0.0,3.38134731,0.01,0.0,0.0,0.0,0.0,-0.0,0.0,0.125,1.6027830390000002,0.01,0.0,0.3799999952316284,-0.38999998569488525,-1.4199999570846558,0.0013427734375,0.03460693359375,1.03814697265625,28.239999771118164,0.0,7.0,-6.7138671875E-4,-0.0219268798828125,Closing,0.0,0.0,0.0,0.0,0.0,0.0,0.0,0.0,
1.7651839999999996,0.0,0.0,0.0,0.0,0.0,0.0,0.0,0.125,0.836181555,0.01,0.0,0.0,0.0,0.0,-0.0,0.0,0.0,0.532226508,0.01,0.0,0.0,0.0,0.0,0.0,0.0,0.0,3.3801266070000002,0.01,0.0,0.0,0.0,0.0,-0.0,0.0,0.125,1.6015623360000002,0.01,0.0,0.3799999952316284,-0.4000000059604645,-1.4199999570846558,-0.00799560546875,0.02288818359375,1.034423828125,28.239999771118164,0.0,-1.0,-6.7138671875E-4,-0.021942138671875,Closing,0.0,0.0,0.0,0.0,0.0,0.0,0.0,0.0,
1.787127,0.0,0.0,0.0,0.0,0.0,0.0,0.0,0.125,0.836181555,0.01,0.0,0.0,0.0,0.0,-0.0,0.0,0.0,0.532226508,0.01,0.0,0.0,0.0,0.0,0.0,0.0,0.0,3.3801266070000002,0.01,0.0,0.0,0.0,0.0,-0.0,0.0,0.125,1.6015623360000002,0.01,0.0,0.3799999952316284,-0.38999998569488525,-1.4199999570846558,-0.02862548828125,0.0,0.9964599609375,28.239999771118164,0.0,-21.0,-6.866455078125E-4,-0.021942138671875,Closing,0.0,0.0,0.0,0.0,0.0,0.0,0.0,0.0,
1.8084460000000004,0.0,0.0,0.0,0.0,0.0,0.0,0.0,0.125,0.834960852,0.01,0.0,0.0,0.0,0.0,-0.0,0.0,0.0,0.532226508,0.01,0.0,0.0,0.0,0.0,0.0,0.0,0.0,3.3801266070000002,0.01,0.0,0.0,0.0,0.0,-0.0,0.0,0.125,1.6015623360000002,0.01,0.0,0.3799999952316284,-0.38999998569488525,-1.4199999570846558,-0.020751953125,-0.02734375,1.02850341796875,28.239999771118164,0.0,-12.0,-8.087158203125E-4,-0.0220184326171875,Closing,0.0,0.0,0.0,0.0,0.0,0.0,0.0,0.0,
1.8290000000000004,0.0,0.0,0.0,0.0,0.0,0.0,0.0,0.125,0.836181555,0.01,0.0,0.0,0.0,0.0,-0.0,0.0,0.0,0.531005805,0.01,0.0,0.0,0.0,0.0,0.0,0.0,0.125,3.3801266070000002,0.01,0.0,0.0,0.0,0.0,-0.0,0.0,0.125,1.6015623360000002,0.01,0.0,0.38999998569488525,-0.38999998569488525,-1.4199999570846558,-0.005615234375,-0.0225830078125,1.04736328125,28.239999771118164,0.0,2.0,-8.087158203125E-4,-0.0221099853515625,Closing,0.0,0.0,0.0,0.0,0.0,0.0,0.0,0.0,
1.8491630000000001,0.0,0.0,0.0,0.0,0.0,0.0,0.0,0.125,0.834960852,0.01,0.0,0.0,0.0,0.0,-0.0,0.0,0.0,0.532226508,0.01,0.0,0.0,0.0,0.0,0.0,0.0,0.125,3.38134731,0.01,0.0,0.0,0.0,0.0,-0.0,0.0,0.125,1.6027830390000002,0.01,0.0,0.3799999952316284,-0.4000000059604645,-1.4199999570846558,0.00830078125,-0.0059814453125,1.01397705078125,28.239999771118164,0.0,15.0,-8.087158203125E-4,-0.022247314453125,Closing,0.0,0.0,0.0,0.0,0.0,0.0,0.0,0.0,
1.8690970000000002,0.0,0.0,0.0,0.0,0.0,0.0,0.0,0.125,0.834960852,0.01,0.0,0.0,0.0,0.0,-0.0,0.0,0.0,0.532226508,0.01,0.0,0.0,0.0,0.0,0.0,0.0,0.125,3.3801266070000002,0.01,0.0,0.0,0.0,0.0,-0.0,0.0,0.125,1.6015623360000002,0.01,0.0,0.3799999952316284,-0.4000000059604645,-1.4199999570846558,0.0125732421875,0.04010009765625,1.01220703125,28.239999771118164,0.0,18.0,-8.087158203125E-4,-0.0224609375,Closing,0.0,0.0,0.0,0.0,0.0,0.0,0.0,0.0,
1.8922450000000004,0.0,0.0,0.0,0.0,0.0,0.0,0.0,0.125,0.834960852,0.01,0.0,0.0,0.0,0.0,-0.0,0.0,0.0,0.532226508,0.01,0.0,0.0,0.0,0.0,0.0,0.0,0.125,3.3801266070000002,0.01,0.0,0.0,0.0,0.0,-0.0,0.0,0.125,1.6015623360000002,0.01,0.0,0.3799999952316284,-0.4000000059604645,-1.4199999570846558,-0.0023193359375,0.0390625,1.02862548828125,28.239999771118164,0.0,4.0,-8.087158203125E-4,-0.0225067138671875,Closing,0.0,0.0,0.0,0.0,0.0,0.0,0.0,0.0,
1.9108179999999997,0.0,0.0,0.0,0.0,0.0,0.0,0.0,0.125,0.836181555,0.01,0.0,0.0,0.0,0.0,-0.0,0.0,0.0,0.532226508,0.01,0.0,0.0,0.0,0.0,0.0,0.0,0.125,3.3801266070000002,0.01,0.0,0.0,0.0,0.0,-0.0,0.0,0.125,1.6015623360000002,0.01,0.0,0.3799999952316284,-0.4000000059604645,-1.4199999570846558,-0.00811767578125,0.0177001953125,1.02764892578125,28.239999771118164,0.0,-2.0,-8.087158203125E-4,-0.02252197265625,Closing,0.0,0.0,0.0,0.0,0.0,0.0,0.0,0.0,
1.9334720000000003,0.0,0.0,0.0,0.0,0.0,0.0,0.0,0.125,0.836181555,0.01,0.0,0.0,0.0,0.0,-0.0,0.0,0.0,0.531005805,0.01,0.0,0.0,0.0,0.0,0.0,0.0,0.125,3.3801266070000002,0.01,0.0,0.0,0.0,0.0,-0.0,0.0,0.125,1.6015623360000002,0.01,0.0,0.3799999952316284,-0.38999998569488525,-1.4199999570846558,-0.0303955078125,-0.0047607421875,0.9969482421875,28.239999771118164,0.0,-23.0,-8.392333984375E-4,-0.02252197265625,Closing,0.0,0.0,0.0,0.0,0.0,0.0,0.0,0.0,
1.9517900000000004,0.0,0.0,0.0,0.0,0.0,0.0,0.0,0.125,0.836181555,0.01,0.0,0.0,0.0,0.0,-0.0,0.0,0.0,0.532226508,0.01,0.0,0.0,0.0,0.0,0.0,0.0,0.125,3.38134731,0.01,0.0,0.0,0.0,0.0,-0.0,0.0,0.125,1.6027830390000002,0.01,0.0,0.3799999952316284,-0.38999998569488525,-1.4199999570846558,-0.02874755859375,-0.01727294921875,1.023193359375,28.239999771118164,0.0,-21.0,-8.85009765625E-4,-0.022552490234375,Closing,0.0,0.0,0.0,0.0,0.0,0.0,0.0,0.0,
1.9732630000000004,0.0,0.0,0.0,0.0,0.0,0.0,0.0,0.125,0.834960852,0.01,0.0,0.0,0.0,0.0,-0.0,0.0,0.0,0.532226508,0.01,0.0,0.0,0.0,0.0,0.0,0.0,0.125,3.38134731,0.01,0.0,0.0,0.0,0.0,-0.0,0.0,0.125,1.6015623360000002,0.01,0.0,0.3799999952316284,-0.38999998569488525,-1.4199999570846558,0.0023193359375,-0.02099609375,1.04425048828125,28.239999771118164,0.0,10.0,-9.46044921875E-4,-0.0227203369140625,Closing,0.0,0.0,0.0,0.0,0.0,0.0,0.0,0.0,
2.0011780000000003,0.0,0.0,0.0,0.0,0.0,0.0,0.0,0.125,0.834960852,0.01,0.0,0.0,0.0,0.0,-0.0,0.0,0.0,0.532226508,0.01,0.0,0.0,0.0,0.0,0.0,0.0,0.0,3.3801266070000002,0.01,0.0,0.0,0.0,0.0,-0.0,0.0,0.125,1.6027830390000002,0.01,0.0,0.3799999952316284,-0.4000000059604645,-1.4199999570846558,0.007568359375,-0.00341796875,1.01519775390625,28.239999771118164,0.0,14.0,-9.46044921875E-4,-0.022857666015625,Closing,0.0,0.0,0.0,0.0,0.0,0.0,0.0,0.0,
2.017854,0.0,0.0,0.0,0.0,0.0,0.0,0.0,0.125,0.834960852,0.01,0.0,0.0,0.0,0.0,-0.0,0.0,0.0,0.532226508,0.01,0.0,0.0,0.0,0.0,0.0,0.0,0.0,3.3801266070000002,0.01,0.0,0.0,0.0,0.0,-0.0,0.0,0.125,1.6027830390000002,0.01,0.0,0.3799999952316284,-0.4000000059604645,-1.4199999570846558,0.0211181640625,0.03265380859375,1.021484375,28.239999771118164,0.0,27.0,-9.1552734375E-4,-0.022979736328125,Closing,0.0,0.0,0.0,0.0,0.0,0.0,0.0,0.0,
2.043248,0.0,0.0,0.0,0.0,0.0,0.0,0.0,0.125,0.834960852,0.01,0.0,0.0,0.0,0.0,-0.0,0.0,0.0,0.532226508,0.01,0.0,0.0,0.0,0.0,0.0,0.0,0.0,3.38134731,0.01,0.0,0.0,0.0,0.0,-0.0,0.0,0.125,1.6015623360000002,0.01,0.0,0.3799999952316284,-0.4000000059604645,-1.4199999570846558,-0.00360107421875,0.03887939453125,1.03375244140625,28.219999313354492,0.0,2.0,-7.9345703125E-4,-0.0230865478515625,Closing,0.0,0.0,0.0,0.0,0.0,0.0,0.0,0.0,
2.062902,0.0,0.0,0.0,0.0,0.0,0.0,0.0,0.125,0.836181555,0.01,0.0,0.0,0.0,0.0,-0.0,0.0,0.0,0.531005805,0.01,0.0,0.0,0.0,0.0,0.0,0.0,0.125,3.3801266070000002,0.01,0.0,0.0,0.0,0.0,-0.0,0.0,0.125,1.6015623360000002,0.01,0.0,0.3799999952316284,-0.4000000059604645,-1.4199999570846558,-0.00677490234375,0.01959228515625,1.04443359375,28.219999313354492,0.0,0.0,-7.9345703125E-4,-0.023101806640625,Closing,0.0,0.0,0.0,0.0,0.0,0.0,0.0,0.0,
2.0866650000000004,0.0,0.0,0.0,0.0,0.0,0.0,0.0,0.125,0.836181555,0.01,0.0,0.0,0.0,0.0,-0.0,0.0,0.0,0.532226508,0.01,0.0,0.0,0.0,0.0,0.0,0.0,0.125,3.38134731,0.01,0.0,0.0,0.0,0.0,-0.0,0.0,0.125,1.6015623360000002,0.01,0.0,0.3799999952316284,-0.38999998569488525,-1.4199999570846558,-0.037353515625,-0.00799560546875,1.00823974609375,28.219999313354492,0.0,-30.0,-8.23974609375E-4,-0.0230865478515625,Closing,0.0,0.0,0.0,0.0,0.0,0.0,0.0,0.0,
2.1071740000000005,0.0,0.0,0.0,0.0,0.0,0.0,0.0,0.125,0.834960852,0.01,0.0,0.0,0.0,0.0,-0.0,0.0,0.0,0.532226508,0.01,0.0,0.0,0.0,0.0,0.0,0.0,0.125,3.3801266070000002,0.01,0.0,0.0,0.0,0.0,-0.0,0.0,0.125,1.6015623360000002,0.01,0.0,0.3799999952316284,-0.38999998569488525,-1.4199999570846558,-0.02435302734375,-0.0184326171875,1.02496337890625,28.219999313354492,0.0,-16.0,-8.697509765625E-4,-0.0231170654296875,Closing,0.0,0.0,0.0,0.0,0.0,0.0,0.0,0.0,
2.1289509999999994,0.0,0.0,0.0,0.0,0.0,0.0,0.0,0.125,0.836181555,0.01,0.0,0.0,0.0,0.0,-0.0,0.0,0.0,0.532226508,0.01,0.0,0.0,0.0,0.0,0.0,0.0,0.125,3.3801266070000002,0.01,0.0,0.0,0.0,0.0,-0.0,0.0,0.125,1.6015623360000002,0.01,0.0,0.3799999952316284,-0.38999998569488525,-1.4199999570846558,0.0028076171875,-0.02435302734375,1.0450439453125,28.219999313354492,0.0,10.0,-9.46044921875E-4,-0.0233001708984375,Closing,0.0,0.0,0.0,0.0,0.0,0.0,0.0,0.0,
2.149292,0.0,0.0,0.0,0.0,0.0,0.0,0.0,0.125,0.834960852,0.01,0.0,0.0,0.0,0.0,-0.0,0.0,0.0,0.532226508,0.01,0.0,0.0,0.0,0.0,0.0,0.0,0.125,3.3801266070000002,0.01,0.0,0.0,0.0,0.0,-0.0,0.0,0.125,1.6027830390000002,0.01,0.0,0.3799999952316284,-0.4000000059604645,-1.4199999570846558,0.00823974609375,0.0040283203125,1.01287841796875,28.219999313354492,0.0,15.0,-9.46044921875E-4,-0.0234222412109375,Closing,0.0,0.0,0.0,0.0,0.0,0.0,0.0,0.0,
2.1680610000000002,0.0,0.0,0.0,0.0,0.0,0.0,0.0,0.125,0.834960852,0.01,0.0,0.0,0.0,0.0,-0.0,0.0,0.0,0.532226508,0.01,0.0,0.0,0.0,0.0,0.0,0.0,0.125,3.3801266070000002,0.01,0.0,0.0,0.0,0.0,-0.0,0.0,0.125,1.6015623360000002,0.01,0.0,0.3799999952316284,-0.4000000059604645,-1.4199999570846558,0.02099609375,0.0389404296875,1.01446533203125,28.219999313354492,0.0,27.0,-9.1552734375E-4,-0.0235443115234375,Closing,0.0,0.0,0.0,0.0,0.0,0.0,0.0,0.0,
2.1895350000000002,0.0,0.0,0.0,0.0,0.0,0.0,0.0,0.125,0.836181555,0.01,0.0,0.0,0.0,0.0,-0.0,0.0,0.0,0.532226508,0.01,0.0,0.0,0.0,0.0,0.0,0.0,0.125,3.38134731,0.01,0.0,0.0,0.0,0.0,-0.0,0.0,0.125,1.6015623360000002,0.01,0.0,0.3799999952316284,-0.4000000059604645,-1.4199999570846558,-0.00445556640625,0.0362548828125,1.0428466796875,28.219999313354492,0.0,2.0,-8.087158203125E-4,-0.023651123046875,Closing,0.0,0.0,0.0,0.0,0.0,0.0,0.0,0.0,
2.209216,0.0,0.0,0.0,0.0,0.0,0.0,0.0,0.125,0.834960852,0.01,0.0,0.0,0.0,0.0,-0.0,0.0,0.0,0.532226508,0.01,0.0,0.0,0.0,0.0,0.0,0.0,0.125,3.3801266070000002,0.01,0.0,0.0,0.0,0.0,-0.0,0.0,0.125,1.6015623360000002,0.01,0.0,0.3799999952316284,-0.4000000059604645,-1.4199999570846558,-0.0047607421875,0.01690673828125,1.042724609375,28.219999313354492,0.0,2.0,-8.087158203125E-4,-0.023651123046875,Closing,0.0,0.0,0.0,0.0,0.0,0.0,0.0,0.0,
2.229113,0.0,0.0,0.0,0.0,0.0,0.0,0.0,0.125,0.836181555,0.01,0.0,0.0,0.0,0.0,-0.0,0.0,0.0,0.532226508,0.01,0.0,0.0,0.0,0.0,0.0,0.0,0.125,3.3801266070000002,0.01,0.0,0.0,0.0,0.0,-0.0,0.0,0.125,1.6027830390000002,0.01,0.0,0.3799999952316284,-0.4000000059604645,-1.4199999570846558,-0.0369873046875,-0.01092529296875,1.0184326171875,28.219999313354492,0.0,-29.0,-8.392333984375E-4,-0.023651123046875,Closing,0.0,0.0,0.0,0.0,0.0,0.0,0.0,0.0,
2.249872,0.0,0.0,0.0,0.0,0.0,0.0,0.0,0.125,0.834960852,0.01,0.0,0.0,0.0,0.0,-0.0,0.0,0.0,0.532226508,0.01,0.0,0.0,0.0,0.0,0.0,0.0,0.125,3.38134731,0.01,0.0,0.0,0.0,0.0,-0.0,0.0,0.125,1.6015623360000002,0.01,0.0,0.3799999952316284,-0.4000000059604645,-1.4199999570846558,-0.02313232421875,-0.02001953125,1.01446533203125,28.219999313354492,0.0,-15.0,-9.002685546875E-4,-0.023681640625,Closing,0.0,0.0,0.0,0.0,0.0,0.0,0.0,0.0,
2.2698139999999998,0.0,0.0,0.0,0.0,0.0,0.0,0.0,0.125,0.834960852,0.01,0.0,0.0,0.0,0.0,-0.0,0.0,0.0,0.532226508,0.01,0.0,0.0,0.0,0.0,0.0,0.0,0.125,3.38134731,0.01,0.0,0.0,0.0,0.0,-0.0,0.0,0.125,1.6027830390000002,0.01,0.0,0.3799999952316284,-0.4000000059604645,-1.4199999570846558,0.00384521484375,-0.015380859375,1.02618408203125,28.219999313354492,0.0,11.0,-9.613037109375E-4,-0.02386474609375,Closing,0.0,0.0,0.0,0.0,0.0,0.0,0.0,0.0,
2.292721,0.0,0.0,0.0,0.0,0.0,0.0,0.0,0.125,0.836181555,0.01,0.0,0.0,0.0,0.0,-0.0,0.0,0.0,0.532226508,0.01,0.0,0.0,0.0,0.0,0.0,0.0,0.125,3.3801266070000002,0.01,0.0,0.0,0.0,0.0,-0.0,0.0,0.125,1.6015623360000002,0.01,0.0,0.3799999952316284,-0.4000000059604645,-1.4199999570846558,0.01129150390625,0.0084228515625,1.01873779296875,28.219999313354492,0.0,18.0,-9.613037109375E-4,-0.0240020751953125,Closing,0.0,0.0,0.0,0.0,0.0,0.0,0.0,0.0,
2.3137410000000003,0.0,0.0,0.0,0.0,0.0,0.0,0.0,0.125,0.836181555,0.01,0.0,0.0,0.0,0.0,-0.0,0.0,0.0,0.532226508,0.01,0.0,0.0,0.0,0.0,0.0,0.0,0.125,3.3801266070000002,0.01,0.0,0.0,0.0,0.0,-0.0,0.0,0.125,1.6015623360000002,0.01,0.0,0.3799999952316284,-0.4000000059604645,-1.4199999570846558,0.01312255859375,0.04168701171875,1.00726318359375,28.219999313354492,0.0,19.0,-9.613037109375E-4,-0.0240936279296875,Closing,0.0,0.0,0.0,0.0,0.0,0.0,0.0,0.0,
2.3439140000000003,0.0,0.0,0.0,0.0,0.0,0.0,0.0,0.125,0.834960852,0.01,0.0,0.0,0.0,0.0,-0.0,0.0,0.0,0.532226508,0.01,0.0,0.0,0.0,0.0,0.0,0.0,0.125,3.3801266070000002,0.01,0.0,0.0,0.0,0.0,-0.0,0.0,0.125,1.6015623360000002,0.01,0.0,0.3799999952316284,-0.4000000059604645,-1.4199999570846558,-0.005126953125,0.02362060546875,1.0352783203125,28.219999313354492,0.0,1.0,-9.613037109375E-4,-0.024200439453125,Closing,0.0,0.0,0.0,0.0,0.0,0.0,0.0,0.0,
2.3634739999999996,0.0,0.0,0.0,0.0,0.0,0.0,0.0,0.125,0.836181555,0.01,0.0,0.0,0.0,0.0,-0.0,0.0,0.0,0.532226508,0.01,0.0,0.0,0.0,0.0,0.0,0.0,0.125,3.38134731,0.01,0.0,0.0,0.0,0.0,-0.0,0.0,0.125,1.6015623360000002,0.01,0.0,0.3700000047683716,-0.4000000059604645,-1.4199999570846558,-0.00506591796875,0.0205078125,1.0457763671875,28.219999313354492,0.0,1.0,-9.613037109375E-4,-0.024200439453125,Closing,0.0,0.0,0.0,0.0,0.0,0.0,0.0,0.0,
2.3992949999999995,0.0,0.0,0.0,0.0,0.0,0.0,0.0,0.125,0.834960852,0.01,0.0,0.0,0.0,0.0,-0.0,0.0,0.0,0.532226508,0.01,0.0,0.0,0.0,0.0,0.0,0.0,0.0,3.3801266070000002,0.01,0.0,0.0,0.0,0.0,-0.0,0.0,0.125,1.6015623360000002,0.01,0.0,0.3799999952316284,-0.4000000059604645,-1.4199999570846558,-0.02691650390625,-0.02178955078125,1.02197265625,28.219999313354492,0.0,-19.0,-0.0010528564453125,-0.024261474609375,Closing,0.0,0.0,0.0,0.0,0.0,0.0,0.0,0.0,
2.450718,0.0,0.0,0.0,0.0,0.0,0.0,0.0,0.125,0.834960852,0.01,0.0,0.0,0.0,0.0,-0.0,0.0,0.0,0.532226508,0.01,0.0,0.0,0.0,0.0,0.0,0.0,0.0,3.38134731,0.01,0.0,0.0,0.0,0.0,-0.0,0.0,0.125,1.6027830390000002,0.01,0.0,0.3700000047683716,-0.4000000059604645,-1.4199999570846558,0.0115966796875,0.01495361328125,1.01214599609375,28.219999313354492,0.0,18.0,-0.0011138916015625,-0.0246429443359375,Closing,0.0,0.0,0.0,0.0,0.0,0.0,0.0,0.0,
2.509663,0.0,0.0,0.0,0.0,0.0,0.0,0.0,0.125,0.836181555,0.01,0.0,0.0,0.0,0.0,-0.0,0.0,0.0,0.532226508,0.01,0.0,0.0,0.0,0.0,0.0,0.0,0.125,3.38134731,0.01,0.0,0.0,0.0,0.0,-0.0,0.0,0.125,1.6015623360000002,0.01,0.0,0.3700000047683716,-0.4000000059604645,-1.4199999570846558,-0.0352783203125,-0.01416015625,1.022216796875,28.219999313354492,0.0,-27.0,-0.0010528564453125,-0.024871826171875,Closing,0.0,0.0,0.0,0.0,0.0,0.0,0.0,0.0,
2.55477,0.0,0.0,0.0,0.0,0.0,0.0,0.0,0.125,0.836181555,0.01,0.0,0.0,0.0,0.0,-0.0,0.0,0.0,0.532226508,0.01,0.0,0.0,0.0,0.0,0.0,0.0,0.0,3.38134731,0.01,0.0,0.0,0.0,0.0,-0.0,0.0,0.125,1.6027830390000002,0.01,0.0,0.3799999952316284,-0.4000000059604645,-1.4199999570846558,2.44140625E-4,-0.0240478515625,1.04296875,28.239999771118164,0.0,8.0,-0.001129150390625,-0.0250396728515625,Closing,0.0,0.0,0.0,0.0,0.0,0.0,0.0,0.0,
2.59898,0.0,0.0,0.0,0.0,0.0,0.0,0.0,0.125,0.836181555,0.01,0.0,0.0,0.0,0.0,-0.0,0.0,0.0,0.532226508,0.01,0.0,0.0,0.0,0.0,0.0,0.0,0.0,3.3801266070000002,0.01,0.0,0.0,0.0,0.0,-0.0,0.0,0.125,1.6015623360000002,0.01,0.0,0.3700000047683716,-0.4000000059604645,-1.4199999570846558,0.0152587890625,0.0283203125,1.017822265625,28.239999771118164,0.0,21.0,-0.0010986328125,-0.0252838134765625,Closing,0.0,0.0,0.0,0.0,0.0,0.0,0.0,0.0,
2.6228,0.0,0.0,0.0,0.0,0.0,0.0,0.0,0.125,0.834960852,0.01,0.0,0.0,0.0,0.0,-0.0,0.0,0.0,0.532226508,0.01,0.0,0.0,0.0,0.0,0.0,0.0,0.125,3.3801266070000002,0.01,0.0,0.0,0.0,0.0,-0.0,0.0,0.125,1.6015623360000002,0.01,0.0,0.3700000047683716,-0.4000000059604645,-1.4199999570846558,-0.0072021484375,0.01416015625,1.04278564453125,28.239999771118164,0.0,0.0,-9.918212890625E-4,-0.0254364013671875,Closing,0.0,0.0,0.0,0.0,0.0,0.0,0.0,0.0,
2.726895,0.0,0.0,0.0,0.0,0.0,NaN,0.0,0.125,0.836181555,NaN,0.0,0.0,0.0,0.0,NaN,0.0,0.0,0.532226508,NaN,0.0,0.0,0.0,0.0,NaN,0.0,0.0,3.3801266070000002,NaN,0.0,0.0,0.0,0.0,NaN,0.0,0.0,1.6015623360000002,NaN,0.0,0.3700000047683716,-0.4000000059604645,-1.4199999570846558,-6.7138671875E-4,0.0343017578125,1.02899169921875,28.239999771118164,0.0,5.0,-0.0010528564453125,-0.0259552001953125,Closing,0.0,0.0,0.0,0.0,0.0,0.0,0.0,0.0,
2.8290580000000003,0.0,0.0,0.0,0.0,0.0,NaN,0.0,0.0,0.836181555,NaN,0.0,0.0,0.0,0.0,NaN,0.0,0.0,0.532226508,NaN,0.0,0.0,0.0,0.0,NaN,0.0,0.0,3.3801266070000002,NaN,0.0,0.0,0.0,0.0,NaN,0.0,0.0,1.6027830390000002,NaN,0.0,0.3799999952316284,-0.4000000059604645,-1.4199999570846558,0.00653076171875,-0.00946044921875,1.0211181640625,28.239999771118164,0.0,14.0,-0.0011749267578125,-0.0262298583984375,Closing,0.0,0.0,0.0,0.0,0.0,0.0,0.0,0.0,
2.9736780000000005,0.0,0.0,0.0,0.0,0.0,NaN,0.0,0.0,0.834960852,NaN,0.0,0.0,0.0,0.0,NaN,0.0,0.0,0.532226508,NaN,0.0,0.0,0.0,0.0,NaN,0.0,0.0,3.3801266070000002,NaN,0.0,0.0,0.0,0.0,NaN,0.0,0.0,1.6015623360000002,NaN,0.0,0.3700000047683716,-0.4000000059604645,-1.4199999570846558,0.007080078125,0.0360107421875,1.01519775390625,28.239999771118164,0.0,13.0,-0.0011138916015625,-0.0265655517578125,Closing,0.0,0.0,0.0,0.0,0.0,0.0,0.0,0.0,
3.1120719999999995,0.0,0.0,0.0,0.0,0.0,NaN,0.0,0.0,0.834960852,NaN,0.0,0.0,0.0,0.0,NaN,0.0,0.0,0.532226508,NaN,0.0,0.0,0.0,0.0,NaN,0.0,0.0,3.38134731,NaN,0.0,0.0,0.0,0.0,NaN,0.0,0.0,1.6015623360000002,NaN,0.0,0.3799999952316284,-0.38999998569488525,-1.4199999570846558,-0.0201416015625,-0.025390625,1.0364990234375,28.209999084472656,0.0,-12.0,-0.001190185546875,-0.0267333984375,Closing,0.0,0.0,0.0,0.0,0.0,0.0,0.0,0.0,
3.17569,0.0,0.0,0.0,0.0,0.0,NaN,0.0,0.0,0.836181555,NaN,0.0,0.0,0.0,0.0,NaN,0.0,0.0,0.532226508,NaN,0.0,0.0,0.0,0.0,NaN,0.0,0.0,3.38134731,NaN,0.0,0.0,0.0,0.0,NaN,0.0,0.0,1.6015623360000002,NaN,0.0,0.3700000047683716,-0.4000000059604645,-1.4199999570846558,-0.00653076171875,0.02838134765625,1.0379638671875,28.209999084472656,0.0,0.0,-0.0010833740234375,-0.027191162109375,Closing,0.0,0.0,0.0,0.0,0.0,0.0,0.0,0.0,
3.268519,0.0,0.0,0.0,0.0,0.0,NaN,0.0,0.0,0.834960852,NaN,0.0,0.0,0.0,0.0,NaN,0.0,0.0,0.531005805,NaN,0.0,0.0,0.0,0.0,NaN,0.0,0.0,3.3801266070000002,NaN,0.0,0.0,0.0,0.0,NaN,0.0,0.0,1.6027830390000002,NaN,0.0,0.3799999952316284,-0.4000000059604645,-1.4199999570846558,0.00787353515625,-0.00518798828125,1.01702880859375,28.209999084472656,0.0,15.0,-0.001251220703125,-0.0274658203125,Closing,0.0,0.0,0.0,0.0,0.0,0.0,0.0,0.0,
3.40489,0.0,0.0,0.0,0.0,0.0,0.0,0.0,0.0,0.836181555,NaN,0.0,0.0,0.0,0.0,0.0,0.0,0.0,0.532226508,NaN,0.0,0.0,0.0,0.0,0.0,0.0,0.0,3.3801266070000002,NaN,0.0,0.0,0.0,0.0,0.0,0.0,0.0,1.6015623360000002,NaN,0.0,0.3799999952316284,-0.4000000059604645,-1.4199999570846558,0.00433349609375,-0.02374267578125,1.041259765625,28.209999084472656,0.0,12.0,-0.0013885498046875,-0.0279388427734375,Closing,0.0,0.0,0.0,0.0,0.0,0.0,0.0,0.0,
3.4842720000000003,0.0,0.0,0.0,0.0,0.0,0.0,0.0,0.0,0.834960852,NaN,0.0,0.0,0.0,0.0,0.0,0.0,0.0,0.532226508,NaN,0.0,0.0,0.0,0.0,0.0,0.0,0.0,3.38134731,NaN,0.0,0.0,0.0,0.0,0.0,0.0,0.0,1.6015623360000002,NaN,0.0,0.36000001430511475,-0.4000000059604645,-1.4199999570846558,-0.00262451171875,0.01971435546875,1.05224609375,28.209999084472656,0.0,4.0,-0.0012664794921875,-0.028289794921875,Closing,0.0,0.0,0.0,0.0,0.0,0.0,0.0,0.0,
3.529602,0.0,0.0,0.0,0.0,0.0,0.0,0.0,0.0,0.836181555,NaN,0.0,0.0,0.0,0.0,0.0,0.0,0.0,0.532226508,NaN,0.0,0.0,0.0,0.0,0.0,0.0,0.0,3.38134731,NaN,0.0,0.0,0.0,0.0,0.0,0.0,0.0,1.6027830390000002,NaN,0.0,0.3700000047683716,-0.4000000059604645,-1.4299999475479126,-0.02740478515625,-0.0162353515625,1.02398681640625,28.209999084472656,0.0,-19.0,-0.0013580322265625,-0.0283203125,Closing,0.0,0.0,0.0,0.0,0.0,0.0,0.0,0.0,
3.6131780000000004,0.0,0.0,0.0,0.0,0.0,0.0,0.0,0.0,0.834960852,NaN,0.0,0.0,0.0,0.0,0.0,0.0,0.0,0.532226508,NaN,0.0,0.0,0.0,0.0,0.0,0.0,0.0,3.3801266070000002,NaN,0.0,0.0,0.0,0.0,0.0,0.0,0.0,1.6015623360000002,NaN,0.0,0.36000001430511475,-0.4000000059604645,-1.4199999570846558,-0.00238037109375,0.0333251953125,1.03619384765625,28.229999542236328,0.0,4.0,-0.0012969970703125,-0.0283966064453125,Closing,0.0,0.0,0.0,0.0,0.0,0.0,0.0,0.0,
3.660124,0.0,0.0,0.0,0.0,0.0,0.0,0.0,0.0,0.834960852,NaN,0.0,0.0,0.0,0.0,0.0,0.0,0.0,0.532226508,NaN,0.0,0.0,0.0,0.0,0.0,0.0,0.0,3.38134731,NaN,0.0,0.0,0.0,0.0,0.0,0.0,0.0,1.600341633,NaN,0.0,0.36000001430511475,-0.4000000059604645,-1.4299999475479126,-0.01141357421875,0.02545166015625,1.0301513671875,28.229999542236328,0.0,-4.0,-0.0012969970703125,-0.028289794921875,Closing,0.0,0.0,0.0,0.0,0.0,0.0,0.0,0.0,
3.7132850000000004,0.0,0.0,0.0,0.0,0.0,0.0,0.0,0.0,0.834960852,NaN,0.0,0.0,0.0,0.0,0.0,0.0,0.0,0.531005805,NaN,0.0,0.0,0.0,0.0,0.0,0.0,0.0,3.38134731,NaN,0.0,0.0,0.0,0.0,0.0,0.0,0.0,1.6027830390000002,NaN,0.0,0.3700000047683716,-0.4000000059604645,-1.4299999475479126,0.00335693359375,0.00152587890625,1.0108642578125,28.229999542236328,0.0,15.0,-0.0014495849609375,-0.028594970703125,Closing,0.0,0.0,0.0,0.0,0.0,0.0,0.0,0.0,
3.763647,0.0,0.0,0.0,0.0,0.0,0.0,0.0,0.0,0.836181555,NaN,0.0,0.0,0.0,0.0,0.0,0.0,0.0,0.532226508,NaN,0.0,0.0,0.0,0.0,0.0,0.0,0.0,3.38134731,NaN,0.0,0.0,0.0,0.0,0.0,0.0,0.0,1.6015623360000002,NaN,0.0,0.36000001430511475,-0.4000000059604645,-1.4299999475479126,-0.00616455078125,0.02789306640625,1.0369873046875,28.229999542236328,0.0,0.0,-0.001312255859375,-0.02880859375,Closing,0.0,0.0,0.0,0.0,0.0,0.0,0.0,0.0,
3.8133610000000004,0.0,0.0,0.0,0.0,0.0,0.0,0.0,0.0,0.834960852,NaN,0.0,0.0,0.0,0.0,0.0,0.0,0.0,0.532226508,NaN,0.0,0.0,0.0,0.0,0.0,0.0,0.0,3.3801266070000002,NaN,0.0,0.0,0.0,0.0,0.0,0.0,0.0,1.6027830390000002,NaN,0.0,0.3700000047683716,-0.4000000059604645,-1.4299999475479126,-0.02410888671875,-0.015869140625,1.02069091796875,28.229999542236328,0.0,-16.0,-0.00140380859375,-0.0288848876953125,Closing,0.0,0.0,0.0,0.0,0.0,0.0,0.0,0.0,
3.864373,0.0,0.0,0.0,0.0,0.0,0.0,0.0,0.0,0.836181555,NaN,0.0,0.0,0.0,0.0,0.0,0.0,0.0,0.532226508,NaN,0.0,0.0,0.0,0.0,0.0,0.0,0.0,3.38134731,NaN,0.0,0.0,0.0,0.0,0.0,0.0,0.0,1.6015623360000002,NaN,0.0,0.3799999952316284,-0.4000000059604645,-1.4299999475479126,-0.0042724609375,-0.028564453125,1.0562744140625,28.229999542236328,0.0,4.0,-0.0014801025390625,-0.0289764404296875,Closing,0.0,0.0,0.0,0.0,0.0,0.0,0.0,0.0,
3.8848399999999996,0.0,0.0,0.0,0.0,0.0,0.0,0.0,0.0,0.836181555,NaN,0.0,0.0,0.0,0.0,0.0,0.0,0.0,0.532226508,NaN,0.0,0.0,0.0,0.0,0.0,0.0,0.0,3.3801266070000002,NaN,0.0,0.0,0.0,0.0,0.0,0.0,0.0,1.6015623360000002,NaN,0.0,0.3700000047683716,-0.4000000059604645,-1.4299999475479126,0.0098876953125,0.02191162109375,1.0123291015625,28.229999542236328,0.0,16.0,-0.0014801025390625,-0.0291900634765625,Closing,0.0,0.0,0.0,0.0,0.0,0.0,0.0,0.0,
3.9060629999999996,0.0,0.0,0.0,0.0,0.0,0.0,0.0,0.0,0.836181555,NaN,0.0,0.0,0.0,0.0,0.0,0.0,0.0,0.531005805,NaN,0.0,0.0,0.0,0.0,0.0,0.0,0.0,3.3801266070000002,NaN,0.0,0.0,0.0,0.0,0.0,0.0,0.0,1.6027830390000002,NaN,0.0,0.3700000047683716,-0.4000000059604645,-1.4299999475479126,0.00921630859375,0.0380859375,1.01141357421875,28.229999542236328,0.0,15.0,-0.0014801025390625,-0.029266357421875,Closing,0.0,0.0,0.0,0.0,0.0,0.0,0.0,0.0,
3.9286470000000002,0.0,0.0,0.0,0.0,0.0,0.0,0.0,0.0,0.834960852,NaN,0.0,0.0,0.0,0.0,0.0,0.0,0.0,0.532226508,NaN,0.0,0.0,0.0,0.0,0.0,0.0,0.0,3.38134731,NaN,0.0,0.0,0.0,0.0,0.0,0.0,0.0,1.6027830390000002,NaN,0.0,0.36000001430511475,-0.4099999964237213,-1.4299999475479126,-0.00469970703125,0.02093505859375,1.0457763671875,28.229999542236328,0.0,2.0,-0.0014801025390625,-0.0293121337890625,Closing,0.0,0.0,0.0,0.0,0.0,0.0,0.0,0.0,
3.961967,0.0,0.0,0.0,0.0,0.0,NaN,0.0,0.0,0.834960852,NaN,0.0,0.0,0.0,0.0,NaN,0.0,0.0,0.531005805,NaN,0.0,0.0,0.0,0.0,NaN,0.0,0.0,3.38134731,NaN,0.0,0.0,0.0,0.0,NaN,0.0,0.0,1.6015623360000002,NaN,0.0,0.3700000047683716,-0.4000000059604645,-1.4299999475479126,-0.03936767578125,-0.0042724609375,1.01470947265625,28.229999542236328,0.0,-31.0,-0.001495361328125,-0.0293121337890625,Closing,0.0,0.0,0.0,0.0,0.0,0.0,0.0,0.0,
3.9849379999999996,0.0,0.0,0.0,0.0,0.0,NaN,0.0,0.0,0.834960852,NaN,0.0,0.0,0.0,0.0,NaN,0.0,0.0,0.531005805,NaN,0.0,0.0,0.0,0.0,NaN,0.0,0.0,3.38134731,NaN,0.0,0.0,0.0,0.0,NaN,0.0,0.0,1.6015623360000002,NaN,0.0,0.3799999952316284,-0.4000000059604645,-1.4299999475479126,-0.018798828125,-0.027099609375,1.0438232421875,28.229999542236328,0.0,-10.0,-0.0016326904296875,-0.0294036865234375,Closing,0.0,0.0,0.0,0.0,0.0,0.0,0.0,0.0,
4.02557,0.0,0.0,0.0,0.0,0.0,NaN,0.0,0.0,0.834960852,NaN,0.0,0.0,0.0,0.0,NaN,0.0,0.0,0.532226508,NaN,0.0,0.0,0.0,0.0,NaN,0.0,0.0,3.3801266070000002,NaN,0.0,0.0,0.0,0.0,NaN,0.0,0.0,1.6027830390000002,NaN,0.0,0.3700000047683716,-0.41999998688697815,-1.4299999475479126,0.00787353515625,0.006591796875,1.01617431640625,28.229999542236328,0.0,15.0,-0.0016326904296875,-0.0296173095703125,Closing,0.0,0.0,0.0,0.0,0.0,0.0,0.0,0.0,
4.0479519999999996,0.0,0.0,0.0,0.0,0.0,NaN,0.0,0.0,0.834960852,NaN,0.0,0.0,0.0,0.0,NaN,0.0,0.0,0.532226508,NaN,0.0,0.0,0.0,0.0,NaN,0.0,0.0,3.38134731,NaN,0.0,0.0,0.0,0.0,NaN,0.0,0.0,1.6015623360000002,NaN,0.0,0.3700000047683716,-0.41999998688697815,-1.4299999475479126,0.01580810546875,0.041748046875,1.00213623046875,28.229999542236328,0.0,22.0,-0.001617431640625,-0.029693603515625,Closing,0.0,0.0,0.0,0.0,0.0,0.0,0.0,0.0,
4.090948,0.0,0.0,0.0,0.0,0.0,NaN,0.0,0.0,0.834960852,NaN,0.0,0.0,0.0,0.0,NaN,0.0,0.0,0.532226508,NaN,0.0,0.0,0.0,0.0,NaN,0.0,0.0,3.3801266070000002,NaN,0.0,0.0,0.0,0.0,NaN,0.0,0.0,1.6027830390000002,NaN,0.0,0.3799999952316284,-0.4099999964237213,-1.4299999475479126,-0.02911376953125,0.0018310546875,1.0023193359375,28.229999542236328,0.0,-21.0,-0.0015411376953125,-0.0297698974609375,Closing,0.0,0.0,0.0,0.0,0.0,0.0,0.0,0.0,
4.136409,0.0,0.0,0.0,0.0,0.0,NaN,0.0,0.0,0.836181555,NaN,0.0,0.0,0.0,0.0,NaN,0.0,0.0,0.532226508,NaN,0.0,0.0,0.0,0.0,NaN,0.0,0.0,3.38134731,NaN,0.0,0.0,0.0,0.0,NaN,0.0,0.0,1.6015623360000002,NaN,0.0,0.38999998569488525,-0.41999998688697815,-1.4299999475479126,0.01129150390625,0.00152587890625,1.01641845703125,28.229999542236328,0.0,18.0,-0.0016632080078125,-0.0300445556640625,Closing,0.0,0.0,0.0,0.0,0.0,0.0,0.0,0.0,
4.171226000000001,0.0,0.0,0.0,0.0,0.0,NaN,0.0,0.0,0.836181555,NaN,0.0,0.0,0.0,0.0,NaN,0.0,0.0,0.532226508,NaN,0.0,0.0,0.0,0.0,NaN,0.0,0.0,3.3801266070000002,NaN,0.0,0.0,0.0,0.0,NaN,0.0,0.0,1.6015623360000002,NaN,0.0,0.38999998569488525,-0.41999998688697815,-1.4299999475479126,0.02032470703125,0.03515625,1.004638671875,28.229999542236328,0.0,26.0,-0.0016326904296875,-0.0301361083984375,Closing,0.0,0.0,0.0,0.0,0.0,0.0,0.0,0.0,
4.212073,0.0,0.0,0.0,0.0,0.0,NaN,0.0,0.0,0.836181555,NaN,0.0,0.0,0.0,0.0,NaN,0.0,0.0,0.532226508,NaN,0.0,0.0,0.0,0.0,NaN,0.0,0.0,3.3801266070000002,NaN,0.0,0.0,0.0,0.0,NaN,0.0,0.0,1.6015623360000002,NaN,0.0,0.3799999952316284,-0.41999998688697815,-1.440000057220459,-0.0023193359375,0.02044677734375,1.045654296875,28.229999542236328,0.0,5.0,-0.0015106201171875,-0.0302581787109375,Closing,0.0,0.0,0.0,0.0,0.0,0.0,0.0,0.0,
4.363604,0.0,0.0,0.0,0.0,0.0,NaN,0.0,0.0,0.836181555,NaN,0.0,0.0,0.0,0.0,NaN,0.0,0.0,0.532226508,NaN,0.0,0.0,0.0,0.0,NaN,0.0,0.0,3.38134731,NaN,0.0,0.0,0.0,0.0,NaN,0.0,0.0,1.6015623360000002,NaN,0.0,0.3799999952316284,-0.4099999964237213,-1.440000057220459,-0.0191650390625,0.00970458984375,1.00677490234375,28.229999542236328,0.0,-11.0,-0.001556396484375,-0.030792236328125,Closing,0.0,0.0,0.0,0.0,0.0,0.0,0.0,0.0,
4.424442000000001,0.0,0.0,0.0,0.0,0.0,218.66249999999994,0.0,0.0,0.837402258,1.2330627500000013,0.0,0.0,0.0,0.0,-218.66249999999994,0.0,0.0,0.532226508,1.2409425000000012,0.0,0.0,0.0,0.0,218.66249999999994,0.0,0.0,3.3789059040000002,1.2351000000000012,0.0,0.0,0.0,0.0,218.66249999999994,0.0,0.0,1.6027830390000002,3.7185000000000015,0.0,0.38999998569488525,-0.4099999964237213,-1.440000057220459,0.00347900390625,-0.0023193359375,1.0184326171875,28.229999542236328,0.0,11.0,-0.0016937255859375,-0.031005859375,Closing,0.0,0.0,0.0,0.0,0.0,0.0,0.0,0.0,
4.491656999999999,0.0,0.0,0.0,0.0,0.0,218.66249999999994,0.0,0.75,0.836181555,1.2330627500000013,0.0,0.0,0.0,0.0,-218.66249999999994,0.0,0.0,0.531005805,1.2409425000000012,0.0,0.0,0.125,0.0,218.66249999999994,0.0,0.0,3.3801266070000002,1.2351000000000012,0.0,0.0,0.0,0.0,218.66249999999994,0.0,0.0,1.6015623360000002,3.7185000000000015,0.0,0.3799999952316284,-0.4099999964237213,-1.4299999475479126,-0.01898193359375,0.008056640625,1.00689697265625,28.229999542236328,0.0,-11.0,-0.0015869140625,-0.0311737060546875,Closing,0.0,0.0,0.0,0.0,0.0,0.0,0.0,0.0,
4.5593960000000004,0.0,0.0,0.0,0.125,0.0,218.66249999999994,0.0,5.5,1.1914061280000001,1.2330627500000013,0.1708984200000001,0.0,0.0,0.0,-218.66249999999994,0.0,7.625,0.794677653,1.2409425000000012,0.0,0.0,0.125,0.0,218.66249999999994,0.0,5.75,3.701171496,1.2351000000000012,0.0,1.0,0.125,7.5,218.66249999999994,0.0,6.75,1.262206902,3.7185000000000015,0.0,0.3700000047683716,-0.41999998688697815,-1.4299999475479126,0.01904296875,0.0831298828125,1.01458740234375,28.229999542236328,0.0,24.0,-0.0015106201171875,-0.0311279296875,Closing,0.0,0.0,0.0,0.0,0.0,0.0,0.0,0.0,
4.6185149999999995,0.0,0.0,0.0,0.125,0.0,218.66249999999994,0.0,1.75,1.569824058,1.2330627500000013,0.4602050309999999,0.0,0.0,0.0,-218.66249999999994,0.0,1.25,1.234130733,1.2409425000000012,0.4846190909999999,0.0,0.375,0.0,218.66249999999994,0.0,2.0,4.117431219,1.2351000000000012,0.4602050310000001,9.0,0.125,22.5,218.66249999999994,0.0,1.75,0.850829991,3.7185000000000015,-0.4626464370000001,0.4099999964237213,-0.4099999964237213,-1.3300000429153442,-4.2724609375E-4,-0.03662109375,1.06634521484375,28.219999313354492,0.0,8.0,-7.9345703125E-4,-0.0303802490234375,Closing,0.0,0.0,0.0,0.0,0.0,0.0,0.0,0.0,
4.650208,0.0,0.0,0.0,0.125,0.0,218.66249999999994,0.0,1.875,1.72119123,1.2330627500000013,0.18554685599999998,-2.0,0.0,0.0,-218.66249999999994,0.0,1.25,1.3952635290000002,1.2409425000000012,0.0,0.0,0.375,0.0,218.66249999999994,0.0,2.0,4.433593296000001,1.2351000000000012,0.21972654000000036,9.0,0.125,67.5,218.66249999999994,0.0,1.0,0.5029296360000001,3.7185000000000015,0.0,0.44999998807907104,-0.3100000023841858,-1.2899999618530273,0.1107177734375,0.0621337890625,0.99981689453125,28.219999313354492,0.0,114.0,7.781982421875E-4,-0.02960205078125,Closing,0.0,0.0,0.0,0.0,0.0,0.0,0.0,0.0,
4.787845999999999,0.0,0.0,3.0,0.375,7.5,0.0,0.0,0.5,2.18505837,1.2330627500000013,0.499267527,-15.0,0.0,-75.0,0.0,0.0,0.5,1.9140623040000002,1.2409425000000012,0.5554198650000002,0.0,0.75,0.0,0.0,0.0,0.375,4.830321771,1.2351000000000012,0.5920409549999999,19.0,0.125,52.5,0.0,0.0,0.5,0.17822263800000002,3.7185000000000015,-0.5541991619999997,0.4399999976158142,-0.41999998688697815,-1.4600000381469727,-0.07073974609375,0.0224609375,0.99615478515625,28.219999313354492,0.0,-63.0,0.004119873046875,-0.0299835205078125,Closing,0.0,0.0,0.0,0.0,0.0,0.0,0.0,0.0,
4.81109,0.0,0.0,3.0,0.125,22.5,0.0,0.0,0.5,2.207031024,1.2330627500000013,0.499267527,-15.0,0.0,-75.0,0.0,0.0,0.5,1.9519040970000001,1.2409425000000012,0.5554198650000002,0.0,0.25,0.0,0.0,0.0,0.625,4.859618643,1.2351000000000012,0.5920409549999999,19.0,0.0,45.0,0.0,0.0,0.625,0.179443341,3.7185000000000015,-0.5541991619999997,0.4099999964237213,-0.44999998807907104,-1.440000057220459,-0.00103759765625,-0.03533935546875,1.02703857421875,28.219999313354492,0.0,8.0,0.0043487548828125,-0.0302581787109375,Closing,0.0,0.0,0.0,0.0,0.0,0.0,0.0,0.0,
4.8310699999999995,0.0,0.0,3.0,0.0,30.0,0.0,0.0,0.375,2.186279073,1.2330627500000013,0.499267527,-15.0,0.0,-67.5,0.0,0.0,0.25,1.9482419880000001,1.2409425000000012,0.5554198650000002,0.0,0.125,0.0,0.0,0.0,0.625,4.843749504,1.2351000000000012,0.5920409549999999,19.0,0.0,37.5,0.0,0.0,0.625,0.20385740100000002,3.7185000000000015,-0.06835936800000031,0.4000000059604645,-0.44999998807907104,-1.409999966621399,-0.03057861328125,0.0113525390625,0.9102783203125,28.219999313354492,0.0,-23.0,0.00433349609375,-0.03045654296875,Closing,0.0,0.0,0.0,0.0,0.0,0.0,0.0,0.0,
4.854217,0.0,0.0,3.0,0.0,30.0,0.0,0.0,0.25,2.1728513400000002,1.2330627500000013,0.04638671400000005,-15.0,0.0,-52.5,0.0,0.0,0.25,1.92871074,1.2409425000000012,0.10620116099999954,0.0,0.0,0.0,0.0,0.0,0.5,4.80956982,1.2351000000000012,0.09399413099999965,19.0,0.0,22.5,0.0,0.0,0.375,0.23193357,3.7185000000000015,-0.06835936800000031,0.38999998569488525,-0.4399999976158142,-1.3700000047683716,0.00848388671875,-0.0418701171875,1.06707763671875,28.219999313354492,0.0,17.0,0.0042877197265625,-0.031005859375,Closing,0.0,0.0,0.0,0.0,0.0,0.0,0.0,0.0,
4.876558999999999,0.0,0.0,5.0,0.0,15.0,0.0,0.0,0.125,2.149657983,1.2330627500000013,0.04638671400000005,-19.0,0.0,-30.0,0.0,0.0,0.0,1.8994138680000001,1.2409425000000012,0.10620116099999954,0.0,0.0,0.0,0.0,0.0,0.25,4.770507324,1.2351000000000012,0.09399413099999965,20.0,0.0,15.0,0.0,0.0,0.25,0.266113254,3.7185000000000015,-0.06835936800000031,0.36000001430511475,-0.4300000071525574,-1.3600000143051147,0.03289794921875,-0.01129150390625,0.96697998046875,28.219999313354492,0.0,40.0,0.0043182373046875,-0.0313720703125,Closing,0.0,0.0,0.0,0.0,0.0,0.0,0.0,0.0,
4.905270000000001,0.0,0.0,5.0,0.0,7.5,0.0,0.0,0.125,2.1203611110000002,1.2330627500000013,-0.0354003869999997,-19.0,0.0,-15.0,0.0,0.0,0.0,1.8652341840000002,1.2409425000000012,-0.03417968399999971,0.0,0.0,0.0,0.0,0.0,0.125,4.731444828,1.2351000000000012,-0.05493163499999998,20.0,0.0,7.5,0.0,0.0,0.125,0.300292938,3.7185000000000015,0.05004882300000002,0.3499999940395355,-0.4399999976158142,-1.3600000143051147,0.00469970703125,0.02618408203125,1.04510498046875,28.219999313354492,0.0,12.0,0.004364013671875,-0.0317230224609375,Closing,0.0,0.0,0.0,0.0,0.0,0.0,0.0,0.0,
4.925221,0.0,0.0,5.0,0.0,0.0,0.0,0.0,0.125,2.102050566,1.2330627500000013,-0.0354003869999997,-19.0,0.0,-7.5,0.0,0.0,0.0,1.8457029360000001,1.2409425000000012,-0.03417968399999971,0.0,0.0,0.0,0.0,0.0,0.125,4.721679204,1.2351000000000012,-0.05493163499999998,20.0,0.0,0.0,0.0,0.0,0.25,0.31616207700000004,3.7185000000000015,0.05004882300000002,0.3100000023841858,-0.41999998688697815,-1.3899999856948853,0.007080078125,-0.00634765625,0.96514892578125,28.219999313354492,0.0,14.0,0.0044403076171875,-0.0324249267578125,Closing,0.0,0.0,0.0,0.0,0.0,0.0,0.0,0.0,
