Time,ClimberA1,ClimberA2,FRpos,FRCurrent,FRspeed,FRsetpoint,FRApos,FRACurrent,FREncpos,FREncSetpoint,FREncSpeed,FLpos,FLCurrent,FLspeed,FLsetpoint,FLApos,FLACurrent,FLEncpos,FLEncSetpoint,FLEncSpeed,BRpos,BRCurrent,BRspeed,BRsetpoint,BRApos,BRACurrent,BREncpos,BREncSetpoint,BREncSpeed,BLpos,BLCurrent,BLspeed,BLsetpoint,BLApos,BLACurrent,BLEncpos,BLEncSetpoint,BLEncSpeed,navx_Pitch,navx_Roll,navx_Yaw,navx_XAcc,navx_YAcc,navx_ZAcc,navx_Temp,navx_Bar,navx_Alt,navx_XDis,navx_YDis,GearPlacerState,ShootOutputV,ShootOutputCurrent,ShootEncPos,ShootEncVelocity,ShootSpeed,ShootSetpoint,CarouselSetpoint,CarouselCurrent,
0.1591820000000007,0.0,0.0,-16820.0,0.0,0.0,0.0,0.0,0.125,0.8032225740000001,0.01,0.0,16216.0,0.0,0.0,0.0,0.0,0.125,0.527343696,0.01,0.0,-1543.0,0.0,0.0,0.0,0.0,0.0,3.343505517,0.01,0.0,3969.0,0.125,0.0,0.0,0.0,0.25,1.597900227,0.01,0.0,0.5199999809265137,-0.3499999940395355,174.97999572753906,-0.00860595703125,0.00933837890625,1.01416015625,37.150001525878906,0.0,2.0,0.8502349853515625,2.3391876220703125,Closing,0.0,0.0,0.0,0.0,0.0,0.0,0.0,0.0,
0.2265240000000049,0.0,0.0,-16820.0,0.875,22.5,630.0,0.0,0.125,0.8032225740000001,0.01,0.0,16216.0,0.75,-22.5,-630.0,0.0,0.125,0.527343696,0.01,-0.0024414059999999793,-1543.0,1.375,0.0,630.0,0.0,0.0,3.343505517,0.01,0.0,3969.0,0.75,-45.0,-630.0,0.0,0.25,1.596679524,0.01,0.0,0.5199999809265137,-0.3499999940395355,174.99000549316406,0.04803466796875,-0.01214599609375,1.01019287109375,37.150001525878906,0.0,-55.0,0.8502044677734375,2.3391876220703125,Closing,0.0,0.0,0.0,0.0,0.0,0.0,0.0,0.0,
0.30922000000000116,0.0,0.0,-16791.0,0.125,180.0,NaN,0.0,0.125,0.806884683,NaN,0.0,16190.0,0.375,-180.0,NaN,0.0,0.125,0.527343696,NaN,0.0024414059999999793,-1541.0,0.75,15.0,NaN,0.0,0.0,3.34472622,NaN,0.0,3947.0,0.25,-157.5,NaN,0.0,0.125,1.6076658510000001,NaN,0.0,0.5699999928474426,-0.05999999865889549,174.99000549316406,0.0587158203125,-0.10491943359375,0.88909912109375,37.150001525878906,0.0,-69.0,0.848663330078125,2.338531494140625,Closing,0.0,0.0,0.0,0.0,0.0,0.0,0.0,0.0,
0.3841090000000113,0.0,0.0,-16797.0,0.125,7.5,NaN,0.0,0.125,0.8032225740000001,NaN,0.0012207029999995456,16192.0,0.0,0.0,NaN,0.0,0.0,0.5285643990000001,NaN,0.0,-1539.0,0.125,7.5,NaN,0.0,0.0,3.343505517,NaN,0.0012207030000004337,3945.0,0.375,-15.0,NaN,0.0,0.125,1.6076658510000001,NaN,0.009765623999999917,0.550000011920929,-0.3100000023841858,174.9499969482422,-0.086181640625,0.00909423828125,1.053466796875,37.150001525878906,0.0,79.0,0.8476715087890625,2.3387451171875,Closing,0.0,0.0,0.0,0.0,0.0,0.0,0.0,0.0,
0.46038300000000165,0.0,0.0,-16797.0,0.125,0.0,NaN,0.0,0.125,0.8032225740000001,NaN,0.0,16192.0,0.0,0.0,NaN,0.0,0.0,0.527343696,NaN,-0.0012207029999995456,-1539.0,0.125,0.0,NaN,0.0,0.0,3.343505517,NaN,0.0,3945.0,0.375,0.0,NaN,0.0,0.125,1.6076658510000001,NaN,0.0,0.5600000023841858,-0.44999998807907104,174.9600067138672,-0.06793212890625,-0.02655029296875,1.07659912109375,37.150001525878906,0.0,55.0,0.8486480712890625,2.339202880859375,Closing,0.0,0.0,0.0,0.0,0.0,0.0,0.0,0.0,
0.5627000000000116,0.0,0.0,-16797.0,0.125,0.0,NaN,0.0,0.125,0.8020018710000001,NaN,-0.0012207029999995456,16192.0,0.0,0.0,NaN,0.0,0.0,0.5297851020000001,NaN,0.0,-1539.0,0.375,0.0,NaN,0.0,0.0,3.34472622,NaN,0.0,3945.0,0.375,0.0,NaN,0.0,0.125,1.6052244450000002,NaN,0.0,0.5600000023841858,-0.4300000071525574,174.97999572753906,0.04278564453125,0.04052734375,1.0201416015625,37.150001525878906,0.0,-47.0,0.8493499755859375,2.3394622802734375,Closing,0.0,0.0,0.0,0.0,0.0,0.0,0.0,0.0,
0.6207300000000104,0.0,0.0,-16797.0,0.875,0.0,630.5250000000001,0.0,0.125,0.8032225740000001,0.032036047884503926,0.0,16186.0,2.5,-15.0,-630.5250000000001,0.0,0.0,0.535888617,0.032240770676039004,0.0,-1538.0,2.125,0.0,630.5250000000001,0.0,0.0,3.34472622,0.03208897741996569,0.0,3943.0,2.125,-7.5,-630.5250000000001,0.0,0.125,1.6113279600000001,0.03220329326536108,0.0012207030000004337,0.5299999713897705,-0.07999999821186066,175.0,0.08251953125,0.00921630859375,0.955810546875,37.150001525878906,0.0,-83.0,0.8469390869140625,2.33929443359375,Closing,0.0,0.0,0.0,0.0,0.0,0.0,0.0,0.0,
0.8149120000000112,0.0,0.0,-16766.0,1.875,180.0,NaN,0.0,0.25,0.772704999,NaN,0.0,16165.0,3.5,-187.5,NaN,0.0,0.125,0.5944823610000001,NaN,0.06347655599999946,-1517.0,2.875,180.0,NaN,0.0,0.0,3.348388329,NaN,0.0,3922.0,1.75,-195.0,NaN,0.0,0.25,1.674804516,NaN,-4.903068365,0.6000000238418579,0.47999998927116394,174.89999389648438,-0.0059814453125,-0.0045166015625,0.98223876953125,37.150001525878906,0.0,12.0,0.830322265625,2.3391265869140625,Closing,0.0,0.0,0.0,0.0,0.0,0.0,0.0,0.0,
0.9584860000000044,0.0,0.0,-16730.0,1.25,232.5,631.1806359167318,0.0,0.125,0.8032225740000001,0.048020776768673376,0.0,16132.0,2.5,-225.0,-631.1806359167318,0.0,0.0,0.588378846,0.048327648187620184,0.0,-1483.0,2.5,217.5,631.1806359167318,0.0,0.0,3.348388329,0.04810011606221053,0.0,3848.0,2.5,-217.5,-631.1806359167318,0.0,0.125,1.6882322490000001,0.04827147102186863,0.0,0.6399999856948853,0.4000000059604645,174.72000122070312,0.053466796875,0.01385498046875,1.137939453125,37.150001525878906,0.0,-45.0,0.8126220703125,2.3394927978515625,Closing,0.0,0.0,0.0,0.0,0.0,0.0,0.0,0.125,
1.144626000000004,0.0,0.0,-16627.0,3.625,397.5,631.1806359167318,0.0,0.25,0.808105386,0.048020776768673376,0.006103514999999504,16034.0,4.75,-367.5,-631.1806359167318,0.0,0.25,0.5944823610000001,0.048327648187620184,0.0,-1390.0,4.5,345.0,631.1806359167318,0.0,0.0,3.3630367650000004,0.04810011606221053,0.003662108999999525,3793.0,3.75,-367.5,-631.1806359167318,0.0,0.25,1.6833494370000002,0.04827147102186863,0.004882811999999959,0.7200000286102295,0.9700000286102295,174.57000732421875,0.1318359375,0.0015869140625,0.96832275390625,37.150001525878906,0.0,-115.0,0.7868499755859375,2.3374481201171875,Closing,0.0,0.0,0.0,0.0,0.0,0.0,0.0,0.0,
1.227642000000007,0.0,0.0,-16544.0,3.125,487.5,630.5250000000001,0.0,0.25,0.812988198,0.032036047884503926,-0.0012207029999995456,15954.0,4.25,-487.5,-630.5250000000001,0.0,0.25,0.5944823610000001,0.032240770676039004,0.004882811999999959,-1313.0,4.125,472.5,630.5250000000001,0.0,0.0,3.3728023890000003,0.03208897741996569,-4.9306343759999995,3718.0,3.5,-487.5,-630.5250000000001,0.0,0.25,1.6857908430000001,0.03220329326536108,-0.0012207029999999897,0.8100000023841858,1.3300000429153442,174.47000122070312,0.071044921875,-0.02093505859375,0.8087158203125,37.13999938964844,0.0,-55.0,0.7638092041015625,2.334625244140625,Closing,0.0,0.0,0.0,0.0,0.0,0.0,0.0,0.125,
1.4212200000000013,0.0,0.0,-16444.0,0.75,630.0,NaN,0.0,0.125,0.808105386,NaN,0.0,15859.0,0.875,-585.0,NaN,0.0,0.25,0.574951113,NaN,-0.004882811999999959,-1217.0,1.125,630.0,NaN,0.0,0.0,3.3776852010000002,NaN,0.010986326999999907,3626.0,1.125,-592.5,NaN,0.0,0.125,1.6845701400000002,NaN,0.0012207029999999897,0.800000011920929,1.3200000524520874,174.10000610351562,-0.0703125,-0.09625244140625,1.03570556640625,37.13999938964844,0.0,82.0,0.7462158203125,2.3347015380859375,Closing,0.0,0.0,0.0,0.0,0.0,0.0,0.0,0.125,
1.4950149999999993,0.0,0.0,-16366.0,0.875,510.0,630.2953663077831,0.0,0.125,0.8154296040000001,0.024032872372424734,0.0012207029999995456,15783.0,1.25,-457.5,-630.2953663077831,0.0,0.0,0.56152338,0.024186451763316734,-0.023193357000000248,-1124.0,1.125,555.0,630.2953663077831,0.0,0.0,3.3789059040000002,0.02407257916694166,0.004882811999999959,3543.0,1.25,-495.0,-630.2953663077831,0.0,0.125,1.6894529520000001,0.02415833687751938,-0.004882811999999959,0.7699999809265137,1.1200000047683716,173.99000549316406,-0.1751708984375,-0.01904296875,1.08642578125,37.13999938964844,0.0,61.0,0.7493438720703125,2.33709716796875,Closing,0.0,0.0,0.0,0.0,0.0,0.0,0.0,0.125,
1.5683290000000125,0.0,0.0,-16366.0,0.375,637.5,NaN,0.0,0.125,0.825195228,NaN,0.004882811999999959,15685.0,0.25,-667.5,NaN,0.0,0.0,0.562744083,NaN,-0.006103514999999504,-1038.0,0.75,495.0,NaN,0.0,0.0,3.382568013,NaN,0.0024414059999999793,3447.0,0.625,-630.0,NaN,0.0,0.125,1.6845701400000002,NaN,0.003662108999999969,0.6800000071525574,0.9900000095367432,174.02999877929688,-0.07745361328125,-0.11279296875,0.80059814453125,37.13999938964844,0.0,78.0,0.7551422119140625,2.3404388427734375,Closing,0.0,0.0,0.0,0.0,0.0,0.0,0.0,0.0,
1.746245999999999,0.0,0.0,-16207.0,0.0,375.0,NaN,0.0,0.125,0.8276366340000001,NaN,-4.918823267,15620.0,0.0,-420.0,NaN,0.0,0.0,0.56152338,NaN,0.0,-968.0,0.125,397.5,NaN,0.0,0.0,3.402099261,NaN,0.020751950999999824,3386.0,0.125,-412.5,NaN,0.0,0.125,1.674804516,NaN,-0.013427733000000108,0.6100000143051147,-0.10000000149011612,174.0399932861328,-0.06396484375,-0.031005859375,0.90240478515625,37.040000915527344,0.0,57.0,0.7854156494140625,2.345916748046875,Closing,0.0,0.0,0.0,0.0,0.0,0.0,0.0,0.125,
1.8923770000000077,0.0,0.0,-16162.0,0.5,240.0,630.2953663077831,0.0,0.125,0.8276366340000001,4.908218127627576,0.0,15575.0,0.5,-240.0,-630.2953663077831,0.0,0.0,0.5566405680000001,4.939583548236683,0.0,-920.0,0.875,217.5,630.2953663077831,0.0,0.0,3.402099261,4.916327420833059,0.0012207029999999897,3339.0,0.75,-225.0,-630.2953663077831,0.0,0.125,1.6894529520000001,4.933841663122481,0.0,0.5600000023841858,-0.7599999904632568,174.02000427246094,-0.08319091796875,-0.06195068359375,1.00787353515625,37.040000915527344,0.0,61.0,0.828826904296875,2.34661865234375,Closing,0.0,0.0,0.0,0.0,0.0,0.0,0.0,0.0,
2.082136000000013,0.0,0.0,-16075.0,2.25,210.0,630.2953663077831,0.0,0.25,0.8178710100000001,4.908218127627576,4.923706079,15489.0,2.75,-202.5,-630.2953663077831,0.0,0.25,0.522460884,4.939583548236683,-0.02075195099999938,-841.0,3.0,240.0,630.2953663077831,0.0,0.125,3.334960596,4.916327420833059,-0.03906249599999967,3257.0,3.125,-202.5,-630.2953663077831,0.0,0.25,1.6308592080000002,4.933841663122481,-0.023193357000000026,0.6800000071525574,-0.25,174.02999877929688,0.06121826171875,-0.02838134765625,1.01788330078125,37.040000915527344,0.0,-69.0,0.8835906982421875,2.3466339111328125,Closing,0.0,0.0,0.0,0.0,0.0,0.0,0.0,0.0,
2.289822,0.0,0.0,-16022.0,2.75,427.5,630.1312910070806,0.0,0.25,0.820312416,4.916226303734761,0.0,15436.0,3.875,-405.0,-630.1312910070806,0.0,0.0,0.48706049700000004,4.947642899700257,-0.037841793000000123,-790.0,3.875,397.5,630.1312910070806,0.0,0.125,3.300780912,4.924348827943105,4.886689068000001,3207.0,3.875,-382.5,-630.1312910070806,0.0,0.25,1.593017415,4.9418916462112215,4.907951177,0.7099999785423279,0.5400000214576721,173.85000610351562,0.020263671875,0.02093505859375,0.9190673828125,37.029998779296875,0.0,-10.0,0.92425537109375,2.3468475341796875,Closing,0.0,0.0,0.0,0.0,0.0,0.0,0.0,0.0,
2.4931340000000053,0.0,0.0,-15844.0,1.875,637.5,631.1806359167318,0.0,0.25,0.8178710100000001,4.884230223231326,-0.0012207029999995456,15271.0,2.75,-607.5,-631.1806359167318,0.0,0.25,0.49316401200000004,4.91544235181238,-0.006103515000000392,-619.0,2.375,645.0,631.1806359167318,0.0,0.0,3.276366852,4.89229988393779,-0.0341796840000006,3046.0,3.0,-607.5,-631.1806359167318,0.0,0.25,1.597900227,4.909728528978131,0.0,0.6700000166893005,0.8799999952316284,173.1699981689453,0.01226806640625,0.08612060546875,0.79486083984375,37.029998779296875,0.0,9.0,0.949951171875,2.3456573486328125,Closing,0.0,0.0,0.0,0.0,0.0,0.0,0.0,0.0,
2.5702570000000122,0.0,0.0,-15734.0,1.25,690.0,630.8201204892425,0.0,0.25,0.809326089,4.892218434357367,0.0,15167.0,2.25,-652.5,-630.8201204892425,0.0,0.125,0.48706049700000004,4.923481610710823,-0.003662108999999525,-508.0,2.125,697.5,630.8201204892425,0.0,0.0,3.280028961,4.900301293080814,0.0,2942.0,2.75,-645.0,-630.8201204892425,0.0,0.25,1.597900227,4.917758442857799,0.0012207030000004337,0.7099999785423279,0.8500000238418579,172.94000244140625,0.05126953125,0.00262451171875,0.78582763671875,37.029998779296875,0.0,-40.0,0.9490966796875,2.344329833984375,Closing,0.0,0.0,0.0,0.0,0.0,0.0,0.0,0.0,
2.645618000000002,0.0,0.0,-15734.0,0.25,660.0,NaN,0.0,0.125,0.8032225740000001,NaN,-0.004882811999999959,15077.0,0.25,-622.5,NaN,0.0,0.0,0.47851557600000005,NaN,0.0,-396.0,0.5,712.5,NaN,0.0,0.0,3.305663724,NaN,0.0,2847.0,0.625,-630.0,NaN,0.0,0.125,1.597900227,NaN,0.0,0.7200000286102295,0.5899999737739563,172.63999938964844,-0.12127685546875,-0.0111083984375,1.21307373046875,37.029998779296875,0.0,129.0,0.948150634765625,2.3444366455078125,Closing,0.0,0.0,0.0,0.0,0.0,0.0,0.0,0.0,
2.753867000000013,0.0,0.0,-15646.0,0.0,480.0,NaN,0.0,0.125,0.8044432770000001,NaN,-0.008544921000000372,15077.0,0.0,-450.0,NaN,0.0,0.0,0.483398388,NaN,0.0,-396.0,0.125,502.5,NaN,0.0,0.0,3.305663724,NaN,0.0,2767.0,0.125,-465.0,NaN,0.0,0.125,1.595458821,NaN,0.0,0.699999988079071,0.0,172.60000610351562,-0.0706787109375,0.0570068359375,1.29754638671875,37.029998779296875,0.0,75.0,0.955780029296875,2.348724365234375,Closing,0.0,0.0,0.0,0.0,0.0,0.0,0.0,0.125,
2.891770000000004,0.0,0.0,-15494.0,0.125,420.0,634.7093670531418,0.0,0.125,0.8032225740000001,4.836566187440436,0.0012207030000004337,14931.0,0.375,-420.0,-634.7093670531418,0.0,0.25,0.482177685,4.867473724315979,0.0,-254.0,0.5,427.5,634.7093670531418,0.0,0.125,3.305663724,4.844557098256096,0.0,2701.0,0.625,-427.5,-634.7093670531418,0.0,0.125,1.597900227,4.861815661313603,0.0,0.7300000190734863,-0.8199999928474426,172.42999267578125,-0.08502197265625,0.02130126953125,1.24609375,37.029998779296875,0.0,67.0,0.98516845703125,2.354705810546875,Closing,0.0,0.0,0.0,0.0,0.0,0.0,0.0,0.0,
3.0916800000000078,0.0,0.0,-15425.0,0.875,367.5,638.3481886870205,0.0,0.25,0.728759691,4.805157876797849,-0.04516601100000006,14862.0,2.0,-322.5,-638.3481886870205,0.0,0.25,0.426025347,4.8358647023667,-0.02929687200000064,-173.0,1.375,390.0,638.3481886870205,0.0,0.125,3.2714840400000003,4.8130968952172335,-0.02075195100000027,2635.0,2.625,-307.5,-638.3481886870205,0.0,0.25,1.540527186,4.830243382415805,-0.0341796840000006,0.6899999976158142,-0.7200000286102295,172.41000366210938,-0.00457763671875,-0.00262451171875,1.04266357421875,37.029998779296875,0.0,-10.0,0.99365234375,2.3546905517578125,Closing,0.0,0.0,0.0,0.0,0.0,0.0,0.0,0.0,
3.289810000000012,0.0,0.0,-15299.0,2.0,427.5,637.3430942016728,0.0,0.125,0.664062432,4.812975549907741,-0.07568358600000025,14736.0,3.125,-450.0,-637.3430942016728,0.0,0.0,0.371093712,4.84373233344482,-0.0646972589999999,-56.0,2.75,420.0,637.3430942016728,0.0,0.0,3.2092281870000003,4.82092748458345,-0.05737304099999996,2512.0,3.25,-442.5,-637.3430942016728,0.0,0.125,1.481933442,4.838101867979261,-0.0646972589999999,0.4699999988079071,-0.1899999976158142,172.47000122070312,0.045166015625,-0.03564453125,1.1458740234375,37.029998779296875,0.0,-54.0,0.98187255859375,2.35498046875,Closing,0.0,0.0,0.0,0.0,0.0,0.0,0.0,0.0,
3.4841589999999996,0.0,0.0,-15213.0,1.625,577.5,639.416391896988,0.0,0.125,0.665283135,4.797365553205289,-0.019531247999999835,14649.0,2.375,-600.0,-639.416391896988,0.0,0.0,0.372314415,4.828022582799175,-0.012207029999999897,124.0,2.25,577.5,639.416391896988,0.0,0.0,3.197021157,4.805291697250486,-0.025634763000000227,2332.0,3.0,-585.0,-639.416391896988,0.0,0.125,1.481933442,4.8224103787077786,-0.017089841999999855,0.3799999952316284,0.07999999821186066,172.3699951171875,0.1124267578125,0.0487060546875,0.926513671875,37.029998779296875,0.0,-104.0,0.9575958251953125,2.3593597412109375,Closing,0.0,0.0,0.0,0.0,0.0,0.0,0.0,0.125,
3.6934580000000135,0.0,0.0,-15008.0,0.875,667.5,640.5473881035266,0.0,0.125,0.665283135,4.789599983969735,-0.0012207030000004337,14440.0,1.125,-705.0,-640.5473881035266,0.0,0.0,0.367431603,4.820207388559392,0.0,228.0,1.75,667.5,640.5473881035266,0.0,0.0,3.2043453750000004,4.797513297843941,-0.0012207029999995456,2227.0,2.5,-675.0,-640.5473881035266,0.0,0.125,1.483154145,4.814604269028876,0.0,0.3400000035762787,0.10000000149011612,172.25,0.03436279296875,-0.00775146484375,0.951904296875,37.029998779296875,0.0,-34.0,0.9296417236328125,2.360137939453125,Closing,0.0,0.0,0.0,0.0,0.0,0.0,0.0,0.0,
3.8941110000000045,0.0,0.0,-14787.0,0.5,690.0,640.5473881035266,0.0,0.125,0.662841729,4.789599983969735,0.0012207030000004337,14215.0,1.0,-690.0,-640.5473881035266,0.0,0.0,0.36865230600000004,4.820207388559392,0.0,450.0,1.125,690.0,640.5473881035266,0.0,0.0,3.2031246720000004,4.797513297843941,-0.0012207030000004337,2007.0,1.875,-697.5,-640.5473881035266,0.0,0.125,1.481933442,4.814604269028876,0.0012207029999995456,0.4000000059604645,-0.03999999910593033,172.07000732421875,-0.01177978515625,-0.01116943359375,1.19781494140625,37.04999923706055,0.0,7.0,0.92791748046875,2.3558807373046875,Closing,0.0,0.0,0.0,0.0,0.0,0.0,0.0,0.125,
4.078997000000003,0.0,0.0,-14675.0,0.5,690.0,638.3481886870205,0.0,0.125,0.662841729,4.805157876797849,-0.0012207030000004337,14105.0,0.875,-675.0,-638.3481886870205,0.0,0.125,0.36865230600000004,4.8358647023667,0.0,561.0,0.875,682.5,638.3481886870205,0.0,0.0,3.2043453750000004,4.8130968952172335,0.0024414059999999793,1897.0,1.375,-682.5,-638.3481886870205,0.0,0.125,1.481933442,4.830243382415805,-0.0012207029999995456,0.3799999952316284,-0.15000000596046448,172.0,-0.088134765625,-0.0040283203125,0.9498291015625,37.04999923706055,0.0,83.0,0.9284515380859375,2.35308837890625,Closing,0.0,0.0,0.0,0.0,0.0,0.0,0.0,0.0,
4.2898210000000105,0.0,0.0,-14459.0,0.5,667.5,637.3430942016728,0.0,0.125,0.664062432,4.812975549907741,0.0012207030000004337,13889.0,0.75,-667.5,-637.3430942016728,0.0,0.125,0.36865230600000004,4.84373233344482,0.0,780.0,0.875,667.5,637.3430942016728,0.0,0.0,3.2031246720000004,4.82092748458345,0.0012207030000004337,1676.0,1.25,-682.5,-637.3430942016728,0.0,0.125,1.4807127390000001,4.838101867979261,0.0,0.4699999988079071,-0.3100000023841858,172.02000427246094,0.05902099609375,0.019287109375,1.06134033203125,36.97999954223633,0.0,-62.0,0.9285736083984375,2.350677490234375,Closing,0.0,0.0,0.0,0.0,0.0,0.0,0.0,0.0,
4.489920000000013,0.0,0.0,-14249.0,0.5,637.5,636.4014074515,0.0,0.25,0.665283135,4.820817138434254,0.0,13682.0,0.875,-637.5,-636.4014074515,0.0,0.25,0.363769494,4.851624032768364,-0.004882811999999959,986.0,1.125,630.0,636.4014074515,0.0,0.0,3.2031246720000004,4.828782028879023,-0.0012207030000004337,1463.0,1.25,-660.0,-636.4014074515,0.0,0.25,1.48925766,4.845984393810662,0.0,0.5299999713897705,-0.3499999940395355,172.00999450683594,0.01617431640625,0.0028076171875,0.8629150390625,36.97999954223633,0.0,-22.0,0.92535400390625,2.3489990234375,Closing,0.0,0.0,0.0,0.0,0.0,0.0,0.0,0.0,
4.689148000000001,0.0,0.0,-14148.0,0.5,622.5,633.2741094157016,0.0,0.25,0.665283135,4.852393020501836,0.0,13579.0,0.875,-630.0,-633.2741094157016,0.0,0.25,0.36865230600000004,4.883401696989143,0.0024414059999999793,1087.0,1.125,615.0,633.2741094157016,0.0,0.0,3.2128902960000003,4.860410080202177,0.006103515000000392,1357.0,1.25,-637.5,-633.2741094157016,0.0,0.25,1.483154145,4.877725118946319,0.0,0.5299999713897705,-0.4699999988079071,172.07000732421875,-0.0052490234375,0.0111083984375,1.19403076171875,36.97999954223633,0.0,-4.0,0.924835205078125,2.3485870361328125,Closing,0.0,0.0,0.0,0.0,0.0,0.0,0.0,0.0,
4.82762000000001,0.0,0.0,-13953.0,0.75,600.0,631.1806359167318,0.0,0.25,0.679931571,4.884230223231326,0.0012207029999995456,13380.0,1.0,-622.5,-631.1806359167318,0.0,0.25,0.40039058400000005,4.91544235181238,0.02075195100000027,1283.0,1.375,600.0,631.1806359167318,0.0,0.125,3.2568356040000004,4.89229988393779,0.024414059999999793,1153.0,1.25,-637.5,-631.1806359167318,0.0,0.25,1.5307615620000001,4.909728528978131,0.019531247999999835,0.6100000143051147,-0.36000001430511475,172.10000610351562,0.03070068359375,-0.07916259765625,1.0482177734375,36.959999084472656,0.0,-49.0,0.9250946044921875,2.345428466796875,Closing,0.0,0.0,0.0,0.0,0.0,0.0,0.0,0.0,
4.906244000000006,0.0,0.0,-13953.0,0.75,607.5,630.1312910070806,0.0,0.375,0.731201097,4.916226303734761,0.028076169000000206,13380.0,1.0,-622.5,-630.1312910070806,0.0,0.25,0.426025347,4.947642899700257,0.0,1283.0,1.5,600.0,630.1312910070806,0.0,0.0,3.291015288,4.924348827943105,0.0,1153.0,1.375,-622.5,-630.1312910070806,0.0,0.25,1.568603355,4.9418916462112215,0.0,0.6600000262260437,-0.3499999940395355,172.1699981689453,0.0489501953125,0.07293701171875,1.0242919921875,36.959999084472656,0.0,-46.0,0.9245147705078125,2.3436737060546875,Closing,0.0,0.0,0.0,0.0,0.0,0.0,0.0,0.0,
4.9878570000000035,0.0,0.0,-13856.0,0.25,585.0,NaN,0.0,0.375,0.7751464050000001,NaN,0.04150390199999965,13279.0,0.5,-615.0,NaN,0.0,0.0,0.458984328,NaN,0.028076169000000206,1380.0,0.5,592.5,NaN,0.0,0.0,3.3239742690000003,NaN,0.03906249599999967,1053.0,0.625,-607.5,NaN,0.0,0.125,1.597900227,NaN,0.03906249599999967,0.75,-0.38999998569488525,172.25999450683594,-0.1090087890625,0.072265625,1.212890625,36.959999084472656,0.0,107.0,0.924346923828125,2.340606689453125,Closing,0.0,0.0,0.0,0.0,0.0,0.0,0.0,0.0,
5.050345000000001,0.0,0.0,-13856.0,0.125,405.0,NaN,0.0,0.125,0.79345695,NaN,0.05004882300000002,13215.0,0.125,-397.5,NaN,0.0,0.0,0.46386714,NaN,0.0,1449.0,0.125,495.0,NaN,0.0,0.0,3.353271141,NaN,0.02929687200000064,987.0,0.125,-450.0,NaN,0.0,0.125,1.588134603,NaN,0.023193357000000248,0.9100000262260437,-0.8899999856948853,172.27999877929688,-0.0498046875,0.110107421875,1.079833984375,36.959999084472656,0.0,45.0,0.9279937744140625,2.336334228515625,Closing,0.0,0.0,0.0,0.0,0.0,0.0,0.0,0.0,
5.15397600000001,0.0,0.0,-13793.0,0.125,420.0,NaN,0.0,0.125,0.794677653,NaN,0.008544921000000372,13215.0,0.125,-427.5,NaN,0.0,0.0,0.458984328,NaN,0.0,1449.0,0.125,315.0,NaN,0.0,0.0,3.353271141,NaN,0.0,923.0,0.0,-420.0,NaN,0.0,0.125,1.612548663,NaN,0.0,0.8399999737739563,-1.309999942779541,172.36000061035156,-0.08795166015625,0.0150146484375,0.96966552734375,36.959999084472656,0.0,65.0,0.938690185546875,2.33099365234375,Closing,0.0,0.0,0.0,0.0,0.0,0.0,0.0,0.125,
5.232535000000004,0.0,0.0,-13738.0,0.125,315.0,NaN,0.0,0.125,0.79345695,NaN,0.0,13155.0,0.125,-300.0,NaN,0.0,0.0,0.462646437,NaN,-0.004882811999999959,1503.0,0.125,307.5,NaN,0.0,0.0,3.354491844,NaN,0.0,923.0,0.125,-307.5,NaN,0.0,0.125,1.6113279600000001,NaN,0.004882811999999959,0.8399999737739563,-1.649999976158142,172.3800048828125,-0.14630126953125,0.009033203125,1.05078125,37.0099983215332,0.0,113.0,0.9504547119140625,2.33135986328125,Closing,0.0,0.0,0.0,0.0,0.0,0.0,0.0,0.0,
5.3106830000000045,0.0,0.0,-13738.0,0.125,262.5,NaN,0.0,0.125,0.794677653,NaN,0.0,13155.0,0.0,-247.5,NaN,0.0,0.0,0.46020503100000004,NaN,0.0,1536.0,0.125,247.5,NaN,0.0,0.0,3.354491844,NaN,0.0,887.0,0.125,-255.0,NaN,0.0,0.125,1.612548663,NaN,0.0,0.8199999928474426,-1.7899999618530273,172.41000366210938,-0.12371826171875,0.0069580078125,0.9735107421875,37.0099983215332,0.0,91.0,0.9592437744140625,2.3319549560546875,Closing,0.0,0.0,0.0,0.0,0.0,0.0,0.0,0.125,
5.3778179999999995,0.0,0.0,-13709.0,0.125,135.0,NaN,0.0,0.125,0.794677653,NaN,0.0012207029999995456,13122.0,0.0,-142.5,NaN,0.0,0.0,0.458984328,NaN,0.0,1536.0,0.0,135.0,NaN,0.0,0.0,3.353271141,NaN,0.0,887.0,0.125,-150.0,NaN,0.0,0.125,1.616210772,NaN,0.0,0.8100000023841858,-2.0299999713897705,172.47000122070312,-0.0802001953125,0.009033203125,1.06500244140625,37.0099983215332,0.0,41.0,0.975738525390625,2.3321990966796875,Closing,0.0,0.0,0.0,0.0,0.0,0.0,0.0,0.0,
5.43965400000001,0.0,0.0,-13699.0,0.125,60.0,NaN,0.0,0.125,0.79345695,NaN,-0.0012207029999995456,13111.0,0.0,-45.0,NaN,0.0,0.0,0.458984328,NaN,0.0,1548.0,0.125,52.5,NaN,0.0,0.0,3.353271141,NaN,0.0,876.0,0.25,-45.0,NaN,0.0,0.125,1.6113279600000001,NaN,0.004882811999999959,0.800000011920929,-2.2100000381469727,172.41000366210938,-0.05792236328125,6.103515625E-4,1.02374267578125,37.0099983215332,0.0,16.0,0.9977569580078125,2.332275390625,Closing,0.0,0.0,0.0,0.0,0.0,0.0,0.0,0.0,
5.5515,0.0,0.0,-13699.0,0.125,0.0,NaN,0.0,0.125,0.794677653,NaN,0.0,13110.0,0.0,0.0,NaN,0.0,0.0,0.458984328,NaN,0.0,1548.0,0.125,0.0,NaN,0.0,0.0,3.353271141,NaN,0.0,876.0,0.25,0.0,NaN,0.0,0.125,1.616210772,NaN,0.0,0.800000011920929,-2.0899999141693115,172.42999267578125,0.007080078125,0.00958251953125,1.011474609375,37.0099983215332,0.0,-44.0,0.9971160888671875,2.33233642578125,Closing,0.0,0.0,0.0,0.0,0.0,0.0,0.0,0.0,
5.634791000000012,0.0,0.0,-13699.0,0.125,0.0,NaN,0.0,0.125,0.794677653,NaN,0.0,13110.0,0.0,0.0,NaN,0.0,0.0,0.46020503100000004,NaN,0.0,1548.0,0.125,0.0,NaN,0.0,0.0,3.352050438,NaN,0.0,876.0,0.25,0.0,NaN,0.0,0.125,1.612548663,NaN,0.0,0.7799999713897705,-1.9600000381469727,172.41000366210938,0.01214599609375,0.0059814453125,0.9996337890625,37.0099983215332,0.0,-47.0,0.995574951171875,2.33233642578125,Closing,0.0,0.0,0.0,0.0,0.0,0.0,0.0,0.0,
5.77013900000001,0.0,0.0,-13699.0,0.125,0.0,NaN,0.0,0.125,0.79345695,NaN,0.0,13110.0,0.0,0.0,NaN,0.0,0.25,0.46386714,NaN,0.0,1548.0,0.125,0.0,NaN,0.0,0.0,3.353271141,NaN,0.0012207030000004337,876.0,0.25,0.0,NaN,0.0,0.125,1.6113279600000001,NaN,0.0,0.7699999809265137,-1.75,172.4199981689453,-0.00567626953125,0.00848388671875,1.018310546875,37.0,0.0,-25.0,0.9886932373046875,2.33233642578125,Closing,0.0,0.0,0.0,0.0,0.0,0.0,0.0,0.125,
5.828086999999999,0.0,0.0,-13699.0,0.125,0.0,420.0,0.0,0.125,0.795898356,0.01,0.0,13110.0,0.125,0.0,-420.0,0.0,0.0,0.46386714,0.01,0.009765624000000805,1548.0,0.375,0.0,420.0,0.0,0.0,3.353271141,0.01,0.0,876.0,0.375,0.0,-420.0,0.0,0.125,1.6113279600000001,0.01,0.0,0.7599999904632568,-1.7000000476837158,172.41000366210938,-0.01239013671875,0.00750732421875,1.0137939453125,37.0,0.0,-18.0,0.9856414794921875,2.33233642578125,Closing,0.0,0.0,0.0,0.0,0.0,0.0,0.0,0.125,
5.885948000000004,0.0,0.0,-13699.0,0.375,75.0,420.0,0.0,0.125,0.794677653,0.01,0.0,13110.0,0.375,-75.0,-420.0,0.0,0.25,0.468749952,0.01,-0.004882812000000847,1548.0,0.875,45.0,420.0,0.0,0.0,3.338622705,0.01,-0.0012207030000004337,856.0,1.0,-105.0,-420.0,0.0,0.125,1.616210772,0.01,0.0,0.7699999809265137,-1.5399999618530273,172.39999389648438,0.0438232421875,-0.016845703125,1.08331298828125,37.0,0.0,-76.0,0.9849395751953125,2.3325347900390625,Closing,0.0,0.0,0.0,0.0,0.0,0.0,0.0,0.0,
5.950529000000009,0.0,0.0,-13674.0,0.5,157.5,420.0,0.0,0.125,0.7897948410000001,4.932113859231906,0.0012207029999995456,13088.0,0.75,-142.5,-420.0,0.0,0.25,0.47363276400000004,4.9636319828491215,0.008544921000000372,1567.0,1.25,135.0,420.0,0.0,0.0,3.348388329,4.940262632649739,-0.009765623999999917,856.0,1.5,-142.5,-420.0,0.0,0.125,1.618652178,4.95786214328342,0.004882811999999959,0.75,-1.4199999570846558,172.41000366210938,0.01129150390625,0.01239013671875,1.16326904296875,37.0,0.0,-40.0,0.9832763671875,2.332977294921875,Closing,0.0,0.0,0.0,0.0,0.0,0.0,0.0,0.125,
6.012401000000013,0.0,0.0,-13674.0,0.875,127.5,420.0,0.0,0.125,0.7897948410000001,4.931976927519862,-0.006103514999999504,13088.0,1.125,-67.5,-420.0,0.0,0.25,0.47363276400000004,4.963494176090241,0.0,1567.0,1.5,97.5,420.0,0.0,0.0,3.343505517,4.9401254747009276,0.004882811999999959,856.0,1.875,-67.5,-420.0,0.0,0.125,1.617431475,4.957724496714274,0.0,0.7300000190734863,-1.2699999809265137,172.38999938964844,0.0120849609375,0.01983642578125,1.06524658203125,37.0,0.0,-34.0,0.97918701171875,2.332763671875,Closing,0.0,0.0,0.0,0.0,0.0,0.0,0.0,0.0,
6.07087000000001,0.0,0.0,-13662.0,1.375,75.0,420.0,0.0,0.125,0.7897948410000001,4.931976927519862,0.0,13076.0,1.875,-90.0,-420.0,0.0,0.25,0.489501903,4.963494176090241,0.009765623999999917,1579.0,2.0,82.5,420.0,0.0,0.0,3.343505517,4.9401254747009276,-0.003662108999999525,846.0,2.125,-75.0,-420.0,0.0,0.125,1.616210772,4.957724496714274,0.0,0.7200000286102295,-1.0800000429153442,172.44000244140625,0.03436279296875,0.00225830078125,1.0400390625,37.0,0.0,-55.0,0.974639892578125,2.332763671875,Closing,0.0,0.0,0.0,0.0,0.0,0.0,0.0,0.0,
6.129294000000009,0.0,0.0,-13662.0,1.75,105.0,420.00000000000006,0.0,0.125,0.784912029,0.01,0.0,13076.0,2.125,-112.5,-420.00000000000006,0.0,0.125,0.5029296360000001,0.01,0.009765623999999917,1579.0,2.625,112.5,420.00000000000006,0.0,0.0,3.330077784,0.01,-0.004882811999999959,846.0,2.5,-112.5,-420.00000000000006,0.0,0.125,1.617431475,0.01,0.0,0.7200000286102295,-0.8700000047683716,172.4600067138672,0.0908203125,0.02862548828125,0.999755859375,37.0,0.0,-103.0,0.968475341796875,2.332550048828125,Closing,0.0,0.0,0.0,0.0,0.0,0.0,0.0,0.0,
6.189189000000013,0.0,0.0,-13640.0,1.875,150.0,420.0,0.0,0.25,0.786132732,0.01,-0.003662109000000413,13053.0,2.5,-150.0,-420.0,0.0,0.125,0.51269526,0.01,0.01342773300000033,1602.0,2.625,150.0,420.0,0.0,0.0,3.330077784,0.01,-0.009765623999999917,823.0,2.875,-165.0,-420.0,0.0,0.125,1.614990069,0.01,0.0,0.699999988079071,-0.6499999761581421,172.47999572753906,0.09222412109375,-0.00726318359375,0.99102783203125,37.0,0.0,-105.0,0.9604644775390625,2.332244873046875,Closing,0.0,0.0,0.0,0.0,0.0,0.0,0.0,0.0,
6.248194000000003,0.0,0.0,-13640.0,1.375,195.0,0.0,0.0,0.25,0.8154296040000001,0.01,-0.0012207029999995456,13053.0,1.75,-210.0,-0.0,0.0,0.0,0.51269526,0.01,0.007324217999999938,1602.0,1.875,195.0,0.0,0.0,0.0,3.330077784,0.01,0.0,823.0,1.75,-202.5,-0.0,0.0,0.125,1.616210772,0.01,0.0,0.699999988079071,-0.5299999713897705,172.4600067138672,-0.04156494140625,0.0133056640625,1.03497314453125,37.0,0.0,31.0,0.9532318115234375,2.3320770263671875,Closing,0.0,0.0,0.0,0.0,0.0,0.0,0.0,0.0,
6.305833000000013,0.0,0.0,-13606.0,0.375,210.0,0.0,0.0,0.25,0.784912029,0.01,0.0012207029999995456,13019.0,0.125,-202.5,-0.0,0.0,0.0,0.51269526,0.01,0.0,1638.0,0.5,225.0,0.0,0.0,0.0,3.331298487,0.01,0.0,787.0,0.625,-217.5,-0.0,0.0,0.125,1.617431475,0.01,0.0,0.699999988079071,-0.6200000047683716,172.36000061035156,-0.0291748046875,0.02667236328125,1.05126953125,37.0,0.0,19.0,0.943603515625,2.33197021484375,Closing,0.0,0.0,0.0,0.0,0.0,0.0,0.0,0.0,
6.356354000000007,0.0,0.0,-13606.0,0.125,165.0,0.0,0.0,0.25,0.782470623,0.01,-0.0012207029999995456,13019.0,0.125,-187.5,-0.0,0.0,0.0,0.51269526,0.01,0.0,1638.0,0.375,225.0,0.0,0.0,0.0,3.330077784,0.01,0.0,787.0,0.375,-225.0,-0.0,0.0,0.125,1.617431475,0.01,0.0,0.6899999976158142,-0.75,172.38999938964844,-0.10003662109375,-0.0550537109375,1.07745361328125,37.0,0.0,76.0,0.9415283203125,2.332061767578125,Closing,0.0,0.0,0.0,0.0,0.0,0.0,0.0,0.0,
6.413066000000006,0.0,0.0,-13578.0,0.125,165.0,0.0,0.0,0.25,0.783691326,0.01,0.0,12986.0,0.0,-202.5,-0.0,0.0,0.0,0.51269526,0.01,0.0,1672.0,0.375,210.0,0.0,0.0,0.0,3.328857081,0.01,0.0,753.0,0.375,-210.0,-0.0,0.0,0.125,1.616210772,0.01,0.0,0.6499999761581421,-0.8999999761581421,172.4600067138672,-0.03497314453125,0.08856201171875,1.14788818359375,37.0,0.0,26.0,0.9421539306640625,2.3327789306640625,Closing,0.0,0.0,0.0,0.0,0.0,0.0,0.0,0.125,
6.467593000000008,0.0,0.0,-13578.0,0.125,172.5,0.0,0.0,0.25,0.784912029,0.01,0.0012207029999995456,12986.0,0.0,-180.0,-0.0,0.0,0.0,0.51269526,0.01,0.0,1672.0,0.375,172.5,0.0,0.0,0.0,3.338622705,0.01,0.004882811999999959,753.0,0.375,-172.5,-0.0,0.0,0.125,1.625976396,0.01,0.0,0.6299999952316284,-0.8999999761581421,172.4499969482422,0.02325439453125,0.04290771484375,0.81597900390625,37.0,0.0,-31.0,0.9432220458984375,2.333404541015625,Closing,0.0,0.0,0.0,0.0,0.0,0.0,0.0,0.0,
6.519735000000001,0.0,0.0,-13558.0,0.125,150.0,0.0,0.0,0.25,0.79345695,0.01,-0.0012207029999995456,12967.0,0.0,-127.5,-0.0,0.0,0.0,0.51269526,0.01,0.0,1697.0,0.375,157.5,0.0,0.0,0.0,3.333739893,0.01,0.004882811999999959,730.0,0.375,-142.5,-0.0,0.0,0.125,1.616210772,0.01,0.0,0.6299999952316284,-0.9800000190734863,172.3800048828125,-0.0350341796875,0.044189453125,0.89410400390625,37.0,0.0,24.0,0.9452362060546875,2.33404541015625,Closing,0.0,0.0,0.0,0.0,0.0,0.0,0.0,0.0,
6.584192999999999,0.0,0.0,-13558.0,0.125,97.5,0.0,0.0,0.25,0.783691326,0.01,0.0,12967.0,0.0,-105.0,-0.0,0.0,0.0,0.51269526,0.01,0.0,1697.0,0.375,127.5,0.0,0.0,0.0,3.338622705,0.01,0.0,730.0,0.375,-120.0,-0.0,0.0,0.125,1.616210772,0.01,0.0,0.6700000166893005,-1.1399999856948853,172.38999938964844,-0.04852294921875,-0.014892578125,0.984375,37.0,0.0,25.0,0.946502685546875,2.3347320556640625,Closing,0.0,0.0,0.0,0.0,0.0,0.0,0.0,0.0,
6.635061000000001,0.0,0.0,-13558.0,0.125,75.0,0.0,0.0,0.25,0.783691326,0.01,0.0,12951.0,0.0,-105.0,-0.0,0.0,0.0,0.507812448,0.01,0.0,1712.0,0.375,90.0,0.0,0.0,0.0,3.338622705,0.01,0.0,714.0,0.375,-105.0,-0.0,0.0,0.125,1.616210772,0.01,0.0,0.6499999761581421,-1.2000000476837158,172.39999389648438,-0.0433349609375,-0.0103759765625,0.98468017578125,37.0,0.0,19.0,0.9469757080078125,2.3354949951171875,Closing,0.0,0.0,0.0,0.0,0.0,0.0,0.0,0.0,
6.690417000000001,0.0,0.0,-13545.0,0.125,75.0,0.0,0.0,0.25,0.784912029,0.01,-0.0012207029999995456,12951.0,0.0,-82.5,-0.0,0.0,0.0,0.507812448,0.01,-0.004882811999999959,1712.0,0.375,82.5,0.0,0.0,0.0,3.338622705,0.01,0.0,714.0,0.375,-82.5,-0.0,0.0,0.125,1.616210772,0.01,0.0,0.6600000262260437,-1.2799999713897705,172.38999938964844,-0.05816650390625,-0.00933837890625,1.1246337890625,37.0,0.0,29.0,0.9470367431640625,2.33575439453125,Closing,0.0,0.0,0.0,0.0,0.0,0.0,0.0,0.125,
6.744742000000013,0.0,0.0,-13545.0,0.125,67.5,0.0,0.0,0.25,0.784912029,0.01,0.0012207029999995456,12945.0,0.0,-37.5,-0.0,0.0,0.0,0.509033151,0.01,0.0,1720.0,0.375,52.5,0.0,0.0,0.0,3.338622705,0.01,0.0,707.0,0.375,-45.0,-0.0,0.0,0.125,1.616210772,0.01,0.0,0.6499999761581421,-1.2999999523162842,172.38999938964844,-0.0550537109375,0.00616455078125,1.049560546875,37.0,0.0,30.0,0.9473876953125,2.335845947265625,Closing,0.0,0.0,0.0,0.0,0.0,0.0,0.0,0.0,
6.793063000000009,0.0,0.0,-13538.0,0.125,45.0,0.0,0.0,0.25,0.783691326,0.01,-0.0012207029999995456,12945.0,0.0,-22.5,-0.0,0.0,0.0,0.507812448,0.01,0.0,1720.0,0.375,30.0,0.0,0.0,0.0,3.338622705,0.01,0.0,707.0,0.375,-30.0,-0.0,0.0,0.125,1.617431475,0.01,0.0,0.6499999761581421,-1.2999999523162842,172.39999389648438,-0.01898193359375,0.02099609375,0.93408203125,37.029998779296875,0.0,0.0,0.9477691650390625,2.335845947265625,Closing,0.0,0.0,0.0,0.0,0.0,0.0,0.0,0.125,
6.848090000000011,0.0,0.0,-13538.0,0.125,0.0,0.0,0.0,0.25,0.786132732,0.01,0.0012207029999995456,12945.0,0.0,-45.0,-0.0,0.0,0.0,0.507812448,0.01,0.0,1720.0,0.375,15.0,0.0,0.0,0.0,3.338622705,0.01,0.0,707.0,0.375,-15.0,-0.0,0.0,0.125,1.616210772,0.01,0.0,0.6499999761581421,-1.2999999523162842,172.41000366210938,-0.0125732421875,0.00128173828125,0.984375,37.029998779296875,0.0,-11.0,0.9477691650390625,2.335845947265625,Closing,0.0,0.0,0.0,0.0,0.0,0.0,0.0,0.0,
6.903222000000008,0.0,0.0,-13538.0,0.125,0.0,0.0,0.0,0.25,0.780029217,0.01,-0.0012207029999995456,12936.0,0.0,-52.5,-0.0,0.0,0.0,0.5017089330000001,0.01,0.0,1722.0,0.5,7.5,0.0,0.0,0.0,3.343505517,0.01,0.0,705.0,0.625,0.0,-0.0,0.0,0.125,1.625976396,0.01,0.0,0.6399999856948853,-1.2799999713897705,172.41000366210938,-0.00689697265625,0.00958251953125,0.999267578125,37.029998779296875,0.0,-15.0,0.9477691650390625,2.335845947265625,Closing,0.0,0.0,0.0,0.0,0.0,0.0,0.0,0.0,
6.953309000000008,0.0,0.0,-13538.0,0.125,0.0,0.0,0.0,0.25,0.784912029,0.01,0.0,12936.0,0.0,-15.0,-0.0,0.0,0.0,0.507812448,0.01,0.0,1722.0,0.5,0.0,0.0,0.0,0.0,3.339843408,0.01,0.0,705.0,0.625,0.0,-0.0,0.0,0.125,1.617431475,0.01,0.0,0.6499999761581421,-1.2300000190734863,172.4199981689453,-0.00347900390625,-0.00421142578125,1.0162353515625,37.029998779296875,0.0,-20.0,0.9474639892578125,2.335845947265625,Closing,0.0,0.0,0.0,0.0,0.0,0.0,0.0,0.0,
7.00819200000001,0.0,0.0,-13538.0,0.125,0.0,0.0,0.0,0.25,0.786132732,0.01,0.0,12936.0,0.0,0.0,-0.0,0.0,0.125,0.509033151,0.01,-0.0012207030000004337,1722.0,0.5,0.0,0.0,0.0,0.0,3.337402002,0.01,0.0,705.0,0.625,0.0,-0.0,0.0,0.125,1.617431475,0.01,0.0,0.6399999856948853,-1.2300000190734863,172.41000366210938,-0.0228271484375,0.0040283203125,1.051513671875,37.029998779296875,0.0,0.0,0.9471893310546875,2.335845947265625,Closing,0.0,0.0,0.0,0.0,0.0,0.0,0.0,0.125,
7.064631000000008,0.0,0.0,-13538.0,0.125,0.0,0.0,0.0,0.25,0.784912029,0.01,0.0012207029999995456,12936.0,0.125,0.0,-0.0,0.0,0.0,0.509033151,0.01,0.0012207030000004337,1722.0,0.5,0.0,0.0,0.0,0.0,3.339843408,0.01,0.0,705.0,0.625,0.0,-0.0,0.0,0.125,1.616210772,0.01,0.0,0.6399999856948853,-1.2000000476837158,172.41000366210938,-0.00689697265625,0.0172119140625,1.03643798828125,37.029998779296875,0.0,-14.0,0.9471893310546875,2.335845947265625,Closing,0.0,0.0,0.0,0.0,0.0,0.0,0.0,0.125,
7.112743000000002,0.0,0.0,-13538.0,0.125,0.0,0.0,0.0,0.25,0.787353435,0.01,-0.0012207029999995456,12936.0,0.125,0.0,-0.0,0.0,0.0,0.506591745,0.01,0.0,1722.0,0.5,0.0,0.0,0.0,0.0,3.339843408,0.01,0.0,705.0,0.625,0.0,-0.0,0.0,0.125,1.614990069,0.01,0.0,0.6299999952316284,-1.159999966621399,172.41000366210938,-0.0133056640625,0.00506591796875,1.0423583984375,37.029998779296875,0.0,-8.0,0.9471893310546875,2.335845947265625,Closing,0.0,0.0,0.0,0.0,0.0,0.0,0.0,0.125,
7.166820000000007,0.0,0.0,-13538.0,0.125,0.0,0.0,0.0,0.25,0.78124992,0.01,0.0012207029999995456,12936.0,0.125,0.0,-0.0,0.0,0.0,0.511474557,0.01,0.0,1722.0,0.5,0.0,0.0,0.0,0.0,3.339843408,0.01,0.0,705.0,0.625,0.0,-0.0,0.0,0.125,1.616210772,0.01,0.0,0.6299999952316284,-1.1299999952316284,172.41000366210938,-0.00494384765625,0.01531982421875,0.98797607421875,37.029998779296875,0.0,-13.0,0.9471893310546875,2.335845947265625,Closing,0.0,0.0,0.0,0.0,0.0,0.0,0.0,0.125,
7.223721000000005,0.0,0.0,-13538.0,0.125,0.0,0.0,0.0,0.25,0.784912029,0.01,-0.0012207029999995456,12936.0,0.125,0.0,-0.0,0.0,0.0,0.506591745,0.01,-0.0012207030000004337,1722.0,0.5,0.0,0.0,0.0,0.0,3.331298487,0.01,0.0,705.0,0.625,0.0,-0.0,0.0,0.125,1.617431475,0.01,0.0,0.6299999952316284,-1.100000023841858,172.41000366210938,-0.0045166015625,0.013671875,0.9945068359375,37.029998779296875,0.0,-14.0,0.9471893310546875,2.335845947265625,Closing,0.0,0.0,0.0,0.0,0.0,0.0,0.0,0.0,
7.272595000000001,0.0,0.0,-13538.0,0.125,0.0,0.0,0.0,0.25,0.826415931,0.01,0.0012207029999995456,12936.0,0.125,0.0,-0.0,0.0,0.125,0.507812448,0.01,0.0,1722.0,0.5,0.0,0.0,0.0,0.0,3.338622705,0.01,0.0,705.0,0.625,0.0,-0.0,0.0,0.125,1.616210772,0.01,0.0,0.6299999952316284,-1.0700000524520874,172.41000366210938,-0.01171875,0.01263427734375,1.0224609375,37.029998779296875,0.0,-7.0,0.9471893310546875,2.335845947265625,Closing,0.0,0.0,0.0,0.0,0.0,0.0,0.0,0.0,
7.3337900000000085,0.0,0.0,-13538.0,0.125,0.0,0.0,0.0,0.25,0.783691326,0.01,0.0,12936.0,0.125,0.0,-0.0,0.0,0.125,0.507812448,0.01,0.0012207030000004337,1722.0,0.5,0.0,0.0,0.0,0.0,3.339843408,0.01,0.0,705.0,0.625,0.0,-0.0,0.0,0.125,1.617431475,0.01,0.0,0.6299999952316284,-1.0499999523162842,172.41000366210938,-0.00115966796875,0.01226806640625,1.01312255859375,37.040000915527344,0.0,-17.0,0.9471893310546875,2.335845947265625,Closing,0.0,0.0,0.0,0.0,0.0,0.0,0.0,0.0,
7.387490000000005,0.0,0.0,-13538.0,0.125,0.0,0.0,0.0,0.25,0.784912029,0.01,-0.0012207029999995456,12936.0,0.125,0.0,-0.0,0.0,0.0,0.5175780720000001,0.01,-0.0012207030000004337,1722.0,0.5,0.0,0.0,0.0,0.0,3.339843408,0.01,0.0,705.0,0.625,0.0,-0.0,0.0,0.125,1.617431475,0.01,0.0,0.6299999952316284,-1.0299999713897705,172.41000366210938,-0.00982666015625,0.00872802734375,1.012451171875,37.040000915527344,0.0,-8.0,0.9471893310546875,2.335845947265625,Closing,0.0,0.0,0.0,0.0,0.0,0.0,0.0,0.0,
7.442139999999999,0.0,0.0,-13538.0,0.125,0.0,0.0,0.0,0.25,0.773925702,0.01,0.0012207029999995456,12936.0,0.125,0.0,-0.0,0.0,0.0,0.5029296360000001,0.01,0.0012207030000004337,1722.0,0.5,0.0,0.0,0.0,0.0,3.341064111,0.01,0.0,705.0,0.625,0.0,-0.0,0.0,0.125,1.621093584,0.01,0.0,0.6200000047683716,-1.0,172.41000366210938,-0.01019287109375,0.01251220703125,1.0255126953125,37.040000915527344,0.0,-7.0,0.9471893310546875,2.335845947265625,Closing,0.0,0.0,0.0,0.0,0.0,0.0,0.0,0.0,
7.496325000000011,0.0,0.0,-13538.0,0.125,0.0,0.0,0.0,0.25,0.784912029,0.01,0.0,12936.0,0.125,0.0,-0.0,0.0,0.125,0.5163573690000001,0.01,-0.0012207030000004337,1722.0,0.5,0.0,0.0,0.0,0.0,3.339843408,0.01,0.0012207029999995456,705.0,0.625,0.0,-0.0,0.0,0.125,1.617431475,0.01,0.0,0.6200000047683716,-0.9800000190734863,172.41000366210938,-0.00738525390625,0.0101318359375,1.0235595703125,37.040000915527344,0.0,-10.0,0.9471893310546875,2.335845947265625,Closing,0.0,0.0,0.0,0.0,0.0,0.0,0.0,0.0,
7.551149000000005,0.0,0.0,-13538.0,0.125,0.0,0.0,0.0,0.25,0.786132732,0.01,0.0,12936.0,0.125,0.0,-0.0,0.0,0.125,0.513915963,0.01,0.0,1722.0,0.5,0.0,0.0,0.0,0.0,3.338622705,0.01,-0.0012207029999995456,705.0,0.625,0.0,-0.0,0.0,0.125,1.613769366,0.01,0.0,0.6200000047683716,-0.9599999785423279,172.41000366210938,-0.00830078125,0.00836181640625,1.0078125,37.040000915527344,0.0,-8.0,0.9471893310546875,2.335845947265625,Closing,0.0,0.0,0.0,0.0,0.0,0.0,0.0,0.0,
7.606029000000009,0.0,0.0,-13537.0,0.125,0.0,0.0,0.0,0.25,0.784912029,0.01,0.0,12936.0,0.125,0.0,-0.0,0.0,0.0,0.507812448,0.01,0.0012207030000004337,1722.0,0.5,0.0,0.0,0.0,0.0,3.338622705,0.01,0.0,705.0,0.625,0.0,-0.0,0.0,0.125,1.617431475,0.01,0.0,0.6100000143051147,-0.9399999976158142,172.41000366210938,-0.007568359375,0.0115966796875,1.011474609375,37.040000915527344,0.0,-8.0,0.9471893310546875,2.335845947265625,Closing,0.0,0.0,0.0,0.0,0.0,0.0,0.0,0.0,
7.655864000000001,0.0,0.0,-13537.0,0.125,7.5,0.0,0.0,0.25,0.784912029,0.01,-0.0012207029999995456,12936.0,0.125,0.0,-0.0,0.0,0.0,0.507812448,0.01,0.0,1722.0,0.5,0.0,0.0,0.0,0.0,3.338622705,0.01,0.0,705.0,0.625,0.0,-0.0,0.0,0.125,1.616210772,0.01,0.0,0.6100000143051147,-0.9200000166893005,172.41000366210938,-0.00982666015625,0.01123046875,1.019775390625,37.040000915527344,0.0,-6.0,0.9471893310546875,2.335845947265625,Closing,0.0,0.0,0.0,0.0,0.0,0.0,0.0,0.0,
7.70869600000001,0.0,0.0,-13537.0,0.125,37.5,0.0,0.0,0.25,0.783691326,0.01,0.0012207029999995456,12936.0,0.125,0.0,-0.0,0.0,0.0,0.507812448,0.01,0.0,1722.0,0.5,0.0,0.0,0.0,0.0,3.337402002,0.01,0.0,705.0,0.625,0.0,-0.0,0.0,0.125,1.616210772,0.01,0.0,0.6100000143051147,-0.8999999761581421,172.41000366210938,-0.0069580078125,0.01190185546875,1.02215576171875,37.040000915527344,0.0,-8.0,0.9471893310546875,2.335845947265625,Closing,0.0,0.0,0.0,0.0,0.0,0.0,0.0,0.0,
7.761391000000003,0.0,0.0,-13531.0,0.125,37.5,0.0,0.0,0.25,0.784912029,0.01,0.0,12936.0,0.125,0.0,-0.0,0.0,0.125,0.49926752700000004,0.01,-0.0012207030000004337,1722.0,0.5,0.0,0.0,0.0,0.0,3.339843408,0.01,0.0,705.0,0.625,0.0,-0.0,0.0,0.125,1.6064451480000002,0.01,0.0,0.6200000047683716,-0.8899999856948853,172.41000366210938,-0.00640869140625,0.01104736328125,1.0218505859375,37.040000915527344,0.0,-9.0,0.9471893310546875,2.335845947265625,Closing,0.0,0.0,0.0,0.0,0.0,0.0,0.0,0.125,
7.813004000000001,0.0,0.0,-13531.0,0.125,7.5,0.0,0.0,0.25,0.784912029,0.01,-0.0024414059999999793,12936.0,0.125,0.0,-0.0,0.0,0.0,0.507812448,0.01,0.0012207030000004337,1722.0,0.5,0.0,0.0,0.0,0.0,3.339843408,0.01,0.0,705.0,0.625,0.0,-0.0,0.0,0.125,1.617431475,0.01,0.0,0.6100000143051147,-0.8700000047683716,172.4199981689453,-0.00634765625,0.01129150390625,1.01336669921875,37.040000915527344,0.0,-9.0,0.9471893310546875,2.335845947265625,Closing,0.0,0.0,0.0,0.0,0.0,0.0,0.0,0.0,
7.86794200000001,0.0,0.0,-13531.0,0.125,0.0,0.0,0.0,0.25,0.784912029,0.01,0.0012207030000004337,12936.0,0.125,0.0,-0.0,0.0,0.0,0.507812448,0.01,0.0,1722.0,0.5,0.0,0.0,0.0,0.0,3.328857081,0.01,0.0,705.0,0.625,0.0,-0.0,0.0,0.125,1.618652178,0.01,-0.0012207029999995456,0.6100000143051147,-0.8600000143051147,172.41000366210938,-0.00592041015625,0.011474609375,1.01470947265625,37.040000915527344,0.0,-9.0,0.9471893310546875,2.335845947265625,Closing,0.0,0.0,0.0,0.0,0.0,0.0,0.0,0.0,
7.921819000000003,0.0,0.0,-13531.0,0.125,0.0,0.0,0.0,0.25,0.787353435,0.01,0.0,12936.0,0.125,0.0,-0.0,0.0,0.125,0.507812448,0.01,-0.0012207030000004337,1722.0,0.5,0.0,0.0,0.0,0.0,3.339843408,0.01,0.0,705.0,0.625,0.0,-0.0,0.0,0.125,1.617431475,0.01,0.0024414059999999793,0.6200000047683716,-0.8399999737739563,172.41000366210938,-0.0064697265625,0.0108642578125,1.01580810546875,37.040000915527344,0.0,-8.0,0.9471893310546875,2.335845947265625,Closing,0.0,0.0,0.0,0.0,0.0,0.0,0.0,0.125,
7.971462,0.0,0.0,-13531.0,0.125,0.0,0.0,0.0,0.25,0.786132732,0.01,0.0012207029999995456,12936.0,0.125,0.0,-0.0,0.0,0.0,0.507812448,0.01,0.0012207030000004337,1722.0,0.5,0.0,0.0,0.0,0.0,3.330077784,0.01,0.0,705.0,0.625,0.0,-0.0,0.0,0.125,1.616210772,0.01,-0.0012207030000004337,0.6100000143051147,-0.8199999928474426,172.41000366210938,-0.007080078125,0.01239013671875,1.01617431640625,37.040000915527344,0.0,-7.0,0.9471893310546875,2.335845947265625,Closing,0.0,0.0,0.0,0.0,0.0,0.0,0.0,0.0,
8.026394,0.0,0.0,-13531.0,0.125,0.0,0.0,0.0,0.25,0.7775878110000001,0.01,-0.0012207029999995456,12936.0,0.125,0.0,-0.0,0.0,0.125,0.507812448,0.01,0.0012207030000004337,1722.0,0.5,0.0,0.0,0.0,0.0,3.339843408,0.01,-0.0012207030000004337,705.0,0.625,0.0,-0.0,0.0,0.125,1.616210772,0.01,0.0,0.6100000143051147,-0.8100000023841858,172.41000366210938,-0.00927734375,0.0078125,1.0191650390625,37.040000915527344,0.0,-5.0,0.9471893310546875,2.335845947265625,Closing,0.0,0.0,0.0,0.0,0.0,0.0,0.0,0.0,
8.080694000000003,0.0,0.0,-13531.0,0.125,0.0,0.0,0.0,0.25,0.784912029,0.01,0.0,12936.0,0.125,0.0,-0.0,0.0,0.0,0.5151366660000001,0.01,0.0,1722.0,0.5,0.0,0.0,0.0,0.0,3.339843408,0.01,0.0012207030000004337,705.0,0.625,0.0,-0.0,0.0,0.125,1.617431475,0.01,0.0,0.6100000143051147,-0.7900000214576721,172.41000366210938,-0.00958251953125,0.0113525390625,1.02081298828125,37.040000915527344,0.0,-4.0,0.9471893310546875,2.335845947265625,Closing,0.0,0.0,0.0,0.0,0.0,0.0,0.0,0.0,
8.135620999999999,0.0,0.0,-13531.0,0.125,0.0,0.0,0.0,0.25,0.786132732,0.01,0.0,12936.0,0.125,0.0,-0.0,0.0,0.125,0.507812448,0.01,-0.0012207030000004337,1722.0,0.5,0.0,0.0,0.0,0.0,3.338622705,0.01,0.0,705.0,0.625,0.0,-0.0,0.0,0.125,1.617431475,0.01,0.0,0.6100000143051147,-0.7799999713897705,172.41000366210938,-0.00732421875,0.01025390625,1.0245361328125,37.040000915527344,0.0,-6.0,0.9471893310546875,2.335845947265625,Closing,0.0,0.0,0.0,0.0,0.0,0.0,0.0,0.0,
8.190330000000001,0.0,0.0,-13531.0,0.125,0.0,0.0,0.0,0.25,0.783691326,0.01,0.0012207029999995456,12936.0,0.125,0.0,-0.0,0.0,0.125,0.507812448,0.01,0.0012207030000004337,1722.0,0.5,0.0,0.0,0.0,0.0,3.339843408,0.01,-0.0012207030000004337,705.0,0.625,0.0,-0.0,0.0,0.125,1.617431475,0.01,0.0,0.6100000143051147,-0.7699999809265137,172.41000366210938,-0.007568359375,0.008544921875,1.0205078125,37.040000915527344,0.0,-6.0,0.9471893310546875,2.335845947265625,Closing,0.0,0.0,0.0,0.0,0.0,0.0,0.0,0.0,
8.24513500000001,0.0,0.0,-13531.0,0.125,0.0,0.0,0.0,0.25,0.7897948410000001,0.01,-0.0012207029999995456,12936.0,0.125,0.0,-0.0,0.0,0.0,0.507812448,0.01,0.0,1722.0,0.5,0.0,0.0,0.0,0.0,3.339843408,0.01,0.0012207030000004337,705.0,0.625,0.0,-0.0,0.0,0.125,1.617431475,0.01,0.0,0.6100000143051147,-0.75,172.41000366210938,-0.01055908203125,0.0108642578125,1.01776123046875,37.040000915527344,0.0,-2.0,0.9471893310546875,2.335845947265625,Closing,0.0,0.0,0.0,0.0,0.0,0.0,0.0,0.0,
8.295353000000002,0.0,0.0,-13531.0,0.125,0.0,0.0,0.0,0.25,0.784912029,0.01,0.0012207029999995456,12936.0,0.125,0.0,-0.0,0.0,0.0,0.507812448,0.01,0.0,1722.0,0.5,0.0,0.0,0.0,0.0,3.339843408,0.01,0.0,705.0,0.625,0.0,-0.0,0.0,0.125,1.616210772,0.01,0.0,0.6100000143051147,-0.75,172.41000366210938,-0.0078125,0.01361083984375,1.01666259765625,37.040000915527344,0.0,-5.0,0.9471893310546875,2.335845947265625,Closing,0.0,0.0,0.0,0.0,0.0,0.0,0.0,0.125,
8.349797000000006,0.0,0.0,-13531.0,0.125,0.0,0.0,0.0,0.25,0.784912029,0.01,0.0,12936.0,0.125,0.0,-0.0,0.0,0.0,0.507812448,0.01,0.0,1722.0,0.5,0.0,0.0,0.0,0.0,3.331298487,0.01,0.0,705.0,0.625,0.0,-0.0,0.0,0.125,1.617431475,0.01,0.0,0.6200000047683716,-0.7400000095367432,172.4199981689453,-0.01171875,0.01275634765625,1.017578125,37.060001373291016,0.0,-1.0,0.9471893310546875,2.335845947265625,Closing,0.0,0.0,0.0,0.0,0.0,0.0,0.0,0.0,
8.405166000000012,0.0,0.0,-13531.0,0.125,0.0,0.0,0.0,0.25,0.783691326,0.01,-0.0012207029999995456,12936.0,0.125,0.0,-0.0,0.0,0.0,0.507812448,0.01,0.0,1722.0,0.5,0.0,0.0,0.0,0.0,3.338622705,0.01,0.0,705.0,0.75,0.0,-0.0,0.0,0.125,1.617431475,0.01,0.0,0.6100000143051147,-0.7200000286102295,172.4199981689453,-0.009765625,0.0087890625,1.01348876953125,37.060001373291016,0.0,-3.0,0.9471893310546875,2.335845947265625,Closing,0.0,0.0,0.0,0.0,0.0,0.0,0.0,0.0,
8.456661000000008,0.0,0.0,-13531.0,0.125,0.0,0.0,0.0,0.25,0.780029217,0.01,0.0024414059999999793,12936.0,0.125,0.0,-0.0,0.0,0.125,0.507812448,0.01,-0.0012207030000004337,1722.0,0.5,0.0,0.0,0.0,0.0,3.338622705,0.01,0.0,705.0,0.75,0.0,-0.0,0.0,0.125,1.616210772,0.01,0.0,0.6100000143051147,-0.7099999785423279,172.4199981689453,-0.0067138671875,0.011962890625,1.01348876953125,37.060001373291016,0.0,-5.0,0.9471893310546875,2.335845947265625,Closing,0.0,0.0,0.0,0.0,0.0,0.0,0.0,0.0,
8.510766000000004,0.0,0.0,-13531.0,0.125,0.0,0.0,0.0,0.25,0.784912029,0.01,-0.0012207030000004337,12936.0,0.125,0.0,-0.0,0.0,0.125,0.507812448,0.01,0.0,1722.0,0.5,0.0,0.0,0.0,0.0,3.339843408,0.01,0.0,705.0,0.75,0.0,-0.0,0.0,0.125,1.616210772,0.01,0.0,0.6100000143051147,-0.699999988079071,172.41000366210938,-0.005859375,0.00982666015625,1.0230712890625,37.060001373291016,0.0,-6.0,0.9471893310546875,2.335845947265625,Closing,0.0,0.0,0.0,0.0,0.0,0.0,0.0,0.0,
8.567807,0.0,0.0,-13531.0,0.125,0.0,0.0,0.0,0.25,0.784912029,0.01,0.0,12936.0,0.125,0.0,-0.0,0.0,0.125,0.506591745,0.01,0.0,1722.0,0.5,0.0,0.0,0.0,0.0,3.338622705,0.01,0.0,705.0,0.75,0.0,-0.0,0.0,0.125,1.617431475,0.01,0.0,0.6100000143051147,-0.699999988079071,172.4199981689453,-0.0093994140625,0.01043701171875,1.01751708984375,37.060001373291016,0.0,-3.0,0.9471893310546875,2.335845947265625,Closing,0.0,0.0,0.0,0.0,0.0,0.0,0.0,0.0,
8.626541000000012,0.0,0.0,-13531.0,0.125,0.0,0.0,0.0,0.25,0.75683586,0.01,0.0,12936.0,0.125,0.0,-0.0,0.0,0.0,0.506591745,0.01,-0.0012207030000004337,1722.0,0.5,0.0,0.0,0.0,0.0,3.341064111,0.01,0.0,705.0,0.75,0.0,-0.0,0.0,0.125,1.617431475,0.01,0.0,0.6100000143051147,-0.6800000071525574,172.4199981689453,-0.00836181640625,0.00689697265625,1.0208740234375,37.060001373291016,0.0,-4.0,0.9471893310546875,2.335845947265625,Closing,0.0,0.0,0.0,0.0,0.0,0.0,0.0,0.125,
8.683235,0.0,0.0,-13531.0,0.125,0.0,0.0,0.0,0.25,0.784912029,0.01,-0.0012207029999995456,12936.0,0.125,0.0,-0.0,0.0,0.125,0.507812448,0.01,0.0012207030000004337,1722.0,0.5,0.0,0.0,0.0,0.0,3.338622705,0.01,0.0,705.0,0.75,0.0,-0.0,0.0,0.125,1.617431475,0.01,0.0,0.6100000143051147,-0.6800000071525574,172.4199981689453,-0.00909423828125,0.01263427734375,1.01611328125,37.060001373291016,0.0,-2.0,0.9471893310546875,2.335845947265625,Closing,0.0,0.0,0.0,0.0,0.0,0.0,0.0,0.0,
8.740985,0.0,0.0,-13531.0,0.125,0.0,0.0,0.0,0.25,0.784912029,0.01,0.0,12936.0,0.125,0.0,-0.0,0.0,0.0,0.507812448,0.01,0.0,1722.0,0.5,0.0,0.0,0.0,0.0,3.331298487,0.01,0.0,705.0,0.75,0.0,-0.0,0.0,0.125,1.617431475,0.01,0.0,0.6100000143051147,-0.6700000166893005,172.4199981689453,-0.0096435546875,0.0106201171875,1.01910400390625,37.060001373291016,0.0,-2.0,0.9471893310546875,2.335845947265625,Closing,0.0,0.0,0.0,0.0,0.0,0.0,0.0,0.125,
8.79147600000001,0.0,0.0,-13531.0,0.125,0.0,0.0,0.0,0.25,0.784912029,0.01,0.0012207029999995456,12936.0,0.125,0.0,-0.0,0.0,0.0,0.507812448,0.01,0.0,1722.0,0.5,0.0,0.0,0.0,0.0,3.339843408,0.01,0.0,705.0,0.75,0.0,-0.0,0.0,0.125,1.616210772,0.01,0.0,0.6100000143051147,-0.6600000262260437,172.4199981689453,-0.01019287109375,0.01055908203125,1.01641845703125,37.060001373291016,0.0,-1.0,0.9471893310546875,2.335845947265625,Closing,0.0,0.0,0.0,0.0,0.0,0.0,0.0,0.0,
8.846853000000003,0.0,0.0,-13531.0,0.125,0.0,0.0,0.0,0.25,0.783691326,0.01,0.0,12936.0,0.125,0.0,-0.0,0.0,0.0,0.507812448,0.01,0.0,1722.0,0.5,0.0,0.0,0.0,0.0,3.339843408,0.01,0.0,705.0,0.75,0.0,-0.0,0.0,0.125,1.616210772,0.01,0.0,0.6100000143051147,-0.6600000262260437,172.4199981689453,-0.00933837890625,0.00775146484375,1.015380859375,37.06999969482422,0.0,-2.0,0.9471893310546875,2.335845947265625,Closing,0.0,0.0,0.0,0.0,0.0,0.0,0.0,0.0,
8.903599000000002,0.0,0.0,-13531.0,0.125,0.0,0.0,0.0,0.25,0.782470623,0.01,0.0,12936.0,0.125,0.0,-0.0,0.0,0.0,0.507812448,0.01,0.0,1722.0,0.5,0.0,0.0,0.0,0.0,3.339843408,0.01,0.0,705.0,0.75,0.0,-0.0,0.0,0.125,1.617431475,0.01,0.0,0.6100000143051147,-0.6499999761581421,172.4199981689453,-0.01043701171875,0.0101318359375,1.01629638671875,37.06999969482422,0.0,-1.0,0.9471893310546875,2.335845947265625,Closing,0.0,0.0,0.0,0.0,0.0,0.0,0.0,0.125,
8.953111000000005,0.0,0.0,-13531.0,0.125,0.0,0.0,0.0,0.25,0.784912029,0.01,-0.0012207029999995456,12936.0,0.125,0.0,-0.0,0.0,0.0,0.507812448,0.01,0.0,1722.0,0.5,0.0,0.0,0.0,0.0,3.338622705,0.01,0.0,705.0,0.75,0.0,-0.0,0.0,0.125,1.616210772,0.01,0.0,0.6000000238418579,-0.6399999856948853,172.4199981689453,-0.0084228515625,0.01220703125,1.02130126953125,37.06999969482422,0.0,-2.0,0.9471893310546875,2.335845947265625,Closing,0.0,0.0,0.0,0.0,0.0,0.0,0.0,0.0,
9.006024000000005,0.0,0.0,-13531.0,0.125,0.0,0.0,0.0,0.25,0.784912029,0.01,0.0012207029999995456,12936.0,0.125,0.0,-0.0,0.0,0.0,0.507812448,0.01,0.0,1722.0,0.5,0.0,0.0,0.0,0.0,3.339843408,0.01,0.0,705.0,0.75,0.0,-0.0,0.0,0.125,1.617431475,0.01,0.0,0.6000000238418579,-0.6299999952316284,172.41000366210938,-0.0089111328125,0.010498046875,1.01495361328125,37.06999969482422,0.0,-2.0,0.9471893310546875,2.335845947265625,Closing,0.0,0.0,0.0,0.0,0.0,0.0,0.0,0.0,
9.056266000000003,0.0,0.0,-13531.0,0.125,0.0,0.0,0.0,0.25,0.782470623,0.01,0.0,12936.0,0.125,0.0,-0.0,0.0,0.0,0.507812448,0.01,0.0,1722.0,0.5,0.0,0.0,0.0,0.0,3.338622705,0.01,0.0,705.0,0.75,0.0,-0.0,0.0,0.125,1.617431475,0.01,0.0,0.6000000238418579,-0.6299999952316284,172.4199981689453,-0.00909423828125,0.00958251953125,1.02215576171875,37.06999969482422,0.0,-2.0,0.9471893310546875,2.335845947265625,Closing,0.0,0.0,0.0,0.0,0.0,0.0,0.0,0.125,
9.108474000000003,0.0,0.0,-13531.0,0.0,0.0,0.0,0.0,0.125,0.784912029,0.01,-0.0012207029999995456,12936.0,0.0,0.0,-0.0,0.0,0.0,0.507812448,0.01,0.0,1722.0,0.25,0.0,0.0,0.0,0.0,3.339843408,0.01,0.0,705.0,0.25,0.0,-0.0,0.0,0.125,1.616210772,0.01,0.0,0.6000000238418579,-0.6200000047683716,172.4199981689453,-0.00860595703125,0.009521484375,1.0242919921875,37.06999969482422,0.0,-2.0,0.9471893310546875,2.335845947265625,Closing,0.0,0.0,0.0,0.0,0.0,0.0,0.0,0.125,
