Time,ClimberA1,ClimberA2,FRpos,FRCurrent,FRspeed,FRsetpoint,FRApos,FRACurrent,FREncpos,FREncSetpoint,FREncSpeed,FLpos,FLCurrent,FLspeed,FLsetpoint,FLApos,FLACurrent,FLEncpos,FLEncSetpoint,FLEncSpeed,BRpos,BRCurrent,BRspeed,BRsetpoint,BRApos,BRACurrent,BREncpos,BREncSetpoint,BREncSpeed,BLpos,BLCurrent,BLspeed,BLsetpoint,BLApos,BLACurrent,BLEncpos,BLEncSetpoint,BLEncSpeed,navx_Pitch,navx_Roll,navx_Yaw,navx_XAcc,navx_YAcc,navx_ZAcc,navx_Temp,navx_Bar,navx_Alt,navx_XDis,navx_YDis,GearPlacerState,ShootOutputV,ShootOutputCurrent,ShootEncPos,ShootEncVelocity,ShootSpeed,ShootSetpoint,CarouselSetpoint,CarouselCurrent,
0.1565239999999976,0.0,0.0,-18897.0,0.0,0.0,0.0,0.0,0.125,0.826415931,0.01,0.0,611.0,0.0,0.0,-0.0,0.0,0.0,0.507812448,0.01,0.0,-16804.0,0.0,0.0,0.0,0.0,0.0,3.34472622,0.01,0.0,5663.0,0.0,0.0,-0.0,0.0,0.25,1.597900227,0.01,0.0,0.3100000023841858,-0.41999998688697815,-34.90999984741211,-0.01458740234375,-0.02960205078125,0.989501953125,37.119998931884766,0.0,14.0,-0.724853515625,-2.6165618896484375,Closing,0.0,0.0,0.0,0.0,0.0,0.0,0.0,0.0,
0.2092520000000004,0.0,0.0,-18897.0,0.0,0.0,0.0,0.0,0.125,0.826415931,0.01,0.0,611.0,0.0,0.0,-0.0,0.0,0.0,0.507812448,0.01,0.0,-16804.0,0.0,0.0,0.0,0.0,0.0,3.34472622,0.01,0.0,5663.0,0.0,0.0,-0.0,0.0,0.25,1.597900227,0.01,0.0,0.3199999928474426,-0.4300000071525574,-34.90999984741211,-0.01275634765625,-0.03363037109375,1.04901123046875,37.119998931884766,0.0,18.0,-0.724853515625,-2.616485595703125,Closing,0.0,0.0,0.0,0.0,0.0,0.0,0.0,0.0,
0.23668000000000028,0.0,0.0,-18897.0,0.0,0.0,0.0,0.0,0.125,0.8276366340000001,0.01,0.0,611.0,0.0,0.0,-0.0,0.0,0.0,0.507812448,0.01,0.0,-16804.0,0.0,0.0,0.0,0.0,0.0,3.345946923,0.01,0.0,5663.0,0.0,0.0,-0.0,0.0,0.25,1.597900227,0.01,0.0,0.3100000023841858,-0.4300000071525574,-34.90999984741211,-3.0517578125E-4,-0.0084228515625,1.07440185546875,37.119998931884766,0.0,14.0,-0.724853515625,-2.6166839599609375,Closing,0.0,0.0,0.0,0.0,0.0,0.0,0.0,0.0,
0.27178299999999583,0.0,0.0,-18897.0,0.0,0.0,0.0,0.0,0.125,0.826415931,0.01,0.0,611.0,0.0,0.0,-0.0,0.0,0.0,0.507812448,0.01,0.0,-16804.0,0.0,0.0,0.0,0.0,0.0,3.343505517,0.01,0.0,5663.0,0.0,0.0,-0.0,0.0,0.25,1.597900227,0.01,0.0,0.30000001192092896,-0.4300000071525574,-34.90999984741211,0.0048828125,0.02996826171875,1.05224609375,37.119998931884766,0.0,-3.0,-0.724853515625,-2.6166534423828125,Closing,0.0,0.0,0.0,0.0,0.0,0.0,0.0,0.0,
0.300150999999998,0.0,0.0,-18897.0,0.0,0.0,0.0,0.0,0.125,0.826415931,0.01,0.0,611.0,0.0,0.0,-0.0,0.0,0.0,0.507812448,0.01,0.0,-16804.0,0.0,0.0,0.0,0.0,0.0,3.34472622,0.01,0.0,5663.0,0.0,0.0,-0.0,0.0,0.25,1.597900227,0.01,0.0,0.28999999165534973,-0.4300000071525574,-34.90999984741211,0.0125732421875,0.05078125,0.9791259765625,37.119998931884766,0.0,-9.0,-0.724853515625,-2.616424560546875,Closing,0.0,0.0,0.0,0.0,0.0,0.0,0.0,0.0,
0.33478199999999925,0.0,0.0,-18897.0,0.0,0.0,0.0,0.0,0.125,0.826415931,0.01,0.0,611.0,0.0,0.0,-0.0,0.0,0.0,0.507812448,0.01,0.0,-16804.0,0.0,0.0,0.0,0.0,0.0,3.34472622,0.01,0.0,5663.0,0.0,0.0,-0.0,0.0,0.25,1.597900227,0.01,-0.0012207030000004337,0.28999999165534973,-0.4300000071525574,-34.90999984741211,-0.00634765625,0.0347900390625,1.000732421875,37.119998931884766,0.0,-15.0,-0.724853515625,-2.6159820556640625,Closing,0.0,0.0,0.0,0.0,0.0,0.0,0.0,0.0,
0.37092899999999646,0.0,0.0,-18897.0,0.0,0.0,0.0,0.0,0.125,0.8276366340000001,0.01,0.0,611.0,0.0,0.0,-0.0,0.0,0.0,0.509033151,0.01,0.0,-16804.0,0.0,0.0,0.0,0.0,0.0,3.34472622,0.01,0.0,5663.0,0.0,0.0,-0.0,0.0,0.25,1.597900227,0.01,-0.0012207030000004337,0.28999999165534973,-0.4300000071525574,-34.90999984741211,-0.0166015625,-0.00396728515625,0.955078125,37.119998931884766,0.0,-2.0,-0.724853515625,-2.615478515625,Closing,0.0,0.0,0.0,0.0,0.0,0.0,0.0,0.0,
0.3971259999999966,0.0,0.0,-18897.0,0.0,0.0,0.0,0.0,0.125,0.826415931,0.01,0.0,611.0,0.0,0.0,-0.0,0.0,0.0,0.507812448,0.01,0.0,-16804.0,0.0,0.0,0.0,0.0,0.0,3.34472622,0.01,0.0,5663.0,0.0,0.0,-0.0,0.0,0.25,1.597900227,0.01,0.0012207030000004337,0.3100000023841858,-0.4300000071525574,-34.90999984741211,-0.02215576171875,-0.0394287109375,1.02984619140625,37.119998931884766,0.0,14.0,-0.724853515625,-2.614990234375,Closing,0.0,0.0,0.0,0.0,0.0,0.0,0.0,0.0,
0.43400799999999434,0.0,0.0,-18897.0,0.0,0.0,0.0,0.0,0.125,0.826415931,0.01,0.0,611.0,0.0,0.0,-0.0,0.0,0.0,0.507812448,0.01,0.0,-16804.0,0.0,0.0,0.0,0.0,0.0,3.34472622,0.01,0.0,5663.0,0.0,0.0,-0.0,0.0,0.25,1.597900227,0.01,0.0,0.3199999928474426,-0.4300000071525574,-34.90999984741211,-0.009033203125,-0.020751953125,1.05908203125,37.119998931884766,0.0,14.0,-0.724853515625,-2.6149139404296875,Closing,0.0,0.0,0.0,0.0,0.0,0.0,0.0,0.0,
0.4637619999999952,0.0,0.0,-18897.0,0.0,0.0,0.0,0.0,0.125,0.8276366340000001,0.01,0.0,611.0,0.0,0.0,-0.0,0.0,0.0,0.507812448,0.01,0.0,-16804.0,0.0,0.0,0.0,0.0,0.0,3.34472622,0.01,0.0,5663.0,0.0,0.0,-0.0,0.0,0.25,1.597900227,0.01,0.0,0.3100000023841858,-0.4300000071525574,-34.90999984741211,0.005859375,0.0238037109375,1.07757568359375,37.119998931884766,0.0,1.0,-0.724853515625,-2.6149139404296875,Closing,0.0,0.0,0.0,0.0,0.0,0.0,0.0,0.0,
0.4975119999999952,0.0,0.0,-18897.0,0.0,0.0,0.0,0.0,0.125,0.826415931,0.01,0.0,611.0,0.0,0.0,-0.0,0.0,0.0,0.507812448,0.01,0.0,-16804.0,0.0,0.0,0.0,0.0,0.0,3.345946923,0.01,0.0,5663.0,0.0,0.0,-0.0,0.0,0.25,1.597900227,0.01,0.0,0.30000001192092896,-0.4300000071525574,-34.91999816894531,0.00897216796875,0.05078125,1.0146484375,37.119998931884766,0.0,-12.0,-0.724853515625,-2.6147308349609375,Closing,0.0,0.0,0.0,0.0,0.0,0.0,0.0,0.0,
0.526663999999997,0.0,0.0,-18897.0,0.0,0.0,0.0,0.0,0.125,0.826415931,0.01,0.0,611.0,0.0,0.0,-0.0,0.0,0.0,0.506591745,0.01,0.0,-16804.0,0.0,0.0,0.0,0.0,0.0,3.34472622,0.01,0.0,5663.0,0.0,0.0,-0.0,0.0,0.25,1.597900227,0.01,0.0,0.28999999165534973,-0.4300000071525574,-34.90999984741211,-0.0069580078125,0.03607177734375,0.98956298828125,37.119998931884766,0.0,-17.0,-0.724853515625,-2.6143341064453125,Closing,0.0,0.0,0.0,0.0,0.0,0.0,0.0,0.0,
0.5601369999999952,0.0,0.0,-18897.0,0.0,0.0,0.0,0.0,0.125,0.826415931,0.01,0.0,611.0,0.0,0.0,-0.0,0.0,0.0,0.507812448,0.01,0.0,-16804.0,0.0,0.0,0.0,0.0,0.0,3.34472622,0.01,0.0,5663.0,0.0,0.0,-0.0,0.0,0.25,1.597900227,0.01,0.0,0.28999999165534973,-0.4300000071525574,-34.90999984741211,-0.010986328125,-0.00567626953125,0.96630859375,37.119998931884766,0.0,3.0,-0.724853515625,-2.613861083984375,Closing,0.0,0.0,0.0,0.0,0.0,0.0,0.0,0.0,
0.5903559999999998,0.0,0.0,-18897.0,0.0,0.0,0.0,0.0,0.125,0.8276366340000001,0.01,0.0,611.0,0.0,0.0,-0.0,0.0,0.0,0.507812448,0.01,0.0,-16804.0,0.0,0.0,0.0,0.0,0.0,3.34472622,0.01,0.0,5663.0,0.0,0.0,-0.0,0.0,0.25,1.597900227,0.01,0.0,0.30000001192092896,-0.41999998688697815,-34.90999984741211,-0.0289306640625,-0.03497314453125,1.0164794921875,37.119998931884766,0.0,5.0,-0.724853515625,-2.613525390625,Closing,0.0,0.0,0.0,0.0,0.0,0.0,0.0,0.0,
0.6256480000000011,0.0,0.0,-18897.0,0.0,0.0,0.0,0.0,0.125,0.826415931,0.01,0.0,611.0,0.0,0.0,-0.0,0.0,0.0,0.507812448,0.01,0.0,-16804.0,0.0,0.0,0.0,0.0,0.0,3.345946923,0.01,0.0,5663.0,0.0,0.0,-0.0,0.0,0.25,1.597900227,0.01,0.0,0.30000001192092896,-0.4300000071525574,-34.91999816894531,-0.00653076171875,-0.0306396484375,1.06103515625,37.119998931884766,0.0,22.0,-0.7247772216796875,-2.6134033203125,Closing,0.0,0.0,0.0,0.0,0.0,0.0,0.0,0.0,
0.6518410000000003,0.0,0.0,-18897.0,0.0,0.0,0.0,0.0,0.125,0.826415931,0.01,0.0,611.0,0.0,0.0,-0.0,0.0,0.0,0.507812448,0.01,0.0,-16804.0,0.0,0.0,0.0,0.0,0.0,3.343505517,0.01,0.0,5663.0,0.0,0.0,-0.0,0.0,0.25,1.597900227,0.01,0.0,0.30000001192092896,-0.4300000071525574,-34.91999816894531,0.0020751953125,0.0179443359375,1.07232666015625,37.119998931884766,0.0,1.0,-0.7247161865234375,-2.6133880615234375,Closing,0.0,0.0,0.0,0.0,0.0,0.0,0.0,0.0,
0.685726999999999,0.0,0.0,-18897.0,0.0,0.0,0.0,0.0,0.125,0.826415931,0.01,0.0,611.0,0.0,0.0,-0.0,0.0,0.0,0.507812448,0.01,0.0,-16804.0,0.0,0.0,0.0,0.0,0.0,3.345946923,0.01,0.0,5663.0,0.0,0.0,-0.0,0.0,0.25,1.597900227,0.01,0.0,0.28999999165534973,-0.4300000071525574,-34.90999984741211,-0.0010986328125,0.045166015625,1.0079345703125,37.119998931884766,0.0,-17.0,-0.7247161865234375,-2.6130828857421875,Closing,0.0,0.0,0.0,0.0,0.0,0.0,0.0,0.0,
0.714239999999998,0.0,0.0,-18897.0,0.0,0.0,0.0,0.0,0.125,0.826415931,0.01,0.0,611.0,0.0,0.0,-0.0,0.0,0.0,0.509033151,0.01,0.0,-16804.0,0.0,0.0,0.0,0.0,0.0,3.34472622,0.01,0.0,5663.0,0.0,0.0,-0.0,0.0,0.25,1.597900227,0.01,0.0,0.28999999165534973,-0.4300000071525574,-34.90999984741211,-0.0079345703125,0.037841796875,0.98736572265625,37.119998931884766,0.0,-19.0,-0.7247161865234375,-2.6128692626953125,Closing,0.0,0.0,0.0,0.0,0.0,0.0,0.0,0.0,
0.7459329999999973,0.0,0.0,-18897.0,0.0,0.0,0.0,0.0,0.125,0.825195228,0.01,0.0,611.0,0.0,0.0,-0.0,0.0,0.0,0.507812448,0.01,0.0,-16804.0,0.0,0.0,0.0,0.0,0.0,3.34472622,0.01,0.0,5663.0,0.0,0.0,-0.0,0.0,0.25,1.597900227,0.01,0.0,0.28999999165534973,-0.4300000071525574,-34.91999816894531,-0.02789306640625,-0.02410888671875,0.975830078125,37.119998931884766,0.0,0.0,-0.7247161865234375,-2.6126861572265625,Closing,0.0,0.0,0.0,0.0,0.0,0.0,0.0,0.0,
0.7758410000000003,0.0,0.0,-18897.0,0.0,0.0,0.0,0.0,0.125,0.826415931,0.01,0.0,611.0,0.0,0.0,-0.0,0.0,0.0,0.507812448,0.01,0.0,-16804.0,0.0,0.0,0.0,0.0,0.0,3.34472622,0.01,0.0,5663.0,0.0,0.0,-0.0,0.0,0.25,1.597900227,0.01,0.0,0.28999999165534973,-0.4300000071525574,-34.91999816894531,-0.02703857421875,-0.03912353515625,1.00518798828125,37.119998931884766,0.0,9.0,-0.7247161865234375,-2.6127777099609375,Closing,0.0,0.0,0.0,0.0,0.0,0.0,0.0,0.0,
0.820916999999994,0.0,0.0,-18897.0,0.0,0.0,0.0,0.0,0.125,0.826415931,0.01,0.0,611.0,0.0,0.0,-0.0,0.0,0.0,0.507812448,0.01,0.0,-16804.0,0.0,0.0,0.0,0.0,0.0,3.34472622,0.01,0.0,5663.0,0.0,0.0,-0.0,0.0,0.25,1.597900227,0.01,0.0,0.30000001192092896,-0.4300000071525574,-34.90999984741211,0.00360107421875,0.0250244140625,1.08349609375,37.130001068115234,0.0,-1.0,-0.7247161865234375,-2.613525390625,Closing,0.0,0.0,0.0,0.0,0.0,0.0,0.0,0.0,
0.851148000000001,0.0,0.0,-18897.0,0.0,0.0,0.0,0.0,0.125,0.826415931,0.01,0.0,611.0,0.0,0.0,-0.0,0.0,0.0,0.507812448,0.01,0.0,-16804.0,0.0,0.0,0.0,0.0,0.0,3.34472622,0.01,0.0,5663.0,0.0,0.0,-0.0,0.0,0.25,1.597900227,0.01,0.0,0.28999999165534973,-0.4300000071525574,-34.90999984741211,0.006103515625,0.0494384765625,1.019287109375,37.130001068115234,0.0,-13.0,-0.7247161865234375,-2.61376953125,Closing,0.0,0.0,0.0,0.0,0.0,0.0,0.0,0.0,
0.887341999999997,0.0,0.0,-18897.0,0.0,0.0,0.0,0.0,0.125,0.826415931,0.01,0.0,611.0,0.0,0.0,-0.0,0.0,0.0,0.509033151,0.01,0.0,-16804.0,0.0,0.0,0.0,0.0,0.0,3.34472622,0.01,0.0,5663.0,0.0,0.0,-0.0,0.0,0.25,1.597900227,0.01,0.0,0.28999999165534973,-0.4300000071525574,-34.91999816894531,-0.01739501953125,0.0238037109375,0.99810791015625,37.130001068115234,0.0,-18.0,-0.72479248046875,-2.613800048828125,Closing,0.0,0.0,0.0,0.0,0.0,0.0,0.0,0.0,
0.915890999999996,0.0,0.0,-18897.0,0.0,0.0,0.0,0.0,0.125,0.8276366340000001,0.01,0.0,611.0,0.0,0.0,-0.0,0.0,0.0,0.507812448,0.01,0.0,-16804.0,0.0,0.0,0.0,0.0,0.0,3.34472622,0.01,0.0,5663.0,0.0,0.0,-0.0,0.0,0.25,1.597900227,0.01,0.0,0.28999999165534973,-0.4300000071525574,-34.91999816894531,-0.019775390625,-0.0191650390625,0.96319580078125,37.130001068115234,0.0,3.0,-0.724853515625,-2.61383056640625,Closing,0.0,0.0,0.0,0.0,0.0,0.0,0.0,0.0,
0.9490020000000005,0.0,0.0,-18897.0,0.0,0.0,0.0,0.0,0.125,0.826415931,0.01,0.0,611.0,0.0,0.0,-0.0,0.0,0.0,0.507812448,0.01,0.0,-16804.0,0.0,0.0,0.0,0.0,0.0,3.34472622,0.01,0.0,5663.0,0.0,0.0,-0.0,0.0,0.25,1.597900227,0.01,0.0,0.28999999165534973,-0.4300000071525574,-34.91999816894531,-0.030517578125,-0.03131103515625,0.978759765625,37.130001068115234,0.0,1.0,-0.724853515625,-2.6138916015625,Closing,0.0,0.0,0.0,0.0,0.0,0.0,0.0,0.0,
0.978163999999997,0.0,0.0,-18897.0,0.0,0.0,0.0,0.0,0.125,0.826415931,0.01,0.0,611.0,0.0,0.0,-0.0,0.0,0.0,0.509033151,0.01,0.0,-16804.0,0.0,0.0,0.0,0.0,0.0,3.345946923,0.01,0.0,5663.0,0.0,0.0,-0.0,0.0,0.25,1.597900227,0.01,0.0,0.30000001192092896,-0.41999998688697815,-34.91999816894531,-0.0067138671875,-0.02996826171875,1.03973388671875,37.130001068115234,0.0,21.0,-0.724822998046875,-2.6142120361328125,Closing,0.0,0.0,0.0,0.0,0.0,0.0,0.0,0.0,
1.0110079999999944,0.0,0.0,-18897.0,0.0,0.0,0.0,0.0,0.125,0.8276366340000001,0.01,0.0,611.0,0.0,0.0,-0.0,0.0,0.0,0.507812448,0.01,0.0,-16804.0,0.0,0.0,0.0,0.0,0.0,3.34472622,0.01,0.0,5663.0,0.0,0.0,-0.0,0.0,0.25,1.597900227,0.01,0.0,0.30000001192092896,-0.41999998688697815,-34.91999816894531,0.00372314453125,0.01849365234375,1.0772705078125,37.130001068115234,0.0,2.0,-0.724700927734375,-2.614410400390625,Closing,0.0,0.0,0.0,0.0,0.0,0.0,0.0,0.0,
1.0370959999999978,0.0,0.0,-18897.0,0.0,0.0,0.0,0.0,0.125,0.826415931,0.01,0.0,611.0,0.0,0.0,-0.0,0.0,0.0,0.507812448,0.01,0.0,-16804.0,0.0,0.0,0.0,0.0,0.0,3.34472622,0.01,0.0,5663.0,0.0,0.0,-0.0,0.0,0.25,1.597900227,0.01,0.0,0.28999999165534973,-0.4300000071525574,-34.91999816894531,-0.001220703125,0.0465087890625,1.01080322265625,37.130001068115234,0.0,-18.0,-0.724700927734375,-2.6141204833984375,Closing,0.0,0.0,0.0,0.0,0.0,0.0,0.0,0.0,
1.0725439999999944,0.0,0.0,-18897.0,0.0,0.0,0.0,0.0,0.125,0.8276366340000001,0.01,0.0,611.0,0.0,0.0,-0.0,0.0,0.0,0.507812448,0.01,0.0,-16804.0,0.0,0.0,0.0,0.0,0.0,3.34472622,0.01,0.0,5663.0,0.0,0.0,-0.0,0.0,0.25,1.59912093,0.01,0.0,0.28999999165534973,-0.4300000071525574,-34.91999816894531,-0.01513671875,0.0018310546875,0.9739990234375,37.130001068115234,0.0,-4.0,-0.7247772216796875,-2.6137237548828125,Closing,0.0,0.0,0.0,0.0,0.0,0.0,0.0,0.0,
1.1089259999999994,0.0,0.0,-18897.0,0.0,0.0,0.0,0.0,0.125,0.826415931,0.01,0.0,611.0,0.0,0.0,-0.0,0.0,0.0,0.507812448,0.01,0.0,-16804.0,0.0,0.0,0.0,0.0,0.0,3.34472622,0.01,0.0,5663.0,0.0,0.0,-0.0,0.0,0.25,1.597900227,0.01,0.0,0.30000001192092896,-0.41999998688697815,-34.91999816894531,-0.03271484375,-0.02996826171875,0.98101806640625,37.130001068115234,0.0,0.0,-0.724822998046875,-2.6134033203125,Closing,0.0,0.0,0.0,0.0,0.0,0.0,0.0,0.0,
1.1341329999999943,0.0,0.0,-18897.0,0.0,0.0,0.0,0.0,0.125,0.826415931,0.01,0.0,611.0,0.0,0.0,-0.0,0.0,0.0,0.507812448,0.01,0.0,-16804.0,0.0,0.0,0.0,0.0,0.0,3.34472622,0.01,0.0,5663.0,0.0,0.0,-0.0,0.0,0.25,1.597900227,0.01,0.0,0.3100000023841858,-0.41999998688697815,-34.91999816894531,-0.00982666015625,-0.0302734375,1.03094482421875,37.130001068115234,0.0,18.0,-0.724822998046875,-2.6132965087890625,Closing,0.0,0.0,0.0,0.0,0.0,0.0,0.0,0.0,
1.1702909999999975,0.0,0.0,-18897.0,0.0,0.0,0.0,0.0,0.125,0.8276366340000001,0.01,0.0,611.0,0.0,0.0,-0.0,0.0,0.0,0.509033151,0.01,0.0,-16804.0,0.0,0.0,0.0,0.0,0.0,3.34472622,0.01,0.0,5663.0,0.0,0.0,-0.0,0.0,0.25,1.597900227,0.01,0.0,0.3100000023841858,-0.41999998688697815,-34.91999816894531,-0.00164794921875,0.0167236328125,1.072265625,37.130001068115234,0.0,-1.0,-0.724822998046875,-2.6132965087890625,Closing,0.0,0.0,0.0,0.0,0.0,0.0,0.0,0.125,
1.2045809999999983,0.0,0.0,-18897.0,0.0,0.0,0.0,0.0,0.125,0.826415931,0.01,0.0,611.0,0.0,0.0,-0.0,0.0,0.0,0.507812448,0.01,0.0,-16804.0,0.0,0.0,0.0,0.0,0.0,3.34472622,0.01,0.0,5663.0,0.0,0.0,-0.0,0.0,0.25,1.597900227,0.01,0.0,0.28999999165534973,-0.4300000071525574,-34.91999816894531,-0.0037841796875,0.0467529296875,1.02099609375,37.130001068115234,0.0,-20.0,-0.7248382568359375,-2.6130218505859375,Closing,0.0,0.0,0.0,0.0,0.0,0.0,0.0,0.0,
1.2362489999999962,0.0,0.0,-18897.0,0.0,0.0,0.0,0.0,0.125,0.8276366340000001,0.01,0.0,611.0,0.0,0.0,-0.0,0.0,0.0,0.507812448,0.01,0.0,-16804.0,0.0,0.0,0.0,0.0,0.0,3.345946923,0.01,0.0,5663.0,0.0,0.0,-0.0,0.0,0.25,1.59912093,0.01,0.0,0.28999999165534973,-0.4300000071525574,-34.91999816894531,-0.01409912109375,0.00421142578125,0.9783935546875,37.130001068115234,0.0,-5.0,-0.724945068359375,-2.612640380859375,Closing,0.0,0.0,0.0,0.0,0.0,0.0,0.0,0.0,
1.2693319999999948,0.0,0.0,-18897.0,0.0,0.0,0.0,0.0,0.125,0.826415931,0.01,0.0,611.0,0.0,0.0,-0.0,0.0,0.0,0.507812448,0.01,0.0,-16804.0,0.0,0.0,0.0,0.0,0.0,3.34472622,0.01,0.0,5663.0,0.0,0.0,-0.0,0.0,0.25,1.597900227,0.01,0.0,0.30000001192092896,-0.41999998688697815,-34.91999816894531,-0.0302734375,-0.031494140625,0.9808349609375,37.130001068115234,0.0,2.0,-0.724945068359375,-2.6126861572265625,Closing,0.0,0.0,0.0,0.0,0.0,0.0,0.0,0.0,
1.295089,0.0,0.0,-18897.0,0.0,0.0,0.0,0.0,0.125,0.826415931,0.01,0.0,611.0,0.0,0.0,-0.0,0.0,0.0,0.507812448,0.01,0.0,-16804.0,0.0,0.0,0.0,0.0,0.0,3.345946923,0.01,0.0,5663.0,0.0,0.0,-0.0,0.0,0.25,1.597900227,0.01,-0.0012207030000004337,0.3100000023841858,-0.41999998688697815,-34.91999816894531,-0.00640869140625,-0.03179931640625,1.0242919921875,37.130001068115234,0.0,22.0,-0.72491455078125,-2.612945556640625,Closing,0.0,0.0,0.0,0.0,0.0,0.0,0.0,0.0,
1.3292180000000007,0.0,0.0,-18897.0,0.0,0.0,0.0,0.0,0.125,0.826415931,0.01,0.0,611.0,0.0,0.0,-0.0,0.0,0.0,0.507812448,0.01,0.0,-16804.0,0.0,0.0,0.0,0.0,0.0,3.34472622,0.01,0.0,5663.0,0.0,0.0,-0.0,0.0,0.25,1.597900227,0.01,-0.0012207030000004337,0.3100000023841858,-0.41999998688697815,-34.91999816894531,0.00823974609375,0.0242919921875,1.076171875,37.09000015258789,0.0,2.0,-0.7248077392578125,-2.61328125,Closing,0.0,0.0,0.0,0.0,0.0,0.0,0.0,0.0,
1.3742180000000008,0.0,0.0,-18897.0,0.0,0.0,0.0,0.0,0.125,0.8276366340000001,0.01,0.0,611.0,0.0,0.0,-0.0,0.0,0.0,0.506591745,0.01,0.0,-16804.0,0.0,0.0,0.0,0.0,0.0,3.345946923,0.01,0.0,5663.0,0.0,0.0,-0.0,0.0,0.25,1.597900227,0.01,0.0012207030000004337,0.28999999165534973,-0.4300000071525574,-34.91999816894531,-0.008544921875,0.0469970703125,1.02978515625,37.09000015258789,0.0,-24.0,-0.7248382568359375,-2.613494873046875,Closing,0.0,0.0,0.0,0.0,0.0,0.0,0.0,0.0,
1.4067999999999956,0.0,0.0,-18897.0,0.0,0.0,0.0,0.0,0.125,0.826415931,0.01,0.0,611.0,0.0,0.0,-0.0,0.0,0.0,0.507812448,0.01,0.0,-16804.0,0.0,0.0,0.0,0.0,0.0,3.345946923,0.01,0.0,5663.0,0.0,0.0,-0.0,0.0,0.25,1.597900227,0.01,0.0,0.28999999165534973,-0.4300000071525574,-34.91999816894531,-0.0159912109375,0.0,0.978271484375,37.09000015258789,0.0,-4.0,-0.7249603271484375,-2.6134796142578125,Closing,0.0,0.0,0.0,0.0,0.0,0.0,0.0,0.0,
1.436237000000001,0.0,0.0,-18897.0,0.0,0.0,0.0,0.0,0.125,0.826415931,0.01,0.0,611.0,0.0,0.0,-0.0,0.0,0.0,0.509033151,0.01,0.0,-16804.0,0.0,0.0,0.0,0.0,0.0,3.345946923,0.01,0.0,5663.0,0.0,0.0,-0.0,0.0,0.25,1.597900227,0.01,0.0,0.30000001192092896,-0.41999998688697815,-34.91999816894531,-0.0250244140625,-0.03985595703125,0.9912109375,37.09000015258789,0.0,11.0,-0.7249603271484375,-2.6136016845703125,Closing,0.0,0.0,0.0,0.0,0.0,0.0,0.0,0.0,
1.4709119999999967,0.0,0.0,-18897.0,0.0,0.0,0.0,0.0,0.125,0.826415931,0.01,0.0,611.0,0.0,0.0,-0.0,0.0,0.0,0.507812448,0.01,0.0,-16804.0,0.0,0.0,0.0,0.0,0.0,3.34472622,0.01,0.0,5663.0,0.0,0.0,-0.0,0.0,0.25,1.597900227,0.01,0.0,0.3100000023841858,-0.41999998688697815,-34.91999816894531,0.00262451171875,-0.02197265625,1.03106689453125,37.09000015258789,0.0,24.0,-0.724884033203125,-2.6139068603515625,Closing,0.0,0.0,0.0,0.0,0.0,0.0,0.0,0.0,
1.4980149999999994,0.0,0.0,-18897.0,0.0,0.0,0.0,0.0,0.125,0.8276366340000001,0.01,0.0,611.0,0.0,0.0,-0.0,0.0,0.0,0.507812448,0.01,0.0,-16804.0,0.0,0.0,0.0,0.0,0.0,3.34472622,0.01,0.0,5663.0,0.0,0.0,-0.0,0.0,0.25,1.597900227,0.01,0.0,0.30000001192092896,-0.4300000071525574,-34.93000030517578,0.014404296875,0.037841796875,1.0616455078125,37.09000015258789,0.0,0.0,-0.7248077392578125,-2.6142425537109375,Closing,0.0,0.0,0.0,0.0,0.0,0.0,0.0,0.0,
1.530515999999996,0.0,0.0,-18897.0,0.0,0.0,0.0,0.0,0.125,0.8276366340000001,0.01,0.0,611.0,0.0,0.0,-0.0,0.0,0.0,0.507812448,0.01,0.0,-16804.0,0.0,0.0,0.0,0.0,0.0,3.34472622,0.01,0.0,5663.0,0.0,0.0,-0.0,0.0,0.25,1.596679524,0.01,0.0,0.30000001192092896,-0.41999998688697815,-34.91999816894531,-0.00177001953125,0.04864501953125,1.03289794921875,37.09000015258789,0.0,-19.0,-0.7248077392578125,-2.6143646240234375,Closing,0.0,0.0,0.0,0.0,0.0,0.0,0.0,0.0,
1.556594999999994,0.0,0.0,-18897.0,0.0,0.0,0.0,0.0,0.125,0.826415931,0.01,0.0,611.0,0.0,0.0,-0.0,0.0,0.0,0.507812448,0.01,0.0,-16804.0,0.0,0.0,0.0,0.0,0.0,3.34472622,0.01,-0.0012207029999995456,5663.0,0.0,0.0,-0.0,0.0,0.25,1.597900227,0.01,-0.0012207030000004337,0.30000001192092896,-0.41999998688697815,-34.93000030517578,-0.01263427734375,0.0098876953125,0.97967529296875,37.09000015258789,0.0,-7.0,-0.7248077392578125,-2.6143646240234375,Closing,0.0,0.0,0.0,0.0,0.0,0.0,0.0,0.0,
1.5912649999999995,0.0,0.0,-18897.0,0.0,0.0,0.0,0.0,0.125,0.826415931,0.01,0.0,611.0,0.0,0.0,-0.0,0.0,0.0,0.507812448,0.01,0.0,-16804.0,0.0,0.0,0.0,0.0,0.0,3.34472622,0.01,0.0012207029999995456,5663.0,0.0,0.0,-0.0,0.0,0.25,1.597900227,0.01,0.0012207030000004337,0.3100000023841858,-0.41999998688697815,-34.93000030517578,-0.0145263671875,-0.03741455078125,1.003662109375,37.09000015258789,0.0,18.0,-0.7248077392578125,-2.6145782470703125,Closing,0.0,0.0,0.0,0.0,0.0,0.0,0.0,0.0,
1.6314449999999998,0.0,0.0,-18897.0,0.0,0.0,0.0,0.0,0.125,0.826415931,0.01,0.0,611.0,0.0,0.0,-0.0,0.0,0.0,0.507812448,0.01,0.0,-16804.0,0.0,0.0,0.0,0.0,0.0,3.34472622,0.01,0.0012207029999995456,5663.0,0.0,0.0,-0.0,0.0,0.25,1.597900227,0.01,0.0012207030000004337,0.3100000023841858,-0.41999998688697815,-34.91999816894531,0.00543212890625,0.0079345703125,1.0528564453125,37.09000015258789,0.0,9.0,-0.7247161865234375,-2.6149139404296875,Closing,0.0,0.0,0.0,0.0,0.0,0.0,0.0,0.0,
1.6603989999999975,0.0,0.0,-18897.0,0.0,0.0,0.0,0.0,0.125,0.826415931,0.01,0.0,611.0,0.0,0.0,-0.0,0.0,0.0,0.507812448,0.01,0.0,-16804.0,0.0,0.0,0.0,0.0,0.0,3.34472622,0.01,0.0,5663.0,0.0,0.0,-0.0,0.0,0.25,1.597900227,0.01,0.0,0.3100000023841858,-0.41999998688697815,-34.91999816894531,0.0084228515625,0.0496826171875,1.0452880859375,37.09000015258789,0.0,-11.0,-0.7246551513671875,-2.6151275634765625,Closing,0.0,0.0,0.0,0.0,0.0,0.0,0.0,0.0,
1.6922880000000005,0.0,0.0,-18897.0,0.0,0.0,0.0,0.0,0.125,0.826415931,0.01,0.0,611.0,0.0,0.0,-0.0,0.0,0.0,0.507812448,0.01,0.0,-16804.0,0.0,0.0,0.0,0.0,0.0,3.34472622,0.01,0.0,5663.0,0.0,0.0,-0.0,0.0,0.25,1.597900227,0.01,0.0,0.30000001192092896,-0.41999998688697815,-34.93000030517578,-0.01190185546875,0.01934814453125,1.01763916015625,37.09000015258789,0.0,-11.0,-0.7247314453125,-2.615142822265625,Closing,0.0,0.0,0.0,0.0,0.0,0.0,0.0,0.0,
1.7281829999999974,0.0,0.0,-18897.0,0.0,0.0,0.0,0.0,0.125,0.826415931,0.01,0.0,611.0,0.0,0.0,-0.0,0.0,0.0,0.507812448,0.01,0.0,-16804.0,0.0,0.0,0.0,0.0,0.0,3.34472622,0.01,0.0,5663.0,0.0,0.0,-0.0,0.0,0.25,1.597900227,0.01,0.0,0.3100000023841858,-0.41999998688697815,-34.91999816894531,-0.02301025390625,-0.04315185546875,0.9893798828125,37.09000015258789,0.0,14.0,-0.7247772216796875,-2.6152191162109375,Closing,0.0,0.0,0.0,0.0,0.0,0.0,0.0,0.0,
1.758934000000001,0.0,0.0,-18897.0,0.0,0.0,0.0,0.0,0.125,0.8276366340000001,0.01,0.0,611.0,0.0,0.0,-0.0,0.0,0.0,0.507812448,0.01,0.0,-16804.0,0.0,0.0,0.0,0.0,0.0,3.34472622,0.01,0.0,5663.0,0.0,0.0,-0.0,0.0,0.25,1.597900227,0.01,0.0,0.3100000023841858,-0.41999998688697815,-34.91999816894531,0.005859375,0.0164794921875,1.05511474609375,37.09000015258789,0.0,5.0,-0.724639892578125,-2.6157073974609375,Closing,0.0,0.0,0.0,0.0,0.0,0.0,0.0,0.0,
1.8060709999999962,0.0,0.0,-18897.0,0.0,0.0,0.0,0.0,0.125,0.8276366340000001,0.01,0.0,611.0,0.0,0.0,-0.0,0.0,0.0,0.509033151,0.01,0.0,-16804.0,0.0,0.0,0.0,0.0,0.0,3.345946923,0.01,0.0,5663.0,0.0,0.0,-0.0,0.0,0.25,1.597900227,0.01,0.0,0.3100000023841858,-0.41999998688697815,-34.93000030517578,0.00140380859375,0.04486083984375,1.04620361328125,37.09000015258789,0.0,-14.0,-0.724639892578125,-2.61590576171875,Closing,0.0,0.0,0.0,0.0,0.0,0.0,0.0,0.0,
1.836091999999997,0.0,0.0,-18897.0,0.0,0.0,0.0,0.0,0.125,0.826415931,0.01,0.0,611.0,0.0,0.0,-0.0,0.0,0.0,0.507812448,0.01,0.0,-16804.0,0.0,0.0,0.0,0.0,0.0,3.34472622,0.01,0.0,5663.0,0.0,0.0,-0.0,0.0,0.25,1.597900227,0.01,0.0,0.3100000023841858,-0.41999998688697815,-34.93000030517578,-0.01861572265625,0.01312255859375,1.010986328125,37.119998931884766,0.0,-13.0,-0.7247161865234375,-2.615936279296875,Closing,0.0,0.0,0.0,0.0,0.0,0.0,0.0,0.0,
1.8702279999999956,0.0,0.0,-18897.0,0.0,0.0,0.0,0.0,0.125,0.826415931,0.01,0.0,611.0,0.0,0.0,-0.0,0.0,0.0,0.507812448,0.01,0.0,-16804.0,0.0,0.0,0.0,0.0,0.0,3.34472622,0.01,0.0,5663.0,0.0,0.0,-0.0,0.0,0.25,1.597900227,0.01,0.0,0.3100000023841858,-0.4099999964237213,-34.93000030517578,-0.02679443359375,-0.02813720703125,0.9913330078125,37.119998931884766,0.0,3.0,-0.7247772216796875,-2.6160125732421875,Closing,0.0,0.0,0.0,0.0,0.0,0.0,0.0,0.0,
1.8954389999999985,0.0,0.0,-18897.0,0.0,0.0,0.0,0.0,0.125,0.826415931,0.01,0.0,611.0,0.0,0.0,-0.0,0.0,0.0,0.507812448,0.01,0.0,-16804.0,0.0,0.0,0.0,0.0,0.0,3.34472622,0.01,0.0,5663.0,0.0,0.0,-0.0,0.0,0.25,1.597900227,0.01,0.0,0.3100000023841858,-0.41999998688697815,-34.93000030517578,-0.00189208984375,-0.03558349609375,1.0133056640625,37.119998931884766,0.0,28.0,-0.7247467041015625,-2.61627197265625,Closing,0.0,0.0,0.0,0.0,0.0,0.0,0.0,0.0,
1.9291789999999964,0.0,0.0,-18897.0,0.0,0.0,0.0,0.0,0.125,0.826415931,0.01,0.0,611.0,0.0,0.0,-0.0,0.0,0.0,0.509033151,0.01,0.0,-16804.0,0.0,0.0,0.0,0.0,0.0,3.345946923,0.01,0.0,5663.0,0.0,0.0,-0.0,0.0,0.25,1.597900227,0.01,0.0,0.3100000023841858,-0.41999998688697815,-34.93000030517578,0.00994873046875,0.02490234375,1.0611572265625,37.119998931884766,0.0,3.0,-0.7246246337890625,-2.6166229248046875,Closing,0.0,0.0,0.0,0.0,0.0,0.0,0.0,0.0,
1.9558609999999972,0.0,0.0,-18897.0,0.0,0.0,0.0,0.0,0.125,0.826415931,0.01,0.0,611.0,0.0,0.0,-0.0,0.0,0.0,0.507812448,0.01,0.0,-16804.0,0.0,0.0,0.0,0.0,0.0,3.34472622,0.01,0.0,5663.0,0.0,0.0,-0.0,0.0,0.25,1.597900227,0.01,0.0,0.3100000023841858,-0.41999998688697815,-34.93000030517578,-0.00311279296875,0.04754638671875,1.04193115234375,37.119998931884766,0.0,-20.0,-0.724639892578125,-2.616790771484375,Closing,0.0,0.0,0.0,0.0,0.0,0.0,0.0,0.0,
1.988911,0.0,0.0,-18897.0,0.0,0.0,0.0,0.0,0.125,0.826415931,0.01,0.0,611.0,0.0,0.0,-0.0,0.0,0.0,0.509033151,0.01,0.0,-16804.0,0.0,0.0,0.0,0.0,0.0,3.34472622,0.01,0.0,5663.0,0.0,0.0,-0.0,0.0,0.25,1.597900227,0.01,0.0,0.3100000023841858,-0.41999998688697815,-34.93000030517578,-0.01385498046875,0.00823974609375,0.999755859375,37.119998931884766,0.0,-6.0,-0.7247467041015625,-2.6168060302734375,Closing,0.0,0.0,0.0,0.0,0.0,0.0,0.0,0.0,
2.021784,0.0,0.0,-18897.0,0.0,0.0,0.0,0.0,0.125,0.826415931,0.01,0.0,611.0,0.0,0.0,-0.0,0.0,0.0,0.507812448,0.01,0.0,-16804.0,0.0,0.0,0.0,0.0,0.0,3.34472622,0.01,0.0,5663.0,0.0,0.0,-0.0,0.0,0.25,1.59912093,0.01,0.0,0.3100000023841858,-0.41999998688697815,-34.93000030517578,-0.02752685546875,-0.0345458984375,0.9940185546875,37.119998931884766,0.0,6.0,-0.7247467041015625,-2.6168975830078125,Closing,0.0,0.0,0.0,0.0,0.0,0.0,0.0,0.0,
2.0493469999999943,0.0,0.0,-18897.0,0.0,0.0,0.0,0.0,0.125,0.826415931,0.01,0.0,611.0,0.0,0.0,-0.0,0.0,0.0,0.507812448,0.01,0.0,-16804.0,0.0,0.0,0.0,0.0,0.0,3.34472622,0.01,0.0,5663.0,0.0,0.0,-0.0,0.0,0.25,1.597900227,0.01,0.0,0.3199999928474426,-0.41999998688697815,-34.93000030517578,0.00439453125,-0.0238037109375,1.01934814453125,37.119998931884766,0.0,26.0,-0.7247161865234375,-2.6171875,Closing,0.0,0.0,0.0,0.0,0.0,0.0,0.0,0.0,
2.076201000000001,0.0,0.0,-18897.0,0.0,0.0,0.0,0.0,0.125,0.826415931,0.01,0.0,611.0,0.0,0.0,-0.0,0.0,0.0,0.507812448,0.01,0.0,-16804.0,0.0,0.0,0.0,0.0,0.0,3.34472622,0.01,0.0,5663.0,0.0,0.0,-0.0,0.0,0.25,1.597900227,0.01,0.0,0.3100000023841858,-0.41999998688697815,-34.93000030517578,0.017822265625,0.041748046875,1.05023193359375,37.119998931884766,0.0,0.0,-0.7245941162109375,-2.6174774169921875,Closing,0.0,0.0,0.0,0.0,0.0,0.0,0.0,0.0,
2.108935999999994,0.0,0.0,-18897.0,0.0,0.0,0.0,0.0,0.125,0.8276366340000001,0.01,0.0,611.0,0.0,0.0,-0.0,0.0,0.0,0.507812448,0.01,0.0,-16804.0,0.0,0.0,0.0,0.0,0.0,3.345946923,0.01,0.0,5663.0,0.0,0.0,-0.0,0.0,0.25,1.597900227,0.01,0.0,0.3100000023841858,-0.41999998688697815,-34.93000030517578,-0.0123291015625,0.04669189453125,1.0367431640625,37.119998931884766,0.0,-27.0,-0.7246246337890625,-2.6175537109375,Closing,0.0,0.0,0.0,0.0,0.0,0.0,0.0,0.0,
2.1377869999999968,0.0,0.0,-18897.0,0.0,0.0,0.0,0.0,0.125,0.826415931,0.01,0.0,611.0,0.0,0.0,-0.0,0.0,0.0,0.507812448,0.01,0.0,-16804.0,0.0,0.0,0.0,0.0,0.0,3.343505517,0.01,0.0,5663.0,0.0,0.0,-0.0,0.0,0.25,1.597900227,0.01,0.0,0.3100000023841858,-0.4099999964237213,-34.93000030517578,-0.01861572265625,-0.00628662109375,0.98193359375,37.119998931884766,0.0,-2.0,-0.7247467041015625,-2.617523193359375,Closing,0.0,0.0,0.0,0.0,0.0,0.0,0.0,0.0,
2.172508999999998,0.0,0.0,-18897.0,0.0,0.0,0.0,0.0,0.125,0.826415931,0.01,0.0,611.0,0.0,0.0,-0.0,0.0,0.0,0.507812448,0.01,0.0,-16804.0,0.0,0.0,0.0,0.0,0.0,3.345946923,0.01,0.0,5663.0,0.0,0.0,-0.0,0.0,0.25,1.597900227,0.01,0.0,0.3199999928474426,-0.41999998688697815,-34.93000030517578,-0.01995849609375,-0.04205322265625,0.98779296875,37.119998931884766,0.0,16.0,-0.7247467041015625,-2.617645263671875,Closing,0.0,0.0,0.0,0.0,0.0,0.0,0.0,0.0,
2.2042540000000006,0.0,0.0,-18897.0,0.0,0.0,0.0,0.0,0.125,0.8276366340000001,0.01,0.0,611.0,0.0,0.0,-0.0,0.0,0.0,0.507812448,0.01,0.0,-16804.0,0.0,0.0,0.0,0.0,0.0,3.34472622,0.01,0.0,5663.0,0.0,0.0,-0.0,0.0,0.25,1.597900227,0.01,0.0,0.3199999928474426,-0.41999998688697815,-34.93000030517578,0.0072021484375,0.03173828125,1.05255126953125,37.119998931884766,0.0,-2.0,-0.7245941162109375,-2.618072509765625,Closing,0.0,0.0,0.0,0.0,0.0,0.0,0.0,0.0,
2.2362909999999974,0.0,0.0,-18897.0,0.0,0.0,0.0,0.0,0.125,0.826415931,0.01,0.0,611.0,0.0,0.0,-0.0,0.0,0.0,0.509033151,0.01,0.0,-16804.0,0.0,0.0,0.0,0.0,0.0,3.34472622,0.01,0.0,5663.0,0.0,0.0,-0.0,0.0,0.25,1.597900227,0.01,0.0,0.3100000023841858,-0.41999998688697815,-34.93000030517578,-0.0047607421875,0.04833984375,1.0396728515625,37.119998931884766,0.0,-21.0,-0.724609375,-2.6181793212890625,Closing,0.0,0.0,0.0,0.0,0.0,0.0,0.0,0.0,
2.271089,0.0,0.0,-18897.0,0.0,0.0,0.0,0.0,0.125,0.826415931,0.01,0.0,611.0,0.0,0.0,-0.0,0.0,0.0,0.509033151,0.01,0.0,-16804.0,0.0,0.0,0.0,0.0,0.0,3.34472622,0.01,0.0,5663.0,0.0,0.0,-0.0,0.0,0.25,1.597900227,0.01,0.0,0.3100000023841858,-0.4099999964237213,-34.93000030517578,-0.01385498046875,0.00604248046875,0.99200439453125,37.119998931884766,0.0,-5.0,-0.7247314453125,-2.6181793212890625,Closing,0.0,0.0,0.0,0.0,0.0,0.0,0.0,0.0,
2.2999379999999947,0.0,0.0,-18897.0,0.0,0.0,0.0,0.0,0.125,0.826415931,0.01,0.0,611.0,0.0,0.0,-0.0,0.0,0.0,0.507812448,0.01,0.0,-16804.0,0.0,0.0,0.0,0.0,0.0,3.34472622,0.01,0.0,5663.0,0.0,0.0,-0.0,0.0,0.25,1.59912093,0.01,0.0,0.33000001311302185,-0.4099999964237213,-34.93000030517578,-0.02142333984375,-0.04248046875,0.98419189453125,37.119998931884766,0.0,15.0,-0.7247314453125,-2.6182708740234375,Closing,0.0,0.0,0.0,0.0,0.0,0.0,0.0,0.0,
2.333195,0.0,0.0,-18897.0,0.0,0.0,0.0,0.0,0.125,0.826415931,0.01,0.0,611.0,0.0,0.0,-0.0,0.0,0.0,0.507812448,0.01,0.0,-16804.0,0.0,0.0,0.0,0.0,0.0,3.345946923,0.01,0.0,5663.0,0.0,0.0,-0.0,0.0,0.25,1.597900227,0.01,0.0,0.33000001311302185,-0.4099999964237213,-34.93000030517578,0.00189208984375,-0.0074462890625,1.0189208984375,37.119998931884766,0.0,15.0,-0.724639892578125,-2.6185455322265625,Closing,0.0,0.0,0.0,0.0,0.0,0.0,0.0,0.0,
2.367966999999997,0.0,0.0,-18897.0,0.0,0.0,0.0,0.0,0.125,0.8276366340000001,0.01,0.0,611.0,0.0,0.0,-0.0,0.0,0.0,0.507812448,0.01,0.0,-16804.0,0.0,0.0,0.0,0.0,0.0,3.34472622,0.01,0.0,5663.0,0.0,0.0,-0.0,0.0,0.25,1.597900227,0.01,0.0,0.3199999928474426,-0.4099999964237213,-34.93000030517578,-0.00543212890625,0.04742431640625,1.0400390625,37.09000015258789,0.0,-22.0,-0.7245941162109375,-2.6188201904296875,Closing,0.0,0.0,0.0,0.0,0.0,0.0,0.0,0.0,
2.3942099999999993,0.0,0.0,-18897.0,0.0,0.0,0.0,0.0,0.125,0.826415931,0.01,0.0,611.0,0.0,0.0,-0.0,0.0,0.0,0.507812448,0.01,0.0,-16804.0,0.0,0.0,0.0,0.0,0.0,3.34472622,0.01,0.0,5663.0,0.0,0.0,-0.0,0.0,0.25,1.597900227,0.01,0.0,0.3100000023841858,-0.4099999964237213,-34.93000030517578,-0.016357421875,0.0064697265625,1.003173828125,37.09000015258789,0.0,-7.0,-0.724700927734375,-2.6188201904296875,Closing,0.0,0.0,0.0,0.0,0.0,0.0,0.0,0.0,
2.4282779999999984,0.0,0.0,-18897.0,0.0,0.0,0.0,0.0,0.125,0.826415931,0.01,0.0,611.0,0.0,0.0,-0.0,0.0,0.0,0.507812448,0.01,0.0,-16804.0,0.0,0.0,0.0,0.0,0.0,3.34472622,0.01,0.0,5663.0,0.0,0.0,-0.0,0.0,0.25,1.597900227,0.01,0.0,0.3199999928474426,-0.4099999964237213,-34.93000030517578,-0.02166748046875,-0.03985595703125,0.993896484375,37.09000015258789,0.0,14.0,-0.724700927734375,-2.618927001953125,Closing,0.0,0.0,0.0,0.0,0.0,0.0,0.0,0.0,
2.453945999999996,0.0,0.0,-18897.0,0.0,0.0,0.0,0.0,0.125,0.826415931,0.01,0.0,611.0,0.0,0.0,-0.0,0.0,0.0,0.507812448,0.01,0.0,-16804.0,0.0,0.0,0.0,0.0,0.0,3.34472622,0.01,0.0,5663.0,0.0,0.0,-0.0,0.0,0.25,1.597900227,0.01,0.0,0.3199999928474426,-0.4099999964237213,-34.93000030517578,6.7138671875E-4,-0.01898193359375,1.0152587890625,37.09000015258789,0.0,20.0,-0.72467041015625,-2.6192169189453125,Closing,0.0,0.0,0.0,0.0,0.0,0.0,0.0,0.0,
2.489307999999997,0.0,0.0,-18897.0,0.0,0.0,0.0,0.0,0.125,0.826415931,0.01,0.0,611.0,0.0,0.0,-0.0,0.0,0.0,0.507812448,0.01,0.0,-16804.0,0.0,0.0,0.0,0.0,0.0,3.34472622,0.01,0.0,5663.0,0.0,0.0,-0.0,0.0,0.25,1.597900227,0.01,0.0,0.3199999928474426,-0.41999998688697815,-34.93000030517578,0.00823974609375,0.015869140625,1.05108642578125,37.09000015258789,0.0,7.0,-0.7246246337890625,-2.6193695068359375,Closing,0.0,0.0,0.0,0.0,0.0,0.0,0.0,0.0,
2.5174490000000005,0.0,0.0,-18897.0,0.0,0.0,0.0,0.0,0.125,0.826415931,0.01,0.0,611.0,0.0,0.0,-0.0,0.0,0.0,0.509033151,0.01,0.0,-16804.0,0.0,0.0,0.0,0.0,0.0,3.345946923,0.01,0.0,5663.0,0.0,0.0,-0.0,0.0,0.25,1.597900227,0.01,0.0,0.3100000023841858,-0.4099999964237213,-34.93000030517578,-0.0140380859375,0.03668212890625,1.0447998046875,37.09000015258789,0.0,-22.0,-0.724609375,-2.6195526123046875,Closing,0.0,0.0,0.0,0.0,0.0,0.0,0.0,0.0,
2.5505169999999997,0.0,0.0,-18897.0,0.0,0.0,0.0,0.0,0.125,0.826415931,0.01,0.0,611.0,0.0,0.0,-0.0,0.0,0.0,0.507812448,0.01,0.0,-16804.0,0.0,0.0,0.0,0.0,0.0,3.345946923,0.01,0.0,5663.0,0.0,0.0,-0.0,0.0,0.25,1.597900227,0.01,0.0,0.3100000023841858,-0.4099999964237213,-34.93000030517578,-0.0294189453125,-0.012451171875,0.9903564453125,37.09000015258789,0.0,-7.0,-0.7247314453125,-2.61956787109375,Closing,0.0,0.0,0.0,0.0,0.0,0.0,0.0,0.0,
2.5903629999999978,0.0,0.0,-18897.0,0.0,0.0,0.0,0.0,0.125,0.826415931,0.01,0.0,611.0,0.0,0.0,-0.0,0.0,0.0,0.507812448,0.01,0.0,-16804.0,0.0,0.0,0.0,0.0,0.0,3.34472622,0.01,0.0,5663.0,0.0,0.0,-0.0,0.0,0.25,1.597900227,0.01,0.0,0.33000001311302185,-0.4099999964237213,-34.93000030517578,-0.00927734375,-0.03533935546875,0.9981689453125,37.09000015258789,0.0,21.0,-0.7247161865234375,-2.6197509765625,Closing,0.0,0.0,0.0,0.0,0.0,0.0,0.0,0.0,
2.625955999999998,0.0,0.0,-18897.0,0.0,0.0,0.0,0.0,0.125,0.826415931,0.01,0.0,611.0,0.0,0.0,-0.0,0.0,0.0,0.507812448,0.01,0.0,-16804.0,0.0,0.0,0.0,0.0,0.0,3.345946923,0.01,0.0,5663.0,0.0,0.0,-0.0,0.0,0.25,1.597900227,0.01,0.0,0.3199999928474426,-0.41999998688697815,-34.93000030517578,0.0087890625,0.01568603515625,1.04498291015625,37.09000015258789,0.0,7.0,-0.7245635986328125,-2.62005615234375,Closing,0.0,0.0,0.0,0.0,0.0,0.0,0.0,0.0,
2.6531059999999997,0.0,0.0,-18897.0,0.0,0.0,0.0,0.0,0.125,0.826415931,0.01,0.0,611.0,0.0,0.0,-0.0,0.0,0.0,0.507812448,0.01,0.0,-16804.0,0.0,0.0,0.0,0.0,0.0,3.34472622,0.01,0.0,5663.0,0.0,0.0,-0.0,0.0,0.25,1.596679524,0.01,0.0,0.3100000023841858,-0.4099999964237213,-34.93000030517578,-0.0054931640625,0.045654296875,1.04180908203125,37.09000015258789,0.0,-21.0,-0.7245941162109375,-2.6202239990234375,Closing,0.0,0.0,0.0,0.0,0.0,0.0,0.0,0.0,
2.687906999999999,0.0,0.0,-18897.0,0.0,0.0,0.0,0.0,0.125,0.826415931,0.01,0.0,611.0,0.0,0.0,-0.0,0.0,0.0,0.507812448,0.01,0.0,-16804.0,0.0,0.0,0.0,0.0,0.0,3.34472622,0.01,0.0,5663.0,0.0,0.0,-0.0,0.0,0.25,1.597900227,0.01,0.0,0.3100000023841858,-0.4099999964237213,-34.93000030517578,-0.01873779296875,0.01318359375,1.00555419921875,37.09000015258789,0.0,-13.0,-0.7247161865234375,-2.6202239990234375,Closing,0.0,0.0,0.0,0.0,0.0,0.0,0.0,0.0,
2.7130910000000004,0.0,0.0,-18897.0,0.0,0.0,0.0,0.0,0.125,0.826415931,0.01,0.0,611.0,0.0,0.0,-0.0,0.0,0.0,0.509033151,0.01,0.0,-16804.0,0.0,0.0,0.0,0.0,0.0,3.34472622,0.01,0.0,5663.0,0.0,0.0,-0.0,0.0,0.25,1.597900227,0.01,0.0,0.3199999928474426,-0.4099999964237213,-34.93000030517578,-0.02252197265625,-0.04229736328125,0.99420166015625,37.09000015258789,0.0,14.0,-0.7247161865234375,-2.6203155517578125,Closing,0.0,0.0,0.0,0.0,0.0,0.0,0.0,0.0,
2.7474559999999983,0.0,0.0,-18897.0,0.0,0.0,0.0,0.0,0.125,0.826415931,0.01,0.0,611.0,0.0,0.0,-0.0,0.0,0.0,0.507812448,0.01,0.0,-16804.0,0.0,0.0,0.0,0.0,0.0,3.34472622,0.01,0.0,5663.0,0.0,0.0,-0.0,0.0,0.25,1.597900227,0.01,-0.0012207030000004337,0.3199999928474426,-0.41999998688697815,-34.93000030517578,0.0010986328125,-0.01788330078125,1.01031494140625,37.09000015258789,0.0,20.0,-0.7246246337890625,-2.62060546875,Closing,0.0,0.0,0.0,0.0,0.0,0.0,0.0,0.0,
2.778008999999998,0.0,0.0,-18897.0,0.0,0.0,0.0,0.0,0.125,0.8276366340000001,0.01,0.0,611.0,0.0,0.0,-0.0,0.0,0.0,0.507812448,0.01,0.0,-16804.0,0.0,0.0,0.0,0.0,0.0,3.34472622,0.01,0.0,5663.0,0.0,0.0,-0.0,0.0,0.25,1.597900227,0.01,-0.0012207030000004337,0.3100000023841858,-0.41999998688697815,-34.93000030517578,-0.00396728515625,0.0509033203125,1.0447998046875,37.09000015258789,0.0,-22.0,-0.724578857421875,-2.6209259033203125,Closing,0.0,0.0,0.0,0.0,0.0,0.0,0.0,0.0,
2.8112459999999992,0.0,0.0,-18897.0,0.0,0.0,0.0,0.0,0.125,0.826415931,0.01,0.0,611.0,0.0,0.0,-0.0,0.0,0.0,0.507812448,0.01,0.0,-16804.0,0.0,0.0,0.0,0.0,0.0,3.34472622,0.01,0.0,5663.0,0.0,0.0,-0.0,0.0,0.25,1.597900227,0.01,0.0012207030000004337,0.3100000023841858,-0.41999998688697815,-34.93000030517578,-0.0145263671875,0.01104736328125,1.00787353515625,37.09000015258789,0.0,-8.0,-0.724700927734375,-2.6209259033203125,Closing,0.0,0.0,0.0,0.0,0.0,0.0,0.0,0.0,
2.8448989999999976,0.0,0.0,-18897.0,0.0,0.0,0.0,0.0,0.125,0.8276366340000001,0.01,0.0,611.0,0.0,0.0,-0.0,0.0,0.0,0.509033151,0.01,0.0,-16804.0,0.0,0.0,0.0,0.0,0.0,3.34472622,0.01,0.0,5663.0,0.0,0.0,-0.0,0.0,0.25,1.597900227,0.01,0.0012207030000004337,0.3199999928474426,-0.41999998688697815,-34.93000030517578,-0.02008056640625,-0.04302978515625,0.99383544921875,37.09000015258789,0.0,17.0,-0.724700927734375,-2.6210174560546875,Closing,0.0,0.0,0.0,0.0,0.0,0.0,0.0,0.0,
2.8738529999999955,0.0,0.0,-18897.0,0.0,0.0,0.0,0.0,0.125,0.826415931,0.01,0.0,611.0,0.0,0.0,-0.0,0.0,0.0,0.507812448,0.01,0.0,-16804.0,0.0,0.0,0.0,0.0,0.0,3.34472622,0.01,0.0,5663.0,0.0,0.0,-0.0,0.0,0.25,1.59912093,0.01,-0.0012207030000004337,0.3199999928474426,-0.41999998688697815,-34.93000030517578,0.00762939453125,-0.00732421875,1.01251220703125,37.130001068115234,0.0,19.0,-0.7245941162109375,-2.6212921142578125,Closing,0.0,0.0,0.0,0.0,0.0,0.0,0.0,0.0,
2.90825,0.0,0.0,-18897.0,0.0,0.0,0.0,0.0,0.125,0.826415931,0.01,0.0,611.0,0.0,0.0,-0.0,0.0,0.0,0.507812448,0.01,0.0,-16804.0,0.0,0.0,0.0,0.0,0.0,3.345946923,0.01,0.0,5663.0,0.0,0.0,-0.0,0.0,0.25,1.597900227,0.01,0.0012207030000004337,0.3100000023841858,-0.41999998688697815,-34.93000030517578,0.01043701171875,0.04608154296875,1.03094482421875,37.130001068115234,0.0,-8.0,-0.724517822265625,-2.621490478515625,Closing,0.0,0.0,0.0,0.0,0.0,0.0,0.0,0.0,
2.9374709999999977,0.0,0.0,-18897.0,0.0,0.0,0.0,0.0,0.125,0.826415931,0.01,0.0,611.0,0.0,0.0,-0.0,0.0,0.0,0.507812448,0.01,0.0,-16804.0,0.0,0.0,0.0,0.0,0.0,3.345946923,0.01,0.0,5663.0,0.0,0.0,-0.0,0.0,0.25,1.597900227,0.01,0.0012207030000004337,0.3100000023841858,-0.41999998688697815,-34.939998626708984,-0.0220947265625,0.02813720703125,1.03509521484375,37.130001068115234,0.0,-24.0,-0.7245941162109375,-2.6215057373046875,Closing,0.0,0.0,0.0,0.0,0.0,0.0,0.0,0.0,
2.971254000000001,0.0,0.0,-18897.0,0.0,0.0,0.0,0.0,0.125,0.826415931,0.01,0.0,611.0,0.0,0.0,-0.0,0.0,0.0,0.507812448,0.01,0.0,-16804.0,0.0,0.0,0.0,0.0,0.0,3.34472622,0.01,0.0,5663.0,0.0,0.0,-0.0,0.0,0.25,1.597900227,0.01,0.0,0.3199999928474426,-0.4099999964237213,-34.939998626708984,-0.02789306640625,-0.01971435546875,1.005126953125,37.130001068115234,0.0,-2.0,-0.72467041015625,-2.62152099609375,Closing,0.0,0.0,0.0,0.0,0.0,0.0,0.0,0.0,
2.999206999999995,0.0,0.0,-18897.0,0.0,0.0,0.0,0.0,0.125,0.826415931,0.01,0.0,611.0,0.0,0.0,-0.0,0.0,0.0,0.509033151,0.01,0.0,-16804.0,0.0,0.0,0.0,0.0,0.0,3.345946923,0.01,-0.0012207029999995456,5663.0,0.0,0.0,-0.0,0.0,0.25,1.597900227,0.01,-0.0012207030000004337,0.3199999928474426,-0.41999998688697815,-34.939998626708984,0.004638671875,0.00555419921875,1.023681640625,37.130001068115234,0.0,10.0,-0.724578857421875,-2.6218719482421875,Closing,0.0,0.0,0.0,0.0,0.0,0.0,0.0,0.0,
3.033031999999999,0.0,0.0,-18897.0,0.0,0.0,0.0,0.0,0.125,0.8276366340000001,0.01,0.0,611.0,0.0,0.0,-0.0,0.0,0.0,0.507812448,0.01,0.0,-16804.0,0.0,0.0,0.0,0.0,0.0,3.34472622,0.01,-0.0012207029999995456,5663.0,0.0,0.0,-0.0,0.0,0.25,1.597900227,0.01,-0.0012207030000004337,0.3100000023841858,-0.41999998688697815,-34.939998626708984,8.544921875E-4,0.04278564453125,1.03338623046875,37.130001068115234,0.0,-14.0,-0.724517822265625,-2.622039794921875,Closing,0.0,0.0,0.0,0.0,0.0,0.0,0.0,0.0,
3.069755999999994,0.0,0.0,-18897.0,0.0,0.0,0.0,0.0,0.125,0.8276366340000001,0.01,0.0,611.0,0.0,0.0,-0.0,0.0,0.0,0.509033151,0.01,0.0,-16804.0,0.0,0.0,0.0,0.0,0.0,3.34472622,0.01,0.0012207029999995456,5663.0,0.0,0.0,-0.0,0.0,0.25,1.597900227,0.01,0.0012207030000004337,0.3100000023841858,-0.4099999964237213,-34.939998626708984,-0.0135498046875,0.02081298828125,1.01806640625,37.130001068115234,0.0,-13.0,-0.7245941162109375,-2.6220550537109375,Closing,0.0,0.0,0.0,0.0,0.0,0.0,0.0,0.0,
3.0956109999999972,0.0,0.0,-18897.0,0.0,0.0,0.0,0.0,0.125,0.826415931,0.01,0.0,611.0,0.0,0.0,-0.0,0.0,0.0,0.507812448,0.01,0.0,-16804.0,0.0,0.0,0.0,0.0,0.0,3.34472622,0.01,0.0012207029999995456,5663.0,0.0,0.0,-0.0,0.0,0.25,1.597900227,0.01,0.0,0.3199999928474426,-0.4099999964237213,-34.939998626708984,-0.0279541015625,-0.03350830078125,1.0076904296875,37.130001068115234,0.0,5.0,-0.7246551513671875,-2.6220855712890625,Closing,0.0,0.0,0.0,0.0,0.0,0.0,0.0,0.0,
3.1296209999999993,0.0,0.0,-18897.0,0.0,0.0,0.0,0.0,0.125,0.826415931,0.01,0.0,611.0,0.0,0.0,-0.0,0.0,0.0,0.507812448,0.01,0.0,-16804.0,0.0,0.0,0.0,0.0,0.0,3.345946923,0.01,0.0,5663.0,0.0,0.0,-0.0,0.0,0.25,1.597900227,0.01,0.0,0.3199999928474426,-0.4099999964237213,-34.939998626708984,0.005859375,-0.0225830078125,1.01104736328125,37.130001068115234,0.0,27.0,-0.7246246337890625,-2.622314453125,Closing,0.0,0.0,0.0,0.0,0.0,0.0,0.0,0.0,
3.154375,0.0,0.0,-18897.0,0.0,0.0,0.0,0.0,0.125,0.826415931,0.01,0.0,611.0,0.0,0.0,-0.0,0.0,0.0,0.507812448,0.01,0.0,-16804.0,0.0,0.0,0.0,0.0,0.0,3.34472622,0.01,0.0,5663.0,0.0,0.0,-0.0,0.0,0.25,1.597900227,0.01,0.0,0.3100000023841858,-0.41999998688697815,-34.939998626708984,0.01470947265625,0.046630859375,1.02667236328125,37.130001068115234,0.0,-5.0,-0.7245025634765625,-2.6222686767578125,Closing,0.0,0.0,0.0,0.0,0.0,0.0,0.0,0.0,
3.188589,0.0,0.0,-18897.0,0.0,0.0,0.0,0.0,0.125,0.826415931,0.01,0.0,611.0,0.0,0.0,-0.0,0.0,0.0,0.507812448,0.01,0.0,-16804.0,0.0,0.0,0.0,0.0,0.0,3.345946923,0.01,0.0,5663.0,0.0,0.0,-0.0,0.0,0.25,1.597900227,0.01,0.0,0.3100000023841858,-0.4099999964237213,-34.939998626708984,-0.01776123046875,0.02691650390625,1.042724609375,37.130001068115234,0.0,-20.0,-0.7245330810546875,-2.622039794921875,Closing,0.0,0.0,0.0,0.0,0.0,0.0,0.0,0.0,
3.230797999999995,0.0,0.0,-18897.0,0.0,0.0,0.0,0.0,0.125,0.826415931,0.01,0.0,611.0,0.0,0.0,-0.0,0.0,0.0,0.507812448,0.01,0.0,-16804.0,0.0,0.0,0.0,0.0,0.0,3.345946923,0.01,0.0,5663.0,0.0,0.0,-0.0,0.0,0.25,1.597900227,0.01,0.0,0.3199999928474426,-0.4099999964237213,-34.939998626708984,-0.021240234375,-0.0426025390625,0.98895263671875,37.130001068115234,0.0,16.0,-0.724639892578125,-2.62213134765625,Closing,0.0,0.0,0.0,0.0,0.0,0.0,0.0,0.0,
3.2571919999999954,0.0,0.0,-18897.0,0.0,0.0,0.0,0.0,0.125,0.8276366340000001,0.01,0.0,611.0,0.0,0.0,-0.0,0.0,0.0,0.507812448,0.01,0.0,-16804.0,0.0,0.0,0.0,0.0,0.0,3.345946923,0.01,0.0,5663.0,0.0,0.0,-0.0,0.0,0.25,1.59912093,0.01,0.0,0.3199999928474426,-0.4099999964237213,-34.939998626708984,0.00518798828125,-5.4931640625E-4,1.02947998046875,37.130001068115234,0.0,14.0,-0.72454833984375,-2.622406005859375,Closing,0.0,0.0,0.0,0.0,0.0,0.0,0.0,0.0,
3.2916709999999947,0.0,0.0,-18897.0,0.0,0.0,0.0,0.0,0.125,0.8276366340000001,0.01,0.0,611.0,0.0,0.0,-0.0,0.0,0.0,0.507812448,0.01,0.0,-16804.0,0.0,0.0,0.0,0.0,0.0,3.343505517,0.01,0.0,5663.0,0.0,0.0,-0.0,0.0,0.25,1.597900227,0.01,0.0,0.3100000023841858,-0.4099999964237213,-34.939998626708984,7.9345703125E-4,0.040771484375,1.02252197265625,37.130001068115234,0.0,-13.0,-0.7244720458984375,-2.6226043701171875,Closing,0.0,0.0,0.0,0.0,0.0,0.0,0.0,0.0,
3.3245629999999946,0.0,0.0,-18897.0,0.0,0.0,0.0,0.0,0.125,0.826415931,0.01,0.0,611.0,0.0,0.0,-0.0,0.0,0.0,0.507812448,0.01,0.0,-16804.0,0.0,0.0,0.0,0.0,0.0,3.34472622,0.01,0.0,5663.0,0.0,0.0,-0.0,0.0,0.25,1.597900227,0.01,0.0,0.3100000023841858,-0.4099999964237213,-34.939998626708984,-0.01885986328125,0.019287109375,1.01959228515625,37.130001068115234,0.0,-17.0,-0.7244720458984375,-2.6226348876953125,Closing,0.0,0.0,0.0,0.0,0.0,0.0,0.0,0.0,
3.3524809999999996,0.0,0.0,-18897.0,0.0,0.0,0.0,0.0,0.125,0.8276366340000001,0.01,0.0,611.0,0.0,0.0,-0.0,0.0,0.0,0.507812448,0.01,0.0,-16804.0,0.0,0.0,0.0,0.0,0.0,3.345946923,0.01,0.0,5663.0,0.0,0.0,-0.0,0.0,0.25,1.597900227,0.01,0.0,0.3199999928474426,-0.4099999964237213,-34.939998626708984,-0.02520751953125,-0.03228759765625,1.00048828125,37.130001068115234,0.0,7.0,-0.7244720458984375,-2.622711181640625,Closing,0.0,0.0,0.0,0.0,0.0,0.0,0.0,0.0,
3.387411,0.0,0.0,-18897.0,0.0,0.0,0.0,0.0,0.125,0.826415931,0.01,0.0,611.0,0.0,0.0,-0.0,0.0,0.0,0.507812448,0.01,0.0,-16804.0,0.0,0.0,0.0,0.0,0.0,3.34472622,0.01,0.0,5663.0,0.0,0.0,-0.0,0.0,0.25,1.597900227,0.01,0.0,0.3199999928474426,-0.41999998688697815,-34.939998626708984,0.00506591796875,-0.015869140625,1.016845703125,37.150001525878906,0.0,22.0,-0.7244415283203125,-2.6229705810546875,Closing,0.0,0.0,0.0,0.0,0.0,0.0,0.0,0.0,
3.4138469999999943,0.0,0.0,-18897.0,0.0,0.0,0.0,0.0,0.125,0.826415931,0.01,0.0,611.0,0.0,0.0,-0.0,0.0,0.0,0.509033151,0.01,0.0,-16804.0,0.0,0.0,0.0,0.0,0.0,3.34472622,0.01,0.0,5663.0,0.0,0.0,-0.0,0.0,0.25,1.597900227,0.01,0.0,0.3100000023841858,-0.41999998688697815,-34.939998626708984,0.0118408203125,0.0440673828125,1.0196533203125,37.150001525878906,0.0,-6.0,-0.724334716796875,-2.6232147216796875,Closing,0.0,0.0,0.0,0.0,0.0,0.0,0.0,0.0,
3.448176999999996,0.0,0.0,-18897.0,0.0,0.0,0.0,0.0,0.125,0.826415931,0.01,0.0,611.0,0.0,0.0,-0.0,0.0,0.0,0.507812448,0.01,0.0,-16804.0,0.0,0.0,0.0,0.0,0.0,3.34472622,0.01,0.0,5663.0,0.0,0.0,-0.0,0.0,0.25,1.597900227,0.01,0.0,0.3100000023841858,-0.41999998688697815,-34.939998626708984,-0.01922607421875,0.027099609375,1.02789306640625,37.150001525878906,0.0,-21.0,-0.7242889404296875,-2.623260498046875,Closing,0.0,0.0,0.0,0.0,0.0,0.0,0.0,0.0,
3.4827049999999944,0.0,0.0,-18897.0,0.0,0.0,0.0,0.0,0.125,0.826415931,0.01,0.0,611.0,0.0,0.0,-0.0,0.0,0.0,0.507812448,0.01,0.0,-16804.0,0.0,0.0,0.0,0.0,0.0,3.34472622,0.01,0.0,5663.0,0.0,0.0,-0.0,0.0,0.25,1.597900227,0.01,0.0,0.3100000023841858,-0.41999998688697815,-34.939998626708984,-0.03265380859375,-0.02349853515625,1.0048828125,37.150001525878906,0.0,-4.0,-0.72430419921875,-2.623382568359375,Closing,0.0,0.0,0.0,0.0,0.0,0.0,0.0,0.0,
3.5080259999999908,0.0,0.0,-18897.0,0.0,0.0,0.0,0.0,0.125,0.826415931,0.01,0.0,611.0,0.0,0.0,-0.0,0.0,0.0,0.507812448,0.01,0.0,-16804.0,0.0,0.0,0.0,0.0,0.0,3.34472622,0.01,0.0,5663.0,0.0,0.0,-0.0,0.0,0.25,1.597900227,0.01,0.0,0.3199999928474426,-0.41999998688697815,-34.939998626708984,0.00897216796875,0.0137939453125,1.04736328125,37.150001525878906,0.0,9.0,-0.7241668701171875,-2.6236419677734375,Closing,0.0,0.0,0.0,0.0,0.0,0.0,0.0,0.0,
3.5357150000000037,0.0,0.0,-18897.0,0.0,0.0,0.0,0.0,0.125,0.826415931,0.01,0.0,611.0,0.0,0.0,-0.0,0.0,0.0,0.507812448,0.01,0.0,-16804.0,0.0,0.0,0.0,0.0,0.0,3.345946923,0.01,0.0,5663.0,0.0,0.0,-0.0,0.0,0.25,1.597900227,0.01,0.0,0.3100000023841858,-0.41999998688697815,-34.939998626708984,0.01318359375,0.03924560546875,1.0062255859375,37.150001525878906,0.0,-2.0,-0.7241668701171875,-2.6237945556640625,Closing,0.0,0.0,0.0,0.0,0.0,0.0,0.0,0.0,
3.5704439999999957,0.0,0.0,-18897.0,0.0,0.0,0.0,0.0,0.125,0.826415931,0.01,0.0,611.0,0.0,0.0,-0.0,0.0,0.0,0.507812448,0.01,0.0,-16804.0,0.0,0.0,0.0,0.0,0.0,3.34472622,0.01,0.0,5663.0,0.0,0.0,-0.0,0.0,0.25,1.597900227,0.01,0.0,0.3100000023841858,-0.4099999964237213,-34.939998626708984,-0.0091552734375,0.0069580078125,0.97161865234375,37.150001525878906,0.0,-2.0,-0.7243194580078125,-2.623809814453125,Closing,0.0,0.0,0.0,0.0,0.0,0.0,0.0,0.0,
3.5978199999999996,0.0,0.0,-18897.0,0.0,0.0,0.0,0.0,0.125,0.826415931,0.01,0.0,611.0,0.0,0.0,-0.0,0.0,0.0,0.507812448,0.01,0.0,-16804.0,0.0,0.0,0.0,0.0,0.0,3.34472622,0.01,0.0,5663.0,0.0,0.0,-0.0,0.0,0.25,1.597900227,0.01,0.0,0.30000001192092896,-0.4099999964237213,-34.939998626708984,-0.03179931640625,-0.00115966796875,1.005859375,37.150001525878906,0.0,-16.0,-0.7243194580078125,-2.623809814453125,Closing,0.0,0.0,0.0,0.0,0.0,0.0,0.0,0.0,
3.6328569999999965,0.0,0.0,-18897.0,0.0,0.0,0.0,0.0,0.125,0.826415931,0.01,0.0,611.0,0.0,0.0,-0.0,0.0,0.0,0.507812448,0.01,0.0,-16804.0,0.0,0.0,0.0,0.0,0.0,3.34472622,0.01,0.0,5663.0,0.0,0.0,-0.0,0.0,0.25,1.597900227,0.01,0.0,0.3199999928474426,-0.4099999964237213,-34.939998626708984,0.00244140625,-0.03515625,1.00506591796875,37.150001525878906,0.0,31.0,-0.72430419921875,-2.62396240234375,Closing,0.0,0.0,0.0,0.0,0.0,0.0,0.0,0.0,
3.6612139999999997,0.0,0.0,-18897.0,0.0,0.0,0.0,0.0,0.125,0.826415931,0.01,0.0,611.0,0.0,0.0,-0.0,0.0,0.0,0.507812448,0.01,0.0,-16804.0,0.0,0.0,0.0,0.0,0.0,3.34472622,0.01,0.0,5663.0,0.0,0.0,-0.0,0.0,0.25,1.597900227,0.01,0.0,0.3100000023841858,-0.41999998688697815,-34.939998626708984,0.00885009765625,0.03009033203125,1.04217529296875,37.150001525878906,0.0,0.0,-0.724212646484375,-2.6241455078125,Closing,0.0,0.0,0.0,0.0,0.0,0.0,0.0,0.0,
3.694815999999999,0.0,0.0,-18897.0,0.0,0.0,0.0,0.0,0.125,0.826415931,0.01,0.0,611.0,0.0,0.0,-0.0,0.0,0.0,0.509033151,0.01,0.0,-16804.0,0.0,0.0,0.0,0.0,0.0,3.34472622,0.01,0.0,5663.0,0.0,0.0,-0.0,0.0,0.25,1.597900227,0.01,0.0,0.30000001192092896,-0.4099999964237213,-34.939998626708984,-0.002685546875,0.03155517578125,1.0052490234375,37.150001525878906,0.0,-11.0,-0.724212646484375,-2.6241607666015625,Closing,0.0,0.0,0.0,0.0,0.0,0.0,0.0,0.0,
3.7280710000000035,0.0,0.0,-18897.0,0.0,0.0,0.0,0.0,0.125,0.826415931,0.01,0.0,611.0,0.0,0.0,-0.0,0.0,0.0,0.509033151,0.01,0.0,-16804.0,0.0,0.0,0.0,0.0,0.0,3.343505517,0.01,0.0,5663.0,0.0,0.0,-0.0,0.0,0.25,1.596679524,0.01,0.0,0.3100000023841858,-0.4099999964237213,-34.939998626708984,-0.0177001953125,-0.03369140625,0.9757080078125,37.150001525878906,0.0,13.0,-0.724212646484375,-2.6241455078125,Closing,0.0,0.0,0.0,0.0,0.0,0.0,0.0,0.0,
3.7610710000000034,0.0,0.0,-18897.0,0.0,0.0,0.0,0.0,0.125,0.8276366340000001,0.01,0.0,611.0,0.0,0.0,-0.0,0.0,0.0,0.507812448,0.01,0.0,-16804.0,0.0,0.0,0.0,0.0,0.0,3.345946923,0.01,0.0,5663.0,0.0,0.0,-0.0,0.0,0.25,1.597900227,0.01,0.0,0.3100000023841858,-0.4099999964237213,-34.939998626708984,7.32421875E-4,-0.0040283203125,1.0633544921875,37.150001525878906,0.0,12.0,-0.72412109375,-2.6243438720703125,Closing,0.0,0.0,0.0,0.0,0.0,0.0,0.0,0.0,
3.793190999999999,0.0,0.0,-18897.0,0.0,0.0,0.0,0.0,0.125,0.826415931,0.01,0.0,611.0,0.0,0.0,-0.0,0.0,0.0,0.507812448,0.01,0.0,-16804.0,0.0,0.0,0.0,0.0,0.0,3.34472622,0.01,0.0,5663.0,0.0,0.0,-0.0,0.0,0.25,1.597900227,0.01,0.0,0.30000001192092896,-0.4099999964237213,-34.939998626708984,0.0020751953125,0.041748046875,1.01849365234375,37.150001525878906,0.0,-13.0,-0.7240447998046875,-2.6244659423828125,Closing,0.0,0.0,0.0,0.0,0.0,0.0,0.0,0.0,
3.8259399999999952,0.0,0.0,-18897.0,0.0,0.0,0.0,0.0,0.125,0.826415931,0.01,0.0,611.0,0.0,0.0,-0.0,0.0,0.0,0.509033151,0.01,0.0,-16804.0,0.0,0.0,0.0,0.0,0.0,3.34472622,0.01,0.0,5663.0,0.0,0.0,-0.0,0.0,0.25,1.597900227,0.01,-0.0012207030000004337,0.30000001192092896,-0.4099999964237213,-34.939998626708984,-0.00946044921875,0.0230712890625,1.00360107421875,37.150001525878906,0.0,-11.0,-0.72412109375,-2.6244354248046875,Closing,0.0,0.0,0.0,0.0,0.0,0.0,0.0,0.0,
3.853211000000003,0.0,0.0,-18897.0,0.0,0.0,0.0,0.0,0.125,0.826415931,0.01,0.0,611.0,0.0,0.0,-0.0,0.0,0.0,0.509033151,0.01,0.0,-16804.0,0.0,0.0,0.0,0.0,0.0,3.345946923,0.01,0.0,5663.0,0.0,0.0,-0.0,0.0,0.25,1.597900227,0.01,0.0012207030000004337,0.3100000023841858,-0.4099999964237213,-34.939998626708984,-0.02642822265625,-0.0333251953125,1.01251220703125,37.150001525878906,0.0,6.0,-0.72418212890625,-2.624420166015625,Closing,0.0,0.0,0.0,0.0,0.0,0.0,0.0,0.0,
3.887978999999999,0.0,0.0,-18897.0,0.0,0.0,0.0,0.0,0.125,0.826415931,0.01,0.0,611.0,0.0,0.0,-0.0,0.0,0.0,0.507812448,0.01,0.0,-16804.0,0.0,0.0,0.0,0.0,0.0,3.34472622,0.01,0.0,5663.0,0.0,0.0,-0.0,0.0,0.25,1.597900227,0.01,0.0012207030000004337,0.3100000023841858,-0.4099999964237213,-34.939998626708984,0.00543212890625,-0.01324462890625,1.02178955078125,37.11000061035156,0.0,21.0,-0.724151611328125,-2.62457275390625,Closing,0.0,0.0,0.0,0.0,0.0,0.0,0.0,0.0,
3.914341999999997,0.0,0.0,-18897.0,0.0,0.0,0.0,0.0,0.125,0.826415931,0.01,0.0,611.0,0.0,0.0,-0.0,0.0,0.0,0.507812448,0.01,0.0,-16804.0,0.0,0.0,0.0,0.0,0.0,3.34472622,0.01,0.0,5663.0,0.0,0.0,-0.0,0.0,0.25,1.597900227,0.01,0.0,0.3100000023841858,-0.4099999964237213,-34.939998626708984,0.00567626953125,0.03399658203125,1.0286865234375,37.11000061035156,0.0,-5.0,-0.72406005859375,-2.624542236328125,Closing,0.0,0.0,0.0,0.0,0.0,0.0,0.0,0.0,
3.9494990000000034,0.0,0.0,-18897.0,0.0,0.0,0.0,0.0,0.125,0.8276366340000001,0.01,0.0,611.0,0.0,0.0,-0.0,0.0,0.0,0.507812448,0.01,0.0,-16804.0,0.0,0.0,0.0,0.0,0.0,3.34472622,0.01,0.0,5663.0,0.0,0.0,-0.0,0.0,0.25,1.597900227,0.01,0.0,0.30000001192092896,-0.4099999964237213,-34.939998626708984,-0.02142333984375,0.0,0.99346923828125,37.11000061035156,0.0,-8.0,-0.7240142822265625,-2.6243438720703125,Closing,0.0,0.0,0.0,0.0,0.0,0.0,0.0,0.0,
3.97868,0.0,0.0,-18897.0,0.0,0.0,0.0,0.0,0.125,0.826415931,0.01,0.0,611.0,0.0,0.0,-0.0,0.0,0.0,0.507812448,0.01,0.0,-16804.0,0.0,0.0,0.0,0.0,0.0,3.34472622,0.01,0.0,5663.0,0.0,0.0,-0.0,0.0,0.25,1.597900227,0.01,0.0,0.30000001192092896,-0.4099999964237213,-34.939998626708984,-0.033203125,-0.0238037109375,0.98492431640625,37.11000061035156,0.0,-4.0,-0.7240142822265625,-2.6243896484375,Closing,0.0,0.0,0.0,0.0,0.0,0.0,0.0,0.0,
4.007628000000004,0.0,0.0,-18897.0,0.0,0.0,0.0,0.0,0.125,0.826415931,0.01,0.0,611.0,0.0,0.0,-0.0,0.0,0.0,0.507812448,0.01,0.0,-16804.0,0.0,0.0,0.0,0.0,0.0,3.34472622,0.01,0.0,5663.0,0.0,0.0,-0.0,0.0,0.25,1.597900227,0.01,0.0,0.3100000023841858,-0.4099999964237213,-34.939998626708984,0.0062255859375,0.01275634765625,1.0535888671875,37.11000061035156,0.0,7.0,-0.72393798828125,-2.6245880126953125,Closing,0.0,0.0,0.0,0.0,0.0,0.0,0.0,0.0,
4.0402739999999975,0.0,0.0,-18897.0,0.0,0.0,0.0,0.0,0.125,0.8276366340000001,0.01,0.0,611.0,0.0,0.0,-0.0,0.0,0.0,0.507812448,0.01,0.0,-16804.0,0.0,0.0,0.0,0.0,0.0,3.34472622,0.01,0.0,5663.0,0.0,0.0,-0.0,0.0,0.25,1.597900227,0.01,0.0,0.30000001192092896,-0.4099999964237213,-34.939998626708984,-6.103515625E-5,0.04376220703125,1.0289306640625,37.11000061035156,0.0,-15.0,-0.7238922119140625,-2.6244659423828125,Closing,0.0,0.0,0.0,0.0,0.0,0.0,0.0,0.0,
4.072540000000001,0.0,0.0,-18897.0,0.0,0.0,0.0,0.0,0.125,0.8276366340000001,0.01,0.0,611.0,0.0,0.0,-0.0,0.0,0.0,0.507812448,0.01,0.0,-16804.0,0.0,0.0,0.0,0.0,0.0,3.34472622,0.01,0.0,5663.0,0.0,0.0,-0.0,0.0,0.25,1.597900227,0.01,0.0,0.30000001192092896,-0.4099999964237213,-34.939998626708984,-0.0142822265625,0.0047607421875,0.98577880859375,37.11000061035156,0.0,-5.0,-0.7239532470703125,-2.6243438720703125,Closing,0.0,0.0,0.0,0.0,0.0,0.0,0.0,0.0,
4.103057999999997,0.0,0.0,-18897.0,0.0,0.0,0.0,0.0,0.125,0.826415931,0.01,0.0,611.0,0.0,0.0,-0.0,0.0,0.0,0.507812448,0.01,0.0,-16804.0,0.0,0.0,0.0,0.0,0.0,3.345946923,0.01,0.0,5663.0,0.0,0.0,-0.0,0.0,0.25,1.597900227,0.01,0.0,0.3100000023841858,-0.4099999964237213,-34.939998626708984,-0.0181884765625,-0.03570556640625,1.00958251953125,37.11000061035156,0.0,14.0,-0.7240142822265625,-2.6244659423828125,Closing,0.0,0.0,0.0,0.0,0.0,0.0,0.0,0.0,
4.133169000000001,0.0,0.0,-18897.0,0.0,0.0,0.0,0.0,0.125,0.826415931,0.01,0.0,611.0,0.0,0.0,-0.0,0.0,0.0,0.507812448,0.01,0.0,-16804.0,0.0,0.0,0.0,0.0,0.0,3.345946923,0.01,0.0,5663.0,0.0,0.0,-0.0,0.0,0.25,1.597900227,0.01,0.0,0.3100000023841858,-0.4099999964237213,-34.939998626708984,0.00799560546875,0.0103759765625,1.05596923828125,37.11000061035156,0.0,10.0,-0.7239227294921875,-2.624725341796875,Closing,0.0,0.0,0.0,0.0,0.0,0.0,0.0,0.0,
4.165762999999999,0.0,0.0,-18897.0,0.0,0.0,0.0,0.0,0.125,0.826415931,0.01,0.0,611.0,0.0,0.0,-0.0,0.0,0.0,0.507812448,0.01,0.0,-16804.0,0.0,0.0,0.0,0.0,0.0,3.345946923,0.01,0.0,5663.0,0.0,0.0,-0.0,0.0,0.25,1.597900227,0.01,0.0,0.3100000023841858,-0.4099999964237213,-34.939998626708984,-9.765625E-4,0.0433349609375,1.036865234375,37.11000061035156,0.0,-16.0,-0.7238616943359375,-2.624847412109375,Closing,0.0,0.0,0.0,0.0,0.0,0.0,0.0,0.0,
4.195344999999994,0.0,0.0,-18897.0,0.0,0.0,0.0,0.0,0.125,0.826415931,0.01,0.0,611.0,0.0,0.0,-0.0,0.0,0.0,0.509033151,0.01,0.0,-16804.0,0.0,0.0,0.0,0.0,0.0,3.34472622,0.01,0.0,5663.0,0.0,0.0,-0.0,0.0,0.25,1.597900227,0.01,0.0,0.30000001192092896,-0.4099999964237213,-34.939998626708984,-0.01611328125,0.00640869140625,0.9866943359375,37.11000061035156,0.0,-8.0,-0.72393798828125,-2.6248626708984375,Closing,0.0,0.0,0.0,0.0,0.0,0.0,0.0,0.0,
4.230874999999993,0.0,0.0,-18897.0,0.0,0.0,0.0,0.0,0.125,0.826415931,0.01,0.0,611.0,0.0,0.0,-0.0,0.0,0.0,0.507812448,0.01,0.0,-16804.0,0.0,0.0,0.0,0.0,0.0,3.34472622,0.01,0.0,5663.0,0.0,0.0,-0.0,0.0,0.25,1.597900227,0.01,0.0,0.3100000023841858,-0.4099999964237213,-34.939998626708984,-0.01544189453125,-0.0361328125,1.01263427734375,37.11000061035156,0.0,17.0,-0.7239990234375,-2.6249542236328125,Closing,0.0,0.0,0.0,0.0,0.0,0.0,0.0,0.0,
4.260999999999993,0.0,0.0,-18897.0,0.0,0.0,0.0,0.0,0.125,0.826415931,0.01,0.0,611.0,0.0,0.0,-0.0,0.0,0.0,0.509033151,0.01,0.0,-16804.0,0.0,0.0,0.0,0.0,0.0,3.34472622,0.01,0.0,5663.0,0.0,0.0,-0.0,0.0,0.25,1.597900227,0.01,0.0,0.3100000023841858,-0.41999998688697815,-34.939998626708984,0.01226806640625,0.0401611328125,1.03961181640625,37.11000061035156,0.0,-3.0,-0.72381591796875,-2.62530517578125,Closing,0.0,0.0,0.0,0.0,0.0,0.0,0.0,0.0,
4.293741000000002,0.0,0.0,-18897.0,0.0,0.0,0.0,0.0,0.125,0.826415931,0.01,0.0,611.0,0.0,0.0,-0.0,0.0,0.0,0.509033151,0.01,0.0,-16804.0,0.0,0.0,0.0,0.0,0.0,3.34472622,0.01,0.0,5663.0,0.0,0.0,-0.0,0.0,0.25,1.597900227,0.01,0.0,0.3100000023841858,-0.4099999964237213,-34.939998626708984,-0.01513671875,0.03118896484375,1.02783203125,37.11000061035156,0.0,-20.0,-0.7237396240234375,-2.6253509521484375,Closing,0.0,0.0,0.0,0.0,0.0,0.0,0.0,0.0,
4.325575000000004,0.0,0.0,-18897.0,0.0,0.0,0.0,0.0,0.125,0.8276366340000001,0.01,0.0,611.0,0.0,0.0,-0.0,0.0,0.0,0.507812448,0.01,0.0,-16804.0,0.0,0.0,0.0,0.0,0.0,3.34472622,0.01,0.0,5663.0,0.0,0.0,-0.0,0.0,0.25,1.59912093,0.01,0.0,0.3100000023841858,-0.4099999964237213,-34.939998626708984,-0.033447265625,-0.017333984375,0.99517822265625,37.11000061035156,0.0,-8.0,-0.723724365234375,-2.6253814697265625,Closing,0.0,0.0,0.0,0.0,0.0,0.0,0.0,0.0,
4.353719000000004,0.0,0.0,-18897.0,0.0,0.0,0.0,0.0,0.125,0.826415931,0.01,0.0,611.0,0.0,0.0,-0.0,0.0,0.0,0.507812448,0.01,0.0,-16804.0,0.0,0.0,0.0,0.0,0.0,3.34472622,0.01,0.0,5663.0,0.0,0.0,-0.0,0.0,0.25,1.597900227,0.01,0.0,0.3199999928474426,-0.4099999964237213,-34.939998626708984,0.0050048828125,-0.033447265625,1.022216796875,37.11000061035156,0.0,32.0,-0.72369384765625,-2.6255645751953125,Closing,0.0,0.0,0.0,0.0,0.0,0.0,0.0,0.0,
4.388135999999991,0.0,0.0,-18897.0,0.0,0.0,0.0,0.0,0.125,0.8276366340000001,0.01,0.0,611.0,0.0,0.0,-0.0,0.0,0.0,0.507812448,0.01,0.0,-16804.0,0.0,0.0,0.0,0.0,0.0,3.345946923,0.01,0.0,5663.0,0.0,0.0,-0.0,0.0,0.25,1.597900227,0.01,0.0,0.3100000023841858,-0.41999998688697815,-34.939998626708984,0.01226806640625,0.04425048828125,1.041015625,37.099998474121094,0.0,-5.0,-0.7235565185546875,-2.62579345703125,Closing,0.0,0.0,0.0,0.0,0.0,0.0,0.0,0.0,
