Time,ClimberA1,ClimberA2,FRpos,FRCurrent,FRspeed,FRsetpoint,FRApos,FRACurrent,FREncpos,FREncSetpoint,FREncSpeed,FLpos,FLCurrent,FLspeed,FLsetpoint,FLApos,FLACurrent,FLEncpos,FLEncSetpoint,FLEncSpeed,BRpos,BRCurrent,BRspeed,BRsetpoint,BRApos,BRACurrent,BREncpos,BREncSetpoint,BREncSpeed,BLpos,BLCurrent,BLspeed,BLsetpoint,BLApos,BLACurrent,BLEncpos,BLEncSetpoint,BLEncSpeed,navx_Pitch,navx_Roll,navx_Yaw,navx_XAcc,navx_YAcc,navx_ZAcc,navx_Temp,navx_Bar,navx_Alt,navx_XDis,navx_YDis,GearPlacerState,ShootOutputV,ShootOutputCurrent,ShootEncPos,ShootEncVelocity,ShootSpeed,ShootSetpoint,CarouselSetpoint,CarouselCurrent,
0.15915200000000188,0.0,0.0,10542.0,1.5,37.5,420.00000000000006,0.0,0.125,0.782470623,4.921290400411013,0.0,-14752.0,1.875,-45.0,-420.00000000000006,0.0,0.25,0.5175780720000001,4.9527393579216,0.0,36036.0,1.75,37.5,420.00000000000006,0.0,0.0,3.3154293480000003,4.9294212914530435,0.0,-29214.0,1.375,-37.5,-420.00000000000006,0.0,0.25,1.6357420200000001,4.946982180192736,0.0,0.44999998807907104,-0.1599999964237213,85.02999877929688,-0.00616455078125,0.0128173828125,1.07208251953125,36.560001373291016,0.0,4.0,2.2515411376953125,2.3497772216796875,Closing,0.0,0.0,0.0,0.0,0.0,0.0,0.0,0.0,
0.22750200000000767,0.0,0.0,10548.0,1.0,30.0,0.0,0.0,0.125,0.79345695,0.01,0.006103514999999504,-14752.0,1.25,-37.5,-0.0,0.0,0.0,0.507812448,0.01,-0.04272460500000008,36036.0,1.25,30.0,0.0,0.0,0.0,3.3154293480000003,0.01,0.01586913900000031,-29214.0,0.75,-37.5,-0.0,0.0,0.125,1.6320799110000002,0.01,-0.024414060000000015,0.4300000071525574,-0.3199999928474426,85.05000305175781,-0.1065673828125,0.017333984375,1.053466796875,36.560001373291016,0.0,0.0,2.2514495849609375,2.3503265380859375,Closing,0.0,0.0,0.0,0.0,0.0,0.0,0.0,0.0,
0.2924070000000065,0.0,0.0,10548.0,0.75,0.0,0.0,0.0,0.25,0.794677653,0.01,0.0,-14754.0,0.5,-7.5,-0.0,0.0,0.0,0.507812448,0.01,0.0,36038.0,0.75,7.5,0.0,0.0,0.0,3.3203121600000003,0.01,0.0,-29215.0,0.375,-7.5,-0.0,0.0,0.125,1.6308592080000002,0.01,0.0,0.4300000071525574,-0.36000001430511475,85.05000305175781,0.01934814453125,0.0068359375,1.0211181640625,36.560001373291016,0.0,1.0,2.2513885498046875,2.3516082763671875,Closing,0.0,0.0,0.0,0.0,0.0,0.0,0.0,0.0,
0.36551900000000026,0.0,0.0,10548.0,0.75,0.0,0.0,0.0,0.125,0.794677653,0.01,0.0,-14754.0,0.625,0.0,-0.0,0.0,0.0,0.507812448,0.01,0.0,36038.0,0.75,0.0,0.0,0.0,0.0,3.3190914570000003,0.01,0.004882811999999959,-29215.0,0.375,0.0,-0.0,0.0,0.125,1.6357420200000001,0.01,0.0,0.4300000071525574,-0.25,85.04000091552734,-0.01708984375,0.02325439453125,1.0252685546875,36.560001373291016,0.0,14.0,2.2513885498046875,2.3529815673828125,Closing,0.0,0.0,0.0,0.0,0.0,0.0,0.0,0.0,
0.43011999999999534,0.0,0.0,10548.0,0.75,0.0,0.0,0.0,0.125,0.79345695,0.01,0.0,-14754.0,0.75,0.0,-0.0,0.0,0.0,0.507812448,0.01,0.0,36037.0,0.75,0.0,0.0,0.0,0.0,3.3215328630000003,0.01,-0.0012207029999995456,-29215.0,0.375,0.0,-0.0,0.0,0.125,1.641845535,0.01,0.0012207029999999897,0.4300000071525574,-0.3199999928474426,85.05000305175781,-0.00341796875,-0.009033203125,1.0411376953125,36.560001373291016,0.0,-16.0,2.2513885498046875,2.354461669921875,Closing,0.0,0.0,0.0,0.0,0.0,0.0,0.0,0.0,
0.4947209999999905,0.0,0.0,10548.0,0.75,0.0,0.0,0.0,0.25,0.794677653,0.01,0.0,-14754.0,0.75,0.0,-0.0,0.0,0.125,0.507812448,0.01,0.0,36037.0,0.75,0.0,0.0,0.0,0.0,3.3203121600000003,0.01,0.0,-29215.0,0.625,0.0,-0.0,0.0,0.125,1.6320799110000002,0.01,0.0,0.4300000071525574,-0.27000001072883606,85.05000305175781,-0.0030517578125,0.02288818359375,1.03173828125,36.560001373291016,0.0,15.0,2.2513885498046875,2.3543243408203125,Closing,0.0,0.0,0.0,0.0,0.0,0.0,0.0,0.0,
0.567436000000016,0.0,0.0,10548.0,0.75,0.0,0.0,0.0,0.25,0.8007811680000001,0.01,0.0012207030000004337,-14754.0,0.75,0.0,-0.0,0.0,0.125,0.507812448,0.01,0.0012207030000004337,36037.0,0.75,0.0,0.0,0.0,0.0,3.3203121600000003,0.01,0.0,-29215.0,0.625,0.0,-0.0,0.0,0.125,1.6308592080000002,0.01,4.956779297,0.41999998688697815,-0.3100000023841858,85.05000305175781,0.003173828125,0.00341796875,1.02337646484375,36.560001373291016,0.0,-3.0,2.2513885498046875,2.3543243408203125,Closing,0.0,0.0,0.0,0.0,0.0,0.0,0.0,0.0,
0.6309530000000086,0.0,0.0,10548.0,0.75,0.0,0.0,0.0,0.125,0.797119059,0.01,0.0012207029999995456,-14754.0,0.75,0.0,-0.0,0.0,0.0,0.509033151,0.01,0.0,36037.0,0.75,0.0,0.0,0.0,0.0,3.3239742690000003,0.01,-0.0012207029999995456,-29215.0,0.625,0.0,-0.0,0.0,0.125,1.6320799110000002,0.01,-4.956779297,0.4300000071525574,-0.2800000011920929,85.05000305175781,-0.003662109375,0.01409912109375,1.02532958984375,36.560001373291016,0.0,6.0,2.2513885498046875,2.3543243408203125,Closing,0.0,0.0,0.0,0.0,0.0,0.0,0.0,0.125,
0.6946309999999939,0.0,0.0,10548.0,0.75,0.0,0.0,0.0,0.125,0.79345695,0.01,0.0,-14754.0,0.75,0.0,-0.0,0.0,0.0,0.507812448,0.01,0.0,36037.0,0.75,0.0,0.0,0.0,0.0,3.3203121600000003,0.01,0.0,-29215.0,0.625,0.0,-0.0,0.0,0.125,1.6320799110000002,0.01,0.0,0.41999998688697815,-0.28999999165534973,85.05000305175781,-9.1552734375E-4,0.00347900390625,1.022216796875,36.58000183105469,0.0,-3.0,2.2513885498046875,2.3543243408203125,Closing,0.0,0.0,0.0,0.0,0.0,0.0,0.0,0.125,
0.7685899999999966,0.0,0.0,10548.0,0.75,0.0,0.0,0.0,0.125,0.79345695,0.01,0.0,-14754.0,0.75,0.0,-0.0,0.0,0.0,0.507812448,0.01,0.0,36037.0,0.75,0.0,0.0,0.0,0.0,3.3203121600000003,0.01,0.0,-29215.0,0.625,0.0,-0.0,0.0,0.125,1.6320799110000002,0.01,0.0,0.4300000071525574,-0.28999999165534973,85.05000305175781,-0.0089111328125,0.01025390625,1.02850341796875,36.58000183105469,0.0,2.0,2.2513885498046875,2.3543243408203125,Closing,0.0,0.0,0.0,0.0,0.0,0.0,0.0,0.0,
0.8342880000000005,0.0,0.0,10548.0,0.75,0.0,0.0,0.0,0.125,0.794677653,0.01,0.0,-14754.0,0.75,0.0,-0.0,0.0,0.0,0.507812448,0.01,0.0,36037.0,0.75,0.0,0.0,0.0,0.0,3.3203121600000003,0.01,0.0,-29215.0,0.625,0.0,-0.0,0.0,0.125,1.6308592080000002,0.01,0.0,0.41999998688697815,-0.28999999165534973,85.05000305175781,-0.00433349609375,0.00164794921875,1.02679443359375,36.58000183105469,0.0,-5.0,2.2513885498046875,2.3543243408203125,Closing,0.0,0.0,0.0,0.0,0.0,0.0,0.0,0.125,
0.8982920000000159,0.0,0.0,10548.0,0.75,0.0,0.0,0.0,0.25,0.784912029,0.01,0.0,-14754.0,0.75,0.0,-0.0,0.0,0.0,0.507812448,0.01,0.0,36037.0,0.75,0.0,0.0,0.0,0.0,3.3203121600000003,0.01,0.0,-29215.0,0.625,0.0,-0.0,0.0,0.125,1.6320799110000002,0.01,0.0,0.41999998688697815,-0.2800000011920929,85.05000305175781,-0.00701904296875,0.0084228515625,1.0203857421875,36.58000183105469,0.0,0.0,2.2513885498046875,2.3543243408203125,Closing,0.0,0.0,0.0,0.0,0.0,0.0,0.0,0.0,
0.9666400000000139,0.0,0.0,10548.0,0.75,0.0,0.0,0.0,0.125,0.79345695,0.01,0.0,-14754.0,0.75,0.0,-0.0,0.0,0.0,0.507812448,0.01,0.0,36037.0,0.75,0.0,0.0,0.0,0.0,3.3203121600000003,0.01,0.0,-29215.0,0.625,0.0,-0.0,0.0,0.125,1.6320799110000002,0.01,0.0,0.4099999964237213,-0.28999999165534973,85.05000305175781,-0.00177001953125,0.0093994140625,1.0223388671875,36.58000183105469,0.0,2.0,2.2513885498046875,2.3543243408203125,Closing,0.0,0.0,0.0,0.0,0.0,0.0,0.0,0.0,
1.0257859999999928,0.0,0.0,10546.0,0.25,0.0,-277.79527455568314,0.0,0.25,0.794677653,4.932250999999998,0.0,-14754.0,0.375,0.0,277.79527455568314,0.0,0.0,0.507812448,4.963769999999998,0.0,36037.0,0.25,0.0,-277.79527455568314,0.0,0.0,3.3203121600000003,0.01,0.0,-29214.0,0.125,0.0,277.79527455568314,0.0,0.125,1.6320799110000002,0.01,0.0,0.41999998688697815,-0.3400000035762787,85.05999755859375,-0.03350830078125,-0.0020751953125,1.0135498046875,36.58000183105469,0.0,-11.0,2.2513885498046875,2.354461669921875,Closing,0.0,0.0,0.0,0.0,0.0,0.0,0.0,0.0,
1.0896140000000014,0.0,0.0,10546.0,0.125,-30.0,-615.1181173324585,0.0,0.125,0.79345695,4.932250999999998,0.0,-14754.0,0.375,30.0,615.1181173324585,0.0,0.0,0.507812448,4.963769999999998,0.0,36037.0,0.375,-30.0,-615.1181173324585,0.0,0.0,3.3203121600000003,0.01,0.0,-29214.0,0.5,30.0,615.1181173324585,0.0,0.125,1.6308592080000002,0.01,0.0,0.4099999964237213,-0.41999998688697815,85.05999755859375,-0.023193359375,0.02130126953125,0.99920654296875,36.58000183105469,0.0,12.0,2.2513427734375,2.35552978515625,Closing,0.0,0.0,0.0,0.0,0.0,0.0,0.0,0.0,
1.1605500000000175,0.0,0.0,10514.0,4.25,-165.0,-1508.031527996063,0.0,0.125,0.821533119,4.932250999999998,0.0,-14741.0,4.375,150.0,1508.031527996063,0.0,0.0,0.507812448,4.963769999999998,0.0,36024.0,5.625,-82.5,-1508.031527996063,0.0,0.0,3.355712547,0.01,0.0,-29196.0,4.625,172.5,1508.031527996063,0.0,0.125,1.57470687,0.01,0.0,0.27000001072883606,-1.1100000143051147,85.02999877929688,-0.51251220703125,0.06707763671875,1.20361328125,36.58000183105469,0.0,18.0,2.25067138671875,2.357086181640625,Closing,0.0,0.0,0.0,0.0,0.0,0.0,0.0,0.125,
1.2308190000000176,0.0,0.0,10514.0,8.125,-300.0,-1527.874038219452,0.0,0.125,0.822753822,4.932250999999998,0.0,-14741.0,11.5,330.0,1527.874038219452,0.0,0.0,0.47973627900000004,4.963769999999998,0.0,36024.0,11.75,-157.5,-1527.874038219452,0.0,0.0,3.3789059040000002,0.01,0.0,-29143.0,9.75,300.0,1527.874038219452,0.0,0.25,1.568603355,0.01,0.0,0.3100000023841858,-1.6399999856948853,85.05000305175781,-0.29498291015625,-0.05487060546875,1.34246826171875,36.540000915527344,0.0,-84.0,2.24853515625,2.3651885986328125,Closing,0.0,0.0,0.0,0.0,0.0,0.0,0.0,0.0,
1.296073000000004,0.0,0.0,10461.0,8.25,-345.0,-1230.236234664917,0.0,0.125,0.821533119,4.932250999999998,0.0,-14677.0,10.625,382.5,1230.236234664917,0.0,0.25,0.468749952,4.963769999999998,0.0,35991.0,12.5,-240.0,-1230.236234664917,0.0,0.125,3.3789059040000002,0.01,0.0,-29143.0,9.875,397.5,1230.236234664917,0.0,0.25,1.568603355,0.01,0.0,0.3700000047683716,-2.3399999141693115,85.08999633789062,-0.3436279296875,0.03399658203125,1.2764892578125,36.540000915527344,0.0,0.0,2.245513916015625,2.382720947265625,Closing,0.0,0.0,0.0,0.0,0.0,0.0,0.0,0.0,
1.3685409999999973,0.0,0.0,10461.0,4.5,-585.0,-595.2756071090697,0.0,0.25,0.822753822,4.932250999999998,0.0,-14577.0,5.625,600.0,595.2756071090697,0.0,0.25,0.45532221900000003,4.963769999999998,0.0,35911.0,7.125,-465.0,-595.2756071090697,0.0,0.125,3.3776852010000002,0.01,0.0,-29048.0,5.125,570.0,595.2756071090697,0.0,0.375,1.5832517910000001,0.01,0.0,0.41999998688697815,-2.609999895095825,85.27999877929688,-0.17852783203125,0.01641845703125,1.2091064453125,36.540000915527344,0.0,-2.0,2.24468994140625,2.4065093994140625,Closing,0.0,0.0,0.0,0.0,0.0,0.0,0.0,0.0,
1.4351480000000156,0.0,0.0,10356.0,0.25,-682.5,0.0,0.0,0.125,0.821533119,4.932250999999998,0.0,-14577.0,0.625,667.5,0.0,0.0,0.25,0.468749952,4.963769999999998,-0.004882811999999959,35911.0,0.875,-615.0,0.0,0.0,0.125,3.3691402800000003,0.01,0.0,-29048.0,0.75,645.0,0.0,0.0,0.25,1.597900227,0.01,0.014648436000000764,0.3199999928474426,-2.549999952316284,85.37000274658203,-0.0535888671875,0.068603515625,0.81787109375,36.540000915527344,0.0,62.0,2.2432861328125,2.4267730712890625,Closing,0.0,0.0,0.0,0.0,0.0,0.0,0.0,0.125,
1.4953509999999952,0.0,0.0,10273.0,0.0,-555.0,0.0,0.0,0.125,0.8178710100000001,4.932250999999998,0.0,-14494.0,0.0,502.5,0.0,0.0,0.25,0.49316401200000004,4.963769999999998,0.0,35812.0,0.0,-630.0,0.0,0.0,0.0,3.339843408,0.01,0.0,-28964.0,0.125,532.5,0.0,0.0,0.25,1.616210772,0.01,0.0,0.2800000011920929,-2.0899999141693115,85.47000122070312,0.1522216796875,-0.06451416015625,0.97406005859375,36.540000915527344,0.0,-54.0,2.2421722412109375,2.44464111328125,Closing,0.0,0.0,0.0,0.0,0.0,0.0,0.0,0.0,
1.56781700000001,0.0,0.0,10273.0,0.0,-517.5,0.0,0.0,0.25,0.8178710100000001,4.932250999999998,4.927368188,-14494.0,0.0,517.5,0.0,0.0,0.125,0.5029296360000001,4.963769999999998,0.023193357000000248,35812.0,0.0,-555.0,0.0,0.0,0.0,3.353271141,0.01,4.913544534,-28964.0,0.125,555.0,0.0,0.0,0.25,1.617431475,0.01,0.019531247999999835,0.33000001311302185,-1.8200000524520874,85.54000091552734,0.1484375,-0.020751953125,1.04669189453125,36.540000915527344,0.0,-12.0,2.241790771484375,2.46197509765625,Closing,0.0,0.0,0.0,0.0,0.0,0.0,0.0,0.0,
1.6320570000000008,0.0,0.0,10181.0,0.0,-592.5,0.0,0.0,0.125,0.8178710100000001,4.932250999999998,0.0,-14406.0,0.0,532.5,0.0,0.0,0.0,0.51269526,4.963769999999998,0.010986326999999463,35722.0,0.0,-562.5,0.0,0.0,0.0,3.353271141,0.01,0.012207029999999897,-28873.0,0.125,540.0,0.0,0.0,0.125,1.625976396,0.01,-0.003662108999999525,0.28999999165534973,-1.6299999952316284,85.73999786376953,0.0970458984375,0.047607421875,0.87933349609375,36.540000915527344,0.0,52.0,2.2416229248046875,2.470550537109375,Closing,0.0,0.0,0.0,0.0,0.0,0.0,0.0,0.0,
1.6985469999999914,0.0,0.0,10181.0,0.0,-502.5,0.0,0.0,0.125,0.8178710100000001,4.932250999999998,0.0,-14406.0,0.0,465.0,0.0,0.0,0.125,0.5175780720000001,4.963769999999998,0.0,35722.0,0.0,-442.5,0.0,0.0,0.0,3.338622705,0.01,0.0,-28873.0,0.0,465.0,0.0,0.0,0.125,1.6308592080000002,0.01,0.0,0.3400000035762787,-1.3200000524520874,85.80000305175781,0.161865234375,0.00732421875,0.800048828125,36.540000915527344,0.0,15.0,2.241363525390625,2.4820404052734375,Closing,0.0,0.0,0.0,0.0,0.0,0.0,0.0,0.0,
1.7681320000000122,0.0,0.0,10113.0,0.0,-412.5,0.0,0.0,0.125,0.8178710100000001,4.932250999999998,0.0,-14338.0,0.0,397.5,0.0,0.0,0.125,0.5175780720000001,4.963769999999998,0.0,35657.0,0.0,-390.0,0.0,0.0,0.0,3.339843408,0.01,-0.017089841999999855,-28805.0,0.125,360.0,0.0,0.0,0.125,1.6369627230000001,0.01,-4.953117187999999,0.3499999940395355,-1.0399999618530273,85.86000061035156,0.07373046875,0.0020751953125,0.902587890625,36.529998779296875,0.0,-8.0,2.2415313720703125,2.4901580810546875,Closing,0.0,0.0,0.0,0.0,0.0,0.0,0.0,0.125,
1.8315450000000129,0.0,0.0,10113.0,0.0,-337.5,0.0,0.0,0.125,0.8178710100000001,4.932250999999998,0.0,-14338.0,0.0,330.0,0.0,0.0,0.125,0.5163573690000001,4.963769999999998,0.0,35606.0,0.0,-352.5,0.0,0.0,0.0,3.339843408,0.01,0.0,-28758.0,0.125,322.5,0.0,0.0,0.125,1.627197099,0.01,0.004882811999999959,0.36000001430511475,-0.7599999904632568,85.9800033569336,0.08697509765625,0.04150390625,0.97406005859375,36.529998779296875,0.0,42.0,2.241729736328125,2.4943695068359375,Closing,0.0,0.0,0.0,0.0,0.0,0.0,0.0,0.0,
1.8974459999999962,0.0,0.0,10064.0,0.0,-292.5,0.0,0.0,0.125,0.8178710100000001,4.932250999999998,0.0,-14291.0,0.0,262.5,0.0,0.0,0.125,0.5175780720000001,4.963769999999998,0.0,35606.0,0.0,-277.5,0.0,0.0,0.0,3.339843408,0.01,0.0,-28758.0,0.125,262.5,0.0,0.0,0.125,1.6308592080000002,0.01,4.948234375999999,0.38999998569488525,-0.550000011920929,86.0,0.05841064453125,0.0030517578125,1.07763671875,36.529998779296875,0.0,0.0,2.2425537109375,2.4966888427734375,Closing,0.0,0.0,0.0,0.0,0.0,0.0,0.0,0.125,
1.9593289999999979,0.0,0.0,10064.0,0.0,-217.5,0.0,0.0,0.125,0.8178710100000001,4.932250999999998,0.0,-14262.0,0.0,202.5,0.0,0.0,0.125,0.5175780720000001,4.963769999999998,0.0,35575.0,0.0,-210.0,0.0,0.0,0.0,3.339843408,0.01,0.0,-28728.0,0.125,210.0,0.0,0.0,0.125,1.627197099,0.01,-4.953117187999999,0.36000001430511475,-0.2800000011920929,86.04000091552734,0.0523681640625,-0.0076904296875,1.11859130859375,36.529998779296875,0.0,-10.0,2.2435302734375,2.4970245361328125,Closing,0.0,0.0,0.0,0.0,0.0,0.0,0.0,0.0,
2.0305739999999934,0.0,0.0,10035.0,0.125,-165.0,-674.6456480026245,0.0,0.125,0.825195228,4.932250999999998,0.0,-14262.0,0.5,142.5,674.6456480026245,0.0,0.125,0.5175780720000001,4.963769999999998,0.0,35575.0,0.375,-165.0,-674.6456480026245,0.0,0.0,3.339843408,0.01,0.0,-28728.0,0.75,142.5,674.6456480026245,0.0,0.125,1.6320799110000002,0.01,0.0,0.36000001430511475,-0.11999999731779099,86.12000274658203,-0.01068115234375,0.05242919921875,1.0369873046875,36.529998779296875,0.0,45.0,2.24371337890625,2.49554443359375,Closing,0.0,0.0,0.0,0.0,0.0,0.0,0.0,0.0,
2.0945080000000016,0.0,0.0,9994.0,0.75,-255.0,-714.3307435512543,0.0,0.125,0.8178710100000001,4.932250999999998,0.0,-14221.0,1.375,247.5,714.3307435512543,0.0,0.125,0.507812448,4.963769999999998,0.0,35536.0,1.75,-240.0,-714.3307435512543,0.0,0.0,3.3679195770000003,0.01,0.0,-28687.0,1.5,247.5,714.3307435512543,0.0,0.125,1.617431475,0.01,0.0,0.3799999952316284,-0.3100000023841858,86.11000061035156,-0.20928955078125,0.02972412109375,1.1343994140625,36.529998779296875,0.0,8.0,2.2449951171875,2.4956817626953125,Closing,0.0,0.0,0.0,0.0,0.0,0.0,0.0,0.0,
2.168342000000004,0.0,0.0,9994.0,1.375,-217.5,-714.3307435512543,0.0,0.125,0.8154296040000001,4.932250999999998,0.0,-14221.0,2.5,240.0,714.3307435512543,0.0,0.125,0.498046824,4.963769999999998,0.0,35536.0,2.125,-262.5,-714.3307435512543,0.0,0.0,3.3728023890000003,0.01,0.0,-28687.0,2.25,210.0,714.3307435512543,0.0,0.125,1.6064451480000002,0.01,0.0,0.3700000047683716,-0.5699999928474426,86.0999984741211,-0.09295654296875,0.01739501953125,1.10308837890625,36.529998779296875,0.0,4.0,2.2464447021484375,2.497833251953125,Closing,0.0,0.0,0.0,0.0,0.0,0.0,0.0,0.0,
2.2333699999999954,0.0,0.0,9966.0,2.75,-157.5,-714.3307435512543,0.0,0.125,0.819091713,4.932250999999998,0.0,-14192.0,3.625,180.0,714.3307435512543,0.0,0.125,0.484619091,4.963769999999998,0.0,35504.0,2.875,-187.5,-714.3307435512543,0.0,0.0,3.3728023890000003,0.01,0.0,-28662.0,3.375,172.5,714.3307435512543,0.0,0.25,1.6076658510000001,0.01,0.0,0.3799999952316284,-0.7699999809265137,86.04000091552734,-0.1728515625,0.0469970703125,1.23309326171875,36.52000045776367,0.0,27.0,2.2467041015625,2.5011444091796875,Closing,0.0,0.0,0.0,0.0,0.0,0.0,0.0,0.0,
2.296918000000005,0.0,0.0,9966.0,3.5,-247.5,-714.3307435512543,0.0,0.125,0.8178710100000001,4.932250999999998,0.0,-14192.0,4.75,247.5,714.3307435512543,0.0,0.125,0.47485346700000003,4.963769999999998,0.0,35504.0,3.75,-240.0,-714.3307435512543,0.0,0.0,3.3740230920000003,0.01,0.0,-28662.0,4.375,240.0,714.3307435512543,0.0,0.25,1.6064451480000002,0.01,0.0,0.3400000035762787,-1.0700000524520874,86.12999725341797,-0.17291259765625,-0.048583984375,1.10650634765625,36.52000045776367,0.0,-65.0,2.24652099609375,2.5068511962890625,Closing,0.0,0.0,0.0,0.0,0.0,0.0,0.0,0.0,
2.3682930000000053,0.0,0.0,9911.0,3.5,-337.5,-714.3307435512543,0.0,0.125,0.8178710100000001,4.932250999999998,0.0,-14142.0,5.0,330.0,714.3307435512543,0.0,0.25,0.46386714,4.963769999999998,0.0,35453.0,4.0,-337.5,-714.3307435512543,0.0,0.0,3.3728023890000003,0.01,0.0,-28614.0,4.5,352.5,714.3307435512543,0.0,0.25,1.6064451480000002,0.01,0.0,0.3799999952316284,-1.3600000143051147,86.16000366210938,-0.1593017578125,0.095947265625,0.99444580078125,36.52000045776367,0.0,79.0,2.246307373046875,2.51763916015625,Closing,0.0,0.0,0.0,0.0,0.0,0.0,0.0,0.0,
2.428051999999996,0.0,0.0,9911.0,3.5,-420.0,-714.3307435512543,0.0,0.25,0.8178710100000001,4.932250999999998,0.0,-14142.0,5.0,442.5,714.3307435512543,0.0,0.25,0.45532221900000003,4.963769999999998,0.0,35453.0,4.0,-427.5,-714.3307435512543,0.0,0.0,3.3728023890000003,0.01,0.0,-28614.0,4.25,450.0,714.3307435512543,0.0,0.25,1.6076658510000001,0.01,0.0,0.3700000047683716,-1.6100000143051147,86.08000183105469,-0.12432861328125,-0.01690673828125,1.01837158203125,36.52000045776367,0.0,-30.0,2.2465972900390625,2.52880859375,Closing,0.0,0.0,0.0,0.0,0.0,0.0,0.0,0.0,
2.4927270000000137,0.0,0.0,9828.0,2.5,-502.5,-515.9055286645889,0.0,0.125,0.8178710100000001,4.932250999999998,0.0,-14059.0,3.625,532.5,515.9055286645889,0.0,0.25,0.44799800100000003,4.963769999999998,0.0,35374.0,2.875,-517.5,-515.9055286645889,0.0,0.0,3.3728023890000003,0.01,0.0,-28536.0,2.875,532.5,515.9055286645889,0.0,0.25,1.6064451480000002,0.01,0.0,0.3400000035762787,-1.7699999809265137,86.0999984741211,-0.06072998046875,-0.0670166015625,0.94183349609375,36.52000045776367,0.0,-74.0,2.2462615966796875,2.5449371337890625,Closing,0.0,0.0,0.0,0.0,0.0,0.0,0.0,0.0,
2.568032999999996,0.0,0.0,9828.0,0.75,-577.5,-277.79527455568314,0.0,0.125,0.7922362470000001,4.932250999999998,0.0,-13968.0,1.125,577.5,277.79527455568314,0.0,0.25,0.47363276400000004,4.963769999999998,0.0,35279.0,0.875,-592.5,-277.79527455568314,0.0,0.0,3.3740230920000003,0.01,0.0,-28446.0,1.625,555.0,277.79527455568314,0.0,0.25,1.6076658510000001,0.01,0.0,0.3400000035762787,-1.7799999713897705,86.16999816894531,0.01580810546875,-0.001708984375,0.92584228515625,36.52000045776367,0.0,-4.0,2.24615478515625,2.5582122802734375,Closing,0.0,0.0,0.0,0.0,0.0,0.0,0.0,0.0,
2.6333530000000027,0.0,0.0,9737.0,0.125,-562.5,-218.26772511005402,0.0,0.125,0.8154296040000001,4.932250999999998,0.0,-13968.0,0.5,532.5,218.26772511005402,0.0,0.25,0.49194330900000005,4.963769999999998,0.0,35279.0,0.375,-570.0,-218.26772511005402,0.0,0.0,3.3703609830000003,0.01,0.0,-28446.0,0.875,532.5,218.26772511005402,0.0,0.25,1.6076658510000001,0.01,0.0,0.33000001311302185,-1.5800000429153442,86.23999786376953,0.010009765625,-0.00701904296875,0.95697021484375,36.52000045776367,0.0,-10.0,2.246337890625,2.573577880859375,Closing,0.0,0.0,0.0,0.0,0.0,0.0,0.0,0.125,
2.704769,0.0,0.0,9663.0,0.0,-525.0,0.0,0.0,0.125,0.8166503070000001,4.932250999999998,0.0,-13902.0,0.125,435.0,0.0,0.0,0.125,0.49926752700000004,4.963769999999998,0.0,35195.0,0.0,-532.5,0.0,0.0,0.0,3.358153953,0.01,0.0,-28380.0,0.125,397.5,0.0,0.0,0.25,1.616210772,0.01,0.0,0.36000001430511475,-1.309999942779541,86.44999694824219,0.02203369140625,-0.00469970703125,1.05718994140625,36.52000045776367,0.0,-8.0,2.2463226318359375,2.5870819091796875,Closing,0.0,0.0,0.0,0.0,0.0,0.0,0.0,0.0,
2.7714400000000023,0.0,0.0,9663.0,0.0,-382.5,0.0,0.0,0.125,0.8178710100000001,4.932250999999998,0.0,-13902.0,0.0,405.0,0.0,0.0,0.0,0.498046824,4.963769999999998,0.004882811999999959,35195.0,0.0,-367.5,0.0,0.0,0.0,3.343505517,0.01,4.92819297,-28380.0,0.125,450.0,0.0,0.0,0.125,1.617431475,0.01,0.009765623999999917,0.46000000834465027,-1.0,86.48999786376953,0.08905029296875,-0.107177734375,0.91802978515625,36.5099983215332,0.0,-108.0,2.2462615966796875,2.5955047607421875,Closing,0.0,0.0,0.0,0.0,0.0,0.0,0.0,0.0,
2.8357240000000163,0.0,0.0,9595.0,0.0,-435.0,0.0,0.0,0.25,0.8178710100000001,4.932250999999998,0.0,-13835.0,0.0,412.5,0.0,0.0,0.0,0.5041503390000001,4.963769999999998,0.0024414059999999793,35144.0,0.0,-315.0,0.0,0.0,0.0,3.34472622,0.01,-0.012207029999999897,-28310.0,0.125,397.5,0.0,0.0,0.125,1.6113279600000001,0.01,0.0,0.44999998807907104,-0.7799999713897705,86.55000305175781,0.0499267578125,0.0030517578125,1.1484375,36.5099983215332,0.0,-2.0,2.24578857421875,2.60198974609375,Closing,0.0,0.0,0.0,0.0,0.0,0.0,0.0,0.0,
2.9077270000000137,0.0,0.0,9595.0,0.0,-345.0,0.0,0.0,0.125,0.8178710100000001,4.932250999999998,0.0,-13835.0,0.0,330.0,0.0,0.0,0.0,0.5029296360000001,4.963769999999998,0.0,35144.0,0.0,-345.0,0.0,0.0,0.0,3.343505517,0.01,0.0,-28262.0,0.125,345.0,0.0,0.0,0.125,1.6076658510000001,0.01,0.0,0.44999998807907104,-0.49000000953674316,86.68000030517578,0.0986328125,0.0216064453125,0.998291015625,36.5099983215332,0.0,19.0,2.2451171875,2.6081085205078125,Closing,0.0,0.0,0.0,0.0,0.0,0.0,0.0,0.0,
2.972542000000016,0.0,0.0,9548.0,0.0,-300.0,0.0,0.0,0.125,0.8166503070000001,4.932250999999998,0.0,-13785.0,0.0,277.5,0.0,0.0,0.0,0.507812448,4.963769999999998,0.0,35091.0,0.0,-300.0,0.0,0.0,0.0,3.343505517,0.01,0.0,-28262.0,0.125,255.0,0.0,0.0,0.25,1.6064451480000002,0.01,-0.004882811999999959,0.4699999988079071,-0.20999999344348907,86.7699966430664,0.0849609375,0.01129150390625,0.98297119140625,36.5099983215332,0.0,8.0,2.2452850341796875,2.6115875244140625,Closing,0.0,0.0,0.0,0.0,0.0,0.0,0.0,0.125,
3.042768000000011,0.0,0.0,9548.0,0.0,-225.0,0.0,0.0,0.125,0.8178710100000001,4.932250999999998,0.0,-13755.0,0.0,225.0,0.0,0.0,0.0,0.507812448,4.963769999999998,0.004882811999999959,35056.0,0.0,-247.5,0.0,0.0,0.0,3.343505517,0.01,0.0,-28231.0,0.125,195.0,0.0,0.0,0.25,1.6064451480000002,0.01,0.0,0.4699999988079071,-0.009999999776482582,86.86000061035156,0.08416748046875,0.02349853515625,0.9853515625,36.5099983215332,0.0,20.0,2.245361328125,2.612335205078125,Closing,0.0,0.0,0.0,0.0,0.0,0.0,0.0,0.0,
3.1121719999999913,0.0,0.0,9516.0,0.0,-165.0,0.0,0.0,0.125,0.8178710100000001,4.932250999999998,0.0,-13755.0,0.0,142.5,0.0,0.0,0.0,0.507812448,4.963769999999998,0.0,35056.0,0.0,-157.5,0.0,0.0,0.0,3.343505517,0.01,0.0,-28231.0,0.125,150.0,0.0,0.0,0.25,1.6064451480000002,0.01,0.0,0.5,0.18000000715255737,86.88999938964844,0.059326171875,0.0054931640625,1.01153564453125,36.5099983215332,0.0,0.0,2.245819091796875,2.611480712890625,Closing,0.0,0.0,0.0,0.0,0.0,0.0,0.0,0.0,
3.1767609999999986,0.0,0.0,9506.0,0.0,-90.0,0.0,0.0,0.25,0.8178710100000001,4.932250999999998,0.0,-13743.0,0.0,82.5,0.0,0.0,0.0,0.507812448,4.963769999999998,0.0,35043.0,0.0,-82.5,0.0,0.0,0.0,3.34472622,0.01,0.0,-28218.0,0.125,90.0,0.0,0.0,0.25,1.6076658510000001,0.01,0.0,0.49000000953674316,0.3700000047683716,86.87999725341797,0.09075927734375,-0.00787353515625,1.00628662109375,36.5099983215332,0.0,-12.0,2.2459869384765625,2.6090545654296875,Closing,0.0,0.0,0.0,0.0,0.0,0.0,0.0,0.0,
3.2467509999999895,0.0,0.0,9506.0,0.0,-30.0,0.0,0.0,0.125,0.8178710100000001,4.932250999999998,0.0,-13743.0,0.0,22.5,0.0,0.0,0.0,0.507812448,4.963769999999998,0.0,35043.0,0.0,-30.0,0.0,0.0,0.0,3.343505517,0.01,0.0,-28218.0,0.125,7.5,0.0,0.0,0.25,1.6076658510000001,0.01,0.0,0.47999998927116394,0.5099999904632568,86.91000366210938,0.02490234375,0.0283203125,1.0255126953125,36.5099983215332,0.0,20.0,2.2459869384765625,2.60516357421875,Closing,0.0,0.0,0.0,0.0,0.0,0.0,0.0,0.0,
3.3145480000000096,0.0,0.0,9506.0,0.0,0.0,0.0,0.0,0.25,0.8166503070000001,4.932250999999998,0.0,-13742.0,0.0,0.0,0.0,0.0,0.0,0.507812448,4.963769999999998,0.0,35043.0,0.0,0.0,0.0,0.0,0.0,3.343505517,0.01,0.0,-28218.0,0.125,0.0,0.0,0.0,0.25,1.6064451480000002,0.01,0.0,0.5099999904632568,0.47999998927116394,86.87999725341797,-0.02154541015625,0.00750732421875,1.03765869140625,36.47999954223633,0.0,-3.0,2.2460784912109375,2.605255126953125,Closing,0.0,0.0,0.0,0.0,0.0,0.0,0.0,0.0,
3.384282999999996,0.0,0.0,9506.0,0.0,0.0,0.0,0.0,0.25,0.8178710100000001,4.932250999999998,0.0,-13742.0,0.0,0.0,0.0,0.0,0.0,0.509033151,4.963769999999998,0.0,35043.0,0.0,0.0,0.0,0.0,0.0,3.34472622,0.01,0.0,-28218.0,0.125,0.0,0.0,0.0,0.25,1.6064451480000002,0.01,0.0,0.4699999988079071,0.4099999964237213,86.87000274658203,-0.0174560546875,-1.8310546875E-4,1.01385498046875,36.47999954223633,0.0,-9.0,2.245941162109375,2.6058502197265625,Closing,0.0,0.0,0.0,0.0,0.0,0.0,0.0,0.0,
3.447985000000015,0.0,0.0,9506.0,0.0,0.0,0.0,0.0,0.25,0.819091713,4.932250999999998,0.0,-13742.0,0.0,0.0,0.0,0.0,0.0,0.507812448,4.963769999999998,0.0,35043.0,0.0,0.0,0.0,0.0,0.0,3.343505517,0.01,0.0,-28218.0,0.125,0.0,0.0,0.0,0.25,1.6076658510000001,0.01,0.0,0.49000000953674316,0.3199999928474426,86.87000274658203,-0.02410888671875,0.01800537109375,1.01910400390625,36.47999954223633,0.0,7.0,2.245941162109375,2.607421875,Closing,0.0,0.0,0.0,0.0,0.0,0.0,0.0,0.125,
3.5156240000000105,0.0,0.0,9506.0,0.0,0.0,0.0,0.0,0.25,0.8178710100000001,4.932250999999998,0.0,-13742.0,0.0,0.0,0.0,0.0,0.0,0.507812448,4.963769999999998,0.0,35043.0,0.0,0.0,0.0,0.0,0.0,3.343505517,0.01,0.0,-28218.0,0.125,0.0,0.0,0.0,0.25,1.6064451480000002,0.01,0.0,0.49000000953674316,0.25,86.87000274658203,-0.0225830078125,-0.00341796875,1.01641845703125,36.47999954223633,0.0,-13.0,2.245941162109375,2.609375,Closing,0.0,0.0,0.0,0.0,0.0,0.0,0.0,0.0,
3.5872920000000157,0.0,0.0,9506.0,0.0,0.0,0.0,0.0,0.125,0.8178710100000001,4.932250999999998,0.0,-13742.0,0.0,0.0,0.0,0.0,0.0,0.507812448,4.963769999999998,0.0,35043.0,0.0,0.0,0.0,0.0,0.0,3.343505517,0.01,0.0,-28218.0,0.125,0.0,0.0,0.0,0.25,1.6076658510000001,0.01,0.0,0.47999998927116394,0.18000000715255737,86.87000274658203,-0.0145263671875,0.02008056640625,1.02032470703125,36.47999954223633,0.0,10.0,2.245941162109375,2.6118621826171875,Closing,0.0,0.0,0.0,0.0,0.0,0.0,0.0,0.125,
3.652298999999999,0.0,0.0,9506.0,0.0,0.0,0.0,0.0,0.25,0.8178710100000001,4.932250999999998,0.0,-13742.0,0.0,0.0,0.0,0.0,0.0,0.507812448,4.963769999999998,0.0,35043.0,0.0,0.0,0.0,0.0,0.0,3.34472622,0.01,0.0,-28218.0,0.125,0.0,0.0,0.0,0.25,1.6076658510000001,0.01,0.0,0.49000000953674316,0.14000000059604645,86.87999725341797,-0.0013427734375,0.0052490234375,1.02435302734375,36.47999954223633,0.0,-3.0,2.245941162109375,2.6118621826171875,Closing,0.0,0.0,0.0,0.0,0.0,0.0,0.0,0.0,
3.7223740000000105,0.0,0.0,9506.0,0.0,0.0,0.0,0.0,0.25,0.8178710100000001,4.932250999999998,0.0012207029999995456,-13742.0,0.0,0.0,0.0,0.0,0.0,0.507812448,4.963769999999998,0.0,35043.0,0.0,0.0,0.0,0.0,0.0,3.343505517,0.01,0.0,-28218.0,0.125,0.0,0.0,0.0,0.25,1.6076658510000001,0.01,0.0,0.49000000953674316,0.12999999523162842,86.87000274658203,-0.0050048828125,0.01531982421875,1.0250244140625,36.47999954223633,0.0,6.0,2.245941162109375,2.6118621826171875,Closing,0.0,0.0,0.0,0.0,0.0,0.0,0.0,0.125,
3.791955000000016,0.0,0.0,9506.0,0.0,0.0,0.0,0.0,0.125,0.8178710100000001,4.932250999999998,-0.0012207029999995456,-13742.0,0.0,0.0,0.0,0.0,0.0,0.507812448,4.963769999999998,0.0,35043.0,0.0,0.0,0.0,0.0,0.0,3.343505517,0.01,0.0,-28218.0,0.125,0.0,0.0,0.0,0.25,1.6064451480000002,0.01,0.0,0.5,0.10999999940395355,86.87999725341797,-0.007568359375,0.0048828125,1.02227783203125,36.43000030517578,0.0,-4.0,2.245941162109375,2.6118621826171875,Closing,0.0,0.0,0.0,0.0,0.0,0.0,0.0,0.0,
3.8560370000000113,0.0,0.0,9506.0,0.0,0.0,0.0,0.0,0.125,0.8178710100000001,4.932250999999998,0.0,-13742.0,0.0,0.0,0.0,0.0,0.0,0.507812448,4.963769999999998,0.0,35043.0,0.0,0.0,0.0,0.0,0.0,3.34472622,0.01,0.0,-28218.0,0.125,0.0,0.0,0.0,0.25,1.6076658510000001,0.01,0.0,0.49000000953674316,0.07999999821186066,86.87999725341797,-0.0087890625,0.0089111328125,1.02801513671875,36.43000030517578,0.0,0.0,2.245941162109375,2.6118621826171875,Closing,0.0,0.0,0.0,0.0,0.0,0.0,0.0,0.0,
3.9279590000000026,0.0,0.0,9506.0,0.0,0.0,0.0,0.0,0.25,0.8178710100000001,4.932250999999998,0.0,-13742.0,0.0,0.0,0.0,0.0,0.0,0.507812448,4.963769999999998,0.0,35043.0,0.0,0.0,0.0,0.0,0.0,3.34472622,0.01,0.0,-28218.0,0.125,0.0,0.0,0.0,0.25,1.6064451480000002,0.01,0.0,0.5,0.03999999910593033,86.87999725341797,-0.00897216796875,0.0069580078125,1.0205078125,36.43000030517578,0.0,-2.0,2.245941162109375,2.6118621826171875,Closing,0.0,0.0,0.0,0.0,0.0,0.0,0.0,0.0,
3.992298999999999,0.0,0.0,9506.0,0.0,0.0,0.0,0.0,0.125,0.8178710100000001,4.932250999999998,0.0,-13742.0,0.0,0.0,0.0,0.0,0.0,0.507812448,4.963769999999998,0.0,35043.0,0.0,0.0,0.0,0.0,0.0,3.34472622,0.01,0.0,-28218.0,0.125,0.0,0.0,0.0,0.25,1.6076658510000001,0.01,0.0,0.5,0.019999999552965164,86.87999725341797,-0.00396728515625,0.00494384765625,1.02044677734375,36.43000030517578,0.0,-4.0,2.245941162109375,2.6118621826171875,Closing,0.0,0.0,0.0,0.0,0.0,0.0,0.0,0.0,
4.062347000000009,0.0,0.0,9506.0,0.0,0.0,0.0,0.0,0.125,0.8178710100000001,4.932250999999998,0.0,-13742.0,0.0,0.0,0.0,0.0,0.0,0.509033151,4.963769999999998,0.0,35043.0,0.0,0.0,0.0,0.0,0.0,3.34472622,0.01,0.0,-28218.0,0.125,0.0,0.0,0.0,0.25,1.6076658510000001,0.01,0.0,0.5099999904632568,0.0,86.87000274658203,-0.0081787109375,0.00927734375,1.01715087890625,36.43000030517578,0.0,0.0,2.245941162109375,2.6118621826171875,Closing,0.0,0.0,0.0,0.0,0.0,0.0,0.0,0.125,
4.129243000000017,0.0,0.0,9506.0,0.0,0.0,0.0,0.0,0.125,0.8178710100000001,4.932250999999998,0.0,-13742.0,0.0,0.0,0.0,0.0,0.0,0.507812448,4.963769999999998,0.0,35043.0,0.0,0.0,0.0,0.0,0.0,3.34472622,0.01,0.0,-28218.0,0.125,0.0,0.0,0.0,0.25,1.6076658510000001,0.01,0.0,0.5,-0.019999999552965164,86.87999725341797,-0.00927734375,0.00933837890625,1.0201416015625,36.43000030517578,0.0,0.0,2.245941162109375,2.6118621826171875,Closing,0.0,0.0,0.0,0.0,0.0,0.0,0.0,0.0,
4.193287000000011,0.0,0.0,9506.0,0.0,0.0,0.0,0.0,0.125,0.8178710100000001,4.932250999999998,0.0,-13742.0,0.0,0.0,0.0,0.0,0.0,0.507812448,4.963769999999998,0.0,35043.0,0.0,0.0,0.0,0.0,0.0,3.34472622,0.01,0.0,-28218.0,0.125,0.0,0.0,0.0,0.25,1.6076658510000001,0.01,0.0,0.5,-0.03999999910593033,86.87000274658203,-0.00665283203125,0.0108642578125,1.01690673828125,36.43000030517578,0.0,1.0,2.245941162109375,2.6118621826171875,Closing,0.0,0.0,0.0,0.0,0.0,0.0,0.0,0.0,
4.2626229999999925,0.0,0.0,9506.0,0.0,0.0,0.0,0.0,0.125,0.8178710100000001,4.932250999999998,0.0,-13742.0,0.0,0.0,0.0,0.0,0.0,0.507812448,4.963769999999998,0.0,35043.0,0.0,0.0,0.0,0.0,0.0,3.34472622,0.01,0.0,-28218.0,0.125,0.0,0.0,0.0,0.25,1.6064451480000002,0.01,0.0,0.5,-0.05000000074505806,86.87000274658203,-0.00604248046875,0.00115966796875,1.0164794921875,36.43000030517578,0.0,-8.0,2.245941162109375,2.6118621826171875,Closing,0.0,0.0,0.0,0.0,0.0,0.0,0.0,0.0,
4.742353000000003,0.0,0.0,9506.0,0.0,0.0,0.0,0.0,0.125,0.8178710100000001,4.932250999999998,0.0,-13742.0,0.0,0.0,0.0,0.0,0.0,0.507812448,4.963769999999998,0.0,35043.0,0.0,0.0,0.0,0.0,0.0,3.34472622,0.01,0.0,-28218.0,0.125,0.0,0.0,0.0,0.25,1.6064451480000002,0.01,0.0,0.5099999904632568,-0.14000000059604645,86.88999938964844,-0.00335693359375,-0.0028076171875,0.9691162109375,36.45000076293945,0.0,-11.0,2.245849609375,2.6119537353515625,Closing,0.0,0.0,0.0,0.0,0.0,0.0,0.0,0.0,
4.812972999999998,0.0,0.0,9506.0,0.0,0.0,0.0,0.0,0.125,0.8178710100000001,4.932250999999998,0.0,-13742.0,0.0,0.0,0.0,0.0,0.0,0.507812448,4.963769999999998,0.0,35043.0,0.0,0.0,0.0,0.0,0.0,3.34472622,0.01,0.0,-28218.0,0.125,0.0,0.0,0.0,0.25,1.6076658510000001,0.01,0.0,0.5,-0.1599999964237213,86.87999725341797,-0.01727294921875,0.02264404296875,1.00372314453125,36.459999084472656,0.0,13.0,2.245819091796875,2.612060546875,Closing,0.0,0.0,0.0,0.0,0.0,0.0,0.0,0.0,
4.880567999999999,0.0,0.0,9506.0,0.0,0.0,0.0,0.0,0.125,0.819091713,4.932250999999998,0.0,-13742.0,0.0,0.0,0.0,0.0,0.0,0.507812448,4.963769999999998,0.0,35043.0,0.0,0.0,0.0,0.0,0.0,3.343505517,0.01,0.0,-28218.0,0.125,0.0,0.0,0.0,0.25,1.6064451480000002,0.01,0.0,0.5199999809265137,-0.18000000715255737,86.88999938964844,-0.02178955078125,0.0048828125,1.0233154296875,36.459999084472656,0.0,-5.0,2.2458038330078125,2.612060546875,Closing,0.0,0.0,0.0,0.0,0.0,0.0,0.0,0.0,
4.940964999999997,0.0,0.0,9506.0,0.0,0.0,0.0,0.0,0.125,0.8166503070000001,4.932250999999998,0.0,-13742.0,0.0,0.0,0.0,0.0,0.0,0.507812448,4.963769999999998,0.0,35043.0,0.0,0.0,0.0,0.0,0.0,3.34472622,0.01,0.0,-28218.0,0.125,0.0,0.0,0.0,0.25,1.6076658510000001,0.01,0.0,0.5299999713897705,-0.28999999165534973,86.88999938964844,-0.1090087890625,0.06744384765625,0.9986572265625,36.459999084472656,0.0,52.0,2.245880126953125,2.61248779296875,Closing,0.0,0.0,0.0,0.0,0.0,0.0,0.0,0.125,
