Time,ClimberA1,ClimberA2,FRpos,FRCurrent,FRspeed,FRsetpoint,FRApos,FRACurrent,FREncpos,FREncSetpoint,FREncSpeed,FLpos,FLCurrent,FLspeed,FLsetpoint,FLApos,FLACurrent,FLEncpos,FLEncSetpoint,FLEncSpeed,BRpos,BRCurrent,BRspeed,BRsetpoint,BRApos,BRACurrent,BREncpos,BREncSetpoint,BREncSpeed,BLpos,BLCurrent,BLspeed,BLsetpoint,BLApos,BLACurrent,BLEncpos,BLEncSetpoint,BLEncSpeed,navx_Pitch,navx_Roll,navx_Yaw,navx_XAcc,navx_YAcc,navx_ZAcc,navx_Temp,navx_Bar,navx_Alt,navx_XDis,navx_YDis,GearPlacerState,ShootOutputV,ShootOutputCurrent,ShootEncPos,ShootEncVelocity,ShootSpeed,ShootSetpoint,CarouselSetpoint,CarouselCurrent,
0.26460000000000217,0.0,0.0,-15038.0,0.0,0.0,0.0,0.0,0.125,0.7751464050000001,0.01,0.0,14942.0,0.0,0.0,0.0,0.0,0.125,0.6481932930000001,0.01,0.0,214.0,0.0,0.0,0.0,0.0,0.0,3.3142086450000003,0.01,0.0,2397.0,0.125,0.0,0.0,0.0,0.125,4.24804644,0.01,0.0,0.8700000047683716,-0.5899999737739563,171.5800018310547,-0.01116943359375,0.01434326171875,1.016845703125,37.130001068115234,0.0,3.0,0.9735565185546875,2.20697021484375,Waiting,0.0,0.0,0.0,0.0,0.0,0.0,0.0,0.0,
0.3970040000000008,0.0,0.0,-15038.0,0.0,0.0,0.0,0.0,0.125,0.7751464050000001,0.01,0.0,14942.0,0.0,0.0,-0.0,0.0,0.125,0.6481932930000001,0.01,0.14196329300000077,214.0,0.0,0.0,0.0,0.0,0.0,3.3142086450000003,0.01,4.904608645000001,2397.0,0.125,0.0,-0.0,0.0,0.125,4.249267143,0.01,2.6280464400000003,0.8799999952316284,-0.5899999737739563,171.5800018310547,-0.01251220703125,0.0172119140625,1.01910400390625,37.130001068115234,0.0,2.0,0.9735565185546875,2.20697021484375,Closing,0.0,0.0,0.0,0.0,0.0,0.0,0.0,0.0,
0.4311949999999997,0.0,0.0,-15038.0,0.0,0.0,0.0,0.0,0.25,0.7751464050000001,0.01,4.896176702,14942.0,0.0,0.0,-0.0,0.0,0.25,0.6481932930000001,0.01,0.14196329300000077,214.0,0.0,0.0,0.0,0.0,0.0,3.3129879420000004,0.01,4.904608645000001,2397.0,0.125,0.0,-0.0,0.0,4.75,4.361571819,0.01,2.6280464400000003,0.8700000047683716,-0.5899999737739563,171.5800018310547,0.01983642578125,0.01617431640625,1.024169921875,37.130001068115234,0.0,-30.0,0.973541259765625,2.20697021484375,Closing,0.0,0.0,0.0,0.0,0.0,0.0,0.0,0.0,
0.45545600000000197,0.0,0.0,-15038.0,0.0,0.0,0.0,0.0,0.25,0.7751464050000001,0.01,0.0012207029999995456,14942.0,0.0,0.0,-0.0,0.0,0.25,0.638427669,0.01,-0.004882811999999959,214.0,0.0,0.0,0.0,0.0,0.0,3.3105465360000004,0.01,0.0,2397.0,0.125,0.0,-0.0,0.0,7.375,4.591063983000001,0.01,0.14404295399999967,0.8899999856948853,-0.5899999737739563,171.58999633789062,0.0125732421875,0.015869140625,1.059814453125,37.130001068115234,0.0,-23.0,0.9733734130859375,2.20697021484375,Closing,0.0,0.0,0.0,0.0,0.0,0.0,0.0,0.0,
0.4931599999999999,0.0,0.0,-15038.0,0.0,0.0,0.0,0.0,0.25,0.7751464050000001,0.01,0.0012207029999995456,14942.0,0.0,0.0,-0.0,0.0,0.25,0.6335448570000001,0.01,-0.004882811999999959,214.0,0.0,0.0,0.0,0.0,0.0,3.3190914570000003,0.01,0.0,2397.0,0.0,0.0,-0.0,0.0,2.0,0.03662109,0.01,0.2758788780000003,0.8899999856948853,-0.5799999833106995,171.61000061035156,9.765625E-4,0.02001953125,1.00714111328125,37.130001068115234,0.0,-10.0,0.973114013671875,2.2068023681640625,Closing,0.0,0.0,0.0,0.0,0.0,0.0,0.0,0.0,
0.541800000000003,0.0,0.0,-15038.0,0.0,0.0,0.0,0.0,0.25,0.7751464050000001,0.01,-0.0012207029999995456,14942.0,0.0,0.0,-0.0,0.0,0.25,0.6335448570000001,0.01,-0.004882811999999959,214.0,0.0,0.0,0.0,0.0,0.0,3.3239742690000003,0.01,0.0,2397.0,0.0,0.0,-0.0,0.0,1.875,0.273437472,0.01,0.2758788780000003,0.8899999856948853,-0.5799999833106995,171.6300048828125,-0.00177001953125,0.02423095703125,1.0228271484375,37.130001068115234,0.0,-7.0,0.973114013671875,2.2068023681640625,Closing,0.0,0.0,0.0,0.0,0.0,0.0,0.0,0.0,
0.5809240000000027,0.0,0.0,-15038.0,0.0,0.0,337.32282400131226,0.0,0.25,0.783691326,4.817713162859978,0.0,14942.0,0.0,0.0,-337.32282400131226,0.0,0.25,0.615234312,4.848500221584318,-0.009765623999999917,214.0,0.0,0.0,337.32282400131226,0.0,0.0,3.328857081,4.825672924957273,0.004882811999999959,2397.0,0.125,0.0,-337.32282400131226,0.0,2.0,0.560302677,4.8428642138163225,0.316162077,0.8899999856948853,-0.5799999833106995,171.63999938964844,-0.02398681640625,0.03125,1.0306396484375,37.130001068115234,0.0,15.0,0.973114013671875,2.2068023681640625,Closing,0.0,0.0,0.0,0.0,0.0,0.0,0.0,0.0,
0.6064850000000006,0.0,0.0,-15038.0,0.125,0.0,416.69290244579315,0.0,0.25,0.773925702,4.817713162859978,0.0,14942.0,0.0,0.0,-416.69290244579315,0.0,0.25,0.58593744,4.848500221584318,0.0,214.0,0.375,0.0,416.69290244579315,0.0,0.0,3.328857081,4.825672924957273,0.0,2397.0,0.375,0.0,-416.69290244579315,0.0,1.875,0.76904289,4.8428642138163225,0.0,0.8799999952316284,-0.6000000238418579,171.6300048828125,-0.03253173828125,0.01385498046875,0.99517822265625,37.130001068115234,0.0,21.0,0.97314453125,2.2068023681640625,Closing,0.0,0.0,0.0,0.0,0.0,0.0,0.0,0.0,
0.6331340000000019,0.0,0.0,-15038.0,0.375,15.0,416.69290244579315,0.0,0.25,0.770263593,4.81743909037984,0.0012207029999995456,14942.0,0.25,0.0,-416.69290244579315,0.0,0.25,0.576171816,4.848224397674558,-0.02075195099999938,214.0,0.375,22.5,416.69290244579315,0.0,0.125,3.3190914570000003,4.825398399658201,0.0012207030000004337,2397.0,0.375,-15.0,-416.69290244579315,0.0,1.875,1.00097646,4.842588710530596,0.23681638200000066,0.8700000047683716,-0.6100000143051147,171.61000061035156,-0.0040283203125,-0.01068115234375,1.02197265625,37.130001068115234,0.0,-10.0,0.97320556640625,2.206817626953125,Closing,0.0,0.0,0.0,0.0,0.0,0.0,0.0,0.0,
0.666367000000002,0.0,0.0,-15038.0,0.5,45.0,0.0,0.0,0.25,0.76904289,4.81743909037984,-0.006103514999999504,14942.0,0.375,-22.5,0.0,0.0,0.25,0.527343696,4.848224397674558,-0.0341796840000006,214.0,0.25,52.5,0.0,0.0,0.125,3.3093258330000004,4.825398399658201,-0.009765623999999917,2397.0,0.375,-45.0,0.0,0.0,1.875,1.203613158,4.842588710530596,0.21484372799999996,0.8700000047683716,-0.5899999737739563,171.58999633789062,-0.01068115234375,0.04644775390625,1.0325927734375,37.130001068115234,0.0,4.0,0.97320556640625,2.206939697265625,Closing,0.0,0.0,0.0,0.0,0.0,0.0,0.0,0.125,
0.6890380000000005,0.0,0.0,-15038.0,0.25,97.5,0.0,0.0,0.25,0.7629393750000001,4.81743909037984,-0.006103514999999504,14928.0,0.25,-52.5,0.0,0.0,0.25,0.5029296360000001,4.848224397674558,-0.0341796840000006,235.0,0.25,90.0,0.0,0.0,0.125,3.298339506,4.825398399658201,-0.009765623999999917,2374.0,0.125,-90.0,0.0,0.0,1.375,1.3159178340000002,4.842588710530596,0.21484372799999996,0.8899999856948853,-0.5299999713897705,171.57000732421875,0.00927734375,0.051513671875,0.9500732421875,37.130001068115234,0.0,-12.0,0.9730682373046875,2.2069549560546875,Closing,0.0,0.0,0.0,0.0,0.0,0.0,0.0,0.0,
0.713344000000001,0.0,0.0,-15018.0,0.125,135.0,0.0,0.0,0.25,0.7531737510000001,4.81743909037984,-0.012207029999999897,14928.0,0.125,-82.5,0.0,0.0,0.25,0.47363276400000004,4.848224397674558,-0.06103514999999948,235.0,0.125,127.5,0.0,0.0,0.125,3.305663724,4.825398399658201,-0.01831054500000029,2374.0,0.125,-165.0,0.0,0.0,0.625,1.4196775890000002,4.842588710530596,0.3112792649999996,0.9100000262260437,-0.47999998927116394,171.55999755859375,-0.01226806640625,0.03631591796875,1.015380859375,37.130001068115234,0.0,6.0,0.9727325439453125,2.2068634033203125,Closing,0.0,0.0,0.0,0.0,0.0,0.0,0.0,0.0,
0.7358700000000026,0.0,0.0,-15018.0,0.0,120.0,0.0,0.0,0.25,0.74462883,4.81743909037984,-0.012207029999999897,14928.0,0.0,-97.5,0.0,0.0,0.25,0.46142573400000003,4.848224397674558,-0.06103514999999948,235.0,0.0,150.0,0.0,0.0,0.125,3.294677397,4.825398399658201,-0.01831054500000029,2374.0,0.125,-165.0,0.0,0.0,0.375,1.457519382,4.842588710530596,0.3112792649999996,0.8999999761581421,-0.5099999904632568,171.5800018310547,-0.04339599609375,0.02093505859375,1.1572265625,37.130001068115234,0.0,32.0,0.9725799560546875,2.2068634033203125,Closing,0.0,0.0,0.0,0.0,0.0,0.0,0.0,0.125,
0.7571260000000002,0.0,0.0,-15018.0,0.0,82.5,0.0,0.0,0.25,0.742187424,4.81743909037984,-0.014648436000000764,14928.0,0.0,-67.5,0.0,0.0,0.25,0.449218704,4.848224397674558,-0.0341796840000006,235.0,0.0,120.0,0.0,0.0,0.125,3.284911773,4.825398399658201,-0.006103515000000392,2374.0,0.125,-135.0,0.0,0.0,0.375,1.4770506300000001,4.842588710530596,0.11840819100000033,0.8799999952316284,-0.5099999904632568,171.61000061035156,-0.03326416015625,0.00433349609375,0.95831298828125,37.130001068115234,0.0,22.0,0.9722747802734375,2.2069854736328125,Closing,0.0,0.0,0.0,0.0,0.0,0.0,0.0,0.0,
0.7930070000000015,0.0,0.0,-15018.0,0.0,30.0,0.0,0.0,0.25,0.7360839090000001,4.81743909037984,-0.014648436000000764,14928.0,0.0,-37.5,0.0,0.0,0.25,0.445556595,4.848224397674558,-0.0341796840000006,235.0,0.0,82.5,0.0,0.0,0.125,3.281249664,4.825398399658201,-0.006103515000000392,2371.0,0.125,-90.0,0.0,0.0,0.375,1.4782713330000001,4.842588710530596,0.019531247999999835,0.8799999952316284,-0.550000011920929,171.6300048828125,-0.036376953125,0.0113525390625,1.075439453125,37.13999938964844,0.0,24.0,0.9720458984375,2.20709228515625,Closing,0.0,0.0,0.0,0.0,0.0,0.0,0.0,0.0,
0.8249710000000013,0.0,0.0,-15019.0,0.0,-7.5,0.0,0.0,0.25,0.7385253150000001,4.81743909037984,-0.0012207029999995456,14928.0,0.0,-7.5,0.0,0.0,0.25,0.44677729800000004,4.848224397674558,-0.013427732999999442,239.0,0.0,45.0,0.0,0.0,0.125,3.2714840400000003,4.825398399658201,-0.009765623999999917,2371.0,0.0,-7.5,0.0,0.0,0.25,1.4782713330000001,4.842588710530596,0.019531247999999835,0.8899999856948853,-0.5600000023841858,171.61000061035156,-0.015380859375,0.03680419921875,0.98370361328125,37.13999938964844,0.0,8.0,0.97198486328125,2.207061767578125,Closing,0.0,0.0,0.0,0.0,0.0,0.0,0.0,0.0,
0.8497920000000013,0.0,0.0,-15019.0,0.0,0.0,0.0,0.0,0.25,0.7373046120000001,4.81743909037984,-0.0012207029999995456,14928.0,0.0,0.0,0.0,0.0,0.25,0.444335892,4.848224397674558,-0.013427732999999442,239.0,0.0,0.0,0.0,0.0,0.125,3.2702633370000003,4.825398399658201,-0.009765623999999917,2371.0,0.0,0.0,0.0,0.0,0.25,1.4648436,4.842588710530596,0.0,0.9100000262260437,-0.6100000143051147,171.57000732421875,-0.02972412109375,0.03076171875,1.01287841796875,37.13999938964844,0.0,20.0,0.9720458984375,2.206939697265625,Closing,0.0,0.0,0.0,0.0,0.0,0.0,0.0,0.0,
0.8727990000000027,0.0,0.0,-15019.0,0.0,0.0,0.0,0.0,0.25,0.7226561760000001,4.81743909037984,-0.006103515000000392,14928.0,0.0,0.0,0.0,0.0,0.25,0.445556595,4.848224397674558,-0.0012207030000004337,239.0,0.0,0.0,0.0,0.0,0.125,3.2653805250000003,4.825398399658201,-0.014648435999999876,2371.0,0.0,0.0,0.0,0.0,0.25,1.4538572730000001,4.842588710530596,0.0,0.9100000262260437,-0.6100000143051147,171.55999755859375,-0.013427734375,0.01220703125,1.05157470703125,37.13999938964844,0.0,1.0,0.97210693359375,2.206939697265625,Closing,0.0,0.0,0.0,0.0,0.0,0.0,0.0,0.0,
0.8942390000000014,0.0,0.0,-15019.0,0.0,0.0,0.0,0.0,0.25,0.7397460180000001,4.81743909037984,-0.006103515000000392,14928.0,0.0,0.0,0.0,0.0,0.25,0.444335892,4.848224397674558,-0.0012207030000004337,239.0,0.0,0.0,0.0,0.0,0.125,3.2653805250000003,4.825398399658201,-0.014648435999999876,2371.0,0.125,0.0,0.0,0.0,0.25,1.439208837,4.842588710530596,-0.024414059999999793,0.8999999761581421,-0.6000000238418579,171.57000732421875,-0.009521484375,0.00421142578125,1.00799560546875,37.13999938964844,0.0,-2.0,0.97210693359375,2.206939697265625,Closing,0.0,0.0,0.0,0.0,0.0,0.0,0.0,0.0,
0.930568000000003,0.0,0.0,-15019.0,0.0,0.0,0.0,0.0,0.25,0.7238768790000001,4.81743909037984,0.0012207030000004337,14928.0,0.0,0.0,0.0,0.0,0.25,0.444335892,4.848224397674558,0.0,239.0,0.0,0.0,0.0,0.0,0.125,3.2653805250000003,4.825398399658201,-0.004882811999999959,2371.0,0.125,0.0,0.0,0.0,0.25,1.430663916,4.842588710530596,-0.024414059999999793,0.8799999952316284,-0.6200000047683716,171.58999633789062,-0.012451171875,0.00372314453125,1.0203857421875,37.13999938964844,0.0,0.0,0.97210693359375,2.206939697265625,Closing,0.0,0.0,0.0,0.0,0.0,0.0,0.0,0.0,
0.9524170000000013,0.0,0.0,-15019.0,0.0,0.0,0.0,0.0,0.25,0.7373046120000001,4.81743909037984,0.0012207030000004337,14928.0,0.0,0.0,0.0,0.0,0.25,0.445556595,4.848224397674558,0.0,239.0,0.0,0.0,0.0,0.0,0.125,3.2666012280000003,4.825398399658201,0.0,2371.0,0.125,0.0,0.0,0.0,0.25,1.429443213,4.842588710530596,-0.023193357000000248,0.8700000047683716,-0.6000000238418579,171.61000061035156,-2.44140625E-4,0.00848388671875,1.025634765625,37.13999938964844,0.0,-11.0,0.97210693359375,2.206939697265625,Closing,0.0,0.0,0.0,0.0,0.0,0.0,0.0,0.0,
0.9933080000000009,0.0,0.0,-15019.0,0.0,0.0,138.89763727784157,0.0,0.25,0.7360839090000001,4.817302158667795,0.0,14928.0,0.0,0.0,-138.89763727784157,0.0,0.25,0.444335892,4.848086590915678,0.0,239.0,0.125,0.0,138.89763727784157,0.0,0.125,3.2666012280000003,4.825261241709389,0.0,2371.0,0.25,0.0,-138.89763727784157,0.0,0.25,1.434326025,4.842451063961451,0.0,0.8899999856948853,-0.5699999928474426,171.60000610351562,0.0032958984375,0.0247802734375,1.00799560546875,37.13999938964844,0.0,-11.0,0.97210693359375,2.206939697265625,Closing,0.0,0.0,0.0,0.0,0.0,0.0,0.0,0.0,
1.0197309999999997,0.0,0.0,-15019.0,0.125,0.0,377.00788199901575,0.0,0.25,0.755615157,4.81716522695575,0.0,14928.0,0.0,0.0,-377.00788199901575,0.0,0.25,0.445556595,4.847948784156797,0.0,239.0,0.125,0.0,377.00788199901575,0.0,0.125,3.2653805250000003,4.825124083760577,-0.0012207029999995456,2371.0,0.25,0.0,-377.00788199901575,0.0,0.375,1.433105322,4.842313417392305,0.0,0.8999999761581421,-0.5600000023841858,171.58999633789062,0.0025634765625,0.020263671875,1.028076171875,37.13999938964844,0.0,-12.0,0.97210693359375,2.206939697265625,Closing,0.0,0.0,0.0,0.0,0.0,0.0,0.0,0.125,
1.0477410000000018,0.0,0.0,-15019.0,0.125,0.0,555.5905491113663,0.0,0.25,0.7360839090000001,4.8170280861876575,-0.0012207030000004337,14928.0,0.125,0.0,-555.5905491113663,0.0,0.25,0.44067378300000004,4.847810767005918,0.0,239.0,0.375,0.0,555.5905491113663,0.0,0.125,3.2629391190000003,4.824986716410317,0.0012207029999995456,2369.0,0.375,0.0,-555.5905491113663,0.0,0.375,1.433105322,4.842175560675725,0.0,0.8899999856948853,-0.5400000214576721,171.5800018310547,0.041015625,0.00164794921875,1.02301025390625,37.13999938964844,0.0,-52.0,0.9720611572265625,2.206939697265625,Closing,0.0,0.0,0.0,0.0,0.0,0.0,0.0,0.0,
1.0832040000000016,0.0,0.0,-15016.0,0.875,15.0,1150.86611866951,0.0,0.25,0.728759691,4.816891154475613,0.0012207030000004337,14928.0,1.125,0.0,-1150.86611866951,0.0,0.25,0.445556595,4.847672960247038,0.0,239.0,1.125,0.0,1150.86611866951,0.0,0.125,3.2653805250000003,4.824849558461505,0.0,2369.0,0.75,-15.0,-1150.86611866951,0.0,0.375,1.434326025,4.842037914106578,-0.0012207029999995456,0.8899999856948853,-0.5099999904632568,171.57000732421875,0.0472412109375,0.00323486328125,1.037353515625,37.13999938964844,0.0,-57.0,0.9719390869140625,2.206939697265625,Closing,0.0,0.0,0.0,0.0,0.0,0.0,0.0,0.0,
1.1131470000000008,0.0,0.0,-15016.0,2.875,30.0,1150.86611866951,0.0,0.25,0.7226561760000001,4.816617081995474,0.0,14928.0,3.625,-22.5,-1150.86611866951,0.0,0.25,0.445556595,4.847397136337278,0.0,239.0,3.125,7.5,1150.86611866951,0.0,0.125,3.251952792,4.824575033162433,0.0,2369.0,4.0,-60.0,-1150.86611866951,0.0,0.375,1.434326025,4.841762410820853,0.0,0.8700000047683716,-0.33000001311302185,171.5399932861328,0.30743408203125,-0.030029296875,0.9605712890625,37.13999938964844,0.0,-316.0,0.9711761474609375,2.206939697265625,Closing,0.0,0.0,0.0,0.0,0.0,0.0,0.0,0.0,
1.1357180000000007,0.0,0.0,-15016.0,7.125,75.0,1488.1890177726746,0.0,0.25,0.7104491460000001,4.816069146091247,-0.013427732999999442,14928.0,6.625,-45.0,-1488.1890177726746,0.0,0.25,0.445556595,4.846845698909757,0.0,239.0,5.25,22.5,1488.1890177726746,0.0,0.125,3.238525059,4.824026191965737,-0.014648435999999876,2369.0,6.625,-82.5,-1488.1890177726746,0.0,0.375,1.436767431,4.841211614396834,-0.0012207029999995456,0.8299999833106995,-0.009999999776482582,171.5,0.2261962890625,-0.0079345703125,1.02435302734375,37.13999938964844,0.0,-227.0,0.9692230224609375,2.206939697265625,Closing,0.0,0.0,0.0,0.0,0.0,0.0,0.0,0.0,
1.1673930000000001,0.0,0.0,-15016.0,9.625,105.0,1488.1890177726746,0.0,0.125,0.703124928,4.815795073611109,0.0,14903.0,13.75,-112.5,-1488.1890177726746,0.0,0.25,0.445556595,4.8465698749999975,0.0,259.0,10.75,82.5,1488.1890177726746,0.0,0.0,3.226318029,4.823751666666665,0.0,2344.0,9.25,-112.5,-1488.1890177726746,0.0,0.375,1.4526365700000001,4.840936111111109,0.0,0.7699999809265137,0.3100000023841858,171.42999267578125,0.30426025390625,-0.02581787109375,1.07763671875,37.13999938964844,0.0,-301.0,0.9658050537109375,2.2068634033203125,Closing,0.0,0.0,0.0,0.0,0.0,0.0,0.0,0.0,
1.187732,0.0,0.0,-14985.0,11.75,142.5,1488.1890177726748,0.0,0.125,0.709228443,4.81483592445865,-0.003662109000000413,14903.0,16.5,-157.5,-1488.1890177726748,0.0,0.25,0.445556595,4.845604596511839,0.0,259.0,13.125,127.5,1488.1890177726748,0.0,0.0,3.227538732,4.822790932820636,-0.009765623999999917,2344.0,12.0,-150.0,-1488.1890177726748,0.0,0.375,1.4770506300000001,4.839971954684785,0.024414059999999793,0.7099999785423279,0.5400000214576721,171.3800048828125,0.36614990234375,-0.01617431640625,0.94342041015625,37.13999938964844,0.0,-357.0,0.9634246826171875,2.206787109375,Closing,0.0,0.0,0.0,0.0,0.0,0.0,0.0,0.0,
1.2066210000000028,0.0,0.0,-14985.0,13.625,195.0,1011.9684720039367,0.0,0.125,0.70800774,4.814151056842378,0.0,14903.0,18.0,-217.5,-1011.9684720039367,0.0,0.25,0.445556595,4.844915352325438,0.0,259.0,14.75,180.0,1011.9684720039367,0.0,0.0,3.227538732,4.822104933675128,0.0,2344.0,13.375,-195.0,-1011.9684720039367,0.0,0.25,1.512451017,4.839283511691621,0.0,0.6899999976158142,0.9900000095367432,171.27999877929688,0.279052734375,0.00628662109375,0.9615478515625,37.13999938964844,0.0,-260.0,0.9572296142578125,2.2063751220703125,Closing,0.0,0.0,0.0,0.0,0.0,0.0,0.0,0.0,
1.2289940000000024,0.0,0.0,-14985.0,12.25,262.5,674.6456480026245,0.0,0.125,0.70800774,4.812780903497736,-0.0012207030000004337,14903.0,16.25,-285.0,-674.6456480026245,0.0,0.25,0.445556595,4.843536443168638,0.0,259.0,13.375,232.5,674.6456480026245,0.0,0.0,3.227538732,4.820732516581216,0.0012207029999995456,2344.0,12.25,-247.5,-674.6456480026245,0.0,0.25,1.516113126,4.837906205410425,0.03417968399999971,0.6899999976158142,1.100000023841858,171.22000122070312,0.16961669921875,-0.00421142578125,1.025634765625,37.13999938964844,0.0,-150.0,0.953643798828125,2.2061004638671875,Closing,0.0,0.0,0.0,0.0,0.0,0.0,0.0,0.0,
1.2506270000000004,0.0,0.0,-14985.0,9.875,337.5,218.26772511005402,0.0,0.125,0.705566334,4.811958895113371,0.0012207030000004337,14903.0,12.375,-352.5,-218.26772511005402,0.0,0.25,0.44067378300000004,4.842709181831357,-0.004882811999999959,259.0,10.0,292.5,218.26772511005402,0.0,0.0,3.226318029,4.819909150085447,-0.0012207029999995456,2344.0,9.375,-315.0,-218.26772511005402,0.0,0.25,1.5246580470000002,4.837079905700681,0.0,0.7200000286102295,1.1799999475479126,171.16000366210938,0.1993408203125,0.0633544921875,1.08026123046875,37.13999938964844,0.0,-167.0,0.9498291015625,2.2057647705078125,Closing,0.0,0.0,0.0,0.0,0.0,0.0,0.0,0.0,
1.274469000000001,0.0,0.0,-14985.0,6.25,412.5,0.0,0.0,0.125,0.70800774,4.811958895113371,0.0,14903.0,7.125,-420.0,0.0,0.0,0.25,0.43457026800000004,4.842709181831357,0.0,259.0,5.625,352.5,0.0,0.0,0.0,3.227538732,4.819909150085447,0.0,2274.0,5.5,-367.5,0.0,0.0,0.25,1.5258787500000002,4.837079905700681,0.0,0.7099999785423279,1.2999999523162842,171.11000061035156,0.05999755859375,0.01971435546875,0.996337890625,37.13999938964844,0.0,-35.0,0.9458770751953125,2.2053680419921875,Closing,0.0,0.0,0.0,0.0,0.0,0.0,0.0,0.0,
1.294892,0.0,0.0,-14985.0,3.125,465.0,0.0,0.0,0.125,0.70800774,4.811958895113371,0.0,14827.0,3.25,-457.5,0.0,0.0,0.25,0.424804644,4.842709181831357,0.0,330.0,2.125,412.5,0.0,0.0,0.0,3.227538732,4.819909150085447,0.0,2274.0,2.5,-420.0,0.0,0.0,0.25,1.5307615620000001,4.837079905700681,0.0,0.699999988079071,1.2699999809265137,171.0399932861328,0.00830078125,-0.02490234375,1.0452880859375,37.15999984741211,0.0,8.0,0.9378204345703125,2.20465087890625,Closing,0.0,0.0,0.0,0.0,0.0,0.0,0.0,0.0,
1.3157000000000008,0.0,0.0,-14906.0,1.0,487.5,0.0,0.0,0.125,0.70800774,4.811958895113371,0.0,14827.0,0.875,-465.0,0.0,0.0,0.25,0.417480426,4.842709181831357,-0.009765623999999917,330.0,0.5,457.5,0.0,0.0,0.0,3.232421544,4.819909150085447,0.0,2274.0,0.875,-450.0,0.0,0.0,0.25,1.5307615620000001,4.837079905700681,0.009765623999999917,0.6899999976158142,1.190000057220459,171.02000427246094,-0.04742431640625,0.04254150390625,1.15020751953125,37.15999984741211,0.0,75.0,0.933837890625,2.2043304443359375,Closing,0.0,0.0,0.0,0.0,0.0,0.0,0.0,0.0,
1.3349000000000015,0.0,0.0,-14906.0,0.125,480.0,0.0,0.0,0.125,0.70800774,4.811958895113371,0.0,14827.0,0.0,-435.0,0.0,0.0,0.25,0.416259723,4.842709181831357,-0.009765623999999917,330.0,0.125,487.5,0.0,0.0,0.0,3.232421544,4.819909150085447,0.0,2274.0,0.125,-442.5,0.0,0.0,0.25,1.5307615620000001,4.837079905700681,0.009765623999999917,0.7099999785423279,1.1799999475479126,171.0,-0.030029296875,-0.02471923828125,1.02716064453125,37.15999984741211,0.0,44.0,0.929931640625,2.2040252685546875,Closing,0.0,0.0,0.0,0.0,0.0,0.0,0.0,0.0,
1.3534430000000028,0.0,0.0,-14906.0,0.0,450.0,0.0,0.0,0.125,0.7116698490000001,4.811958895113371,0.0,14827.0,0.0,-435.0,0.0,0.0,0.25,0.411376911,4.842709181831357,-0.014648435999999876,330.0,0.0,495.0,0.0,0.0,0.0,3.232421544,4.819909150085447,0.006103514999999504,2274.0,0.125,-405.0,0.0,0.0,0.25,1.520995938,4.837079905700681,0.004882811999999959,0.7099999785423279,1.0700000524520874,170.9600067138672,-0.366455078125,0.0318603515625,1.05206298828125,37.15999984741211,0.0,384.0,0.9225616455078125,2.203521728515625,Closing,0.0,0.0,0.0,0.0,0.0,0.0,0.0,0.0,
1.375523000000001,0.0,0.0,-14906.0,0.0,405.0,0.0,0.0,0.125,0.727538988,4.811958895113371,0.0,14827.0,0.0,-345.0,0.0,0.0,0.25,0.396728475,4.842709181831357,-0.014648435999999876,330.0,0.0,480.0,0.0,0.0,0.0,3.251952792,4.819909150085447,0.006103514999999504,2274.0,0.125,-367.5,0.0,0.0,0.25,1.5295408590000001,4.837079905700681,0.004882811999999959,0.6899999976158142,0.8199999928474426,170.89999389648438,-0.1341552734375,-0.13189697265625,1.00531005859375,37.15999984741211,0.0,123.0,0.91937255859375,2.20343017578125,Closing,0.0,0.0,0.0,0.0,0.0,0.0,0.0,0.0,
1.3948340000000026,0.0,0.0,-14906.0,0.0,360.0,0.0,0.0,0.125,0.727538988,4.811958895113371,0.0,14827.0,0.0,-345.0,0.0,0.0,0.25,0.396728475,4.842709181831357,-0.014648435999999876,330.0,0.0,442.5,0.0,0.0,0.0,3.2604977130000004,4.819909150085447,0.006103514999999504,2213.0,0.125,-352.5,0.0,0.0,0.25,1.5295408590000001,4.837079905700681,0.004882811999999959,0.6700000166893005,0.7099999785423279,170.85000610351562,-0.3525390625,-0.0194091796875,1.19195556640625,37.15999984741211,0.0,357.0,0.91650390625,2.203521728515625,Closing,0.0,0.0,0.0,0.0,0.0,0.0,0.0,0.0,
1.4157540000000008,0.0,0.0,-14840.0,0.0,352.5,0.0,0.0,0.125,0.7263182850000001,4.811958895113371,0.019531247999999835,14760.0,0.0,-405.0,0.0,0.0,0.25,0.40161128700000004,4.842709181831357,-0.01831054500000029,392.0,0.0,397.5,0.0,0.0,0.125,3.2568356040000004,4.819909150085447,0.01831054500000029,2213.0,0.125,-367.5,0.0,0.0,0.25,1.5307615620000001,4.837079905700681,-0.0024414059999999793,0.75,0.5899999737739563,170.8800048828125,-0.0919189453125,-0.0029296875,1.08612060546875,37.15999984741211,0.0,99.0,0.9094696044921875,2.20391845703125,Closing,0.0,0.0,0.0,0.0,0.0,0.0,0.0,0.0,
1.435380000000001,0.0,0.0,-14840.0,0.0,382.5,0.0,0.0,0.125,0.7263182850000001,4.811958895113371,0.019531247999999835,14760.0,0.0,-457.5,0.0,0.0,0.125,0.40283199000000003,4.842709181831357,-0.01831054500000029,392.0,0.0,360.0,0.0,0.0,0.125,3.2617184160000003,4.819909150085447,0.01831054500000029,2213.0,0.125,-390.0,0.0,0.0,0.25,1.5307615620000001,4.837079905700681,-0.0024414059999999793,0.7400000095367432,0.44999998807907104,170.88999938964844,-0.0977783203125,0.06048583984375,1.21905517578125,37.15999984741211,0.0,113.0,0.9074249267578125,2.2041473388671875,Closing,0.0,0.0,0.0,0.0,0.0,0.0,0.0,0.0,
1.4546020000000026,0.0,0.0,-14840.0,0.0,435.0,0.0,0.0,0.25,0.721435473,4.811958895113371,0.019531247999999835,14760.0,0.0,-457.5,0.0,0.0,0.125,0.40161128700000004,4.842709181831357,0.004882811999999959,392.0,0.0,345.0,0.0,0.0,0.125,3.2617184160000003,4.819909150085447,0.009765623999999917,2213.0,0.125,-427.5,0.0,0.0,0.25,1.534423671,4.837079905700681,0.0024414059999999793,0.7599999904632568,0.4399999976158142,170.88999938964844,-0.0504150390625,-0.01788330078125,1.153076171875,37.15999984741211,0.0,53.0,0.905487060546875,2.2043914794921875,Closing,0.0,0.0,0.0,0.0,0.0,0.0,0.0,0.0,
1.4772160000000003,0.0,0.0,-14840.0,0.0,487.5,0.0,0.0,0.25,0.7226561760000001,4.811958895113371,-0.0012207030000004337,14760.0,0.0,-450.0,0.0,0.0,0.125,0.40161128700000004,4.842709181831357,0.004882811999999959,392.0,0.0,352.5,0.0,0.0,0.125,3.2604977130000004,4.819909150085447,0.009765623999999917,2213.0,0.0,-442.5,0.0,0.0,0.25,1.535644374,4.837079905700681,0.0024414059999999793,0.7699999809265137,0.36000001430511475,170.83999633789062,-0.0330810546875,-0.031982421875,0.87469482421875,37.15999984741211,0.0,31.0,0.902099609375,2.2050018310546875,Closing,0.0,0.0,0.0,0.0,0.0,0.0,0.0,0.0,
1.4956680000000016,0.0,0.0,-14840.0,0.0,510.0,0.0,0.0,0.25,0.7226561760000001,4.811958895113371,-0.0012207030000004337,14760.0,0.0,-450.0,0.0,0.0,0.125,0.396728475,4.842709181831357,0.004882811999999959,392.0,0.0,367.5,0.0,0.0,0.125,3.2617184160000003,4.819909150085447,0.009765623999999917,2213.0,0.0,-435.0,0.0,0.0,0.25,1.535644374,4.837079905700681,0.004882811999999959,0.7699999809265137,0.36000001430511475,170.83999633789062,-0.0330810546875,-0.031982421875,0.87469482421875,37.15999984741211,0.0,31.0,0.902099609375,2.2050018310546875,Closing,0.0,0.0,0.0,0.0,0.0,0.0,0.0,0.0,
1.5223729999999995,0.0,0.0,-14840.0,0.0,487.5,0.0,0.0,0.25,0.7226561760000001,4.811958895113371,-0.003662108999999525,14705.0,0.0,-352.5,0.0,0.0,0.125,0.40161128700000004,4.842709181831357,0.0,451.0,0.0,375.0,0.0,0.0,0.125,3.2604977130000004,4.819909150085447,0.0,2152.0,0.0,-405.0,0.0,0.0,0.25,1.535644374,4.837079905700681,0.004882811999999959,0.7799999713897705,0.20000000298023224,170.77000427246094,-0.1025390625,0.0955810546875,1.1431884765625,37.15999984741211,0.0,118.0,0.899139404296875,2.2056884765625,Closing,0.0,0.0,0.0,0.0,0.0,0.0,0.0,0.0,
1.5415040000000009,0.0,0.0,-14784.0,0.0,420.0,0.0,0.0,0.25,0.7226561760000001,4.811958895113371,-0.003662108999999525,14705.0,0.0,-337.5,0.0,0.0,0.125,0.396728475,4.842709181831357,0.0,451.0,0.0,367.5,0.0,0.0,0.125,3.2604977130000004,4.819909150085447,0.0,2152.0,0.125,-382.5,0.0,0.0,0.25,1.535644374,4.837079905700681,0.004882811999999959,0.7900000214576721,0.1599999964237213,170.75999450683594,-0.08087158203125,-0.01983642578125,1.015869140625,37.15999984741211,0.0,77.0,0.8978729248046875,2.2060089111328125,Closing,0.0,0.0,0.0,0.0,0.0,0.0,0.0,0.125,
1.5586460000000006,0.0,0.0,-14784.0,0.0,345.0,0.0,0.0,0.25,0.721435473,4.811958895113371,0.0,14705.0,0.0,-330.0,0.0,0.0,0.125,0.39550777200000004,4.842709181831357,-0.004882811999999959,451.0,0.0,352.5,0.0,0.0,0.125,3.2617184160000003,4.819909150085447,0.0,2152.0,0.125,-367.5,0.0,0.0,0.25,1.535644374,4.837079905700681,0.0,0.800000011920929,0.10999999940395355,170.77000427246094,-0.0936279296875,0.0198974609375,0.965087890625,37.15999984741211,0.0,95.0,0.896728515625,2.2063751220703125,Closing,0.0,0.0,0.0,0.0,0.0,0.0,0.0,0.125,
1.5848290000000016,0.0,0.0,-14784.0,0.0,300.0,0.0,0.0,0.25,0.721435473,4.811958895113371,0.0,14705.0,0.0,-337.5,0.0,0.0,0.125,0.40161128700000004,4.842709181831357,-0.004882811999999959,451.0,0.0,337.5,0.0,0.0,0.125,3.2617184160000003,4.819909150085447,0.0,2152.0,0.125,-352.5,0.0,0.0,0.25,1.534423671,4.837079905700681,0.0,0.8100000023841858,-0.019999999552965164,170.82000732421875,-0.04547119140625,-0.0013427734375,1.0372314453125,37.15999984741211,0.0,41.0,0.8948822021484375,2.2070465087890625,Closing,0.0,0.0,0.0,0.0,0.0,0.0,0.0,0.0,
1.6043120000000017,0.0,0.0,-14784.0,0.0,285.0,0.0,0.0,0.25,0.7226561760000001,4.811958895113371,0.0,14705.0,0.0,-330.0,0.0,0.0,0.125,0.39550777200000004,4.842709181831357,0.004882811999999959,451.0,0.0,330.0,0.0,0.0,0.125,3.2617184160000003,4.819909150085447,0.0,2152.0,0.125,-337.5,0.0,0.0,0.25,1.535644374,4.837079905700681,0.0,0.8100000023841858,-0.05000000074505806,170.8300018310547,-0.05584716796875,0.0633544921875,1.0880126953125,37.15999984741211,0.0,61.0,0.89410400390625,2.2073822021484375,Closing,0.0,0.0,0.0,0.0,0.0,0.0,0.0,0.0,
1.6266700000000018,0.0,0.0,-14784.0,0.0,285.0,0.0,0.0,0.25,0.7226561760000001,4.811958895113371,0.0,14705.0,0.0,-330.0,0.0,0.0,0.125,0.40161128700000004,4.842709181831357,0.004882811999999959,451.0,0.0,315.0,0.0,0.0,0.125,3.2617184160000003,4.819909150085447,0.0,2152.0,0.125,-315.0,0.0,0.0,0.25,1.534423671,4.837079905700681,0.0,0.7900000214576721,-0.10999999940395355,170.83999633789062,-0.08233642578125,-4.8828125E-4,0.9810791015625,37.15999984741211,0.0,61.0,0.892822265625,2.208038330078125,Closing,0.0,0.0,0.0,0.0,0.0,0.0,0.0,0.0,
1.6465270000000019,0.0,0.0,-14784.0,0.0,292.5,0.0,0.0,0.25,0.721435473,4.811958895113371,0.0,14662.0,0.0,-307.5,0.0,0.0,0.125,0.396728475,4.842709181831357,0.004882811999999959,497.0,0.0,315.0,0.0,0.0,0.125,3.2604977130000004,4.819909150085447,0.0,2105.0,0.125,-300.0,0.0,0.0,0.25,1.534423671,4.837079905700681,0.0,0.800000011920929,-0.2199999988079071,170.83999633789062,-0.1075439453125,0.06939697265625,0.98846435546875,37.15999984741211,0.0,111.0,0.8923492431640625,2.2083587646484375,Closing,0.0,0.0,0.0,0.0,0.0,0.0,0.0,0.0,
1.6679550000000019,0.0,0.0,-14737.0,0.0,292.5,0.0,0.0,0.25,0.721435473,4.811958895113371,0.0,14662.0,0.0,-285.0,0.0,0.0,0.125,0.396728475,4.842709181831357,-0.006103514999999504,497.0,0.0,300.0,0.0,0.0,0.125,3.2617184160000003,4.819909150085447,0.0,2105.0,0.125,-285.0,0.0,0.0,0.25,1.534423671,4.837079905700681,0.0,0.8199999928474426,-0.3499999940395355,170.82000732421875,-0.08111572265625,0.027587890625,1.0628662109375,37.15999984741211,0.0,75.0,0.891754150390625,2.2089691162109375,Closing,0.0,0.0,0.0,0.0,0.0,0.0,0.0,0.0,
1.6961640000000007,0.0,0.0,-14737.0,0.0,277.5,0.0,0.0,0.25,0.7226561760000001,4.811958895113371,0.0,14662.0,0.0,-255.0,0.0,0.0,0.125,0.396728475,4.842709181831357,-0.006103514999999504,497.0,0.0,255.0,0.0,0.0,0.125,3.2617184160000003,4.819909150085447,0.0,2105.0,0.125,-262.5,0.0,0.0,0.25,1.534423671,4.837079905700681,0.0,0.8199999928474426,-0.4399999976158142,170.80999755859375,-0.10174560546875,0.0357666015625,0.99603271484375,37.15999984741211,0.0,96.0,0.8915557861328125,2.2089691162109375,Closing,0.0,0.0,0.0,0.0,0.0,0.0,0.0,0.0,
1.7176690000000017,0.0,0.0,-14737.0,0.0,255.0,0.0,0.0,0.25,0.7226561760000001,4.811958895113371,0.0,14662.0,0.0,-240.0,0.0,0.0,0.125,0.396728475,4.842709181831357,0.0012207029999995456,497.0,0.0,232.5,0.0,0.0,0.125,3.2604977130000004,4.819909150085447,0.0,2105.0,0.125,-240.0,0.0,0.0,0.25,1.535644374,4.837079905700681,0.0,0.8399999737739563,-0.5,170.8000030517578,-0.0706787109375,0.0225830078125,1.021240234375,37.15999984741211,0.0,62.0,0.8916168212890625,2.2089691162109375,Closing,0.0,0.0,0.0,0.0,0.0,0.0,0.0,0.125,
1.7365650000000024,0.0,0.0,-14737.0,0.0,225.0,0.0,0.0,0.25,0.7226561760000001,4.811958895113371,0.0,14662.0,0.0,-217.5,0.0,0.0,0.125,0.396728475,4.842709181831357,0.0012207029999995456,497.0,0.0,217.5,0.0,0.0,0.125,3.2604977130000004,4.819909150085447,0.0,2105.0,0.125,-225.0,0.0,0.0,0.25,1.534423671,4.837079905700681,0.0,0.8399999737739563,-0.6000000238418579,170.7899932861328,-0.07977294921875,0.0386962890625,1.0025634765625,37.15999984741211,0.0,72.0,0.892059326171875,2.2089996337890625,Closing,0.0,0.0,0.0,0.0,0.0,0.0,0.0,0.0,
1.7544850000000005,0.0,0.0,-14737.0,0.0,210.0,0.0,0.0,0.25,0.721435473,4.811958895113371,0.0,14662.0,0.0,-195.0,0.0,0.0,0.125,0.396728475,4.842709181831357,0.0,527.0,0.0,210.0,0.0,0.0,0.125,3.2604977130000004,4.819909150085447,0.0,2075.0,0.125,-210.0,0.0,0.0,0.25,1.535644374,4.837079905700681,0.0,0.8500000238418579,-0.6600000262260437,170.7899932861328,-0.0687255859375,0.02154541015625,1.0162353515625,37.15999984741211,0.0,57.0,0.892425537109375,2.2090301513671875,Closing,0.0,0.0,0.0,0.0,0.0,0.0,0.0,0.0,
1.779375,0.0,0.0,-14710.0,0.0,195.0,0.0,0.0,0.25,0.7226561760000001,4.811958895113371,0.0,14633.0,0.0,-180.0,0.0,0.0,0.125,0.396728475,4.842709181831357,0.0,527.0,0.0,195.0,0.0,0.0,0.125,3.2604977130000004,4.819909150085447,0.0,2075.0,0.125,-187.5,0.0,0.0,0.25,1.534423671,4.837079905700681,0.0,0.8600000143051147,-0.7099999785423279,170.7899932861328,-0.1005859375,0.03204345703125,1.031982421875,37.15999984741211,0.0,89.0,0.89288330078125,2.2090301513671875,Closing,0.0,0.0,0.0,0.0,0.0,0.0,0.0,0.0,
1.7954989999999997,0.0,0.0,-14710.0,0.0,180.0,0.0,0.0,0.25,0.7226561760000001,4.811958895113371,0.0,14633.0,0.0,-165.0,0.0,0.0,0.125,0.396728475,4.842709181831357,0.0,527.0,0.0,172.5,0.0,0.0,0.125,3.2617184160000003,4.819909150085447,0.0,2075.0,0.125,-172.5,0.0,0.0,0.25,1.534423671,4.837079905700681,0.0,0.8500000238418579,-0.8100000023841858,170.7899932861328,-0.078369140625,0.01904296875,0.9901123046875,37.09000015258789,0.0,64.0,0.894134521484375,2.209075927734375,Closing,0.0,0.0,0.0,0.0,0.0,0.0,0.0,0.0,
1.816706000000002,0.0,0.0,-14710.0,0.0,157.5,0.0,0.0,0.25,0.7226561760000001,4.811958895113371,0.0,14633.0,0.0,-142.5,0.0,0.0,0.125,0.39550777200000004,4.842709181831357,0.0,527.0,0.0,150.0,0.0,0.0,0.125,3.2604977130000004,4.819909150085447,0.0,2075.0,0.125,-157.5,0.0,0.0,0.25,1.534423671,4.837079905700681,0.0,0.8600000143051147,-0.8600000143051147,170.8000030517578,-0.102783203125,0.01580810546875,1.05157470703125,37.09000015258789,0.0,85.0,0.8949127197265625,2.2091217041015625,Closing,0.0,0.0,0.0,0.0,0.0,0.0,0.0,0.0,
1.8354130000000004,0.0,0.0,-14710.0,0.0,142.5,0.0,0.0,0.25,0.7226561760000001,4.811958895113371,0.0,14633.0,0.0,-127.5,0.0,0.0,0.125,0.396728475,4.842709181831357,0.0,527.0,0.0,127.5,0.0,0.0,0.125,3.2604977130000004,4.819909150085447,0.0,2075.0,0.125,-135.0,0.0,0.0,0.25,1.534423671,4.837079905700681,0.0,0.8600000143051147,-0.9200000166893005,170.80999755859375,-0.07940673828125,0.02606201171875,1.0567626953125,37.09000015258789,0.0,63.0,0.8957977294921875,2.2091217041015625,Closing,0.0,0.0,0.0,0.0,0.0,0.0,0.0,0.0,
1.853831000000002,0.0,0.0,-14710.0,0.0,120.0,0.0,0.0,0.25,0.7226561760000001,4.811958895113371,0.0,14633.0,0.0,-127.5,0.0,0.0,0.125,0.396728475,4.842709181831357,0.0,527.0,0.0,105.0,0.0,0.0,0.125,3.2617184160000003,4.819909150085447,0.0,2075.0,0.0,-120.0,0.0,0.0,0.25,1.534423671,4.837079905700681,0.0,0.8799999952316284,-0.9700000286102295,170.82000732421875,-0.089111328125,0.02301025390625,0.97821044921875,37.09000015258789,0.0,72.0,0.897796630859375,2.2091217041015625,Closing,0.0,0.0,0.0,0.0,0.0,0.0,0.0,0.0,
1.8747400000000016,0.0,0.0,-14710.0,0.0,97.5,0.0,0.0,0.25,0.7226561760000001,4.811958895113371,0.0,14633.0,0.0,-112.5,0.0,0.0,0.125,0.396728475,4.842709181831357,0.0,527.0,0.0,90.0,0.0,0.0,0.125,3.2604977130000004,4.819909150085447,0.0,2064.0,0.0,-97.5,0.0,0.0,0.25,1.534423671,4.837079905700681,0.0,0.8899999856948853,-1.0199999809265137,170.82000732421875,-0.0809326171875,0.0242919921875,1.049072265625,37.09000015258789,0.0,62.0,0.8989410400390625,2.2091217041015625,Closing,0.0,0.0,0.0,0.0,0.0,0.0,0.0,0.0,
1.8946000000000023,0.0,0.0,-14710.0,0.0,82.5,0.0,0.0,0.25,0.7226561760000001,4.811958895113371,0.0,14622.0,0.0,-90.0,0.0,0.0,0.125,0.396728475,4.842709181831357,0.0,538.0,0.0,90.0,0.0,0.0,0.125,3.2604977130000004,4.819909150085447,0.0,2064.0,0.0,-75.0,0.0,0.0,0.25,1.535644374,4.837079905700681,0.0,0.8899999856948853,-1.0700000524520874,170.80999755859375,-0.09869384765625,0.0196533203125,1.049560546875,37.09000015258789,0.0,78.0,0.900177001953125,2.2091217041015625,Closing,0.0,0.0,0.0,0.0,0.0,0.0,0.0,0.0,
1.9163460000000014,0.0,0.0,-14700.0,0.0,60.0,0.0,0.0,0.25,0.721435473,4.811958895113371,0.0,14622.0,0.0,-67.5,0.0,0.0,0.125,0.396728475,4.842709181831357,0.0,538.0,0.0,52.5,0.0,0.0,0.125,3.2617184160000003,4.819909150085447,0.0,2064.0,0.0,-52.5,0.0,0.0,0.25,1.534423671,4.837079905700681,0.0,0.8899999856948853,-1.149999976158142,170.8000030517578,-0.07861328125,0.0186767578125,0.98626708984375,37.09000015258789,0.0,58.0,0.902923583984375,2.2091217041015625,Closing,0.0,0.0,0.0,0.0,0.0,0.0,0.0,0.125,
1.934783000000003,0.0,0.0,-14700.0,0.0,45.0,0.0,0.0,0.25,0.721435473,4.811958895113371,0.0,14622.0,0.0,-45.0,0.0,0.0,0.125,0.396728475,4.842709181831357,0.0,538.0,0.0,52.5,0.0,0.0,0.125,3.2604977130000004,4.819909150085447,0.0,2064.0,0.0,-30.0,0.0,0.0,0.25,1.535644374,4.837079905700681,0.0,0.8899999856948853,-1.190000057220459,170.8000030517578,-0.06658935546875,0.0113525390625,1.0145263671875,37.09000015258789,0.0,44.0,0.9044189453125,2.2091217041015625,Closing,0.0,0.0,0.0,0.0,0.0,0.0,0.0,0.0,
1.952535,0.0,0.0,-14700.0,0.0,45.0,0.0,0.0,0.25,0.721435473,4.811958895113371,0.0,14622.0,0.0,-30.0,0.0,0.0,0.125,0.396728475,4.842709181831357,0.0,538.0,0.0,30.0,0.0,0.0,0.125,3.2617184160000003,4.819909150085447,0.0,2064.0,0.0,-30.0,0.0,0.0,0.25,1.534423671,4.837079905700681,0.0,0.8899999856948853,-1.2100000381469727,170.8000030517578,-0.0377197265625,0.01904296875,1.03936767578125,37.09000015258789,0.0,15.0,0.9059600830078125,2.2091217041015625,Closing,0.0,0.0,0.0,0.0,0.0,0.0,0.0,0.0,
1.9747720000000009,0.0,0.0,-14700.0,0.0,22.5,0.0,0.0,0.25,0.721435473,4.811958895113371,0.0,14622.0,0.0,-15.0,0.0,0.0,0.125,0.39550777200000004,4.842709181831357,0.0,538.0,0.0,15.0,0.0,0.0,0.125,3.2617184160000003,4.819909150085447,0.0,2064.0,0.125,0.0,0.0,0.0,0.25,1.535644374,4.837079905700681,0.0,0.8899999856948853,-1.2100000381469727,170.80999755859375,-0.01983642578125,0.01544189453125,1.00640869140625,37.09000015258789,0.0,-1.0,0.9059600830078125,2.2091217041015625,Closing,0.0,0.0,0.0,0.0,0.0,0.0,0.0,0.0,
1.992992000000002,0.0,0.0,-14700.0,0.0,15.0,0.0,0.0,0.25,0.721435473,4.811958895113371,0.0,14622.0,0.0,-7.5,0.0,0.0,0.125,0.39550777200000004,4.842709181831357,0.0,538.0,0.0,7.5,0.0,0.0,0.125,3.2604977130000004,4.819909150085447,0.0,2064.0,0.125,0.0,0.0,0.0,0.25,1.535644374,4.837079905700681,0.0,0.8899999856948853,-1.2200000286102295,170.80999755859375,-0.01531982421875,0.02203369140625,1.0257568359375,37.09000015258789,0.0,-5.0,0.9059600830078125,2.2091217041015625,Closing,0.0,0.0,0.0,0.0,0.0,0.0,0.0,0.0,
2.0124590000000024,0.0,0.0,-14700.0,0.0,0.0,0.0,0.0,0.25,0.7226561760000001,4.811958895113371,0.0,14622.0,0.0,0.0,0.0,0.0,0.125,0.397949178,4.842709181831357,-0.0012207029999995456,538.0,0.0,0.0,0.0,0.0,0.125,3.2604977130000004,4.819909150085447,0.0,2064.0,0.125,0.0,0.0,0.0,0.25,1.535644374,4.837079905700681,0.0,0.8999999761581421,-1.2100000381469727,170.80999755859375,-0.008056640625,0.0216064453125,1.03070068359375,37.09000015258789,0.0,-12.0,0.9059600830078125,2.2091217041015625,Closing,0.0,0.0,0.0,0.0,0.0,0.0,0.0,0.0,
2.032136000000002,0.0,0.0,-14700.0,0.0,0.0,0.0,0.0,0.25,0.7226561760000001,4.811958895113371,0.0,14622.0,0.0,0.0,0.0,0.0,0.125,0.39550777200000004,4.842709181831357,-0.0012207029999995456,538.0,0.0,0.0,0.0,0.0,0.125,3.2604977130000004,4.819909150085447,0.0,2064.0,0.125,0.0,0.0,0.0,0.25,1.535644374,4.837079905700681,0.0,0.8999999761581421,-1.190000057220459,170.8000030517578,3.0517578125E-4,0.01629638671875,1.01727294921875,37.09000015258789,0.0,-30.0,0.9058685302734375,2.2091217041015625,Closing,0.0,0.0,0.0,0.0,0.0,0.0,0.0,0.0,
2.053033000000003,0.0,0.0,-14700.0,0.0,0.0,0.0,0.0,0.25,0.7226561760000001,4.811958895113371,0.0,14622.0,0.0,0.0,0.0,0.0,0.125,0.391845663,4.842709181831357,-0.0012207029999995456,538.0,0.0,0.0,0.0,0.0,0.125,3.2604977130000004,4.819909150085447,0.0,2064.0,0.125,0.0,0.0,0.0,0.25,1.535644374,4.837079905700681,0.0,0.8999999761581421,-1.1699999570846558,170.8000030517578,0.001953125,0.0111083984375,1.02105712890625,37.09000015258789,0.0,-23.0,0.9057769775390625,2.2091217041015625,Closing,0.0,0.0,0.0,0.0,0.0,0.0,0.0,0.125,
2.0750210000000004,0.0,0.0,-14700.0,0.0,0.0,0.0,0.0,0.25,0.7226561760000001,4.811958895113371,0.0,14622.0,0.0,0.0,0.0,0.0,0.0,0.391845663,4.842709181831357,-0.003662109000000413,538.0,0.0,0.0,0.0,0.0,0.125,3.2604977130000004,4.819909150085447,0.0,2064.0,0.125,0.0,0.0,0.0,0.25,1.535644374,4.837079905700681,0.0,0.8899999856948853,-1.149999976158142,170.8000030517578,0.009033203125,0.00640869140625,1.0162353515625,37.09000015258789,0.0,-30.0,0.9056396484375,2.2091217041015625,Closing,0.0,0.0,0.0,0.0,0.0,0.0,0.0,0.0,
2.0930210000000007,0.0,0.0,-14700.0,0.0,0.0,0.0,0.0,0.25,0.721435473,4.811958895113371,0.0,14622.0,0.0,0.0,0.0,0.0,0.0,0.391845663,4.842709181831357,-0.003662109000000413,538.0,0.0,0.0,0.0,0.0,0.125,3.2604977130000004,4.819909150085447,0.0,2064.0,0.125,0.0,0.0,0.0,0.25,1.535644374,4.837079905700681,0.0,0.8899999856948853,-1.1200000047683716,170.8000030517578,0.00396728515625,0.009521484375,1.0262451171875,37.09000015258789,0.0,-24.0,0.9052581787109375,2.2091217041015625,Closing,0.0,0.0,0.0,0.0,0.0,0.0,0.0,0.0,
2.1143990000000015,0.0,0.0,-14700.0,0.0,0.0,0.0,0.0,0.25,0.7226561760000001,4.811958895113371,0.0,14622.0,0.0,0.0,0.0,0.0,0.0,0.391845663,4.842709181831357,0.0,538.0,0.0,0.0,0.0,0.0,0.125,3.2617184160000003,4.819909150085447,0.0,2064.0,0.125,0.0,0.0,0.0,0.25,1.534423671,4.837079905700681,0.0,0.8799999952316284,-1.100000023841858,170.8000030517578,0.0078125,0.01055908203125,1.0179443359375,37.09000015258789,0.0,-27.0,0.9050140380859375,2.2091217041015625,Closing,0.0,0.0,0.0,0.0,0.0,0.0,0.0,0.0,
2.1332750000000016,0.0,0.0,-14700.0,0.0,0.0,0.0,0.0,0.25,0.721435473,4.811958895113371,0.0,14622.0,0.0,0.0,0.0,0.0,0.0,0.391845663,4.842709181831357,0.0,538.0,0.0,0.0,0.0,0.0,0.125,3.2617184160000003,4.819909150085447,0.0,2064.0,0.125,0.0,0.0,0.0,0.25,1.534423671,4.837079905700681,0.0,0.8799999952316284,-1.0800000429153442,170.8000030517578,0.0062255859375,0.01611328125,1.0130615234375,37.09000015258789,0.0,-24.0,0.9047393798828125,2.2091217041015625,Closing,0.0,0.0,0.0,0.0,0.0,0.0,0.0,0.0,
2.152487000000001,0.0,0.0,-14700.0,0.0,0.0,0.0,0.0,0.25,0.7226561760000001,4.811958895113371,0.0,14622.0,0.0,0.0,0.0,0.0,0.0,0.393066366,4.842709181831357,0.0,538.0,0.0,0.0,0.0,0.0,0.125,3.2617184160000003,4.819909150085447,0.0,2064.0,0.125,0.0,0.0,0.0,0.25,1.534423671,4.837079905700681,0.0,0.8700000047683716,-1.059999942779541,170.8000030517578,0.0076904296875,0.0179443359375,1.01385498046875,37.09000015258789,0.0,-25.0,0.9044189453125,2.2091217041015625,Closing,0.0,0.0,0.0,0.0,0.0,0.0,0.0,0.125,
2.1738549999999996,0.0,0.0,-14700.0,0.0,0.0,0.0,0.0,0.25,0.7226561760000001,4.811958895113371,0.0,14622.0,0.0,0.0,0.0,0.0,0.0,0.391845663,4.842709181831357,0.0,538.0,0.0,0.0,0.0,0.0,0.125,3.2617184160000003,4.819909150085447,0.0,2064.0,0.125,0.0,0.0,0.0,0.25,1.535644374,4.837079905700681,0.0,0.8799999952316284,-1.0299999713897705,170.8000030517578,0.00640869140625,0.01959228515625,1.019287109375,37.09000015258789,0.0,-23.0,0.9036865234375,2.2091217041015625,Closing,0.0,0.0,0.0,0.0,0.0,0.0,0.0,0.125,
2.1915560000000003,0.0,0.0,-14700.0,0.0,0.0,0.0,0.0,0.25,0.721435473,4.811958895113371,0.0,14622.0,0.0,0.0,0.0,0.0,0.0,0.391845663,4.842709181831357,0.0,538.0,0.0,0.0,0.0,0.0,0.125,3.2617184160000003,4.819909150085447,0.0,2064.0,0.125,0.0,0.0,0.0,0.25,1.534423671,4.837079905700681,0.0,0.8799999952316284,-1.0099999904632568,170.8000030517578,0.00372314453125,0.0166015625,1.010498046875,37.09000015258789,0.0,-21.0,0.903289794921875,2.2091217041015625,Closing,0.0,0.0,0.0,0.0,0.0,0.0,0.0,0.125,
2.210206000000002,0.0,0.0,-14700.0,0.0,0.0,0.0,0.0,0.25,0.721435473,4.811958895113371,0.0,14622.0,0.0,0.0,0.0,0.0,0.0,0.391845663,4.842709181831357,0.0,538.0,0.0,0.0,0.0,0.0,0.125,3.2604977130000004,4.819909150085447,0.0,2064.0,0.125,0.0,0.0,0.0,0.25,1.535644374,4.837079905700681,0.0,0.8799999952316284,-1.0,170.8000030517578,0.00555419921875,0.01043701171875,1.0255126953125,37.09000015258789,0.0,-16.0,0.902374267578125,2.2091217041015625,Closing,0.0,0.0,0.0,0.0,0.0,0.0,0.0,0.0,
2.231866000000002,0.0,0.0,-14700.0,0.0,0.0,0.0,0.0,0.25,0.721435473,4.811958895113371,0.0,14622.0,0.0,0.0,0.0,0.0,0.0,0.391845663,4.842709181831357,0.0,538.0,0.0,0.0,0.0,0.0,0.125,3.2617184160000003,4.819909150085447,0.0,2064.0,0.125,0.0,0.0,0.0,0.25,1.535644374,4.837079905700681,0.0,0.8799999952316284,-0.9800000190734863,170.8000030517578,-0.0093994140625,0.0115966796875,1.0233154296875,37.09000015258789,0.0,-8.0,0.901885986328125,2.2091217041015625,Closing,0.0,0.0,0.0,0.0,0.0,0.0,0.0,0.0,
2.2505159999999997,0.0,0.0,-14700.0,0.0,0.0,0.0,0.0,0.25,0.7226561760000001,4.811958895113371,0.0,14622.0,0.0,0.0,0.0,0.0,0.0,0.393066366,4.842709181831357,0.0,538.0,0.0,0.0,0.0,0.0,0.125,3.2617184160000003,4.819909150085447,0.0,2064.0,0.125,0.0,0.0,0.0,0.25,1.535644374,4.837079905700681,0.0,0.8799999952316284,-0.9700000286102295,170.7899932861328,-0.008056640625,0.01202392578125,1.0142822265625,37.09000015258789,0.0,-9.0,0.901885986328125,2.2091217041015625,Closing,0.0,0.0,0.0,0.0,0.0,0.0,0.0,0.0,
2.2711850000000013,0.0,0.0,-14700.0,0.0,0.0,0.0,0.0,0.25,0.7226561760000001,4.811958895113371,0.0,14622.0,0.0,0.0,0.0,0.0,0.0,0.391845663,4.842709181831357,0.0,538.0,0.0,0.0,0.0,0.0,0.125,3.2617184160000003,4.819909150085447,0.0,2064.0,0.125,0.0,0.0,0.0,0.25,1.534423671,4.837079905700681,0.0,0.8700000047683716,-0.9700000286102295,170.7899932861328,-0.0096435546875,0.00811767578125,1.01678466796875,37.09000015258789,0.0,-8.0,0.901885986328125,2.2091217041015625,Closing,0.0,0.0,0.0,0.0,0.0,0.0,0.0,0.125,
2.290451000000001,0.0,0.0,-14700.0,0.0,0.0,0.0,0.0,0.25,0.7226561760000001,0.01,0.0,14622.0,0.0,0.0,-0.0,0.0,0.0,0.391845663,0.01,0.0,538.0,0.0,0.0,0.0,0.0,0.125,3.2604977130000004,0.01,0.0,2064.0,0.125,0.0,-0.0,0.0,0.25,1.535644374,0.01,0.0,0.8700000047683716,-0.9700000286102295,170.7899932861328,-0.0174560546875,0.01812744140625,1.010986328125,37.09000015258789,0.0,0.0,0.901885986328125,2.2091217041015625,Closing,0.0,0.0,0.0,0.0,0.0,0.0,0.0,0.0,
2.3099730000000016,0.0,0.0,-14700.0,0.0,0.0,0.0,0.0,0.25,0.721435473,0.01,0.0,14622.0,0.0,0.0,-0.0,0.0,0.0,0.391845663,0.01,0.0,538.0,0.0,0.0,0.0,0.0,0.125,3.2604977130000004,0.01,0.0,2064.0,0.125,0.0,-0.0,0.0,0.25,1.535644374,0.01,0.0,0.8700000047683716,-0.9599999785423279,170.7899932861328,-0.01507568359375,0.0166015625,1.0054931640625,37.06999969482422,0.0,-1.0,0.901885986328125,2.2091217041015625,Closing,0.0,0.0,0.0,0.0,0.0,0.0,0.0,0.0,
2.3320780000000014,0.0,0.0,-14700.0,0.0,0.0,0.0,0.0,0.25,0.721435473,0.01,0.0,14622.0,0.0,0.0,-0.0,0.0,0.25,0.391845663,0.01,0.0,538.0,0.0,0.0,0.0,0.0,0.125,3.2617184160000003,0.01,0.0,2064.0,0.125,0.0,-0.0,0.0,0.25,1.533202968,0.01,0.0,0.8799999952316284,-0.9599999785423279,170.7899932861328,-0.0172119140625,0.01611328125,1.02001953125,37.06999969482422,0.0,0.0,0.901885986328125,2.2091217041015625,Closing,0.0,0.0,0.0,0.0,0.0,0.0,0.0,0.0,
2.350585000000003,0.0,0.0,-14700.0,0.0,0.0,0.0,0.0,0.375,0.7226561760000001,0.01,0.0,14622.0,0.0,0.0,-0.0,0.0,0.25,0.39062496,0.01,0.0,538.0,0.0,0.0,0.0,0.0,0.0,3.2617184160000003,0.01,0.0,2064.0,0.0,0.0,-0.0,0.0,0.25,1.535644374,0.01,0.0,0.8799999952316284,-0.9599999785423279,170.8000030517578,-0.015625,0.0150146484375,1.0103759765625,37.06999969482422,0.0,-1.0,0.901885986328125,2.2091217041015625,Closing,0.0,0.0,0.0,0.0,0.0,0.0,0.0,0.0,
2.3732620000000026,0.0,0.0,-14700.0,0.0,0.0,0.0,0.0,0.375,0.721435473,0.01,0.0012207029999995456,14622.0,0.0,0.0,-0.0,0.0,0.25,0.396728475,0.01,0.0,538.0,0.0,0.0,0.0,0.0,0.125,3.2653805250000003,0.01,0.0,2064.0,0.0,0.0,-0.0,0.0,0.375,1.539306483,0.01,0.0,0.8700000047683716,-0.9700000286102295,170.8000030517578,-0.01995849609375,0.0146484375,1.01080322265625,37.06999969482422,0.0,2.0,0.901885986328125,2.2091217041015625,Closing,0.0,0.0,0.0,0.0,0.0,0.0,0.0,0.0,
2.39132,0.0,0.0,-14700.0,0.0,0.0,0.0,0.0,0.375,0.731201097,0.01,0.0012207029999995456,14622.0,0.0,0.0,-0.0,0.0,0.25,0.396728475,0.01,0.0,538.0,0.0,0.0,0.0,0.0,0.125,3.2702633370000003,0.01,0.0,2064.0,0.0,0.0,-0.0,0.0,0.375,1.545409998,0.01,0.0,0.8700000047683716,-0.9700000286102295,170.7899932861328,-0.0191650390625,0.0155029296875,1.03167724609375,37.06999969482422,0.0,1.0,0.901885986328125,2.2091217041015625,Closing,0.0,0.0,0.0,0.0,0.0,0.0,0.0,0.0,
2.410815000000002,0.0,0.0,-14700.0,0.0,0.0,0.0,0.0,0.375,0.740966721,0.01,0.01342773300000033,14622.0,0.0,0.0,-0.0,0.0,0.25,0.396728475,0.01,0.003662109000000413,538.0,0.0,0.0,0.0,0.0,0.125,3.286132476,0.01,0.014648435999999876,2064.0,0.0,0.0,-0.0,0.0,0.25,1.544189295,0.01,0.009765623999999917,0.8700000047683716,-0.9700000286102295,170.7899932861328,-0.012451171875,0.01593017578125,1.015625,37.06999969482422,0.0,-4.0,0.901885986328125,2.2091217041015625,Closing,0.0,0.0,0.0,0.0,0.0,0.0,0.0,0.0,
2.432336000000003,0.0,0.0,-14700.0,0.0,0.0,0.0,0.0,0.375,0.755615157,0.01,0.01342773300000033,14622.0,0.0,0.0,-0.0,0.0,0.25,0.40161128700000004,0.01,0.003662109000000413,538.0,0.0,0.0,0.0,0.0,0.125,3.294677397,0.01,0.014648435999999876,2064.0,0.125,0.0,-0.0,0.0,0.25,1.5551756220000001,0.01,0.009765623999999917,0.8700000047683716,-0.9599999785423279,170.7899932861328,-0.0140380859375,0.01934814453125,1.00726318359375,37.06999969482422,0.0,-2.0,0.901885986328125,2.2091217041015625,Closing,0.0,0.0,0.0,0.0,0.0,0.0,0.0,0.0,
2.4503880000000025,0.0,0.0,-14700.0,0.0,0.0,0.0,0.0,0.375,0.755615157,0.01,0.01342773300000033,14622.0,0.0,0.0,-0.0,0.0,0.25,0.410156208,0.01,0.003662109000000413,538.0,0.0,0.0,0.0,0.0,0.125,3.304443021,0.01,0.014648435999999876,2064.0,0.125,0.0,-0.0,0.0,0.25,1.563720543,0.01,0.009765623999999917,0.8700000047683716,-0.9599999785423279,170.7899932861328,-0.00982666015625,0.01104736328125,1.02154541015625,37.06999969482422,0.0,-7.0,0.901885986328125,2.2091217041015625,Closing,0.0,0.0,0.0,0.0,0.0,0.0,0.0,0.0,
2.471617000000002,0.0,0.0,-14700.0,0.0,0.0,0.0,0.0,0.25,0.760497969,0.01,0.01831054500000029,14622.0,0.0,0.0,-0.0,0.0,0.25,0.430908159,0.01,0.010986326999999463,538.0,0.0,0.0,0.0,0.0,0.0,3.3142086450000003,0.01,0.024414059999999793,2064.0,0.125,0.0,-0.0,0.0,0.25,1.573486167,0.01,0.014648435999999876,0.8700000047683716,-0.949999988079071,170.7899932861328,-0.0111083984375,0.01654052734375,1.020751953125,37.06999969482422,0.0,-5.0,0.901885986328125,2.2091217041015625,Closing,0.0,0.0,0.0,0.0,0.0,0.0,0.0,0.0,
2.491326000000001,0.0,0.0,-14700.0,0.0,0.0,0.0,0.0,0.25,0.7653807810000001,0.01,0.01831054500000029,14622.0,0.0,0.0,-0.0,0.0,0.25,0.44067378300000004,0.01,0.010986326999999463,538.0,0.0,0.0,0.0,0.0,0.0,3.3190914570000003,0.01,0.024414059999999793,2064.0,0.125,0.0,-0.0,0.0,0.25,1.5832517910000001,0.01,0.014648435999999876,0.8700000047683716,-0.9399999976158142,170.8000030517578,-0.0145263671875,0.018310546875,1.011962890625,37.06999969482422,0.0,-1.0,0.901885986328125,2.2091217041015625,Closing,0.0,0.0,0.0,0.0,0.0,0.0,0.0,0.0,
2.5088880000000024,0.0,0.0,-14700.0,0.0,0.0,-238.1102353334427,0.0,0.25,0.767822187,4.932250999999998,0.009765623999999917,14622.0,0.0,0.0,238.1102353334427,0.0,0.25,0.45532221900000003,4.963769999999998,0.0,538.0,0.125,0.0,-238.1102353334427,0.0,0.0,3.3190914570000003,0.01,0.0,2064.0,0.125,0.0,238.1102353334427,0.0,0.25,1.588134603,0.01,0.0,0.8700000047683716,-0.9399999976158142,170.8000030517578,0.00115966796875,0.0123291015625,1.00311279296875,37.06999969482422,0.0,-18.0,0.901885986328125,2.2091217041015625,Closing,0.0,0.0,0.0,0.0,0.0,0.0,0.0,0.0,
2.5302560000000014,0.0,0.0,-14700.0,0.125,0.0,-238.1102353334427,0.0,0.25,0.770263593,4.932250999999998,0.0012207029999995456,14622.0,0.0,0.0,238.1102353334427,0.0,0.25,0.449218704,4.963769999999998,0.009765623999999917,538.0,0.125,0.0,-238.1102353334427,0.0,0.0,3.3239742690000003,0.01,0.0,2064.0,0.375,0.0,238.1102353334427,0.0,0.25,1.588134603,0.01,0.003662108999999525,0.8700000047683716,-0.9300000071525574,170.80999755859375,-0.00970458984375,0.0130615234375,1.02362060546875,37.06999969482422,0.0,-7.0,0.901885986328125,2.2091217041015625,Closing,0.0,0.0,0.0,0.0,0.0,0.0,0.0,0.0,
2.5484490000000006,0.0,0.0,-14700.0,0.125,0.0,-257.95276433229446,0.0,0.25,0.76904289,4.932250999999998,0.003662109000000413,14622.0,0.0,0.0,257.95276433229446,0.0,0.25,0.46386714,4.963769999999998,0.009765623999999917,538.0,0.125,0.0,-257.95276433229446,0.0,0.0,3.3239742690000003,0.01,0.004882811999999959,2064.0,0.375,0.0,257.95276433229446,0.0,0.25,1.593017415,0.01,0.0024414059999999793,0.8700000047683716,-0.9200000166893005,170.80999755859375,-0.01031494140625,0.0196533203125,1.01934814453125,37.06999969482422,0.0,-5.0,0.901885986328125,2.2091217041015625,Closing,0.0,0.0,0.0,0.0,0.0,0.0,0.0,0.0,
2.571131000000001,0.0,0.0,-14700.0,0.125,0.0,-257.95276433229446,0.0,0.25,0.770263593,4.932250999999998,0.0,14622.0,0.125,0.0,257.95276433229446,0.0,0.25,0.468749952,4.963769999999998,0.0,538.0,0.125,-7.5,-257.95276433229446,0.0,0.0,3.3251949720000002,0.01,0.0,2064.0,0.375,0.0,257.95276433229446,0.0,0.25,1.591796712,0.01,0.0,0.8700000047683716,-0.9200000166893005,170.80999755859375,-0.01019287109375,0.01513671875,1.012451171875,37.06999969482422,0.0,-6.0,0.901885986328125,2.2091217041015625,Closing,0.0,0.0,0.0,0.0,0.0,0.0,0.0,0.125,
2.589617000000002,0.0,0.0,-14700.0,0.125,-7.5,-257.95276433229446,0.0,0.25,0.770263593,4.932250999999998,0.0012207029999995456,14622.0,0.25,0.0,257.95276433229446,0.0,0.25,0.46752924900000004,4.963769999999998,0.004882812000000847,538.0,0.125,-7.5,-257.95276433229446,0.0,0.0,3.3239742690000003,0.01,0.0,2064.0,0.375,7.5,257.95276433229446,0.0,0.25,1.595458821,0.01,0.0,0.8700000047683716,-0.9200000166893005,170.8000030517578,-0.0128173828125,0.01507568359375,1.02069091796875,37.06999969482422,0.0,-3.0,0.901885986328125,2.2091217041015625,Closing,0.0,0.0,0.0,0.0,0.0,0.0,0.0,0.125,
2.609111000000001,0.0,0.0,-14700.0,0.125,-22.5,-257.95276433229446,0.0,0.25,0.770263593,4.932250999999998,0.0,14624.0,0.375,0.0,257.95276433229446,0.0,0.25,0.468749952,4.963769999999998,0.0,531.0,0.125,-22.5,-257.95276433229446,0.0,0.0,3.3239742690000003,0.01,0.0,2069.0,0.5,22.5,257.95276433229446,0.0,0.25,1.593017415,0.01,0.0,0.8600000143051147,-0.9200000166893005,170.8000030517578,-0.03497314453125,-0.00579833984375,0.99737548828125,37.06999969482422,0.0,15.0,0.901885986328125,2.209136962890625,Closing,0.0,0.0,0.0,0.0,0.0,0.0,0.0,0.125,
2.6303330000000025,0.0,0.0,-14706.0,0.125,-30.0,-257.95276433229446,0.0,0.25,0.771484296,4.932250999999998,0.0,14624.0,0.375,0.0,257.95276433229446,0.0,0.25,0.468749952,4.963769999999998,0.0,531.0,0.375,-30.0,-257.95276433229446,0.0,0.0,3.3239742690000003,0.01,0.0,2069.0,0.5,30.0,257.95276433229446,0.0,0.25,1.594238118,0.01,0.0,0.8700000047683716,-0.9599999785423279,170.8000030517578,-0.0504150390625,0.01043701171875,1.05535888671875,37.06999969482422,0.0,31.0,0.9019927978515625,2.209259033203125,Closing,0.0,0.0,0.0,0.0,0.0,0.0,0.0,0.0,
2.650267,0.0,0.0,-14706.0,0.125,-37.5,-257.95276433229446,0.0,0.25,0.7763671080000001,4.932250999999998,0.0,14624.0,0.5,7.5,257.95276433229446,0.0,0.25,0.469970655,4.963769999999998,0.0,531.0,0.375,-45.0,-257.95276433229446,0.0,0.0,3.3239742690000003,0.01,0.0,2069.0,0.5,30.0,257.95276433229446,0.0,0.25,1.593017415,0.01,-0.0012207030000004337,0.8700000047683716,-0.9700000286102295,170.8000030517578,-0.0428466796875,0.00958251953125,1.01568603515625,37.06999969482422,0.0,24.0,0.902099609375,2.209259033203125,Closing,0.0,0.0,0.0,0.0,0.0,0.0,0.0,0.0,
2.670888000000003,0.0,0.0,-14706.0,0.125,-37.5,-257.95276433229446,0.0,0.25,0.780029217,4.932250999999998,-0.0012207029999995456,14624.0,0.625,15.0,257.95276433229446,0.0,0.25,0.47241206100000005,4.963769999999998,0.0,531.0,0.375,-45.0,-257.95276433229446,0.0,0.0,3.3239742690000003,0.01,0.0,2069.0,0.5,30.0,257.95276433229446,0.0,0.25,1.593017415,0.01,0.0012207030000004337,0.8700000047683716,-0.9700000286102295,170.8000030517578,-0.02294921875,0.013671875,1.029052734375,37.06999969482422,0.0,4.0,0.9022216796875,2.209259033203125,Closing,0.0,0.0,0.0,0.0,0.0,0.0,0.0,0.0,
2.6896370000000025,0.0,0.0,-14706.0,0.125,-37.5,-257.95276433229446,0.0,0.25,0.76904289,4.932250999999998,0.0024414059999999793,14624.0,0.75,15.0,257.95276433229446,0.0,0.25,0.468749952,4.963769999999998,0.0012207030000004337,531.0,0.375,-45.0,-257.95276433229446,0.0,0.0,3.3239742690000003,0.01,0.0,2069.0,0.75,30.0,257.95276433229446,0.0,0.25,1.593017415,0.01,-0.0012207030000004337,0.8700000047683716,-0.9800000190734863,170.82000732421875,-0.0198974609375,-0.0040283203125,1.0413818359375,37.06999969482422,0.0,-1.0,0.90234375,2.209259033203125,Closing,0.0,0.0,0.0,0.0,0.0,0.0,0.0,0.0,
2.708871000000003,0.0,0.0,-14706.0,0.125,-37.5,-257.95276433229446,0.0,0.25,0.770263593,4.932250999999998,-0.0024414059999999793,14624.0,0.75,15.0,257.95276433229446,0.0,0.25,0.468749952,4.963769999999998,0.0,531.0,0.375,-30.0,-257.95276433229446,0.0,0.0,3.3251949720000002,0.01,0.0,2069.0,0.75,22.5,257.95276433229446,0.0,0.25,1.593017415,0.01,0.0,0.8600000143051147,-0.9800000190734863,170.8300018310547,-0.01763916015625,0.02783203125,0.989990234375,37.06999969482422,0.0,2.0,0.90234375,2.209259033203125,Closing,0.0,0.0,0.0,0.0,0.0,0.0,0.0,0.0,
2.730170000000002,0.0,0.0,-14706.0,0.375,-30.0,-257.95276433229446,0.0,0.25,0.767822187,4.932250999999998,0.0,14627.0,0.75,15.0,257.95276433229446,0.0,0.25,0.46752924900000004,4.963769999999998,0.0,527.0,0.375,-30.0,-257.95276433229446,0.0,0.0,3.3178707540000003,0.01,0.0,2073.0,0.75,22.5,257.95276433229446,0.0,0.25,1.588134603,0.01,0.0,0.8600000143051147,-0.9800000190734863,170.83999633789062,-0.01983642578125,0.0123291015625,0.995361328125,37.06999969482422,0.0,2.0,0.90234375,2.209259033203125,Closing,0.0,0.0,0.0,0.0,0.0,0.0,0.0,0.0,
2.748263000000003,0.0,0.0,-14711.0,0.375,-30.0,-257.95276433229446,0.0,0.25,0.771484296,4.932250999999998,0.0,14627.0,0.75,15.0,257.95276433229446,0.0,0.25,0.468749952,4.963769999999998,0.0,527.0,0.625,-22.5,-257.95276433229446,0.0,0.0,3.3276363780000002,0.01,0.0,2073.0,0.75,22.5,257.95276433229446,0.0,0.25,1.591796712,0.01,0.0,0.8799999952316284,-1.0,170.8300018310547,-0.02496337890625,0.0242919921875,1.0543212890625,37.06999969482422,0.0,7.0,0.90234375,2.209259033203125,Closing,0.0,0.0,0.0,0.0,0.0,0.0,0.0,0.0,
2.770505000000001,0.0,0.0,-14711.0,0.375,-22.5,-257.95276433229446,0.0,0.25,0.76904289,4.932250999999998,0.0,14627.0,0.875,30.0,257.95276433229446,0.0,0.25,0.468749952,4.963769999999998,0.0,527.0,0.625,-30.0,-257.95276433229446,0.0,0.0,3.3239742690000003,0.01,0.0,2073.0,0.75,22.5,257.95276433229446,0.0,0.25,1.591796712,0.01,0.0,0.8799999952316284,-0.9900000095367432,170.8000030517578,-0.024658203125,0.016357421875,0.9996337890625,37.06999969482422,0.0,7.0,0.90234375,2.209259033203125,Closing,0.0,0.0,0.0,0.0,0.0,0.0,0.0,0.0,
2.7932270000000026,0.0,0.0,-14711.0,0.375,-30.0,-257.95276433229446,0.0,0.25,0.770263593,4.932250999999998,-0.0012207029999995456,14627.0,1.0,45.0,257.95276433229446,0.0,0.25,0.468749952,4.963769999999998,0.0,527.0,0.625,-30.0,-257.95276433229446,0.0,0.0,3.3251949720000002,0.01,0.0012207029999995456,2073.0,0.875,30.0,257.95276433229446,0.0,0.25,1.593017415,0.01,0.0012207030000004337,0.8899999856948853,-1.0099999904632568,170.7899932861328,-0.05194091796875,0.01519775390625,0.99652099609375,37.06999969482422,0.0,33.0,0.902374267578125,2.209259033203125,Closing,0.0,0.0,0.0,0.0,0.0,0.0,0.0,0.0,
2.8134550000000016,0.0,0.0,-14711.0,0.625,-30.0,-277.79527455568314,0.0,0.25,0.767822187,4.932250999999998,0.0,14627.0,1.125,52.5,277.79527455568314,0.0,0.25,0.468749952,4.963769999999998,0.0,527.0,0.875,-37.5,-277.79527455568314,0.0,0.0,3.330077784,0.01,0.0,2073.0,1.125,45.0,277.79527455568314,0.0,0.25,1.593017415,0.01,0.0,0.8700000047683716,-1.059999942779541,170.77999877929688,-0.04876708984375,0.007568359375,1.0335693359375,37.06999969482422,0.0,27.0,0.9025421142578125,2.209259033203125,Closing,0.0,0.0,0.0,0.0,0.0,0.0,0.0,0.0,
2.8343990000000012,0.0,0.0,-14711.0,0.625,-37.5,-297.63780355453486,0.0,0.25,0.7653807810000001,4.932250999999998,0.0,14627.0,1.25,60.0,297.63780355453486,0.0,0.25,0.468749952,4.963769999999998,0.0,527.0,0.875,-45.0,-297.63780355453486,0.0,0.0,3.328857081,0.01,0.0,2083.0,1.125,45.0,297.63780355453486,0.0,0.25,1.594238118,0.01,0.0,0.8799999952316284,-1.0800000429153442,170.7899932861328,-0.05078125,0.02581787109375,1.0333251953125,37.11000061035156,0.0,32.0,0.902679443359375,2.209259033203125,Closing,0.0,0.0,0.0,0.0,0.0,0.0,0.0,0.0,
