Time,ClimberA1,ClimberA2,FRpos,FRCurrent,FRspeed,FRsetpoint,FRApos,FRACurrent,FREncpos,FREncSetpoint,FREncSpeed,FLpos,FLCurrent,FLspeed,FLsetpoint,FLApos,FLACurrent,FLEncpos,FLEncSetpoint,FLEncSpeed,BRpos,BRCurrent,BRspeed,BRsetpoint,BRApos,BRACurrent,BREncpos,BREncSetpoint,BREncSpeed,BLpos,BLCurrent,BLspeed,BLsetpoint,BLApos,BLACurrent,BLEncpos,BLEncSetpoint,BLEncSpeed,navx_Pitch,navx_Roll,navx_Yaw,navx_XAcc,navx_YAcc,navx_ZAcc,navx_Temp,navx_Bar,navx_Alt,navx_XDis,navx_YDis,GearPlacerState,ShootOutputV,ShootOutputCurrent,ShootEncPos,ShootEncVelocity,ShootSpeed,ShootSetpoint,CarouselSetpoint,CarouselCurrent,
0.17486900000000605,0.0,0.0,13743.0,0.0,0.0,0.0,0.0,0.25,0.8178710100000001,0.01,0.0,-47484.0,0.0,0.0,0.0,0.0,0.125,0.5419921320000001,0.01,0.0,43486.0,0.0,0.0,0.0,0.0,0.0,3.358153953,0.01,0.0,-62495.0,0.125,0.0,0.0,0.0,0.125,1.627197099,0.01,0.0,0.23999999463558197,-0.6399999856948853,161.02000427246094,-0.010498046875,0.00390625,1.01812744140625,36.369998931884766,0.0,-1.0,3.2158966064453125,-7.781982421875E-4,Closing,0.0,0.0,0.0,0.0,0.0,0.0,0.0,0.0,
0.249445000000007,0.0,0.0,13743.0,4.75,82.5,1470.0,0.0,0.125,0.798339762,0.01,4.931030297,-47484.0,6.375,-97.5,-1470.0,0.0,0.125,0.5419921320000001,0.01,0.0,43486.0,5.0,7.5,1470.0,0.0,0.0,3.358153953,0.01,0.0,-62495.0,4.5,-120.0,-1470.0,0.0,0.125,1.6564939710000002,0.01,0.0,0.5099999904632568,-0.009999999776482582,161.0500030517578,0.1849365234375,0.329345703125,0.91162109375,36.369998931884766,0.0,-70.0,3.2131195068359375,-0.0030059814453125,Closing,0.0,0.0,0.0,0.0,0.0,0.0,0.0,0.0,
0.33025700000001235,0.0,0.0,13794.0,9.75,315.0,1470.0,0.0,0.25,0.794677653,0.01,-0.02685546600000066,-47532.0,13.75,-352.5,-1470.0,0.0,0.125,0.5419921320000001,0.01,0.0,43514.0,13.25,232.5,1470.0,0.0,0.0,3.353271141,0.01,-0.003662108999999525,-62534.0,11.375,-300.0,-1470.0,0.0,0.25,1.6809080310000002,0.01,-4.925041019,0.6000000238418579,0.7300000190734863,161.0399932861328,0.1759033203125,-0.05975341796875,0.9368896484375,36.369998931884766,0.0,-177.0,3.19921875,-0.0135650634765625,Closing,0.0,0.0,0.0,0.0,0.0,0.0,0.0,0.125,
0.40702000000001864,0.0,0.0,13794.0,12.25,427.5,1470.0,0.0,0.125,0.79345695,0.01,0.0,-47624.0,16.25,-487.5,-1470.0,0.0,0.125,0.5419921320000001,0.01,0.0,43582.0,15.625,375.0,1470.0,0.0,0.0,3.355712547,0.01,0.0,-62610.0,14.125,-405.0,-1470.0,0.0,0.25,1.678466625,0.01,0.0,0.5699999928474426,1.4800000190734863,161.08999633789062,0.27880859375,0.03759765625,0.9189453125,36.369998931884766,0.0,-232.0,3.17816162109375,-0.026763916015625,Closing,0.0,0.0,0.0,0.0,0.0,0.0,0.0,0.0,
0.48670100000000094,0.0,0.0,13885.0,12.625,652.5,1470.0,0.0,0.25,0.795898356,0.01,0.0,-47624.0,15.25,-742.5,-1470.0,0.0,0.125,0.5419921320000001,0.01,0.0012207029999995456,43582.0,17.0,577.5,1470.0,0.0,0.0,3.353271141,0.01,0.0,-62610.0,14.75,-697.5,-1470.0,0.0,0.25,1.6882322490000001,0.01,0.003662109000000191,0.6100000143051147,2.049999952316284,161.1699981689453,0.1075439453125,0.04644775390625,1.1051025390625,36.369998931884766,0.0,-53.0,3.1561431884765625,-0.0390625,Closing,0.0,0.0,0.0,0.0,0.0,0.0,0.0,0.0,
0.5666870000000054,0.0,0.0,14042.0,11.875,930.0,1470.0,0.0,0.25,0.7910155440000001,0.01,0.0,-47783.0,12.625,-1020.0,-1470.0,0.0,0.125,0.5419921320000001,0.01,0.0,43702.0,16.75,757.5,1470.0,0.0,0.0,3.353271141,0.01,0.0,-62749.0,13.125,-960.0,-1470.0,0.0,0.25,1.6845701400000002,0.01,0.0,0.7200000286102295,2.690000057220459,161.25,0.18133544921875,0.05810546875,1.20660400390625,36.369998931884766,0.0,-104.0,3.1160430908203125,-0.0594635009765625,Closing,0.0,0.0,0.0,0.0,0.0,0.0,0.0,0.0,
0.6457660000000033,0.0,0.0,14042.0,10.0,1170.0,1470.0,0.0,0.25,0.787353435,0.01,-0.0012207030000004337,-47991.0,10.25,-1237.5,-1470.0,0.0,0.125,0.54931635,0.01,-0.0012207029999995456,43877.0,16.75,997.5,1470.0,0.0,0.0,3.353271141,0.01,0.0,-62942.0,12.0,-1132.5,-1470.0,0.0,0.25,1.6845701400000002,0.01,0.0024414059999999793,0.7900000214576721,3.119999885559082,161.27000427246094,0.2818603515625,0.14697265625,1.33056640625,36.380001068115234,0.0,-156.0,3.0760498046875,-0.078582763671875,Closing,0.0,0.0,0.0,0.0,0.0,0.0,0.0,0.0,
0.7264919999999984,0.0,0.0,14249.0,8.25,1357.5,1470.0,0.0,0.125,0.79345695,0.01,0.0012207030000004337,-47991.0,8.125,-1387.5,-1470.0,0.0,0.125,0.5419921320000001,0.01,0.0,43877.0,14.75,1207.5,1470.0,0.0,0.0,3.354491844,0.01,0.0,-62942.0,9.875,-1342.5,-1470.0,0.0,0.25,1.674804516,0.01,0.0,0.7699999809265137,3.3399999141693115,161.2899932861328,0.18096923828125,-0.02606201171875,0.91802978515625,36.380001068115234,0.0,-132.0,3.03021240234375,-0.100250244140625,Closing,0.0,0.0,0.0,0.0,0.0,0.0,0.0,0.0,
0.8021130000000121,0.0,0.0,14494.0,6.75,1470.0,1469.9999999999998,0.0,0.25,0.79345695,0.01,0.0,-48232.0,6.625,-1492.5,-1469.9999999999998,0.0,0.125,0.5419921320000001,0.01,0.0,44093.0,12.625,1365.0,1469.9999999999998,0.0,0.0,3.353271141,0.01,0.0,-63178.0,8.0,-1485.0,-1469.9999999999998,0.0,0.25,1.671142407,0.01,0.0,0.8100000023841858,3.5399999618530273,161.24000549316406,0.1474609375,0.0216064453125,0.8004150390625,36.380001068115234,0.0,-89.0,2.971405029296875,-0.12744140625,Closing,0.0,0.0,0.0,0.0,0.0,0.0,0.0,0.0,
0.8843000000000175,0.0,0.0,14494.0,5.0,1597.5,1470.0,0.0,0.25,0.794677653,0.01,0.0,-48232.0,4.875,-1575.0,-1470.0,0.0,0.125,0.5419921320000001,0.01,0.0,44327.0,11.625,1417.5,1470.0,0.0,0.0,3.353271141,0.01,0.0,-63430.0,6.625,-1567.5,-1470.0,0.0,0.25,1.6613767830000001,0.01,-0.004882811999999959,0.800000011920929,3.5399999618530273,161.14999389648438,0.04620361328125,-0.09246826171875,0.8355712890625,36.380001068115234,0.0,-28.0,2.9219512939453125,-0.1502532958984375,Closing,0.0,0.0,0.0,0.0,0.0,0.0,0.0,0.0,
0.9545929999999935,0.0,0.0,14754.0,3.875,1650.0,1470.0,0.0,0.125,0.794677653,0.01,0.0,-48486.0,3.5,-1627.5,-1470.0,0.0,0.125,0.5407714290000001,0.01,0.0,44327.0,9.875,1567.5,1470.0,0.0,0.0,3.353271141,0.01,0.0,-63430.0,5.375,-1627.5,-1470.0,0.0,0.25,1.6601560800000001,0.01,0.0,0.6800000071525574,3.559999942779541,161.0500030517578,0.281982421875,0.1285400390625,1.187255859375,36.380001068115234,0.0,-159.0,2.8731689453125,-0.17120361328125,Closing,0.0,0.0,0.0,0.0,0.0,0.0,0.0,0.0,
1.0348820000000123,0.0,0.0,15024.0,3.0,1680.0,1470.0000000000002,0.0,0.25,0.79345695,0.01,-0.0012207029999995456,-48752.0,2.5,-1657.5,-1470.0000000000002,0.0,0.125,0.5419921320000001,0.01,0.0,44598.0,7.875,1702.5,1470.0000000000002,0.0,0.0,3.353271141,0.01,0.0,-63703.0,4.125,-1710.0,-1470.0000000000002,0.0,0.25,1.6613767830000001,0.01,0.0012207029999999897,0.7400000095367432,3.4200000762939453,160.97999572753906,-0.08209228515625,-0.00250244140625,1.023193359375,36.380001068115234,0.0,130.0,2.8161468505859375,-0.19476318359375,Closing,0.0,0.0,0.0,0.0,0.0,0.0,0.0,0.0,
1.1139770000000135,0.0,0.0,15024.0,2.0,1702.5,1470.0,0.0,0.25,0.794677653,4.931702855039724,0.0,-48752.0,1.375,-1702.5,-1470.0,0.0,0.25,0.5419921320000001,4.963218352180481,0.0,44598.0,6.125,1702.5,1470.0,0.0,0.0,3.35693325,4.939850949401856,0.0,-63980.0,2.5,-1732.5,-1470.0,0.0,0.25,1.6613767830000001,4.957448993428548,0.0,0.6100000143051147,3.259999990463257,160.8800048828125,0.1024169921875,0.11834716796875,0.90631103515625,36.130001068115234,0.0,-12.0,2.7709808349609375,-0.2142333984375,Closing,0.0,0.0,0.0,0.0,0.0,0.0,0.0,0.0,
1.1948500000000057,0.0,0.0,15298.0,1.25,1710.0,1470.0,0.0,0.25,0.79345695,4.930332910751131,0.0,-49027.0,1.125,-1717.5,-1470.0,0.0,0.25,0.5419921320000001,4.96183965341568,0.0,44868.0,5.375,1672.5,1470.0,0.0,0.0,3.359374656,4.938478741709392,0.0012207029999995456,-63980.0,1.875,-1710.0,-1470.0,0.0,0.25,1.6613767830000001,4.956071897294787,0.0,0.5799999833106995,3.0299999713897705,160.77999877929688,-0.07073974609375,4.2724609375E-4,0.8157958984375,36.130001068115234,0.0,51.0,2.719879150390625,-0.2354583740234375,Closing,0.0,0.0,0.0,0.0,0.0,0.0,0.0,0.0,
1.2761769999999961,0.0,0.0,15568.0,0.875,1687.5,1470.0,0.0,0.25,0.79345695,4.928825825694445,0.0,-49288.0,1.125,-1627.5,-1470.0,0.0,0.25,0.5432128350000001,4.9603229375,-0.0012207029999995456,45139.0,5.0,1687.5,1470.0,0.0,0.0,3.359374656,4.936969166666667,0.0012207030000004337,-64250.0,1.375,-1672.5,-1470.0,0.0,0.25,1.6552732680000002,4.954556944444445,0.0,0.5099999904632568,2.7699999809265137,160.80999755859375,0.1759033203125,0.1103515625,0.70892333984375,36.130001068115234,0.0,-99.0,2.6800384521484375,-0.2347869873046875,Closing,0.0,0.0,0.0,0.0,0.0,0.0,0.0,0.0,
1.3522920000000158,0.0,0.0,15568.0,0.75,1680.0,1470.0,0.0,0.125,0.7922362470000001,4.929373761598672,0.0,-49288.0,0.875,-1612.5,-1470.0,0.0,0.25,0.5419921320000001,4.960874374927521,0.0,45404.0,4.5,1665.0,1470.0,0.0,0.0,3.358153953,4.937518007863363,0.0,-64510.0,1.375,-1635.0,-1470.0,0.0,0.25,1.666259595,4.9551077408684625,0.0,0.6600000262260437,2.309999942779541,160.6999969482422,-0.0548095703125,-0.2384033203125,1.26416015625,36.130001068115234,0.0,16.0,2.634521484375,-0.23309326171875,Closing,0.0,0.0,0.0,0.0,0.0,0.0,0.0,0.0,
1.4368729999999923,0.0,0.0,15837.0,0.5,1657.5,1470.0,0.0,0.125,0.812988198,4.927866676541986,0.0,-49552.0,0.5,-1650.0,-1470.0,0.0,0.25,0.53710932,4.9593576590118404,-0.0012207029999995456,45404.0,4.25,1635.0,1470.0,0.0,0.0,3.3605953590000004,4.936008432820638,0.0,-64510.0,1.375,-1582.5,-1470.0,0.0,0.25,1.6601560800000001,4.9535927880181205,0.0,0.5299999713897705,1.940000057220459,160.52000427246094,-0.11114501953125,0.23504638671875,0.7493896484375,36.130001068115234,0.0,204.0,2.5999298095703125,-0.23040771484375,Closing,0.0,0.0,0.0,0.0,0.0,0.0,0.0,0.0,
1.5243960000000079,0.0,0.0,16091.0,0.5,1590.0,1470.0000000000002,0.0,0.25,0.795898356,4.925400651388889,0.0,-49812.0,0.375,-1620.0,-1470.0000000000002,0.0,0.25,0.53710932,4.956875875,0.0,45665.0,4.0,1627.5,1470.0000000000002,0.0,0.0,3.359374656,4.933538333333334,0.0,-64762.0,1.25,-1575.0,-1470.0000000000002,0.0,0.25,1.6613767830000001,4.951113888888889,0.0,0.6899999976158142,1.7200000286102295,160.2899932861328,0.04547119140625,-0.144287109375,1.0089111328125,36.130001068115234,0.0,-66.0,2.5688323974609375,-0.2279205322265625,Closing,0.0,0.0,0.0,0.0,0.0,0.0,0.0,0.0,
1.6077080000000132,0.0,0.0,16091.0,0.5,1582.5,1470.0,0.0,0.25,0.8007811680000001,4.92183833631524,0.0,-50070.0,0.25,-1612.5,-1470.0,0.0,0.25,0.53710932,4.953290795349121,0.0,45930.0,3.625,1642.5,1470.0,0.0,0.125,3.3605953590000004,4.92997013264974,0.0,-65019.0,1.0,-1605.0,-1470.0,0.0,0.25,1.641845535,4.9475329766167535,0.0,0.6100000143051147,1.590000033378601,160.14999389648438,0.1258544921875,-0.04510498046875,0.6019287109375,36.130001068115234,0.0,-120.0,2.5349578857421875,-0.2248687744140625,Closing,0.0,0.0,0.0,0.0,0.0,0.0,0.0,0.0,
1.688451000000001,0.0,0.0,16348.0,0.375,1605.0,1470.0,0.0,0.25,0.809326089,4.9203312512585535,0.003662109000000413,-50070.0,0.25,-1567.5,-1470.0,0.0,0.25,0.532226508,4.9517740794334415,0.0,45930.0,3.375,1612.5,1470.0,0.0,0.125,3.359374656,4.928460557607015,0.0,-65019.0,1.0,-1552.5,-1470.0,0.0,0.25,1.6296385050000002,4.9460180237664115,-0.020751951000000046,0.47999998927116394,1.3200000524520874,159.9199981689453,-0.12554931640625,0.0556640625,0.756591796875,36.02000045776367,0.0,151.0,2.5090179443359375,-0.22015380859375,Closing,0.0,0.0,0.0,0.0,0.0,0.0,0.0,0.125,
1.7672880000000004,0.0,0.0,16582.0,0.875,1522.5,0.0,0.0,0.125,0.799560465,0.01,0.0,-50312.0,1.625,-1500.0,-0.0,0.0,0.125,0.532226508,0.01,0.0,46177.0,0.75,1545.0,0.0,0.0,0.0,3.392333637,0.01,0.0,-65260.0,0.875,-1432.5,-0.0,0.0,0.125,1.571044761,0.01,0.0,0.5699999928474426,0.5600000023841858,159.6300048828125,-0.57806396484375,-0.16900634765625,1.1669921875,36.02000045776367,0.0,489.0,2.4871978759765625,-0.21356201171875,Closing,0.0,0.0,0.0,0.0,0.0,0.0,0.0,0.0,
1.8465960000000197,0.0,0.0,16582.0,2.75,1237.5,0.0,0.0,0.25,0.808105386,0.01,-0.0012207029999995456,-50476.0,4.875,-1162.5,-0.0,0.0,0.125,0.532226508,0.01,0.0,46361.0,1.125,1297.5,0.0,0.0,0.125,3.392333637,0.01,-4.906220316000001,-65424.0,1.875,-1170.0,-0.0,0.0,0.25,1.569824058,0.01,4.894523444,0.36000001430511475,-0.7599999904632568,159.3000030517578,-0.421630859375,-0.024658203125,1.00299072265625,36.02000045776367,0.0,370.0,2.4785919189453125,-0.2023773193359375,Closing,0.0,0.0,0.0,0.0,0.0,0.0,0.0,0.0,
1.9246480000000157,0.0,0.0,16750.0,3.375,885.0,0.0,0.0,0.25,0.811767495,0.01,0.0,-50476.0,5.0,-795.0,-0.0,0.0,0.125,0.532226508,0.01,0.0,46361.0,1.375,855.0,0.0,0.0,0.125,3.392333637,0.01,0.0,-65424.0,2.125,-817.5,-0.0,0.0,0.25,1.5869139,0.01,0.0,0.3400000035762787,-2.069999933242798,158.94000244140625,-0.44207763671875,-0.05316162109375,1.17706298828125,36.02000045776367,0.0,350.0,2.4831695556640625,-0.1853790283203125,Closing,0.0,0.0,0.0,0.0,0.0,0.0,0.0,0.0,
2.002554999999993,0.0,0.0,16830.0,2.875,600.0,0.0,0.0,0.25,0.808105386,0.01,0.0012207029999995456,-50560.0,3.75,-532.5,-0.0,0.0,0.125,0.532226508,0.01,0.0,46437.0,0.625,397.5,0.0,0.0,0.125,3.39355434,0.01,0.0,-65512.0,1.5,-487.5,-0.0,0.0,0.25,1.612548663,0.01,0.02441406000000068,0.3100000023841858,-3.180000066757202,158.7100067138672,-0.36224365234375,0.00311279296875,1.35137939453125,36.02000045776367,0.0,265.0,2.4991607666015625,-0.1629791259765625,Closing,0.0,0.0,0.0,0.0,0.0,0.0,0.0,0.0,
2.080890000000014,0.0,0.0,16830.0,1.5,262.5,0.0,0.0,0.125,0.808105386,0.01,-0.0012207029999995456,-50560.0,2.25,-240.0,-0.0,0.0,0.125,0.533447211,0.01,0.0012207029999995456,46437.0,0.375,232.5,0.0,0.0,0.125,3.39355434,0.01,0.0,-65537.0,0.875,-202.5,-0.0,0.0,0.125,1.613769366,0.01,0.019531247999999835,0.30000001192092896,-3.9000000953674316,158.66000366210938,-0.21783447265625,-0.0169677734375,1.078125,36.02000045776367,0.0,125.0,2.528839111328125,-0.131591796875,Closing,0.0,0.0,0.0,0.0,0.0,0.0,0.0,0.0,
2.1546659999999975,0.0,0.0,16844.0,0.375,30.0,0.0,0.0,0.25,0.809326089,0.01,0.0012207029999995456,-50580.0,1.125,-37.5,-0.0,0.0,0.125,0.532226508,0.01,0.0,46461.0,0.125,37.5,0.0,0.0,0.125,3.392333637,0.01,0.0,-65537.0,0.5,-45.0,-0.0,0.0,0.125,1.622314287,0.01,0.0,0.27000001072883606,-4.019999980926514,158.7100067138672,-0.03216552734375,0.023193359375,1.13458251953125,36.029998779296875,0.0,-37.0,2.5576171875,-0.1038360595703125,Closing,0.0,0.0,0.0,0.0,0.0,0.0,0.0,0.0,
2.234667000000016,0.0,0.0,16834.0,0.125,-52.5,0.0,0.0,0.125,0.806884683,0.01,0.0,-50574.0,0.5,45.0,-0.0,0.0,0.125,0.531005805,0.01,-0.0012207029999995456,46461.0,0.125,0.0,0.0,0.0,0.125,3.392333637,0.01,0.0,-65536.0,0.375,0.0,-0.0,0.0,0.125,1.622314287,0.01,0.0,0.28999999165534973,-3.8299999237060547,158.74000549316406,0.0220947265625,-0.00201416015625,1.0792236328125,36.029998779296875,0.0,-90.0,2.5852203369140625,-0.093017578125,Closing,0.0,0.0,0.0,0.0,0.0,0.0,0.0,0.0,
2.315258000000002,0.0,0.0,16834.0,0.125,-45.0,0.0,0.0,0.125,0.808105386,0.01,0.0,-50574.0,0.5,45.0,-0.0,0.0,0.125,0.527343696,0.01,0.0,46461.0,0.0,0.0,0.0,0.0,0.125,3.388671528,0.01,0.0,-65535.0,0.375,0.0,-0.0,0.0,0.125,1.622314287,0.01,0.0,0.3100000023841858,-3.5399999618530273,158.7100067138672,0.02679443359375,0.0089111328125,0.99908447265625,36.029998779296875,0.0,-81.0,2.61541748046875,-0.0941619873046875,Closing,0.0,0.0,0.0,0.0,0.0,0.0,0.0,0.125,
2.394341000000015,0.0,0.0,16827.0,0.125,-45.0,420.0,0.0,1.125,0.850829991,0.5498168668524888,-0.0012207029999995456,-50568.0,0.25,7.5,-420.0,0.0,8.25,0.6091307970000001,1.9285545897722227,0.0012207029999995456,46461.0,1.0,7.5,420.0,0.0,1.875,3.305663724,4.389674732977289,-0.004882811999999959,-65535.0,0.375,0.0,-420.0,0.0,6.75,1.496581878,3.0316872062785585,-0.0012207030000004337,0.33000001311302185,-3.2699999809265137,158.75,0.05426025390625,0.0303955078125,1.00750732421875,36.029998779296875,0.0,-95.0,2.63800048828125,-0.0964813232421875,Closing,0.0,0.0,0.0,0.0,0.0,0.0,0.0,0.0,
2.4780659999999917,0.0,0.0,16829.0,0.125,0.0,420.0,0.0,1.0,1.1914061280000001,0.5498168668524888,-4.84680179,-50568.0,0.0,0.0,-420.0,0.0,1.25,1.228027218,1.9285545897722227,0.13061522100000023,46467.0,1.25,37.5,420.0,0.0,0.5,2.979736023,4.389674732977289,0.0,-65537.0,0.75,0.0,-420.0,0.0,1.75,0.9057616260000001,3.0316872062785585,-0.14404295399999967,0.30000001192092896,-2.890000104904175,158.74000549316406,0.039794921875,0.0133056640625,1.00103759765625,36.029998779296875,0.0,-81.0,2.6598358154296875,-0.09771728515625,Closing,0.0,0.0,0.0,0.0,0.0,0.0,0.0,0.0,
2.553646000000008,0.0,0.0,16829.0,0.375,37.5,420.0,0.0,0.625,1.380615093,0.5498168668524888,0.3137206709999999,-50568.0,0.25,-60.0,-420.0,0.0,1.75,1.807861143,1.9285545897722227,0.0,46467.0,1.75,67.5,420.0,0.0,0.375,2.775878622,4.389674732977289,0.0,-65535.0,1.625,7.5,-420.0,0.0,2.125,0.31616207700000004,3.0316872062785585,0.0,0.3400000035762787,-2.6700000762939453,158.7100067138672,0.01373291015625,0.0369873046875,0.9908447265625,36.029998779296875,0.0,-44.0,2.6746826171875,-0.098480224609375,Closing,0.0,0.0,0.0,0.0,0.0,0.0,0.0,0.0,
2.6345010000000184,0.0,0.0,16847.0,0.5,150.0,420.0,0.0,0.375,1.437988134,0.5498168668524888,0.19042966800000016,-50583.0,0.375,-127.5,-420.0,0.0,1.5,2.3767087410000003,1.9285545897722227,0.5969237669999998,46481.0,1.875,105.0,420.0,0.0,0.125,2.707519254,4.389674732977289,-0.20019529200000008,-65535.0,2.25,0.0,-420.0,0.0,1.875,4.722899907,3.0316872062785585,-0.5932616580000003,0.30000001192092896,-2.549999952316284,158.30999755859375,-0.0555419921875,-0.02972412109375,1.02325439453125,36.029998779296875,0.0,-3.0,2.6880950927734375,-0.0998077392578125,Closing,0.0,0.0,0.0,0.0,0.0,0.0,0.0,0.0,
2.7115310000000172,0.0,0.0,16864.0,0.75,105.0,420.0,0.0,0.25,1.434326025,0.5498168668524888,0.0,-50614.0,0.5,-187.5,-420.0,0.0,0.25,2.701415739,1.9285545897722227,0.0,46502.0,2.875,127.5,420.0,0.0,0.0,2.6928708180000003,4.389674732977289,0.0,-65543.0,2.75,-60.0,-420.0,0.0,0.5,4.52880813,3.0316872062785585,0.0,0.4099999964237213,-2.640000104904175,157.41000366210938,-0.05999755859375,0.0831298828125,0.95281982421875,35.97999954223633,0.0,43.0,2.688690185546875,-0.1013336181640625,Closing,0.0,0.0,0.0,0.0,0.0,0.0,0.0,0.125,
2.7946659999999977,0.0,0.0,16864.0,1.125,97.5,420.0,0.0,0.25,1.3989256380000001,0.5498168668524888,-0.006103514999999948,-50614.0,0.75,-172.5,-420.0,0.0,0.5,2.7453610470000003,1.9285545897722227,0.3051757500000001,46502.0,3.375,90.0,420.0,0.0,0.125,2.7355954230000004,4.389674732977289,-0.01342773300000033,-65572.0,2.625,-150.0,-420.0,0.0,0.375,4.52880813,3.0316872062785585,-0.19409177700000058,0.5,-2.5799999237060547,156.17999267578125,-0.023193359375,-0.046142578125,1.01983642578125,35.97999954223633,0.0,-43.0,2.68914794921875,-0.1041107177734375,Closing,0.0,0.0,0.0,0.0,0.0,0.0,0.0,0.0,
2.8777119999999994,0.0,0.0,16887.0,1.625,150.0,420.0,0.0,0.25,1.3708494690000002,0.5498168668524888,0.0,-50643.0,1.25,-210.0,-420.0,0.0,0.25,2.662353243,1.9285545897722227,0.0,46511.0,4.25,97.5,420.0,0.0,0.125,2.766112998,4.389674732977289,0.0,-65572.0,2.875,-232.5,-420.0,0.0,0.25,4.556884299,3.0316872062785585,0.0,0.4300000071525574,-2.4600000381469727,154.3699951171875,0.02386474609375,0.07452392578125,1.0810546875,35.97999954223633,0.0,-34.0,2.68719482421875,-0.106719970703125,Closing,0.0,0.0,0.0,0.0,0.0,0.0,0.0,0.0,
2.9546260000000184,0.0,0.0,16914.0,1.875,157.5,420.0,0.0,0.25,1.3696287660000002,0.5498168668524888,0.0,-50678.0,1.5,-217.5,-420.0,0.0,0.25,2.5280759130000003,1.9285545897722227,0.0,46539.0,5.5,172.5,420.0,0.0,0.0,2.77099581,4.389674732977289,0.0,-65614.0,2.875,-270.0,-420.0,0.0,0.25,4.621581558,3.0316872062785585,0.0,0.6100000143051147,-2.309999942779541,152.77000427246094,0.01727294921875,0.06134033203125,1.041259765625,35.97999954223633,0.0,-29.0,2.68475341796875,-0.1103057861328125,Closing,0.0,0.0,0.0,0.0,0.0,0.0,0.0,0.0,
3.0425139999999957,0.0,0.0,16914.0,2.125,195.0,420.0,0.0,0.25,1.3696287660000002,0.5498168668524888,-0.0012207029999999897,-50678.0,1.75,-262.5,-420.0,0.0,0.25,2.4255368610000003,1.9285545897722227,-0.13549803300000018,46571.0,5.5,172.5,420.0,0.0,0.0,2.77099581,4.389674732977289,0.003662108999999525,-65662.0,2.875,-285.0,-420.0,0.0,0.25,4.670409678,3.0316872062785585,0.06835936800000031,0.699999988079071,-2.0799999237060547,150.88999938964844,-0.01708984375,-0.00262451171875,1.07855224609375,35.97999954223633,0.0,-27.0,2.68109130859375,-0.11566162109375,Closing,0.0,0.0,0.0,0.0,0.0,0.0,0.0,0.0,
3.117633999999991,0.0,0.0,16953.0,2.125,277.5,420.0,0.0,0.25,1.3708494690000002,0.5498168668524888,0.0,-50725.0,1.625,-315.0,-420.0,0.0,0.125,2.401122801,1.9285545897722227,0.0,46571.0,5.5,247.5,420.0,0.0,0.0,2.77099581,4.389674732977289,0.0,-65662.0,3.25,-330.0,-420.0,0.0,0.25,4.680175302,3.0316872062785585,0.0,0.699999988079071,-1.840000033378601,148.3699951171875,0.01239013671875,0.04608154296875,1.0673828125,35.97999954223633,0.0,-22.0,2.675567626953125,-0.12152099609375,Closing,0.0,0.0,0.0,0.0,0.0,0.0,0.0,0.125,
3.1978980000000155,0.0,0.0,17016.0,1.875,352.5,420.0,0.0,0.25,1.381835796,0.5498168668524888,-0.0012207029999999897,-50785.0,1.125,-382.5,-420.0,0.0,0.25,2.337646245,1.9285545897722227,-0.028076169000000206,46631.0,4.625,405.0,420.0,0.0,0.0,2.77099581,4.389674732977289,0.0,-65724.0,2.5,-405.0,-420.0,0.0,0.25,4.691161629000001,3.0316872062785585,0.008544920999999484,0.8899999856948853,-1.649999976158142,145.17999267578125,-0.02587890625,-0.04345703125,1.03338623046875,36.04999923706055,0.0,-37.0,2.668701171875,-0.1283721923828125,Closing,0.0,0.0,0.0,0.0,0.0,0.0,0.0,0.125,
3.277377999999997,0.0,0.0,17016.0,1.25,442.5,420.0,0.0,0.25,1.3708494690000002,0.5498168668524888,0.0,-50785.0,1.0,-427.5,-420.0,0.0,0.25,2.3278806210000003,1.9285545897722227,0.0,46631.0,3.375,510.0,420.0,0.0,0.0,2.768554404,4.389674732977289,0.0,-65801.0,2.125,-465.0,-420.0,0.0,0.25,4.680175302,3.0316872062785585,0.0,0.9599999785423279,-1.4600000381469727,140.63999938964844,0.07147216796875,0.050537109375,1.02545166015625,36.04999923706055,0.0,-54.0,2.6656036376953125,-0.1366424560546875,Closing,0.0,0.0,0.0,0.0,0.0,0.0,0.0,0.125,
3.3545709999999964,0.0,0.0,17097.0,0.75,517.5,420.0,0.0,0.25,1.3708494690000002,0.5498168668524888,-0.0012207029999999897,-50858.0,0.5,-487.5,-420.0,0.0,0.25,2.3803708500000003,1.9285545897722227,-0.018310544999999845,46716.0,2.75,555.0,420.0,0.0,0.0,2.77099581,4.389674732977289,0.0,-65801.0,1.875,-487.5,-420.0,0.0,0.25,4.680175302,3.0316872062785585,0.0,1.0399999618530273,-1.340000033378601,136.5800018310547,-0.03125,0.05908203125,1.07501220703125,36.04999923706055,0.0,31.0,2.6644439697265625,-0.145355224609375,Closing,0.0,0.0,0.0,0.0,0.0,0.0,0.0,0.0,
3.434966000000015,0.0,0.0,17185.0,0.5,555.0,420.0,0.0,0.125,1.3708494690000002,0.5498168668524888,0.0,-50936.0,0.375,-480.0,-420.0,0.0,0.25,2.4255368610000003,1.9285545897722227,0.04882812000000003,46808.0,2.125,570.0,420.0,0.0,0.0,2.773437216,4.389674732977289,0.0012207030000004337,-65882.0,1.375,-495.0,-420.0,0.0,0.25,4.680175302,3.0316872062785585,0.0012207030000004337,1.0399999618530273,-1.2400000095367432,132.47000122070312,-0.0513916015625,-0.011962890625,1.02972412109375,36.04999923706055,0.0,-3.0,2.6633148193359375,-0.15435791015625,Closing,0.0,0.0,0.0,0.0,0.0,0.0,0.0,0.0,
3.513463000000018,0.0,0.0,17185.0,0.5,532.5,420.0,0.0,0.25,1.3720701720000001,0.5498168668524888,0.0,-50936.0,0.375,-472.5,-420.0,0.0,0.125,2.4328610790000003,1.9285545897722227,0.0,46808.0,2.0,555.0,420.0,0.0,0.0,2.77099581,4.389674732977289,0.0,-65965.0,1.0,-517.5,-420.0,0.0,0.25,4.678954599,3.0316872062785585,0.0,1.1100000143051147,-1.0700000524520874,127.63999938964844,-0.01776123046875,-0.1085205078125,1.1551513671875,36.04999923706055,0.0,-106.0,2.6614837646484375,-0.1611328125,Closing,0.0,0.0,0.0,0.0,0.0,0.0,0.0,0.0,
3.5930950000000013,0.0,0.0,17267.0,0.375,502.5,420.0,0.0,0.25,1.3708494690000002,0.5498168668524888,0.0024414059999999793,-51010.0,0.375,-450.0,-420.0,0.0,0.0,2.4353024850000002,1.9285545897722227,0.008544920999999928,46897.0,1.875,547.5,420.0,0.0,0.0,2.772216513,4.389674732977289,0.0,-65965.0,0.75,-510.0,-420.0,0.0,0.25,4.68749952,3.0316872062785585,0.0,1.1100000143051147,-0.9200000166893005,123.73999786376953,-0.0350341796875,0.00775146484375,1.10662841796875,36.04999923706055,0.0,-1.0,2.6587982177734375,-0.1607208251953125,Closing,0.0,0.0,0.0,0.0,0.0,0.0,0.0,0.0,
3.663746000000014,0.0,0.0,17343.0,0.375,472.5,420.0,0.0,0.25,1.3708494690000002,0.5498168668524888,0.0,-51082.0,0.375,-450.0,-420.0,0.0,0.0,2.4353024850000002,1.9285545897722227,0.0,46980.0,1.875,525.0,420.0,0.0,0.0,2.773437216,4.389674732977289,0.0,-66047.0,0.75,-510.0,-420.0,0.0,0.25,4.680175302,3.0316872062785585,0.0,1.149999976158142,-0.8299999833106995,119.94999694824219,0.0054931640625,0.0335693359375,1.1676025390625,36.09000015258789,0.0,-2.0,2.6563568115234375,-0.1605377197265625,Closing,0.0,0.0,0.0,0.0,0.0,0.0,0.0,0.0,
3.7526290000000153,0.0,0.0,17343.0,0.125,442.5,0.0,0.0,1.75,1.2963865860000001,0.01,-0.0012207029999999897,-51082.0,0.125,-420.0,-0.0,0.0,9.25,2.420654049,0.01,0.0,46980.0,0.75,487.5,0.0,0.0,1.875,2.878417674,0.01,0.0,-66109.0,0.375,-472.5,-0.0,0.0,7.125,4.916991684,0.01,-0.0012207030000004337,1.149999976158142,-0.699999988079071,115.6500015258789,-0.0379638671875,0.01910400390625,1.02789306640625,36.09000015258789,0.0,9.0,2.6561431884765625,-0.1603851318359375,Closing,0.0,0.0,0.0,0.0,0.0,0.0,0.0,0.125,
3.8343340000000024,0.0,0.0,17390.0,0.125,255.0,0.0,0.0,0.625,0.96435537,0.01,-0.11718748800000012,-51146.0,0.0,-330.0,-0.0,0.0,1.5,1.804199034,0.01,-0.09765624000000006,47049.0,0.375,337.5,0.0,0.0,0.375,3.2092281870000003,0.01,0.0,-66109.0,0.375,-277.5,-0.0,0.0,1.5,0.590820252,0.01,0.260009739,1.0800000429153442,-0.46000000834465027,112.88999938964844,0.1309814453125,0.05255126953125,1.0545654296875,36.09000015258789,0.0,-24.0,2.6552581787109375,-0.1599273681640625,Closing,0.0,0.0,0.0,0.0,0.0,0.0,0.0,0.0,
3.9119890000000015,0.0,0.0,17433.0,0.0,292.5,0.0,0.0,0.375,0.780029217,0.01,-0.31860348299999997,-51165.0,0.0,-150.0,-0.0,0.0,1.5,1.2402342480000002,0.01,-0.581054628,47086.0,0.375,217.5,0.0,0.0,0.25,3.403319964,0.01,0.31616207699999954,-66143.0,0.375,-217.5,-0.0,0.0,1.625,1.173095583,0.01,0.0,1.0800000429153442,-0.44999998807907104,111.9000015258789,-0.11370849609375,0.05242919921875,1.04718017578125,36.09000015258789,0.0,69.0,2.6530303955078125,-0.162628173828125,Closing,0.0,0.0,0.0,0.0,0.0,0.0,0.0,0.0,
3.9913450000000013,0.0,0.0,17433.0,0.125,135.0,0.0,0.0,0.375,0.7495116420000001,0.01,4.772338907,-51165.0,0.0,0.0,-0.0,0.0,1.75,0.653076105,0.01,-0.5834960340000004,47086.0,0.75,120.0,0.0,0.0,0.25,3.4313961330000002,0.01,-4.759735956,-66163.0,0.375,-127.5,-0.0,0.0,1.0,1.699218576,0.01,0.5932616580000003,1.0099999904632568,-0.7400000095367432,111.73999786376953,-0.0675048828125,-0.00958251953125,0.99615478515625,36.09000015258789,0.0,-5.0,2.6516571044921875,-0.16180419921875,Closing,0.0,0.0,0.0,0.0,0.0,0.0,0.0,0.0,
4.082133999999991,0.0,0.0,17441.0,0.125,15.0,0.0,0.0,0.375,0.715331958,0.01,0.0,-51165.0,0.125,0.0,-0.0,0.0,0.25,0.44677729800000004,0.01,0.0,47099.0,0.875,7.5,0.0,0.0,0.125,3.39355434,0.01,0.0,-66163.0,0.375,-90.0,-0.0,0.0,0.5,1.728515448,0.01,0.0,0.949999988079071,-0.7699999809265137,111.83999633789062,0.01873779296875,0.0350341796875,1.01361083984375,36.09000015258789,0.0,4.0,2.6514892578125,-0.1596221923828125,Closing,0.0,0.0,0.0,0.0,0.0,0.0,0.0,0.0,
4.161285000000004,0.0,0.0,17441.0,0.125,0.0,8.4,0.0,0.25,0.780029217,0.01,0.012207029999999897,-51165.0,0.125,0.0,-8.4,0.0,0.25,0.456542922,0.01,0.0,47099.0,1.0,0.0,8.4,0.0,0.125,3.3630367650000004,0.01,-0.037841793000000123,-66169.0,0.375,-22.5,-8.4,0.0,0.25,1.6613767830000001,0.01,0.0,0.9599999785423279,-0.699999988079071,111.80999755859375,-0.01416015625,-0.00823974609375,1.0372314453125,36.09000015258789,0.0,-23.0,2.6514739990234375,-0.160064697265625,Closing,0.0,0.0,0.0,0.0,0.0,0.0,0.0,0.0,
4.237842000000004,0.0,0.0,17441.0,0.125,0.0,8.4,0.0,0.25,0.783691326,0.01,0.014648435999999876,-51165.0,0.125,0.0,-8.4,0.0,0.25,0.47363276400000004,0.01,0.009765623999999917,47099.0,1.0,0.0,8.4,0.0,0.125,3.359374656,0.01,-0.03417968399999971,-66178.0,0.375,-37.5,-8.4,0.0,0.25,1.640624832,0.01,-0.06713866499999988,0.9100000262260437,-0.699999988079071,111.80999755859375,-0.0145263671875,0.0216064453125,1.026123046875,36.130001068115234,0.0,5.0,2.651336669921875,-0.160064697265625,Closing,0.0,0.0,0.0,0.0,0.0,0.0,0.0,0.0,
4.313682000000001,0.0,0.0,17441.0,0.125,0.0,8.4,0.0,0.25,0.7897948410000001,0.01,0.0,-51165.0,0.125,0.0,-8.4,0.0,0.25,0.489501903,0.01,0.0,47100.0,1.0,0.0,8.4,0.0,0.0,3.359374656,0.01,0.0,-66178.0,0.375,-52.5,-8.4,0.0,0.125,1.6369627230000001,0.01,0.0,0.9100000262260437,-0.6800000071525574,111.83000183105469,-0.01763916015625,-0.00665283203125,1.03662109375,36.130001068115234,0.0,-19.0,2.651336669921875,-0.160064697265625,Closing,0.0,0.0,0.0,0.0,0.0,0.0,0.0,0.0,
4.401,0.0,0.0,17443.0,0.125,7.5,0.0,0.0,0.25,0.7897948410000001,0.01,0.0,-51165.0,0.125,0.0,-0.0,0.0,0.25,0.4882812,0.01,0.01586913900000031,47100.0,1.0,0.0,0.0,0.0,0.0,3.358153953,0.01,0.0,-66178.0,0.375,0.0,-0.0,0.0,0.125,1.6369627230000001,0.01,-0.004882811999999959,0.8899999856948853,-0.6800000071525574,111.83999633789062,-0.01116943359375,0.0191650390625,1.019287109375,36.130001068115234,0.0,2.0,2.651336669921875,-0.160064697265625,Closing,0.0,0.0,0.0,0.0,0.0,0.0,0.0,0.0,
4.485684000000008,0.0,0.0,17443.0,5.75,127.5,1260.0,0.0,0.25,0.7885741380000001,0.01,0.0,-51203.0,8.5,-142.5,-1260.0,0.0,0.25,0.51269526,0.01,0.0,47105.0,10.625,7.5,1260.0,0.0,0.0,3.343505517,0.01,0.0,-66191.0,8.125,-45.0,-1260.0,0.0,0.125,1.640624832,0.01,0.0,0.9200000166893005,-0.20000000298023224,111.86000061035156,0.742431640625,-4.2724609375E-4,0.9635009765625,36.130001068115234,0.0,-292.0,2.650604248046875,-0.160888671875,Closing,0.0,0.0,0.0,0.0,0.0,0.0,0.0,0.0,
4.565690000000003,0.0,0.0,17481.0,8.0,307.5,1260.0,0.0,0.25,0.7885741380000001,0.01,0.0,-51203.0,11.75,-360.0,-1260.0,0.0,0.0,0.51269526,0.01,0.0,47105.0,18.25,135.0,1260.0,0.0,0.0,3.34472622,0.01,-0.014648435999999876,-66191.0,13.5,-217.5,-1260.0,0.0,0.25,1.6552732680000002,0.01,0.0,0.9200000166893005,0.6800000071525574,111.94000244140625,0.26361083984375,0.05792236328125,0.9259033203125,36.130001068115234,0.0,-54.0,2.6443634033203125,-0.1705322265625,Closing,0.0,0.0,0.0,0.0,0.0,0.0,0.0,0.0,
4.644391000000003,0.0,0.0,17559.0,9.375,412.5,1260.0,0.0,0.25,0.7897948410000001,0.01,0.0,-51274.0,13.25,-457.5,-1260.0,0.0,0.0,0.511474557,0.01,0.0,47144.0,20.625,247.5,1260.0,0.0,0.0,3.343505517,0.01,0.0,-66256.0,13.625,-472.5,-1260.0,0.0,0.25,1.6564939710000002,0.01,0.010986327000000129,0.9700000286102295,1.659999966621399,111.93000030517578,0.2271728515625,0.10406494140625,0.92144775390625,36.130001068115234,0.0,7.0,2.635223388671875,-0.1892852783203125,Closing,0.0,0.0,0.0,0.0,0.0,0.0,0.0,0.0,
4.719258000000002,0.0,0.0,17559.0,8.75,697.5,1260.0,0.0,0.25,0.7885741380000001,0.01,0.0,-51414.0,11.625,-772.5,-1260.0,0.0,0.0,0.51269526,0.01,0.0,47238.0,22.5,495.0,1260.0,0.0,0.0,3.34472622,0.01,0.0,-66380.0,12.5,-750.0,-1260.0,0.0,0.25,1.6564939710000002,0.01,0.0,1.0299999713897705,2.4200000762939453,111.94000244140625,0.18621826171875,0.07318115234375,1.0191650390625,36.11000061035156,0.0,-2.0,2.6217498779296875,-0.2220306396484375,Closing,0.0,0.0,0.0,0.0,0.0,0.0,0.0,0.0,
4.800564000000013,0.0,0.0,17700.0,7.25,952.5,1260.0,0.0,0.25,0.7885741380000001,0.01,0.0,-51414.0,9.5,-990.0,-1260.0,0.0,0.0,0.522460884,0.01,0.003662109000000413,47238.0,22.625,652.5,1260.0,0.0,0.0,3.343505517,0.01,0.0,-66380.0,11.0,-922.5,-1260.0,0.0,0.25,1.6564939710000002,0.01,0.0,1.059999942779541,2.8499999046325684,111.93000030517578,0.14764404296875,-0.13873291015625,0.99298095703125,36.11000061035156,0.0,-182.0,2.609100341796875,-0.2555084228515625,Closing,0.0,0.0,0.0,0.0,0.0,0.0,0.0,0.0,
4.890206000000005,0.0,0.0,17886.0,5.5,1147.5,1260.0,0.0,0.25,0.7897948410000001,0.01,-0.0012207029999995456,-51596.0,7.25,-1155.0,-1260.0,0.0,0.0,0.522460884,0.01,0.004882811999999959,47358.0,22.625,772.5,1260.0,0.0,0.0,3.34472622,0.01,0.0,-66556.0,8.375,-1162.5,-1260.0,0.0,0.25,1.6564939710000002,0.01,0.0012207029999999897,0.9599999785423279,3.3299999237060547,111.77999877929688,-0.028076171875,-0.1046142578125,0.60723876953125,36.11000061035156,0.0,-83.0,2.5924224853515625,-0.2996368408203125,Closing,0.0,0.0,0.0,0.0,0.0,0.0,0.0,0.0,
4.969876000000019,0.0,0.0,17886.0,4.0,1305.0,1260.0,0.0,0.25,0.799560465,0.01,0.0,-51810.0,5.125,-1290.0,-1260.0,0.0,0.0,0.522460884,0.01,0.0,47506.0,23.0,922.5,1260.0,0.0,0.0,3.343505517,0.01,0.0,-66768.0,6.875,-1305.0,-1260.0,0.0,0.25,1.6552732680000002,0.01,0.0,0.9599999785423279,3.4600000381469727,111.6500015258789,0.12432861328125,-0.03900146484375,1.18170166015625,36.11000061035156,0.0,-74.0,2.5715484619140625,-0.3539276123046875,Closing,0.0,0.0,0.0,0.0,0.0,0.0,0.0,0.0,
5.060773000000015,0.0,0.0,18103.0,2.625,1402.5,1260.0,0.0,0.25,0.782470623,0.01,0.0,-51810.0,2.75,-1432.5,-1260.0,0.0,0.0,0.5163573690000001,0.01,0.0,47506.0,22.375,1065.0,1260.0,0.0,0.0,3.34472622,0.01,0.0,-66768.0,4.75,-1432.5,-1260.0,0.0,0.25,1.6564939710000002,0.01,0.0,1.0099999904632568,3.609999895095825,111.56999969482422,0.15008544921875,-0.15667724609375,0.8363037109375,36.11000061035156,0.0,-195.0,2.5524444580078125,-0.4026031494140625,Closing,0.0,0.0,0.0,0.0,0.0,0.0,0.0,0.125,
5.148583000000014,0.0,0.0,18343.0,1.125,1507.5,1260.0,0.0,0.25,0.7897948410000001,0.01,0.0,-52042.0,2.0,-1462.5,-1260.0,0.0,0.0,0.522460884,0.01,0.0,47704.0,17.75,1440.0,1260.0,0.0,0.0,3.34472622,0.01,0.0,-67002.0,3.125,-1492.5,-1260.0,0.0,0.25,1.6564939710000002,0.01,0.0,0.8999999761581421,3.5899999141693115,111.25,0.156005859375,0.30029296875,0.7796630859375,36.11000061035156,0.0,229.0,2.5350494384765625,-0.4427032470703125,Closing,0.0,0.0,0.0,0.0,0.0,0.0,0.0,0.0,
5.23202900000001,0.0,0.0,18591.0,0.5,1552.5,1260.0,0.0,0.25,0.794677653,0.01,0.0,-52281.0,1.125,-1500.0,-1260.0,0.0,0.0,0.522460884,0.01,0.0,47949.0,12.75,1530.0,1260.0,0.0,0.0,3.343505517,0.01,0.0,-67240.0,2.5,-1485.0,-1260.0,0.0,0.25,1.6564939710000002,0.01,0.0,0.9300000071525574,3.2899999618530273,110.83000183105469,0.142578125,0.01739501953125,1.14691162109375,36.0,0.0,-28.0,2.51544189453125,-0.48968505859375,Closing,0.0,0.0,0.0,0.0,0.0,0.0,0.0,0.0,
5.314969000000012,0.0,0.0,18591.0,0.375,1470.0,1260.0,0.0,0.25,0.8044432770000001,0.01,0.0,-52281.0,1.0,-1432.5,-1260.0,0.0,0.0,0.522460884,0.01,0.0,48203.0,10.625,1560.0,1260.0,0.0,0.0,3.343505517,0.01,0.0,-67473.0,2.0,-1417.5,-1260.0,0.0,0.25,1.650390456,0.01,0.0,0.8199999928474426,3.200000047683716,110.58000183105469,0.0457763671875,0.00396728515625,1.0341796875,36.0,0.0,-5.0,2.4989013671875,-0.5281524658203125,Closing,0.0,0.0,0.0,0.0,0.0,0.0,0.0,0.0,
5.398360000000015,0.0,0.0,18830.0,0.375,1507.5,1260.0,0.0,0.125,0.799560465,0.01,0.008544921000000372,-52511.0,0.5,-1462.5,-1260.0,0.0,0.0,0.522460884,0.01,0.0,48203.0,9.125,1582.5,1260.0,0.0,0.0,3.34472622,0.01,0.0,-67473.0,1.25,-1522.5,-1260.0,0.0,0.25,1.6552732680000002,0.01,-0.004882812000000181,0.9700000286102295,2.9200000762939453,110.36000061035156,0.2926025390625,0.0316162109375,1.1553955078125,36.0,0.0,-70.0,2.482269287109375,-0.5636749267578125,Closing,0.0,0.0,0.0,0.0,0.0,0.0,0.0,0.0,
5.4780679999999995,0.0,0.0,19069.0,1.375,1537.5,0.0,0.0,0.25,0.808105386,0.01,0.0,-52747.0,1.25,-1477.5,-0.0,0.0,0.0,0.522460884,0.01,0.0,48452.0,0.375,1477.5,0.0,0.0,0.0,3.348388329,0.01,0.0,-67712.0,0.625,-1447.5,-0.0,0.0,0.25,1.593017415,0.01,0.0,0.8700000047683716,2.0199999809265137,109.9000015258789,-0.431396484375,0.19989013671875,1.70709228515625,36.0,0.0,330.0,2.4639739990234375,-0.600677490234375,Closing,0.0,0.0,0.0,0.0,0.0,0.0,0.0,0.0,
5.568021999999997,0.0,0.0,19250.0,1.25,1222.5,420.0,0.0,0.25,0.808105386,0.01,0.0,-52926.0,1.125,-1140.0,-420.0,0.0,0.0,0.522460884,0.01,0.0,48616.0,0.375,1057.5,420.0,0.0,0.0,3.3752437950000003,0.01,0.0,-67905.0,0.25,-1177.5,-420.0,0.0,0.25,1.6552732680000002,0.01,0.0,0.7900000214576721,0.7099999785423279,109.48999786376953,-0.11737060546875,0.05523681640625,1.260986328125,36.0,0.0,79.0,2.4524993896484375,-0.6255035400390625,Closing,0.0,0.0,0.0,0.0,0.0,0.0,0.0,0.0,
5.671005999999994,0.0,0.0,19365.0,4.5,742.5,NaN,0.0,0.25,0.808105386,NaN,0.0,-53049.0,4.875,-705.0,NaN,0.0,0.0,0.521240181,NaN,0.0,48762.0,0.125,870.0,NaN,0.0,0.0,3.3740230920000003,NaN,0.0,-68025.0,2.5,-667.5,NaN,0.0,0.125,1.588134603,NaN,0.0,0.7799999713897705,-1.2999999523162842,109.23999786376953,-0.330078125,-0.01116943359375,1.1727294921875,35.90999984741211,0.0,74.0,2.445404052734375,-0.6341400146484375,Closing,0.0,0.0,0.0,0.0,0.0,0.0,0.0,0.0,
5.817255000000005,0.0,0.0,19412.0,3.0,292.5,NaN,0.0,0.125,0.812988198,NaN,0.0,-53102.0,3.0,-262.5,NaN,0.0,0.0,0.522460884,NaN,0.0,48844.0,0.125,427.5,NaN,0.0,0.0,3.3740230920000003,NaN,0.0,-68082.0,1.625,-285.0,NaN,0.0,0.125,1.593017415,NaN,0.0,0.7400000095367432,-2.6600000858306885,109.06999969482422,-0.25421142578125,0.01678466796875,0.9739990234375,35.90999984741211,0.0,72.0,2.4466705322265625,-0.61474609375,Closing,0.0,0.0,0.0,0.0,0.0,0.0,0.0,0.0,
5.928273000000016,0.0,0.0,19412.0,1.625,37.5,NaN,0.0,0.25,0.808105386,NaN,0.0,-53106.0,1.625,-52.5,NaN,0.0,0.0,0.51269526,NaN,0.0,48854.0,0.375,97.5,NaN,0.0,0.0,3.3691402800000003,NaN,0.0,-68088.0,0.75,-22.5,NaN,0.0,0.125,1.589355306,NaN,0.0,0.699999988079071,-3.0799999237060547,109.2300033569336,-0.0321044921875,0.014404296875,1.04278564453125,35.90999984741211,0.0,-6.0,2.4503173828125,-0.5937042236328125,Closing,0.0,0.0,0.0,0.0,0.0,0.0,0.0,0.0,
6.030016999999993,0.0,0.0,19408.0,0.75,-82.5,NaN,0.0,0.25,0.808105386,NaN,0.0,-53094.0,0.75,67.5,NaN,0.0,0.0,0.507812448,NaN,0.0,48852.0,0.75,0.0,NaN,0.0,0.0,3.349609032,NaN,0.0,-68077.0,0.5,60.0,NaN,0.0,0.125,1.5808103850000002,NaN,0.0,0.7300000190734863,-2.75,109.19999694824219,0.025634765625,0.003662109375,0.9427490234375,35.90999984741211,0.0,-31.0,2.450347900390625,-0.59637451171875,Closing,0.0,0.0,0.0,0.0,0.0,0.0,0.0,0.0,
6.128526000000012,0.0,0.0,19395.0,0.625,-45.0,NaN,0.0,0.25,0.806884683,NaN,0.0,-53094.0,0.75,45.0,NaN,0.0,0.0,0.498046824,NaN,0.0,48852.0,0.875,-37.5,NaN,0.0,0.0,3.349609032,NaN,0.0,-68071.0,0.375,52.5,NaN,0.0,0.125,1.591796712,NaN,0.0,0.6800000071525574,-2.3499999046325684,109.23999786376953,0.033935546875,0.02923583984375,1.027587890625,35.90999984741211,0.0,-9.0,2.4485626220703125,-0.606109619140625,Closing,0.0,0.0,0.0,0.0,0.0,0.0,0.0,0.0,
6.243937999999995,0.0,0.0,19391.0,1.0,-7.5,NaN,0.0,0.125,0.808105386,NaN,0.0012207029999995456,-53090.0,1.0,0.0,NaN,0.0,0.0,0.5029296360000001,NaN,-0.009765623999999917,48846.0,0.875,-7.5,NaN,0.0,0.0,3.349609032,NaN,0.0,-68071.0,0.375,0.0,NaN,0.0,0.125,1.589355306,NaN,0.0,0.6700000166893005,-2.2200000286102295,109.20999908447266,-0.03997802734375,-0.00811767578125,1.02886962890625,35.900001525878906,0.0,-19.0,2.4483795166015625,-0.61492919921875,Closing,0.0,0.0,0.0,0.0,0.0,0.0,0.0,0.125,
6.328657000000007,0.0,0.0,19391.0,1.0,0.0,NaN,0.0,0.25,0.8007811680000001,NaN,0.0,-53090.0,1.0,0.0,NaN,0.0,0.0,0.49926752700000004,NaN,0.0,48846.0,0.875,0.0,NaN,0.0,0.0,3.348388329,NaN,0.0,-68071.0,0.5,0.0,NaN,0.0,0.125,1.588134603,NaN,0.0,0.6600000262260437,-2.069999933242798,109.2300033569336,-0.01605224609375,-0.00665283203125,1.05126953125,35.900001525878906,0.0,-25.0,2.4483489990234375,-0.615936279296875,Closing,0.0,0.0,0.0,0.0,0.0,0.0,0.0,0.0,
6.445790000000009,0.0,0.0,19391.0,1.0,0.0,NaN,0.0,0.25,0.806884683,NaN,0.0012207029999995456,-53090.0,1.0,0.0,NaN,0.0,0.0,0.498046824,NaN,-0.0012207030000004337,48846.0,0.875,0.0,NaN,0.0,0.0,3.348388329,NaN,0.0,-68071.0,0.5,0.0,NaN,0.0,0.125,1.5869139,NaN,0.0,0.6399999856948853,-1.9900000095367432,109.23999786376953,-0.003173828125,0.02862548828125,1.00634765625,35.900001525878906,0.0,5.0,2.447967529296875,-0.6164398193359375,Closing,0.0,0.0,0.0,0.0,0.0,0.0,0.0,0.0,
6.591266999999992,0.0,0.0,19391.0,1.25,0.0,NaN,0.0,0.25,0.808105386,NaN,0.0012207029999995456,-53090.0,1.0,0.0,NaN,0.0,0.0,0.498046824,NaN,0.0,48846.0,0.875,0.0,NaN,0.0,0.0,3.348388329,NaN,0.0,-68071.0,0.5,0.0,NaN,0.0,0.125,1.588134603,NaN,0.0,0.6200000047683716,-1.8300000429153442,109.2300033569336,-0.01190185546875,0.020751953125,1.007080078125,35.900001525878906,0.0,2.0,2.44781494140625,-0.6180419921875,Closing,0.0,0.0,0.0,0.0,0.0,0.0,0.0,0.0,
6.670353000000003,0.0,0.0,19393.0,0.125,7.5,420.0,0.0,0.125,0.808105386,4.932114068287955,0.0,-53090.0,0.25,0.0,-420.0,0.0,0.0,0.498046824,4.96363219324112,0.0,48847.0,2.75,0.0,420.0,0.0,0.0,3.349609032,4.9402628420511885,0.0,-68071.0,0.375,0.0,-420.0,0.0,0.25,1.588134603,4.957862353430854,0.0,0.6200000047683716,-1.6699999570846558,109.19999694824219,0.009765625,0.0047607421875,1.020751953125,35.900001525878906,0.0,-18.0,2.44757080078125,-0.619354248046875,Closing,0.0,0.0,0.0,0.0,0.0,0.0,0.0,0.0,
6.751910999999993,0.0,0.0,19393.0,0.125,22.5,420.00000000000006,0.0,0.25,0.808105386,4.931702959567748,0.0012207029999995456,-53090.0,0.0,0.0,-420.00000000000006,0.0,0.0,0.498046824,4.96321845737648,0.0,48847.0,4.25,15.0,420.00000000000006,0.0,0.0,3.343505517,4.93985105410258,0.0,-68084.0,0.375,-30.0,-420.00000000000006,0.0,0.25,1.588134603,4.9574490985022654,0.0,0.6200000047683716,-1.5800000429153442,109.16999816894531,-0.00299072265625,0.0076904296875,0.99957275390625,35.88999938964844,0.0,-11.0,2.44744873046875,-0.6218414306640625,Closing,0.0,0.0,0.0,0.0,0.0,0.0,0.0,0.0,
6.829619000000006,0.0,0.0,19397.0,0.125,22.5,420.0,0.0,0.25,0.808105386,4.931291955375565,0.0,-53092.0,0.25,-30.0,-420.0,0.0,0.0,0.49194330900000005,4.96280482670784,0.0,48851.0,5.625,30.0,420.0,0.0,0.0,3.34472622,4.9394393708546955,0.0,-68084.0,0.375,-150.0,-420.0,0.0,0.25,1.5832517910000001,4.957035948647393,0.0,0.6100000143051147,-1.4500000476837158,109.19999694824219,0.041015625,0.00250244140625,1.0439453125,35.88999938964844,0.0,-30.0,2.4471893310546875,-0.625396728515625,Closing,0.0,0.0,0.0,0.0,0.0,0.0,0.0,0.0,
6.910320000000007,0.0,0.0,19415.0,0.125,97.5,420.00000000000006,0.0,0.125,0.8142089010000001,4.931702959567748,0.0,-53105.0,0.5,-90.0,-420.00000000000006,0.0,0.0,0.498046824,4.96321845737648,0.0,48859.0,6.375,52.5,420.00000000000006,0.0,0.0,3.34472622,4.93985105410258,-0.003662108999999525,-68104.0,0.625,-97.5,-420.00000000000006,0.0,0.25,1.596679524,4.9574490985022654,0.0,0.6100000143051147,-1.2799999713897705,109.16000366210938,-0.00115966796875,0.01177978515625,1.034912109375,35.88999938964844,0.0,-6.0,2.446563720703125,-0.6316986083984375,Closing,0.0,0.0,0.0,0.0,0.0,0.0,0.0,0.125,
6.998116000000009,0.0,0.0,19415.0,0.125,150.0,420.00000000000006,0.0,0.125,0.8300780400000001,4.931155023663521,0.0012207029999995456,-53105.0,0.5,-195.0,-420.00000000000006,0.0,0.0,0.5029296360000001,4.9626670199489595,0.0,48859.0,8.375,90.0,420.00000000000006,0.0,0.0,3.343505517,4.939302212905884,0.0,-68121.0,1.25,-90.0,-420.00000000000006,0.0,0.25,1.6320799110000002,4.956898302078247,0.009765623999999917,0.6000000238418579,-1.1399999856948853,109.18000030517578,0.05084228515625,-0.01031494140625,0.98577880859375,35.88999938964844,0.0,-42.0,2.4464111328125,-0.6370086669921875,Closing,0.0,0.0,0.0,0.0,0.0,0.0,0.0,0.0,
7.075336999999999,0.0,0.0,19445.0,0.125,180.0,0.0,0.0,0.25,0.808105386,0.01,0.0,-53138.0,0.125,-127.5,-0.0,0.0,0.125,0.507812448,0.01,0.0,48876.0,3.875,127.5,0.0,0.0,0.0,3.343505517,0.01,0.0,-68121.0,0.375,-112.5,-0.0,0.0,0.125,1.6369627230000001,0.01,0.0,0.6100000143051147,-0.9200000166893005,109.12999725341797,0.0113525390625,0.0145263671875,1.015380859375,35.88999938964844,0.0,-5.0,2.4455108642578125,-0.6478118896484375,Closing,0.0,0.0,0.0,0.0,0.0,0.0,0.0,0.125,
7.160760999999999,0.0,0.0,19451.0,0.0,60.0,0.0,0.0,0.125,0.806884683,0.01,-0.0012207029999995456,-53142.0,0.0,-15.0,-0.0,0.0,0.0,0.51269526,0.01,0.004882811999999959,48901.0,3.375,150.0,0.0,0.0,0.0,3.34472622,0.01,0.0,-68140.0,0.375,-112.5,-0.0,0.0,0.125,1.640624832,0.01,0.004882811999999959,0.6000000238418579,-0.8899999856948853,109.08999633789062,-0.02471923828125,0.0157470703125,1.00714111328125,35.88999938964844,0.0,7.0,2.44537353515625,-0.65576171875,Closing,0.0,0.0,0.0,0.0,0.0,0.0,0.0,0.0,
7.238268000000011,0.0,0.0,19451.0,0.375,75.0,420.0,0.0,0.375,0.7897948410000001,2.4661255000000026,0.0,-53142.0,0.75,-127.5,-420.0,0.0,4.0,0.51269526,2.4818850000000023,0.0,48928.0,6.5,157.5,420.0,0.0,5.5,3.082275075,2.470199999999998,0.0,-68166.0,0.75,-97.5,-420.0,0.0,5.5,1.6601560800000001,2.4789999999999974,0.0,0.6200000047683716,-1.0099999904632568,109.11000061035156,-0.07635498046875,0.04986572265625,1.19183349609375,35.93000030517578,0.0,52.0,2.4463653564453125,-0.653778076171875,Closing,0.0,0.0,0.0,0.0,0.0,0.0,0.0,0.125,
7.315296000000002,0.0,0.0,19489.0,0.375,262.5,420.0,0.0,2.375,0.31005856200000004,2.4661255000000026,-0.04150390199999965,-53182.0,0.625,-292.5,-420.0,0.0,5.75,0.968017479,2.4818850000000023,0.01586913900000031,48928.0,7.375,217.5,420.0,0.0,1.125,2.504882556,2.470199999999998,-0.28320309600000027,-68166.0,1.375,-232.5,-420.0,0.0,2.125,2.242431411,2.4789999999999974,0.0,0.5600000023841858,-0.8100000023841858,109.08000183105469,0.07403564453125,-0.0057373046875,1.23028564453125,35.93000030517578,0.0,-46.0,2.446746826171875,-0.6527862548828125,Closing,0.0,0.0,0.0,0.0,0.0,0.0,0.0,0.0,
7.394554999999993,0.0,0.0,19529.0,0.125,292.5,420.0,0.0,1.875,4.666747569,2.4661255000000026,-0.5346679140000008,-53214.0,0.875,-187.5,-420.0,0.0,1.5,1.5783689790000002,2.4818850000000023,0.5053710420000002,48973.0,7.375,285.0,420.0,0.0,1.125,1.932372849,2.470199999999998,0.0,-68199.0,1.875,-180.0,-420.0,0.0,1.25,2.834472366,2.4789999999999974,0.5639647860000001,0.4399999976158142,-1.2400000095367432,108.91000366210938,-0.28741455078125,0.04718017578125,1.11541748046875,35.93000030517578,0.0,121.0,2.4468536376953125,-0.6505584716796875,Closing,0.0,0.0,0.0,0.0,0.0,0.0,0.0,0.0,
7.474130000000005,0.0,0.0,19529.0,0.875,127.5,420.0,0.0,2.125,4.121093328000001,2.4661255000000026,0.0,-53214.0,2.5,-135.0,-420.0,0.0,1.5,2.1655271220000003,2.4818850000000023,0.0,48973.0,8.0,247.5,420.0,0.0,1.125,1.353759627,2.470199999999998,-0.579833925,-68206.0,3.5,-45.0,-420.0,0.0,1.375,3.435058242,2.4789999999999974,0.0,0.5199999809265137,-1.5,108.66999816894531,0.02984619140625,-0.0213623046875,1.01318359375,35.93000030517578,0.0,-47.0,2.4488525390625,-0.640838623046875,Closing,0.0,0.0,0.0,0.0,0.0,0.0,0.0,0.0,
7.553690000000002,0.0,0.0,19543.0,1.625,90.0,420.0,0.0,1.625,3.6242672070000004,2.4661255000000026,-0.5505370529999993,-53228.0,3.875,-82.5,-420.0,0.0,1.0,2.707519254,2.4818850000000023,0.5932616579999999,49006.0,10.375,187.5,420.0,0.0,1.375,0.8544921000000001,2.470199999999998,-0.5676268950000001,-68206.0,4.875,-75.0,-420.0,0.0,1.375,3.929442957,2.4789999999999974,0.6030272819999998,0.6299999952316284,-1.4299999475479126,108.77999877929688,-0.05810546875,0.0311279296875,1.07574462890625,35.93000030517578,0.0,28.0,2.4503936767578125,-0.6335296630859375,Closing,0.0,0.0,0.0,0.0,0.0,0.0,0.0,0.0,
7.62887400000001,0.0,0.0,19565.0,2.0,120.0,420.0,0.0,0.5,3.3105465360000004,2.4661255000000026,0.0,-53243.0,5.0,-90.0,-420.0,0.0,0.5,3.033446955,2.4818850000000023,0.0,49036.0,11.25,180.0,420.0,0.0,0.125,0.677490165,2.470199999999998,0.0,-68226.0,5.0,-120.0,-420.0,0.0,0.375,4.145507388,2.4789999999999974,0.0,0.6399999856948853,-1.840000033378601,109.12000274658203,-0.13006591796875,0.0721435546875,1.2088623046875,35.93000030517578,0.0,85.0,2.4527130126953125,-0.6242828369140625,Closing,0.0,0.0,0.0,0.0,0.0,0.0,0.0,0.0,
7.70849900000001,0.0,0.0,19565.0,1.875,210.0,420.0,0.0,0.25,3.192138345,2.4661255000000026,-0.26733395699999996,-53243.0,5.375,-157.5,-420.0,0.0,0.25,3.144530928,2.4818850000000023,0.29052731399999976,49036.0,10.625,232.5,420.0,0.0,0.125,0.662841729,2.470199999999998,-0.15380857800000003,-68226.0,5.25,-195.0,-420.0,0.0,0.25,4.196776914,2.4789999999999974,0.20751951000000002,0.6499999761581421,-2.240000009536743,109.4000015258789,-0.1337890625,-0.03216552734375,1.08709716796875,35.93000030517578,0.0,-11.0,2.4567413330078125,-0.61126708984375,Closing,0.0,0.0,0.0,0.0,0.0,0.0,0.0,0.0,
7.787762000000017,0.0,0.0,19625.0,1.25,390.0,420.0,0.0,0.375,3.182372721,2.4661255000000026,0.0,-53286.0,4.25,-330.0,-420.0,0.0,0.25,3.14941374,2.4818850000000023,0.0,49085.0,9.75,337.5,420.0,0.0,0.25,0.759277266,2.470199999999998,0.0,-68265.0,4.75,-292.5,-420.0,0.0,0.25,4.205321835,2.4789999999999974,0.0,0.5299999713897705,-2.4000000953674316,109.7300033569336,-0.07080078125,-0.01556396484375,1.06854248046875,35.95000076293945,0.0,-15.0,2.4608917236328125,-0.594573974609375,Closing,0.0,0.0,0.0,0.0,0.0,0.0,0.0,0.0,
7.863940999999992,0.0,0.0,19625.0,0.75,450.0,420.0,0.0,0.375,3.197021157,2.4661255000000026,0.0,-53354.0,3.125,-420.0,-420.0,0.0,0.25,3.129882492,2.4818850000000023,0.004882811999999959,49150.0,8.75,405.0,420.0,0.0,0.25,0.8435057730000001,2.470199999999998,0.09765624000000006,-68329.0,4.0,-390.0,-420.0,0.0,0.5,4.165038636,2.4789999999999974,0.009765623999999917,0.47999998927116394,-2.490000009536743,109.9800033569336,-0.0159912109375,0.09820556640625,0.99615478515625,35.95000076293945,0.0,75.0,2.4616241455078125,-0.572540283203125,Closing,0.0,0.0,0.0,0.0,0.0,0.0,0.0,0.125,
7.947401000000013,0.0,0.0,19697.0,0.5,480.0,420.0,0.0,0.375,3.195800454,2.4661255000000026,0.004882811999999959,-53354.0,2.375,-472.5,-420.0,0.0,0.25,3.079833669,2.4818850000000023,-0.024414059999999793,49150.0,8.5,412.5,420.0,0.0,0.0,0.8569335060000001,2.470199999999998,0.0,-68329.0,3.125,-465.0,-420.0,0.0,0.25,4.116210516000001,2.4789999999999974,-0.04394530799999963,0.5400000214576721,-2.490000009536743,110.06999969482422,0.007080078125,0.04510498046875,1.0714111328125,35.95000076293945,0.0,14.0,2.4619140625,-0.5537261962890625,Closing,0.0,0.0,0.0,0.0,0.0,0.0,0.0,0.125,
8.025209000000002,0.0,0.0,19780.0,0.375,517.5,420.0,0.0,0.375,3.201903969,2.4661255000000026,0.0,-53434.0,1.875,-510.0,-420.0,0.0,0.25,3.0627438270000003,2.4818850000000023,0.0,49215.0,8.875,390.0,420.0,0.0,0.0,0.8569335060000001,2.470199999999998,0.009765624000000361,-68408.0,2.5,-517.5,-420.0,0.0,0.125,4.099120674,2.4789999999999974,0.0,0.6600000262260437,-2.4600000381469727,110.22000122070312,-0.0181884765625,-0.01336669921875,0.8917236328125,35.95000076293945,0.0,-29.0,2.4634552001953125,-0.539031982421875,Closing,0.0,0.0,0.0,0.0,0.0,0.0,0.0,0.0,
8.106947000000014,0.0,0.0,19861.0,0.375,517.5,420.0,0.0,0.375,3.2055660780000004,2.4661255000000026,0.0,-53523.0,1.25,-547.5,-420.0,0.0,0.25,3.0627438270000003,2.4818850000000023,-0.019531247999999835,49282.0,8.875,397.5,420.0,0.0,0.0,0.8581542090000001,2.470199999999998,-0.0012207030000004337,-68498.0,1.875,-562.5,-420.0,0.0,0.125,4.093017159,2.4789999999999974,-0.009765623999999917,0.6100000143051147,-2.4800000190734863,110.3499984741211,-0.05218505859375,-0.02484130859375,0.875244140625,35.95000076293945,0.0,-27.0,2.4646453857421875,-0.5391082763671875,Closing,0.0,0.0,0.0,0.0,0.0,0.0,0.0,0.125,
8.181917000000016,0.0,0.0,19861.0,0.125,510.0,420.0,0.0,0.375,3.2165524050000003,2.4661255000000026,0.0,-53523.0,0.75,-577.5,-420.0,0.0,0.25,3.0615231240000003,2.4818850000000023,0.0,49282.0,8.25,472.5,420.0,0.0,0.0,0.8569335060000001,2.470199999999998,0.0,-68498.0,1.25,-585.0,-420.0,0.0,0.125,4.090575753,2.4789999999999974,0.0,0.550000011920929,-2.4200000762939453,110.5999984741211,-0.05914306640625,0.09613037109375,1.10614013671875,35.95000076293945,0.0,84.0,2.4660797119140625,-0.53955078125,Closing,0.0,0.0,0.0,0.0,0.0,0.0,0.0,0.0,
8.268534000000015,0.0,0.0,19957.0,0.375,615.0,420.0,0.0,0.375,3.2141109990000003,2.4661255000000026,0.008544920999999928,-53617.0,0.5,-577.5,-420.0,0.0,0.25,3.0603024210000003,2.4818850000000023,0.0,49358.0,7.75,457.5,420.0,0.0,0.0,0.8581542090000001,2.470199999999998,0.0,-68593.0,0.75,-585.0,-420.0,0.0,0.125,4.100341377,2.4789999999999974,0.0,0.5699999928474426,-2.259999990463257,110.83000183105469,-0.08154296875,-0.116943359375,1.04376220703125,35.93000030517578,0.0,-104.0,2.468017578125,-0.540130615234375,Closing,0.0,0.0,0.0,0.0,0.0,0.0,0.0,0.0,
8.351144,0.0,0.0,20058.0,0.375,615.0,420.0,0.0,0.375,3.2202145140000002,2.4661255000000026,0.0012207029999999897,-53703.0,0.5,-532.5,-420.0,0.0,0.25,3.0627438270000003,2.4818850000000023,0.0,49436.0,7.75,472.5,420.0,0.0,0.0,0.8569335060000001,2.470199999999998,0.0,-68688.0,0.625,-592.5,-420.0,0.0,0.125,4.097899971,2.4789999999999974,0.004882811999999959,0.550000011920929,-2.119999885559082,111.05000305175781,0.07403564453125,-0.02069091796875,1.07501220703125,35.93000030517578,0.0,-69.0,2.469390869140625,-0.5415496826171875,Closing,0.0,0.0,0.0,0.0,0.0,0.0,0.0,0.0,
8.426613000000012,0.0,0.0,20058.0,0.375,622.5,420.0,0.0,0.25,3.2202145140000002,2.4661255000000026,0.0,-53703.0,0.375,-502.5,-420.0,0.0,0.25,3.0615231240000003,2.4818850000000023,0.0,49436.0,6.5,562.5,420.0,0.0,0.0,0.8557128030000001,2.470199999999998,0.0,-68688.0,0.375,-585.0,-420.0,0.0,0.125,4.099120674,2.4789999999999974,0.0,0.550000011920929,-1.940000057220459,111.30999755859375,0.06060791015625,0.0142822265625,1.1329345703125,35.93000030517578,0.0,-32.0,2.4697265625,-0.545440673828125,Closing,0.0,0.0,0.0,0.0,0.0,0.0,0.0,0.0,
8.507481,0.0,0.0,20158.0,0.25,615.0,420.0,0.0,0.25,3.2202145140000002,2.4661255000000026,0.0,-53786.0,0.25,-540.0,-420.0,0.0,0.25,3.0651852330000002,2.4818850000000023,0.0,49528.0,5.625,585.0,420.0,0.0,0.0,0.8581542090000001,2.470199999999998,0.0,-68780.0,0.375,-547.5,-420.0,0.0,0.125,4.10156208,2.4789999999999974,0.0,0.5799999833106995,-1.850000023841858,111.56999969482422,0.149658203125,-0.09619140625,1.23699951171875,35.93000030517578,0.0,-170.0,2.4692230224609375,-0.550567626953125,Closing,0.0,0.0,0.0,0.0,0.0,0.0,0.0,0.0,
8.588152000000003,0.0,0.0,20248.0,0.125,577.5,420.0,0.0,0.25,3.225097326,2.4661255000000026,0.0,-53872.0,0.125,-540.0,-420.0,0.0,0.25,3.0541989060000003,2.4818850000000023,0.0,49622.0,5.375,577.5,420.0,0.0,0.0,0.8581542090000001,2.470199999999998,0.0,-68864.0,0.375,-525.0,-420.0,0.0,0.125,4.102782783,2.4789999999999974,0.0,0.46000000834465027,-1.6299999952316284,111.75,0.00225830078125,0.05596923828125,1.3837890625,35.93000030517578,0.0,26.0,2.468597412109375,-0.5590667724609375,Closing,0.0,0.0,0.0,0.0,0.0,0.0,0.0,0.0,
8.667390000000013,0.0,0.0,20248.0,0.125,555.0,420.0,0.0,0.25,3.223876623,2.4661255000000026,0.006103514999999948,-53872.0,0.125,-510.0,-420.0,0.0,0.25,3.0627438270000003,2.4818850000000023,-0.0012207029999999897,49622.0,5.125,540.0,420.0,0.0,0.0,0.8532713970000001,2.470199999999998,-0.0012207030000004337,-68864.0,0.375,-510.0,-420.0,0.0,0.125,4.102782783,2.4789999999999974,0.004882811999999959,0.5199999809265137,-1.4299999475479126,111.91999816894531,7.9345703125E-4,0.0115966796875,1.18072509765625,35.93000030517578,0.0,-10.0,2.46826171875,-0.56793212890625,Closing,0.0,0.0,0.0,0.0,0.0,0.0,0.0,0.0,
8.749396999999997,0.0,0.0,20333.0,0.125,525.0,420.0,0.0,0.25,3.2153317020000003,2.4661255000000026,0.0,-53954.0,0.125,-495.0,-420.0,0.0,0.25,3.0627438270000003,2.4818850000000023,0.0,49705.0,5.125,510.0,420.0,0.0,0.0,0.8569335060000001,2.470199999999998,0.0,-68943.0,0.375,-472.5,-420.0,0.0,0.125,4.104003486,2.4789999999999974,0.0,0.46000000834465027,-1.3200000524520874,112.12999725341797,-0.02685546875,-0.03656005859375,1.1239013671875,35.93000030517578,0.0,-41.0,2.4676055908203125,-0.5802001953125,Closing,0.0,0.0,0.0,0.0,0.0,0.0,0.0,0.0,
8.827146999999997,0.0,0.0,20414.0,0.125,510.0,420.0,0.0,0.25,3.223876623,2.4661255000000026,0.0,-54029.0,0.125,-472.5,-420.0,0.0,0.25,3.0615231240000003,2.4818850000000023,0.0,49782.0,5.0,472.5,420.0,0.0,0.0,0.860595615,2.470199999999998,0.0,-69017.0,0.375,-457.5,-420.0,0.0,0.125,4.095458565,2.4789999999999974,0.0,0.5,-1.1799999475479126,112.33999633789062,0.04559326171875,0.047119140625,0.9910888671875,35.900001525878906,0.0,10.0,2.4665069580078125,-0.591705322265625,Closing,0.0,0.0,0.0,0.0,0.0,0.0,0.0,0.125,
8.906426000000007,0.0,0.0,20414.0,0.0,495.0,420.0,0.0,0.25,3.227538732,2.4661255000000026,0.0,-54029.0,0.125,-450.0,-420.0,0.0,0.25,3.0615231240000003,2.4818850000000023,0.0,49782.0,5.25,457.5,420.0,0.0,0.0,0.8569335060000001,2.470199999999998,-0.0012207030000004337,-69017.0,0.375,-450.0,-420.0,0.0,0.125,4.084472238,2.4789999999999974,-0.009765623999999917,0.5799999833106995,-1.090000033378601,112.55999755859375,-0.0208740234375,-0.0242919921875,1.07745361328125,35.900001525878906,0.0,-32.0,2.4668731689453125,-0.6052703857421875,Closing,0.0,0.0,0.0,0.0,0.0,0.0,0.0,0.0,
8.980187000000006,0.0,0.0,20493.0,0.0,487.5,420.0,0.0,0.25,3.223876623,2.4661255000000026,0.0,-54100.0,0.25,-435.0,-420.0,0.0,0.25,3.0627438270000003,2.4818850000000023,0.0,49851.0,5.625,420.0,420.0,0.0,0.0,0.8569335060000001,2.470199999999998,0.0,-69089.0,0.375,-442.5,-420.0,0.0,0.125,4.06494099,2.4789999999999974,0.0,0.5799999833106995,-1.0399999618530273,112.87000274658203,-0.0386962890625,0.05462646484375,1.046630859375,35.900001525878906,0.0,48.0,2.46630859375,-0.60552978515625,Closing,0.0,0.0,0.0,0.0,0.0,0.0,0.0,0.0,
9.064135999999998,0.0,0.0,20493.0,0.75,442.5,0.0,0.0,5.125,3.1140133530000003,0.01,0.0012207029999999897,-54166.0,0.125,-412.5,-0.0,0.0,6.375,3.066405936,0.01,0.0,49923.0,2.75,450.0,0.0,0.0,3.0,0.809326089,0.01,0.0,-69153.0,0.25,-405.0,-0.0,0.0,6.375,3.8842769460000004,0.01,-0.019531247999999835,0.5799999833106995,-0.7599999904632568,113.12000274658203,0.089599609375,-0.0213623046875,1.02862548828125,35.900001525878906,0.0,-69.0,2.46563720703125,-0.60760498046875,Closing,0.0,0.0,0.0,0.0,0.0,0.0,0.0,0.0,
9.141385999999999,0.0,0.0,20560.0,1.25,345.0,0.0,0.0,1.625,2.523193101,0.01,0.0,-54166.0,0.0,-352.5,-0.0,0.0,1.75,3.668212515,0.01,0.0,49923.0,1.5,375.0,0.0,0.0,1.5,0.222167946,0.01,0.0,-69153.0,0.25,-255.0,-0.0,0.0,1.375,3.2751461490000002,0.01,0.0,0.6399999856948853,-0.09000000357627869,113.16000366210938,0.237548828125,0.12115478515625,0.94769287109375,35.900001525878906,0.0,7.0,2.4636688232421875,-0.615020751953125,Closing,0.0,0.0,0.0,0.0,0.0,0.0,0.0,0.0,
9.217985000000015,0.0,0.0,20595.0,1.0,217.5,0.0,0.0,1.5,1.9726560480000002,0.01,-0.5993651729999998,-54210.0,0.0,-210.0,-0.0,0.0,1.75,4.251708549,0.01,0.0,49975.0,1.375,285.0,0.0,0.0,1.75,4.627685073,0.01,-0.572509707,-69180.0,0.375,-97.5,-0.0,0.0,1.75,2.677001679,0.01,0.0,0.699999988079071,0.6100000143051147,113.4800033569336,0.13018798828125,6.7138671875E-4,1.14166259765625,35.900001525878906,0.0,-59.0,2.459869384765625,-0.630615234375,Closing,0.0,0.0,0.0,0.0,0.0,0.0,0.0,0.0,
9.298589999999997,0.0,0.0,20595.0,0.375,60.0,0.0,0.0,1.75,1.380615093,0.01,-0.5834960340000002,-54210.0,0.0,-7.5,-0.0,0.0,1.75,4.858397940000001,0.01,0.6152343120000001,49996.0,1.875,135.0,0.0,0.0,1.375,4.046630445,0.01,0.0,-69183.0,0.375,-15.0,-0.0,0.0,1.5,2.078857209,0.01,-0.6091307970000002,0.8399999737739563,0.41999998688697815,113.55999755859375,-0.03350830078125,-0.003662109375,1.044677734375,35.93000030517578,0.0,0.0,2.4548492431640625,-0.651458740234375,Closing,0.0,0.0,0.0,0.0,0.0,0.0,0.0,0.0,
9.375007000000013,0.0,0.0,20605.0,0.375,52.5,0.0,0.0,0.625,0.9228514680000001,0.01,0.0,-54210.0,0.0,0.0,-0.0,0.0,0.75,0.419921832,0.01,0.0,49996.0,1.875,150.0,0.0,0.0,1.0,3.508300422,0.01,-0.5664061920000005,-69183.0,0.375,0.0,-0.0,0.0,0.5,1.6552732680000002,0.01,0.0,0.6100000143051147,0.38999998569488525,113.76000213623047,0.0228271484375,-0.154541015625,1.0692138671875,35.93000030517578,0.0,-158.0,2.4516448974609375,-0.6641998291015625,Closing,0.0,0.0,0.0,0.0,0.0,0.0,0.0,0.0,
9.456648000000015,0.0,0.0,20606.0,0.375,0.0,0.0,0.0,0.5,0.678710868,0.01,-0.4455565949999999,-54211.0,0.0,-15.0,-0.0,0.0,0.625,0.7250975820000001,0.01,-4.437255405,50017.0,1.875,90.0,0.0,0.0,0.75,3.129882492,0.01,-0.5444335379999998,-69184.0,0.375,-7.5,-0.0,0.0,0.375,1.455077976,0.01,-0.422363238,0.47999998927116394,0.36000001430511475,113.87999725341797,0.0028076171875,0.11871337890625,1.02728271484375,35.93000030517578,0.0,102.0,2.4436187744140625,-0.68218994140625,Closing,0.0,0.0,0.0,0.0,0.0,0.0,0.0,0.0,
9.542888999999995,0.0,0.0,20606.0,0.375,0.0,0.0,0.0,0.375,0.7373046120000001,0.01,0.0,-54213.0,0.0,-7.5,-0.0,0.0,0.25,0.6481932930000001,0.01,0.0,50023.0,2.25,37.5,0.0,0.0,0.375,3.175048503,0.01,0.0,-69184.0,0.375,0.0,-0.0,0.0,0.375,1.545409998,0.01,0.0,0.5,0.30000001192092896,113.83999633789062,0.00244140625,-0.03790283203125,1.04351806640625,35.93000030517578,0.0,-41.0,2.437042236328125,-0.7002716064453125,Closing,0.0,0.0,0.0,0.0,0.0,0.0,0.0,0.0,
