Time,ClimberA1,ClimberA2,FRpos,FRCurrent,FRspeed,FRsetpoint,FRApos,FRACurrent,FREncpos,FREncSetpoint,FREncSpeed,FLpos,FLCurrent,FLspeed,FLsetpoint,FLApos,FLACurrent,FLEncpos,FLEncSetpoint,FLEncSpeed,BRpos,BRCurrent,BRspeed,BRsetpoint,BRApos,BRACurrent,BREncpos,BREncSetpoint,BREncSpeed,BLpos,BLCurrent,BLspeed,BLsetpoint,BLApos,BLACurrent,BLEncpos,BLEncSetpoint,BLEncSpeed,navx_Pitch,navx_Roll,navx_Yaw,navx_XAcc,navx_YAcc,navx_ZAcc,navx_Temp,navx_Bar,navx_Alt,navx_XDis,navx_YDis,GearPlacerState,ShootOutputV,ShootOutputCurrent,ShootEncPos,ShootEncVelocity,ShootSpeed,ShootSetpoint,CarouselSetpoint,CarouselCurrent,
0.1673619999999937,0.0,0.0,-3573.0,0.0,0.0,0.0,0.0,0.25,0.845947179,0.01,0.0,-311.0,0.0,0.0,0.0,0.0,0.0,0.522460884,0.01,0.0,11605.0,0.0,0.0,0.0,0.0,0.0,3.34472622,0.01,0.0,-4968.0,0.125,0.0,0.0,0.0,0.125,1.645507644,0.01,0.0,0.8999999761581421,-0.3400000035762787,166.5399932861328,-0.00909423828125,0.01617431640625,1.0147705078125,36.70000076293945,0.0,3.0,1.1105499267578125,2.30426025390625,Closing,0.0,0.0,0.0,0.0,0.0,0.0,0.0,0.0,
0.28532300000000393,0.0,0.0,-3555.0,2.25,90.0,630.0,0.0,0.25,0.845947179,0.01,0.0,-328.0,2.75,-97.5,-630.0,0.0,0.0,0.532226508,0.01,0.0,11616.0,2.375,67.5,630.0,0.0,0.0,3.343505517,0.01,0.0,-4993.0,1.875,-165.0,-630.0,0.0,0.125,1.650390456,0.01,0.0,0.9200000166893005,0.03999999910593033,166.5399932861328,0.03875732421875,0.0616455078125,0.9903564453125,36.720001220703125,0.0,-26.0,1.10687255859375,2.302886962890625,Closing,0.0,0.0,0.0,0.0,0.0,0.0,0.0,0.0,
0.5323569999999891,0.0,0.0,-3526.0,0.375,195.0,NaN,0.0,0.125,0.836181555,NaN,0.0,-380.0,0.25,-165.0,NaN,0.0,0.0,0.5798339250000001,NaN,0.0,11664.0,0.75,187.5,NaN,0.0,0.0,3.330077784,NaN,0.0,-5045.0,0.375,-172.5,NaN,0.0,0.125,1.652831862,NaN,0.0,0.949999988079071,0.25,166.25,-0.04864501953125,0.01507568359375,1.0577392578125,36.720001220703125,0.0,51.0,1.081878662109375,2.2931365966796875,Closing,0.0,0.0,0.0,0.0,0.0,0.0,0.0,0.125,
0.7955849999999919,0.0,0.0,-3436.0,3.5,210.0,650.1927486150261,0.0,0.5,0.8801268630000001,0.19614958189199336,0.0,-435.0,4.875,-210.0,-650.1927486150261,0.0,0.5,0.664062432,0.1974030539216313,0.0,11714.0,5.0,172.5,650.1927486150261,0.0,0.25,3.395995746,0.19647365764216054,0.0,-5093.0,3.625,-195.0,-650.1927486150261,0.0,0.375,1.699218576,0.19717358808797505,0.0,0.9700000286102295,0.49000000953674316,165.89999389648438,0.1434326171875,0.01812744140625,0.88983154296875,36.66999816894531,0.0,-130.0,1.0616302490234375,2.2926025390625,Closing,0.0,0.0,0.0,0.0,0.0,0.0,0.0,0.0,
1.004978999999992,0.0,0.0,-3297.0,3.5,480.0,651.812872039399,0.0,0.375,1.014404193,0.2036544455077332,0.0,-562.0,5.0,-465.0,-651.812872039399,0.0,0.125,0.8142089010000001,0.20495587653140945,0.0,11832.0,5.25,435.0,651.812872039399,0.0,0.125,3.5754390870000003,0.20399092069450747,0.0,-5209.0,3.75,-457.5,-651.812872039399,0.0,0.25,1.8627927780000002,0.20471763112366773,0.0,1.409999966621399,1.1200000047683716,165.2899932861328,0.0233154296875,0.08880615234375,1.184326171875,36.66999816894531,0.0,15.0,1.0250396728515625,2.279541015625,Closing,0.0,0.0,0.0,0.0,0.0,0.0,0.0,0.125,
1.2062419999999983,0.0,0.0,-3196.0,2.5,645.0,647.1321013530102,0.0,0.25,1.022949114,0.18103058340518055,0.0,-655.0,4.0,-615.0,-647.1321013530102,0.0,0.25,0.7263182850000001,0.1821874391609699,0.0,11922.0,4.0,615.0,647.1321013530102,0.0,0.125,3.557128542,0.18132967974560782,0.0,-5297.0,3.375,-592.5,-647.1321013530102,0.0,0.25,1.8969724620000001,0.18197566030659937,0.0,1.7599999904632568,1.2599999904632568,164.60000610351562,-0.04443359375,0.07659912109375,1.1435546875,36.66999816894531,0.0,78.0,0.983245849609375,2.2550201416015625,Closing,0.0,0.0,0.0,0.0,0.0,0.0,0.0,0.0,
1.4704370000000053,0.0,0.0,-2972.0,1.125,757.5,644.3137362062541,0.0,0.25,1.0034178660000002,0.1657736149855669,0.0,-1004.0,1.25,-780.0,-644.3137362062541,0.0,0.25,0.6335448570000001,0.1668329727860377,0.0,12222.0,3.75,585.0,644.3137362062541,0.0,0.0,3.507079719,0.16604750396415238,0.0,-5640.0,1.25,-765.0,-644.3137362062541,0.0,0.25,1.772460756,0.1666390423152513,0.0,1.059999942779541,1.5199999809265137,164.6300048828125,0.01123046875,-0.006103515625,0.9664306640625,36.599998474121094,0.0,7.0,0.9434967041015625,2.2200164794921875,Closing,0.0,0.0,0.0,0.0,0.0,0.0,0.0,0.0,
1.6212930000000052,0.0,0.0,-2718.0,0.5,802.5,637.3430942016728,0.0,0.25,0.9765624,0.11927545009225916,0.0,-1128.0,0.75,-772.5,-637.3430942016728,0.0,0.125,0.6335448570000001,0.12003766655518003,0.0,12341.0,3.0,742.5,637.3430942016728,0.0,0.125,3.488769174,0.1194725154165506,0.0,-5762.0,0.75,-765.0,-637.3430942016728,0.0,0.25,1.776122865,0.11989813202073878,0.0,1.0,1.2699999809265137,164.3000030517578,-0.0526123046875,0.0079345703125,1.0419921875,36.599998474121094,0.0,70.0,0.947479248046875,2.2002105712890625,Closing,0.0,0.0,0.0,0.0,0.0,0.0,0.0,0.0,
1.8071180000000167,0.0,0.0,-2610.0,0.0,547.5,NaN,0.0,0.125,0.95214834,NaN,0.0,-1243.0,0.125,-570.0,NaN,0.0,0.0,0.628662045,NaN,0.0,12466.0,0.25,637.5,NaN,0.0,0.0,3.4838863620000002,NaN,0.0,-5882.0,0.25,-532.5,NaN,0.0,0.125,1.748046696,NaN,0.0,0.6499999761581421,0.5699999928474426,164.0500030517578,-0.08258056640625,-0.03082275390625,0.45745849609375,36.52000045776367,0.0,73.0,0.9540252685546875,2.186767578125,Closing,0.0,0.0,0.0,0.0,0.0,0.0,0.0,0.125,
2.0070409999999974,0.0,0.0,-2449.0,0.125,450.0,630.2953663077831,0.0,0.375,0.898437408,0.024032872372424734,0.0,-1401.0,0.375,-435.0,-630.2953663077831,0.0,0.25,0.5944823610000001,0.024186451763316734,0.0,12634.0,1.5,517.5,630.2953663077831,0.0,0.125,3.443603163,0.02407257916694166,0.0,-6037.0,0.625,-420.0,-630.2953663077831,0.0,0.25,1.7065427940000002,0.02415833687751938,0.0,0.5299999713897705,-0.46000000834465027,163.97000122070312,-0.025146484375,-0.0460205078125,0.93060302734375,36.52000045776367,0.0,1.0,0.9908905029296875,2.1889190673828125,Closing,0.0,0.0,0.0,0.0,0.0,0.0,0.0,0.0,
2.2072360000000044,0.0,0.0,-2314.0,0.875,375.0,630.5249999999999,0.0,0.375,0.7885741380000001,4.900214952115497,0.0,-1533.0,1.625,-367.5,-630.5249999999999,0.0,0.25,0.483398388,4.931529229323962,0.0,12763.0,3.5,352.5,630.5249999999999,0.0,0.125,3.300780912,4.908311022580035,0.0,-6163.0,1.875,-352.5,-630.5249999999999,0.0,0.25,1.585693197,4.92579670673464,0.0,0.41999998688697815,-0.3499999940395355,163.82000732421875,-8.544921875E-4,-0.0242919921875,1.06890869140625,36.52000045776367,0.0,-14.0,0.99658203125,2.191192626953125,Closing,0.0,0.0,0.0,0.0,0.0,0.0,0.0,0.125,
2.5793360000000103,0.0,0.0,-2198.0,0.75,435.0,632.0973837155157,0.0,0.25,0.742187424,4.868285262885364,0.0,-1640.0,1.625,-510.0,-632.0973837155157,0.0,0.25,0.45532221900000003,4.899395496975415,0.0,12964.0,3.25,382.5,632.0973837155157,0.0,0.125,3.281249664,4.876328579538806,0.0,-6363.0,1.875,-382.5,-632.0973837155157,0.0,0.375,1.573486167,4.893700327372965,0.0,0.4699999988079071,-0.30000001192092896,163.2899932861328,0.13134765625,-0.09027099609375,0.9803466796875,36.54999923706055,0.0,-159.0,0.9837646484375,2.19219970703125,Closing,0.0,0.0,0.0,0.0,0.0,0.0,0.0,0.125,
2.6920860000000104,0.0,0.0,-2107.0,0.375,382.5,420.0,0.0,0.375,0.761718672,4.926770595677482,0.0,-1801.0,0.5,-390.0,-420.0,0.0,0.25,0.4882812,4.958254573764801,0.0,13033.0,2.25,420.0,420.0,0.0,0.125,3.3239742690000003,4.934910541025798,0.0,-6430.0,0.75,-435.0,-420.0,0.0,0.25,1.593017415,4.952490985022651,0.0,0.5699999928474426,-0.4000000059604645,163.16000366210938,-0.02215576171875,0.02398681640625,1.1693115234375,36.54999923706055,0.0,16.0,0.9808197021484375,2.19158935546875,Closing,0.0,0.0,0.0,0.0,0.0,0.0,0.0,0.125,
2.8180290000000094,0.0,0.0,-2038.0,0.375,472.5,420.0,0.0,0.25,0.7641600780000001,4.924989647196706,0.0,-1871.0,0.625,-442.5,-420.0,0.0,0.125,0.489501903,4.95646224433136,0.0,13103.0,2.25,427.5,420.0,0.0,0.0,3.328857081,4.933126650085449,0.0,-6500.0,1.0,-435.0,-420.0,0.0,0.25,1.621093584,4.9507007390340165,0.0,0.6100000143051147,-0.3799999952316284,163.10000610351562,0.0234375,0.00518798828125,0.87725830078125,36.560001373291016,0.0,-29.0,0.9815521240234375,2.1904144287109375,Closing,0.0,0.0,0.0,0.0,0.0,0.0,0.0,0.0,
2.9501570000000066,0.0,0.0,-1896.0,0.375,435.0,420.0,0.0,0.25,0.7641600780000001,4.9241676388123405,0.0,-1942.0,0.625,-442.5,-420.0,0.0,0.125,0.49438471500000003,4.95563498299408,0.0,13172.0,2.25,427.5,420.0,0.0,0.0,3.330077784,4.932303283589682,0.0,-6570.0,0.75,-435.0,-420.0,0.0,0.125,1.621093584,4.949874439324273,0.0,0.6299999952316284,-0.41999998688697815,163.10000610351562,-0.04058837890625,-0.0159912109375,0.9320068359375,36.560001373291016,0.0,24.0,0.9832763671875,2.1895751953125,Closing,0.0,0.0,0.0,0.0,0.0,0.0,0.0,0.125,
3.0838960000000077,0.0,0.0,-1857.0,0.125,247.5,0.0,0.0,0.25,0.780029217,0.01,0.0,-1987.0,0.0,-315.0,-0.0,0.0,0.125,0.49316401200000004,0.01,0.0,13234.0,0.375,397.5,0.0,0.0,0.0,3.3264156750000002,0.01,0.0,-6620.0,0.375,-277.5,-0.0,0.0,0.125,1.619872881,0.01,0.0,0.6600000262260437,-0.6600000262260437,163.08999633789062,-0.32830810546875,0.01055908203125,0.9927978515625,36.560001373291016,0.0,302.0,0.9842681884765625,2.1907501220703125,Closing,0.0,0.0,0.0,0.0,0.0,0.0,0.0,0.0,
3.205489999999991,0.0,0.0,-1807.0,0.125,315.0,0.0,0.0,0.25,0.783691326,0.01,0.0,-2038.0,0.0,-315.0,-0.0,0.0,0.125,0.49316401200000004,0.01,0.0,13274.0,0.375,247.5,0.0,0.0,0.0,3.328857081,0.01,0.0,-6668.0,0.25,-300.0,-0.0,0.0,0.125,1.627197099,0.01,0.0,0.7099999785423279,-1.190000057220459,163.05999755859375,-0.11175537109375,0.1038818359375,1.2640380859375,36.560001373291016,0.0,107.0,0.9936065673828125,2.197418212890625,Closing,0.0,0.0,0.0,0.0,0.0,0.0,0.0,0.0,
3.3323520000000135,0.0,0.0,-1742.0,1.25,352.5,840.0000000000001,0.0,6.125,0.44799800100000003,2.46571449580782,0.0,-2102.0,2.375,-382.5,-840.0000000000001,0.0,9.375,0.150146469,2.4814713693313624,0.0,13309.0,4.875,217.5,840.0000000000001,0.0,3.875,2.940673527,2.469788316752118,0.0,-6725.0,2.875,-382.5,-840.0000000000001,0.0,6.625,1.982421672,2.4785868501451302,0.0,0.6800000071525574,-0.9399999976158142,163.0800018310547,0.014404296875,-0.0318603515625,0.55157470703125,36.56999969482422,0.0,-33.0,1.006500244140625,2.204132080078125,Closing,0.0,0.0,0.0,0.0,0.0,0.0,0.0,0.125,
3.450975000000006,0.0,0.0,-1698.0,3.0,300.0,840.0,0.0,1.25,4.531249536000001,2.4659885682879583,0.0,-2134.0,7.125,-202.5,-840.0,0.0,1.75,4.310302293,2.481747193241122,0.0,13338.0,10.375,180.0,840.0,0.0,1.0,2.104491972,2.470062842051191,0.0,-6772.0,5.5,-292.5,-840.0,0.0,0.875,2.872314159,2.4788623534308565,0.0,0.18000000715255737,-1.7799999713897705,163.52000427246094,-0.18426513671875,-0.06268310546875,1.0648193359375,36.56999969482422,0.0,126.0,1.017791748046875,2.2130126953125,Closing,0.0,0.0,0.0,0.0,0.0,0.0,0.0,0.125,
3.5720249999999942,0.0,0.0,-1647.0,5.625,300.0,840.0,0.0,1.125,3.706054308,2.4720169085146986,0.0,-2166.0,12.125,-195.0,-840.0,0.0,2.375,3.560790651,2.487814056903837,0.0,13378.0,14.25,240.0,840.0,0.0,1.125,1.2902830710000002,2.476101142222084,0.0,-6776.0,18.625,-7.5,-840.0,0.0,1.25,3.712157823,2.4849221648322186,0.0,-0.009999999776482582,-2.119999885559082,163.83999633789062,-0.1993408203125,-0.00469970703125,0.98016357421875,36.56999969482422,0.0,155.0,1.03497314453125,2.2293853759765625,Closing,0.0,0.0,0.0,0.0,0.0,0.0,0.0,0.0,
3.690097999999998,0.0,0.0,-1577.0,6.875,412.5,840.0,0.0,0.25,3.182372721,2.4764010229166646,0.0,-2212.0,16.375,-270.0,-840.0,0.0,0.25,2.976073914,2.492226187499998,0.0,13421.0,18.375,255.0,840.0,0.0,0.125,0.7373046120000001,2.4804924999999978,0.0,-6810.0,18.375,-217.5,-840.0,0.0,0.25,4.32128862,2.489329166666664,0.0,0.8299999833106995,-3.2699999809265137,164.75,-0.31884765625,0.1002197265625,1.11431884765625,36.56999969482422,0.0,267.0,1.067962646484375,2.2481536865234375,Closing,0.0,0.0,0.0,0.0,0.0,0.0,0.0,0.0,
3.8086959999999963,0.0,0.0,-1471.0,6.375,637.5,840.0,0.0,0.375,3.118896165,2.488868707562338,0.0,-2318.0,12.375,-682.5,-840.0,0.0,0.25,2.8564450200000002,2.5047735454940767,0.0,13492.0,19.0,450.0,840.0,0.0,0.25,0.6481932930000001,2.4929807835896782,0.0,-6920.0,11.125,-742.5,-840.0,0.0,0.5,4.438476108000001,2.5018619393242703,0.0,1.0299999713897705,-3.740000009536743,164.02999877929688,-0.1385498046875,0.00732421875,0.9490966796875,36.56999969482422,0.0,70.0,1.1266021728515625,2.2530670166015625,Closing,0.0,0.0,0.0,0.0,0.0,0.0,0.0,0.0,
3.9375320000000067,0.0,0.0,-1356.0,6.25,712.5,840.0,0.0,0.375,3.201903969,2.4790041888378544,0.0,-2466.0,7.125,-937.5,-840.0,0.0,0.25,2.930907903,2.4948459886627172,0.0,13584.0,21.125,600.0,840.0,0.0,0.5,0.7653807810000001,2.483099966837563,0.0,-7061.0,8.5,-892.5,-840.0,0.0,0.625,4.2358394100000005,2.491945922512476,0.0,0.8700000047683716,-3.9700000286102295,162.1999969482422,-0.11370849609375,0.05792236328125,1.302001953125,36.56999969482422,0.0,33.0,1.1803741455078125,2.25347900390625,Closing,0.0,0.0,0.0,0.0,0.0,0.0,0.0,0.125,
4.056195000000007,0.0,0.0,-1205.0,4.0,930.0,840.0,0.0,0.375,3.24706998,2.453931887834467,0.0,-2639.0,4.25,-1072.5,-840.0,0.0,0.25,2.976073914,2.4696134659156828,0.0,13704.0,17.125,757.5,840.0,0.0,0.125,0.826415931,2.4579862417093943,0.0,-7231.0,5.125,-1080.0,-840.0,0.0,0.25,4.0356441180000004,2.4667427306281224,0.0,0.9900000095367432,-4.400000095367432,161.19000244140625,-0.15185546875,0.03900146484375,1.20635986328125,36.56999969482422,0.0,61.0,1.2402496337890625,2.2564544677734375,Closing,0.0,0.0,0.0,0.0,0.0,0.0,0.0,0.125,
4.174635999999999,0.0,0.0,-1011.0,0.75,1215.0,840.0,0.0,0.125,3.242187168,2.4400942589002,0.0,-2821.0,2.0,-1132.5,-840.0,0.0,0.125,2.971191102,2.455687409156802,0.0,13849.0,13.75,930.0,840.0,0.0,0.0,0.8569335060000001,2.444125750427249,0.0,-7408.0,3.5,-1102.5,-840.0,0.0,0.25,4.016112870000001,2.452832861836754,0.0,1.0199999809265137,-4.329999923706055,162.02000427246094,-0.12188720703125,0.0076904296875,1.1866455078125,36.56999969482422,0.0,26.0,1.306884765625,2.2558441162109375,Closing,0.0,0.0,0.0,0.0,0.0,0.0,0.0,0.125,
4.294144,0.0,0.0,-822.0,0.375,1192.5,840.0,0.0,0.125,3.2592770100000004,2.45146586268137,0.0,-3005.0,0.75,-1147.5,-840.0,0.0,0.0,2.971191102,2.4671316819038416,0.0,14013.0,10.75,1027.5,840.0,0.0,0.0,0.8569335060000001,2.455516142222089,0.0,-7596.0,1.625,-1177.5,-840.0,0.0,0.25,4.045409742,2.46426383149889,0.0,0.8999999761581421,-4.119999885559082,163.14999389648438,0.01593017578125,0.0679931640625,1.00445556640625,36.56999969482422,0.0,-69.0,1.371917724609375,2.2516937255859375,Closing,0.0,0.0,0.0,0.0,0.0,0.0,0.0,0.0,
4.41026999999999,0.0,0.0,-632.0,0.75,1192.5,0.0,0.0,6.25,2.810058306,0.01,0.0,-3165.0,0.125,-997.5,-0.0,0.0,3.25,2.464599357,0.01,0.0,14193.0,0.75,1125.0,0.0,0.0,2.0,0.357665979,0.01,0.0,-7759.0,0.125,-975.0,-0.0,0.0,3.75,3.5266109670000003,0.01,0.0,1.3799999952316284,-2.859999895095825,163.77000427246094,0.3292236328125,0.2666015625,1.15545654296875,36.439998626708984,0.0,-304.0,1.4241790771484375,2.2379302978515625,Closing,0.0,0.0,0.0,0.0,0.0,0.0,0.0,0.125,
4.530814000000013,0.0,0.0,-547.0,1.25,652.5,0.0,0.0,1.0,1.900634571,0.01,0.0,-3248.0,0.25,-510.0,-0.0,0.0,1.5,1.560058434,0.01,0.0,14348.0,0.375,967.5,0.0,0.0,2.125,4.461669465,0.01,0.0,-7865.0,0.125,-630.0,-0.0,0.0,1.75,2.613525123,0.01,0.0,1.6399999856948853,0.6299999952316284,164.47000122070312,0.4620361328125,-0.229248046875,0.906494140625,36.439998626708984,0.0,-503.0,1.4343109130859375,2.1943817138671875,Closing,0.0,0.0,0.0,0.0,0.0,0.0,0.0,0.0,
4.648837999999989,0.0,0.0,-500.0,0.375,292.5,0.0,0.0,1.75,1.042480362,0.01,0.0,-3275.0,0.0,-165.0,-0.0,0.0,1.125,0.662841729,0.01,0.0,14436.0,0.375,525.0,0.0,0.0,1.375,3.5754390870000003,0.01,0.0,-7899.0,0.25,-202.5,-0.0,0.0,1.75,1.723632636,0.01,0.0,0.8600000143051147,0.9100000262260437,164.4199981689453,0.015869140625,-0.053955078125,1.088134765625,36.439998626708984,0.0,-17.0,1.4168701171875,2.1561126708984375,Closing,0.0,0.0,0.0,0.0,0.0,0.0,0.0,0.125,
4.765674999999988,0.0,0.0,-487.0,0.125,97.5,0.0,0.0,0.25,0.6738280560000001,0.01,0.0,-3282.0,0.0,-45.0,-0.0,0.0,0.25,0.37841793,0.01,0.0,14474.0,0.375,240.0,0.0,0.0,0.125,3.199462563,0.01,0.0,-7912.0,0.375,-75.0,-0.0,0.0,0.25,1.390380717,0.01,0.0,0.4000000059604645,0.4699999988079071,164.60000610351562,-0.0745849609375,0.0166015625,1.00347900390625,36.439998626708984,0.0,82.0,1.4189453125,2.1239776611328125,Closing,0.0,0.0,0.0,0.0,0.0,0.0,0.0,0.125,
4.888193999999989,0.0,0.0,-485.0,0.125,15.0,0.0,0.0,0.375,0.694580007,0.01,0.0,-3283.0,0.0,0.0,-0.0,0.0,0.25,0.416259723,0.01,0.0,14497.0,0.5,150.0,0.0,0.0,0.25,3.2189938110000003,0.01,0.0,-7913.0,0.375,0.0,-0.0,0.0,0.625,1.483154145,0.01,0.0,0.5299999713897705,0.3400000035762787,164.47999572753906,-0.0211181640625,-0.049560546875,1.0550537109375,36.33000183105469,0.0,10.0,1.4254608154296875,2.1057891845703125,Closing,0.0,0.0,0.0,0.0,0.0,0.0,0.0,0.0,
5.004752000000008,0.0,0.0,-485.0,0.125,0.0,0.0,0.0,0.375,0.794677653,0.01,0.0,-3283.0,0.0,0.0,-0.0,0.0,0.25,0.469970655,0.01,0.0,14496.0,0.875,-7.5,0.0,0.0,0.125,3.3203121600000003,0.01,0.0,-7919.0,0.375,-37.5,-0.0,0.0,0.375,1.596679524,0.01,0.0,0.5699999928474426,0.3199999928474426,164.52999877929688,-0.004150390625,0.04705810546875,1.00701904296875,36.33000183105469,0.0,19.0,1.426422119140625,2.10699462890625,Closing,0.0,0.0,0.0,0.0,0.0,0.0,0.0,0.125,
5.119212999999989,0.0,0.0,-485.0,0.125,0.0,0.0,0.0,0.125,0.825195228,0.01,0.0,-3283.0,0.0,0.0,-0.0,0.0,0.25,0.49316401200000004,0.01,0.0,14496.0,1.0,0.0,0.0,0.0,0.0,3.358153953,0.01,0.0,-7921.0,0.375,-7.5,-0.0,0.0,0.25,1.6333006140000002,0.01,0.0,0.550000011920929,0.25,164.52999877929688,-0.01812744140625,0.033447265625,1.01214599609375,36.33000183105469,0.0,28.0,1.426605224609375,2.106903076171875,Closing,0.0,0.0,0.0,0.0,0.0,0.0,0.0,0.125,
5.245176999999996,0.0,0.0,-485.0,0.125,0.0,0.0,0.0,0.125,0.826415931,0.01,0.0,-3283.0,0.0,0.0,-0.0,0.0,0.125,0.49316401200000004,0.01,0.0,14496.0,1.0,0.0,0.0,0.0,0.0,3.359374656,0.01,0.0,-7921.0,0.375,0.0,-0.0,0.0,0.125,1.6308592080000002,0.01,0.0,0.5600000023841858,0.20000000298023224,164.52999877929688,5.4931640625E-4,0.0054931640625,1.00909423828125,36.33000183105469,0.0,1.0,1.4268646240234375,2.106903076171875,Closing,0.0,0.0,0.0,0.0,0.0,0.0,0.0,0.125,
5.353893000000011,0.0,0.0,-485.0,0.125,0.0,0.0,0.0,0.125,0.8166503070000001,0.01,0.0,-3283.0,0.0,0.0,-0.0,0.0,0.125,0.49316401200000004,0.01,0.0,14496.0,1.0,0.0,0.0,0.0,0.0,3.350829735,0.01,0.0,-7921.0,0.375,0.0,-0.0,0.0,0.125,1.6320799110000002,0.01,0.0,0.5799999833106995,0.14000000059604645,164.52999877929688,-0.00384521484375,0.00164794921875,1.00872802734375,36.33000183105469,0.0,3.0,1.4268646240234375,2.106903076171875,Closing,0.0,0.0,0.0,0.0,0.0,0.0,0.0,0.125,
5.473985000000015,0.0,0.0,-485.0,0.125,0.0,0.0,0.0,0.125,0.812988198,0.01,0.0,-3283.0,0.0,0.0,-0.0,0.0,0.125,0.49438471500000003,0.01,0.0,14496.0,1.0,0.0,0.0,0.0,0.0,3.3703609830000003,0.01,0.0,-7921.0,0.375,0.0,-0.0,0.0,0.125,1.6308592080000002,0.01,0.0,0.5899999737739563,0.10000000149011612,164.52999877929688,-0.00506591796875,0.0013427734375,1.01434326171875,36.33000183105469,0.0,4.0,1.4268646240234375,2.106903076171875,Closing,0.0,0.0,0.0,0.0,0.0,0.0,0.0,0.0,
5.593496000000013,0.0,0.0,-485.0,0.125,0.0,0.0,0.0,0.125,0.8178710100000001,0.01,0.0,-3283.0,0.0,0.0,-0.0,0.0,0.125,0.49316401200000004,0.01,0.0,14496.0,1.0,0.0,0.0,0.0,0.0,3.359374656,0.01,0.0,-7921.0,0.375,0.0,-0.0,0.0,0.125,1.6320799110000002,0.01,0.0,0.6000000238418579,0.05999999865889549,164.52999877929688,-0.0118408203125,0.00860595703125,1.01458740234375,36.33000183105469,0.0,11.0,1.4268646240234375,2.106903076171875,Closing,0.0,0.0,0.0,0.0,0.0,0.0,0.0,0.0,
5.711154999999999,0.0,0.0,-485.0,0.125,0.0,0.0,0.0,0.125,0.8178710100000001,0.01,0.0,-3283.0,0.0,0.0,-0.0,0.0,0.125,0.490722606,0.01,0.0,14496.0,1.0,0.0,0.0,0.0,0.0,3.358153953,0.01,0.0,-7921.0,0.375,0.0,-0.0,0.0,0.125,1.6308592080000002,0.01,0.0,0.6100000143051147,0.019999999552965164,164.52000427246094,-0.0048828125,0.012451171875,1.02813720703125,36.33000183105469,0.0,5.0,1.4268646240234375,2.106903076171875,Closing,0.0,0.0,0.0,0.0,0.0,0.0,0.0,0.0,
5.826606999999989,0.0,0.0,-485.0,0.125,0.0,0.0,0.0,0.125,0.819091713,0.01,0.0,-3283.0,0.0,0.0,-0.0,0.0,0.125,0.49316401200000004,0.01,0.0,14496.0,1.0,0.0,0.0,0.0,0.0,3.358153953,0.01,0.0,-7921.0,0.375,0.0,-0.0,0.0,0.125,1.6320799110000002,0.01,0.0,0.6200000047683716,-0.009999999776482582,164.52000427246094,-0.0052490234375,0.01409912109375,1.0208740234375,36.33000183105469,0.0,5.0,1.4268646240234375,2.106903076171875,Closing,0.0,0.0,0.0,0.0,0.0,0.0,0.0,0.0,
5.944084000000003,0.0,0.0,-485.0,0.125,0.0,0.0,0.0,0.125,0.8178710100000001,0.01,0.0,-3283.0,0.0,0.0,-0.0,0.0,0.125,0.49316401200000004,0.01,0.0,14496.0,1.0,0.0,0.0,0.0,0.0,3.35693325,0.01,0.0,-7921.0,0.375,0.0,-0.0,0.0,0.125,1.6308592080000002,0.01,0.0,0.6299999952316284,-0.03999999910593033,164.52000427246094,-0.0078125,0.01611328125,1.0174560546875,36.369998931884766,0.0,8.0,1.4268646240234375,2.106903076171875,Closing,0.0,0.0,0.0,0.0,0.0,0.0,0.0,0.0,
6.055151000000013,0.0,0.0,-485.0,0.125,0.0,0.0,0.0,0.125,0.820312416,0.01,0.0,-3283.0,0.0,0.0,-0.0,0.0,0.125,0.49438471500000003,0.01,0.0,14496.0,1.0,0.0,0.0,0.0,0.0,3.359374656,0.01,0.0,-7921.0,0.375,0.0,-0.0,0.0,0.125,1.6308592080000002,0.01,0.0,0.6299999952316284,-0.07000000029802322,164.52000427246094,-0.0028076171875,0.01226806640625,1.01727294921875,36.369998931884766,0.0,1.0,1.4268646240234375,2.106903076171875,Closing,0.0,0.0,0.0,0.0,0.0,0.0,0.0,0.0,
6.174823000000004,0.0,0.0,-485.0,0.125,0.0,0.0,0.0,0.125,0.810546792,0.01,0.0,-3283.0,0.0,0.0,-0.0,0.0,0.125,0.49316401200000004,0.01,0.0,14496.0,1.0,0.0,0.0,0.0,0.0,3.358153953,0.01,0.0,-7921.0,0.375,0.0,-0.0,0.0,0.125,1.6308592080000002,0.01,0.0,0.6399999856948853,-0.10000000149011612,164.52000427246094,-0.00457763671875,0.01336669921875,1.0185546875,36.369998931884766,0.0,3.0,1.4268646240234375,2.106903076171875,Closing,0.0,0.0,0.0,0.0,0.0,0.0,0.0,0.0,
6.2897989999999995,0.0,0.0,-485.0,0.125,0.0,0.0,0.0,0.125,0.8178710100000001,0.01,0.0,-3283.0,0.0,0.0,-0.0,0.0,0.125,0.49316401200000004,0.01,0.0,14496.0,1.0,0.0,0.0,0.0,0.0,3.359374656,0.01,0.0,-7921.0,0.375,0.0,-0.0,0.0,0.125,1.6320799110000002,0.01,0.0,0.6499999761581421,-0.11999999731779099,164.52000427246094,-0.00848388671875,0.00946044921875,1.0185546875,36.369998931884766,0.0,5.0,1.4268646240234375,2.106903076171875,Closing,0.0,0.0,0.0,0.0,0.0,0.0,0.0,0.125,
6.406429999999993,0.0,0.0,-485.0,0.125,0.0,0.0,0.0,0.125,0.8178710100000001,0.01,0.0,-3283.0,0.0,0.0,-0.0,0.0,0.125,0.48706049700000004,0.01,0.0,14496.0,1.0,0.0,0.0,0.0,0.0,3.358153953,0.01,0.0,-7921.0,0.375,0.0,-0.0,0.0,0.125,1.640624832,0.01,0.0,0.6499999761581421,-0.14000000059604645,164.52000427246094,-0.00701904296875,0.01055908203125,1.01995849609375,36.41999816894531,0.0,3.0,1.4268646240234375,2.106903076171875,Closing,0.0,0.0,0.0,0.0,0.0,0.0,0.0,0.125,
6.5282749999999945,0.0,0.0,-485.0,0.125,0.0,0.0,0.0,0.125,0.8178710100000001,0.01,0.0,-3283.0,0.0,0.0,-0.0,0.0,0.125,0.49316401200000004,0.01,0.0,14496.0,1.0,0.0,0.0,0.0,0.0,3.35693325,0.01,0.0,-7921.0,0.375,0.0,-0.0,0.0,0.125,1.6308592080000002,0.01,0.0,0.6600000262260437,-0.1599999964237213,164.50999450683594,-0.00689697265625,0.00970458984375,1.02093505859375,36.41999816894531,0.0,3.0,1.4268646240234375,2.106903076171875,Closing,0.0,0.0,0.0,0.0,0.0,0.0,0.0,0.125,
6.644953000000009,0.0,0.0,-485.0,0.125,0.0,0.0,0.0,0.125,0.8166503070000001,0.01,0.0,-3283.0,0.0,0.0,-0.0,0.0,0.125,0.49316401200000004,0.01,0.0,14496.0,1.0,0.0,0.0,0.0,0.0,3.35693325,0.01,0.0,-7921.0,0.375,0.0,-0.0,0.0,0.125,1.6308592080000002,0.01,0.0,0.6700000166893005,-0.18000000715255737,164.50999450683594,-0.0059814453125,0.01220703125,1.01568603515625,36.41999816894531,0.0,2.0,1.4268646240234375,2.106903076171875,Closing,0.0,0.0,0.0,0.0,0.0,0.0,0.0,0.0,
6.764217000000004,0.0,0.0,-485.0,0.125,0.0,0.0,0.0,0.125,0.8178710100000001,0.01,0.0,-3283.0,0.0,0.0,-0.0,0.0,0.125,0.49316401200000004,0.01,0.0,14496.0,1.0,0.0,0.0,0.0,0.0,3.358153953,0.01,0.0,-7921.0,0.375,0.0,-0.0,0.0,0.125,1.6369627230000001,0.01,0.0,0.6700000166893005,-0.1899999976158142,164.50999450683594,-0.00567626953125,0.01336669921875,1.01861572265625,36.41999816894531,0.0,2.0,1.4268646240234375,2.106903076171875,Closing,0.0,0.0,0.0,0.0,0.0,0.0,0.0,0.0,
6.879618000000017,0.0,0.0,-485.0,0.125,0.0,0.0,0.0,0.125,0.8178710100000001,0.01,0.0,-3283.0,0.0,0.0,-0.0,0.0,0.125,0.49316401200000004,0.01,0.0,14496.0,1.0,0.0,0.0,0.0,0.0,3.358153953,0.01,0.0,-7921.0,0.375,0.0,-0.0,0.0,0.125,1.644286941,0.01,0.0,0.6700000166893005,-0.20999999344348907,164.50999450683594,-0.00616455078125,0.013427734375,1.01824951171875,36.43000030517578,0.0,2.0,1.4268646240234375,2.106903076171875,Closing,0.0,0.0,0.0,0.0,0.0,0.0,0.0,0.0,
6.9947719999999975,0.0,0.0,-485.0,0.125,0.0,0.0,0.0,0.25,0.8178710100000001,0.01,0.0,-3283.0,0.0,0.0,-0.0,0.0,0.125,0.49316401200000004,0.01,0.0,14496.0,1.0,0.0,0.0,0.0,0.0,3.359374656,0.01,0.0,-7921.0,0.375,0.0,-0.0,0.0,0.125,1.6320799110000002,0.01,0.0,0.6700000166893005,-0.2199999988079071,164.5,-0.007080078125,0.012451171875,1.01641845703125,36.43000030517578,0.0,3.0,1.4268646240234375,2.106903076171875,Closing,0.0,0.0,0.0,0.0,0.0,0.0,0.0,0.0,
7.112777000000002,0.0,0.0,-485.0,0.125,0.0,0.0,0.0,0.125,0.8178710100000001,0.01,0.0,-3283.0,0.0,0.0,-0.0,0.0,0.125,0.49316401200000004,0.01,0.0,14496.0,1.0,0.0,0.0,0.0,0.0,3.3679195770000003,0.01,0.0,-7921.0,0.375,0.0,-0.0,0.0,0.125,1.6308592080000002,0.01,0.0,0.6700000166893005,-0.23000000417232513,164.5,-0.00469970703125,0.01214599609375,1.02178955078125,36.43000030517578,0.0,0.0,1.4268646240234375,2.106903076171875,Closing,0.0,0.0,0.0,0.0,0.0,0.0,0.0,0.0,
7.227274000000005,0.0,0.0,-485.0,0.125,0.0,0.0,0.0,0.125,0.812988198,0.01,0.0,-3283.0,0.0,0.0,-0.0,0.0,0.125,0.49438471500000003,0.01,0.0,14496.0,1.0,0.0,0.0,0.0,0.0,3.359374656,0.01,0.0,-7921.0,0.375,0.0,-0.0,0.0,0.125,1.619872881,0.01,0.0,0.6700000166893005,-0.23000000417232513,164.5,-0.00396728515625,0.0142822265625,1.0152587890625,36.43000030517578,0.0,0.0,1.4268646240234375,2.106903076171875,Closing,0.0,0.0,0.0,0.0,0.0,0.0,0.0,0.125,
7.344442999999999,0.0,0.0,-485.0,0.125,0.0,0.0,0.0,0.125,0.8178710100000001,0.01,0.0,-3283.0,0.0,0.0,-0.0,0.0,0.125,0.49316401200000004,0.01,0.0,14496.0,1.0,0.0,0.0,0.0,0.0,3.358153953,0.01,0.0,-7921.0,0.375,0.0,-0.0,0.0,0.125,1.6308592080000002,0.01,0.0,0.6800000071525574,-0.23999999463558197,164.5,-0.00921630859375,0.01397705078125,1.021728515625,36.43000030517578,0.0,5.0,1.4268646240234375,2.106903076171875,Closing,0.0,0.0,0.0,0.0,0.0,0.0,0.0,0.0,
7.454198000000004,0.0,0.0,-485.0,0.125,0.0,0.0,0.0,0.125,0.8178710100000001,0.01,0.0,-3283.0,0.0,0.0,-0.0,0.0,0.125,0.49316401200000004,0.01,0.0,14496.0,1.0,0.0,0.0,0.0,0.0,3.35693325,0.01,0.0,-7921.0,0.375,0.0,-0.0,0.0,0.125,1.6308592080000002,0.01,0.0,0.6800000071525574,-0.25,164.5,-0.008544921875,0.0145263671875,1.01641845703125,36.439998626708984,0.0,4.0,1.4268646240234375,2.106903076171875,Closing,0.0,0.0,0.0,0.0,0.0,0.0,0.0,0.125,
7.572206000000006,0.0,0.0,-485.0,0.125,0.0,0.0,0.0,0.125,0.8178710100000001,0.01,0.0,-3283.0,0.0,0.0,-0.0,0.0,0.125,0.49316401200000004,0.01,0.0,14496.0,1.0,0.0,0.0,0.0,0.0,3.358153953,0.01,0.0,-7921.0,0.375,0.0,-0.0,0.0,0.125,1.641845535,0.01,0.0,0.6899999976158142,-0.25999999046325684,164.49000549316406,-0.00714111328125,0.009521484375,1.01763916015625,36.439998626708984,0.0,1.0,1.4268646240234375,2.106903076171875,Closing,0.0,0.0,0.0,0.0,0.0,0.0,0.0,0.125,
7.692687000000006,0.0,0.0,-485.0,0.125,0.0,0.0,0.0,0.125,0.808105386,0.01,0.0,-3283.0,0.0,0.0,-0.0,0.0,0.125,0.49316401200000004,0.01,0.0,14496.0,1.0,0.0,0.0,0.0,0.0,3.358153953,0.01,0.0,-7921.0,0.375,0.0,-0.0,0.0,0.125,1.6308592080000002,0.01,0.0,0.6899999976158142,-0.27000001072883606,164.49000549316406,-0.00738525390625,0.0113525390625,1.0169677734375,36.439998626708984,0.0,2.0,1.4268646240234375,2.106903076171875,Closing,0.0,0.0,0.0,0.0,0.0,0.0,0.0,0.0,
7.808599000000017,0.0,0.0,-485.0,0.125,0.0,0.0,0.0,0.125,0.8178710100000001,0.01,0.0,-3283.0,0.0,0.0,-0.0,0.0,0.125,0.49316401200000004,0.01,0.0,14496.0,1.0,0.0,0.0,0.0,0.0,3.358153953,0.01,0.0,-7921.0,0.375,0.0,-0.0,0.0,0.125,1.6308592080000002,0.01,0.0,0.6899999976158142,-0.2800000011920929,164.49000549316406,-0.007568359375,0.01361083984375,1.0185546875,36.439998626708984,0.0,2.0,1.4268646240234375,2.106903076171875,Closing,0.0,0.0,0.0,0.0,0.0,0.0,0.0,0.0,
7.925532000000007,0.0,0.0,-485.0,0.125,0.0,0.0,0.0,0.125,0.8178710100000001,0.01,0.0,-3283.0,0.0,0.0,-0.0,0.0,0.125,0.49316401200000004,0.01,0.0,14496.0,1.0,0.0,0.0,0.0,0.0,3.358153953,0.01,0.0,-7921.0,0.375,0.0,-0.0,0.0,0.125,1.6333006140000002,0.01,0.0,0.6899999976158142,-0.2800000011920929,164.49000549316406,-0.005615234375,0.015380859375,1.0135498046875,36.459999084472656,0.0,1.0,1.4268646240234375,2.106903076171875,Closing,0.0,0.0,0.0,0.0,0.0,0.0,0.0,0.0,
8.046094000000013,0.0,0.0,-485.0,0.125,0.0,0.0,0.0,0.125,0.8178710100000001,0.01,0.0,-3283.0,0.0,0.0,-0.0,0.0,0.125,0.49316401200000004,0.01,0.0,14496.0,1.0,0.0,0.0,0.0,0.0,3.3605953590000004,0.01,0.0,-7921.0,0.375,0.0,-0.0,0.0,0.125,1.6369627230000001,0.01,0.0,0.6899999976158142,-0.28999999165534973,164.49000549316406,-0.00628662109375,0.0125732421875,1.0191650390625,36.459999084472656,0.0,1.0,1.4268646240234375,2.106903076171875,Closing,0.0,0.0,0.0,0.0,0.0,0.0,0.0,0.0,
8.158905999999988,0.0,0.0,-485.0,0.125,0.0,0.0,0.0,0.25,0.8178710100000001,0.01,0.0,-3283.0,0.0,0.0,-0.0,0.0,0.125,0.49316401200000004,0.01,0.0,14496.0,1.0,0.0,0.0,0.0,0.0,3.359374656,0.01,0.0,-7921.0,0.375,0.0,-0.0,0.0,0.125,1.6308592080000002,0.01,0.0,0.6899999976158142,-0.30000001192092896,164.49000549316406,-0.0035400390625,0.01092529296875,1.01068115234375,36.459999084472656,0.0,-2.0,1.4268646240234375,2.106903076171875,Closing,0.0,0.0,0.0,0.0,0.0,0.0,0.0,0.0,
8.27369200000001,0.0,0.0,-485.0,0.125,0.0,0.0,0.0,0.125,0.8166503070000001,0.01,0.0,-3283.0,0.0,0.0,-0.0,0.0,0.125,0.49316401200000004,0.01,0.0,14496.0,1.0,0.0,0.0,0.0,0.0,3.358153953,0.01,0.0,-7921.0,0.375,0.0,-0.0,0.0,0.125,1.6320799110000002,0.01,0.0,0.699999988079071,-0.30000001192092896,164.47999572753906,-0.00567626953125,0.01190185546875,1.01361083984375,36.459999084472656,0.0,0.0,1.4268646240234375,2.106903076171875,Closing,0.0,0.0,0.0,0.0,0.0,0.0,0.0,0.0,
8.391758999999992,0.0,0.0,-485.0,0.125,0.0,0.0,0.0,0.125,0.8178710100000001,0.01,0.0,-3283.0,0.0,0.0,-0.0,0.0,0.125,0.49316401200000004,0.01,0.0,14496.0,1.0,0.0,0.0,0.0,0.0,3.358153953,0.01,0.0,-7921.0,0.375,0.0,-0.0,0.0,0.125,1.6320799110000002,0.01,0.0,0.6899999976158142,-0.3100000023841858,164.47999572753906,-0.00506591796875,0.0111083984375,1.01995849609375,36.459999084472656,0.0,0.0,1.4268646240234375,2.106903076171875,Closing,0.0,0.0,0.0,0.0,0.0,0.0,0.0,0.125,
8.509630000000005,0.0,0.0,-485.0,0.125,0.0,0.0,0.0,0.125,0.8178710100000001,0.01,0.0,-3283.0,0.0,0.0,-0.0,0.0,0.125,0.49316401200000004,0.01,0.0,14496.0,1.0,0.0,0.0,0.0,0.0,3.358153953,0.01,0.0,-7921.0,0.375,0.0,-0.0,0.0,0.125,1.6308592080000002,0.01,0.0,0.699999988079071,-0.3199999928474426,164.47999572753906,-0.0057373046875,0.0115966796875,1.02154541015625,36.439998626708984,0.0,0.0,1.4268646240234375,2.106903076171875,Closing,0.0,0.0,0.0,0.0,0.0,0.0,0.0,0.0,
8.613570000000006,0.0,0.0,-485.0,0.125,0.0,0.0,0.0,0.25,0.8178710100000001,0.01,0.0,-3283.0,0.0,0.0,-0.0,0.0,0.125,0.498046824,0.01,0.0,14496.0,1.0,0.0,0.0,0.0,0.0,3.358153953,0.01,0.0,-7921.0,0.375,0.0,-0.0,0.0,0.125,1.6308592080000002,0.01,0.0,0.6899999976158142,-0.3199999928474426,164.47999572753906,-0.00775146484375,0.0137939453125,1.017578125,36.439998626708984,0.0,2.0,1.4268646240234375,2.106903076171875,Closing,0.0,0.0,0.0,0.0,0.0,0.0,0.0,0.125,
8.730981,0.0,0.0,-485.0,0.125,0.0,0.0,0.0,0.125,0.8178710100000001,0.01,0.0,-3283.0,0.0,0.0,-0.0,0.0,0.125,0.49316401200000004,0.01,0.0,14496.0,1.0,0.0,0.0,0.0,0.0,3.358153953,0.01,0.0,-7921.0,0.375,0.0,-0.0,0.0,0.125,1.6320799110000002,0.01,0.0,0.6899999976158142,-0.3199999928474426,164.47000122070312,-0.00823974609375,0.0128173828125,1.0137939453125,36.439998626708984,0.0,2.0,1.4268646240234375,2.106903076171875,Closing,0.0,0.0,0.0,0.0,0.0,0.0,0.0,0.0,
8.85180799999999,0.0,0.0,-485.0,0.125,0.0,0.0,0.0,0.125,0.8178710100000001,0.01,0.0,-3283.0,0.0,0.0,-0.0,0.0,0.125,0.49316401200000004,0.01,0.0,14496.0,1.0,0.0,0.0,0.0,0.0,3.359374656,0.01,0.0,-7921.0,0.375,0.0,-0.0,0.0,0.125,1.6320799110000002,0.01,0.0,0.6899999976158142,-0.33000001311302185,164.47000122070312,-0.00848388671875,0.01275634765625,1.0179443359375,36.439998626708984,0.0,2.0,1.4268646240234375,2.106903076171875,Closing,0.0,0.0,0.0,0.0,0.0,0.0,0.0,0.125,
8.967975000000006,0.0,0.0,-485.0,0.125,0.0,0.0,0.0,0.125,0.8166503070000001,0.01,0.0,-3283.0,0.0,0.0,-0.0,0.0,0.125,0.49316401200000004,0.01,0.0,14496.0,1.0,0.0,0.0,0.0,0.0,3.358153953,0.01,0.0,-7921.0,0.375,0.0,-0.0,0.0,0.125,1.6308592080000002,0.01,0.0,0.699999988079071,-0.33000001311302185,164.47000122070312,-0.0068359375,0.0115966796875,1.021728515625,36.470001220703125,0.0,0.0,1.4268646240234375,2.106903076171875,Closing,0.0,0.0,0.0,0.0,0.0,0.0,0.0,0.0,
9.092597999999999,0.0,0.0,-485.0,0.125,0.0,0.0,0.0,0.125,0.8178710100000001,0.01,0.0,-3283.0,0.0,0.0,-0.0,0.0,0.125,0.49316401200000004,0.01,0.0,14496.0,1.0,0.0,0.0,0.0,0.0,3.359374656,0.01,0.0,-7921.0,0.375,0.0,-0.0,0.0,0.125,1.6308592080000002,0.01,0.0,0.699999988079071,-0.3400000035762787,164.4600067138672,-0.00640869140625,0.01617431640625,1.0179443359375,36.470001220703125,0.0,1.0,1.4268646240234375,2.106903076171875,Closing,0.0,0.0,0.0,0.0,0.0,0.0,0.0,0.0,
9.222252999999997,0.0,0.0,-485.0,0.125,0.0,0.0,0.0,0.125,0.8166503070000001,0.01,0.0,-3283.0,0.0,0.0,-0.0,0.0,0.125,0.49438471500000003,0.01,0.0,14496.0,1.0,0.0,0.0,0.0,0.0,3.359374656,0.01,0.0,-7921.0,0.375,0.0,-0.0,0.0,0.125,1.621093584,0.01,0.0,0.699999988079071,-0.3400000035762787,164.47000122070312,-0.0057373046875,0.0098876953125,1.01715087890625,36.470001220703125,0.0,-1.0,1.4268646240234375,2.106903076171875,Closing,0.0,0.0,0.0,0.0,0.0,0.0,0.0,0.0,
9.349405999999988,0.0,0.0,-485.0,0.125,0.0,0.0,0.0,0.125,0.8178710100000001,0.01,0.0,-3283.0,0.0,0.0,-0.0,0.0,0.125,0.49316401200000004,0.01,0.0,14496.0,1.0,0.0,0.0,0.0,0.0,3.358153953,0.01,0.0,-7921.0,0.375,0.0,-0.0,0.0,0.125,1.6333006140000002,0.01,0.0,0.7099999785423279,-0.3400000035762787,164.47000122070312,-0.00531005859375,0.0108642578125,1.0181884765625,36.470001220703125,0.0,-1.0,1.4268646240234375,2.106903076171875,Closing,0.0,0.0,0.0,0.0,0.0,0.0,0.0,0.0,
9.472440999999991,0.0,0.0,-485.0,0.125,0.0,0.0,0.0,0.125,0.8178710100000001,0.01,0.0,-3283.0,0.0,0.0,-0.0,0.0,0.125,0.49316401200000004,0.01,0.0,14496.0,1.0,0.0,0.0,0.0,0.0,3.358153953,0.01,0.0,-7921.0,0.375,0.0,-0.0,0.0,0.125,1.640624832,0.01,0.0,0.699999988079071,-0.3499999940395355,164.47000122070312,-0.0054931640625,0.0111083984375,1.0179443359375,36.52000045776367,0.0,-1.0,1.4268646240234375,2.106903076171875,Closing,0.0,0.0,0.0,0.0,0.0,0.0,0.0,0.0,
9.605059999999998,0.0,0.0,-485.0,0.125,0.0,0.0,0.0,0.125,0.8142089010000001,0.01,0.0,-3283.0,0.0,0.0,-0.0,0.0,0.125,0.49316401200000004,0.01,0.0,14496.0,1.0,0.0,0.0,0.0,0.0,3.358153953,0.01,0.0,-7921.0,0.375,0.0,-0.0,0.0,0.125,1.6320799110000002,0.01,0.0,0.699999988079071,-0.3499999940395355,164.47000122070312,-0.0086669921875,0.01446533203125,1.0140380859375,36.52000045776367,0.0,2.0,1.4268646240234375,2.106903076171875,Closing,0.0,0.0,0.0,0.0,0.0,0.0,0.0,0.0,
9.727546000000002,0.0,0.0,-485.0,0.125,0.0,0.0,0.0,0.125,0.8178710100000001,0.01,0.0,-3283.0,0.0,0.0,-0.0,0.0,0.125,0.49316401200000004,0.01,0.0,14496.0,1.0,0.0,0.0,0.0,0.0,3.358153953,0.01,0.0,-7921.0,0.375,0.0,-0.0,0.0,0.125,1.6320799110000002,0.01,0.0,0.7099999785423279,-0.3400000035762787,164.4600067138672,-0.007080078125,0.01220703125,1.01654052734375,36.52000045776367,0.0,0.0,1.4268646240234375,2.106903076171875,Closing,0.0,0.0,0.0,0.0,0.0,0.0,0.0,0.125,
9.852600999999995,0.0,0.0,-485.0,0.125,0.0,0.0,0.0,0.125,0.8178710100000001,0.01,0.0,-3283.0,0.0,0.0,-0.0,0.0,0.125,0.49316401200000004,0.01,0.0,14496.0,1.0,0.0,0.0,0.0,0.0,3.358153953,0.01,0.0,-7921.0,0.375,0.0,-0.0,0.0,0.125,1.6308592080000002,0.01,0.0,0.699999988079071,-0.3499999940395355,164.4600067138672,-0.00762939453125,0.01348876953125,1.02081298828125,36.52000045776367,0.0,1.0,1.4268646240234375,2.106903076171875,Closing,0.0,0.0,0.0,0.0,0.0,0.0,0.0,0.0,
9.97601999999999,0.0,0.0,-485.0,0.125,0.0,0.0,0.0,0.25,0.8178710100000001,0.01,0.0,-3283.0,0.0,0.0,-0.0,0.0,0.125,0.49316401200000004,0.01,0.0,14496.0,1.0,0.0,0.0,0.0,0.0,3.358153953,0.01,0.0,-7921.0,0.375,0.0,-0.0,0.0,0.125,1.6308592080000002,0.01,0.0,0.699999988079071,-0.3400000035762787,164.4499969482422,-0.0048828125,0.01123046875,1.0223388671875,36.54999923706055,0.0,-1.0,1.4268646240234375,2.106903076171875,Closing,0.0,0.0,0.0,0.0,0.0,0.0,0.0,0.125,
10.108401000000013,0.0,0.0,-485.0,0.125,0.0,0.0,0.0,0.125,0.822753822,0.01,0.0,-3283.0,0.0,0.0,-0.0,0.0,0.125,0.49316401200000004,0.01,0.0,14496.0,1.0,0.0,0.0,0.0,0.0,3.35693325,0.01,0.0,-7921.0,0.375,0.0,-0.0,0.0,0.125,1.6308592080000002,0.01,0.0,0.699999988079071,-0.3400000035762787,164.4499969482422,-0.006591796875,0.01275634765625,1.01416015625,36.54999923706055,0.0,0.0,1.4268646240234375,2.106903076171875,Closing,0.0,0.0,0.0,0.0,0.0,0.0,0.0,0.0,
10.232651000000013,0.0,0.0,-485.0,0.125,0.0,0.0,0.0,0.25,0.8178710100000001,0.01,0.0,-3283.0,0.0,0.0,-0.0,0.0,0.125,0.49316401200000004,0.01,0.0,14496.0,1.0,0.0,0.0,0.0,0.0,3.359374656,0.01,0.0,-7921.0,0.375,0.0,-0.0,0.0,0.125,1.6320799110000002,0.01,0.0,0.699999988079071,-0.3400000035762787,164.4499969482422,-0.0035400390625,0.01202392578125,1.01971435546875,36.54999923706055,0.0,-2.0,1.4268646240234375,2.106903076171875,Closing,0.0,0.0,0.0,0.0,0.0,0.0,0.0,0.125,
10.366379000000016,0.0,0.0,-485.0,0.125,0.0,0.0,0.0,0.25,0.8166503070000001,0.01,0.0,-3283.0,0.0,0.0,-0.0,0.0,0.125,0.49316401200000004,0.01,0.0,14496.0,1.0,0.0,0.0,0.0,0.0,3.358153953,0.01,0.0,-7921.0,0.375,0.0,-0.0,0.0,0.125,1.6308592080000002,0.01,0.0,0.7099999785423279,-0.3499999940395355,164.4499969482422,-0.0067138671875,0.01434326171875,1.01837158203125,36.54999923706055,0.0,0.0,1.4268646240234375,2.106903076171875,Closing,0.0,0.0,0.0,0.0,0.0,0.0,0.0,0.0,
10.490299999999989,0.0,0.0,-485.0,0.125,0.0,0.0,0.0,0.125,0.8178710100000001,0.01,0.0,-3283.0,0.0,0.0,-0.0,0.0,0.125,0.49316401200000004,0.01,0.0,14496.0,1.0,0.0,0.0,0.0,0.0,3.358153953,0.01,0.0,-7921.0,0.375,0.0,-0.0,0.0,0.125,1.6320799110000002,0.01,0.0,0.7099999785423279,-0.3499999940395355,164.44000244140625,-0.0081787109375,0.0098876953125,1.01983642578125,36.5099983215332,0.0,1.0,1.4268646240234375,2.106903076171875,Closing,0.0,0.0,0.0,0.0,0.0,0.0,0.0,0.125,
10.623978999999991,0.0,0.0,-485.0,0.125,0.0,0.0,0.0,0.125,0.8178710100000001,0.01,0.0,-3283.0,0.0,0.0,-0.0,0.0,0.125,0.49316401200000004,0.01,0.0,14496.0,1.0,0.0,0.0,0.0,0.0,3.358153953,0.01,0.0,-7921.0,0.375,0.0,-0.0,0.0,0.125,1.6284178020000002,0.01,0.0,0.699999988079071,-0.3499999940395355,164.44000244140625,-0.0072021484375,0.01312255859375,1.0230712890625,36.5099983215332,0.0,0.0,1.4268646240234375,2.106903076171875,Closing,0.0,0.0,0.0,0.0,0.0,0.0,0.0,0.125,
10.745130000000005,0.0,0.0,-485.0,0.125,0.0,0.0,0.0,0.125,0.8166503070000001,0.01,0.0,-3283.0,0.0,0.0,-0.0,0.0,0.125,0.49316401200000004,0.01,0.0,14496.0,1.0,0.0,0.0,0.0,0.0,3.358153953,0.01,0.0,-7921.0,0.375,0.0,-0.0,0.0,0.125,1.6308592080000002,0.01,0.0,0.699999988079071,-0.3499999940395355,164.44000244140625,-0.00799560546875,0.01361083984375,1.02276611328125,36.5099983215332,0.0,1.0,1.4268646240234375,2.106903076171875,Closing,0.0,0.0,0.0,0.0,0.0,0.0,0.0,0.0,
10.860728999999992,0.0,0.0,-485.0,0.125,0.0,0.0,0.0,0.125,0.8142089010000001,0.01,0.0,-3283.0,0.0,0.0,-0.0,0.0,0.125,0.49316401200000004,0.01,0.0,14496.0,1.0,0.0,0.0,0.0,0.0,3.358153953,0.01,0.0,-7921.0,0.375,0.0,-0.0,0.0,0.125,1.6308592080000002,0.01,0.0,0.7099999785423279,-0.3499999940395355,164.44000244140625,-0.00689697265625,0.0167236328125,1.02032470703125,36.5099983215332,0.0,1.0,1.4268646240234375,2.106903076171875,Closing,0.0,0.0,0.0,0.0,0.0,0.0,0.0,0.0,
10.978818999999989,0.0,0.0,-485.0,0.125,0.0,0.0,0.0,0.125,0.8178710100000001,0.01,0.0,-3283.0,0.0,0.0,-0.0,0.0,0.125,0.49316401200000004,0.01,0.0,14496.0,1.0,0.0,0.0,0.0,0.0,3.35693325,0.01,0.0,-7921.0,0.375,0.0,-0.0,0.0,0.125,1.6308592080000002,0.01,0.0,0.699999988079071,-0.3499999940395355,164.44000244140625,-0.00665283203125,0.01068115234375,1.01983642578125,36.5099983215332,0.0,0.0,1.4268646240234375,2.106903076171875,Closing,0.0,0.0,0.0,0.0,0.0,0.0,0.0,0.125,
11.101591000000015,0.0,0.0,-485.0,0.125,0.0,0.0,0.0,0.125,0.7763671080000001,0.01,0.0,-3283.0,0.0,0.0,-0.0,0.0,0.125,0.49316401200000004,0.01,0.0,14496.0,1.0,0.0,0.0,0.0,0.0,3.358153953,0.01,0.0,-7921.0,0.375,0.0,-0.0,0.0,0.125,1.6320799110000002,0.01,0.0,0.699999988079071,-0.3499999940395355,164.42999267578125,-0.0074462890625,0.011962890625,1.01263427734375,36.5099983215332,0.0,0.0,1.4268646240234375,2.106903076171875,Closing,0.0,0.0,0.0,0.0,0.0,0.0,0.0,0.0,
11.215584000000003,0.0,0.0,-485.0,0.125,0.0,0.0,0.0,0.25,0.819091713,0.01,0.0,-3283.0,0.0,0.0,-0.0,0.0,0.125,0.49316401200000004,0.01,0.0,14496.0,1.0,0.0,0.0,0.0,0.0,3.358153953,0.01,0.0,-7921.0,0.375,0.0,-0.0,0.0,0.125,1.6308592080000002,0.01,0.0,0.7099999785423279,-0.3499999940395355,164.44000244140625,-0.006591796875,0.01031494140625,1.01416015625,36.5099983215332,0.0,0.0,1.4268646240234375,2.106903076171875,Closing,0.0,0.0,0.0,0.0,0.0,0.0,0.0,0.0,
11.334004000000016,0.0,0.0,-485.0,0.125,0.0,0.0,0.0,0.25,0.811767495,0.01,0.0,-3283.0,0.0,0.0,-0.0,0.0,0.125,0.49316401200000004,0.01,0.0,14496.0,1.0,0.0,0.0,0.0,0.0,3.358153953,0.01,0.0,-7921.0,0.375,0.0,-0.0,0.0,0.125,1.6308592080000002,0.01,0.0,0.7099999785423279,-0.3499999940395355,164.44000244140625,-0.00775146484375,0.01361083984375,1.01678466796875,36.5099983215332,0.0,1.0,1.4268646240234375,2.106903076171875,Closing,0.0,0.0,0.0,0.0,0.0,0.0,0.0,0.125,
11.454195999999996,0.0,0.0,-485.0,0.125,0.0,0.0,0.0,0.125,0.8178710100000001,0.01,0.0,-3283.0,0.0,0.0,-0.0,0.0,0.125,0.50048823,0.01,0.0,14496.0,1.0,0.0,0.0,0.0,0.0,3.358153953,0.01,0.0,-7921.0,0.375,0.0,-0.0,0.0,0.125,1.6308592080000002,0.01,0.0,0.7099999785423279,-0.3499999940395355,164.44000244140625,-0.00311279296875,0.01312255859375,1.01708984375,36.5099983215332,0.0,-2.0,1.4268646240234375,2.106903076171875,Closing,0.0,0.0,0.0,0.0,0.0,0.0,0.0,0.0,
11.57012599999999,0.0,0.0,-485.0,0.125,0.0,0.0,0.0,0.25,0.8166503070000001,0.01,0.0,-3283.0,0.0,0.0,-0.0,0.0,0.125,0.5017089330000001,0.01,0.0,14496.0,1.0,0.0,0.0,0.0,0.0,3.358153953,0.01,0.0,-7921.0,0.375,0.0,-0.0,0.0,0.125,1.6308592080000002,0.01,0.0,0.7099999785423279,-0.3499999940395355,164.44000244140625,-0.00482177734375,0.0150146484375,1.016357421875,36.56999969482422,0.0,0.0,1.4268646240234375,2.106903076171875,Closing,0.0,0.0,0.0,0.0,0.0,0.0,0.0,0.0,
11.688565999999991,0.0,0.0,-485.0,0.125,0.0,0.0,0.0,0.125,0.8166503070000001,0.01,0.0,-3283.0,0.0,0.0,-0.0,0.0,0.125,0.49316401200000004,0.01,0.0,14496.0,1.0,0.0,0.0,0.0,0.0,3.35693325,0.01,0.0,-7921.0,0.375,0.0,-0.0,0.0,0.125,1.6308592080000002,0.01,0.0,0.7099999785423279,-0.3499999940395355,164.44000244140625,-0.0078125,0.0133056640625,1.01873779296875,36.56999969482422,0.0,1.0,1.4268646240234375,2.106903076171875,Closing,0.0,0.0,0.0,0.0,0.0,0.0,0.0,0.125,
11.811116999999998,0.0,0.0,-485.0,0.125,0.0,0.0,0.0,0.25,0.8178710100000001,0.01,0.0,-3283.0,0.0,0.0,-0.0,0.0,0.125,0.49438471500000003,0.01,0.0,14496.0,1.0,0.0,0.0,0.0,0.0,3.358153953,0.01,0.0,-7921.0,0.375,0.0,-0.0,0.0,0.125,1.6320799110000002,0.01,0.0,0.7200000286102295,-0.3499999940395355,164.44000244140625,-0.001953125,0.01251220703125,1.01641845703125,36.56999969482422,0.0,-4.0,1.4268646240234375,2.106903076171875,Closing,0.0,0.0,0.0,0.0,0.0,0.0,0.0,0.0,
11.932603000000002,0.0,0.0,-485.0,0.125,0.0,0.0,0.0,0.125,0.8178710100000001,0.01,0.0,-3283.0,0.0,0.0,-0.0,0.0,0.125,0.49316401200000004,0.01,0.0,14496.0,1.0,0.0,0.0,0.0,0.0,3.358153953,0.01,0.0,-7921.0,0.375,0.0,-0.0,0.0,0.125,1.625976396,0.01,0.0,0.7200000286102295,-0.3499999940395355,164.44000244140625,-0.00579833984375,0.0125732421875,1.0191650390625,36.56999969482422,0.0,0.0,1.4268646240234375,2.106903076171875,Closing,0.0,0.0,0.0,0.0,0.0,0.0,0.0,0.0,
12.056331999999994,0.0,0.0,-485.0,0.125,0.0,0.0,0.0,0.125,0.8166503070000001,0.01,0.0,-3283.0,0.0,0.0,-0.0,0.0,0.125,0.49438471500000003,0.01,0.0,14496.0,1.0,0.0,0.0,0.0,0.0,3.358153953,0.01,0.0,-7921.0,0.375,0.0,-0.0,0.0,0.125,1.6308592080000002,0.01,0.0,0.7200000286102295,-0.3499999940395355,164.44000244140625,-0.005859375,0.0125732421875,1.01312255859375,36.52000045776367,0.0,0.0,1.4268646240234375,2.106903076171875,Closing,0.0,0.0,0.0,0.0,0.0,0.0,0.0,0.0,
12.171515000000014,0.0,0.0,-485.0,0.125,0.0,0.0,0.0,0.125,0.8178710100000001,0.01,0.0,-3283.0,0.0,0.0,-0.0,0.0,0.125,0.496826121,0.01,0.0,14496.0,1.0,0.0,0.0,0.0,0.0,3.358153953,0.01,0.0,-7921.0,0.375,0.0,-0.0,0.0,0.125,1.6320799110000002,0.01,0.0,0.7200000286102295,-0.3499999940395355,164.44000244140625,-0.00421142578125,0.01312255859375,1.02532958984375,36.52000045776367,0.0,-2.0,1.4268646240234375,2.106903076171875,Closing,0.0,0.0,0.0,0.0,0.0,0.0,0.0,0.0,
12.285678000000015,0.0,0.0,-485.0,0.125,0.0,0.0,0.0,0.125,0.8166503070000001,0.01,0.0,-3283.0,0.0,0.0,-0.0,0.0,0.125,0.49316401200000004,0.01,0.0,14496.0,1.0,0.0,0.0,0.0,0.0,3.359374656,0.01,0.0,-7921.0,0.375,0.0,-0.0,0.0,0.125,1.6308592080000002,0.01,0.0,0.7300000190734863,-0.3499999940395355,164.44000244140625,-0.00506591796875,0.0103759765625,1.01373291015625,36.52000045776367,0.0,-1.0,1.4268646240234375,2.106903076171875,Closing,0.0,0.0,0.0,0.0,0.0,0.0,0.0,0.0,
12.404545000000013,0.0,0.0,-485.0,0.125,0.0,0.0,0.0,0.125,0.8166503070000001,0.01,0.0,-3283.0,0.0,0.0,-0.0,0.0,0.125,0.49316401200000004,0.01,0.0,14496.0,1.0,0.0,0.0,0.0,0.0,3.358153953,0.01,0.0,-7921.0,0.375,0.0,-0.0,0.0,0.125,1.6320799110000002,0.01,0.0,0.7200000286102295,-0.3499999940395355,164.42999267578125,-0.0074462890625,0.01104736328125,1.01544189453125,36.52000045776367,0.0,0.0,1.4268646240234375,2.106903076171875,Closing,0.0,0.0,0.0,0.0,0.0,0.0,0.0,0.0,
12.526806000000011,0.0,0.0,-485.0,0.125,0.0,0.0,0.0,0.125,0.8178710100000001,0.01,0.0,-3283.0,0.0,0.0,-0.0,0.0,0.125,0.49438471500000003,0.01,0.0,14496.0,1.0,0.0,0.0,0.0,0.0,3.358153953,0.01,0.0,-7921.0,0.375,0.0,-0.0,0.0,0.125,1.6333006140000002,0.01,0.0,0.7200000286102295,-0.3499999940395355,164.44000244140625,-0.00775146484375,0.011962890625,1.01763916015625,36.54999923706055,0.0,1.0,1.4268646240234375,2.106903076171875,Closing,0.0,0.0,0.0,0.0,0.0,0.0,0.0,0.0,
12.643383000000002,0.0,0.0,-485.0,0.125,0.0,0.0,0.0,0.125,0.8178710100000001,0.01,0.0,-3283.0,0.0,0.0,-0.0,0.0,0.125,0.49316401200000004,0.01,0.0,14496.0,1.0,0.0,0.0,0.0,0.0,3.359374656,0.01,0.0,-7921.0,0.375,0.0,-0.0,0.0,0.125,1.6308592080000002,0.01,0.0,0.7300000190734863,-0.3499999940395355,164.42999267578125,-0.0062255859375,0.01080322265625,1.02130126953125,36.54999923706055,0.0,0.0,1.4268646240234375,2.106903076171875,Closing,0.0,0.0,0.0,0.0,0.0,0.0,0.0,0.125,
12.762815999999992,0.0,0.0,-485.0,0.125,0.0,0.0,0.0,0.125,0.8178710100000001,0.01,0.0,-3283.0,0.0,0.0,-0.0,0.0,0.125,0.49316401200000004,0.01,0.0,14496.0,1.0,0.0,0.0,0.0,0.0,3.3605953590000004,0.01,0.0,-7921.0,0.375,0.0,-0.0,0.0,0.125,1.6333006140000002,0.01,0.0,0.7300000190734863,-0.3499999940395355,164.42999267578125,-0.00567626953125,0.01202392578125,1.01971435546875,36.54999923706055,0.0,0.0,1.4268646240234375,2.106903076171875,Closing,0.0,0.0,0.0,0.0,0.0,0.0,0.0,0.125,
12.872924999999988,0.0,0.0,-485.0,0.125,0.0,0.0,0.0,0.125,0.819091713,0.01,0.0,-3283.0,0.0,0.0,-0.0,0.0,0.125,0.49316401200000004,0.01,0.0,14496.0,1.0,0.0,0.0,0.0,0.0,3.358153953,0.01,0.0,-7921.0,0.375,0.0,-0.0,0.0,0.125,1.6308592080000002,0.01,0.0,0.7200000286102295,-0.3499999940395355,164.42999267578125,-0.0040283203125,0.01318359375,1.01861572265625,36.54999923706055,0.0,-2.0,1.4268646240234375,2.106903076171875,Closing,0.0,0.0,0.0,0.0,0.0,0.0,0.0,0.0,
12.988510999999999,0.0,0.0,-485.0,0.125,0.0,0.0,0.0,0.125,0.8178710100000001,0.01,0.0,-3283.0,0.0,0.0,-0.0,0.0,0.125,0.49316401200000004,0.01,0.0,14496.0,1.0,0.0,0.0,0.0,0.0,3.358153953,0.01,0.0,-7921.0,0.375,0.0,-0.0,0.0,0.125,1.6320799110000002,0.01,0.0,0.7200000286102295,-0.3499999940395355,164.42999267578125,-0.00750732421875,0.01409912109375,1.01861572265625,36.54999923706055,0.0,1.0,1.4268646240234375,2.106903076171875,Closing,0.0,0.0,0.0,0.0,0.0,0.0,0.0,0.125,
13.107304999999993,0.0,0.0,-485.0,0.125,0.0,0.0,0.0,0.125,0.8166503070000001,0.01,0.0,-3283.0,0.0,0.0,-0.0,0.0,0.125,0.49438471500000003,0.01,0.0,14496.0,1.0,0.0,0.0,0.0,0.0,3.359374656,0.01,0.0,-7921.0,0.375,0.0,-0.0,0.0,0.125,1.6308592080000002,0.01,0.0,0.7200000286102295,-0.3499999940395355,164.42999267578125,-0.00677490234375,0.0135498046875,1.02044677734375,36.56999969482422,0.0,0.0,1.4268646240234375,2.106903076171875,Closing,0.0,0.0,0.0,0.0,0.0,0.0,0.0,0.0,
13.224752000000008,0.0,0.0,-485.0,0.125,0.0,0.0,0.0,0.125,0.8178710100000001,0.01,0.0,-3283.0,0.0,0.0,-0.0,0.0,0.125,0.49316401200000004,0.01,0.0,14496.0,1.0,0.0,0.0,0.0,0.0,3.359374656,0.01,0.0,-7921.0,0.375,0.0,-0.0,0.0,0.125,1.6308592080000002,0.01,0.0,0.7200000286102295,-0.3499999940395355,164.42999267578125,-0.00457763671875,0.01416015625,1.0238037109375,36.56999969482422,0.0,-1.0,1.4268646240234375,2.106903076171875,Closing,0.0,0.0,0.0,0.0,0.0,0.0,0.0,0.0,
13.349632000000012,0.0,0.0,-485.0,0.125,0.0,0.0,0.0,0.125,0.8178710100000001,0.01,0.0,-3283.0,0.0,0.0,-0.0,0.0,0.125,0.495605418,0.01,0.0,14496.0,1.0,0.0,0.0,0.0,0.0,3.359374656,0.01,0.0,-7921.0,0.375,0.0,-0.0,0.0,0.125,1.6308592080000002,0.01,0.0,0.7300000190734863,-0.3499999940395355,164.42999267578125,-0.0079345703125,0.0126953125,1.02056884765625,36.56999969482422,0.0,1.0,1.4268646240234375,2.106903076171875,Closing,0.0,0.0,0.0,0.0,0.0,0.0,0.0,0.0,
13.466532999999997,0.0,0.0,-485.0,0.125,0.0,0.0,0.0,0.125,0.8166503070000001,0.01,0.0,-3283.0,0.0,0.0,-0.0,0.0,0.125,0.49316401200000004,0.01,0.0,14496.0,1.0,0.0,0.0,0.0,0.0,3.359374656,0.01,0.0,-7921.0,0.375,0.0,-0.0,0.0,0.125,1.6308592080000002,0.01,0.0,0.7200000286102295,-0.3499999940395355,164.4199981689453,-0.00665283203125,0.01123046875,1.0186767578125,36.56999969482422,0.0,0.0,1.4268646240234375,2.106903076171875,Closing,0.0,0.0,0.0,0.0,0.0,0.0,0.0,0.125,
13.586847999999998,0.0,0.0,-485.0,0.125,0.0,0.0,0.0,0.25,0.8166503070000001,0.01,0.0,-3283.0,0.0,0.0,-0.0,0.0,0.125,0.49316401200000004,0.01,0.0,14496.0,1.0,0.0,0.0,0.0,0.0,3.359374656,0.01,0.0,-7921.0,0.375,0.0,-0.0,0.0,0.125,1.6320799110000002,0.01,0.0,0.7200000286102295,-0.3499999940395355,164.4199981689453,-0.005126953125,0.0103759765625,1.02215576171875,36.61000061035156,0.0,-1.0,1.4268646240234375,2.106903076171875,Closing,0.0,0.0,0.0,0.0,0.0,0.0,0.0,0.125,
13.70734700000001,0.0,0.0,-485.0,0.125,0.0,0.0,0.0,0.125,0.8178710100000001,0.01,0.0,-3283.0,0.0,0.0,-0.0,0.0,0.125,0.49316401200000004,0.01,0.0,14496.0,1.0,0.0,0.0,0.0,0.0,3.358153953,0.01,0.0,-7921.0,0.375,0.0,-0.0,0.0,0.125,1.6333006140000002,0.01,0.0,0.7200000286102295,-0.3499999940395355,164.4199981689453,-0.00494384765625,0.0107421875,1.016357421875,36.61000061035156,0.0,-1.0,1.4268646240234375,2.106903076171875,Closing,0.0,0.0,0.0,0.0,0.0,0.0,0.0,0.125,
13.824421000000003,0.0,0.0,-485.0,0.125,0.0,0.0,0.0,0.25,0.8166503070000001,0.01,0.0,-3283.0,0.0,0.0,-0.0,0.0,0.125,0.49316401200000004,0.01,0.0,14496.0,1.0,0.0,0.0,0.0,0.0,3.358153953,0.01,0.0,-7921.0,0.375,0.0,-0.0,0.0,0.125,1.6308592080000002,0.01,0.0,0.7200000286102295,-0.36000001430511475,164.41000366210938,-0.0048828125,0.013916015625,1.02197265625,36.61000061035156,0.0,-1.0,1.4268646240234375,2.106903076171875,Closing,0.0,0.0,0.0,0.0,0.0,0.0,0.0,0.0,
13.934122999999992,0.0,0.0,-485.0,0.125,0.0,0.0,0.0,0.125,0.812988198,0.01,0.0,-3283.0,0.0,0.0,-0.0,0.0,0.125,0.49316401200000004,0.01,0.0,14496.0,1.0,0.0,0.0,0.0,0.0,3.358153953,0.01,0.0,-7921.0,0.375,0.0,-0.0,0.0,0.125,1.6308592080000002,0.01,0.0,0.7200000286102295,-0.36000001430511475,164.4199981689453,-0.008544921875,0.0106201171875,1.019287109375,36.61000061035156,0.0,1.0,1.4268646240234375,2.106903076171875,Closing,0.0,0.0,0.0,0.0,0.0,0.0,0.0,0.0,
14.055312999999995,0.0,0.0,-485.0,0.125,0.0,0.0,0.0,0.125,0.8178710100000001,0.01,0.0,-3283.0,0.0,0.0,-0.0,0.0,0.125,0.49316401200000004,0.01,0.0,14496.0,1.0,0.0,0.0,0.0,0.0,3.35693325,0.01,0.0,-7921.0,0.375,0.0,-0.0,0.0,0.125,1.6308592080000002,0.01,0.0,0.7200000286102295,-0.36000001430511475,164.41000366210938,-0.0086669921875,0.01239013671875,1.01531982421875,36.58000183105469,0.0,1.0,1.4268646240234375,2.106903076171875,Closing,0.0,0.0,0.0,0.0,0.0,0.0,0.0,0.125,
14.17234700000001,0.0,0.0,-485.0,0.125,0.0,0.0,0.0,0.125,0.8166503070000001,0.01,0.0,-3283.0,0.0,0.0,-0.0,0.0,0.125,0.49316401200000004,0.01,0.0,14496.0,1.0,0.0,0.0,0.0,0.0,3.358153953,0.01,0.0,-7921.0,0.375,0.0,-0.0,0.0,0.125,1.6308592080000002,0.01,0.0,0.7300000190734863,-0.3700000047683716,164.41000366210938,-0.00555419921875,0.0125732421875,1.01708984375,36.58000183105469,0.0,-1.0,1.4268646240234375,2.106903076171875,Closing,0.0,0.0,0.0,0.0,0.0,0.0,0.0,0.125,
14.28664300000001,0.0,0.0,-485.0,0.125,0.0,0.0,0.0,0.125,0.8178710100000001,0.01,0.0,-3283.0,0.0,0.0,-0.0,0.0,0.125,0.49438471500000003,0.01,0.0,14496.0,1.0,0.0,0.0,0.0,0.0,3.359374656,0.01,0.0,-7921.0,0.375,0.0,-0.0,0.0,0.125,1.6308592080000002,0.01,0.0,0.7300000190734863,-0.3700000047683716,164.41000366210938,-0.00543212890625,0.0146484375,1.01239013671875,36.58000183105469,0.0,0.0,1.4268646240234375,2.106903076171875,Closing,0.0,0.0,0.0,0.0,0.0,0.0,0.0,0.125,
14.406839000000007,0.0,0.0,-485.0,0.125,0.0,0.0,0.0,0.125,0.8178710100000001,0.01,0.0,-3283.0,0.0,0.0,-0.0,0.0,0.125,0.49316401200000004,0.01,0.0,14496.0,1.0,0.0,0.0,0.0,0.0,3.359374656,0.01,0.0,-7921.0,0.375,0.0,-0.0,0.0,0.125,1.6308592080000002,0.01,0.0,0.7300000190734863,-0.36000001430511475,164.41000366210938,-0.0047607421875,0.012451171875,1.01409912109375,36.58000183105469,0.0,-1.0,1.4268646240234375,2.106903076171875,Closing,0.0,0.0,0.0,0.0,0.0,0.0,0.0,0.0,
14.530644,0.0,0.0,-485.0,0.125,0.0,0.0,0.0,0.25,0.8557128030000001,0.01,0.0,-3283.0,0.0,0.0,-0.0,0.0,0.125,0.49316401200000004,0.01,0.0,14496.0,1.0,0.0,0.0,0.0,0.0,3.359374656,0.01,0.0,-7921.0,0.375,0.0,-0.0,0.0,0.125,1.6320799110000002,0.01,0.0,0.7300000190734863,-0.36000001430511475,164.39999389648438,-0.0078125,0.01123046875,1.019287109375,36.56999969482422,0.0,0.0,1.4268646240234375,2.106903076171875,Closing,0.0,0.0,0.0,0.0,0.0,0.0,0.0,0.0,
14.65124100000001,0.0,0.0,-485.0,0.125,0.0,0.0,0.0,0.125,0.8178710100000001,0.01,0.0,-3283.0,0.0,0.0,-0.0,0.0,0.125,0.49194330900000005,0.01,0.0,14496.0,1.0,0.0,0.0,0.0,0.0,3.358153953,0.01,0.0,-7921.0,0.375,0.0,-0.0,0.0,0.125,1.6308592080000002,0.01,0.0,0.7300000190734863,-0.3700000047683716,164.39999389648438,-0.006591796875,0.01507568359375,1.0174560546875,36.56999969482422,0.0,0.0,1.4268646240234375,2.106903076171875,Closing,0.0,0.0,0.0,0.0,0.0,0.0,0.0,0.125,
14.768640000000014,0.0,0.0,-485.0,0.125,0.0,0.0,0.0,0.125,0.8178710100000001,0.01,0.0,-3283.0,0.0,0.0,-0.0,0.0,0.125,0.49316401200000004,0.01,0.0,14496.0,1.0,0.0,0.0,0.0,0.0,3.359374656,0.01,0.0,-7921.0,0.375,0.0,-0.0,0.0,0.125,1.6308592080000002,0.01,0.0,0.7300000190734863,-0.3700000047683716,164.39999389648438,-0.00738525390625,0.01007080078125,1.0206298828125,36.56999969482422,0.0,0.0,1.4268646240234375,2.106903076171875,Closing,0.0,0.0,0.0,0.0,0.0,0.0,0.0,0.125,
14.885603000000003,0.0,0.0,-485.0,0.125,0.0,0.0,0.0,0.125,0.8166503070000001,0.01,0.0,-3283.0,0.0,0.0,-0.0,0.0,0.125,0.49316401200000004,0.01,0.0,14496.0,1.0,0.0,0.0,0.0,0.0,3.359374656,0.01,0.0,-7921.0,0.375,0.0,-0.0,0.0,0.125,1.6308592080000002,0.01,0.0,0.7300000190734863,-0.3700000047683716,164.38999938964844,-0.00701904296875,0.01092529296875,1.01910400390625,36.56999969482422,0.0,0.0,1.4268646240234375,2.106903076171875,Closing,0.0,0.0,0.0,0.0,0.0,0.0,0.0,0.0,
15.005424,0.0,0.0,-485.0,0.125,0.0,0.0,0.0,0.125,0.8178710100000001,0.01,0.0,-3283.0,0.0,0.0,-0.0,0.0,0.125,0.49316401200000004,0.01,0.0,14496.0,1.0,0.0,0.0,0.0,0.0,3.359374656,0.01,0.0,-7921.0,0.375,0.0,-0.0,0.0,0.125,1.6308592080000002,0.01,0.0,0.7300000190734863,-0.3700000047683716,164.38999938964844,-0.0052490234375,0.0146484375,1.01873779296875,36.56999969482422,0.0,0.0,1.4268646240234375,2.106903076171875,Closing,0.0,0.0,0.0,0.0,0.0,0.0,0.0,0.125,
15.126254000000015,0.0,0.0,-485.0,0.125,0.0,0.0,0.0,0.25,0.8178710100000001,0.01,0.0,-3283.0,0.0,0.0,-0.0,0.0,0.125,0.49316401200000004,0.01,0.0,14496.0,1.0,0.0,0.0,0.0,0.0,3.358153953,0.01,0.0,-7921.0,0.375,0.0,-0.0,0.0,0.125,1.62353499,0.01,0.0,0.7300000190734863,-0.3799999952316284,164.38999938964844,-0.00567626953125,0.0137939453125,1.020751953125,36.58000183105469,0.0,0.0,1.4268646240234375,2.106903076171875,Closing,0.0,0.0,0.0,0.0,0.0,0.0,0.0,0.125,
15.237212999999988,0.0,0.0,-485.0,0.125,0.0,0.0,0.0,0.125,0.8166503070000001,0.01,0.0,-3283.0,0.0,0.0,-0.0,0.0,0.125,0.49316401200000004,0.01,0.0,14496.0,1.0,0.0,0.0,0.0,0.0,3.359374656,0.01,0.0,-7921.0,0.375,0.0,-0.0,0.0,0.125,1.6308592080000002,0.01,0.0,0.7300000190734863,-0.3700000047683716,164.3800048828125,-0.00506591796875,0.01080322265625,1.01995849609375,36.58000183105469,0.0,-2.0,1.4268646240234375,2.106903076171875,Closing,0.0,0.0,0.0,0.0,0.0,0.0,0.0,0.0,
15.359277000000002,0.0,0.0,-485.0,0.125,0.0,0.0,0.0,0.125,0.8178710100000001,0.01,0.0,-3283.0,0.0,0.0,-0.0,0.0,0.125,0.49194330900000005,0.01,0.0,14496.0,1.0,0.0,0.0,0.0,0.0,3.359374656,0.01,0.0,-7921.0,0.375,0.0,-0.0,0.0,0.125,1.6320799110000002,0.01,0.0,0.7300000190734863,-0.3799999952316284,164.3800048828125,-0.006591796875,0.01007080078125,1.01727294921875,36.58000183105469,0.0,0.0,1.4268646240234375,2.106903076171875,Closing,0.0,0.0,0.0,0.0,0.0,0.0,0.0,0.0,
15.47275,0.0,0.0,-485.0,0.125,0.0,0.0,0.0,0.125,0.819091713,0.01,0.0,-3283.0,0.0,0.0,-0.0,0.0,0.125,0.49316401200000004,0.01,0.0,14496.0,1.0,0.0,0.0,0.0,0.0,3.359374656,0.01,0.0,-7921.0,0.375,0.0,-0.0,0.0,0.125,1.6308592080000002,0.01,0.0,0.7300000190734863,-0.3700000047683716,164.3699951171875,-0.007080078125,0.0113525390625,1.0166015625,36.58000183105469,0.0,0.0,1.4268646240234375,2.106903076171875,Closing,0.0,0.0,0.0,0.0,0.0,0.0,0.0,0.0,
15.59104800000001,0.0,0.0,-485.0,0.125,0.0,0.0,0.0,0.125,0.8178710100000001,0.01,0.0,-3283.0,0.0,0.0,-0.0,0.0,0.125,0.49316401200000004,0.01,0.0,14496.0,1.0,0.0,0.0,0.0,0.0,3.358153953,0.01,0.0,-7921.0,0.375,0.0,-0.0,0.0,0.125,1.6320799110000002,0.01,0.0,0.7200000286102295,-0.3700000047683716,164.3699951171875,-0.00537109375,0.01324462890625,1.01910400390625,36.59000015258789,0.0,-1.0,1.4268646240234375,2.106903076171875,Closing,0.0,0.0,0.0,0.0,0.0,0.0,0.0,0.0,
15.71250899999999,0.0,0.0,-485.0,0.125,0.0,0.0,0.0,0.125,0.8178710100000001,0.01,0.0,-3283.0,0.0,0.0,-0.0,0.0,0.125,0.49316401200000004,0.01,0.0,14496.0,1.0,0.0,0.0,0.0,0.0,3.358153953,0.01,0.0,-7921.0,0.375,0.0,-0.0,0.0,0.125,1.6296385050000002,0.01,0.0,0.7200000286102295,-0.3700000047683716,164.3699951171875,-0.0081787109375,0.00909423828125,1.01702880859375,36.59000015258789,0.0,0.0,1.4268646240234375,2.106903076171875,Closing,0.0,0.0,0.0,0.0,0.0,0.0,0.0,0.0,
15.829880000000005,0.0,0.0,-485.0,0.125,0.0,0.0,0.0,0.125,0.8178710100000001,0.01,0.0,-3283.0,0.0,0.0,-0.0,0.0,0.125,0.49316401200000004,0.01,0.0,14496.0,1.0,0.0,0.0,0.0,0.0,3.358153953,0.01,0.0,-7921.0,0.375,0.0,-0.0,0.0,0.125,1.6308592080000002,0.01,0.0,0.7200000286102295,-0.3799999952316284,164.3699951171875,-0.00762939453125,0.01177978515625,1.0186767578125,36.59000015258789,0.0,0.0,1.4268646240234375,2.106903076171875,Closing,0.0,0.0,0.0,0.0,0.0,0.0,0.0,0.0,
