Time,ClimberA1,ClimberA2,FRpos,FRCurrent,FRspeed,FRsetpoint,FRApos,FRACurrent,FREncpos,FREncSetpoint,FREncSpeed,FLpos,FLCurrent,FLspeed,FLsetpoint,FLApos,FLACurrent,FLEncpos,FLEncSetpoint,FLEncSpeed,BRpos,BRCurrent,BRspeed,BRsetpoint,BRApos,BRACurrent,BREncpos,BREncSetpoint,BREncSpeed,BLpos,BLCurrent,BLspeed,BLsetpoint,BLApos,BLACurrent,BLEncpos,BLEncSetpoint,BLEncSpeed,navx_Pitch,navx_Roll,navx_Yaw,navx_XAcc,navx_YAcc,navx_ZAcc,navx_Temp,navx_Bar,navx_Alt,navx_XDis,navx_YDis,GearPlacerState,ShootOutputV,ShootOutputCurrent,ShootEncPos,ShootEncVelocity,ShootSpeed,ShootSetpoint,CarouselSetpoint,CarouselCurrent,
0.10769899999999324,0.0,0.0,4028.0,0.0,0.0,0.0,0.0,0.25,0.8300780400000001,0.0,0.0,-4408.0,0.0,0.0,-0.0,0.0,0.25,0.44189448600000003,0.0,0.0,8445.0,0.0,0.0,0.0,0.0,0.125,3.2666012280000003,0.0,0.0,-1124.0,0.125,0.0,-0.0,0.0,0.125,1.585693197,0.0,0.0,0.3100000023841858,-0.5899999737739563,-0.009999999776482582,-0.014404296875,0.0059814453125,1.018798828125,35.709999084472656,0.0,-3.0,0.0966339111328125,-0.117218017578125,Waiting,0.0,0.0,0.0,0.0,0.0,0.0,0.0,0.0,
0.1920560000000114,0.0,0.0,4028.0,0.0,0.0,0.0,0.0,0.125,0.8300780400000001,0.0,0.0,-4408.0,0.0,0.0,-0.0,0.0,0.125,0.43334956500000005,0.0,0.0,8445.0,0.0,0.0,0.0,0.0,0.125,3.2653805250000003,0.0,0.0,-1124.0,0.125,0.0,-0.0,0.0,0.125,1.5869139,0.0,0.0,0.3100000023841858,-0.5899999737739563,-0.019999999552965164,-0.01141357421875,0.0050048828125,1.02142333984375,35.709999084472656,0.0,0.0,0.0966339111328125,-0.117218017578125,Waiting,0.0,0.0,0.0,0.0,0.0,0.0,0.0,0.0,
0.27724400000000604,0.0,0.0,4028.0,0.0,0.0,0.0,0.0,0.125,0.8300780400000001,0.0,0.0,-4408.0,0.0,0.0,-0.0,0.0,0.0,0.43334956500000005,0.0,-0.004882811999999959,8445.0,0.0,0.0,0.0,0.0,0.125,3.2666012280000003,0.0,0.0,-1124.0,0.125,0.0,-0.0,0.0,0.125,1.5869139,0.0,0.0,0.3100000023841858,-0.5899999737739563,-0.019999999552965164,-0.01129150390625,0.00482177734375,1.01788330078125,35.709999084472656,0.0,0.0,0.0966339111328125,-0.117218017578125,Waiting,0.0,0.0,0.0,0.0,0.0,0.0,0.0,0.0,
0.3662259999999951,0.0,0.0,4028.0,0.125,0.0,-181.889770925045,0.0,0.125,0.8312987430000001,4.942250999999997,0.0,-4408.0,0.125,0.0,181.889770925045,0.0,0.0,0.43334956500000005,4.973769999999997,0.0,8444.0,0.125,0.0,-181.889770925045,0.0,0.125,3.2678219310000003,2.3449805060712E-15,0.0,-1124.0,0.5,0.0,181.889770925045,0.0,0.125,1.5869139,2.3533175408374518E-15,0.0,0.3100000023841858,-0.5899999737739563,-0.029999999329447746,-0.00933837890625,0.0040283203125,1.01812744140625,35.709999084472656,0.0,1.0,0.0966339111328125,-0.117218017578125,Waiting,0.0,0.0,0.0,0.0,0.0,0.0,0.0,0.0,
0.450247000000003,0.0,0.0,4028.0,7.875,-112.5,-1253.2197059046239,0.0,0.375,0.8300780400000001,4.828584555149345,0.0,-4408.0,10.5,120.0,1253.2197059046239,0.0,0.25,0.418701129,4.859378652129396,0.0,8444.0,7.125,-45.0,-1253.2197059046239,0.0,0.25,3.23486295,4.836546136934632,0.0,-1124.0,8.75,90.0,1253.2197059046239,0.0,0.25,1.508788908,4.853741355908865,0.0,0.28999999165534973,-1.4299999475479126,-0.07999999821186066,-0.31756591796875,-0.00396728515625,1.12091064453125,35.72999954223633,0.0,-289.0,0.09521484375,-0.117462158203125,Waiting,0.0,0.0,0.0,0.0,0.0,0.0,0.0,0.0,
0.5400499999999884,0.0,0.0,3988.0,9.875,-315.0,-1290.9683812967005,0.0,0.375,0.754394454,4.811700748241121,0.0,-4368.0,14.875,300.0,1290.9683812967005,0.0,0.25,0.380859336,4.84238716944551,0.0,8420.0,11.25,-202.5,-1290.9683812967005,0.0,0.25,3.19824186,4.819634491265791,0.0,-1089.0,13.0,277.5,1290.9683812967005,0.0,0.25,1.436767431,4.836769584802934,0.0,0.4000000059604645,-2.5199999809265137,0.28999999165534973,-0.22064208984375,-0.0860595703125,1.18182373046875,35.72999954223633,0.0,-168.0,0.0796661376953125,-0.116729736328125,Waiting,0.0,0.0,0.0,0.0,0.0,0.0,0.0,0.0,
0.6311509999999835,0.0,0.0,3883.0,9.875,-622.5,-1307.2794370556967,0.0,0.25,0.701904225,4.813344473595752,0.0,-4271.0,16.0,570.0,1307.2794370556967,0.0,0.25,0.36987300900000003,4.84404137759016,0.0,8371.0,14.0,-300.0,-1307.2794370556967,0.0,0.125,3.178710612,4.821280926866809,0.0,-1000.0,14.0,615.0,1307.2794370556967,0.0,0.25,1.4221189950000002,4.838421873924189,0.0,0.699999988079071,-3.200000047683716,0.699999988079071,-0.17327880859375,0.0379638671875,0.96478271484375,35.72999954223633,0.0,-118.0,0.06072998046875,-0.1140594482421875,Waiting,0.0,0.0,0.0,0.0,0.0,0.0,0.0,0.0,
0.7191179999999877,0.0,0.0,3883.0,6.125,-937.5,-1128.217029309691,0.0,0.25,0.690917898,4.7926528311019,0.0,-4271.0,10.875,870.0,1128.217029309691,0.0,0.25,0.372314415,4.823217775007723,0.0,8371.0,14.25,-427.5,-1128.217029309691,0.0,0.125,3.178710612,4.8005551670861815,0.0,-1000.0,10.125,892.5,1128.217029309691,0.0,0.25,1.4221189950000002,4.817622428507625,0.0,0.949999988079071,-3.9800000190734863,1.4199999570846558,-0.18646240234375,0.011962890625,1.35235595703125,35.72999954223633,0.0,-92.0,0.0300750732421875,-0.107025146484375,Waiting,0.0,0.0,0.0,0.0,0.0,0.0,0.0,0.0,
0.8098990000000049,0.0,0.0,3712.0,0.375,-1140.0,-663.5572152881483,0.0,0.375,0.649413996,4.684857399289268,0.0,-4112.0,1.875,1072.5,663.5572152881483,0.0,0.25,0.28442379900000003,4.714734882316375,0.0,8285.0,7.875,-667.5,-663.5572152881483,0.0,0.25,3.1042477290000003,4.692581997442379,0.0,-843.0,2.875,975.0,663.5572152881483,0.0,0.25,1.417236183,4.709265385280732,0.0,0.949999988079071,-4.010000228881836,2.2100000381469727,-0.0540771484375,0.14593505859375,0.73809814453125,35.72999954223633,0.0,2.0,5.79833984375E-4,-0.101806640625,Waiting,0.0,0.0,0.0,0.0,0.0,0.0,0.0,0.0,
0.8936900000000023,0.0,0.0,3536.0,0.375,-1080.0,-869.8595800776924,0.0,0.25,0.599365173,4.747401543472917,0.0,-3943.0,1.625,1057.5,869.8595800776924,0.0,0.25,0.23071286700000002,4.777677899175759,0.0,8162.0,8.625,-810.0,-869.8595800776924,0.0,0.125,3.038329767,4.755229267151412,0.0,-691.0,2.375,1027.5,869.8595800776924,0.0,0.125,1.414794777,4.7721353828394095,0.0,1.3200000524520874,-3.7300000190734863,3.059999942779541,0.01263427734375,0.17779541015625,1.26409912109375,35.689998626708984,0.0,102.0,-0.034149169921875,-0.09356689453125,Waiting,0.0,0.0,0.0,0.0,0.0,0.0,0.0,0.0,
0.9859780000000028,0.0,0.0,3335.0,2.0,-1207.5,-1410.608879525729,0.0,0.375,0.604247985,4.804318394532738,0.0,-3748.0,5.25,1192.5,1410.608879525729,0.0,0.25,0.23071286700000002,4.834957735083689,0.0,8011.0,15.375,-922.5,-1410.608879525729,0.0,0.0,3.0480953910000004,4.812239965209146,0.0,-490.0,4.5,1222.5,1410.608879525729,0.0,0.25,1.4221189950000002,4.829348769222495,0.0,1.4900000095367432,-3.640000104904175,3.440000057220459,-0.15887451171875,0.069091796875,1.32177734375,35.689998626708984,0.0,-72.0,-0.066802978515625,-0.0839080810546875,Waiting,0.0,0.0,0.0,0.0,0.0,0.0,0.0,0.0,
1.0722369999999937,0.0,0.0,3335.0,1.375,-1425.0,-1432.91731183027,0.0,0.25,0.62255853,4.788164990695864,0.0,-3748.0,5.125,1260.0,1432.91731183027,0.0,0.25,0.235595679,4.818701313586334,0.0,8011.0,16.625,-1012.5,-1432.91731183027,0.0,0.0,3.0554196090000003,4.796059926932244,0.0,-490.0,5.125,1312.5,1432.91731183027,0.0,0.25,1.418456886,4.813111206569043,0.0,1.4500000476837158,-3.759999990463257,3.9000000953674316,-0.03607177734375,0.2357177734375,0.85089111328125,35.689998626708984,0.0,34.0,-0.10162353515625,-0.0718231201171875,Waiting,0.0,0.0,0.0,0.0,0.0,0.0,0.0,0.0,
1.1622429999999877,0.0,0.0,3113.0,0.375,-1380.0,-1303.4182621842165,0.0,0.125,0.6335448570000001,4.7726256764945045,0.0,-3543.0,3.625,1327.5,1303.4182621842165,0.0,0.125,0.23925778800000003,4.803062898055577,0.0,7845.0,15.5,-1080.0,-1303.4182621842165,0.0,0.0,3.0615231240000003,4.780494990828754,0.0,-279.0,3.25,1335.0,1303.4182621842165,0.0,0.125,1.412353371,4.797490932942236,0.0,1.4299999475479126,-3.759999990463257,4.599999904632568,-0.01202392578125,0.06732177734375,0.40582275390625,35.689998626708984,0.0,19.0,-0.13787841796875,-0.053863525390625,Waiting,0.0,0.0,0.0,0.0,0.0,0.0,0.0,0.0,
1.248097000000009,0.0,0.0,2888.0,0.125,-1395.0,-1118.9956204582338,0.0,0.375,0.604247985,4.585421833968537,0.0,-3322.0,5.375,1402.5,1585.3241540490058,0.0,0.25,0.234374976,4.724818384096291,0.0,7652.0,9.125,-1237.5,-1008.0729345102593,0.0,0.125,3.148193037,4.897667685921208,0.0,-59.0,4.375,1410.0,1509.076709812531,0.0,0.375,1.4514158670000001,4.932663864496881,0.0,1.6799999475479126,-3.640000104904175,5.409999847412109,0.1578369140625,0.240966796875,1.2705078125,35.689998626708984,0.0,256.0,-0.17474365234375,-0.034210205078125,Waiting,0.0,0.0,0.0,0.0,0.0,0.0,0.0,0.0,
1.3336499999999942,0.0,0.0,2663.0,0.0,-1395.0,-1050.9179236901666,0.0,0.375,0.44189448600000003,4.438598192114342,0.0,-3071.0,6.625,1545.0,1784.7257256407652,0.0,0.25,0.21972654000000003,4.6891982469085995,0.0,7431.0,5.125,-1372.5,-845.6519513177335,0.0,0.125,3.2226559200000002,0.0653367914210957,0.0,186.0,5.25,1500.0,1672.1078482556668,0.0,0.625,1.533202968,0.03313261327019398,0.0,1.690000057220459,-3.630000114440918,5.239999771118164,-0.00274658203125,0.1007080078125,1.14471435546875,35.689998626708984,0.0,75.0,-0.2098388671875,-0.01312255859375,Waiting,0.0,0.0,0.0,0.0,0.0,0.0,0.0,0.0,
1.4295529999999854,0.0,0.0,2663.0,0.0,-1365.0,-1035.2955648092482,0.0,0.25,0.25634763,4.377855570216105,0.0,-3071.0,5.375,1732.5,1862.2378227944,0.0,0.25,0.18798826200000002,4.677538897780127,0.0,7431.0,3.5,-1327.5,-789.652206746612,0.0,0.125,3.3251949720000002,0.12314400518719257,0.0,186.0,5.125,1605.0,1737.7121193546764,0.0,0.375,1.6040037420000002,0.05597650253021725,0.0,1.7400000095367432,-3.059999942779541,2.799999952316284,0.0767822265625,-0.07928466796875,1.108642578125,35.66999816894531,0.0,130.0,-0.2408599853515625,0.0081024169921875,Waiting,0.0,0.0,0.0,0.0,0.0,0.0,0.0,0.0,
1.5146369999999878,0.0,0.0,2460.0,0.0,-1215.0,-1001.4827943753526,0.0,0.375,0.126953112,4.145086328211542,0.0,-2774.0,4.375,1927.5,2067.2530006349107,0.0,0.25,0.13427733,4.63836955694127,0.0,7238.0,3.0,-1027.5,-604.9209557337992,0.0,0.5,3.439941054,0.3970515043506473,0.0,455.0,5.5,1770.0,1906.9600268201925,0.0,0.375,1.646728347,0.1215955406007497,0.0,1.5,-2.640000104904175,-2.2899999618530273,-0.037353515625,0.05657958984375,0.7139892578125,35.66999816894531,0.0,-5.0,-0.267242431640625,0.02606201171875,Waiting,0.0,0.0,0.0,0.0,0.0,0.0,0.0,0.0,
1.6051449999999896,0.0,0.0,2278.0,0.125,-1125.0,-993.9779936825842,0.0,0.25,4.9230951990000005,4.084264356800197,0.0,-2443.0,3.375,2062.5,2084.628189479024,0.0,0.25,0.104980458,4.628100214761253,0.0,7099.0,3.625,-810.0,-561.7497695454767,0.0,0.25,3.659667594,0.4840750017765245,0.0,747.0,5.375,1815.0,1916.5712196601864,0.0,0.25,1.6882322490000001,0.13424077054859349,0.0,1.2999999523162842,-2.1700000762939453,-9.039999961853027,-0.02935791015625,-0.31341552734375,0.82861328125,35.66999816894531,0.0,54.0,-0.29010009765625,0.03948974609375,Waiting,0.0,0.0,0.0,0.0,0.0,0.0,0.0,0.0,
1.6912030000000087,0.0,0.0,2100.0,0.0,-1110.0,-993.9779936825842,0.0,0.125,4.831542474,4.084264356800197,0.0,-2108.0,2.75,2092.5,2084.628189479024,0.0,0.125,0.09033202200000001,4.628100214761253,0.0,7004.0,5.25,-630.0,-561.7497695454767,0.0,0.25,3.7768550820000004,0.4840750017765245,0.0,1039.0,5.25,1837.5,1916.5712196601864,0.0,0.25,1.7065427940000002,0.13424077054859349,0.0,0.8299999833106995,-1.9199999570846558,-17.25,0.06219482421875,-0.1834716796875,0.9151611328125,35.66999816894531,0.0,147.0,-0.3098907470703125,0.0444183349609375,Waiting,0.0,0.0,0.0,0.0,0.0,0.0,0.0,0.0,
1.7770119999999878,0.0,0.0,2100.0,0.0,-1095.0,-997.6930292653128,0.0,0.25,4.831542474,4.071641949523168,0.0,-2108.0,2.5,2115.0,2100.4715009971587,0.0,0.125,0.09033202200000001,4.626488361207197,0.0,7004.0,6.5,-495.0,-557.8215883578802,0.0,0.125,3.7866207060000003,0.5064955211710838,0.0,1039.0,5.625,1845.0,1930.739254869691,0.0,0.25,1.7077634970000002,0.13764098881394815,0.0,0.6000000238418579,-1.9199999570846558,-24.389999389648438,-0.0849609375,-0.1312255859375,0.96331787109375,35.66999816894531,0.0,10.0,-0.32489013671875,0.043609619140625,Waiting,0.0,0.0,0.0,0.0,0.0,0.0,0.0,0.0,
1.8679689999999827,0.0,0.0,1926.0,0.0,-1072.5,-997.6930292653128,0.0,0.25,4.836425286,4.071641949523168,0.0,-1771.0,2.5,2100.0,2100.4715009971587,0.0,0.125,0.08911131900000001,4.626488361207197,0.0,6927.0,7.5,-480.0,-557.8215883578802,0.0,0.125,3.7817378940000004,0.5064955211710838,0.0,1335.0,6.125,1845.0,1930.739254869691,0.0,0.25,1.7077634970000002,0.13764098881394815,0.0,0.28999999165534973,-1.909999966621399,-32.84000015258789,0.02117919921875,-0.06170654296875,0.70062255859375,35.66999816894531,0.0,72.0,-0.3412017822265625,0.03472900390625,Waiting,0.0,0.0,0.0,0.0,0.0,0.0,0.0,0.0,
1.9515540000000038,0.0,0.0,1757.0,0.125,-1050.0,-1001.6630368752071,0.0,0.25,4.854735831,4.059116393156364,0.0,-1438.0,3.0,2085.0,2116.323390862097,0.0,0.125,0.09033202200000001,4.624900647674577,0.0,6844.0,7.5,-517.5,-554.3513104250277,0.0,0.0,3.7817378940000004,0.5292153507390623,0.0,1628.0,6.875,1830.0,1944.9424748917197,0.0,0.25,1.7065427940000002,0.14099160713317707,0.0,-0.03999999910593033,-2.2100000381469727,-41.2599983215332,-0.2188720703125,-0.11474609375,0.69171142578125,35.68000030517578,0.0,-69.0,-0.348419189453125,0.0196380615234375,Waiting,0.0,0.0,0.0,0.0,0.0,0.0,0.0,0.0,
2.037207999999984,0.0,0.0,1757.0,0.125,-1057.5,-969.5550428446703,0.0,1.125,4.9255366050000005,4.421372668408144,0.0,-1438.0,0.875,2032.5,1630.1711464942762,0.0,0.25,0.09033202200000001,4.677415775714252,0.0,6844.0,10.625,-495.0,-765.5891490457904,0.0,1.375,3.6755367330000004,0.039456581253302966,0.0,1898.0,3.75,1777.5,1517.7442903511744,0.0,0.25,1.6882322490000001,0.019967446301962104,0.0,-0.25,-2.549999952316284,-49.5099983215332,-0.0924072265625,0.04412841796875,1.65765380859375,35.68000030517578,0.0,-51.0,-0.34600830078125,-0.001800537109375,Waiting,0.0,0.0,0.0,0.0,0.0,0.0,0.0,0.0,
2.127010000000009,0.0,0.0,1588.0,0.125,-1027.5,-1126.4140248169992,0.0,1.0,0.275878878,4.745441503109543,0.0,-1134.0,0.0,1777.5,1126.4140248169992,0.0,0.25,0.106201161,4.775705358736566,0.0,6767.0,18.625,-487.5,-1126.4140248169992,0.0,1.0,3.350829735,4.753265994987605,0.0,1898.0,1.625,1560.0,1126.4140248169992,0.0,0.5,1.625976396,4.77016513071639,0.0,-0.6899999976158142,-2.5899999141693115,-56.36000061035156,-0.06817626953125,0.12213134765625,0.674072265625,35.68000030517578,0.0,-129.0,-0.3437957763671875,-0.02679443359375,Waiting,0.0,0.0,0.0,0.0,0.0,0.0,0.0,0.0,
2.211957999999984,0.0,0.0,1427.0,0.125,-1005.0,-1126.4140248169992,0.0,0.5,0.58593744,4.745441503109543,0.0,-861.0,0.0,1672.5,1126.4140248169992,0.0,0.25,0.104980458,4.775705358736566,0.0,6674.0,20.5,-622.5,-1126.4140248169992,0.0,0.125,3.082275075,4.753265994987605,0.0,2138.0,1.125,1470.0,1126.4140248169992,0.0,0.25,1.459960788,4.77016513071639,0.0,-0.7400000095367432,-2.619999885559082,-59.880001068115234,-0.01702880859375,0.187744140625,0.92340087890625,35.68000030517578,0.0,-160.0,-0.3414459228515625,-0.0560150146484375,Waiting,0.0,0.0,0.0,0.0,0.0,0.0,0.0,0.0,
2.294612999999983,0.0,0.0,1253.0,0.125,-1080.0,-1110.4010452395808,0.0,0.25,0.692138601,4.742541211836961,0.0,-657.0,0.25,1297.5,1110.4010452395808,0.0,0.5,0.10986327000000001,4.7727865709771375,0.0,6551.0,18.75,-750.0,-1110.4010452395808,0.0,0.125,3.018798519,4.750360921587693,0.0,2344.0,1.5,1290.0,1110.4010452395808,0.0,0.25,1.3696287660000002,4.7672497290012235,0.0,-0.75,-2.490000009536743,-60.290000915527344,0.31329345703125,-0.11474609375,0.5540771484375,35.68000030517578,0.0,260.0,-0.342132568359375,-0.073944091796875,Waiting,0.0,0.0,0.0,0.0,0.0,0.0,0.0,0.0,
2.384274000000005,0.0,0.0,1253.0,0.0,-1155.0,-1110.4010452395808,0.0,0.25,0.69580071,4.742541211836961,0.0,-657.0,0.5,1117.5,1110.4010452395808,0.0,0.5,0.10986327000000001,4.7727865709771375,0.0,6551.0,17.75,-900.0,-1110.4010452395808,0.0,0.0,3.017577816,4.750360921587693,0.0,2344.0,2.75,1155.0,1110.4010452395808,0.0,0.25,1.3696287660000002,4.7672497290012235,0.0,-0.6100000143051147,-2.319999933242798,-59.119998931884766,-0.0439453125,0.11700439453125,1.061767578125,35.68000030517578,0.0,-110.0,-0.344207763671875,-0.097259521484375,Waiting,0.0,0.0,0.0,0.0,0.0,0.0,0.0,0.0,
2.4703129999999947,0.0,0.0,1059.0,0.0,-1215.0,-1110.4010452395808,0.0,0.25,0.667724541,4.742541211836961,0.0,-491.0,1.375,1027.5,1110.4010452395808,0.0,0.5,0.10986327000000001,4.7727865709771375,0.0,6393.0,16.5,-1027.5,-1110.4010452395808,0.0,0.0,3.017577816,4.750360921587693,0.0,2531.0,2.875,1170.0,1110.4010452395808,0.0,0.25,1.3696287660000002,4.7672497290012235,0.0,-0.5,-2.109999895095825,-57.58000183105469,-0.005126953125,0.114990234375,1.06201171875,35.650001525878906,0.0,-86.0,-0.345306396484375,-0.1180267333984375,Waiting,0.0,0.0,0.0,0.0,0.0,0.0,0.0,0.0,
2.555508999999991,0.0,0.0,867.0,0.0,-1192.5,-1110.4010452395808,0.0,0.25,0.643310481,4.742541211836961,0.0,-319.0,1.375,1072.5,1110.4010452395808,0.0,0.5,0.10986327000000001,4.7727865709771375,0.0,6203.0,15.125,-1207.5,-1110.4010452395808,0.0,0.0,3.021239925,4.750360921587693,0.0,2704.0,3.125,1087.5,1110.4010452395808,0.0,0.25,1.3696287660000002,4.7672497290012235,0.0,-0.44999998807907104,-1.840000033378601,-56.31999969482422,-0.1715087890625,0.03228759765625,1.02410888671875,35.650001525878906,0.0,-110.0,-0.348968505859375,-0.13458251953125,Waiting,0.0,0.0,0.0,0.0,0.0,0.0,0.0,0.0,
2.65080799999999,0.0,0.0,684.0,0.125,-1162.5,-1110.4010452395808,0.0,0.25,0.639648372,4.742541211836961,0.0,-147.0,1.5,1072.5,1110.4010452395808,0.0,0.5,0.114746082,4.7727865709771375,0.0,5989.0,10.875,-1350.0,-1110.4010452395808,0.0,0.0,3.017577816,4.750360921587693,0.0,2880.0,3.375,1102.5,1110.4010452395808,0.0,0.25,1.3696287660000002,4.7672497290012235,0.0,-0.4300000071525574,-1.7000000476837158,-55.34000015258789,0.026611328125,-0.1904296875,0.9217529296875,35.650001525878906,0.0,181.0,-0.355010986328125,-0.1503448486328125,Waiting,0.0,0.0,0.0,0.0,0.0,0.0,0.0,0.0,
2.736881999999983,0.0,0.0,684.0,0.125,-1125.0,-1110.4010452395808,0.0,0.25,0.6335448570000001,4.742541211836961,0.0,-147.0,1.625,1065.0,1110.4010452395808,0.0,0.5,0.114746082,4.7727865709771375,0.0,5989.0,10.875,-1230.0,-1110.4010452395808,0.0,0.0,3.01513641,4.750360921587693,0.0,2880.0,3.625,1095.0,1110.4010452395808,0.0,0.25,1.3696287660000002,4.7672497290012235,0.0,-0.38999998569488525,-1.6699999570846558,-54.650001525878906,0.01568603515625,-0.109619140625,1.06011962890625,35.650001525878906,0.0,110.0,-0.35491943359375,-0.1638946533203125,Waiting,0.0,0.0,0.0,0.0,0.0,0.0,0.0,0.0,
2.8297850000000033,0.0,0.0,504.0,0.125,-1117.5,-1074.8031377792358,0.0,0.375,0.6347655600000001,4.942250999999997,0.0,24.0,1.625,1050.0,1074.8031377792358,0.0,1.25,0.167236311,4.973769999999997,0.0,5791.0,10.0,-1260.0,-1074.8031377792358,0.0,0.25,3.037109064,2.3449805060712E-15,0.0,3056.0,3.25,1080.0,1074.8031377792358,0.0,0.625,1.3745115780000001,2.3533175408374518E-15,0.0,-0.3700000047683716,-1.4199999570846558,-53.900001525878906,-0.1590576171875,0.076171875,0.878662109375,35.650001525878906,0.0,-147.0,-0.3531494140625,-0.1770477294921875,Waiting,0.0,0.0,0.0,0.0,0.0,0.0,0.0,0.0,
2.91694200000001,0.0,0.0,327.0,0.125,-1102.5,-1074.8031377792358,0.0,0.375,0.728759691,4.942250999999997,0.0,190.0,1.875,1035.0,1074.8031377792358,0.0,0.5,0.339355434,4.973769999999997,0.0,5582.0,8.125,-1305.0,-1074.8031377792358,0.0,0.125,3.2141109990000003,2.3449805060712E-15,0.0,3226.0,3.625,1057.5,1074.8031377792358,0.0,0.375,1.483154145,2.3533175408374518E-15,0.0,-0.5,-1.5299999713897705,-53.38999938964844,-0.0028076171875,-0.123291015625,0.9351806640625,35.650001525878906,0.0,105.0,-0.355377197265625,-0.1873931884765625,Waiting,0.0,0.0,0.0,0.0,0.0,0.0,0.0,0.0,
3.0045929999999936,0.0,0.0,154.0,0.125,-1087.5,-1074.8031377792358,0.0,0.375,0.7910155440000001,4.942250999999997,0.0,361.0,2.0,1057.5,1074.8031377792358,0.0,0.25,0.430908159,4.973769999999997,0.0,5383.0,7.5,-1252.5,-1074.8031377792358,0.0,0.0,3.2751461490000002,2.3449805060712E-15,0.0,3398.0,3.625,1072.5,1074.8031377792358,0.0,0.25,1.5759275730000002,2.3533175408374518E-15,0.0,-1.090000033378601,-1.5700000524520874,-53.0,0.02203369140625,-0.08953857421875,0.90240478515625,35.650001525878906,0.0,85.0,-0.3548126220703125,-0.205474853515625,Waiting,0.0,0.0,0.0,0.0,0.0,0.0,0.0,0.0,
3.0935560000000115,0.0,0.0,154.0,0.125,-1072.5,-1074.8031377792358,0.0,0.125,0.797119059,4.942250999999997,0.0,361.0,1.625,1080.0,1074.8031377792358,0.0,0.0,0.438232377,4.973769999999997,0.0,5383.0,7.625,-1192.5,-1074.8031377792358,0.0,0.125,3.2751461490000002,2.3449805060712E-15,0.0,3398.0,3.5,1072.5,1074.8031377792358,0.0,0.25,1.621093584,2.3533175408374518E-15,0.0,-1.1799999475479126,-1.5299999713897705,-52.869998931884766,0.09027099609375,-0.1170654296875,0.98974609375,35.650001525878906,0.0,63.0,-0.35357666015625,-0.222381591796875,Waiting,0.0,0.0,0.0,0.0,0.0,0.0,0.0,0.0,
3.1854729999999982,0.0,0.0,-17.0,0.0,-1057.5,-1074.8031377792358,0.0,0.125,0.799560465,4.942250999999997,0.0,537.0,1.25,1117.5,1074.8031377792358,0.0,0.125,0.438232377,4.973769999999997,0.0,5190.0,7.25,-1215.0,-1074.8031377792358,0.0,0.125,3.305663724,2.3449805060712E-15,0.0,3572.0,3.375,1110.0,1074.8031377792358,0.0,0.25,1.614990069,2.3533175408374518E-15,0.0,-1.1399999856948853,-1.690000057220459,-53.0,0.0498046875,0.1702880859375,1.41259765625,35.650001525878906,0.0,-103.0,-0.353546142578125,-0.2354278564453125,Waiting,0.0,0.0,0.0,0.0,0.0,0.0,0.0,0.0,
3.2712939999999944,0.0,0.0,-184.0,0.125,-1042.5,-1074.8031377792358,0.0,0.125,0.797119059,4.942250999999997,0.0,713.0,1.375,1095.0,1074.8031377792358,0.0,0.125,0.438232377,4.973769999999997,0.0,5000.0,6.875,-1177.5,-1074.8031377792358,0.0,0.125,3.305663724,2.3449805060712E-15,0.0,3748.0,3.125,1095.0,1074.8031377792358,0.0,0.25,1.614990069,2.3533175408374518E-15,0.0,-1.100000023841858,-1.440000057220459,-53.119998931884766,0.08795166015625,-0.125732421875,0.89154052734375,35.650001525878906,0.0,153.0,-0.3533935546875,-0.245147705078125,Waiting,0.0,0.0,0.0,0.0,0.0,0.0,0.0,0.0,
3.3553379999999886,0.0,0.0,-184.0,0.125,-1050.0,-1074.8031377792358,0.0,0.125,0.795898356,4.942250999999997,0.0,713.0,1.25,1102.5,1074.8031377792358,0.0,0.125,0.443115189,4.973769999999997,0.0,5000.0,7.125,-1125.0,-1074.8031377792358,0.0,0.125,3.299560209,2.3449805060712E-15,0.0,3748.0,3.25,1087.5,1074.8031377792358,0.0,0.125,1.619872881,2.3533175408374518E-15,0.0,-0.9399999976158142,-1.340000033378601,-53.15999984741211,0.0477294921875,0.1824951171875,0.86328125,35.650001525878906,0.0,-116.0,-0.3524627685546875,-0.2443084716796875,Waiting,0.0,0.0,0.0,0.0,0.0,0.0,0.0,0.0,
3.4448740000000106,0.0,0.0,-352.0,0.125,-1050.0,-1223.622089624405,0.0,0.125,0.797119059,4.942250999999997,0.0,888.0,2.25,1095.0,1223.622089624405,0.0,0.125,0.438232377,4.973769999999997,0.0,4820.0,8.375,-1155.0,-1223.622089624405,0.0,0.125,3.300780912,2.3449805060712E-15,0.0,3923.0,4.625,1095.0,1223.622089624405,0.0,0.25,1.616210772,2.3533175408374518E-15,0.0,-0.800000011920929,-1.4299999475479126,-53.15999984741211,-0.03997802734375,0.10589599609375,1.052490234375,35.689998626708984,0.0,-104.0,-0.351715087890625,-0.242340087890625,Waiting,0.0,0.0,0.0,0.0,0.0,0.0,0.0,0.0,
3.5323979999999864,0.0,0.0,-526.0,0.125,-1087.5,-1339.3700659275055,0.0,0.125,0.798339762,4.942250999999997,0.0,1073.0,3.125,1147.5,1339.3700659275055,0.0,0.125,0.443115189,4.973769999999997,0.0,4628.0,9.125,-1207.5,-1339.3700659275055,0.0,0.125,3.300780912,2.3449805060712E-15,0.0,4103.0,5.875,1132.5,1339.3700659275055,0.0,0.25,1.616210772,2.3533175408374518E-15,0.0,-0.8100000023841858,-1.4900000095367432,-53.189998626708984,-0.04473876953125,0.36077880859375,0.65509033203125,35.689998626708984,0.0,-312.0,-0.3527984619140625,-0.240692138671875,Waiting,0.0,0.0,0.0,0.0,0.0,0.0,0.0,0.0,
3.625356999999989,0.0,0.0,-710.0,0.125,-1140.0,-1422.0471918582916,0.0,0.125,0.797119059,4.942250999999997,0.0,1268.0,4.25,1200.0,1422.0471918582916,0.0,0.125,0.438232377,4.973769999999997,0.0,4423.0,10.0,-1267.5,-1422.0471918582916,0.0,0.125,3.300780912,2.3449805060712E-15,0.0,4295.0,6.875,1192.5,1422.0471918582916,0.0,0.25,1.6113279600000001,2.3533175408374518E-15,0.0,-0.699999988079071,-1.6100000143051147,-53.31999969482422,-0.01068115234375,0.25482177734375,0.754638671875,35.689998626708984,0.0,-205.0,-0.3559417724609375,-0.2393646240234375,Waiting,0.0,0.0,0.0,0.0,0.0,0.0,0.0,0.0,
3.7085299999999988,0.0,0.0,-710.0,0.125,-1230.0,-1422.0471918582916,0.0,0.125,0.795898356,4.942250999999997,0.0,1268.0,4.0,1275.0,1422.0471918582916,0.0,0.125,0.443115189,4.973769999999997,0.0,4423.0,9.875,-1305.0,-1422.0471918582916,0.0,0.125,3.294677397,2.3449805060712E-15,0.0,4295.0,6.875,1267.5,1422.0471918582916,0.0,0.25,1.614990069,2.3533175408374518E-15,0.0,-0.6100000143051147,-1.9900000095367432,-53.400001525878906,-0.00982666015625,-0.16094970703125,1.55029296875,35.689998626708984,0.0,142.0,-0.3639373779296875,-0.2386627197265625,Waiting,0.0,0.0,0.0,0.0,0.0,0.0,0.0,0.0,
3.7967790000000097,0.0,0.0,-913.0,0.125,-1312.5,-1438.5826170444489,0.0,0.125,0.798339762,4.942250999999997,0.0,1475.0,3.5,1350.0,1438.5826170444489,0.0,0.125,0.438232377,4.973769999999997,0.0,4213.0,9.625,-1342.5,-1438.5826170444489,0.0,0.125,3.2958981,2.3449805060712E-15,0.0,4504.0,6.375,1335.0,1438.5826170444489,0.0,0.25,1.616210772,2.3533175408374518E-15,0.0,-0.5600000023841858,-2.009999990463257,-53.470001220703125,-0.09051513671875,0.10650634765625,1.1807861328125,35.689998626708984,0.0,-124.0,-0.373138427734375,-0.23785400390625,Waiting,0.0,0.0,0.0,0.0,0.0,0.0,0.0,0.0,
3.889043000000005,0.0,0.0,-1133.0,0.125,-1372.5,-1438.5826170444489,0.0,0.125,0.795898356,4.942250999999997,0.0,1700.0,3.125,1410.0,1438.5826170444489,0.0,0.125,0.42724605000000004,4.973769999999997,0.0,3991.0,9.375,-1410.0,-1438.5826170444489,0.0,0.125,3.289794585,2.3449805060712E-15,0.0,4727.0,5.5,1410.0,1438.5826170444489,0.0,0.25,1.614990069,2.3533175408374518E-15,0.0,-0.3400000035762787,-2.0999999046325684,-53.529998779296875,-0.1124267578125,0.0328369140625,1.00384521484375,35.689998626708984,0.0,-76.0,-0.3831329345703125,-0.238494873046875,Waiting,0.0,0.0,0.0,0.0,0.0,0.0,0.0,0.0,
3.9825419999999867,0.0,0.0,-1353.0,0.125,-1372.5,-1256.6929399967194,0.0,0.125,0.795898356,4.942250999999997,0.0,1925.0,1.5,1410.0,1256.6929399967194,0.0,0.125,0.438232377,4.973769999999997,0.0,3756.0,6.5,-1462.5,-1256.6929399967194,0.0,0.125,3.291015288,2.3449805060712E-15,0.0,4955.0,3.625,1425.0,1256.6929399967194,0.0,0.25,1.617431475,2.3533175408374518E-15,0.0,-0.30000001192092896,-2.009999990463257,-53.63999938964844,0.06219482421875,0.121337890625,1.07843017578125,35.650001525878906,0.0,-42.0,-0.3944244384765625,-0.23858642578125,Waiting,0.0,0.0,0.0,0.0,0.0,0.0,0.0,0.0,
4.071,0.0,0.0,-1353.0,0.0,-1380.0,0.0,0.0,0.125,0.797119059,4.942250999999997,0.0,1925.0,0.0,1282.5,0.0,0.0,0.125,0.438232377,4.973769999999997,-0.003662108999999525,3756.0,0.375,-1417.5,0.0,0.0,0.125,3.288573882,2.3449805060712E-15,0.0,4955.0,0.25,1357.5,0.0,0.0,0.25,1.614990069,2.3533175408374518E-15,0.0,-0.3100000023841858,-1.840000033378601,-53.70000076293945,0.28765869140625,-0.1312255859375,1.10992431640625,35.650001525878906,0.0,292.0,-0.404937744140625,-0.2357940673828125,Waiting,0.0,0.0,0.0,0.0,0.0,0.0,0.0,0.0,
4.154764999999985,0.0,0.0,-1572.0,0.0,-1297.5,0.0,0.0,0.125,0.8142089010000001,4.942250999999997,0.0,2124.0,0.0,1170.0,0.0,0.0,0.125,0.443115189,4.973769999999997,0.0,3555.0,0.0,-1065.0,0.0,0.0,0.125,3.284911773,2.3449805060712E-15,0.0,5149.0,0.125,1095.0,0.0,0.0,0.25,1.6296385050000002,2.3533175408374518E-15,0.0,-1.909999966621399,2.069999933242798,-51.599998474121094,1.2723388671875,-0.5679931640625,1.4493408203125,35.650001525878906,0.0,1163.0,-0.39337158203125,-0.219757080078125,Waiting,0.0,0.0,0.0,0.0,0.0,0.0,0.0,0.0,
4.247408999999985,0.0,0.0,-1687.0,0.0,-435.0,0.0,0.0,0.125,0.8154296040000001,4.942250999999997,0.0,2247.0,0.0,487.5,0.0,0.0,0.125,0.443115189,4.973769999999997,0.0,3429.0,0.0,-607.5,0.0,0.0,0.125,3.281249664,2.3449805060712E-15,0.0,5188.0,0.125,-165.0,0.0,0.0,0.25,1.619872881,2.3533175408374518E-15,0.0,-0.1599999964237213,3.9700000286102295,-46.959999084472656,0.12652587890625,0.4742431640625,1.46051025390625,35.650001525878906,0.0,-332.0,-0.3409423828125,-0.1671142578125,Waiting,0.0,0.0,0.0,0.0,0.0,0.0,0.0,0.0,
4.335587999999989,0.0,0.0,-1682.0,0.0,0.0,0.0,0.0,0.125,0.811767495,4.942250999999997,0.0,2192.0,0.0,-345.0,0.0,0.0,0.125,0.443115189,4.973769999999997,0.0,3425.0,0.0,-37.5,0.0,0.0,0.125,3.2653805250000003,2.3449805060712E-15,0.0,5117.0,0.125,-465.0,0.0,0.0,0.25,1.619872881,2.3533175408374518E-15,0.0,-0.05999999865889549,3.4800000190734863,-46.630001068115234,-0.21087646484375,-0.06207275390625,1.08087158203125,35.650001525878906,0.0,-145.0,-0.3131256103515625,-0.1143341064453125,Waiting,0.0,0.0,0.0,0.0,0.0,0.0,0.0,0.0,
4.428726999999984,0.0,0.0,-1682.0,0.0,262.5,0.0,0.0,0.125,0.8020018710000001,4.942250999999997,4.93004397,2192.0,0.0,-142.5,0.0,0.0,0.125,0.443115189,4.973769999999997,0.0,3425.0,0.0,172.5,0.0,0.0,0.125,3.2568356040000004,2.3449805060712E-15,-0.014648435999999876,5117.0,0.125,-165.0,0.0,0.0,0.25,1.624755693,2.3533175408374518E-15,0.0,-0.14000000059604645,2.9600000381469727,-47.02000045776367,-0.047119140625,0.05816650390625,0.7203369140625,35.650001525878906,0.0,-101.0,-0.2821044921875,-0.0579681396484375,Waiting,0.0,0.0,0.0,0.0,0.0,0.0,0.0,0.0,
4.5160119999999875,0.0,0.0,-1646.0,0.0,105.0,0.0,0.0,0.125,0.8020018710000001,4.942250999999997,0.0,2171.0,0.0,-120.0,0.0,0.0,0.125,0.443115189,4.973769999999997,0.0,3463.0,0.0,172.5,0.0,0.0,0.0,3.2568356040000004,2.3449805060712E-15,0.0,5102.0,0.125,-105.0,0.0,0.0,0.25,1.621093584,2.3533175408374518E-15,0.0,0.0,2.240000009536743,-46.849998474121094,-0.10986328125,-0.07598876953125,0.7916259765625,35.650001525878906,0.0,-40.0,-0.256744384765625,-0.0054931640625,Waiting,0.0,0.0,0.0,0.0,0.0,0.0,0.0,0.0,
4.607631999999983,0.0,0.0,-1636.0,1.5,97.5,661.4173203706741,0.0,6.625,0.49194330900000005,3.7066882499999982,0.0,2168.0,3.125,0.0,661.4173203706741,0.0,8.125,0.871581942,1.2434424999999985,0.0,3468.0,2.0,0.0,-661.4173203706741,0.0,6.375,3.6303707220000003,1.2375999999999985,0.0,5097.0,2.375,7.5,661.4173203706741,0.0,7.875,2.043456822,1.2419999999999984,0.0,0.07999999821186066,1.659999966621399,-46.869998931884766,-0.03924560546875,0.0616455078125,1.0338134765625,35.650001525878906,0.0,-91.0,-0.235198974609375,0.0425262451171875,Waiting,0.0,0.0,0.0,0.0,0.0,0.0,0.0,0.0,
4.693525999999983,0.0,0.0,-1610.0,9.625,165.0,1339.3700659275055,0.0,0.75,4.783935057,3.7066882499999982,0.0,2188.0,17.125,97.5,1339.3700659275055,0.0,1.75,1.418456886,1.2434424999999985,0.0,3448.0,9.0,-105.0,-1339.3700659275055,0.0,0.75,4.262694876,1.2375999999999985,0.0,5119.0,12.125,112.5,1339.3700659275055,0.0,1.5,2.609863014,1.2419999999999984,0.0,-0.4000000059604645,1.3799999952316284,-47.279998779296875,3.662109375E-4,-0.135498046875,0.89935302734375,35.650001525878906,0.0,80.0,-0.22772216796875,0.0850677490234375,Waiting,0.0,0.0,0.0,0.0,0.0,0.0,0.0,0.0,
4.78581700000001,0.0,0.0,-1610.0,14.0,255.0,1339.3700659275055,0.0,0.5,4.2956538570000005,3.7066882499999982,0.0,2188.0,19.875,277.5,1339.3700659275055,0.0,1.5,1.730956854,1.2434424999999985,0.0,3448.0,13.25,-232.5,-1339.3700659275055,0.0,0.875,4.739989749,1.2375999999999985,0.0,5119.0,16.375,285.0,1339.3700659275055,0.0,1.375,2.969970399,1.2419999999999984,0.0,-1.6799999475479126,1.5399999618530273,-47.61000061035156,0.08203125,-0.29766845703125,1.377197265625,35.650001525878906,0.0,220.0,-0.21954345703125,0.119873046875,Waiting,0.0,0.0,0.0,0.0,0.0,0.0,0.0,0.0,
4.872774000000005,0.0,0.0,-1527.0,12.875,682.5,1339.3700659275055,0.0,0.625,4.151610903,3.7066882499999982,0.0,2262.0,19.25,630.0,1339.3700659275055,0.0,0.625,1.799316222,1.2434424999999985,0.0,3376.0,13.75,-637.5,-1339.3700659275055,0.0,0.75,4.726562016,1.2375999999999985,0.0,5189.0,17.75,555.0,1339.3700659275055,0.0,0.625,3.034667658,1.2419999999999984,0.0,-2.680000066757202,1.5099999904632568,-47.130001068115234,0.04595947265625,-0.20245361328125,1.1807861328125,35.650001525878906,0.0,117.0,-0.1992034912109375,0.14715576171875,Waiting,0.0,0.0,0.0,0.0,0.0,0.0,0.0,0.0,
4.955774000000005,0.0,0.0,-1374.0,8.75,930.0,1190.5512392520905,0.0,0.75,4.317626511,3.7066882499999982,0.0,2426.0,11.875,1005.0,1190.5512392520905,0.0,0.25,1.7895505980000002,1.2434424999999985,0.0,3236.0,10.25,-855.0,-1190.5512392520905,0.0,0.25,4.588622577000001,1.2375999999999985,0.0,5317.0,14.625,817.5,1190.5512392520905,0.0,0.5,2.9565426660000003,1.2419999999999984,0.0,-3.2300000190734863,1.2100000381469727,-45.529998779296875,0.17041015625,-0.234130859375,0.9879150390625,35.56999969482422,0.0,231.0,-0.17657470703125,0.1668701171875,Waiting,0.0,0.0,0.0,0.0,0.0,0.0,0.0,0.0,
5.047818999999989,0.0,0.0,-1231.0,0.875,1057.5,0.0,0.0,0.5,4.525146021,3.7066882499999982,0.0,2562.0,0.0,975.0,0.0,0.0,0.25,1.779784974,1.2434424999999985,0.0,3121.0,0.0,-787.5,0.0,0.0,0.125,4.477538604,1.2375999999999985,0.0,5437.0,1.0,832.5,0.0,0.0,0.25,2.8552243170000002,1.2419999999999984,0.0,-2.859999895095825,1.5499999523162842,-45.13999938964844,-0.154296875,0.6019287109375,0.885498046875,35.56999969482422,0.0,-582.0,-0.1517333984375,0.185516357421875,Waiting,0.0,0.0,0.0,0.0,0.0,0.0,0.0,0.0,
5.134777999999991,0.0,0.0,-1231.0,0.0,615.0,0.0,0.0,0.25,4.60205031,3.7066882499999982,0.20141599500000051,2562.0,0.0,652.5,0.0,0.0,0.25,1.7089842000000002,1.2434424999999985,0.0,3121.0,0.0,-532.5,0.0,0.0,0.0,4.472655792,1.2375999999999985,0.0,5437.0,0.125,690.0,0.0,0.0,0.125,2.7929684640000003,1.2419999999999984,0.0,-1.5,1.0,-45.7599983215332,-0.2276611328125,0.15203857421875,1.05682373046875,35.56999969482422,0.0,-300.0,-0.1400299072265625,0.2172088623046875,Waiting,0.0,0.0,0.0,0.0,0.0,0.0,0.0,0.0,
5.23293299999999,0.0,0.0,-1140.0,23.875,405.0,-1657.0312499999998,0.0,3.0,4.566649923,3.0220571050660396,0.0,2658.0,18.375,345.0,-1657.0312499999998,0.0,2.625,1.702880685,1.9324398515586714,0.0,3036.0,3.125,-532.5,-1657.0312499999998,0.0,2.75,4.549560081,1.9233599947637376,0.0,5541.0,3.625,555.0,1657.0312499999998,0.0,2.75,2.713622769,0.5538019444921097,0.0,0.23999999463558197,0.9599999785423279,-46.56999969482422,-0.08306884765625,0.0040283203125,1.227294921875,35.56999969482422,0.0,-70.0,-0.1430511474609375,0.2599945068359375,Waiting,0.0,0.0,0.0,0.0,0.0,0.0,0.0,0.0,
5.319739000000001,0.0,0.0,-1143.0,9.375,7.5,-180.46875,0.0,2.625,4.125976140000001,3.0220571050660396,0.0,2556.0,4.25,-705.0,-180.46875,0.0,1.0,2.137450953,1.9324398515586714,0.0,2964.0,0.125,-412.5,-180.46875,0.0,0.75,0.025634763,1.9233599947637376,0.0,5605.0,0.25,315.0,180.46875,0.0,2.125,2.385253662,0.5538019444921097,0.0,0.5199999809265137,1.1399999856948853,-47.65999984741211,0.17315673828125,0.168701171875,0.83270263671875,35.56999969482422,0.0,-13.0,-0.15704345703125,0.310394287109375,Waiting,0.0,0.0,0.0,0.0,0.0,0.0,0.0,0.0,
5.408242999999987,0.0,0.0,-1140.0,0.0,15.0,0.0,0.0,0.625,3.8378902320000003,3.0220571050660396,0.0,2555.0,0.0,-30.0,0.0,0.0,0.25,2.4743649810000004,1.9324398515586714,0.0,2952.0,0.0,-120.0,0.0,0.0,0.25,0.324706998,1.9233599947637376,0.0,5610.0,0.125,30.0,0.0,0.0,1.25,2.194823994,0.5538019444921097,0.0,0.3700000047683716,0.9200000166893005,-47.790000915527344,-0.15716552734375,0.0029296875,1.07757568359375,35.56999969482422,0.0,-114.0,-0.1705169677734375,0.362762451171875,Waiting,0.0,0.0,0.0,0.0,0.0,0.0,0.0,0.0,
5.497478000000003,0.0,0.0,-1140.0,0.0,22.5,0.0,0.0,0.25,3.769530864,3.0220571050660396,0.0,2555.0,0.0,0.0,0.0,0.0,0.25,2.501220447,1.9324398515586714,0.0,2952.0,0.0,0.0,0.0,0.0,0.25,0.344238246,1.9233599947637376,0.0,5610.0,0.125,0.0,0.0,0.0,0.25,2.1643064190000003,0.5538019444921097,0.0,0.3100000023841858,0.6800000071525574,-48.06999969482422,0.05804443359375,-0.00653076171875,1.12371826171875,35.5099983215332,0.0,39.0,-0.18572998046875,0.4120330810546875,Waiting,0.0,0.0,0.0,0.0,0.0,0.0,0.0,0.0,
5.594391999999993,0.0,0.0,-1140.0,3.125,-90.0,-836.7187499999999,0.0,0.25,3.775634379,3.0220571050660396,0.0,2555.0,3.375,-105.0,-836.7187499999999,0.0,0.25,2.460937248,1.9324398515586718,0.0,2952.0,2.5,-7.5,-836.7187499999999,0.0,0.125,0.299072235,1.9233599947637376,0.0,5610.0,3.75,75.0,836.7187499999999,0.0,0.125,2.1630857160000003,0.5538019444921097,0.0,0.25,0.7300000190734863,-48.66999816894531,0.1114501953125,-0.017822265625,1.33062744140625,35.5099983215332,0.0,80.0,-0.199920654296875,0.4611968994140625,Waiting,0.0,0.0,0.0,0.0,0.0,0.0,0.0,0.0,
5.6891739999999995,0.0,0.0,-1181.0,11.625,-262.5,-1476.5625,0.0,0.25,3.825683202,3.0220571050660396,0.0,2509.0,11.875,-300.0,-1476.5625,0.0,0.25,2.447509515,1.9324398515586718,0.0,2936.0,12.125,-150.0,-1476.5625,0.0,0.125,0.267333957,1.9233599947637376,0.0,5644.0,13.0,300.0,1476.5625,0.0,0.125,2.16064431,0.5538019444921097,0.0,0.09000000357627869,0.699999988079071,-51.459999084472656,0.06597900390625,-0.09600830078125,0.8994140625,35.5099983215332,0.0,110.0,-0.211761474609375,0.512908935546875,Waiting,0.0,0.0,0.0,0.0,0.0,0.0,0.0,0.0,
5.787975999999995,0.0,0.0,-1258.0,0.0,-517.5,0.0,0.0,0.125,3.818358984,3.0220571050660396,0.03906249599999967,2431.0,0.0,-517.5,0.0,0.0,0.25,2.408447019,1.9324398515586718,0.0,2904.0,0.625,-195.0,0.0,0.0,0.125,0.261230442,1.9233599947637376,0.0,5715.0,0.125,495.0,0.0,0.0,0.125,2.1105954870000003,0.5538019444921097,0.0,0.20000000298023224,0.6499999761581421,-58.91999816894531,-0.078857421875,0.00274658203125,1.06695556640625,35.5099983215332,0.0,-46.0,-0.229766845703125,0.574127197265625,Waiting,0.0,0.0,0.0,0.0,0.0,0.0,0.0,0.0,
5.885853000000003,0.0,0.0,-1346.0,0.0,-510.0,0.0,0.0,0.125,3.826903905,3.0220571050660396,-0.0012207029999999897,2364.0,0.0,-472.5,0.0,0.0,0.25,2.388915771,1.9324398515586718,-0.03906249600000011,2890.0,0.0,-82.5,0.0,0.0,0.125,0.261230442,1.9233599947637376,-0.004882811999999959,5793.0,0.125,540.0,0.0,0.0,0.25,2.092284942,0.5538019444921097,-0.052490229,0.15000000596046448,0.9200000166893005,-62.529998779296875,0.18218994140625,-0.10968017578125,1.03436279296875,35.5099983215332,0.0,176.0,-0.250579833984375,0.6278228759765625,Waiting,0.0,0.0,0.0,0.0,0.0,0.0,0.0,0.0,
5.974858000000007,0.0,0.0,-1346.0,0.0,-187.5,0.0,0.0,0.125,3.8317867170000004,3.0220571050660396,0.009765623999999917,2364.0,0.0,-75.0,0.0,0.0,0.25,2.388915771,1.9324398515586718,-0.019531247999999835,2890.0,0.0,-60.0,0.0,0.0,0.125,0.25634763,1.9233599947637376,0.0,5793.0,0.125,22.5,0.0,0.0,0.25,2.092284942,0.5538019444921097,-0.017089841999999855,-0.05999999865889549,-0.009999999776482582,-61.81999969482422,-0.14080810546875,0.10125732421875,1.22271728515625,35.54999923706055,0.0,-156.0,-0.272369384765625,0.686981201171875,Waiting,0.0,0.0,0.0,0.0,0.0,0.0,0.0,0.0,
6.074516999999992,0.0,0.0,-1336.0,0.375,135.0,330.70866018533707,0.0,0.125,3.826903905,3.0220571050660365,0.0,2364.0,0.5,15.0,330.70866018533707,0.0,0.25,2.388915771,1.932439851558669,0.0,2889.0,0.5,37.5,330.70866018533707,0.0,0.125,0.25756833300000004,1.9233599947637403,0.0,5793.0,0.375,0.0,-330.70866018533707,0.0,0.25,2.1203611110000002,0.553801944492112,0.0,0.019999999552965164,0.33000001311302185,-61.5099983215332,0.07525634765625,-0.02288818359375,1.06768798828125,35.54999923706055,0.0,53.0,-0.2927398681640625,0.7345123291015625,Waiting,0.0,0.0,0.0,0.0,0.0,0.0,0.0,0.0,
6.168285000000004,0.0,0.0,-1291.0,17.25,292.5,2050.3937244415283,0.0,0.125,3.803710548,3.022057105066037,0.0,2398.0,21.25,277.5,2050.3937244415283,0.0,0.25,2.387695068,1.932439851558669,0.0,2903.0,22.0,97.5,2050.3937244415283,0.0,0.125,0.25756833300000004,1.92335999476374,0.0,5764.0,19.375,-255.0,-2050.3937244415283,0.0,0.25,2.211913836,0.553801944492112,0.0,-0.07999999821186066,0.49000000953674316,-60.08000183105469,-0.22698974609375,-0.44451904296875,0.60272216796875,35.54999923706055,0.0,268.0,-0.31292724609375,0.7830352783203125,Waiting,0.0,0.0,0.0,0.0,0.0,0.0,0.0,0.0,
6.263065000000003,0.0,0.0,-1209.0,0.0,555.0,0.0,0.0,0.25,3.823241796,3.022057105066037,0.0,2476.0,0.0,525.0,0.0,0.0,0.25,2.3779294440000003,1.932439851558669,0.0,2947.0,0.0,277.5,0.0,0.0,0.125,0.25146481800000003,1.92335999476374,0.0,5670.0,0.125,-600.0,0.0,0.0,0.25,2.202148212,0.553801944492112,0.0,0.33000001311302185,-0.28999999165534973,-52.08000183105469,0.2257080078125,0.08160400390625,1.521484375,35.54999923706055,0.0,86.0,-0.34039306640625,0.8343658447265625,Waiting,0.0,0.0,0.0,0.0,0.0,0.0,0.0,0.0,
6.355986999999994,0.0,0.0,-1209.0,0.0,570.0,0.0,0.0,0.125,3.818358984,3.022057105066037,0.0,2558.0,0.0,517.5,0.0,0.0,0.125,2.3779294440000003,1.932439851558669,0.0,3023.0,0.0,375.0,0.0,0.0,0.125,0.25146481800000003,1.92335999476374,0.0,5589.0,0.125,-510.0,0.0,0.0,0.25,2.187499776,0.553801944492112,0.0,0.3799999952316284,0.3799999952316284,-47.130001068115234,0.18896484375,-0.07476806640625,1.03411865234375,35.54999923706055,0.0,183.0,-0.364990234375,0.881378173828125,Waiting,0.0,0.0,0.0,0.0,0.0,0.0,0.0,0.0,
6.4488899999999845,0.0,0.0,-1112.0,0.0,360.0,0.0,0.0,0.125,3.803710548,3.022057105066037,0.0,2558.0,0.0,240.0,0.0,0.0,0.125,2.3779294440000003,1.932439851558669,0.0,3023.0,0.0,322.5,0.0,0.0,0.125,0.252685521,1.92335999476374,0.0,5589.0,0.125,-187.5,0.0,0.0,0.25,2.182616964,0.553801944492112,0.0,0.5699999928474426,0.23000000417232513,-47.08000183105469,-0.31732177734375,0.09539794921875,0.88836669921875,35.54999923706055,0.0,-281.0,-0.3876800537109375,0.9327545166015625,Waiting,0.0,0.0,0.0,0.0,0.0,0.0,0.0,0.0,
6.547285000000003,0.0,0.0,-1125.0,0.0,-97.5,0.0,0.0,0.25,3.803710548,3.022057105066037,0.0,2565.0,0.0,0.0,0.0,0.0,0.125,2.3779294440000003,1.932439851558669,0.0,3031.0,0.0,-37.5,0.0,0.0,0.125,0.25146481800000003,1.92335999476374,0.0,5585.0,0.125,0.0,0.0,0.0,0.25,2.183837667,0.553801944492112,0.0,0.4300000071525574,0.10000000149011612,-48.290000915527344,0.25762939453125,-0.1434326171875,1.02777099609375,35.52000045776367,0.0,283.0,-0.4207305908203125,0.986358642578125,Waiting,0.0,0.0,0.0,0.0,0.0,0.0,0.0,0.0,
6.636456000000005,0.0,0.0,-1167.0,6.875,-202.5,-1460.15625,0.0,0.25,3.807372657,3.0220571050660396,0.0,2530.0,8.25,-150.0,-1460.15625,0.0,0.125,2.3779294440000003,1.9324398515586718,0.0,3003.0,5.0,-142.5,-1460.15625,0.0,0.125,0.25146481800000003,1.9233599947637376,0.0,5620.0,9.375,247.5,1460.15625,0.0,0.25,2.132568141,0.5538019444921097,0.0,0.44999998807907104,0.3700000047683716,-49.36000061035156,-0.02423095703125,0.2861328125,1.00958251953125,35.52000045776367,0.0,-231.0,-0.4288177490234375,1.0363616943359375,Waiting,0.0,0.0,0.0,0.0,0.0,0.0,0.0,0.0,
6.733337999999989,0.0,0.0,-1204.0,0.125,-345.0,0.0,0.0,0.125,3.813476172,3.0220571050660396,0.019531247999999835,2495.0,1.0,-337.5,0.0,0.0,0.125,2.3779294440000003,1.9324398515586718,0.0,2936.0,0.0,-480.0,0.0,0.0,0.125,0.252685521,1.9233599947637376,0.0,5649.0,0.625,292.5,0.0,0.0,0.25,2.1118161900000003,0.5538019444921097,-0.05126952600000001,0.6100000143051147,0.18000000715255737,-53.45000076293945,0.17523193359375,-0.20562744140625,1.090576171875,35.52000045776367,0.0,276.0,-0.4308624267578125,1.0909271240234375,Waiting,0.0,0.0,0.0,0.0,0.0,0.0,0.0,0.0,
6.827241000000009,0.0,0.0,-1204.0,0.0,-247.5,0.0,0.0,0.125,3.813476172,3.0220571050660396,0.0,2495.0,0.0,-262.5,0.0,0.0,0.125,2.3779294440000003,1.9324398515586718,0.0,2936.0,0.0,-172.5,0.0,0.0,0.125,0.24291989700000002,1.9233599947637376,0.0,5649.0,0.125,277.5,0.0,0.0,0.25,2.105712675,0.5538019444921097,0.0,0.30000001192092896,0.36000001430511475,-56.25,0.132568359375,0.0845947265625,0.81976318359375,35.52000045776367,0.0,4.0,-0.4310455322265625,1.148712158203125,Waiting,0.0,0.0,0.0,0.0,0.0,0.0,0.0,0.0,
6.916060999999987,0.0,0.0,-1251.0,0.0,-120.0,0.0,0.0,0.125,3.814696875,3.0220571050660396,0.0,2451.0,0.0,-127.5,0.0,0.0,0.125,2.3779294440000003,1.9324398515586718,0.0,2913.0,0.0,-97.5,0.0,0.0,0.125,0.241699194,1.9233599947637376,0.0,5691.0,0.125,97.5,0.0,0.0,0.25,2.1105954870000003,0.5538019444921097,0.0,0.3700000047683716,0.23999999463558197,-56.959999084472656,0.04705810546875,-0.02197265625,1.04132080078125,35.52000045776367,0.0,47.0,-0.4316253662109375,1.1903076171875,Waiting,0.0,0.0,0.0,0.0,0.0,0.0,0.0,0.0,
7.010714000000007,0.0,0.0,-1252.0,0.0,-7.5,0.0,0.0,0.125,3.813476172,3.0220571050660396,0.0,2446.0,0.0,-7.5,0.0,0.0,0.125,2.3791501470000003,1.9324398515586718,0.0,2907.0,0.0,-22.5,0.0,0.0,0.125,0.241699194,1.9233599947637376,0.0,5696.0,0.125,0.0,0.0,0.0,0.25,2.1105954870000003,0.5538019444921097,0.0,0.2199999988079071,0.029999999329447746,-56.540000915527344,-0.01043701171875,0.05255126953125,1.04315185546875,35.560001373291016,0.0,-46.0,-0.4322052001953125,1.230194091796875,Waiting,0.0,0.0,0.0,0.0,0.0,0.0,0.0,0.0,
7.106533999999985,0.0,0.0,-1252.0,0.0,0.0,0.0,0.0,0.25,3.813476172,3.0220571050660396,0.0,2446.0,0.0,0.0,0.0,0.0,0.125,2.3779294440000003,1.9324398515586718,0.0,2907.0,0.0,0.0,0.0,0.0,0.125,0.241699194,1.9233599947637376,0.0,5696.0,0.125,0.0,0.0,0.0,0.25,2.1105954870000003,0.5538019444921097,0.0,0.30000001192092896,0.07000000029802322,-56.22999954223633,-0.00555419921875,-0.03009033203125,1.07147216796875,35.560001373291016,0.0,25.0,-0.432525634765625,1.2309417724609375,Waiting,0.0,0.0,0.0,0.0,0.0,0.0,0.0,0.0,
7.191942999999999,0.0,0.0,-1252.0,0.0,0.0,0.0,0.0,0.125,3.813476172,3.0220571050660396,-0.0012207029999999897,2446.0,0.0,0.0,0.0,0.0,0.125,2.3791501470000003,1.9324398515586718,0.0,2907.0,0.0,0.0,0.0,0.0,0.125,0.24291989700000002,1.9233599947637376,0.0,5696.0,0.125,0.0,0.0,0.0,0.25,2.1105954870000003,0.5538019444921097,0.0,0.25999999046325684,-0.009999999776482582,-56.310001373291016,-0.030029296875,0.02679443359375,1.010498046875,35.560001373291016,0.0,-34.0,-0.4326324462890625,1.2310333251953125,Waiting,0.0,0.0,0.0,0.0,0.0,0.0,0.0,0.0,
7.281247999999993,0.0,0.0,-1252.0,0.0,0.0,0.0,0.0,0.125,3.812255469,3.0220571050660396,0.0,2446.0,0.0,0.0,0.0,0.0,0.125,2.3791501470000003,1.9324398515586718,0.0,2907.0,0.0,0.0,0.0,0.0,0.125,0.241699194,1.9233599947637376,0.0,5696.0,0.125,0.0,0.0,0.0,0.25,2.1105954870000003,0.5538019444921097,0.0,0.25,-0.029999999329447746,-56.400001525878906,0.00732421875,-0.021728515625,1.038330078125,35.560001373291016,0.0,26.0,-0.432952880859375,1.2310333251953125,Waiting,0.0,0.0,0.0,0.0,0.0,0.0,0.0,0.0,
7.367010999999999,0.0,0.0,-1252.0,0.0,0.0,0.0,0.0,0.125,3.812255469,3.0220571050660396,0.0,2446.0,0.0,0.0,0.0,0.0,0.125,2.3779294440000003,1.9324398515586718,0.0,2907.0,0.0,0.0,0.0,0.0,0.125,0.241699194,1.9233599947637376,0.0,5696.0,0.125,0.0,0.0,0.0,0.25,2.109374784,0.5538019444921097,0.0,0.25,-0.10000000149011612,-56.400001525878906,-0.029541015625,0.0115966796875,1.03515625,35.560001373291016,0.0,-21.0,-0.4330291748046875,1.2310333251953125,Waiting,0.0,0.0,0.0,0.0,0.0,0.0,0.0,0.0,
7.4541699999999835,0.0,0.0,-1252.0,0.125,0.0,132.28346407413483,0.0,1.875,3.6791988420000004,2.471125499999997,0.0,2446.0,0.0,0.0,-132.28346407413483,0.0,2.625,2.499999744,2.486884999999998,0.0,2907.0,0.125,0.0,132.28346407413483,0.0,1.75,0.38208003900000004,2.4752000000000023,0.0,5696.0,0.25,0.0,132.28346407413483,0.0,2.125,1.986083781,2.3533175408374518E-15,0.0,0.23000000417232513,-0.10999999940395355,-56.38999938964844,0.0687255859375,-0.073486328125,1.031494140625,35.560001373291016,0.0,103.0,-0.4331817626953125,1.2309722900390625,Waiting,0.0,0.0,0.0,0.0,0.0,0.0,0.0,0.0,
7.546897999999986,0.0,0.0,-1252.0,0.375,0.0,198.42519611120224,0.0,0.625,3.3276363780000002,2.471125499999997,0.0,2446.0,0.0,0.0,-198.42519611120224,0.0,0.5,2.8564450200000002,2.486884999999998,0.0,2907.0,0.5,0.0,198.42519611120224,0.0,0.625,0.728759691,2.4752000000000023,0.0,5696.0,0.5,30.0,198.42519611120224,0.0,0.625,1.6333006140000002,2.3533175408374518E-15,0.0,0.27000001072883606,-0.20999999344348907,-56.33000183105469,-0.061767578125,0.05059814453125,1.06591796875,35.56999969482422,0.0,-69.0,-0.432037353515625,1.2310943603515625,Waiting,0.0,0.0,0.0,0.0,0.0,0.0,0.0,0.0,
7.634190000000002,0.0,0.0,-1245.0,0.375,82.5,198.42519611120224,0.0,0.375,3.138427413,2.471125499999997,0.0,2440.0,0.125,-60.0,-198.42519611120224,0.0,0.25,3.1030270260000004,2.486884999999998,0.0,2908.0,0.5,15.0,198.42519611120224,0.0,0.5,0.902099517,2.4752000000000023,0.0,5703.0,0.5,37.5,198.42519611120224,0.0,0.5,1.437988134,2.3533175408374518E-15,0.0,0.23999999463558197,-0.3100000023841858,-56.099998474121094,-9.765625E-4,0.01129150390625,0.97772216796875,35.56999969482422,0.0,-3.0,-0.4320831298828125,1.23077392578125,Waiting,0.0,0.0,0.0,0.0,0.0,0.0,0.0,0.0,
7.721810999999987,0.0,0.0,-1223.0,0.375,135.0,214.96063694357872,0.0,0.375,3.2104488900000003,2.471125499999997,0.0,2426.0,0.125,-90.0,-214.96063694357872,0.0,0.25,3.040771173,2.486884999999998,0.0,2913.0,0.875,30.0,214.96063694357872,0.0,0.125,0.8532713970000001,2.4752000000000023,0.0,5706.0,1.0,15.0,214.96063694357872,0.0,0.375,1.5246580470000002,2.3533175408374518E-15,0.0,0.23999999463558197,-0.3700000047683716,-56.11000061035156,-0.03900146484375,0.00799560546875,1.0146484375,35.56999969482422,0.0,-20.0,-0.4323272705078125,1.2304840087890625,Waiting,0.0,0.0,0.0,0.0,0.0,0.0,0.0,0.0,
7.809665999999997,0.0,0.0,-1216.0,0.5,37.5,214.96063694357872,0.0,0.375,3.2568356040000004,2.471125499999997,0.0,2415.0,0.375,-82.5,-214.96063694357872,0.0,0.25,2.987060241,2.486884999999998,0.0,2924.0,1.0,60.0,214.96063694357872,0.0,0.125,0.799560465,2.4752000000000023,0.0,5708.0,1.25,7.5,214.96063694357872,0.0,0.375,1.593017415,2.3533175408374518E-15,0.0,0.23000000417232513,-0.4399999976158142,-56.06999969482422,-0.00494384765625,-0.004150390625,1.01959228515625,35.56999969482422,0.0,8.0,-0.432464599609375,1.2299957275390625,Waiting,0.0,0.0,0.0,0.0,0.0,0.0,0.0,0.0,
7.903777000000002,0.0,0.0,-1216.0,0.875,60.0,214.96063694357872,0.0,0.25,3.2739254460000002,2.471125499999997,0.0,2415.0,0.875,-45.0,-214.96063694357872,0.0,0.25,2.963866884,2.486884999999998,0.0,2924.0,1.25,60.0,214.96063694357872,0.0,0.125,0.7751464050000001,2.4752000000000023,0.0,5708.0,1.375,45.0,214.96063694357872,0.0,0.125,1.585693197,2.3533175408374518E-15,0.0,0.23999999463558197,-0.4699999988079071,-56.040000915527344,-0.0029296875,0.00701904296875,1.0303955078125,35.56999969482422,0.0,0.0,-0.4327239990234375,1.2299957275390625,Waiting,0.0,0.0,0.0,0.0,0.0,0.0,0.0,0.0,
7.990459999999992,0.0,0.0,-1207.0,1.5,52.5,347.2440853714943,0.0,0.125,3.276366852,2.471125499999997,0.0,2406.0,2.375,-75.0,-347.2440853714943,0.0,0.25,2.9479977450000003,2.486884999999998,0.0,2933.0,2.125,60.0,347.2440853714943,0.0,0.0,0.770263593,2.4752000000000023,0.0,5716.0,2.375,67.5,347.2440853714943,0.0,0.125,1.585693197,2.3533175408374518E-15,0.0,0.20999999344348907,-0.5899999737739563,-56.040000915527344,-0.05010986328125,-0.02703857421875,0.97637939453125,35.56999969482422,0.0,3.0,-0.4328155517578125,1.22955322265625,Waiting,0.0,0.0,0.0,0.0,0.0,0.0,0.0,0.0,
8.074445000000008,0.0,0.0,-1188.0,2.25,112.5,380.31496703624725,0.0,0.125,3.276366852,2.471125499999997,0.0,2391.0,3.375,-90.0,-380.31496703624725,0.0,0.25,2.9479977450000003,2.486884999999998,0.0,2949.0,2.625,97.5,380.31496703624725,0.0,0.0,0.761718672,2.4752000000000023,0.0,5744.0,2.25,195.0,380.31496703624725,0.0,0.125,1.585693197,2.3533175408374518E-15,0.0,0.25,-0.8899999856948853,-55.900001525878906,-0.19366455078125,0.0478515625,1.05584716796875,35.599998474121094,0.0,-135.0,-0.434234619140625,1.227081298828125,Waiting,0.0,0.0,0.0,0.0,0.0,0.0,0.0,0.0,
8.166506999999983,0.0,0.0,-1160.0,2.5,165.0,396.8503922224045,0.0,0.125,3.276366852,2.471125499999997,0.0,2368.0,4.125,-150.0,-396.8503922224045,0.0,0.25,2.9528805570000003,2.486884999999998,0.0,2977.0,3.25,150.0,396.8503922224045,0.0,0.0,0.761718672,2.4752000000000023,0.0,5774.0,2.625,232.5,396.8503922224045,0.0,0.125,1.5869139,2.3533175408374518E-15,0.0,0.14000000059604645,-0.6499999761581421,-55.68000030517578,0.2486572265625,-0.02667236328125,1.071533203125,35.599998474121094,0.0,171.0,-0.4365081787109375,1.2231903076171875,Waiting,0.0,0.0,0.0,0.0,0.0,0.0,0.0,0.0,
8.252306000000011,0.0,0.0,-1160.0,4.125,112.5,396.8503922224045,0.0,0.125,3.281249664,2.471125499999997,0.0,2368.0,6.5,-60.0,-396.8503922224045,0.0,0.25,2.9541012600000003,2.486884999999998,0.0,2977.0,4.625,127.5,396.8503922224045,0.0,0.0,0.761718672,2.4752000000000023,0.0,5774.0,6.5,22.5,396.8503922224045,0.0,0.125,1.5820310880000001,2.3533175408374518E-15,0.0,0.3100000023841858,-0.27000001072883606,-55.4900016784668,-0.07757568359375,-0.00201416015625,1.069580078125,35.599998474121094,0.0,-34.0,-0.4349822998046875,1.2250823974609375,Waiting,0.0,0.0,0.0,0.0,0.0,0.0,0.0,0.0,
8.345715999999985,0.0,0.0,-1158.0,7.0,0.0,413.3858174085617,0.0,0.125,3.276366852,2.471125499999997,0.0,2367.0,9.625,0.0,-413.3858174085617,0.0,0.25,2.9431149330000004,2.486884999999998,0.0,2981.0,7.625,15.0,413.3858174085617,0.0,0.0,0.75683586,2.4752000000000023,0.0,5774.0,9.25,0.0,413.3858174085617,0.0,0.125,1.5820310880000001,2.3533175408374518E-15,0.0,0.1899999976158142,-0.44999998807907104,-55.470001220703125,0.01055908203125,0.03375244140625,1.00030517578125,35.599998474121094,0.0,-14.0,-0.4347991943359375,1.2260284423828125,Waiting,0.0,0.0,0.0,0.0,0.0,0.0,0.0,0.0,
8.433147999999987,0.0,0.0,-1156.0,9.625,7.5,413.3858174085617,0.0,0.125,3.276366852,2.471125499999997,0.0,2363.0,14.0,-22.5,-413.3858174085617,0.0,0.25,2.9528805570000003,2.486884999999998,0.0,2986.0,10.0,30.0,413.3858174085617,0.0,0.0,0.75683586,2.4752000000000023,0.0,5777.0,10.5,15.0,413.3858174085617,0.0,0.125,1.5808103850000002,2.3533175408374518E-15,0.0,0.20000000298023224,-0.38999998569488525,-55.47999954223633,-0.04302978515625,-0.0225830078125,1.01104736328125,35.599998474121094,0.0,1.0,-0.4346771240234375,1.2267303466796875,Waiting,0.0,0.0,0.0,0.0,0.0,0.0,0.0,0.0,
8.515402000000002,0.0,0.0,-1156.0,13.375,15.0,498.67477409992097,0.0,1.25,3.144530928,2.004260587615728,0.0,2363.0,19.0,-7.5,-498.67477409992097,0.0,2.625,2.818603227,2.0170426760732063,0.0,2986.0,13.625,7.5,498.67477409992097,0.0,1.125,0.626220639,2.0075653002918914,0.0,5781.0,13.75,7.5,498.67477409992097,0.0,1.375,1.456298679,4.498702733486207,0.0,0.20000000298023224,-0.4699999988079071,-55.45000076293945,-0.030029296875,-0.00897216796875,1.00433349609375,35.599998474121094,0.0,-1.0,-0.434967041015625,1.2260894775390625,Waiting,0.0,0.0,0.0,0.0,0.0,0.0,0.0,0.0,
8.607881999999984,0.0,0.0,-1150.0,20.375,67.5,757.2185713212813,0.0,0.625,2.877196971,1.8685272449834762,0.0,2361.0,29.125,-22.5,-757.2185713212813,0.0,1.5,2.596435281,1.8804436996990774,0.0,2990.0,19.375,52.5,757.2185713212813,0.0,0.5,0.363769494,1.8716081545769734,0.0,5781.0,22.75,60.0,757.2185713212813,0.0,0.625,1.1853026130000002,4.362262223646251,0.0,0.28999999165534973,-0.5099999904632568,-55.38999938964844,0.0269775390625,-0.01123046875,0.90435791015625,35.56999969482422,0.0,33.0,-0.4351959228515625,1.2256927490234375,Waiting,0.0,0.0,0.0,0.0,0.0,0.0,0.0,0.0,
8.692962,0.0,0.0,-1136.0,28.25,82.5,862.751508044824,0.0,0.5,2.702636442,1.8139353590097766,0.0,2353.0,41.25,-52.5,-862.751508044824,0.0,1.75,2.464599357,1.8255036562453137,0.0,3006.0,23.875,112.5,862.751508044824,0.0,0.375,0.166015608,1.8169262551096654,0.0,5795.0,31.0,82.5,862.751508044824,0.0,0.625,1.015624896,4.307385915357308,0.0,0.3100000023841858,-0.5099999904632568,-55.27000045776367,-0.07550048828125,-0.09613037109375,1.00836181640625,35.56999969482422,0.0,45.0,-0.4350433349609375,1.2258148193359375,Waiting,0.0,0.0,0.0,0.0,0.0,0.0,0.0,0.0,
8.78433799999999,0.0,0.0,-1125.0,36.125,67.5,887.3593245600217,0.0,0.375,2.657470431,1.7944222194533974,0.0,2347.0,51.25,-30.0,-887.3593245600217,0.0,1.75,2.4365231880000002,1.8058660724537716,0.0,3031.0,30.125,150.0,887.3593245600217,0.0,0.125,0.128173815,1.7973809414337918,0.0,5806.0,42.0,60.0,887.3593245600217,0.0,0.5,0.9594725580000001,4.287771112848068,0.0,0.2800000011920929,-0.4399999976158142,-55.189998626708984,0.06939697265625,-0.11767578125,1.14434814453125,35.56999969482422,0.0,145.0,-0.4350128173828125,1.226043701171875,Waiting,0.0,0.0,0.0,0.0,0.0,0.0,0.0,0.0,
8.869067999999999,0.0,0.0,-1125.0,48.375,30.0,925.2262727811806,0.0,0.375,2.670898164,1.7671262324511101,0.0,2347.0,60.875,-45.0,-925.2262727811806,0.0,0.875,2.4365231880000002,1.7783960064307456,0.0,3031.0,33.5,195.0,925.2262727811806,0.0,0.125,0.1220703,1.7700399476121258,0.0,5806.0,50.75,30.0,925.2262727811806,0.0,0.25,0.9594725580000001,4.260332914458839,0.0,0.30000001192092896,-0.6000000238418579,-55.119998931884766,0.015625,-0.01251220703125,1.0169677734375,35.56999969482422,0.0,29.0,-0.434814453125,1.22625732421875,Waiting,0.0,0.0,0.0,0.0,0.0,0.0,0.0,0.0,
8.955581999999994,0.0,0.0,-1120.0,57.625,30.0,938.0828024866025,0.0,0.375,2.651366916,1.7585211034440456,0.0,2339.0,70.0,-30.0,-938.0828024866025,0.0,0.875,2.4340817820000002,1.7697359985716814,0.0,3066.0,34.75,240.0,938.0828024866025,0.0,0.125,0.12329100300000001,1.7614206300913093,0.0,5812.0,60.625,37.5,938.0828024866025,0.0,0.25,0.9594725580000001,4.2516829529520095,0.0,0.12999999523162842,-0.5600000023841858,-55.099998474121094,-0.02099609375,0.19671630859375,1.1422119140625,35.56999969482422,0.0,-164.0,-0.4351654052734375,1.2262725830078125,Waiting,0.0,0.0,0.0,0.0,0.0,0.0,0.0,0.0,
9.04610500000001,0.0,0.0,-1119.0,56.625,7.5,938.0828024866025,0.0,0.25,2.6464841040000002,1.7585211034440456,0.0,2337.0,69.0,0.0,-938.0828024866025,0.0,0.875,2.4365231880000002,1.7697359985716814,0.0,3101.0,37.375,202.5,938.0828024866025,0.0,0.125,0.1220703,1.7614206300913093,0.0,5814.0,60.25,15.0,938.0828024866025,0.0,0.25,0.9594725580000001,4.2516829529520095,0.0,0.07000000029802322,-0.5,-55.060001373291016,0.0518798828125,0.127685546875,0.74755859375,35.59000015258789,0.0,-70.0,-0.4337921142578125,1.2238006591796875,Waiting,0.0,0.0,0.0,0.0,0.0,0.0,0.0,0.0,
9.14302799999999,0.0,0.0,-1118.0,56.0,0.0,938.0828024866025,0.0,0.25,2.6354977770000003,1.7585211034440456,0.0,2336.0,67.75,0.0,-938.0828024866025,0.0,0.875,2.4365231880000002,1.7697359985716814,0.0,3146.0,38.0,277.5,938.0828024866025,0.0,0.125,0.126953112,1.7614206300913093,0.0,5820.0,59.25,37.5,938.0828024866025,0.0,0.25,0.9594725580000001,4.2516829529520095,0.0,0.05999999865889549,-0.6299999952316284,-55.0099983215332,0.00823974609375,-0.07196044921875,0.9002685546875,35.59000015258789,0.0,70.0,-0.4329986572265625,1.2206268310546875,Waiting,0.0,0.0,0.0,0.0,0.0,0.0,0.0,0.0,
9.230684999999998,0.0,0.0,-1118.0,59.75,0.0,938.0828024866025,0.0,0.25,2.6318356680000004,1.7585211034440456,0.0,2336.0,68.5,0.0,-938.0828024866025,0.0,0.875,2.4365231880000002,1.7697359985716814,0.0,3146.0,36.875,300.0,938.0828024866025,0.0,0.125,0.12329100300000001,1.7614206300913093,0.0,5820.0,60.125,0.0,938.0828024866025,0.0,0.25,0.9594725580000001,4.2516829529520095,0.0,-0.029999999329447746,-0.6600000262260437,-54.9900016784668,0.0362548828125,-0.1749267578125,1.1068115234375,35.59000015258789,0.0,170.0,-0.428192138671875,1.215240478515625,Waiting,0.0,0.0,0.0,0.0,0.0,0.0,0.0,0.0,
9.312456999999995,0.0,0.0,-1117.0,59.0,0.0,964.1191376114355,0.0,0.25,2.626952856,1.7420042282514356,0.0,2336.0,67.375,0.0,-964.1191376114355,0.0,0.875,2.4365231880000002,1.7531137876951501,0.0,3193.0,38.0,322.5,964.1191376114355,0.0,0.125,0.1220703,1.7448765211511734,0.0,5821.0,61.25,22.5,964.1191376114355,0.0,0.25,0.9594725580000001,4.2350800252664484,0.0,0.14000000059604645,-0.6600000262260437,-54.970001220703125,-0.13287353515625,-0.161865234375,1.1268310546875,35.59000015258789,0.0,66.0,-0.42388916015625,1.211517333984375,Waiting,0.0,0.0,0.0,0.0,0.0,0.0,0.0,0.0,
9.402228999999991,0.0,0.0,-1113.0,53.875,22.5,843.9698786734151,0.0,0.5,2.5793454390000004,1.4222434828214603,0.0,2336.0,66.875,0.0,-843.9698786734151,0.0,3.0,2.393798583,1.4313137814232615,0.0,3260.0,37.0,427.5,843.9698786734151,0.0,0.5,0.062255853,1.4245885401933973,0.0,5826.0,62.0,22.5,843.9698786734151,0.0,0.875,0.911865141,3.9136533346155455,0.0,0.03999999910593033,-0.5099999904632568,-54.95000076293945,-0.0069580078125,0.13629150390625,0.8974609375,35.59000015258789,0.0,-110.0,-0.419586181640625,1.2085113525390625,Waiting,0.0,0.0,0.0,0.0,0.0,0.0,0.0,0.0,
