Time,ClimberA1,ClimberA2,FRpos,FRCurrent,FRspeed,FRsetpoint,FRApos,FRACurrent,FREncpos,FREncSetpoint,FREncSpeed,FLpos,FLCurrent,FLspeed,FLsetpoint,FLApos,FLACurrent,FLEncpos,FLEncSetpoint,FLEncSpeed,BRpos,BRCurrent,BRspeed,BRsetpoint,BRApos,BRACurrent,BREncpos,BREncSetpoint,BREncSpeed,BLpos,BLCurrent,BLspeed,BLsetpoint,BLApos,BLACurrent,BLEncpos,BLEncSetpoint,BLEncSpeed,navx_Pitch,navx_Roll,navx_Yaw,navx_XAcc,navx_YAcc,navx_ZAcc,navx_Temp,navx_Bar,navx_Alt,navx_XDis,navx_YDis,GearPlacerState,ShootOutputV,ShootOutputCurrent,ShootEncPos,ShootEncVelocity,ShootSpeed,ShootSetpoint,CarouselSetpoint,CarouselCurrent,
0.1433849999999511,0.0,0.0,8782.0,0.0,0.0,0.0,0.0,0.125,0.8154296040000001,0.0,0.0,-5231.0,0.0,0.0,-0.0,0.0,0.25,0.46630854600000005,0.0,0.0,13788.0,0.0,0.0,0.0,0.0,0.125,3.2751461490000002,0.0,0.0,-1586.0,0.125,0.0,-0.0,0.0,0.125,1.591796712,0.0,0.0,0.36000001430511475,-0.6200000047683716,0.0,-0.01251220703125,0.00909423828125,1.0224609375,35.880001068115234,0.0,-1.0,0.00689697265625,1.09185791015625,Waiting,0.0,0.0,0.0,0.0,0.0,0.0,0.0,0.0,
0.3545189999999711,0.0,0.0,8782.0,0.0,0.0,0.0,0.0,0.125,0.8154296040000001,0.0,0.0,-5231.0,0.0,0.0,-0.0,0.0,0.25,0.46752924900000004,0.0,0.0,13788.0,0.0,0.0,0.0,0.0,0.125,3.276366852,0.0,0.0,-1586.0,0.125,0.0,-0.0,0.0,0.125,1.591796712,0.0,0.0,0.36000001430511475,-0.6100000143051147,0.0,-0.01043701171875,0.003173828125,1.017333984375,35.880001068115234,0.0,0.0,0.00689697265625,1.09185791015625,Waiting,0.0,0.0,0.0,0.0,0.0,0.0,0.0,0.0,
0.5549629999999888,0.0,0.0,8782.0,0.0,0.0,0.0,0.0,0.125,0.8154296040000001,0.0,0.0,-5231.0,0.0,0.0,-0.0,0.0,0.25,0.46752924900000004,0.0,0.0,13788.0,0.0,0.0,0.0,0.0,0.125,3.2751461490000002,0.0,0.0,-1586.0,0.125,0.0,-0.0,0.0,0.125,1.590576009,0.0,0.0,0.36000001430511475,-0.6100000143051147,-0.009999999776482582,-0.0108642578125,0.00860595703125,1.02093505859375,35.880001068115234,0.0,0.0,0.00689697265625,1.09185791015625,Waiting,0.0,0.0,0.0,0.0,0.0,0.0,0.0,0.0,
0.7561479999999865,0.0,0.0,8782.0,0.0,0.0,0.0,0.0,0.125,0.8154296040000001,0.0,0.0,-5231.0,0.0,0.0,-0.0,0.0,0.25,0.46752924900000004,0.0,0.0,13788.0,0.0,0.0,0.0,0.0,0.125,3.2751461490000002,0.0,0.0,-1586.0,0.125,0.0,-0.0,0.0,0.125,1.590576009,0.0,0.0,0.3700000047683716,-0.6100000143051147,-0.009999999776482582,-0.009033203125,0.0079345703125,1.01824951171875,35.869998931884766,0.0,1.0,0.00689697265625,1.09185791015625,Waiting,0.0,0.0,0.0,0.0,0.0,0.0,0.0,0.0,
0.9646680000000051,0.0,0.0,8782.0,0.0,0.0,0.0,0.0,0.125,0.8154296040000001,0.0,0.0,-5231.0,0.0,0.0,-0.0,0.0,0.25,0.46752924900000004,0.0,0.0,13788.0,0.0,0.0,0.0,0.0,0.125,3.2751461490000002,0.0,0.0,-1586.0,0.125,0.0,-0.0,0.0,0.125,1.590576009,0.0,0.0,0.36000001430511475,-0.6100000143051147,-0.009999999776482582,-0.0111083984375,0.00518798828125,1.0172119140625,35.869998931884766,0.0,0.0,0.00689697265625,1.09185791015625,Waiting,0.0,0.0,0.0,0.0,0.0,0.0,0.0,0.0,
1.1662729999999866,0.0,0.0,8782.0,0.0,0.0,0.0,0.0,0.125,0.8154296040000001,0.0,0.0,-5231.0,0.0,0.0,-0.0,0.0,0.25,0.46752924900000004,0.0,0.0,13788.0,0.0,0.0,0.0,0.0,0.125,3.2751461490000002,0.0,0.0,-1586.0,0.125,0.0,-0.0,0.0,0.125,1.591796712,0.0,0.0,0.36000001430511475,-0.6100000143051147,-0.009999999776482582,-0.011474609375,0.00799560546875,1.02032470703125,35.869998931884766,0.0,0.0,0.00689697265625,1.09185791015625,Waiting,0.0,0.0,0.0,0.0,0.0,0.0,0.0,0.0,
1.3713379999999888,0.0,0.0,8710.0,10.25,-367.5,-1303.0652046863045,0.0,0.375,0.5944823610000001,4.731775072738136,0.0,-5161.0,14.0,367.5,1303.0652046863045,0.0,0.5,0.209960916,4.761951771274418,0.0,13736.0,11.375,-397.5,-1303.0652046863045,0.0,0.25,2.9992672710000003,4.7395770308069896,0.0,-1522.0,13.125,405.0,1303.0652046863045,0.0,0.5,1.226806515,4.756427498595896,0.0,0.7799999713897705,-2.7200000286102295,0.4300000071525574,-0.21221923828125,0.09466552734375,1.425537109375,35.83000183105469,0.0,-143.0,-0.014312744140625,1.0910186767578125,Waiting,0.0,0.0,0.0,0.0,0.0,0.0,0.0,0.0,
1.603414999999979,0.0,0.0,8403.0,8.0,-1080.0,-1375.6016110812589,0.0,0.125,0.483398388,4.723679867569533,0.0,-4881.0,14.375,967.5,1375.6016110812589,0.0,0.125,0.08544921,4.753804939271866,0.0,13528.0,13.75,-757.5,-1375.6016110812589,0.0,0.0,2.9052731400000003,4.731468477909402,0.0,-1260.0,12.5,1005.0,1375.6016110812589,0.0,0.375,1.231689327,4.748290117617548,0.0,2.119999885559082,-4.050000190734863,2.7300000190734863,-0.26141357421875,-0.12896728515625,1.2843017578125,35.83000183105469,0.0,-178.0,-0.0851287841796875,1.1270294189453125,Waiting,0.0,0.0,0.0,0.0,0.0,0.0,0.0,0.0,
1.80899099999998,0.0,0.0,8179.0,3.75,-1485.0,-1391.5101433933974,0.0,0.25,0.577392519,4.726243874378951,0.0,-4668.0,7.125,1447.5,1391.5101433933974,0.0,0.25,0.10009764600000001,4.7563852979279675,0.0,13351.0,11.0,-1380.0,-1391.5101433933974,0.0,0.125,3.0529782030000003,4.734036712365593,0.0,-1053.0,7.75,1447.5,1391.5101433933974,0.0,0.625,1.337890488,4.750867482836187,0.0,1.6799999475479126,-4.510000228881836,4.590000152587891,-0.0615234375,-0.093505859375,1.070556640625,35.869998931884766,0.0,12.0,-0.183258056640625,1.1778564453125,Waiting,0.0,0.0,0.0,0.0,0.0,0.0,0.0,0.0,
2.0120869999999997,0.0,0.0,7711.0,0.125,-1380.0,-989.907502803172,0.0,0.375,0.159912093,4.29639435918613,0.0,-4144.0,13.625,1905.0,2131.1261691689865,0.0,0.25,0.104980458,4.699182118843932,0.0,12858.0,0.625,-1395.0,-782.3859631627128,0.0,0.75,3.8513179650000002,0.41857594516109103,0.0,-550.0,14.5,1725.0,2043.014850696126,0.0,1.375,1.781005677,0.15438416998550614,0.0,1.190000057220459,-3.640000104904175,2.2699999809265137,0.228515625,-0.0394287109375,0.9417724609375,35.869998931884766,0.0,285.0,-0.2751007080078125,1.2071685791015625,Waiting,0.0,0.0,0.0,0.0,0.0,0.0,0.0,0.0,
2.223093999999983,0.0,0.0,7336.0,0.125,-1050.0,-871.803901386312,0.0,0.375,0.030517575,4.367791057266254,0.0,-3431.0,3.375,2302.5,2110.978633444932,0.0,0.25,0.18310545,4.752820982406727,0.0,12609.0,9.0,-637.5,-871.803901386312,0.0,0.125,4.145507388,0.5754071374580392,0.0,79.0,12.25,2055.0,2110.978633444932,0.0,0.25,1.887206838,0.22069269777319428,0.0,-0.2800000011920929,-2.940000057220459,-20.709999084472656,-0.162109375,-0.21673583984375,0.90765380859375,35.869998931884766,0.0,-32.0,-0.338348388671875,1.20489501953125,Waiting,0.0,0.0,0.0,0.0,0.0,0.0,0.0,0.0,
2.430983999999997,0.0,0.0,7036.0,0.125,-922.5,-871.803901386312,0.0,0.375,0.28076169,4.367791057266254,0.0,-2725.0,3.75,2190.0,2110.978633444932,0.0,0.125,0.234374976,4.752820982406727,0.0,12357.0,8.375,-810.0,-871.803901386312,0.0,0.375,3.7866207060000003,0.5754071374580392,0.0,757.0,10.625,2122.5,2110.978633444932,0.0,0.25,1.851806451,0.22069269777319428,0.0,-1.059999942779541,-3.619999885559082,-40.970001220703125,-0.2166748046875,-0.21234130859375,0.51806640625,35.869998931884766,0.0,-5.0,-0.3829193115234375,1.147979736328125,Waiting,0.0,0.0,0.0,0.0,0.0,0.0,0.0,0.0,
2.635775999999954,0.0,0.0,6879.0,0.125,-1035.0,-871.803901386312,0.0,0.25,0.306396453,4.367791057266254,0.0,-2377.0,3.25,2160.0,2110.978633444932,0.0,0.25,0.234374976,4.752820982406727,0.0,12205.0,6.0,-960.0,-871.803901386312,0.0,0.0,3.708495714,0.5754071374580392,0.0,1094.0,11.125,2092.5,2110.978633444932,0.0,0.25,1.8420408270000002,0.22069269777319428,0.0,-1.1699999570846558,-3.930000066757202,-59.02000045776367,-0.03863525390625,-0.44488525390625,1.024658203125,35.869998931884766,0.0,379.0,-0.4136810302734375,1.049774169921875,Waiting,0.0,0.0,0.0,0.0,0.0,0.0,0.0,0.0,
2.851621999999974,0.0,0.0,6520.0,0.625,-1207.5,-1339.3700659275055,0.0,0.625,0.787353435,4.942250999999997,0.0,-1728.0,0.0,1860.0,1339.3700659275055,0.0,0.25,0.39062496,4.973769999999997,0.0,11883.0,13.375,-1072.5,-1339.3700659275055,0.0,0.625,3.300780912,2.3449805060712E-15,0.0,1729.0,1.625,1830.0,1339.3700659275055,0.0,0.5,1.6052244450000002,2.3533175408374518E-15,0.0,-1.5800000429153442,-3.799999952316284,-74.62999725341797,-0.04888916015625,-0.1243896484375,0.7904052734375,35.810001373291016,0.0,99.0,-0.40765380859375,0.94000244140625,Waiting,0.0,0.0,0.0,0.0,0.0,0.0,0.0,0.0,
3.0550699999999487,0.0,0.0,6127.0,0.375,-1350.0,-1339.3700659275055,0.0,0.25,1.068115125,4.942250999999997,0.0,-1260.0,1.625,1200.0,1339.3700659275055,0.0,0.125,0.53710932,4.973769999999997,0.0,11489.0,9.5,-1320.0,-1339.3700659275055,0.0,0.125,3.045653985,2.3449805060712E-15,0.0,2213.0,5.375,1305.0,1339.3700659275055,0.0,0.125,1.298827992,2.3533175408374518E-15,0.0,-1.3600000143051147,-2.7100000381469727,-73.7699966430664,0.16204833984375,-0.08551025390625,1.00408935546875,35.810001373291016,0.0,117.0,-0.37353515625,0.8427276611328125,Waiting,0.0,0.0,0.0,0.0,0.0,0.0,0.0,0.0,
3.266423999999999,0.0,0.0,5689.0,0.125,-1402.5,-1339.3700659275055,0.0,0.375,0.8825682690000001,4.942250999999997,0.0,-932.0,9.375,952.5,1339.3700659275055,0.0,0.25,0.5407714290000001,4.973769999999997,0.0,11099.0,10.75,-1387.5,-1339.3700659275055,0.0,0.125,3.280028961,2.3449805060712E-15,0.0,2546.0,14.875,1005.0,1339.3700659275055,0.0,0.625,1.5759275730000002,2.3533175408374518E-15,0.0,-1.2300000190734863,-2.5199999809265137,-66.36000061035156,-0.10394287109375,0.15911865234375,1.1932373046875,35.810001373291016,0.0,-189.0,-0.348663330078125,0.78302001953125,Waiting,0.0,0.0,0.0,0.0,0.0,0.0,0.0,0.0,
3.4718159999999916,0.0,0.0,5461.0,0.125,-1357.5,-1339.3700659275055,0.0,0.25,0.728759691,4.942250999999997,0.0,-719.0,2.75,1477.5,1339.3700659275055,0.0,0.25,0.418701129,4.973769999999997,0.0,10847.0,8.25,-1470.0,-1339.3700659275055,0.0,0.125,3.3691402800000003,2.3449805060712E-15,0.0,2760.0,7.75,1507.5,1339.3700659275055,0.0,0.125,1.678466625,2.3533175408374518E-15,0.0,-0.949999988079071,-2.9200000762939453,-65.91999816894531,-0.09295654296875,0.06207275390625,0.8182373046875,35.790000915527344,0.0,-89.0,-0.341888427734375,0.7189178466796875,Waiting,0.0,0.0,0.0,0.0,0.0,0.0,0.0,0.0,
3.681478000000003,0.0,0.0,5035.0,0.125,-1327.5,-1339.3700659275055,0.0,0.25,0.772704999,4.942250999999997,0.0,-236.0,0.75,1507.5,1339.3700659275055,0.0,0.0,0.39062496,4.973769999999997,0.0,10391.0,8.625,-1402.5,-1339.3700659275055,0.0,0.25,3.28369107,2.3449805060712E-15,0.0,3270.0,3.375,1597.5,1339.3700659275055,0.0,0.25,1.668701001,2.3533175408374518E-15,0.0,-1.0299999713897705,-2.759999990463257,-69.5199966430664,-0.02410888671875,-0.11614990234375,0.64398193359375,35.790000915527344,0.0,100.0,-0.3474884033203125,0.653106689453125,Waiting,0.0,0.0,0.0,0.0,0.0,0.0,0.0,0.0,
3.888725999999966,0.0,0.0,4608.0,0.125,-1305.0,-1190.5512392520905,0.0,0.25,0.787353435,4.942250999999997,0.0,232.0,0.375,1372.5,1190.5512392520905,0.0,0.25,0.38940425700000003,4.973769999999997,0.0,9944.0,4.875,-1372.5,-1190.5512392520905,0.0,0.125,3.253173495,2.3449805060712E-15,0.0,3730.0,2.75,1357.5,1190.5512392520905,0.0,0.25,1.6015623360000002,2.3533175408374518E-15,0.0,-0.8999999761581421,-2.0,-70.87000274658203,0.06561279296875,-0.082763671875,0.7393798828125,35.790000915527344,0.0,97.0,-0.3480987548828125,0.593536376953125,Waiting,0.0,0.0,0.0,0.0,0.0,0.0,0.0,0.0,
4.108858999999997,0.0,0.0,4286.0,0.625,-855.0,-432.6163591574448,0.0,0.5,0.192871074,4.391149879033764,0.0,567.0,0.25,922.5,432.6163591574448,0.0,0.875,4.782714354,4.419154254577877,0.0,9649.0,1.5,-652.5,-432.6163591574448,0.0,0.875,2.603759499,4.398390199358299,0.0,4066.0,0.5,967.5,432.6163591574448,0.0,1.0,0.953369043,4.414027656434233,0.0,0.25999999046325684,1.0299999713897705,-70.88999938964844,0.309814453125,0.07232666015625,1.262939453125,35.790000915527344,0.0,31.0,-0.34906005859375,0.588958740234375,Waiting,0.0,0.0,0.0,0.0,0.0,0.0,0.0,0.0,
4.3168479999999985,0.0,0.0,4209.0,0.125,-367.5,-489.53457163700983,0.0,0.125,4.803466305000001,4.29011334449526,0.0,648.0,0.125,367.5,489.53457163700983,0.0,0.125,4.356689007,4.31747336374664,0.0,9564.0,3.0,-547.5,-489.53457163700983,0.0,0.0,2.332763433,4.297187071354599,0.0,4152.0,0.875,532.5,489.53457163700983,0.0,0.125,0.46142573400000003,4.312464724161613,0.0,0.019999999552965164,2.2699999809265137,-70.38999938964844,0.03680419921875,-0.0264892578125,0.9552001953125,35.790000915527344,0.0,24.0,-0.33984375,0.6278533935546875,Waiting,0.0,0.0,0.0,0.0,0.0,0.0,0.0,0.0,
4.529397999999986,0.0,0.0,4117.0,0.0,-210.0,0.0,0.0,0.5,0.212402322,4.29011334449526,0.0,734.0,0.0,157.5,0.0,0.0,0.5,4.742431155,4.31747336374664,0.0,9445.0,0.0,-180.0,0.0,0.0,0.25,2.667236055,4.297187071354599,0.0,4252.0,0.125,180.0,0.0,0.0,1.0,1.044921768,4.312464724161613,0.0,-0.6499999761581421,1.8799999952316284,-69.44999694824219,-0.029052734375,-0.10345458984375,1.04937744140625,35.75,0.0,63.0,-0.3161468505859375,0.6168060302734375,Waiting,0.0,0.0,0.0,0.0,0.0,0.0,0.0,0.0,
4.740767999999981,0.0,0.0,4096.0,0.0,0.0,0.0,0.0,0.25,0.22094724300000002,4.29011334449526,0.0,746.0,0.0,0.0,0.0,0.0,0.125,4.877929188,4.31747336374664,0.0,9418.0,0.0,0.0,0.0,0.0,0.125,2.651366916,4.297187071354599,0.0,4269.0,0.125,0.0,0.0,0.0,0.25,1.0314940350000001,4.312464724161613,0.0,-0.9100000262260437,1.7899999618530273,-69.4800033569336,-0.0106201171875,0.0126953125,0.97052001953125,35.75,0.0,-40.0,-0.294342041015625,0.6107177734375,Waiting,0.0,0.0,0.0,0.0,0.0,0.0,0.0,0.0,
4.968801999999967,0.0,0.0,4064.0,11.875,-67.5,-1140.9448385238647,0.0,1.875,1.170654177,0.5509316050660373,0.0,709.0,15.875,-150.0,-1140.9448385238647,0.0,0.25,4.877929188,4.419324851558669,0.0,9409.0,15.5,-45.0,-1140.9448385238647,0.0,0.0,2.6428219950000003,4.39855999476374,0.0,4238.0,13.875,-150.0,-1140.9448385238647,0.0,7.25,1.882324026,0.553801944492112,0.0,-0.949999988079071,1.350000023841858,-68.12999725341797,-0.10284423828125,-0.08685302734375,1.20721435546875,35.72999954223633,0.0,13.0,-0.2969512939453125,0.59539794921875,Waiting,0.0,0.0,0.0,0.0,0.0,0.0,0.0,0.0,
5.189712999999989,0.0,0.0,4019.0,0.0,-105.0,0.0,0.0,0.375,1.590576009,0.5509316050660373,0.0,659.0,0.0,-127.5,0.0,0.0,0.25,4.890136218,4.419324851558669,0.0,9388.0,0.0,0.0,0.0,0.0,0.0,2.706298551,4.39855999476374,0.0,4193.0,0.125,-112.5,0.0,0.0,0.625,2.4353024850000002,0.553801944492112,0.0,-0.6399999856948853,0.8799999952316284,-64.0999984741211,-0.009765625,0.02789306640625,1.1905517578125,35.72999954223633,0.0,-49.0,-0.2937469482421875,0.590362548828125,Waiting,0.0,0.0,0.0,0.0,0.0,0.0,0.0,0.0,
5.416543999999995,0.0,0.0,3925.0,6.625,-307.5,-1107.8739881515503,0.0,0.5,1.5039060960000001,0.5509316050660373,0.0,566.0,9.0,-307.5,-1107.8739881515503,0.0,0.25,4.891356921,4.419324851558669,0.0,9309.0,7.25,-270.0,-1107.8739881515503,0.0,0.0,2.755126671,4.39855999476374,0.0,4109.0,8.25,-337.5,-1107.8739881515503,0.0,0.625,2.3291013240000003,0.553801944492112,0.0,-0.6800000071525574,0.5799999833106995,-59.65999984741211,-0.0872802734375,0.0347900390625,1.06536865234375,35.65999984741211,0.0,-90.0,-0.2928619384765625,0.5794525146484375,Waiting,0.0,0.0,0.0,0.0,0.0,0.0,0.0,0.0,
5.632367999999959,0.0,0.0,3878.0,0.0,-210.0,0.0,0.0,0.375,1.402587747,0.5509316050660373,0.0,519.0,0.0,-240.0,0.0,0.0,0.25,4.89501903,4.419324851558669,0.0,9244.0,0.0,-142.5,0.0,0.0,0.125,2.720946987,4.39855999476374,0.0,4063.0,0.125,-225.0,0.0,0.0,0.5,2.0153806530000002,0.553801944492112,0.0,-0.14000000059604645,0.5699999928474426,-52.22999954223633,-0.18316650390625,0.09173583984375,1.33514404296875,35.65999984741211,0.0,-195.0,-0.29693603515625,0.56573486328125,Waiting,0.0,0.0,0.0,0.0,0.0,0.0,0.0,0.0,
5.855567999999971,0.0,0.0,3853.0,0.0,0.0,0.0,0.0,0.25,1.378173687,0.5509316050660373,0.0,501.0,0.0,0.0,0.0,0.0,0.25,4.8681635640000005,4.419324851558669,0.0,9233.0,0.0,0.0,0.0,0.0,0.125,2.716064175,4.39855999476374,0.0,4044.0,0.125,0.0,0.0,0.0,0.25,2.144775171,0.553801944492112,0.0,-0.11999999731779099,0.3799999952316284,-52.650001525878906,-0.0400390625,-0.02471923828125,1.0975341796875,35.63999938964844,0.0,-11.0,-0.29998779296875,0.552703857421875,Waiting,0.0,0.0,0.0,0.0,0.0,0.0,0.0,0.0,
6.076576999999991,0.0,0.0,3868.0,0.5,97.5,336.4053998389129,0.0,0.5,1.510009611,0.7524872199199494,0.0,516.0,3.25,75.0,534.5468824215768,0.0,0.25,4.906005357000001,4.546127630738119,0.0,9242.0,0.875,120.0,336.4053998389129,0.0,0.25,2.45361303,4.196672046180634,0.0,4057.0,2.625,142.5,534.5468824215768,0.0,0.25,2.077636506,0.4271462674174773,0.0,-0.11999999731779099,0.1899999976158142,-53.68000030517578,-0.034423828125,0.0614013671875,1.010009765625,35.63999938964844,0.0,-73.0,-0.301483154296875,0.5496063232421875,Waiting,0.0,0.0,0.0,0.0,0.0,0.0,0.0,0.0,
6.297001999999979,0.0,0.0,3931.0,1.125,247.5,432.6486575825655,0.0,0.375,1.6284178020000002,0.8073396598804319,0.0,613.0,6.375,412.5,751.4556777784749,0.0,0.5,4.9157709810000005,4.566115205248554,0.0,9299.0,1.75,187.5,432.6486575825655,0.0,0.0,2.401122801,4.141729163113713,0.0,4141.0,5.5,382.5,751.4556777784749,0.0,0.25,1.8994138680000001,0.40718188020861096,0.0,0.009999999776482582,-0.28999999165534973,-59.209999084472656,-0.14599609375,0.0208740234375,1.01849365234375,35.63999938964844,0.0,-89.0,-0.3148651123046875,0.546905517578125,Waiting,0.0,0.0,0.0,0.0,0.0,0.0,0.0,0.0,
6.513187999999966,0.0,0.0,4021.0,0.375,247.5,190.4238093191819,0.0,0.875,2.033691198,1.2591391623369321,0.0,775.0,3.25,480.0,495.3166378388889,0.0,0.5,0.08056639800000001,4.661544371654455,0.0,9357.0,1.25,157.5,190.4238093191819,0.0,0.625,1.983642375,3.6891847138413754,0.0,4272.0,5.25,480.0,495.3166378388889,0.0,0.125,1.8371580150000002,0.3118634198245331,0.0,0.11999999731779099,-0.3199999928474426,-66.68000030517578,-0.04962158203125,0.0443115234375,0.86602783203125,35.65999984741211,0.0,-56.0,-0.3388824462890625,0.54205322265625,Waiting,0.0,0.0,0.0,0.0,0.0,0.0,0.0,0.0,
6.7282239999999875,0.0,0.0,4057.0,0.5,172.5,231.49606212973595,0.0,1.625,3.403319964,2.471125499999997,0.0,847.0,1.125,405.0,231.49606212973595,0.0,0.5,0.521240181,4.973769999999997,0.0,9377.0,1.5,180.0,231.49606212973595,0.0,1.25,0.624999936,2.4752000000000023,0.0,4335.0,2.625,337.5,231.49606212973595,0.0,0.5,1.595458821,2.3533175408374518E-15,0.0,-0.23000000417232513,-0.8500000238418579,-71.19999694824219,-0.01019287109375,-0.037841796875,0.99334716796875,35.65999984741211,0.0,33.0,-0.3575897216796875,0.525787353515625,Waiting,0.0,0.0,0.0,0.0,0.0,0.0,0.0,0.0,
6.9305199999999605,0.0,0.0,4112.0,0.875,142.5,231.49606212973595,0.0,0.375,3.6926265750000002,2.471125499999997,0.0,937.0,3.25,127.5,231.49606212973595,0.0,0.25,0.6457518870000001,4.973769999999997,0.0,9442.0,1.875,75.0,231.49606212973595,0.0,0.5,0.275878878,2.4752000000000023,0.0,4433.0,3.375,195.0,231.49606212973595,0.0,0.125,1.417236183,2.3533175408374518E-15,0.0,-0.23000000417232513,0.18000000715255737,-71.0,0.0443115234375,-0.075927734375,1.167236328125,35.689998626708984,0.0,80.0,-0.37054443359375,0.537200927734375,Waiting,0.0,0.0,0.0,0.0,0.0,0.0,0.0,0.0,
7.134006999999984,0.0,0.0,4136.0,1.625,142.5,231.49606212973595,0.0,0.625,3.192138345,2.471125499999997,0.0,947.0,6.0,60.0,231.49606212973595,0.0,0.5,0.42846675300000003,4.973769999999997,0.0,9462.0,3.5,52.5,231.49606212973595,0.0,1.125,0.9082030320000001,2.4752000000000023,0.0,4441.0,8.0,30.0,231.49606212973595,0.0,0.75,1.495361175,2.3533175408374518E-15,0.0,-0.20000000298023224,-0.7400000095367432,-70.4000015258789,-0.18670654296875,0.01202392578125,1.011962890625,35.689998626708984,0.0,-73.0,-0.3748626708984375,0.553741455078125,Waiting,0.0,0.0,0.0,0.0,0.0,0.0,0.0,0.0,
7.347859999999986,0.0,0.0,4222.0,3.5,240.0,512.5984311103821,0.0,1.0,3.8952632730000003,3.022057105066037,0.0,983.0,0.0,112.5,-512.5984311103821,0.0,0.875,4.652099133,4.419324851558669,0.0,9557.0,4.75,315.0,512.5984311103821,0.0,0.625,0.10864256700000001,1.92335999476374,0.0,4465.0,0.25,45.0,-512.5984311103821,0.0,2.125,2.362060305,0.553801944492112,0.0,-0.25,-0.44999998807907104,-69.5199966430664,0.1826171875,-0.12420654296875,1.0179443359375,35.689998626708984,0.0,178.0,-0.3830108642578125,0.5534820556640625,Waiting,0.0,0.0,0.0,0.0,0.0,0.0,0.0,0.0,
7.552126999999978,0.0,0.0,4254.0,4.875,67.5,281.1023533344269,0.0,0.375,3.973388265,3.022057105066037,0.0,973.0,0.0,-60.0,-281.1023533344269,0.0,0.5,4.664306163,4.419324851558669,0.0,9589.0,6.25,60.0,281.1023533344269,0.0,0.375,4.954833477,1.92335999476374,0.0,4459.0,0.25,-30.0,-281.1023533344269,0.0,0.5,2.290038828,0.553801944492112,0.0,-0.019999999552965164,-0.11999999731779099,-67.29000091552734,0.02716064453125,-0.0118408203125,1.01507568359375,35.65999984741211,0.0,21.0,-0.3887786865234375,0.5739898681640625,Waiting,0.0,0.0,0.0,0.0,0.0,0.0,0.0,0.0,
7.763286999999953,0.0,0.0,4242.0,0.0,0.0,0.0,0.0,0.375,3.8281246080000004,3.022057105066037,0.0,973.0,0.0,0.0,0.0,0.0,0.5,4.892577624,4.419324851558669,0.0,9583.0,0.0,-22.5,0.0,0.0,0.375,0.286865205,1.92335999476374,0.0,4459.0,0.125,0.0,0.0,0.0,0.5,2.139892359,0.553801944492112,0.0,-0.03999999910593033,-0.1899999976158142,-67.61000061035156,0.0257568359375,-0.00469970703125,1.0279541015625,35.65999984741211,0.0,14.0,-0.3931732177734375,0.5926055908203125,Waiting,0.0,0.0,0.0,0.0,0.0,0.0,0.0,0.0,
7.989082999999984,0.0,0.0,4279.0,4.125,247.5,843.3070600032806,0.0,0.125,3.7792964880000004,3.022057105066037,0.0,922.0,5.125,-255.0,-843.3070600032806,0.0,0.25,4.9206537930000005,4.419324851558669,0.0,9607.0,4.875,232.5,843.3070600032806,0.0,0.125,0.311279265,1.92335999476374,0.0,4415.0,3.75,-270.0,-843.3070600032806,0.0,0.125,2.131347438,0.553801944492112,0.0,-0.17000000178813934,-0.44999998807907104,-63.95000076293945,-0.03436279296875,-0.08856201171875,1.10467529296875,35.68000030517578,0.0,65.0,-0.3907623291015625,0.589935302734375,Waiting,0.0,0.0,0.0,0.0,0.0,0.0,0.0,0.0,
8.196783999999985,0.0,0.0,4479.0,3.625,742.5,959.0550988912584,0.0,0.25,3.818358984,3.0220571050660365,0.0,724.0,4.625,-742.5,-959.0550988912584,0.0,0.25,4.916991684,4.419324851558669,0.0,9803.0,4.125,727.5,959.0550988912584,0.0,0.125,0.19531248,1.9233599947637403,0.0,4226.0,4.25,-727.5,-959.0550988912584,0.0,0.125,2.139892359,0.553801944492112,0.0,-0.14000000059604645,-0.44999998807907104,-49.84000015258789,-0.03668212890625,-0.016845703125,0.6387939453125,35.68000030517578,0.0,-8.0,-0.388885498046875,0.579132080078125,Waiting,0.0,0.0,0.0,0.0,0.0,0.0,0.0,0.0,
8.411720999999961,0.0,0.0,4578.0,0.0,570.0,0.0,0.0,0.125,3.8464351530000003,3.0220571050660365,0.0,617.0,0.0,-667.5,0.0,0.0,0.25,4.869384267,4.419324851558669,0.0,9915.0,0.0,502.5,0.0,0.0,0.0,0.186767559,1.9233599947637403,0.0,4116.0,0.125,-622.5,0.0,0.0,0.125,2.139892359,0.553801944492112,0.0,-0.019999999552965164,-0.5099999904632568,-34.099998474121094,-0.10205078125,0.0240478515625,0.91168212890625,35.70000076293945,0.0,-91.0,-0.3902740478515625,0.582183837890625,Waiting,0.0,0.0,0.0,0.0,0.0,0.0,0.0,0.0,
8.617054000000003,0.0,0.0,4656.0,5.625,-420.0,-951.5625,0.0,0.125,3.8464351530000003,3.0220571050660396,0.0,532.0,9.875,427.5,951.5625,0.0,0.125,4.854735831,4.419324851558671,0.0,10006.0,9.125,-202.5,-951.5625,0.0,0.0,0.185546856,1.9233599947637376,0.0,4024.0,7.75,382.5,951.5625,0.0,0.125,2.052001743,0.5538019444921097,0.0,0.4399999976158142,-0.41999998688697815,-37.41999816894531,0.07122802734375,0.222900390625,0.9423828125,35.70000076293945,0.0,-68.0,-0.4014892578125,0.6002044677734375,Waiting,0.0,0.0,0.0,0.0,0.0,0.0,0.0,0.0,
8.82802099999995,0.0,0.0,4480.0,0.0,-442.5,0.0,0.0,0.125,3.8330074200000004,3.0220571050660396,0.0,722.0,0.0,487.5,0.0,0.0,0.125,4.853515128000001,4.419324851558671,0.0,9902.0,0.0,-337.5,0.0,0.0,0.0,0.190429668,1.9233599947637376,0.0,4185.0,0.125,442.5,0.0,0.0,0.375,2.130126735,0.5538019444921097,0.0,0.14000000059604645,-0.23000000417232513,-48.84000015258789,0.046630859375,-0.1248779296875,0.71405029296875,35.70000076293945,0.0,127.0,-0.42193603515625,0.6268463134765625,Waiting,0.0,0.0,0.0,0.0,0.0,0.0,0.0,0.0,
9.03302999999997,0.0,0.0,4449.0,0.0,-7.5,0.0,0.0,0.125,3.8330074200000004,3.0220571050660396,0.0,757.0,0.0,7.5,0.0,0.0,0.0,4.853515128000001,4.419324851558671,0.0,9870.0,0.0,-7.5,0.0,0.0,0.0,0.190429668,1.9233599947637376,0.0,4219.0,0.125,0.0,0.0,0.0,0.25,2.149657983,0.5538019444921097,0.0,0.03999999910593033,-0.4000000059604645,-50.11000061035156,0.0111083984375,-0.02093505859375,0.9537353515625,35.689998626708984,0.0,28.0,-0.4329986572265625,0.6322021484375,Waiting,0.0,0.0,0.0,0.0,0.0,0.0,0.0,0.0,
9.246275999999954,0.0,0.0,4432.0,3.75,-165.0,-787.5,0.0,0.125,3.8427730440000003,3.0220571050660396,0.0,780.0,5.0,172.5,787.5,0.0,0.0,4.852294425,4.419324851558671,0.0,9859.0,5.125,-127.5,-787.5,0.0,0.0,0.191650371,1.9233599947637376,0.0,4239.0,4.625,195.0,787.5,0.0,0.125,2.149657983,0.5538019444921097,0.0,0.07999999821186066,-0.4399999976158142,-52.70000076293945,0.00225830078125,-0.0079345703125,0.99908447265625,35.689998626708984,0.0,13.0,-0.4326934814453125,0.6340179443359375,Waiting,0.0,0.0,0.0,0.0,0.0,0.0,0.0,0.0,
9.453136999999987,0.0,0.0,4361.0,0.0,-142.5,0.0,0.0,0.125,3.8281246080000004,3.0220571050660396,0.0,857.0,0.0,142.5,0.0,0.0,0.0,4.853515128000001,4.419324851558671,0.0,9818.0,0.0,-22.5,0.0,0.0,0.0,0.190429668,1.9233599947637376,0.0,4312.0,0.125,210.0,0.0,0.0,0.125,2.149657983,0.5538019444921097,0.0,-0.07999999821186066,-0.30000001192092896,-57.880001068115234,0.05377197265625,0.01824951171875,1.00030517578125,35.709999084472656,0.0,14.0,-0.4322052001953125,0.6360321044921875,Waiting,0.0,0.0,0.0,0.0,0.0,0.0,0.0,0.0,
9.656094999999972,0.0,0.0,4352.0,0.0,0.0,0.0,0.0,0.125,3.8281246080000004,3.0220571050660396,0.0,864.0,0.0,0.0,0.0,0.0,0.0,4.854735831,4.419324851558671,0.0,9813.0,0.0,0.0,0.0,0.0,0.0,0.191650371,1.9233599947637376,0.0,4318.0,0.125,0.0,0.0,0.0,0.125,2.149657983,0.5538019444921097,0.0,-0.07999999821186066,-0.4300000071525574,-57.18000030517578,-0.0032958984375,-0.0089111328125,0.94036865234375,35.709999084472656,0.0,8.0,-0.43121337890625,0.635467529296875,Waiting,0.0,0.0,0.0,0.0,0.0,0.0,0.0,0.0,
9.870397999999987,0.0,0.0,4352.0,0.0,0.0,0.0,0.0,0.125,3.826903905,3.0220571050660396,0.0,864.0,0.0,0.0,0.0,0.0,0.0,4.853515128000001,4.419324851558671,0.0,9813.0,0.0,0.0,0.0,0.0,0.0,0.190429668,1.9233599947637376,0.0,4318.0,0.125,0.0,0.0,0.0,0.125,2.149657983,0.5538019444921097,0.0,-0.05000000074505806,-0.46000000834465027,-57.13999938964844,-0.01068115234375,0.0101318359375,1.0255126953125,35.709999084472656,0.0,-10.0,-0.4313507080078125,0.6354522705078125,Waiting,0.0,0.0,0.0,0.0,0.0,0.0,0.0,0.0,
10.07647099999996,0.0,0.0,4352.0,0.0,0.0,0.0,0.0,0.125,3.8281246080000004,3.0220571050660396,0.0,864.0,0.0,0.0,0.0,0.0,0.0,4.854735831,4.419324851558671,0.0,9813.0,0.0,0.0,0.0,0.0,0.0,0.191650371,1.9233599947637376,0.0,4318.0,0.125,0.0,0.0,0.0,0.125,2.149657983,0.5538019444921097,0.0,-0.03999999910593033,-0.49000000953674316,-57.11000061035156,-0.01611328125,0.001953125,1.03704833984375,35.709999084472656,0.0,-6.0,-0.4313507080078125,0.6354522705078125,Waiting,0.0,0.0,0.0,0.0,0.0,0.0,0.0,0.0,
10.28502999999997,0.0,0.0,4369.0,0.75,120.0,363.77954185009,0.0,0.875,3.236083653,2.471125499999997,0.0,877.0,1.375,97.5,363.77954185009,0.0,1.5,0.37475582100000004,4.973769999999997,0.0,9825.0,1.25,45.0,363.77954185009,0.0,0.875,0.9619139640000001,2.4752000000000023,0.0,4329.0,1.125,67.5,363.77954185009,0.0,1.0,1.51367172,2.3533175408374518E-15,0.0,0.0,-0.6899999976158142,-57.0,-0.01641845703125,-0.0203857421875,1.029296875,35.709999084472656,0.0,14.0,-0.4312896728515625,0.632965087890625,Waiting,0.0,0.0,0.0,0.0,0.0,0.0,0.0,0.0,
10.491235999999976,0.0,0.0,4413.0,2.125,165.0,462.9921242594719,0.0,0.25,3.0505367970000004,2.471125499999997,0.0,915.0,4.0,180.0,462.9921242594719,0.0,0.125,0.617675718,4.973769999999997,0.0,9852.0,3.125,150.0,462.9921242594719,0.0,0.25,1.047363174,2.4752000000000023,0.0,4354.0,3.75,30.0,462.9921242594719,0.0,0.25,1.364745954,2.3533175408374518E-15,0.0,-0.019999999552965164,-0.8899999856948853,-57.150001525878906,0.01959228515625,-0.0087890625,0.961669921875,35.70000076293945,0.0,25.0,-0.43377685546875,0.6183319091796875,Waiting,0.0,0.0,0.0,0.0,0.0,0.0,0.0,0.0,
10.701578999999969,0.0,0.0,4434.0,5.0,105.0,462.9921242594719,0.0,0.5,3.2617184160000003,2.471125499999997,0.0,955.0,9.25,105.0,462.9921242594719,0.0,0.5,0.539550726,4.973769999999997,0.0,9901.0,5.625,135.0,462.9921242594719,0.0,0.375,0.742187424,2.4752000000000023,0.0,4405.0,6.625,105.0,462.9921242594719,0.0,0.75,1.5576170280000001,2.3533175408374518E-15,0.0,0.03999999910593033,-1.0099999904632568,-56.880001068115234,-0.152099609375,0.029541015625,1.07073974609375,35.70000076293945,0.0,-96.0,-0.4346160888671875,0.609130859375,Waiting,0.0,0.0,0.0,0.0,0.0,0.0,0.0,0.0,
10.908429000000003,0.0,0.0,4509.0,1.5,412.5,245.39971524516574,0.0,0.375,2.985839538,2.194292808497653,0.0,1012.0,5.125,450.0,439.28184642749926,0.0,0.5,0.20019529200000002,4.820369146878986,0.0,9952.0,2.0,382.5,245.39971524516574,0.0,0.25,1.088867076,2.752489145373883,0.0,4453.0,4.625,405.0,439.28184642749926,0.0,0.625,1.8139646580000002,0.1532228949680422,0.0,0.029999999329447746,-1.8700000047683716,-57.04999923706055,-0.0325927734375,0.0107421875,0.7626953125,35.70000076293945,0.0,-12.0,-0.4492340087890625,0.5814208984375,Waiting,0.0,0.0,0.0,0.0,0.0,0.0,0.0,0.0,
11.120474999999976,0.0,0.0,4626.0,1.25,322.5,237.69750920881435,0.0,0.125,2.812499712,2.147107592983982,0.0,1205.0,1.625,645.0,453.6971085285998,0.0,0.25,0.17822263800000002,4.806478641433756,0.0,10057.0,2.0,292.5,237.69750920881435,0.0,0.0,1.1645506620000001,2.7997521619383745,0.0,4627.0,2.0,585.0,453.6971085285998,0.0,0.25,1.7846677860000002,0.16709728623500866,0.0,0.03999999910593033,-1.659999966621399,-61.91999816894531,0.01873779296875,-0.083984375,1.20428466796875,35.689998626708984,0.0,100.0,-0.462127685546875,0.5871124267578125,Waiting,0.0,0.0,0.0,0.0,0.0,0.0,0.0,0.0,
11.330559999999998,0.0,0.0,4721.0,1.5,285.0,264.56692814826965,0.0,0.75,3.2678219310000003,2.471125499999997,0.0,1369.0,0.75,412.5,264.56692814826965,0.0,0.5,0.379638633,4.973769999999997,0.0,10147.0,2.0,292.5,264.56692814826965,0.0,0.25,0.716552661,2.4752000000000023,0.0,4795.0,0.875,405.0,264.56692814826965,0.0,0.5,1.585693197,2.3533175408374518E-15,0.0,-0.03999999910593033,-1.3600000143051147,-65.47000122070312,0.014892578125,-0.01849365234375,1.12823486328125,35.689998626708984,0.0,33.0,-0.45550537109375,0.600189208984375,Waiting,0.0,0.0,0.0,0.0,0.0,0.0,0.0,0.0,
11.533882999999973,0.0,0.0,4765.0,0.5,277.5,115.74803106486797,0.0,0.25,3.5156246400000004,2.471125499999997,0.0,1424.0,0.75,165.0,115.74803106486797,0.0,0.25,0.498046824,4.973769999999997,0.0,10200.0,0.875,285.0,115.74803106486797,0.0,0.0,0.527343696,2.4752000000000023,0.0,4892.0,0.875,247.5,115.74803106486797,0.0,0.125,1.485595551,2.3533175408374518E-15,0.0,-0.20000000298023224,-0.5600000023841858,-64.94000244140625,0.12255859375,0.08453369140625,0.9425048828125,35.68000030517578,0.0,-23.0,-0.4408416748046875,0.62322998046875,Waiting,0.0,0.0,0.0,0.0,0.0,0.0,0.0,0.0,
11.740554000000003,0.0,0.0,4801.0,1.375,90.0,115.74803106486797,0.0,0.375,3.33251919,2.471125499999997,0.0,1474.0,1.375,22.5,115.74803106486797,0.0,0.25,0.47973627900000004,4.973769999999997,0.0,10250.0,2.375,30.0,115.74803106486797,0.0,0.375,0.794677653,2.4752000000000023,0.0,4900.0,1.875,7.5,115.74803106486797,0.0,0.375,1.518554532,2.3533175408374518E-15,0.0,-0.18000000715255737,-0.20000000298023224,-64.69999694824219,-0.04510498046875,0.00982666015625,1.0396728515625,35.68000030517578,0.0,-29.0,-0.416961669921875,0.65167236328125,Waiting,0.0,0.0,0.0,0.0,0.0,0.0,0.0,0.0,
11.95070299999998,0.0,0.0,4842.0,1.25,127.5,115.74803106486797,0.0,0.25,3.254394198,2.471125499999997,0.0,1492.0,1.25,90.0,115.74803106486797,0.0,0.25,0.47485346700000003,4.973769999999997,0.0,10274.0,1.875,127.5,115.74803106486797,0.0,0.125,0.8691405360000001,2.4752000000000023,0.0,4916.0,2.125,60.0,115.74803106486797,0.0,0.375,1.5246580470000002,2.3533175408374518E-15,0.0,-0.11999999731779099,-0.5899999737739563,-64.41000366210938,-0.033203125,-0.03533935546875,0.95062255859375,35.68000030517578,0.0,19.0,-0.4184417724609375,0.6425628662109375,Waiting,0.0,0.0,0.0,0.0,0.0,0.0,0.0,0.0,
12.174160999999964,0.0,0.0,4902.0,6.75,217.5,654.9657343872631,0.0,1.125,3.7268062590000004,2.9322671265607188,0.0,1508.0,0.25,0.0,-479.5449557346677,0.0,1.125,4.598388201000001,4.295672607852201,0.0,10330.0,7.875,285.0,654.9657343872631,0.0,0.375,0.191650371,2.0132980229198836,0.0,4913.0,0.375,-30.0,-479.5449557346677,0.0,4.875,2.3803708500000003,0.6773107409852618,0.0,-0.11999999731779099,-0.3400000035762787,-62.31999969482422,-0.00970458984375,-0.039794921875,0.96844482421875,35.709999084472656,0.0,31.0,-0.416259765625,0.628509521484375,Waiting,0.0,0.0,0.0,0.0,0.0,0.0,0.0,0.0,
12.394188999999955,0.0,0.0,5038.0,36.0,465.0,1429.8160209120624,0.0,0.25,3.919677333,2.980997010864395,0.0,1438.0,14.75,-127.5,-1253.0944524413494,0.0,0.75,4.399413612,4.37216886549901,0.0,10469.0,44.625,270.0,1429.8160209120624,0.0,0.125,4.935302229,1.9644877906478033,0.0,4841.0,10.125,-105.0,-1253.0944524413494,0.0,0.5,2.4780270900000003,0.6009032255614793,0.0,-0.07999999821186066,-0.4099999964237213,-57.54999923706055,0.03411865234375,-0.08453369140625,1.0157470703125,35.709999084472656,0.0,92.0,-0.412811279296875,0.62127685546875,Waiting,0.0,0.0,0.0,0.0,0.0,0.0,0.0,0.0,
12.626512999999978,0.0,0.0,4987.0,0.0,-105.0,0.0,0.0,0.375,3.823241796,2.980997010864395,0.0,1451.0,0.0,60.0,0.0,0.0,0.75,0.030517575,4.37216886549901,0.0,10442.0,0.0,-75.0,0.0,0.0,0.375,0.367431603,1.9644877906478033,0.0,4861.0,0.125,75.0,0.0,0.0,0.625,2.109374784,0.6009032255614793,0.0,-0.05000000074505806,-0.23000000417232513,-58.779998779296875,-0.00762939453125,-0.00286865234375,1.10894775390625,35.720001220703125,0.0,0.0,-0.410552978515625,0.6216278076171875,Waiting,0.0,0.0,0.0,0.0,0.0,0.0,0.0,0.0,
12.848580999999948,0.0,0.0,4965.0,9.25,-405.0,-1197.65625,0.0,0.125,3.7976070330000002,3.0220571050660396,0.0,1490.0,12.25,405.0,1197.65625,0.0,0.25,0.124511706,4.419324851558671,0.0,10397.0,14.125,-165.0,-1197.65625,0.0,0.25,0.36254879100000004,1.9233599947637376,0.0,4956.0,7.75,367.5,1197.65625,0.0,0.25,2.0080564350000003,0.5538019444921097,0.0,-0.019999999552965164,0.18000000715255737,-64.11000061035156,0.21014404296875,-0.16241455078125,1.19952392578125,35.720001220703125,0.0,235.0,-0.407867431640625,0.62384033203125,Waiting,0.0,0.0,0.0,0.0,0.0,0.0,0.0,0.0,
13.072555999999983,0.0,0.0,4866.0,0.0,157.5,0.0,0.0,0.125,3.807372657,3.0220571050660396,0.0,1554.0,0.0,-67.5,0.0,0.0,0.5,4.8681635640000005,4.419324851558671,0.0,10355.0,0.0,0.0,0.0,0.0,0.25,0.190429668,1.9233599947637376,0.0,4948.0,0.125,-45.0,0.0,0.0,0.375,2.144775171,0.5538019444921097,0.0,-0.3199999928474426,-0.5600000023841858,-64.23999786376953,0.086181640625,0.086669921875,1.0281982421875,35.709999084472656,0.0,-41.0,-0.4011077880859375,0.6221771240234375,Waiting,0.0,0.0,0.0,0.0,0.0,0.0,0.0,0.0,
13.293470999999961,0.0,0.0,4891.0,0.0,0.0,0.0,0.0,0.125,3.80859336,3.0220571050660396,0.0,1542.0,0.0,0.0,0.0,0.0,0.0,4.742431155,4.419324851558671,0.0,10367.0,0.0,0.0,0.0,0.0,0.0,0.18066404400000002,1.9233599947637376,0.0,4937.0,0.125,0.0,0.0,0.0,0.125,2.193603291,0.5538019444921097,0.0,-0.25999999046325684,-0.5,-63.880001068115234,-0.010009765625,0.01971435546875,1.05517578125,35.709999084472656,0.0,-22.0,-0.398468017578125,0.6195526123046875,Waiting,0.0,0.0,0.0,0.0,0.0,0.0,0.0,0.0,
13.509245999999985,0.0,0.0,4891.0,0.0,0.0,0.0,0.0,0.125,3.80859336,3.0220571050660396,0.0,1542.0,0.0,0.0,0.0,0.0,0.25,4.8156733350000005,4.419324851558671,0.0,10367.0,0.0,0.0,0.0,0.0,0.0,0.205078104,1.9233599947637376,0.0,4937.0,0.125,0.0,0.0,0.0,0.25,2.14843728,0.5538019444921097,0.0,-0.17000000178813934,-0.5299999713897705,-63.86000061035156,0.00555419921875,0.00238037109375,1.0191650390625,35.720001220703125,0.0,1.0,-0.3987274169921875,0.6195526123046875,Waiting,0.0,0.0,0.0,0.0,0.0,0.0,0.0,0.0,
13.732202999999979,0.0,0.0,4919.0,0.75,120.0,363.77954185009,0.0,0.25,3.814696875,3.022057105066037,0.0,1515.0,0.625,-150.0,-363.77954185009,0.0,0.25,4.858397940000001,4.419324851558669,0.0,10383.0,0.875,82.5,363.77954185009,0.0,0.0,0.214843728,1.92335999476374,0.0,4931.0,1.25,-45.0,-363.77954185009,0.0,0.125,2.144775171,0.553801944492112,0.0,-0.23999999463558197,-0.6000000238418579,-63.29999923706055,-0.043212890625,-0.04443359375,0.93804931640625,35.720001220703125,0.0,21.0,-0.3997802734375,0.6184844970703125,Waiting,0.0,0.0,0.0,0.0,0.0,0.0,0.0,0.0,
13.942142999999982,0.0,0.0,4945.0,5.75,427.5,925.9842485189438,0.0,0.125,3.7927242210000003,3.0220571050660365,0.0,1404.0,7.375,-442.5,-925.9842485189438,0.0,0.125,4.8730463760000005,4.419324851558669,0.0,10487.0,6.375,412.5,925.9842485189438,0.0,0.0,0.214843728,1.9233599947637403,0.0,4809.0,5.0,-465.0,-925.9842485189438,0.0,0.125,2.208251727,0.5538019444921118,0.0,-0.30000001192092896,-0.5199999809265137,-56.13999938964844,0.38751220703125,-0.0213623046875,1.0054931640625,35.720001220703125,0.0,234.0,-0.3997650146484375,0.613922119140625,Waiting,0.0,0.0,0.0,0.0,0.0,0.0,0.0,0.125,
14.150210999999953,0.0,0.0,5024.0,0.0,-112.5,0.0,0.0,0.25,3.7915035180000003,3.0220571050660365,0.0,1380.0,0.0,22.5,0.0,0.0,0.125,4.8632807520000005,4.419324851558669,0.0,10482.0,0.0,-60.0,0.0,0.0,0.0,0.214843728,1.9233599947637403,0.0,4784.0,0.125,15.0,0.0,0.0,0.25,2.202148212,0.5538019444921118,0.0,-0.03999999910593033,-0.7400000095367432,-55.41999816894531,0.31341552734375,0.05816650390625,0.86370849609375,35.689998626708984,0.0,135.0,-0.39910888671875,0.61639404296875,Waiting,0.0,0.0,0.0,0.0,0.0,0.0,0.0,0.0,
14.353301999999967,0.0,0.0,5001.0,0.125,-82.5,-246.09374999999997,0.0,0.25,3.7927242210000003,3.0220571050660396,0.0,1392.0,0.625,22.5,246.09374999999997,0.0,0.125,4.8657221580000005,4.419324851558671,0.0,10458.0,0.375,-127.5,-246.09374999999997,0.0,0.0,0.22094724300000002,1.9233599947637376,0.0,4797.0,0.75,7.5,246.09374999999997,0.0,0.25,2.1630857160000003,0.5538019444921097,0.0,-0.009999999776482582,-0.5699999928474426,-55.90999984741211,0.0457763671875,-0.03216552734375,0.98797607421875,35.689998626708984,0.0,57.0,-0.398468017578125,0.6154327392578125,Waiting,0.0,0.0,0.0,0.0,0.0,0.0,0.0,0.0,
14.566226999999955,0.0,0.0,4994.0,0.0,0.0,0.0,0.0,0.25,3.7927242210000003,3.0220571050660396,0.0,1403.0,0.0,0.0,0.0,0.0,0.125,4.864501455,4.419324851558671,0.0,10456.0,0.0,0.0,0.0,0.0,0.0,0.21972654000000003,1.9233599947637376,0.0,4805.0,0.125,0.0,0.0,0.0,0.125,2.1643064190000003,0.5538019444921097,0.0,-0.029999999329447746,-0.6399999856948853,-56.029998779296875,-0.01495361328125,0.002685546875,1.01251220703125,35.65999984741211,0.0,-4.0,-0.398529052734375,0.6148834228515625,Waiting,0.0,0.0,0.0,0.0,0.0,0.0,0.0,0.0,
14.778815000000002,0.0,0.0,4991.0,1.25,-30.0,-360.9375,0.0,0.25,3.77197227,3.0220571050660396,0.0,1412.0,1.25,67.5,360.9375,0.0,0.125,4.854735831,4.419324851558671,0.0,10455.0,1.25,-22.5,-360.9375,0.0,0.0,0.21972654000000003,1.9233599947637376,0.0,4822.0,1.125,90.0,360.9375,0.0,0.125,2.16064431,0.5538019444921097,0.0,-0.05999999865889549,-0.6499999761581421,-56.25,-0.02044677734375,0.02880859375,1.0189208984375,35.65999984741211,0.0,-29.0,-0.3986663818359375,0.6147613525390625,Waiting,0.0,0.0,0.0,0.0,0.0,0.0,0.0,0.0,
14.987313999999955,0.0,0.0,4985.0,0.0,0.0,0.0,0.0,0.25,3.7915035180000003,3.0220571050660396,0.0,1423.0,0.0,0.0,0.0,0.0,0.0,4.853515128000001,4.419324851558671,0.0,10449.0,0.0,0.0,0.0,0.0,0.0,0.224609352,1.9233599947637376,0.0,4822.0,0.125,0.0,0.0,0.0,0.125,2.158202904,0.5538019444921097,0.0,-0.03999999910593033,-0.6000000238418579,-56.52000045776367,-0.03533935546875,0.01519775390625,1.02685546875,35.65999984741211,0.0,-26.0,-0.3994140625,0.6156005859375,Waiting,0.0,0.0,0.0,0.0,0.0,0.0,0.0,0.0,
15.192510999999998,0.0,0.0,4985.0,0.0,0.0,0.0,0.0,0.25,3.7927242210000003,3.0220571050660396,0.0,1423.0,0.0,0.0,0.0,0.0,0.0,4.854735831,4.419324851558671,0.0,10449.0,0.0,0.0,0.0,0.0,0.0,0.224609352,1.9233599947637376,0.0,4822.0,0.125,0.0,0.0,0.0,0.125,2.158202904,0.5538019444921097,0.0,-0.019999999552965164,-0.6600000262260437,-56.52000045776367,-0.0194091796875,0.0020751953125,1.03533935546875,35.650001525878906,0.0,-6.0,-0.399871826171875,0.615509033203125,Waiting,0.0,0.0,0.0,0.0,0.0,0.0,0.0,0.0,
15.403924999999989,0.0,0.0,4984.0,0.625,0.0,-278.90625,0.0,0.25,3.7915035180000003,3.0220571050660396,0.0,1423.0,1.125,0.0,278.90625,0.0,0.0,4.853515128000001,4.419324851558671,0.0,10447.0,1.0,-7.5,-278.90625,0.0,0.0,0.22094724300000002,1.9233599947637376,0.0,4822.0,1.125,0.0,278.90625,0.0,0.125,2.158202904,0.5538019444921097,0.0,-0.019999999552965164,-0.6600000262260437,-56.560001373291016,0.00238037109375,-0.0068359375,1.03759765625,35.650001525878906,0.0,13.0,-0.399871826171875,0.615509033203125,Waiting,0.0,0.0,0.0,0.0,0.0,0.0,0.0,0.0,
15.608137999999977,0.0,0.0,4984.0,0.0,7.5,0.0,0.0,0.25,3.7915035180000003,3.0220571050660396,0.0,1424.0,0.0,0.0,0.0,0.0,0.0,4.854735831,4.419324851558671,0.0,10447.0,0.0,0.0,0.0,0.0,0.0,0.224609352,1.9233599947637376,0.0,4822.0,0.125,0.0,0.0,0.0,0.125,2.158202904,0.5538019444921097,0.0,-0.019999999552965164,-0.6600000262260437,-56.59000015258789,-0.0335693359375,0.00616455078125,1.016845703125,35.689998626708984,0.0,-17.0,-0.399871826171875,0.6153411865234375,Waiting,0.0,0.0,0.0,0.0,0.0,0.0,0.0,0.0,
15.812837999999989,0.0,0.0,4985.0,0.0,0.0,0.0,0.0,0.25,3.7890621120000003,3.0220571050660396,0.0,1424.0,0.0,0.0,0.0,0.0,0.0,4.854735831,4.419324851558671,0.0,10447.0,0.0,0.0,0.0,0.0,0.0,0.224609352,1.9233599947637376,0.0,4822.0,0.125,0.0,0.0,0.0,0.125,2.158202904,0.5538019444921097,0.0,-0.009999999776482582,-0.6700000166893005,-56.599998474121094,-0.01458740234375,-0.00115966796875,1.0252685546875,35.689998626708984,0.0,0.0,-0.399871826171875,0.6153411865234375,Waiting,0.0,0.0,0.0,0.0,0.0,0.0,0.0,0.0,
16.03051899999997,0.0,0.0,4985.0,0.0,0.0,0.0,0.0,0.25,3.7915035180000003,3.0220571050660396,0.0,1424.0,0.0,0.0,0.0,0.0,0.0,4.854735831,4.419324851558671,0.0,10447.0,0.0,0.0,0.0,0.0,0.0,0.224609352,1.9233599947637376,0.0,4822.0,0.125,0.0,0.0,0.0,0.125,2.159423607,0.5538019444921097,0.0,-0.019999999552965164,-0.6600000262260437,-56.599998474121094,-0.013916015625,0.00244140625,1.01800537109375,35.689998626708984,0.0,-3.0,-0.399871826171875,0.6153411865234375,Waiting,0.0,0.0,0.0,0.0,0.0,0.0,0.0,0.0,
16.23333599999995,0.0,0.0,4985.0,0.0,0.0,0.0,0.0,0.25,3.7927242210000003,3.0220571050660396,0.0,1424.0,0.0,0.0,0.0,0.0,0.0,4.854735831,4.419324851558671,0.0,10447.0,0.0,0.0,0.0,0.0,0.0,0.22338864900000002,1.9233599947637376,0.0,4822.0,0.125,0.0,0.0,0.0,0.125,2.158202904,0.5538019444921097,0.0,-0.009999999776482582,-0.6700000166893005,-56.61000061035156,-0.01593017578125,-0.00103759765625,1.01812744140625,35.68000030517578,0.0,-1.0,-0.399871826171875,0.6153411865234375,Waiting,0.0,0.0,0.0,0.0,0.0,0.0,0.0,0.0,
16.446455999999948,0.0,0.0,4970.0,4.375,-232.5,-853.125,0.0,0.25,3.7927242210000003,3.0220571050660396,0.0,1437.0,7.0,240.0,853.125,0.0,0.0,4.855956534000001,4.419324851558671,0.0,10446.0,6.375,-45.0,-853.125,0.0,0.0,0.225830055,1.9233599947637376,0.0,4838.0,4.75,292.5,853.125,0.0,0.125,2.084960724,0.5538019444921097,0.0,0.11999999731779099,-0.6899999976158142,-60.2400016784668,0.01910400390625,-0.08880615234375,1.14703369140625,35.68000030517578,0.0,95.0,-0.40069580078125,0.6163330078125,Waiting,0.0,0.0,0.0,0.0,0.0,0.0,0.0,0.0,
16.652603999999993,0.0,0.0,4871.0,0.0,-165.0,0.0,0.0,0.25,3.809814063,3.0220571050660396,0.0,1530.0,0.0,60.0,0.0,0.0,0.0,4.849853019,4.419324851558671,0.0,10388.0,0.0,-135.0,0.0,0.0,0.0,0.22338864900000002,1.9233599947637376,0.0,4917.0,0.125,82.5,0.0,0.0,0.375,2.125243923,0.5538019444921097,0.0,-0.38999998569488525,-0.6600000262260437,-65.1500015258789,-0.0972900390625,0.00775146484375,0.6705322265625,35.72999954223633,0.0,-48.0,-0.3983917236328125,0.6142578125,Waiting,0.0,0.0,0.0,0.0,0.0,0.0,0.0,0.0,
16.85896299999999,0.0,0.0,4883.0,0.0,45.0,0.0,0.0,0.125,3.807372657,3.0220571050660396,0.0,1530.0,0.0,0.0,0.0,0.0,0.0,4.848632316000001,4.419324851558671,0.0,10387.0,0.0,22.5,0.0,0.0,0.0,0.224609352,1.9233599947637376,0.0,4917.0,0.125,0.0,0.0,0.0,0.25,2.135009547,0.5538019444921097,0.0,-0.1599999964237213,-0.5699999928474426,-63.970001220703125,-0.04010009765625,0.0362548828125,0.92108154296875,35.72999954223633,0.0,-48.0,-0.3949432373046875,0.6055450439453125,Waiting,0.0,0.0,0.0,0.0,0.0,0.0,0.0,0.0,
17.065516000000002,0.0,0.0,4883.0,0.0,0.0,0.0,0.0,0.125,3.80859336,3.0220571050660396,0.0,1530.0,0.0,0.0,0.0,0.0,0.0,4.848632316000001,4.419324851558671,0.0,10387.0,0.0,0.0,0.0,0.0,0.0,0.224609352,1.9233599947637376,0.0,4917.0,0.125,0.0,0.0,0.0,0.125,2.135009547,0.5538019444921097,0.0,-0.14000000059604645,-0.6600000262260437,-64.05999755859375,-0.02099609375,0.0185546875,1.009765625,35.72999954223633,0.0,-23.0,-0.3941497802734375,0.6049652099609375,Waiting,0.0,0.0,0.0,0.0,0.0,0.0,0.0,0.0,
17.27600099999999,0.0,0.0,4883.0,0.0,0.0,0.0,0.0,0.125,3.80859336,3.0220571050660396,0.0,1530.0,0.0,0.0,0.0,0.0,0.0,4.849853019,4.419324851558671,0.0,10387.0,0.0,0.0,0.0,0.0,0.0,0.224609352,1.9233599947637376,0.0,4917.0,0.125,0.0,0.0,0.0,0.125,2.135009547,0.5538019444921097,0.0,-0.12999999523162842,-0.6700000166893005,-64.08999633789062,-0.001220703125,-0.00213623046875,1.02099609375,35.7599983215332,0.0,4.0,-0.3943939208984375,0.6049652099609375,Waiting,0.0,0.0,0.0,0.0,0.0,0.0,0.0,0.0,
17.480815000000003,0.0,0.0,4883.0,0.0,0.0,0.0,0.0,0.125,3.80859336,3.0220571050660396,0.0,1530.0,0.0,0.0,0.0,0.0,0.0,4.848632316000001,4.419324851558671,0.0,10387.0,0.0,0.0,0.0,0.0,0.0,0.22338864900000002,1.9233599947637376,0.0,4917.0,0.125,0.0,0.0,0.0,0.125,2.135009547,0.5538019444921097,0.0,-0.12999999523162842,-0.6700000166893005,-64.08999633789062,-0.0084228515625,-0.00445556640625,1.0142822265625,35.7599983215332,0.0,3.0,-0.3943939208984375,0.6049652099609375,Waiting,0.0,0.0,0.0,0.0,0.0,0.0,0.0,0.0,
17.687750999999988,0.0,0.0,4883.0,0.0,0.0,0.0,0.0,0.125,3.80859336,3.0220571050660396,0.0,1530.0,0.0,0.0,0.0,0.0,0.0,4.848632316000001,4.419324851558671,0.0,10387.0,0.0,0.0,0.0,0.0,0.0,0.224609352,1.9233599947637376,0.0,4917.0,0.125,0.0,0.0,0.0,0.125,2.135009547,0.5538019444921097,0.0,-0.11999999731779099,-0.6800000071525574,-64.08999633789062,-0.01593017578125,0.0020751953125,1.02459716796875,35.720001220703125,0.0,-5.0,-0.3943939208984375,0.6049652099609375,Waiting,0.0,0.0,0.0,0.0,0.0,0.0,0.0,0.0,
