Time,ClimberA1,ClimberA2,FRpos,FRCurrent,FRspeed,FRsetpoint,FRApos,FRACurrent,FREncpos,FREncSetpoint,FREncSpeed,FLpos,FLCurrent,FLspeed,FLsetpoint,FLApos,FLACurrent,FLEncpos,FLEncSetpoint,FLEncSpeed,BRpos,BRCurrent,BRspeed,BRsetpoint,BRApos,BRACurrent,BREncpos,BREncSetpoint,BREncSpeed,BLpos,BLCurrent,BLspeed,BLsetpoint,BLApos,BLACurrent,BLEncpos,BLEncSetpoint,BLEncSpeed,navx_Pitch,navx_Roll,navx_Yaw,navx_XAcc,navx_YAcc,navx_ZAcc,navx_Temp,navx_Bar,navx_Alt,navx_XDis,navx_YDis,GearPlacerState,ShootOutputV,ShootOutputCurrent,ShootEncPos,ShootEncVelocity,ShootSpeed,ShootSetpoint,CarouselSetpoint,CarouselCurrent,
0.08201599999999962,0.0,0.0,129477.0,0.0,0.0,0.0,0.0,0.125,0.821533119,0.0,0.0,-99894.0,0.0,0.0,-0.0,0.0,0.25,0.46142573400000003,0.0,0.0,172634.0,0.0,0.0,0.0,0.0,0.0,3.2604977130000004,0.0,0.0,-110023.0,0.125,0.0,-0.0,0.0,0.125,1.585693197,0.0,0.0,0.5,-0.8399999737739563,0.0,-0.011962890625,0.0087890625,1.01275634765625,35.279998779296875,0.0,3.0,-5.8555145263671875,-0.363739013671875,Waiting,0.0,0.0,-19187.0,0.0,0.0,0.0,0.0,0.0,
0.1251090000000004,0.0,0.0,129477.0,0.0,0.0,0.0,0.0,0.125,0.820312416,0.0,0.0012207029999999897,-99894.0,0.0,0.0,-0.0,0.0,0.25,0.462646437,0.0,0.0,172634.0,0.0,0.0,0.0,0.0,0.0,3.2617184160000003,0.0,0.0,-110023.0,0.125,0.0,-0.0,0.0,0.125,1.5869139,0.0,0.0,0.5,-0.8399999737739563,0.0,-0.01031494140625,0.00811767578125,1.021728515625,35.279998779296875,0.0,4.0,-5.8555145263671875,-0.363739013671875,Waiting,0.0,0.0,-19187.0,0.0,0.0,0.0,0.0,0.0,
0.16932099999999992,0.0,0.0,129477.0,0.0,0.0,0.0,0.0,0.125,0.820312416,0.0,0.0012207029999999897,-99894.0,0.0,0.0,-0.0,0.0,0.25,0.462646437,0.0,0.0,172634.0,0.0,0.0,0.0,0.0,0.0,3.2617184160000003,0.0,0.0,-110023.0,0.125,0.0,-0.0,0.0,0.125,1.5869139,0.0,0.0,0.5,-0.8199999928474426,0.0,-0.01153564453125,0.01129150390625,1.01953125,35.279998779296875,0.0,3.0,-5.8555145263671875,-0.363739013671875,Waiting,0.0,0.0,-19187.0,0.0,0.0,0.0,0.0,0.0,
0.24046700000000054,0.0,0.0,129477.0,0.0,0.0,0.0,0.0,0.125,0.820312416,0.0,0.0,-99894.0,0.0,0.0,-0.0,0.0,0.25,0.462646437,0.0,0.0,172634.0,0.0,0.0,0.0,0.0,0.0,3.2617184160000003,0.0,0.0,-110023.0,0.125,0.0,-0.0,0.0,0.125,1.585693197,0.0,0.0,0.5099999904632568,-0.8199999928474426,0.0,-0.01104736328125,0.007568359375,1.0223388671875,35.279998779296875,0.0,3.0,-5.8555145263671875,-0.363739013671875,Waiting,0.0,0.0,-19187.0,0.0,0.0,0.0,0.0,0.0,
0.2893520000000026,0.0,0.0,129477.0,0.0,0.0,0.0,0.0,0.125,0.820312416,0.0,-0.0012207029999999897,-99894.0,0.0,0.0,-0.0,0.0,0.25,0.46142573400000003,0.0,0.0,172634.0,0.0,0.0,0.0,0.0,0.0,3.2604977130000004,0.0,0.0,-110023.0,0.125,0.0,-0.0,0.0,0.125,1.5869139,0.0,0.0,0.5099999904632568,-0.8100000023841858,0.0,-0.01068115234375,0.008544921875,1.022216796875,35.279998779296875,0.0,3.0,-5.8555145263671875,-0.363739013671875,Waiting,0.0,0.0,-19187.0,0.0,0.0,0.0,0.0,0.0,
0.33347200000000154,0.0,0.0,129477.0,0.0,0.0,0.0,0.0,0.125,0.820312416,0.0,0.0,-99894.0,0.0,0.0,-0.0,0.0,0.25,0.462646437,0.0,0.0,172634.0,0.0,0.0,0.0,0.0,0.0,3.2617184160000003,0.0,0.0,-110023.0,0.125,0.0,-0.0,0.0,0.125,1.5869139,0.0,0.0,0.5099999904632568,-0.800000011920929,0.0,-0.01116943359375,0.00994873046875,1.02227783203125,35.279998779296875,0.0,3.0,-5.8555145263671875,-0.363739013671875,Waiting,0.0,0.0,-19187.0,0.0,0.0,0.0,0.0,0.0,
0.38512900000000083,0.0,0.0,129477.0,0.0,0.0,0.0,0.0,0.125,0.820312416,0.0,0.0012207029999999897,-99894.0,0.0,0.0,-0.0,0.0,0.25,0.46142573400000003,0.0,0.0,172634.0,0.0,0.0,0.0,0.0,0.0,3.2617184160000003,0.0,0.0,-110023.0,0.125,0.0,-0.0,0.0,0.125,1.5869139,0.0,0.0,0.5,-0.800000011920929,0.0,-0.011962890625,0.0062255859375,1.01788330078125,35.279998779296875,0.0,2.0,-5.8555145263671875,-0.363739013671875,Waiting,0.0,0.0,-19187.0,0.0,0.0,0.0,0.0,0.0,
0.4286399999999994,0.0,0.0,129477.0,0.0,0.0,0.0,0.0,0.125,0.820312416,0.0,0.0012207029999999897,-99894.0,0.0,0.0,-0.0,0.0,0.25,0.462646437,0.0,0.0,172634.0,0.0,0.0,0.0,0.0,0.0,3.2617184160000003,0.0,0.0,-110023.0,0.125,0.0,-0.0,0.0,0.125,1.5869139,0.0,0.0,0.5099999904632568,-0.800000011920929,0.0,-0.01385498046875,0.00970458984375,1.02093505859375,35.279998779296875,0.0,0.0,-5.8555145263671875,-0.363739013671875,Waiting,0.0,0.0,-19187.0,0.0,0.0,0.0,0.0,0.0,
0.472117000000002,0.0,0.0,129477.0,0.0,0.0,0.0,0.0,0.125,0.820312416,0.0,0.0,-99894.0,0.0,0.0,-0.0,0.0,0.25,0.462646437,0.0,0.0,172634.0,0.0,0.0,0.0,0.0,0.0,3.2604977130000004,0.0,0.0,-110023.0,0.125,0.0,-0.0,0.0,0.125,1.5869139,0.0,0.0,0.5099999904632568,-0.7900000214576721,0.0,-0.01123046875,0.008544921875,1.02191162109375,35.29999923706055,0.0,2.0,-5.8555145263671875,-0.363739013671875,Waiting,0.0,0.0,-19187.0,0.0,0.0,0.0,0.0,0.0,
0.5140600000000013,0.0,0.0,129477.0,0.0,0.0,0.0,0.0,0.125,0.819091713,0.0,-0.0012207029999999897,-99894.0,0.0,0.0,-0.0,0.0,0.25,0.462646437,0.0,0.0,172634.0,0.0,0.0,0.0,0.0,0.0,3.2604977130000004,0.0,0.0,-110023.0,0.125,0.0,-0.0,0.0,0.125,1.585693197,0.0,0.0,0.5,-0.7799999713897705,0.0,-0.0107421875,0.00543212890625,1.0220947265625,35.29999923706055,0.0,3.0,-5.8555145263671875,-0.363739013671875,Waiting,0.0,0.0,-19187.0,0.0,0.0,0.0,0.0,0.0,
0.5652289999999993,0.0,0.0,129477.0,0.0,0.0,0.0,0.0,0.125,0.820312416,0.0,-0.0012207029999999897,-99894.0,0.0,0.0,-0.0,0.0,0.25,0.46142573400000003,0.0,0.0,172634.0,0.0,0.0,0.0,0.0,0.0,3.2617184160000003,0.0,0.0,-110023.0,0.125,0.0,-0.0,0.0,0.125,1.585693197,0.0,0.0,0.5,-0.7799999713897705,0.0,-0.01275634765625,0.0078125,1.00927734375,35.29999923706055,0.0,1.0,-5.8555145263671875,-0.363739013671875,Waiting,0.0,0.0,-19187.0,0.0,0.0,0.0,0.0,0.0,
0.6091650000000008,0.0,0.0,129477.0,0.0,0.0,0.0,0.0,0.125,0.820312416,0.0,0.0012207029999999897,-99894.0,0.0,0.0,-0.0,0.0,0.25,0.46142573400000003,0.0,0.0,172634.0,0.0,0.0,0.0,0.0,0.0,3.2617184160000003,0.0,0.0,-110023.0,0.125,0.0,-0.0,0.0,0.125,1.5869139,0.0,0.0,0.5,-0.7699999809265137,0.0,-0.01348876953125,0.007568359375,1.01861572265625,35.29999923706055,0.0,0.0,-5.8555145263671875,-0.363739013671875,Waiting,0.0,0.0,-19187.0,0.0,0.0,0.0,0.0,0.0,
0.6506790000000001,0.0,0.0,129477.0,0.0,0.0,0.0,0.0,0.125,0.8166503070000001,0.0,-0.0012207029999999897,-99894.0,0.0,0.0,-0.0,0.0,0.25,0.46142573400000003,0.0,0.0,172634.0,0.0,0.0,0.0,0.0,0.0,3.2617184160000003,0.0,0.0,-110023.0,0.125,0.0,-0.0,0.0,0.125,1.5869139,0.0,0.0,0.5,-0.7699999809265137,0.0,-0.0096435546875,0.00909423828125,1.0177001953125,35.29999923706055,0.0,4.0,-5.8555145263671875,-0.363739013671875,Waiting,0.0,0.0,-19187.0,0.0,0.0,0.0,0.0,0.0,
0.6975210000000006,0.0,0.0,129477.0,0.0,0.0,0.0,0.0,0.125,0.820312416,0.0,0.0,-99894.0,0.0,0.0,-0.0,0.0,0.25,0.46142573400000003,0.0,0.0,172634.0,0.0,0.0,0.0,0.0,0.0,3.2617184160000003,0.0,0.0,-110023.0,0.125,0.0,-0.0,0.0,0.125,1.585693197,0.0,0.0,0.5,-0.7699999809265137,0.0,-0.0118408203125,0.00927734375,1.02435302734375,35.29999923706055,0.0,1.0,-5.8555145263671875,-0.363739013671875,Waiting,0.0,0.0,-19187.0,0.0,0.0,0.0,0.0,0.0,
0.743331000000002,0.0,0.0,129477.0,0.0,0.0,0.0,0.0,0.125,0.821533119,0.0,0.0,-99894.0,0.0,0.0,-0.0,0.0,0.25,0.46142573400000003,0.0,0.0,172634.0,0.0,0.0,0.0,0.0,0.0,3.2617184160000003,0.0,0.0,-110023.0,0.125,0.0,-0.0,0.0,0.125,1.585693197,0.0,0.0,0.5,-0.7699999809265137,0.0,-0.01141357421875,0.01055908203125,1.01898193359375,35.29999923706055,0.0,2.0,-5.8555145263671875,-0.363739013671875,Waiting,0.0,0.0,-19187.0,0.0,0.0,0.0,0.0,0.0,
0.7866820000000007,0.0,0.0,129477.0,0.0,0.0,0.0,0.0,0.125,0.820312416,0.0,0.0012207029999999897,-99894.0,0.0,0.0,-0.0,0.0,0.25,0.462646437,0.0,0.0,172634.0,0.0,0.0,0.0,0.0,0.0,3.2617184160000003,0.0,0.0,-110023.0,0.125,0.0,-0.0,0.0,0.125,1.5869139,0.0,0.0,0.5,-0.7599999904632568,0.0,-0.0108642578125,0.00848388671875,1.0225830078125,35.29999923706055,0.0,2.0,-5.8555145263671875,-0.363739013671875,Waiting,0.0,0.0,-19187.0,0.0,0.0,0.0,0.0,0.0,
0.8314340000000011,0.0,0.0,129477.0,0.0,0.0,0.0,0.0,0.125,0.820312416,0.0,0.0,-99894.0,0.0,0.0,-0.0,0.0,0.25,0.46142573400000003,0.0,0.0,172634.0,0.0,0.0,0.0,0.0,0.0,3.2604977130000004,0.0,0.0,-110023.0,0.125,0.0,-0.0,0.0,0.125,1.5869139,0.0,0.0,0.5099999904632568,-0.75,-0.009999999776482582,-0.00885009765625,0.0115966796875,1.01971435546875,35.29999923706055,0.0,4.0,-5.8555145263671875,-0.363739013671875,Waiting,0.0,0.0,-19187.0,0.0,0.0,0.0,0.0,0.0,
0.8771690000000016,0.0,0.0,129477.0,0.0,0.0,0.0,0.0,0.125,0.820312416,0.0,-0.0012207029999999897,-99894.0,0.0,0.0,-0.0,0.0,0.25,0.462646437,0.0,0.0,172634.0,0.0,0.0,0.0,0.0,0.0,3.2617184160000003,0.0,0.0,-110023.0,0.125,0.0,-0.0,0.0,0.125,1.5869139,0.0,0.0,0.5099999904632568,-0.75,-0.009999999776482582,-0.0115966796875,0.00836181640625,1.02325439453125,35.29999923706055,0.0,1.0,-5.8555145263671875,-0.363739013671875,Waiting,0.0,0.0,-19187.0,0.0,0.0,0.0,0.0,0.0,
0.9236650000000008,0.0,0.0,129477.0,0.0,0.0,0.0,0.0,0.25,0.820312416,0.0,-0.0012207029999999897,-99894.0,0.0,0.0,-0.0,0.0,0.25,0.46142573400000003,0.0,0.0,172634.0,0.0,0.0,0.0,0.0,0.0,3.2617184160000003,0.0,0.0,-110023.0,0.125,0.0,-0.0,0.0,0.125,1.5869139,0.0,0.0,0.5099999904632568,-0.75,-0.009999999776482582,-0.01129150390625,0.00775146484375,1.01983642578125,35.29999923706055,0.0,2.0,-5.8555145263671875,-0.363739013671875,Waiting,0.0,0.0,-19187.0,0.0,0.0,0.0,0.0,0.0,
0.9678340000000025,0.0,0.0,129477.0,0.0,0.0,0.0,0.0,0.25,0.820312416,0.0,-0.0012207029999999897,-99894.0,0.0,0.0,-0.0,0.0,0.25,0.46142573400000003,0.0,0.0,172634.0,0.0,0.0,0.0,0.0,0.0,3.2604977130000004,0.0,0.0,-110023.0,0.125,0.0,-0.0,0.0,0.125,1.5869139,0.0,0.0,0.5099999904632568,-0.7400000095367432,-0.009999999776482582,-0.01092529296875,0.0054931640625,1.02423095703125,35.27000045776367,0.0,2.0,-5.8555145263671875,-0.363739013671875,Waiting,0.0,0.0,-19187.0,0.0,0.0,0.0,0.0,0.0,
1.0103000000000029,0.0,0.0,129477.0,0.0,0.0,0.0,0.0,0.125,0.820312416,0.0,0.0024414059999999793,-99894.0,0.0,0.0,-0.0,0.0,0.25,0.46142573400000003,0.0,0.0,172634.0,0.0,0.0,0.0,0.0,0.0,3.2617184160000003,0.0,0.0,-110023.0,0.125,0.0,-0.0,0.0,0.125,1.5869139,0.0,0.0,0.5099999904632568,-0.7400000095367432,-0.009999999776482582,-0.01092529296875,0.0098876953125,1.02178955078125,35.27000045776367,0.0,2.0,-5.8555145263671875,-0.363739013671875,Waiting,0.0,0.0,-19187.0,0.0,0.0,0.0,0.0,0.0,
1.0531550000000025,0.0,0.0,129477.0,0.0,0.0,0.0,0.0,0.125,0.820312416,0.0,0.0,-99894.0,0.0,0.0,-0.0,0.0,0.25,0.462646437,0.0,0.0,172634.0,0.0,0.0,0.0,0.0,0.0,3.2617184160000003,0.0,0.0,-110023.0,0.125,0.0,-0.0,0.0,0.125,1.585693197,0.0,0.0,0.5099999904632568,-0.7300000190734863,-0.009999999776482582,-0.009521484375,0.00933837890625,1.016845703125,35.27000045776367,0.0,3.0,-5.8555145263671875,-0.363739013671875,Waiting,0.0,0.0,-19187.0,0.0,0.0,0.0,0.0,0.0,
1.0986010000000024,0.0,0.0,129477.0,0.0,0.0,0.0,0.0,0.125,0.821533119,0.0,-0.0024414059999999793,-99894.0,0.0,0.0,-0.0,0.0,0.25,0.46142573400000003,0.0,0.0,172634.0,0.0,0.0,0.0,0.0,0.0,3.2617184160000003,0.0,0.0,-110023.0,0.125,0.0,-0.0,0.0,0.125,1.585693197,0.0,0.0,0.5099999904632568,-0.7300000190734863,-0.009999999776482582,-0.0103759765625,0.00970458984375,1.021728515625,35.27000045776367,0.0,2.0,-5.8555145263671875,-0.363739013671875,Waiting,0.0,0.0,-19187.0,0.0,0.0,0.0,0.0,0.0,
1.1451030000000029,0.0,0.0,129477.0,0.0,0.0,0.0,0.0,0.125,0.820312416,0.0,0.0024414059999999793,-99894.0,0.0,0.0,-0.0,0.0,0.25,0.46142573400000003,0.0,0.0,172634.0,0.0,0.0,0.0,0.0,0.0,3.2617184160000003,0.0,0.0,-110023.0,0.125,0.0,-0.0,0.0,0.125,1.5869139,0.0,0.0,0.5099999904632568,-0.7200000286102295,-0.009999999776482582,-0.01239013671875,0.0098876953125,1.02825927734375,35.27000045776367,0.0,0.0,-5.8555145263671875,-0.363739013671875,Waiting,0.0,0.0,-19187.0,0.0,0.0,0.0,0.0,0.0,
1.188742000000002,0.0,0.0,129477.0,0.0,0.0,0.0,0.0,0.125,0.820312416,0.0,-0.0012207029999999897,-99894.0,0.0,0.0,-0.0,0.0,0.25,0.462646437,0.0,0.0,172634.0,0.0,0.0,0.0,0.0,0.0,3.2604977130000004,0.0,0.0,-110023.0,0.125,0.0,-0.0,0.0,0.125,1.5869139,0.0,0.0,0.5099999904632568,-0.7200000286102295,-0.009999999776482582,-0.01080322265625,0.01055908203125,1.016357421875,35.27000045776367,0.0,2.0,-5.8555145263671875,-0.363739013671875,Waiting,0.0,0.0,-19187.0,0.0,0.0,0.0,0.0,0.0,
1.2327160000000004,0.0,0.0,129477.0,0.0,0.0,0.0,0.0,0.125,0.820312416,0.0,0.0,-99894.0,0.0,0.0,-0.0,0.0,0.25,0.462646437,0.0,0.0,172634.0,0.0,0.0,0.0,0.0,0.0,3.2604977130000004,0.0,0.0,-110023.0,0.125,0.0,-0.0,0.0,0.125,1.585693197,0.0,0.0,0.5099999904632568,-0.7200000286102295,-0.019999999552965164,-0.01141357421875,0.005615234375,1.01971435546875,35.27000045776367,0.0,2.0,-5.8555145263671875,-0.363739013671875,Waiting,0.0,0.0,-19187.0,0.0,0.0,0.0,0.0,0.0,
1.2826130000000011,0.0,0.0,129477.0,0.0,0.0,0.0,0.0,0.125,0.820312416,0.0,0.0012207029999999897,-99894.0,0.0,0.0,-0.0,0.0,0.25,0.462646437,0.0,0.0,172634.0,0.0,0.0,0.0,0.0,0.0,3.2604977130000004,0.0,0.0,-110023.0,0.125,0.0,-0.0,0.0,0.125,1.5869139,0.0,0.0,0.5099999904632568,-0.7099999785423279,-0.019999999552965164,-0.01177978515625,0.0081787109375,1.0206298828125,35.27000045776367,0.0,0.0,-5.8555145263671875,-0.363739013671875,Waiting,0.0,0.0,-19187.0,0.0,0.0,0.0,0.0,0.0,
1.327822,0.0,0.0,129477.0,0.0,0.0,0.0,0.0,0.125,0.820312416,0.0,0.0,-99894.0,0.0,0.0,-0.0,0.0,0.25,0.46142573400000003,0.0,0.0,172634.0,0.0,0.0,0.0,0.0,0.0,3.2604977130000004,0.0,0.0,-110023.0,0.125,0.0,-0.0,0.0,0.125,1.5869139,0.0,0.0,0.5099999904632568,-0.7099999785423279,-0.019999999552965164,-0.00946044921875,0.00836181640625,1.02069091796875,35.27000045776367,0.0,3.0,-5.8555145263671875,-0.363739013671875,Waiting,0.0,0.0,-19187.0,0.0,0.0,0.0,0.0,0.0,
1.371814000000002,0.0,0.0,129477.0,0.0,0.0,0.0,0.0,0.125,0.820312416,0.0,0.0,-99894.0,0.0,0.0,-0.0,0.0,0.25,0.462646437,0.0,0.0,172634.0,0.0,0.0,0.0,0.0,0.0,3.2617184160000003,0.0,0.0,-110023.0,0.125,0.0,-0.0,0.0,0.125,1.5869139,0.0,0.0,0.5099999904632568,-0.7099999785423279,-0.019999999552965164,-0.01043701171875,0.0101318359375,1.02069091796875,35.27000045776367,0.0,2.0,-5.8555145263671875,-0.363739013671875,Waiting,0.0,0.0,-19187.0,0.0,0.0,0.0,0.0,0.0,
1.4185420000000013,0.0,0.0,129477.0,0.0,0.0,0.0,0.0,0.125,0.821533119,0.0,0.0,-99894.0,0.0,0.0,-0.0,0.0,0.25,0.462646437,0.0,0.0,172634.0,0.0,0.0,0.0,0.0,0.0,3.2617184160000003,0.0,0.0,-110023.0,0.125,0.0,-0.0,0.0,0.125,1.5869139,0.0,0.0,0.5099999904632568,-0.7099999785423279,-0.019999999552965164,-0.01141357421875,0.00982666015625,1.0208740234375,35.27000045776367,0.0,1.0,-5.8555145263671875,-0.363739013671875,Waiting,0.0,0.0,-19187.0,0.0,0.0,0.0,0.0,0.0,
1.4653549999999995,0.0,0.0,129477.0,0.0,0.0,0.0,0.0,0.125,0.820312416,0.0,-0.0012207029999999897,-99894.0,0.0,0.0,-0.0,0.0,0.25,0.46142573400000003,0.0,0.0,172634.0,0.0,0.0,0.0,0.0,0.0,3.2617184160000003,0.0,0.0,-110023.0,0.125,0.0,-0.0,0.0,0.125,1.585693197,0.0,0.0,0.5099999904632568,-0.699999988079071,-0.019999999552965164,-0.00982666015625,0.01007080078125,1.02197265625,35.31999969482422,0.0,2.0,-5.8555145263671875,-0.363739013671875,Waiting,0.0,0.0,-19187.0,0.0,0.0,0.0,0.0,0.0,
1.5087280000000027,0.0,0.0,129477.0,0.0,0.0,0.0,0.0,0.125,0.820312416,0.0,0.0012207029999999897,-99894.0,0.0,0.0,-0.0,0.0,0.25,0.46142573400000003,0.0,0.0,172634.0,0.0,0.0,0.0,0.0,0.0,3.2617184160000003,0.0,0.0,-110023.0,0.125,0.0,-0.0,0.0,0.125,1.5869139,0.0,0.0,0.5099999904632568,-0.699999988079071,-0.019999999552965164,-0.01312255859375,0.01025390625,1.01739501953125,35.31999969482422,0.0,0.0,-5.8555145263671875,-0.363739013671875,Waiting,0.0,0.0,-19187.0,0.0,0.0,0.0,0.0,0.0,
1.566166000000001,0.0,0.0,129477.0,0.0,0.0,0.0,0.0,0.125,0.821533119,0.0,0.0,-99894.0,0.0,0.0,-0.0,0.0,0.25,0.462646437,0.0,0.0,172634.0,0.0,0.0,0.0,0.0,0.0,3.2617184160000003,0.0,0.0,-110023.0,0.125,0.0,-0.0,0.0,0.125,1.585693197,0.0,0.0,0.5099999904632568,-0.699999988079071,-0.019999999552965164,-0.01080322265625,0.00665283203125,1.0181884765625,35.31999969482422,0.0,1.0,-5.8555145263671875,-0.363739013671875,Waiting,0.0,0.0,-19187.0,0.0,0.0,0.0,0.0,0.0,
1.6098580000000002,0.0,0.0,129477.0,0.0,0.0,0.0,0.0,0.125,0.820312416,0.0,0.0,-99894.0,0.0,0.0,-0.0,0.0,0.25,0.462646437,0.0,0.0,172634.0,0.0,0.0,0.0,0.0,0.0,3.2617184160000003,0.0,0.0,-110023.0,0.125,0.0,-0.0,0.0,0.125,1.5869139,0.0,0.0,0.5,-0.699999988079071,-0.019999999552965164,-0.01153564453125,0.010498046875,1.01922607421875,35.31999969482422,0.0,0.0,-5.8555145263671875,-0.363739013671875,Waiting,0.0,0.0,-19187.0,0.0,0.0,0.0,0.0,0.0,
1.652992000000002,0.0,0.0,129477.0,0.0,0.0,0.0,0.0,0.25,0.820312416,0.0,-0.0012207029999999897,-99894.0,0.0,0.0,-0.0,0.0,0.25,0.462646437,0.0,0.0,172634.0,0.0,0.0,0.0,0.0,0.0,3.2604977130000004,0.0,0.0,-110023.0,0.125,0.0,-0.0,0.0,0.125,1.5869139,0.0,0.0,0.5,-0.699999988079071,-0.019999999552965164,-0.01263427734375,0.00653076171875,1.021484375,35.31999969482422,0.0,0.0,-5.8555145263671875,-0.363739013671875,Waiting,0.0,0.0,-19187.0,0.0,0.0,0.0,0.0,0.0,
1.6990349999999999,0.0,0.0,129477.0,0.0,0.0,0.0,0.0,0.25,0.820312416,0.0,0.0,-99894.0,0.0,0.0,-0.0,0.0,0.25,0.46142573400000003,0.0,0.0,172634.0,0.0,0.0,0.0,0.0,0.0,3.2604977130000004,0.0,0.0,-110023.0,0.125,0.0,-0.0,0.0,0.125,1.5869139,0.0,0.0,0.5,-0.699999988079071,-0.019999999552965164,-0.0113525390625,0.0079345703125,1.01611328125,35.31999969482422,0.0,1.0,-5.8555145263671875,-0.363739013671875,Waiting,0.0,0.0,-19187.0,0.0,0.0,0.0,0.0,0.0,
1.743675000000003,0.0,0.0,129477.0,0.0,0.0,0.0,0.0,0.125,0.821533119,0.0,-0.0012207029999999897,-99894.0,0.0,0.0,-0.0,0.0,0.25,0.46142573400000003,0.0,0.0,172634.0,0.0,0.0,0.0,0.0,0.0,3.2617184160000003,0.0,0.0,-110023.0,0.125,0.0,-0.0,0.0,0.125,1.5869139,0.0,0.0,0.5,-0.6899999976158142,-0.019999999552965164,-0.00927734375,0.00970458984375,1.01708984375,35.31999969482422,0.0,3.0,-5.8555145263671875,-0.363739013671875,Waiting,0.0,0.0,-19187.0,0.0,0.0,0.0,0.0,0.0,
1.7875420000000013,0.0,0.0,129477.0,0.125,0.0,-181.889770925045,0.0,0.125,0.820312416,4.941976430506139,0.0,-99894.0,0.125,0.0,181.889770925045,0.0,0.25,0.46386714,4.973493679450623,0.0,172634.0,0.125,0.0,-181.889770925045,0.0,0.0,3.2629391190000003,4.950124977783927,0.0,-110023.0,0.375,0.0,181.889770925045,0.0,0.125,1.5783689790000002,4.9677240000061715,0.0,0.5,-0.6899999976158142,-0.019999999552965164,-0.0162353515625,0.00640869140625,1.02569580078125,35.31999969482422,0.0,-3.0,-5.8555145263671875,-0.363739013671875,Waiting,0.0,0.0,-19187.0,0.0,0.0,0.0,0.0,0.0,
1.8311939999999995,0.0,0.0,129476.0,0.625,-7.5,-777.1653592586518,0.0,0.125,0.820312416,4.941976430506139,0.0,-99894.0,0.75,0.0,777.1653592586518,0.0,0.25,0.46142573400000003,4.973493679450623,0.0,172634.0,0.625,0.0,-777.1653592586518,0.0,0.0,3.2604977130000004,4.950124977783927,0.0,-110022.0,1.125,0.0,777.1653592586518,0.0,0.125,1.5869139,4.9677240000061715,0.0,0.5,-0.699999988079071,-0.009999999776482582,-0.00421142578125,0.032470703125,1.0260009765625,35.31999969482422,0.0,8.0,-5.8555145263671875,-0.3637237548828125,Waiting,0.0,0.0,-19187.0,0.0,0.0,0.0,0.0,0.0,
1.8818410000000003,0.0,0.0,129476.0,2.5,-67.5,-959.0550988912584,0.0,0.125,0.8300780400000001,4.94211371525307,0.0,-99887.0,3.625,22.5,959.0550988912584,0.0,0.25,0.46142573400000003,4.9736318397253125,0.0012207030000004337,172631.0,1.5,-15.0,-959.0550988912584,0.0,0.0,3.2604977130000004,4.950262488891965,0.0,-110022.0,3.0,15.0,959.0550988912584,0.0,0.125,1.5808103850000002,4.967862000003087,0.0,0.5400000214576721,-0.8899999856948853,0.0,-0.087158203125,0.01397705078125,1.1297607421875,35.31999969482422,0.0,-69.0,-5.85614013671875,-0.3638153076171875,Waiting,0.0,0.0,-19187.0,0.0,0.0,0.0,0.0,0.0,
1.9258330000000023,0.0,0.0,129456.0,3.75,-112.5,-959.0550988912584,0.0,0.125,0.839843664,1.3728474692910558E-4,0.0,-99887.0,6.75,67.5,959.0550988912584,0.0,0.25,0.462646437,1.3816027468729886E-4,0.0,172631.0,3.875,-67.5,-959.0550988912584,0.0,0.0,3.2617184160000003,1.375111080351533E-4,0.0,-110022.0,5.125,60.0,959.0550988912584,0.0,0.125,1.5808103850000002,1.3799999691310632E-4,0.0,0.699999988079071,-1.159999966621399,0.12999999523162842,-0.04425048828125,0.0623779296875,0.89044189453125,35.31999969482422,0.0,-26.0,-5.85955810546875,-0.3626251220703125,Waiting,0.0,0.0,-19187.0,0.0,0.0,0.0,0.0,0.0,
1.9701740000000028,0.0,0.0,129456.0,4.625,-150.0,-959.0550988912582,0.0,0.125,0.8410643670000001,0.0017847016845351886,0.0,-99864.0,8.625,120.0,959.0550988912582,0.0,0.25,0.462646437,0.0017960835452288009,0.0,172609.0,5.0,-105.0,-959.0550988912582,0.0,0.0,3.2604977130000004,0.0017876443788716922,0.0,-110000.0,6.125,112.5,959.0550988912582,0.0,0.25,1.567382652,0.0017939999341941189,0.0,0.699999988079071,-1.5,0.20999999344348907,-0.1156005859375,0.0325927734375,1.21368408203125,35.310001373291016,0.0,-83.0,-5.86395263671875,-0.361083984375,Waiting,0.0,0.0,-19187.0,0.0,0.0,0.0,0.0,0.0,
2.0213899999999994,0.0,0.0,129456.0,5.875,-217.5,-959.0550988912584,0.0,0.25,0.837402258,0.002882979659986762,0.0,-99864.0,9.875,195.0,959.0550988912584,0.0,0.25,0.462646437,0.0029013657427460404,0.0,172609.0,5.75,-180.0,-959.0550988912584,0.0,0.0,3.2702633370000003,0.002887733243171678,0.0,-110000.0,6.25,217.5,959.0550988912584,0.0,0.25,1.542968592,0.0028979999095177958,0.0,0.7099999785423279,-1.809999942779541,0.25999999046325684,-0.20947265625,-0.0299072265625,1.04638671875,35.310001373291016,0.0,-176.0,-5.8701171875,-0.3596954345703125,Waiting,0.0,0.0,-19187.0,0.0,0.0,0.0,0.0,0.0,
2.068179,0.0,0.0,129410.0,6.375,-300.0,-959.0550988912584,0.0,0.25,0.839843664,0.0038439730163624957,0.0,-99864.0,9.375,292.5,959.0550988912584,0.0,0.25,0.462646437,0.003868487794244625,0.0,172609.0,5.875,-285.0,-959.0550988912584,0.0,0.0,3.2702633370000003,0.0038503111275005864,0.009765623999999917,-109943.0,7.0,307.5,959.0550988912584,0.0,0.25,1.542968592,0.003864000016447744,0.0,0.6899999976158142,-2.0199999809265137,0.33000001311302185,-0.17877197265625,-0.01129150390625,1.12530517578125,35.310001373291016,0.0,-139.0,-5.875213623046875,-0.358856201171875,Waiting,0.0,0.0,-19187.0,0.0,0.0,0.0,0.0,0.0,
2.1128820000000013,0.0,0.0,129410.0,6.375,-397.5,-959.0550988912582,0.0,0.25,0.837402258,0.00658966785270632,0.0,-99800.0,9.625,382.5,959.0550988912582,0.0,0.25,0.46142573400000003,0.006631693185100295,0.0,172542.0,5.75,-442.5,-959.0550988912582,0.0,0.125,3.2702633370000003,0.00660053318579679,0.0,-109943.0,7.25,367.5,959.0550988912582,0.0,0.25,1.542968592,0.006623999851938924,0.0,0.6899999976158142,-2.319999933242798,0.5600000023841858,-0.0987548828125,0.1993408203125,0.9718017578125,35.310001373291016,0.0,-57.0,-5.88470458984375,-0.35748291015625,Waiting,0.0,0.0,-19187.0,0.0,0.0,0.0,0.0,0.0,
2.1625600000000014,0.0,0.0,129321.0,5.75,-502.5,-764.6317949512942,0.0,0.125,0.838622961,4.767073979712869,0.0,-99800.0,11.5,495.0,1184.3418936221763,0.0,0.25,0.462646437,4.86050382352693,0.0,172542.0,4.75,-555.0,-769.7304963480434,0.0,0.0,3.280028961,0.19719144165929328,0.0,-109943.0,7.875,450.0,1187.6400869566207,0.0,0.375,1.5527342160000002,0.12747429887356868,0.0,0.7300000190734863,-2.619999885559082,0.9100000262260437,-0.12017822265625,0.0435791015625,1.09716796875,35.310001373291016,0.0,-69.0,-5.8991851806640625,-0.3558807373046875,Waiting,0.0,0.0,-19187.0,0.0,0.0,0.0,0.0,0.0,
2.2067469999999996,0.0,0.0,129321.0,3.375,-615.0,-662.3015551515796,0.0,0.375,0.825195228,4.584975178698932,0.0,-99697.0,14.625,592.5,1354.2362257929476,0.0,0.25,0.443115189,4.802579699498415,0.0,172431.0,3.25,-645.0,-677.0178770696082,0.0,0.375,3.336181299,0.39148228034261295,0.0,-109846.0,11.125,592.5,1361.493889507245,0.0,0.375,1.6101072570000001,0.18922187318982792,0.0,0.7400000095367432,-2.880000114440918,1.059999942779541,-0.208740234375,-0.07110595703125,1.11590576171875,35.310001373291016,0.0,-153.0,-5.9158172607421875,-0.3546142578125,Waiting,0.0,0.0,-19187.0,0.0,0.0,0.0,0.0,0.0,
2.252922000000002,0.0,0.0,129321.0,2.75,-660.0,-643.1180339153951,0.0,0.625,0.7385253150000001,4.531698022474543,0.0,-99697.0,17.0,697.5,1397.5723593806497,0.0,0.25,0.393066366,4.790525460532636,0.0,172431.0,2.625,-705.0,-661.5246523855677,0.0,0.375,3.455810193,0.4478776929556322,0.0,-109846.0,12.5,697.5,1406.1374612289649,0.0,0.375,1.674804516,0.2024545950649894,0.0,0.6499999761581421,-3.0199999809265137,0.949999988079071,-0.0634765625,-0.02728271484375,0.82232666015625,35.310001373291016,0.0,-20.0,-5.9296875,-0.35400390625,Waiting,0.0,0.0,-19187.0,0.0,0.0,0.0,0.0,0.0,
2.3071450000000002,0.0,0.0,129208.0,1.625,-720.0,-629.0807142833629,0.0,0.5,0.6091307970000001,4.47182157497819,0.0,-99697.0,18.25,870.0,1442.1321627985233,0.0,0.25,0.352783167,4.777335794629844,0.0,172431.0,1.5,-765.0,-647.5202978624077,0.0,0.25,3.5815426020000003,0.503192922559742,0.0,-109698.0,12.75,810.0,1450.2707216373437,0.0,0.25,1.7419431810000001,0.213014828244976,0.0,0.7300000190734863,-3.25,0.47999998927116394,-0.111572265625,0.05780029296875,1.16094970703125,35.310001373291016,0.0,-45.0,-5.9441375732421875,-0.3533172607421875,Waiting,0.0,0.0,-19187.0,0.0,0.0,0.0,0.0,0.0,
2.356785,0.0,0.0,129208.0,1.375,-735.0,-612.8635083432862,0.0,0.25,0.51269526,4.299937850394242,0.0,-99535.0,17.25,1020.0,1563.563560534769,0.0,0.25,0.31738278000000003,4.744439465583212,0.0,172307.0,1.25,-780.0,-624.6716513814297,0.0,0.25,3.671874624,0.6572502272415656,0.0,-109698.0,13.375,997.5,1568.229575034512,0.0,0.25,1.772460756,0.2368287569652985,0.0,0.699999988079071,-3.25,-0.6100000143051147,-0.205078125,0.2274169921875,1.2354736328125,35.310001373291016,0.0,-136.0,-5.9594268798828125,-0.3526763916015625,Waiting,0.0,0.0,-19187.0,0.0,0.0,0.0,0.0,0.0,
2.407223000000002,0.0,0.0,129093.0,1.375,-720.0,-626.0211248657594,0.0,0.375,0.423583941,4.243003970990509,0.0,-99535.0,16.5,1177.5,1599.1321446112454,0.0,0.25,0.281982393,4.729295390260599,0.0,172307.0,1.5,-705.0,-610.3016939947049,0.0,0.25,3.7792964880000004,0.6837846523383426,0.0,-109698.0,12.875,1140.0,1593.0440435981602,0.0,0.25,1.805419737,0.23453475949915992,0.0,0.75,-3.190000057220459,-2.3499999046325684,-0.118408203125,-0.12530517578125,0.81689453125,35.310001373291016,0.0,-67.0,-5.9753570556640625,-0.351470947265625,Waiting,0.0,0.0,-19187.0,0.0,0.0,0.0,0.0,0.0,
2.453468000000001,0.0,0.0,129093.0,1.625,-682.5,-648.4285872742175,0.0,0.375,0.312499968,4.220034567479694,0.0,-99306.0,13.75,1387.5,1607.5081244323985,0.0,0.25,0.255126927,4.71552332583205,0.0,172203.0,1.5,-645.0,-587.8855360574868,0.0,0.125,3.8452144500000003,0.6593261731263691,0.0,-109485.0,11.375,1275.0,1584.0555990328526,0.0,0.125,1.799316222,0.2207459737937245,0.0,0.8399999737739563,-3.2100000381469727,-4.590000152587891,-0.0966796875,0.05023193359375,1.22308349609375,35.310001373291016,0.0,-30.0,-5.9908294677734375,-0.3517303466796875,Waiting,0.0,0.0,-19187.0,0.0,0.0,0.0,0.0,0.0,
2.506032000000003,0.0,0.0,129093.0,1.875,-675.0,-689.7928503249581,0.0,0.375,0.222167946,4.1625132338236925,0.0,-99306.0,11.875,1500.0,1636.9012762348284,0.0,0.25,0.234374976,4.688516537731363,0.0,172203.0,1.75,-637.5,-547.0228720921392,0.0,0.125,3.873290619,0.6370632739483297,0.0,-109485.0,9.5,1455.0,1582.0447637066761,0.0,0.125,1.796874816,0.19986909792189778,0.0,0.8999999761581421,-3.1700000762939453,-8.140000343322754,-0.14990234375,0.16351318359375,1.02325439453125,35.279998779296875,0.0,-112.0,-6.0111846923828125,-0.35302734375,Waiting,0.0,0.0,-19187.0,0.0,0.0,0.0,0.0,0.0,
2.5509490000000006,0.0,0.0,128984.0,2.0,-690.0,-725.1309950853655,0.0,0.25,0.14526365700000002,4.130886573046244,0.0,-99306.0,10.125,1635.0,1648.356231558124,0.0,0.25,0.21118161900000001,4.667366037126029,0.0,172203.0,1.75,-607.5,-511.4699840798506,0.0,0.25,3.875732025,0.5951049522839079,0.0,-109233.0,8.25,1537.5,1566.1624598673184,0.0,0.125,1.804199034,0.17852719366362413,0.0,1.0199999809265137,-3.069999933242798,-11.1899995803833,-0.01812744140625,0.02362060546875,0.87469482421875,35.279998779296875,0.0,26.0,-6.0268707275390625,-0.3536834716796875,Waiting,0.0,0.0,-19187.0,0.0,0.0,0.0,0.0,0.0,
2.6047340000000005,0.0,0.0,128984.0,2.0,-727.5,-764.6311367702999,0.0,0.375,0.083007804,4.096727032792552,0.0,-99036.0,7.875,1710.0,1660.1637427523963,0.0,0.25,0.177001935,4.643600362630794,0.0,172109.0,1.75,-570.0,-471.7373824295644,0.0,0.125,3.875732025,0.5436905269678786,0.0,-109233.0,7.5,1597.5,1547.26178632205,0.0,0.25,1.799316222,0.15444092430103204,0.0,0.9900000095367432,-2.950000047683716,-15.619999885559082,0.0382080078125,0.08465576171875,0.90203857421875,35.279998779296875,0.0,63.0,-6.0467987060546875,-0.355194091796875,Waiting,0.0,0.0,-19187.0,0.0,0.0,0.0,0.0,0.0,
2.650796000000002,0.0,0.0,128860.0,2.0,-757.5,-843.2584523412954,0.0,0.25,0.028076169,4.072796176506779,0.0,-99036.0,7.0,1755.0,1707.7501813657138,0.0,0.25,0.152587875,4.612010012307659,0.0,172109.0,1.25,-562.5,-437.40577285912906,0.0,0.125,3.86962851,0.4137428548082794,0.0,-109233.0,7.0,1612.5,1548.1116479892798,0.0,0.25,1.778564271,0.11237501115099531,0.0,1.100000023841858,-2.880000114440918,-19.1299991607666,-0.14056396484375,-0.0924072265625,1.13482666015625,35.279998779296875,0.0,-41.0,-6.0609130859375,-0.356292724609375,Waiting,0.0,0.0,-19187.0,0.0,0.0,0.0,0.0,0.0,
2.706425000000003,0.0,0.0,128860.0,2.5,-787.5,-882.5865898858609,0.0,0.875,0.019531248,4.212851440795384,0.0,-98743.0,5.25,1807.5,1574.7778704865534,0.0,0.25,0.12939451800000001,4.605728911691135,0.0,172018.0,1.5,-570.0,-530.646979585828,0.0,0.625,3.753661725,0.050713051351294086,0.0,-108974.0,6.0,1620.0,1408.0314164362146,0.0,0.25,1.7651365380000001,0.01916889189602241,0.0,1.1100000143051147,-2.7799999713897705,-22.770000457763672,0.0208740234375,0.191650390625,0.8878173828125,35.279998779296875,0.0,-8.0,-6.0744781494140625,-0.358001708984375,Waiting,0.0,0.0,-19187.0,0.0,0.0,0.0,0.0,0.0,
2.7515519999999998,0.0,0.0,128721.0,3.5,-840.0,-1240.1575148105621,0.0,1.0,0.14526365700000002,4.612767600000002,0.0,-98743.0,3.0,1822.5,1240.1575148105621,0.0,0.25,0.114746082,4.6421853333333365,0.0,172018.0,4.375,-532.5,-1240.1575148105621,0.0,2.0,3.542480106,4.620373333333337,0.0,-108974.0,4.125,1620.0,1240.1575148105621,0.0,0.625,1.7126463090000001,4.636800000000003,0.0,1.1100000143051147,-2.700000047683716,-26.43000030517578,-0.059814453125,-0.21905517578125,0.9521484375,35.279998779296875,0.0,92.0,-6.0877227783203125,-0.359893798828125,Waiting,0.0,0.0,-19187.0,0.0,0.0,0.0,0.0,0.0,
2.8049360000000014,0.0,0.0,128721.0,5.25,-892.5,-1488.1890177726746,0.0,0.625,0.28320309600000004,4.563207796870806,0.0,-98478.0,1.75,1762.5,1488.1890177726746,0.0,0.25,0.114746082,4.592309464622923,0.0,171933.0,10.5,-510.0,-1488.1890177726746,0.0,1.875,3.2592770100000004,4.570731813829212,0.0,-108721.0,3.75,1590.0,1488.1890177726746,0.0,1.0,1.560058434,4.586981991577151,0.0,0.9700000286102295,-2.990000009536743,-30.84000015258789,-0.22314453125,-0.10675048828125,1.14459228515625,35.279998779296875,0.0,-75.0,-6.1060791015625,-0.364288330078125,Waiting,0.0,0.0,-19187.0,0.0,0.0,0.0,0.0,0.0,
2.852460000000003,0.0,0.0,128721.0,8.0,-975.0,-1642.2610161860935,0.0,0.25,0.35400387,4.455933707691961,0.0,-98478.0,3.125,1612.5,1642.2610161860935,0.0,0.25,0.10375975500000001,4.484351239406305,0.0,171933.0,13.75,-577.5,-1642.2610161860935,0.0,0.5,3.044433282,4.4632808464317755,0.0,-108721.0,4.75,1582.5,1642.2610161860935,0.0,0.5,1.37939439,4.479149007165695,0.0,1.0299999713897705,-3.140000104904175,-33.349998474121094,-0.3111572265625,0.14215087890625,1.04852294921875,35.279998779296875,0.0,-279.0,-6.121124267578125,-0.368927001953125,Waiting,0.0,0.0,-19187.0,0.0,0.0,0.0,0.0,0.0,
2.9066949999999996,0.0,0.0,128557.0,8.875,-1042.5,-1642.2610161860935,0.0,0.25,0.3662109,4.412963566278368,0.0,-98478.0,3.25,1680.0,1642.2610161860935,0.0,0.25,0.06103515,4.44110705770475,0.0,171933.0,15.625,-705.0,-1642.2610161860935,0.0,0.25,2.872314159,4.420239853966226,0.0,-108480.0,6.0,1575.0,1642.2610161860935,0.0,0.25,1.204833861,4.435954992425705,0.0,1.2899999618530273,-3.259999990463257,-35.16999816894531,-0.108154296875,-0.19091796875,1.36834716796875,35.279998779296875,0.0,103.0,-6.14483642578125,-0.3703765869140625,Waiting,0.0,0.0,-19187.0,0.0,0.0,0.0,0.0,0.0,
2.9662170000000008,0.0,0.0,128557.0,8.5,-1192.5,-1643.6535678021214,0.0,0.25,0.364990197,4.385230961414145,0.014648435999999876,-98206.0,4.5,1695.0,1643.6535678021214,0.0,0.25,0.013427733,4.413197589307551,0.0,171809.0,16.0,-802.5,-1643.6535678021214,0.0,0.25,2.8039547910000002,4.392461522367962,0.0,-108480.0,6.875,1425.0,1643.6535678021214,0.0,0.25,1.105956918,4.408077901406762,0.0,1.5499999523162842,-3.200000047683716,-35.75,0.05865478515625,0.422119140625,1.38983154296875,35.279998779296875,0.0,-113.0,-6.17034912109375,-0.3685150146484375,Waiting,0.0,0.0,-19187.0,0.0,0.0,0.0,0.0,0.0,
3.009527000000002,0.0,0.0,128346.0,7.75,-1305.0,-1643.6535678021214,0.0,0.375,0.35644527600000003,4.380700539526556,0.0,-98206.0,5.375,1582.5,1643.6535678021214,0.0,0.25,4.926757308,4.408638274842982,0.0,171809.0,15.875,-885.0,-1643.6535678021214,0.0,0.125,2.778320028,4.387923630522259,0.0,-108480.0,8.5,1402.5,1643.6535678021214,0.0,0.25,1.018066302,4.403523876138207,0.0,2.059999942779541,-2.990000009536743,-35.599998474121094,-0.0391845703125,0.39483642578125,0.9586181640625,35.279998779296875,0.0,-200.0,-6.189239501953125,-0.36376953125,Waiting,0.0,0.0,-19187.0,0.0,0.0,0.0,0.0,0.0,
3.0579490000000007,0.0,0.0,128346.0,6.875,-1395.0,-1643.6535678021214,0.0,0.375,0.333251919,4.382759831724545,0.0,-97978.0,6.875,1447.5,1643.6535678021214,0.0,0.25,4.90722606,4.410710700091233,0.0,171654.0,15.875,-967.5,-1643.6535678021214,0.0,0.125,2.764892295,4.389986318171455,0.0,-108248.0,9.125,1432.5,1643.6535678021214,0.0,0.125,0.996093648,4.4055938971953355,0.0,2.259999990463257,-2.880000114440918,-35.09000015258789,-0.0711669921875,0.24725341796875,1.09368896484375,35.279998779296875,0.0,-130.0,-6.2083282470703125,-0.357391357421875,Waiting,0.0,0.0,-19187.0,0.0,0.0,0.0,0.0,0.0,
3.108517,0.0,0.0,128346.0,6.0,-1470.0,-1643.6535678021214,0.0,0.375,0.312499968,4.39291887389736,-0.025634763000000227,-97978.0,9.5,1417.5,1643.6535678021214,0.0,0.25,4.898681139000001,4.42093453113257,0.0,171654.0,15.5,-1132.5,-1643.6535678021214,0.0,0.125,2.752685265,4.400162111018136,0.0,-108248.0,8.875,1455.0,1643.6535678021214,0.0,0.25,0.966796776,4.415805867715356,0.0,2.25,-2.75,-34.31999969482422,-0.00347900390625,0.02911376953125,1.24615478515625,35.279998779296875,0.0,57.0,-6.227447509765625,-0.34930419921875,Waiting,0.0,0.0,-19187.0,0.0,0.0,0.0,0.0,0.0,
3.1517740000000014,0.0,0.0,128098.0,5.25,-1567.5,-1643.6535678021214,0.0,0.25,0.299072235,4.404176219207762,0.0,-97978.0,10.125,1432.5,1643.6535678021214,0.0,0.25,4.892577624,4.432263669694031,0.0,171654.0,13.75,-1372.5,-1643.6535678021214,0.0,0.125,2.7502438590000002,4.411438017932741,0.0,-108003.0,8.5,1522.5,1643.6535678021214,0.0,0.25,0.963134667,4.42712186350393,0.0,3.0,-2.5,-33.16999816894531,0.17767333984375,-0.149169921875,1.655517578125,35.279998779296875,0.0,337.0,-6.2540130615234375,-0.3350982666015625,Waiting,0.0,0.0,-19187.0,0.0,0.0,0.0,0.0,0.0,
3.2040430000000013,0.0,0.0,128098.0,4.75,-1627.5,-1643.6535678021214,0.0,0.25,0.306396453,4.416120030164144,0.0,-97745.0,10.625,1455.0,1643.6535678021214,0.0,0.25,4.89501903,4.444283651807551,0.0,171405.0,11.75,-1545.0,-1643.6535678021214,0.0,0.125,2.7502438590000002,4.423401522367962,0.0,-108003.0,8.125,1560.0,1643.6535678021214,0.0,0.25,0.991210836,4.439127901406762,0.0,3.119999885559082,-2.2899999618530273,-32.310001373291016,-0.13201904296875,-0.115966796875,1.201416015625,35.279998779296875,0.0,26.0,-6.272918701171875,-0.3226318359375,Waiting,0.0,0.0,-19187.0,0.0,0.0,0.0,0.0,0.0,
3.248611000000001,0.0,0.0,127825.0,4.125,-1680.0,-1643.6535678021216,0.0,0.125,0.299072235,4.427926474673365,0.0,-97745.0,10.125,1530.0,1643.6535678021216,0.0,0.125,4.893798327,4.4561653914251105,0.0,171405.0,9.625,-1695.0,-1643.6535678021216,0.0,0.0,2.7502438590000002,4.435227433860204,0.0,-108003.0,7.5,1612.5,1643.6535678021216,0.0,0.25,1.010742084,4.450995857186792,0.0,2.9700000286102295,-2.25,-31.520000457763672,-0.038818359375,-0.00433349609375,0.545654296875,35.279998779296875,0.0,2.0,-6.2917022705078125,-0.310821533203125,Waiting,0.0,0.0,-19187.0,0.0,0.0,0.0,0.0,0.0,
3.2980300000000025,0.0,0.0,127825.0,2.875,-1762.5,-1643.6535678021214,0.0,0.125,0.29785153200000003,4.438771982492159,0.0,-97490.0,9.5,1575.0,1643.6535678021214,0.0,0.125,4.893798327,4.467080066018506,0.0,171114.0,8.25,-1792.5,-1643.6535678021214,0.0,0.0,2.7502438590000002,4.4460908242275,0.0,-107736.0,7.125,1672.5,1643.6535678021214,0.0,0.25,1.036376847,4.461897869821069,0.0,2.7200000286102295,-2.609999895095825,-30.790000915527344,-0.10467529296875,0.21270751953125,1.2340087890625,35.279998779296875,0.0,-120.0,-6.2981414794921875,-0.2993927001953125,Waiting,0.0,0.0,-19187.0,0.0,0.0,0.0,0.0,0.0,
3.346022000000001,0.0,0.0,127825.0,1.625,-1792.5,-1216.084118648343,0.0,0.125,0.299072235,4.426828734578007,0.0,-97490.0,7.625,1612.5,1216.084118648343,0.0,0.0,4.892577624,4.4550606505379955,0.0,171114.0,6.25,-1875.0,-1216.084118648343,0.0,0.0,2.7502438590000002,4.434127883762878,0.0,-107736.0,5.0,1687.5,1216.084118648343,0.0,0.25,1.04980458,4.449892397893904,0.0,2.4800000190734863,-2.559999942779541,-29.940000534057617,-0.07025146484375,0.07666015625,1.14202880859375,35.279998779296875,0.0,-30.0,-6.298126220703125,-0.2955780029296875,Waiting,0.0,0.0,-19187.0,0.0,0.0,0.0,0.0,0.0,
3.393943000000003,0.0,0.0,127538.0,0.375,-1785.0,-661.5701224366444,0.0,0.25,0.299072235,4.354171128523956,0.0,-97490.0,3.75,1627.5,661.5701224366444,0.0,0.125,4.893798327,4.381939673626167,0.0,171114.0,1.25,-1935.0,-661.5701224366444,0.0,0.125,2.7502438590000002,4.361350476664377,0.0,-107472.0,2.25,1695.0,661.5701224366444,0.0,0.25,1.064453016,4.376856247589815,0.0,2.4200000762939453,-2.430000066757202,-29.399999618530273,0.0675048828125,-0.07684326171875,0.93389892578125,35.279998779296875,0.0,150.0,-6.2970733642578125,-0.2955322265625,Waiting,0.0,0.0,-19187.0,0.0,0.0,0.0,0.0,0.0,
3.4454180000000014,0.0,0.0,127538.0,0.0,-1612.5,0.0,0.0,0.25,0.279540987,4.354171128523956,-0.004882811999999959,-97237.0,0.25,1530.0,0.0,0.0,0.25,4.882812,4.381939673626167,0.0012207029999995456,170818.0,0.125,-1785.0,0.0,0.0,0.125,2.725829799,4.361350476664377,0.0012207030000004337,-107472.0,0.125,1560.0,0.0,0.0,0.25,1.069335828,4.376856247589815,0.014648435999999876,2.069999933242798,-2.0899999141693115,-29.09000015258789,0.24420166015625,-0.08929443359375,1.3751220703125,35.279998779296875,0.0,324.0,-6.2922821044921875,-0.29681396484375,Waiting,0.0,0.0,-19187.0,0.0,0.0,0.0,0.0,0.0,
3.4924840000000006,0.0,0.0,127286.0,0.0,-1545.0,0.0,0.0,0.25,0.262451145,4.354171128523956,-0.017089841999999855,-97237.0,0.0,1432.5,0.0,0.0,0.25,4.8681635640000005,4.381939673626167,-0.010986326999999463,170818.0,0.0,-1530.0,0.0,0.0,0.125,2.701415739,4.361350476664377,-0.025634763000000227,-107472.0,0.0,1477.5,0.0,0.0,0.25,1.088867076,4.376856247589815,0.004882811999999959,1.809999942779541,-1.6100000143051147,-29.059999465942383,0.0543212890625,-0.1357421875,0.81396484375,35.279998779296875,0.0,145.0,-6.28399658203125,-0.2984161376953125,Waiting,0.0,0.0,-19187.0,0.0,0.0,0.0,0.0,0.0,
3.5446860000000013,0.0,0.0,127286.0,0.0,-1575.0,0.0,0.0,0.25,0.255126927,4.354171128523956,-0.01586913900000031,-97005.0,0.0,1440.0,0.0,0.0,0.25,4.864501455,4.381939673626167,-0.010986326999999463,170621.0,0.0,-1230.0,0.0,0.0,0.125,2.681884491,4.361350476664377,-0.029296871999999752,-107242.0,0.0,1440.0,0.0,0.0,0.25,1.088867076,4.376856247589815,0.019531248000000723,1.3899999856948853,-1.100000023841858,-29.260000228881836,0.18927001953125,-0.20770263671875,0.84161376953125,35.27000045776367,0.0,290.0,-6.2691497802734375,-0.2992706298828125,Waiting,0.0,0.0,-19187.0,0.0,0.0,0.0,0.0,0.0,
3.589973000000002,0.0,0.0,127062.0,0.0,-1530.0,0.0,0.0,0.25,0.25146481800000003,4.354171128523956,-0.010986326999999463,-97005.0,0.0,1447.5,0.0,0.0,0.25,4.853515128000001,4.381939673626167,-0.009765623999999917,170621.0,0.0,-1132.5,0.0,0.0,0.125,2.681884491,4.361350476664377,-0.014648435999999876,-107242.0,0.0,1320.0,0.0,0.0,0.25,1.0815428580000002,4.376856247589815,0.0,1.1799999475479126,-0.8199999928474426,-29.6299991607666,0.1546630859375,-0.08734130859375,1.22503662109375,35.27000045776367,0.0,205.0,-6.25396728515625,-0.2991485595703125,Waiting,0.0,0.0,-19187.0,0.0,0.0,0.0,0.0,0.0,
3.638238000000001,0.0,0.0,127062.0,0.0,-1320.0,0.0,0.0,0.25,0.250244115,4.354171128523956,0.0012207029999995456,-97005.0,0.0,1350.0,0.0,0.0,0.25,4.847411613,4.381939673626167,-0.009765623999999917,170621.0,0.0,-1072.5,0.0,0.0,0.125,2.681884491,4.361350476664377,0.0,-107051.0,0.0,1230.0,0.0,0.0,0.25,1.070556531,4.376856247589815,0.0,1.0,-0.5199999809265137,-29.90999984741211,0.251220703125,-0.0899658203125,0.68658447265625,35.27000045776367,0.0,273.0,-6.24273681640625,-0.29888916015625,Waiting,0.0,0.0,-19187.0,0.0,0.0,0.0,0.0,0.0,
3.6869650000000003,0.0,0.0,127062.0,0.0,-1207.5,0.0,0.0,0.25,0.25146481800000003,4.354171128523956,0.0,-96803.0,0.0,1260.0,0.0,0.0,0.25,4.848632316000001,4.381939673626167,-0.006103515000000392,170457.0,0.0,-1012.5,0.0,0.0,0.125,2.680663788,4.361350476664377,0.0012207029999995456,-107051.0,0.0,1132.5,0.0,0.0,0.25,1.0595702040000001,4.376856247589815,-0.009765624000000805,0.7900000214576721,-0.33000001311302185,-30.329999923706055,0.051513671875,-0.1019287109375,1.48187255859375,35.27000045776367,0.0,113.0,-6.223419189453125,-0.298492431640625,Waiting,0.0,0.0,-19187.0,0.0,0.0,0.0,0.0,0.0,
3.7327040000000014,0.0,0.0,126892.0,0.0,-1035.0,0.0,0.0,0.25,0.250244115,4.354171128523956,0.0,-96803.0,0.0,1095.0,0.0,0.0,0.25,4.848632316000001,4.381939673626167,-0.003662108999999525,170457.0,0.0,-877.5,0.0,0.0,0.125,2.678222382,4.361350476664377,-0.0012207029999995456,-107051.0,0.125,982.5,0.0,0.0,0.25,1.044921768,4.376856247589815,-0.024414059999999793,0.550000011920929,0.23999999463558197,-30.690000534057617,0.0528564453125,-0.31781005859375,1.05255126953125,35.27000045776367,0.0,209.0,-6.1941070556640625,-0.2983551025390625,Waiting,0.0,0.0,-19187.0,0.0,0.0,0.0,0.0,0.0,
3.7894340000000013,0.0,0.0,126892.0,0.0,-937.5,0.0,0.0,0.25,0.25146481800000003,4.354171128523956,0.0,-96652.0,0.0,967.5,0.0,0.0,0.25,4.848632316000001,4.381939673626167,0.0,170335.0,0.0,-780.0,0.0,0.0,0.125,2.681884491,4.361350476664377,0.0012207029999995456,-106906.0,0.125,877.5,0.0,0.0,0.25,1.042480362,4.376856247589815,0.0,0.2800000011920929,0.4099999964237213,-30.809999465942383,0.1798095703125,-0.17449951171875,1.27203369140625,35.27000045776367,0.0,239.0,-6.16949462890625,-0.299224853515625,Waiting,0.0,0.0,-19187.0,0.0,0.0,0.0,0.0,0.0,
3.838338,0.0,0.0,126765.0,0.0,-847.5,0.0,0.0,0.25,0.250244115,4.354171128523956,0.0,-96652.0,0.0,795.0,0.0,0.0,0.25,4.847411613,4.381939673626167,0.0,170335.0,0.0,-660.0,0.0,0.0,0.125,2.681884491,4.361350476664377,-0.0012207029999995456,-106906.0,0.125,787.5,0.0,0.0,0.25,1.038818253,4.376856247589815,-0.008544920999999484,-0.05000000074505806,0.7099999785423279,-30.940000534057617,0.2542724609375,-0.09075927734375,1.29132080078125,35.27000045776367,0.0,250.0,-6.131866455078125,-0.3017730712890625,Waiting,0.0,0.0,-19187.0,0.0,0.0,0.0,0.0,0.0,
3.887331000000002,0.0,0.0,126765.0,0.0,-757.5,0.0,0.0,0.25,0.250244115,4.354171128523956,0.0,-96545.0,0.0,705.0,0.0,0.0,0.25,4.848632316000001,4.381939673626167,0.0,170243.0,0.0,-615.0,0.0,0.0,0.125,2.681884491,4.361350476664377,0.0,-106801.0,0.125,652.5,0.0,0.0,0.25,1.040038956,4.376856247589815,-0.003662108999999525,-0.38999998569488525,1.0800000429153442,-31.079999923706055,0.20599365234375,-0.203125,0.35205078125,35.27000045776367,0.0,274.0,-6.0891571044921875,-0.3052520751953125,Waiting,0.0,0.0,-19187.0,0.0,0.0,0.0,0.0,0.0,
3.9651039999999993,0.0,0.0,126683.0,0.0,-510.0,0.0,0.0,0.25,0.250244115,4.354171128523956,0.0,-96545.0,0.0,525.0,0.0,0.0,0.25,4.848632316000001,4.381939673626167,0.0,170243.0,0.0,-457.5,0.0,0.0,0.125,2.681884491,4.361350476664377,0.0,-106801.0,0.125,480.0,0.0,0.0,0.25,1.040038956,4.376856247589815,0.0,-0.6800000071525574,1.309999942779541,-31.139999389648438,0.19354248046875,-0.0770263671875,0.92236328125,35.27000045776367,0.0,181.0,-6.031494140625,-0.311279296875,Waiting,0.0,0.0,-19187.0,0.0,0.0,0.0,0.0,0.0,
4.016141999999999,0.0,0.0,126683.0,0.0,-427.5,0.0,0.0,0.25,0.25146481800000003,4.354171128523956,0.0,-96484.0,0.0,420.0,0.0,0.0,0.25,4.849853019,4.381939673626167,0.0,170187.0,0.0,-382.5,0.0,0.0,0.125,2.681884491,4.361350476664377,0.0,-106737.0,0.125,390.0,0.0,0.0,0.25,1.040038956,4.376856247589815,0.0,-0.7599999904632568,1.3200000524520874,-31.170000076293945,0.07080078125,-0.10693359375,1.14361572265625,35.27000045776367,0.0,85.0,-6.00714111328125,-0.3140106201171875,Waiting,0.0,0.0,-19187.0,0.0,0.0,0.0,0.0,0.0,
4.059684000000001,0.0,0.0,126683.0,0.0,-337.5,0.0,0.0,0.25,0.25146481800000003,4.354171128523956,0.0,-96484.0,0.0,330.0,0.0,0.0,0.25,4.847411613,4.381939673626167,0.0,170187.0,0.0,-300.0,0.0,0.0,0.125,2.680663788,4.361350476664377,0.0,-106737.0,0.125,307.5,0.0,0.0,0.25,1.040038956,4.376856247589815,0.0,-0.949999988079071,1.5299999713897705,-31.239999771118164,0.1124267578125,-0.1348876953125,1.06329345703125,35.2599983215332,0.0,132.0,-5.969329833984375,-0.318511962890625,Waiting,0.0,0.0,-19187.0,0.0,0.0,0.0,0.0,0.0,
4.107331000000002,0.0,0.0,126641.0,0.0,-240.0,-264.56692814826965,0.0,0.375,0.25878903600000003,4.942250999999997,0.0,-96484.0,0.0,255.0,264.56692814826965,0.0,0.25,4.848632316000001,4.973769999999997,0.0,170187.0,0.125,-165.0,-264.56692814826965,0.0,0.375,2.6940915210000003,2.3449805060712E-15,0.0,-106737.0,0.125,225.0,264.56692814826965,0.0,0.25,1.040038956,2.3533175408374518E-15,0.0,-1.2300000190734863,1.7599999904632568,-31.350000381469727,0.09844970703125,-0.14227294921875,0.96636962890625,35.2599983215332,0.0,121.0,-5.9165191650390625,-0.3252410888671875,Waiting,0.0,0.0,-19187.0,0.0,0.0,0.0,0.0,0.0,
4.150690000000003,0.0,0.0,126641.0,0.375,-142.5,-1058.2677125930786,0.0,2.375,0.443115189,4.942250999999997,0.0,-96461.0,1.5,135.0,1058.2677125930786,0.0,2.375,4.913329575000001,4.973769999999997,0.0,170170.0,1.25,-90.0,-1058.2677125930786,0.0,2.0,2.866210644,2.3449805060712E-15,0.0,-106712.0,1.125,135.0,1058.2677125930786,0.0,2.125,1.146240117,2.3533175408374518E-15,0.0,-1.3600000143051147,1.850000023841858,-31.329999923706055,0.02984619140625,0.0291748046875,1.0009765625,35.2599983215332,0.0,-29.0,-5.8754425048828125,-0.3308563232421875,Waiting,0.0,0.0,-19187.0,0.0,0.0,0.0,0.0,0.0,
4.199159,0.0,0.0,126604.0,1.875,-120.0,-1207.0866644382477,0.0,0.75,0.6079100940000001,4.942250999999997,0.0,-96461.0,4.75,165.0,1207.0866644382477,0.0,0.75,0.10986327000000001,4.973769999999997,0.0,170170.0,3.375,-90.0,-1207.0866644382477,0.0,0.625,3.0578610150000003,2.3449805060712E-15,0.0,-106712.0,3.125,127.5,1207.0866644382477,0.0,0.75,1.331786973,2.3533175408374518E-15,0.0,-1.1100000143051147,1.6100000143051147,-31.200000762939453,-0.3258056640625,0.4775390625,1.2001953125,35.2599983215332,0.0,-566.0,-5.8344573974609375,-0.3366546630859375,Waiting,0.0,0.0,-19187.0,0.0,0.0,0.0,0.0,0.0,
4.246308000000001,0.0,0.0,126604.0,4.875,-262.5,-1207.0866644382477,0.0,0.625,0.705566334,4.942250999999997,0.0,-96461.0,9.5,240.0,1207.0866644382477,0.0,1.0,0.234374976,4.973769999999997,0.0,170122.0,5.125,-225.0,-1207.0866644382477,0.0,0.125,3.2080074840000004,2.3449805060712E-15,0.0,-106684.0,7.25,202.5,1207.0866644382477,0.0,0.75,1.48925766,2.3533175408374518E-15,0.0,-0.800000011920929,1.2899999618530273,-31.149999618530273,-0.18438720703125,0.04339599609375,0.5953369140625,35.2599983215332,0.0,-196.0,-5.79638671875,-0.3418121337890625,Waiting,0.0,0.0,-19187.0,0.0,0.0,0.0,0.0,0.0,
4.290689000000002,0.0,0.0,126604.0,6.125,-262.5,-1207.0866644382477,0.0,0.5,0.758056563,4.942250999999997,0.0,-96424.0,11.25,225.0,1207.0866644382477,0.0,0.75,0.319824186,4.973769999999997,0.0,170122.0,6.125,-360.0,-1207.0866644382477,0.0,0.125,3.281249664,2.3449805060712E-15,0.0,-106684.0,8.25,165.0,1207.0866644382477,0.0,0.625,1.594238118,2.3533175408374518E-15,0.0,-0.7300000190734863,0.6899999976158142,-31.049999237060547,-0.12689208984375,0.01708984375,0.8958740234375,35.2599983215332,0.0,-132.0,-5.7610015869140625,-0.3475799560546875,Waiting,0.0,0.0,-19187.0,0.0,0.0,0.0,0.0,0.0,
4.343951000000001,0.0,0.0,126569.0,7.5,-240.0,-1207.0866644382477,0.0,0.375,0.78124992,4.942250999999997,0.0,-96424.0,13.25,202.5,1207.0866644382477,0.0,0.5,0.351562464,4.973769999999997,0.07690428899999979,170122.0,7.25,-315.0,-1207.0866644382477,0.0,0.0,3.291015288,2.3449805060712E-15,0.0,-106684.0,9.5,180.0,1207.0866644382477,0.0,0.375,1.625976396,2.3533175408374518E-15,0.09399413100000054,-0.8500000238418579,0.2199999988079071,-31.079999923706055,-0.2215576171875,-0.11395263671875,1.12371826171875,35.2599983215332,0.0,-143.0,-5.7275390625,-0.3549346923828125,Waiting,0.0,0.0,-19187.0,0.0,0.0,0.0,0.0,0.0,
4.389595000000001,0.0,0.0,126569.0,9.125,-367.5,-1207.0866644382477,0.0,0.25,0.780029217,4.942250999999997,0.0,-96361.0,14.625,382.5,1207.0866644382477,0.0,0.5,0.347900355,4.973769999999997,0.01831054500000029,170065.0,8.375,-352.5,-1207.0866644382477,0.0,0.125,3.291015288,2.3449805060712E-15,0.0,-106632.0,10.5,322.5,1207.0866644382477,0.0,0.125,1.6296385050000002,2.3533175408374518E-15,-4.935041019,-0.9200000166893005,-0.3400000035762787,-31.260000228881836,-0.25836181640625,0.1578369140625,0.904052734375,35.2599983215332,0.0,-305.0,-5.68646240234375,-0.3669891357421875,Waiting,0.0,0.0,-19187.0,0.0,0.0,0.0,0.0,0.0,
4.433292000000002,0.0,0.0,126491.0,8.375,-450.0,-859.4125895812216,0.0,0.125,0.782470623,4.602746955145313,0.0,-96361.0,15.375,510.0,1672.6733100372912,0.0,0.25,0.352783167,4.8022836874541595,0.0012207029999995456,170065.0,7.625,-457.5,-859.4125895812216,0.0,0.125,3.294677397,0.34006383399965706,0.0,-106632.0,12.375,457.5,1672.6733100372912,0.0,0.375,1.6357420200000001,0.1712873737080197,0.0,-0.8100000023841858,-0.7300000190734863,-31.420000076293945,-0.10052490234375,0.21905517578125,0.962890625,35.2599983215332,0.0,-196.0,-5.6590118408203125,-0.3770904541015625,Waiting,0.0,0.0,-19187.0,0.0,0.0,0.0,0.0,0.0,
4.4795250000000015,0.0,0.0,126491.0,5.375,-532.5,-780.4297462001311,0.0,0.5,0.7629393750000001,4.195607350473522,0.0,-96361.0,23.375,660.0,2059.8626467377157,0.0,0.25,0.351562464,4.72591845156686,0.0,170065.0,5.125,-570.0,-780.4297462001311,0.0,0.375,3.3129879420000004,0.7478747482909864,0.004882811999999959,-106514.0,20.25,667.5,2059.8626467377157,0.0,0.375,1.6638181890000001,0.24756401936877634,0.0,-0.7799999713897705,-1.1799999475479126,-31.81999969482422,-0.18328857421875,0.15936279296875,0.87677001953125,35.2599983215332,0.0,-230.0,-5.634185791015625,-0.387420654296875,Waiting,0.0,0.0,-19187.0,0.0,0.0,0.0,0.0,0.0,
4.524942000000003,0.0,0.0,126491.0,4.25,-615.0,-805.6202169789532,0.0,1.75,0.639648372,4.051076048265557,-0.030517575000000186,-96231.0,29.875,832.5,2197.2896938904573,0.0,0.25,0.34179684,4.70582467904966,0.0,169963.0,4.0,-630.0,-805.6202169789532,0.0,1.375,3.435058242,0.8926443600428596,0.031738278000000175,-106514.0,25.0,832.5,2197.2896938904573,0.0,0.375,1.7077634970000002,0.26763448138560697,0.0,-0.7200000286102295,-1.5,-32.25,-0.269775390625,0.02398681640625,1.12750244140625,35.2599983215332,0.0,-223.0,-5.6191253662109375,-0.3942718505859375,Waiting,0.0,0.0,-19187.0,0.0,0.0,0.0,0.0,0.0,
4.568234,0.0,0.0,126377.0,3.625,-682.5,-805.6202169789532,0.0,2.25,0.44067378300000004,4.051076048265557,-0.14892576599999963,-96231.0,32.75,1012.5,2197.2896938904573,0.0,0.25,0.33691402800000003,4.70582467904966,0.0,169963.0,3.75,-660.0,-805.6202169789532,0.0,1.375,3.643798455,0.8926443600428596,0.0,-106514.0,26.625,1005.0,2197.2896938904573,0.0,0.375,1.751708805,0.26763448138560697,0.0,-0.6299999952316284,-1.9800000190734863,-33.59000015258789,-0.16827392578125,0.06396484375,1.15740966796875,35.22999954223633,0.0,-149.0,-5.5923919677734375,-0.4095458984375,Waiting,0.0,0.0,-19187.0,0.0,0.0,0.0,0.0,0.0,
4.609053,0.0,0.0,126377.0,3.5,-735.0,-814.7540033847806,0.0,1.0,0.22094724300000002,4.020476170117367,0.0,-96016.0,32.0,1200.0,2228.006792791689,0.0,0.25,0.333251919,4.70169680870371,0.0,169844.0,3.0,-727.5,-814.7540033847806,0.0,0.375,3.8354488260000004,0.9232946926109149,0.0,-106319.0,25.875,1177.5,2228.006792791689,0.0,0.375,1.777343568,0.2717575630477418,0.0,-0.6100000143051147,-2.1600000858306885,-35.40999984741211,-0.19305419921875,-0.02545166015625,0.9573974609375,35.22999954223633,0.0,-119.0,-5.5741119384765625,-0.4213409423828125,Waiting,0.0,0.0,-19187.0,0.0,0.0,0.0,0.0,0.0,
4.652061000000002,0.0,0.0,126377.0,3.625,-757.5,-819.7753699409799,0.0,0.125,0.07324218,4.005443293878123,0.0,-96016.0,29.75,1402.5,2243.387594413288,0.0,0.25,0.302734344,4.6996752909454536,0.0,169844.0,3.625,-772.5,-819.7753699409799,0.0,0.25,3.983153889,0.9383523557151865,0.0,-106319.0,25.125,1387.5,2243.387594413288,0.0,0.375,1.798095519,0.2737767356719326,0.0,-0.5899999737739563,-2.299999952316284,-38.29999923706055,-0.02587890625,0.0771484375,0.83099365234375,35.22999954223633,0.0,-47.0,-5.555816650390625,-0.432952880859375,Waiting,0.0,0.0,-19187.0,0.0,0.0,0.0,0.0,0.0,
4.699047000000002,0.0,0.0,126254.0,3.625,-750.0,-819.7753699409799,0.0,0.25,4.916991684,4.005443293878123,0.0,-96016.0,26.25,1650.0,2243.387594413288,0.0,0.25,0.27832028400000003,4.6996752909454536,0.0,169844.0,4.0,-742.5,-819.7753699409799,0.0,0.125,4.082030832,0.9383523557151865,0.0,-106319.0,23.625,1590.0,2243.387594413288,0.0,0.375,1.824950985,0.2737767356719326,0.020751951000000046,-0.3499999940395355,-2.4000000953674316,-40.810001373291016,-0.1939697265625,0.108642578125,0.9073486328125,35.22999954223633,0.0,-192.0,-5.54443359375,-0.440155029296875,Waiting,0.0,0.0,-19187.0,0.0,0.0,0.0,0.0,0.0,
4.7449449999999995,0.0,0.0,126254.0,3.625,-780.0,-819.7753699409799,0.0,0.25,4.851073722000001,4.005443293878123,0.0,-95700.0,20.5,1957.5,2243.387594413288,0.0,0.25,0.250244115,4.6996752909454536,-0.029296871999999752,169737.0,4.5,-667.5,-819.7753699409799,0.0,0.125,4.144286685,0.9383523557151865,0.0,-106033.0,21.75,1762.5,2243.387594413288,0.0,0.25,1.828613094,0.2737767356719326,0.014648436000000098,-0.15000000596046448,-2.680000066757202,-46.68000030517578,-0.19281005859375,-0.26025390625,0.607421875,35.22999954223633,0.0,75.0,-5.5236053466796875,-0.455230712890625,Waiting,0.0,0.0,-19187.0,0.0,0.0,0.0,0.0,0.0,
4.788555000000001,0.0,0.0,126254.0,3.125,-847.5,-819.7753699409799,0.0,0.25,4.80956982,4.005443293878123,0.0,-95700.0,17.875,2085.0,2243.387594413288,0.0,0.25,0.224609352,4.6996752909454536,-0.02929687200000064,169737.0,5.5,-630.0,-819.7753699409799,0.0,0.125,4.172362854,0.9383523557151865,0.0,-106033.0,19.75,1912.5,2243.387594413288,0.0,0.25,1.832275203,0.2737767356719326,0.014648435999999876,-0.05999999865889549,-2.869999885559082,-49.93000030517578,-0.19268798828125,-0.21612548828125,1.23419189453125,35.22999954223633,0.0,80.0,-5.512725830078125,-0.4637603759765625,Waiting,0.0,0.0,-19187.0,0.0,0.0,0.0,0.0,0.0,
4.831540000000001,0.0,0.0,126110.0,2.0,-945.0,-832.6029950336851,0.0,0.25,4.794921384,4.034466282580959,-0.04394530800000007,-95700.0,15.625,2182.5,2274.523400790407,0.0,0.25,0.21118161900000001,4.703581399955874,0.0,169737.0,6.375,-622.5,-832.6029950336851,0.0,0.125,4.173583557000001,0.9092815126368973,0.0,-105689.0,17.375,2092.5,2274.523400790407,0.0,0.25,1.829833797,0.2698751580831475,0.0,-0.10000000149011612,-2.950000047683716,-55.060001373291016,-0.00494384765625,-0.1895751953125,1.20660400390625,35.22999954223633,0.0,186.0,-5.495025634765625,-0.47796630859375,Waiting,0.0,0.0,-19187.0,0.0,0.0,0.0,0.0,0.0,
4.879645,0.0,0.0,126110.0,1.625,-990.0,-964.3295649171977,0.0,0.25,4.787597166,4.506251916182525,-0.003662108999999525,-95334.0,13.0,2265.0,2086.8199304134305,0.0,0.125,0.206298807,4.779281547926821,0.0,169639.0,7.625,-607.5,-964.3295649171977,0.0,0.125,4.178466369000001,0.4367179782107433,0.0024414059999999793,-105689.0,15.5,2167.5,2086.8199304134305,0.0,0.25,1.827392391,0.19426282877968892,0.0,-0.12999999523162842,-3.1500000953674316,-60.47999954223633,0.0484619140625,-0.2550048828125,1.16705322265625,35.22999954223633,0.0,275.0,-5.4766845703125,-0.4936981201171875,Waiting,0.0,0.0,-19187.0,0.0,0.0,0.0,0.0,0.0,
4.925661,0.0,0.0,125935.0,2.5,-1057.5,-1419.5282677933621,0.0,1.375,4.876708485,4.860069710455834,0.004882811999999959,-95334.0,8.25,2347.5,1769.2200750823845,0.0,0.125,0.206298807,4.9074546998017805,0.0,169639.0,10.875,-607.5,-1419.5282677933621,0.0,1.0,4.169921448,0.08231679365524665,0.0,-105689.0,11.75,2182.5,1769.2200750823845,0.0,0.25,1.8139646580000002,0.06623836875946293,0.0,-0.14000000059604645,-3.359999895095825,-65.9800033569336,-0.17620849609375,-0.330810546875,1.12200927734375,35.22999954223633,0.0,254.0,-5.457611083984375,-0.5102081298828125,Waiting,0.0,0.0,-19187.0,0.0,0.0,0.0,0.0,0.0,
4.969394,0.0,0.0,125935.0,5.75,-1140.0,-1934.6456229686737,0.0,2.125,0.131835924,4.942250999999997,0.0,-94968.0,4.25,2370.0,1934.6456229686737,0.0,0.25,0.21728513400000002,4.973769999999997,0.0,169531.0,20.75,-652.5,-1934.6456229686737,0.0,2.375,3.9892574040000004,2.3449805060712E-15,0.0,-105345.0,8.25,2175.0,1934.6456229686737,0.0,0.25,1.7639158350000002,2.3533175408374518E-15,0.0,-0.3499999940395355,-3.7899999618530273,-71.43000030517578,-0.06890869140625,-0.14031982421875,0.82342529296875,35.22999954223633,0.0,123.0,-5.436492919921875,-0.5285797119140625,Waiting,0.0,0.0,-19187.0,0.0,0.0,0.0,0.0,0.0,
5.011262000000002,0.0,0.0,125935.0,10.0,-1215.0,-2100.0,0.0,0.875,0.364990197,4.942250999999997,0.0,-94968.0,3.875,2250.0,2100.0,0.0,0.25,0.214843728,4.973769999999997,0.0,169531.0,25.5,-772.5,-2100.0,0.0,2.25,3.760985943,2.3449805060712E-15,0.0,-105345.0,8.25,2160.0,2100.0,0.0,0.5,1.7077634970000002,2.3533175408374518E-15,0.0,-0.5299999713897705,-4.170000076293945,-76.3499984741211,-0.48602294921875,-0.2998046875,0.80145263671875,35.22999954223633,0.0,183.0,-5.4126739501953125,-0.5489501953125,Waiting,0.0,0.0,-19187.0,0.0,0.0,0.0,0.0,0.0,
5.057558000000001,0.0,0.0,125735.0,13.625,-1245.0,-2100.0,0.0,0.5,0.570068301,4.942250999999997,0.0,-94968.0,4.25,2212.5,2100.0,0.0,0.25,0.273437472,4.973769999999997,0.0,169531.0,23.625,-1035.0,-2100.0,0.0,0.75,3.547362918,2.3449805060712E-15,0.0,-105345.0,9.625,2130.0,2100.0,0.0,0.25,1.643066238,2.3533175408374518E-15,0.0,-0.699999988079071,-4.739999771118164,-80.31999969482422,-0.40087890625,-0.707275390625,1.2353515625,35.18000030517578,0.0,632.0,-5.3870086669921875,-0.5732574462890625,Waiting,0.0,0.0,-19187.0,0.0,0.0,0.0,0.0,0.0,
5.107343000000001,0.0,0.0,125735.0,15.25,-1282.5,-2100.0,0.0,0.5,0.62255853,4.942250999999997,0.0,-94601.0,4.125,2272.5,2100.0,0.0,0.25,0.31738278000000003,4.973769999999997,0.0,169288.0,20.75,-1447.5,-2100.0,0.0,0.25,3.4216305090000003,2.3449805060712E-15,0.0,-105009.0,11.125,2077.5,2100.0,0.0,0.25,1.6064451480000002,2.3533175408374518E-15,0.0,-1.0099999904632568,-5.090000152587891,-83.19000244140625,-0.1514892578125,0.4222412109375,1.37646484375,35.18000030517578,0.0,-447.0,-5.3582763671875,-0.60009765625,Waiting,0.0,0.0,-19187.0,0.0,0.0,0.0,0.0,0.0,
5.151443000000003,0.0,0.0,125502.0,15.75,-1380.0,-2100.0,0.0,0.375,0.7104491460000001,4.942250999999997,0.0,-94601.0,5.625,2257.5,2100.0,0.0,0.25,0.35644527600000003,4.973769999999997,0.0,169288.0,18.25,-1755.0,-2100.0,0.0,0.25,3.358153953,2.3449805060712E-15,0.0,-105009.0,12.125,2017.5,2100.0,0.0,0.25,1.591796712,2.3533175408374518E-15,0.0,-1.0700000524520874,-5.400000095367432,-85.12999725341797,-0.2642822265625,-0.240478515625,0.9144287109375,35.18000030517578,0.0,207.0,-5.33001708984375,-0.62872314453125,Waiting,0.0,0.0,-19187.0,0.0,0.0,0.0,0.0,0.0,
5.199168000000001,0.0,0.0,125502.0,15.25,-1515.0,-2100.0,0.0,0.375,0.743408127,4.942250999999997,0.0,-94601.0,6.0,2137.5,2100.0,0.0,0.25,0.360107385,4.973769999999997,0.0,169288.0,16.25,-1785.0,-2100.0,0.0,0.25,3.3251949720000002,2.3449805060712E-15,0.0,-104690.0,13.25,1980.0,2100.0,0.0,0.125,1.572265464,2.3533175408374518E-15,0.0,-0.9800000190734863,-5.590000152587891,-86.30999755859375,-0.24078369140625,-0.11859130859375,0.75390625,35.18000030517578,0.0,94.0,-5.30133056640625,-0.6594696044921875,Waiting,0.0,0.0,-19187.0,0.0,0.0,0.0,0.0,0.0,
