Time,ClimberA1,ClimberA2,FRpos,FRCurrent,FRspeed,FRsetpoint,FRApos,FRACurrent,FREncpos,FREncSetpoint,FREncSpeed,FLpos,FLCurrent,FLspeed,FLsetpoint,FLApos,FLACurrent,FLEncpos,FLEncSetpoint,FLEncSpeed,BRpos,BRCurrent,BRspeed,BRsetpoint,BRApos,BRACurrent,BREncpos,BREncSetpoint,BREncSpeed,BLpos,BLCurrent,BLspeed,BLsetpoint,BLApos,BLACurrent,BLEncpos,BLEncSetpoint,BLEncSpeed,navx_Pitch,navx_Roll,navx_Yaw,navx_XAcc,navx_YAcc,navx_ZAcc,navx_Temp,navx_Bar,navx_Alt,navx_XDis,navx_YDis,GearPlacerState,ShootOutputV,ShootOutputCurrent,ShootEncPos,ShootEncVelocity,ShootSpeed,ShootSetpoint,CarouselSetpoint,CarouselCurrent,
0.10655199999999604,0.0,0.0,12805.0,0.0,0.0,0.0,0.0,0.125,1.3452147060000001,0.5509316050660396,0.0,-5372.0,0.0,0.0,0.0,0.0,0.25,4.877929188,4.419324851558671,0.0,14732.0,0.0,0.0,0.0,0.0,0.125,2.724609096,4.398559994763738,0.0,1462.0,0.125,0.0,0.0,0.0,0.125,4.643554212000001,3.03780194449211,0.0,0.4300000071525574,-0.7699999809265137,0.0,-0.0123291015625,0.0101318359375,1.0181884765625,35.77000045776367,0.0,1.0,0.7834930419921875,0.6444854736328125,Waiting,0.0,0.0,0.0,0.0,0.0,0.0,0.0,0.0,
0.16930599999999685,0.0,0.0,12805.0,0.0,0.0,0.0,0.0,0.25,1.3464354090000001,0.5509316050660396,0.0,-5372.0,0.125,0.0,0.0,0.0,0.25,4.879149891,4.419324851558671,0.0,14732.0,0.0,0.0,0.0,0.0,0.125,2.725829799,4.398559994763738,0.0012207029999995456,1462.0,0.125,0.0,0.0,0.0,0.125,4.642333509,3.03780194449211,0.0,0.4399999976158142,-0.7699999809265137,0.0,-0.0137939453125,0.006103515625,1.0179443359375,35.77000045776367,0.0,0.0,0.7834930419921875,0.6444854736328125,Waiting,0.0,0.0,0.0,0.0,0.0,0.0,0.0,0.0,
0.22960199999999895,0.0,0.0,12805.0,0.0,0.0,0.0,0.0,0.125,1.3464354090000001,0.5509316050660396,0.0,-5372.0,0.0,0.0,0.0,0.0,0.25,4.876708485,4.419324851558671,0.0,14732.0,0.0,0.0,0.0,0.0,0.125,2.725829799,4.398559994763738,0.0,1462.0,0.125,0.0,0.0,0.0,0.125,4.642333509,3.03780194449211,0.0,0.4399999976158142,-0.7699999809265137,0.0,-0.01568603515625,0.00860595703125,1.01959228515625,35.77000045776367,0.0,-1.0,0.7834930419921875,0.6444854736328125,Waiting,0.0,0.0,0.0,0.0,0.0,0.0,0.0,0.0,
0.2960149999999994,0.0,0.0,12805.0,0.0,0.0,0.0,0.0,0.125,1.3452147060000001,0.5509316050660396,0.0,-5372.0,0.125,0.0,0.0,0.0,0.25,4.879149891,4.419324851558671,0.0,14732.0,0.0,0.0,0.0,0.0,0.125,2.725829799,4.398559994763738,-0.0012207029999995456,1462.0,0.125,0.0,0.0,0.0,0.125,4.641112806000001,3.03780194449211,0.0,0.4399999976158142,-0.7799999713897705,0.0,-0.01397705078125,0.0079345703125,1.01898193359375,35.77000045776367,0.0,0.0,0.7834930419921875,0.6444854736328125,Waiting,0.0,0.0,0.0,0.0,0.0,0.0,0.0,0.0,
0.36520100000000094,0.0,0.0,12805.0,0.0,0.0,0.0,0.0,0.125,1.3452147060000001,0.5509316050660396,0.0,-5372.0,0.0,0.0,0.0,0.0,0.25,4.879149891,4.419324851558671,0.0,14732.0,0.125,0.0,0.0,0.0,0.125,2.725829799,4.398559994763738,0.0012207029999995456,1462.0,0.125,0.0,0.0,0.0,0.125,4.641112806000001,3.03780194449211,0.0012207029999995456,0.4399999976158142,-0.7799999713897705,0.0,-0.01385498046875,0.00823974609375,1.0198974609375,35.77000045776367,0.0,0.0,0.7834930419921875,0.6444854736328125,Waiting,0.0,0.0,0.0,0.0,0.0,0.0,0.0,0.0,
0.4282060000000056,0.0,0.0,12805.0,0.0,0.0,0.0,0.0,0.125,1.3464354090000001,0.5509316050660396,0.0,-5372.0,0.125,0.0,0.0,0.0,0.25,4.879149891,4.419324851558671,0.0,14732.0,0.0,0.0,0.0,0.0,0.125,2.725829799,4.398559994763738,0.0,1462.0,0.125,0.0,0.0,0.0,0.125,4.642333509,3.03780194449211,0.0,0.4399999976158142,-0.7799999713897705,0.0,-0.01458740234375,0.0069580078125,1.01544189453125,35.790000915527344,0.0,0.0,0.7834930419921875,0.6444854736328125,Waiting,0.0,0.0,0.0,0.0,0.0,0.0,0.0,0.0,
0.4899410000000062,0.0,0.0,12805.0,0.0,0.0,0.0,0.0,0.125,1.3464354090000001,0.5509316050660396,0.0,-5372.0,0.0,0.0,0.0,0.0,0.25,4.877929188,4.419324851558671,0.0,14732.0,0.0,0.0,0.0,0.0,0.125,2.725829799,4.398559994763738,0.0,1462.0,0.125,0.0,0.0,0.0,0.125,4.642333509,3.03780194449211,0.0,0.4399999976158142,-0.7799999713897705,0.0,-0.0184326171875,0.00732421875,1.02252197265625,35.790000915527344,0.0,-4.0,0.7834930419921875,0.6444854736328125,Waiting,0.0,0.0,0.0,0.0,0.0,0.0,0.0,0.0,
0.5506010000000097,0.0,0.0,12805.0,0.0,0.0,0.0,0.0,0.25,1.3464354090000001,0.5509316050660396,0.0,-5372.0,0.0,0.0,0.0,0.0,0.25,4.879149891,4.419324851558671,0.0,14732.0,0.0,0.0,0.0,0.0,0.125,2.727050502,4.398559994763738,0.0,1462.0,0.125,0.0,0.0,0.0,0.125,4.642333509,3.03780194449211,0.0,0.4399999976158142,-0.7799999713897705,0.0,-0.01629638671875,0.0096435546875,1.0206298828125,35.790000915527344,0.0,-2.0,0.7834930419921875,0.6444854736328125,Waiting,0.0,0.0,0.0,0.0,0.0,0.0,0.0,0.0,
0.6146659999999975,0.0,0.0,12805.0,0.0,0.0,0.0,0.0,0.125,1.3452147060000001,0.5509316050660396,0.0,-5372.0,0.0,0.0,0.0,0.0,0.25,4.879149891,4.419324851558671,0.0,14732.0,0.0,0.0,0.0,0.0,0.125,2.724609096,4.398559994763738,-0.0012207029999995456,1462.0,0.125,0.0,0.0,0.0,0.125,4.642333509,3.03780194449211,0.0,0.44999998807907104,-0.7799999713897705,0.0,-0.011962890625,0.010498046875,1.01983642578125,35.790000915527344,0.0,2.0,0.7834930419921875,0.6444854736328125,Waiting,0.0,0.0,0.0,0.0,0.0,0.0,0.0,0.0,
0.6806290000000008,0.0,0.0,12805.0,0.0,0.0,0.0,0.0,0.25,1.3452147060000001,0.5509316050660396,0.0,-5372.0,0.125,0.0,0.0,0.0,0.25,4.879149891,4.419324851558671,0.0,14732.0,0.0,0.0,0.0,0.0,0.125,2.727050502,4.398559994763738,0.0,1462.0,0.125,0.0,0.0,0.0,0.125,4.643554212000001,3.03780194449211,0.0,0.44999998807907104,-0.7799999713897705,0.0,-0.013427734375,0.00799560546875,1.02191162109375,35.790000915527344,0.0,0.0,0.7834930419921875,0.6444854736328125,Waiting,0.0,0.0,0.0,0.0,0.0,0.0,0.0,0.0,
0.7475250000000088,0.0,0.0,12805.0,0.0,0.0,0.0,0.0,0.125,1.3464354090000001,0.5509316050660396,0.0,-5372.0,0.0,0.0,0.0,0.0,0.25,4.879149891,4.419324851558671,0.0012207029999995456,14732.0,0.0,0.0,0.0,0.0,0.125,2.724609096,4.398559994763738,0.0012207029999995456,1462.0,0.125,0.0,0.0,0.0,0.125,4.642333509,3.03780194449211,0.0,0.44999998807907104,-0.7799999713897705,0.0,-0.0159912109375,0.0093994140625,1.0179443359375,35.790000915527344,0.0,-2.0,0.7834930419921875,0.6444854736328125,Waiting,0.0,0.0,0.0,0.0,0.0,0.0,0.0,0.0,
0.8129579999999987,0.0,0.0,12805.0,0.0,0.0,0.0,0.0,0.25,1.3452147060000001,0.5509316050660396,0.0,-5372.0,0.0,0.0,0.0,0.0,0.25,4.877929188,4.419324851558671,-0.0012207029999995456,14732.0,0.0,0.0,0.0,0.0,0.125,2.725829799,4.398559994763738,-0.0012207029999995456,1462.0,0.125,0.0,0.0,0.0,0.125,4.642333509,3.03780194449211,-0.0012207029999995456,0.44999998807907104,-0.7699999809265137,0.0,-0.01336669921875,0.01129150390625,1.0185546875,35.790000915527344,0.0,0.0,0.7834930419921875,0.6444854736328125,Waiting,0.0,0.0,0.0,0.0,0.0,0.0,0.0,0.0,
0.8744170000000013,0.0,0.0,12805.0,0.0,0.0,0.0,0.0,0.25,1.3452147060000001,0.5509316050660396,0.0,-5372.0,0.0,0.0,0.0,0.0,0.25,4.879149891,4.419324851558671,0.0,14732.0,0.0,0.0,0.0,0.0,0.125,2.727050502,4.398559994763738,0.0012207029999995456,1462.0,0.125,0.0,0.0,0.0,0.125,4.642333509,3.03780194449211,0.0012207029999995456,0.44999998807907104,-0.7799999713897705,0.0,-0.01123046875,0.00830078125,1.02362060546875,35.790000915527344,0.0,2.0,0.7834930419921875,0.6444854736328125,Waiting,0.0,0.0,0.0,0.0,0.0,0.0,0.0,0.0,
0.9354330000000045,0.0,0.0,12805.0,0.0,0.0,0.0,0.0,0.125,1.3452147060000001,0.5509316050660396,0.0,-5372.0,0.125,0.0,0.0,0.0,0.25,4.879149891,4.419324851558671,0.0,14732.0,0.0,0.0,0.0,0.0,0.125,2.725829799,4.398559994763738,0.0,1462.0,0.125,0.0,0.0,0.0,0.125,4.642333509,3.03780194449211,0.0,0.44999998807907104,-0.7699999809265137,0.0,-0.01318359375,0.0062255859375,1.02362060546875,35.790000915527344,0.0,0.0,0.7834930419921875,0.6444854736328125,Waiting,0.0,0.0,0.0,0.0,0.0,0.0,0.0,0.0,
0.997400999999998,0.0,0.0,12805.0,0.0,0.0,0.0,0.0,0.125,1.3464354090000001,0.5509316050660396,0.0,-5372.0,0.0,0.0,0.0,0.0,0.25,4.879149891,4.419324851558671,0.0,14732.0,0.0,0.0,0.0,0.0,0.125,2.725829799,4.398559994763738,-0.0012207029999995456,1462.0,0.125,0.0,0.0,0.0,0.125,4.643554212000001,3.03780194449211,0.0,0.4399999976158142,-0.7699999809265137,0.0,-0.012451171875,0.00848388671875,1.021728515625,35.790000915527344,0.0,1.0,0.7834930419921875,0.6444854736328125,Waiting,0.0,0.0,0.0,0.0,0.0,0.0,0.0,0.0,
1.067701000000001,0.0,0.0,12805.0,0.0,0.0,0.0,0.0,0.25,1.3464354090000001,0.5509316050660396,0.0,-5372.0,0.125,0.0,0.0,0.0,0.25,4.879149891,4.419324851558671,0.0012207029999995456,14732.0,0.0,0.0,0.0,0.0,0.125,2.725829799,4.398559994763738,0.0012207029999995456,1462.0,0.125,0.0,0.0,0.0,0.125,4.642333509,3.03780194449211,0.0012207029999995456,0.4399999976158142,-0.7699999809265137,0.0,-0.01373291015625,0.008056640625,1.02008056640625,35.790000915527344,0.0,0.0,0.7834930419921875,0.6444854736328125,Waiting,0.0,0.0,0.0,0.0,0.0,0.0,0.0,0.0,
1.1305780000000085,0.0,0.0,12805.0,0.0,0.0,0.0,0.0,0.25,1.3464354090000001,0.5509316050660396,0.0,-5372.0,0.0,0.0,0.0,0.0,0.25,4.879149891,4.419324851558671,-0.0012207029999995456,14732.0,0.0,0.0,0.0,0.0,0.125,2.727050502,4.398559994763738,-0.0012207029999995456,1462.0,0.125,0.0,0.0,0.0,0.125,4.642333509,3.03780194449211,0.0,0.4399999976158142,-0.7699999809265137,0.0,-0.01361083984375,0.00482177734375,1.023193359375,35.790000915527344,0.0,1.0,0.7834930419921875,0.6444854736328125,Waiting,0.0,0.0,0.0,0.0,0.0,0.0,0.0,0.0,
1.1921129999999975,0.0,0.0,12805.0,0.0,0.0,0.0,0.0,0.25,1.3464354090000001,0.5509316050660396,0.0,-5372.0,0.0,0.0,0.0,0.0,0.25,4.877929188,4.419324851558671,0.0,14732.0,0.0,0.0,0.0,0.0,0.125,2.725829799,4.398559994763738,0.0012207029999995456,1462.0,0.125,0.0,0.0,0.0,0.125,4.642333509,3.03780194449211,0.0,0.4399999976158142,-0.7699999809265137,0.0,-0.0103759765625,0.00787353515625,1.013916015625,35.790000915527344,0.0,3.0,0.7834930419921875,0.6444854736328125,Waiting,0.0,0.0,0.0,0.0,0.0,0.0,0.0,0.0,
1.254372000000003,0.0,0.0,12805.0,0.0,0.0,0.0,0.0,0.125,1.3464354090000001,0.5509316050660396,0.0,-5372.0,0.125,0.0,0.0,0.0,0.25,4.879149891,4.419324851558671,0.0,14732.0,0.0,0.0,0.0,0.0,0.125,2.727050502,4.398559994763738,0.0,1462.0,0.125,0.0,0.0,0.0,0.125,4.642333509,3.03780194449211,0.0,0.4399999976158142,-0.7699999809265137,0.0,-0.0145263671875,0.0076904296875,1.01959228515625,35.790000915527344,0.0,0.0,0.7834930419921875,0.6444854736328125,Waiting,0.0,0.0,0.0,0.0,0.0,0.0,0.0,0.125,
1.3255460000000021,0.0,0.0,12805.0,0.0,0.0,0.0,0.0,0.25,1.3464354090000001,0.5509316050660396,0.0,-5372.0,0.0,0.0,0.0,0.0,0.25,4.880370594,4.419324851558671,0.0,14732.0,0.0,0.0,0.0,0.0,0.125,2.727050502,4.398559994763738,0.0012207029999995456,1462.0,0.125,0.0,0.0,0.0,0.125,4.643554212000001,3.03780194449211,0.0012207029999995456,0.4399999976158142,-0.7699999809265137,0.0,-0.0128173828125,0.005859375,1.0234375,35.790000915527344,0.0,1.0,0.7834930419921875,0.6444854736328125,Waiting,0.0,0.0,0.0,0.0,0.0,0.0,0.0,0.0,
1.3898120000000054,0.0,0.0,12805.0,0.0,0.0,0.0,0.0,0.25,1.3464354090000001,0.5509316050660396,0.0,-5372.0,0.0,0.0,0.0,0.0,0.25,4.879149891,4.419324851558671,0.0,14732.0,0.0,0.0,0.0,0.0,0.125,2.725829799,4.398559994763738,0.0,1462.0,0.125,0.0,0.0,0.0,0.125,4.642333509,3.03780194449211,0.0,0.4399999976158142,-0.7699999809265137,0.0,-0.0130615234375,0.00799560546875,1.0230712890625,35.790000915527344,0.0,0.0,0.7834930419921875,0.6444854736328125,Waiting,0.0,0.0,0.0,0.0,0.0,0.0,0.0,0.0,
1.4492780000000056,0.0,0.0,12805.0,0.0,0.0,0.0,0.0,0.125,1.3452147060000001,0.5509316050660396,0.0,-5372.0,0.0,0.0,0.0,0.0,0.25,4.879149891,4.419324851558671,0.0,14732.0,0.0,0.0,0.0,0.0,0.125,2.725829799,4.398559994763738,0.0,1462.0,0.125,0.0,0.0,0.0,0.125,4.642333509,3.03780194449211,0.0,0.4399999976158142,-0.7699999809265137,0.0,-0.01226806640625,0.00732421875,1.0167236328125,35.779998779296875,0.0,1.0,0.7834930419921875,0.6444854736328125,Waiting,0.0,0.0,0.0,0.0,0.0,0.0,0.0,0.0,
1.514570000000007,0.0,0.0,12805.0,0.0,0.0,0.0,0.0,0.25,1.3464354090000001,0.5509316050660396,0.0,-5372.0,0.0,0.0,0.0,0.0,0.25,4.879149891,4.419324851558671,0.0,14732.0,0.0,0.0,0.0,0.0,0.125,2.724609096,4.398559994763738,0.0,1462.0,0.125,0.0,0.0,0.0,0.125,4.642333509,3.03780194449211,0.0,0.4399999976158142,-0.7699999809265137,0.0,-0.01251220703125,0.00872802734375,1.02081298828125,35.779998779296875,0.0,1.0,0.7834930419921875,0.6444854736328125,Waiting,0.0,0.0,0.0,0.0,0.0,0.0,0.0,0.0,
1.5768150000000023,0.0,0.0,12805.0,0.0,0.0,0.0,0.0,0.125,1.3452147060000001,0.5509316050660396,0.0,-5372.0,0.125,0.0,0.0,0.0,0.25,4.879149891,4.419324851558671,0.0,14732.0,0.0,0.0,0.0,0.0,0.125,2.725829799,4.398559994763738,-0.0012207029999995456,1462.0,0.125,0.0,0.0,0.0,0.125,4.643554212000001,3.03780194449211,0.0,0.4399999976158142,-0.7699999809265137,0.0,-0.0111083984375,0.00958251953125,1.01953125,35.779998779296875,0.0,2.0,0.7834930419921875,0.6444854736328125,Waiting,0.0,0.0,0.0,0.0,0.0,0.0,0.0,0.0,
1.6427949999999982,0.0,0.0,12805.0,0.0,0.0,0.0,0.0,0.25,1.3452147060000001,0.5509316050660396,0.0,-5372.0,0.0,0.0,0.0,0.0,0.25,4.877929188,4.419324851558671,0.0,14732.0,0.0,0.0,0.0,0.0,0.125,2.725829799,4.398559994763738,0.0012207029999995456,1462.0,0.125,0.0,0.0,0.0,0.125,4.642333509,3.03780194449211,0.0,0.44999998807907104,-0.7699999809265137,0.0,-0.014404296875,0.00823974609375,1.0194091796875,35.779998779296875,0.0,0.0,0.7834930419921875,0.6444854736328125,Waiting,0.0,0.0,0.0,0.0,0.0,0.0,0.0,0.0,
1.7101190000000062,0.0,0.0,12805.0,0.0,0.0,0.0,0.0,0.125,1.3452147060000001,0.5509316050660396,0.0,-5372.0,0.125,0.0,0.0,0.0,0.25,4.879149891,4.419324851558671,0.0,14732.0,0.0,0.0,0.0,0.0,0.125,2.725829799,4.398559994763738,0.0,1462.0,0.125,0.0,0.0,0.0,0.125,4.644774915,3.03780194449211,0.0,0.44999998807907104,-0.7699999809265137,0.0,-0.013427734375,0.0067138671875,1.01776123046875,35.779998779296875,0.0,0.0,0.7834930419921875,0.6444854736328125,Waiting,0.0,0.0,0.0,0.0,0.0,0.0,0.0,0.0,
1.771622000000003,0.0,0.0,12805.0,0.0,0.0,0.0,0.0,0.125,1.3452147060000001,0.5509316050660396,0.0,-5372.0,0.0,0.0,0.0,0.0,0.25,4.877929188,4.419324851558671,0.0,14732.0,0.0,0.0,0.0,0.0,0.125,2.725829799,4.398559994763738,-0.0012207029999995456,1462.0,0.125,0.0,0.0,0.0,0.125,4.642333509,3.03780194449211,-0.0012207029999995456,0.44999998807907104,-0.7699999809265137,0.0,-0.01263427734375,0.00653076171875,1.023193359375,35.779998779296875,0.0,1.0,0.7834930419921875,0.6444854736328125,Waiting,0.0,0.0,0.0,0.0,0.0,0.0,0.0,0.0,
1.8330449999999983,0.0,0.0,12805.0,0.0,0.0,0.0,0.0,0.125,1.3452147060000001,0.5509316050660396,0.0,-5372.0,0.0,0.0,0.0,0.0,0.25,4.879149891,4.419324851558671,0.0,14732.0,0.0,0.0,0.0,0.0,0.125,2.724609096,4.398559994763738,0.0,1462.0,0.125,0.0,0.0,0.0,0.125,4.641112806000001,3.03780194449211,0.0,0.44999998807907104,-0.7599999904632568,0.0,-0.013916015625,0.00555419921875,1.0145263671875,35.779998779296875,0.0,0.0,0.7834930419921875,0.6444854736328125,Waiting,0.0,0.0,0.0,0.0,0.0,0.0,0.0,0.0,
1.8957700000000042,0.0,0.0,12805.0,0.0,0.0,0.0,0.0,0.25,1.3464354090000001,0.5509316050660396,0.0,-5372.0,0.0,0.0,0.0,0.0,0.25,4.879149891,4.419324851558671,0.0,14732.0,0.0,0.0,0.0,0.0,0.125,2.725829799,4.398559994763738,0.0,1462.0,0.125,0.0,0.0,0.0,0.125,4.642333509,3.03780194449211,0.0012207029999995456,0.44999998807907104,-0.7699999809265137,0.0,-0.01324462890625,0.00653076171875,1.02044677734375,35.779998779296875,0.0,0.0,0.7834930419921875,0.6444854736328125,Waiting,0.0,0.0,0.0,0.0,0.0,0.0,0.0,0.0,
1.968622000000003,0.0,0.0,12805.0,0.0,0.0,0.0,0.0,0.125,1.3452147060000001,0.5509316050660396,0.0,-5372.0,0.125,0.0,0.0,0.0,0.25,4.879149891,4.419324851558671,0.0,14732.0,0.0,0.0,0.0,0.0,0.125,2.724609096,4.398559994763738,0.0012207029999995456,1462.0,0.125,0.0,0.0,0.0,0.125,4.642333509,3.03780194449211,0.0,0.44999998807907104,-0.7699999809265137,0.0,-0.012451171875,0.008544921875,1.0184326171875,35.83000183105469,0.0,1.0,0.7834930419921875,0.6444854736328125,Waiting,0.0,0.0,0.0,0.0,0.0,0.0,0.0,0.0,
2.0321860000000016,0.0,0.0,12805.0,0.0,0.0,0.0,0.0,0.25,1.3452147060000001,0.5509316050660396,0.0,-5372.0,0.0,0.0,0.0,0.0,0.25,4.879149891,4.419324851558671,0.0,14732.0,0.0,0.0,0.0,0.0,0.125,2.725829799,4.398559994763738,-0.0012207029999995456,1462.0,0.125,0.0,0.0,0.0,0.125,4.642333509,3.03780194449211,0.0,0.44999998807907104,-0.7599999904632568,0.0,-0.01031494140625,0.00921630859375,1.01470947265625,35.83000183105469,0.0,3.0,0.7834930419921875,0.6444854736328125,Waiting,0.0,0.0,0.0,0.0,0.0,0.0,0.0,0.0,
2.0969440000000032,0.0,0.0,12805.0,0.0,0.0,0.0,0.0,0.25,1.3452147060000001,0.5509316050660396,0.0,-5372.0,0.0,0.0,0.0,0.0,0.25,4.877929188,4.419324851558671,0.0,14732.0,0.0,0.0,0.0,0.0,0.125,2.725829799,4.398559994763738,0.0,1462.0,0.125,0.0,0.0,0.0,0.125,4.643554212000001,3.03780194449211,0.0,0.44999998807907104,-0.7599999904632568,0.0,-0.0146484375,0.00762939453125,1.022216796875,35.83000183105469,0.0,0.0,0.7834930419921875,0.6444854736328125,Waiting,0.0,0.0,0.0,0.0,0.0,0.0,0.0,0.0,
2.1639060000000025,0.0,0.0,12805.0,0.0,0.0,0.0,0.0,0.25,1.3464354090000001,0.5509316050660396,0.0,-5372.0,0.0,0.0,0.0,0.0,0.25,4.879149891,4.419324851558671,0.0,14732.0,0.0,0.0,0.0,0.0,0.125,2.724609096,4.398559994763738,0.0,1462.0,0.125,0.0,0.0,0.0,0.125,4.643554212000001,3.03780194449211,0.0,0.44999998807907104,-0.7599999904632568,0.0,-0.01190185546875,0.009521484375,1.017333984375,35.83000183105469,0.0,1.0,0.7834930419921875,0.6444854736328125,Waiting,0.0,0.0,0.0,0.0,0.0,0.0,0.0,0.0,
2.228024000000005,0.0,0.0,12805.0,0.0,0.0,0.0,0.0,0.25,1.3464354090000001,0.5509316050660396,0.0,-5372.0,0.125,0.0,0.0,0.0,0.25,4.880370594,4.419324851558671,0.0,14732.0,0.0,0.0,0.0,0.0,0.125,2.725829799,4.398559994763738,0.0012207029999995456,1462.0,0.125,0.0,0.0,0.0,0.125,4.642333509,3.03780194449211,0.0,0.44999998807907104,-0.7699999809265137,0.0,-0.01641845703125,0.00927734375,1.0179443359375,35.83000183105469,0.0,-2.0,0.7834930419921875,0.6444854736328125,Waiting,0.0,0.0,0.0,0.0,0.0,0.0,0.0,0.0,
2.2895599999999976,0.0,0.0,12805.0,0.0,0.0,0.0,0.0,0.25,1.3452147060000001,0.5509316050660396,0.0,-5372.0,0.0,0.0,0.0,0.0,0.25,4.879149891,4.419324851558671,0.0,14732.0,0.0,0.0,0.0,0.0,0.125,2.725829799,4.398559994763738,0.0,1462.0,0.125,0.0,0.0,0.0,0.125,4.642333509,3.03780194449211,0.0,0.44999998807907104,-0.7699999809265137,0.0,-0.01239013671875,0.00555419921875,1.0196533203125,35.83000183105469,0.0,1.0,0.7834930419921875,0.6444854736328125,Waiting,0.0,0.0,0.0,0.0,0.0,0.0,0.0,0.0,
2.351252999999997,0.0,0.0,12805.0,0.0,0.0,0.0,0.0,0.25,1.3452147060000001,0.5509316050660396,0.0,-5372.0,0.125,0.0,0.0,0.0,0.25,4.880370594,4.419324851558671,0.0,14732.0,0.0,0.0,0.0,0.0,0.125,2.725829799,4.398559994763738,0.0,1462.0,0.125,0.0,0.0,0.0,0.125,4.643554212000001,3.03780194449211,0.0,0.44999998807907104,-0.7699999809265137,0.0,-0.015380859375,0.00750732421875,1.0162353515625,35.83000183105469,0.0,-1.0,0.7834930419921875,0.6444854736328125,Waiting,0.0,0.0,0.0,0.0,0.0,0.0,0.0,0.0,
2.415475000000006,0.0,0.0,12805.0,0.0,0.0,0.0,0.0,0.125,1.3452147060000001,0.5509316050660396,0.0,-5372.0,0.0,0.0,0.0,0.0,0.25,4.877929188,4.419324851558671,0.0,14732.0,0.0,0.0,0.0,0.0,0.125,2.725829799,4.398559994763738,0.0,1462.0,0.125,0.0,0.0,0.0,0.125,4.642333509,3.03780194449211,0.0,0.44999998807907104,-0.7699999809265137,0.0,-0.01336669921875,0.00830078125,1.01715087890625,35.83000183105469,0.0,0.0,0.7834930419921875,0.6444854736328125,Waiting,0.0,0.0,0.0,0.0,0.0,0.0,0.0,0.0,
2.4764570000000092,0.0,0.0,12805.0,0.0,0.0,0.0,0.0,0.25,1.3452147060000001,0.5509316050660396,0.0,-5372.0,0.0,0.0,0.0,0.0,0.25,4.879149891,4.419324851558671,0.0,14732.0,0.0,0.0,0.0,0.0,0.125,2.725829799,4.398559994763738,-0.0012207029999995456,1462.0,0.125,0.0,0.0,0.0,0.125,4.641112806000001,3.03780194449211,-0.0012207029999995456,0.4399999976158142,-0.7599999904632568,0.0,-0.01397705078125,0.00750732421875,1.01953125,35.810001373291016,0.0,0.0,0.7834930419921875,0.6444854736328125,Waiting,0.0,0.0,0.0,0.0,0.0,0.0,0.0,0.0,
2.537679000000004,0.0,0.0,12805.0,0.0,0.0,0.0,0.0,0.125,1.3464354090000001,0.5509316050660396,0.0,-5372.0,0.0,0.0,0.0,0.0,0.25,4.877929188,4.419324851558671,0.0,14732.0,0.0,0.0,0.0,0.0,0.125,2.725829799,4.398559994763738,0.0,1462.0,0.125,0.0,0.0,0.0,0.125,4.642333509,3.03780194449211,0.0012207029999995456,0.4399999976158142,-0.7599999904632568,0.0,-0.01220703125,0.00927734375,1.0159912109375,35.810001373291016,0.0,1.0,0.7834930419921875,0.6444854736328125,Waiting,0.0,0.0,0.0,0.0,0.0,0.0,0.0,0.0,
2.6123310000000055,0.0,0.0,12805.0,0.0,0.0,0.0,0.0,0.25,1.3452147060000001,0.5509316050660396,0.0,-5372.0,0.125,0.0,0.0,0.0,0.25,4.877929188,4.419324851558671,0.0,14732.0,0.0,0.0,0.0,0.0,0.125,2.725829799,4.398559994763738,0.0,1462.0,0.125,0.0,0.0,0.0,0.125,4.643554212000001,3.03780194449211,0.0,0.44999998807907104,-0.7699999809265137,0.0,-0.01422119140625,0.0093994140625,1.021240234375,35.810001373291016,0.0,0.0,0.7834930419921875,0.6444854736328125,Waiting,0.0,0.0,0.0,0.0,0.0,0.0,0.0,0.0,
2.6876180000000023,0.0,0.0,12805.0,0.0,0.0,0.0,0.0,0.25,1.3452147060000001,0.5509316050660396,0.0,-5372.0,0.0,0.0,0.0,0.0,0.25,4.879149891,4.419324851558671,0.0,14732.0,0.0,0.0,0.0,0.0,0.125,2.725829799,4.398559994763738,0.0,1462.0,0.125,0.0,0.0,0.0,0.125,4.642333509,3.03780194449211,0.0,0.44999998807907104,-0.7699999809265137,0.0,-0.01446533203125,0.0079345703125,1.01959228515625,35.810001373291016,0.0,0.0,0.7834930419921875,0.6444854736328125,Waiting,0.0,0.0,0.0,0.0,0.0,0.0,0.0,0.0,
2.7505639999999985,0.0,0.0,12805.0,0.0,0.0,0.0,0.0,0.25,1.3464354090000001,0.5509316050660396,0.0,-5372.0,0.0,0.0,0.0,0.0,0.25,4.879149891,4.419324851558671,0.0,14732.0,0.0,0.0,0.0,0.0,0.125,2.725829799,4.398559994763738,0.0,1462.0,0.125,0.0,0.0,0.0,0.125,4.642333509,3.03780194449211,0.0,0.44999998807907104,-0.7699999809265137,0.0,-0.01348876953125,0.0101318359375,1.02166748046875,35.810001373291016,0.0,0.0,0.7834930419921875,0.6444854736328125,Waiting,0.0,0.0,0.0,0.0,0.0,0.0,0.0,0.0,
2.822972000000009,0.0,0.0,12805.0,0.0,0.0,0.0,0.0,0.25,1.3464354090000001,0.5509316050660396,0.0,-5372.0,0.0,0.0,0.0,0.0,0.25,4.879149891,4.419324851558671,0.0,14732.0,0.0,0.0,0.0,0.0,0.125,2.727050502,4.398559994763738,0.0,1462.0,0.125,0.0,0.0,0.0,0.125,4.644774915,3.03780194449211,0.0,0.4399999976158142,-0.7599999904632568,0.0,-0.0130615234375,0.00811767578125,1.01678466796875,35.810001373291016,0.0,0.0,0.7834930419921875,0.6444854736328125,Waiting,0.0,0.0,0.0,0.0,0.0,0.0,0.0,0.0,
2.8904590000000026,0.0,0.0,12805.0,0.0,0.0,0.0,0.0,0.25,1.3452147060000001,0.5509316050660396,0.0,-5372.0,0.0,0.0,0.0,0.0,0.25,4.880370594,4.419324851558671,0.0,14732.0,0.0,0.0,0.0,0.0,0.125,2.725829799,4.398559994763738,0.0,1462.0,0.125,0.0,0.0,0.0,0.125,4.642333509,3.03780194449211,0.0,0.4399999976158142,-0.7599999904632568,0.0,-0.0130615234375,0.00750732421875,1.0159912109375,35.810001373291016,0.0,0.0,0.7834930419921875,0.6444854736328125,Waiting,0.0,0.0,0.0,0.0,0.0,0.0,0.0,0.0,
2.9552330000000073,0.0,0.0,12805.0,0.0,0.0,0.0,0.0,0.25,1.3464354090000001,0.5509316050660396,0.0,-5372.0,0.0,0.0,0.0,0.0,0.25,4.879149891,4.419324851558671,0.0,14732.0,0.0,0.0,0.0,0.0,0.125,2.725829799,4.398559994763738,0.0,1462.0,0.125,0.0,0.0,0.0,0.125,4.643554212000001,3.03780194449211,0.0,0.4399999976158142,-0.7699999809265137,0.0,-0.0120849609375,0.00823974609375,1.02508544921875,35.810001373291016,0.0,1.0,0.7834930419921875,0.6444854736328125,Waiting,0.0,0.0,0.0,0.0,0.0,0.0,0.0,0.0,
3.028199999999997,0.0,0.0,12805.0,0.0,0.0,0.0,0.0,0.125,1.3452147060000001,0.5509316050660396,0.0,-5372.0,0.0,0.0,0.0,0.0,0.25,4.877929188,4.419324851558671,0.0,14732.0,0.0,0.0,0.0,0.0,0.125,2.725829799,4.398559994763738,0.0012207029999995456,1462.0,0.125,0.0,0.0,0.0,0.125,4.643554212000001,3.03780194449211,0.0,0.44999998807907104,-0.7699999809265137,0.0,-0.01239013671875,0.00555419921875,1.01654052734375,35.81999969482422,0.0,1.0,0.7834930419921875,0.6444854736328125,Waiting,0.0,0.0,0.0,0.0,0.0,0.0,0.0,0.0,
3.0901990000000077,0.0,0.0,12805.0,0.0,0.0,0.0,0.0,0.25,1.3452147060000001,0.5509316050660396,0.0,-5372.0,0.0,0.0,0.0,0.0,0.25,4.879149891,4.419324851558671,0.0,14732.0,0.0,0.0,0.0,0.0,0.125,2.725829799,4.398559994763738,0.0,1462.0,0.125,0.0,0.0,0.0,0.125,4.642333509,3.03780194449211,0.0,0.4399999976158142,-0.7699999809265137,0.0,-0.01416015625,0.0064697265625,1.01666259765625,35.81999969482422,0.0,0.0,0.7834930419921875,0.6444854736328125,Waiting,0.0,0.0,0.0,0.0,0.0,0.0,0.0,0.0,
3.1545,0.0,0.0,12805.0,0.0,0.0,0.0,0.0,0.25,1.3464354090000001,0.5509316050660396,0.0,-5372.0,0.0,0.0,0.0,0.0,0.25,4.879149891,4.419324851558671,0.0,14732.0,0.0,0.0,0.0,0.0,0.125,2.725829799,4.398559994763738,0.0,1462.0,0.125,0.0,0.0,0.0,0.125,4.642333509,3.03780194449211,0.0,0.4399999976158142,-0.7599999904632568,0.0,-0.01348876953125,0.00616455078125,1.01556396484375,35.81999969482422,0.0,0.0,0.7834930419921875,0.6444854736328125,Waiting,0.0,0.0,0.0,0.0,0.0,0.0,0.0,0.0,
3.228471000000005,0.0,0.0,12805.0,0.0,0.0,0.0,0.0,0.125,1.3476561120000001,0.5509316050660396,0.0,-5372.0,0.125,0.0,0.0,0.0,0.25,4.879149891,4.419324851558671,0.0,14732.0,0.0,0.0,0.0,0.0,0.125,2.727050502,4.398559994763738,0.0012207029999995456,1462.0,0.125,0.0,0.0,0.0,0.125,4.641112806000001,3.03780194449211,0.0,0.4399999976158142,-0.7699999809265137,0.0,-0.01318359375,0.0078125,1.01898193359375,35.81999969482422,0.0,0.0,0.7834930419921875,0.6444854736328125,Waiting,0.0,0.0,0.0,0.0,0.0,0.0,0.0,0.0,
3.294116999999998,0.0,0.0,12805.0,0.0,0.0,0.0,0.0,0.25,1.3464354090000001,0.5509316050660396,0.0,-5372.0,0.0,0.0,0.0,0.0,0.25,4.877929188,4.419324851558671,0.0,14732.0,0.0,0.0,0.0,0.0,0.125,2.725829799,4.398559994763738,-0.0012207029999995456,1462.0,0.125,0.0,0.0,0.0,0.125,4.642333509,3.03780194449211,-0.0012207029999995456,0.4399999976158142,-0.7599999904632568,0.0,-0.01361083984375,0.00634765625,1.01812744140625,35.81999969482422,0.0,0.0,0.7834930419921875,0.6444854736328125,Waiting,0.0,0.0,0.0,0.0,0.0,0.0,0.0,0.0,
3.3674079999999957,0.0,0.0,12805.0,0.0,0.0,0.0,0.0,0.125,1.3464354090000001,0.5509316050660396,0.0,-5372.0,0.125,0.0,0.0,0.0,0.25,4.877929188,4.419324851558671,0.0,14732.0,0.0,0.0,0.0,0.0,0.125,2.725829799,4.398559994763738,0.0,1462.0,0.125,0.0,0.0,0.0,0.125,4.641112806000001,3.03780194449211,0.0,0.4399999976158142,-0.7699999809265137,0.0,-0.009521484375,0.00823974609375,1.023193359375,35.81999969482422,0.0,4.0,0.7834930419921875,0.6444854736328125,Waiting,0.0,0.0,0.0,0.0,0.0,0.0,0.0,0.0,
3.434380000000005,0.0,0.0,12805.0,0.0,0.0,0.0,0.0,0.125,1.3452147060000001,0.5509316050660396,0.0,-5372.0,0.125,0.0,0.0,0.0,0.25,4.876708485,4.419324851558671,0.0,14732.0,0.0,0.0,0.0,0.0,0.125,2.725829799,4.398559994763738,-0.0012207029999995456,1462.0,0.125,0.0,0.0,0.0,0.125,4.643554212000001,3.03780194449211,0.0,0.4399999976158142,-0.7699999809265137,0.0,-0.0133056640625,0.00592041015625,1.0172119140625,35.81999969482422,0.0,0.0,0.7834930419921875,0.6444854736328125,Waiting,0.0,0.0,0.0,0.0,0.0,0.0,0.0,0.0,
3.5053479999999984,0.0,0.0,12805.0,0.0,0.0,0.0,0.0,0.125,1.3452147060000001,0.5509316050660396,0.0,-5372.0,0.125,0.0,0.0,0.0,0.25,4.879149891,4.419324851558671,0.0,14732.0,0.0,0.0,0.0,0.0,0.125,2.727050502,4.398559994763738,0.0,1462.0,0.125,0.0,0.0,0.0,0.125,4.642333509,3.03780194449211,0.0,0.4399999976158142,-0.7699999809265137,0.0,-0.01409912109375,0.0087890625,1.020751953125,35.810001373291016,0.0,0.0,0.7834930419921875,0.6444854736328125,Waiting,0.0,0.0,0.0,0.0,0.0,0.0,0.0,0.0,
3.5757550000000045,0.0,0.0,12805.0,0.0,0.0,0.0,0.0,0.125,1.3439940030000002,0.5509316050660396,0.0,-5372.0,0.0,0.0,0.0,0.0,0.25,4.879149891,4.419324851558671,0.0012207029999995456,14732.0,0.0,0.0,0.0,0.0,0.125,2.724609096,4.398559994763738,0.0,1462.0,0.125,0.0,0.0,0.0,0.125,4.642333509,3.03780194449211,0.0,0.4399999976158142,-0.7699999809265137,0.0,-0.014404296875,0.00634765625,1.01861572265625,35.810001373291016,0.0,0.0,0.7834930419921875,0.6444854736328125,Waiting,0.0,0.0,0.0,0.0,0.0,0.0,0.0,0.0,
3.6431120000000083,0.0,0.0,12805.0,0.0,0.0,0.0,0.0,0.25,1.3452147060000001,0.5509316050660396,0.0,-5372.0,0.0,0.0,0.0,0.0,0.25,4.877929188,4.419324851558671,-0.0012207029999995456,14732.0,0.0,0.0,0.0,0.0,0.125,2.725829799,4.398559994763738,-0.0012207029999995456,1462.0,0.125,0.0,0.0,0.0,0.125,4.642333509,3.03780194449211,0.0,0.4399999976158142,-0.7699999809265137,0.0,-0.01312255859375,0.00750732421875,1.0167236328125,35.810001373291016,0.0,0.0,0.7834930419921875,0.6444854736328125,Waiting,0.0,0.0,0.0,0.0,0.0,0.0,0.0,0.0,
3.713330000000002,0.0,0.0,12805.0,0.0,0.0,0.0,0.0,0.25,1.3452147060000001,0.5509316050660396,0.0,-5372.0,0.0,0.0,0.0,0.0,0.25,4.880370594,4.419324851558671,0.0,14732.0,0.0,0.0,0.0,0.0,0.125,2.725829799,4.398559994763738,0.0012207029999995456,1462.0,0.125,0.0,0.0,0.0,0.125,4.642333509,3.03780194449211,0.0,0.4300000071525574,-0.7599999904632568,0.0,-0.01055908203125,0.00909423828125,1.02288818359375,35.810001373291016,0.0,3.0,0.7834930419921875,0.6444854736328125,Waiting,0.0,0.0,0.0,0.0,0.0,0.0,0.0,0.0,
3.7789110000000075,0.0,0.0,12805.0,0.0,0.0,0.0,0.0,0.25,1.3452147060000001,0.5509316050660396,0.0,-5372.0,0.0,0.0,0.0,0.0,0.25,4.877929188,4.419324851558671,0.0,14732.0,0.0,0.0,0.0,0.0,0.125,2.724609096,4.398559994763738,-0.0012207029999995456,1462.0,0.125,0.0,0.0,0.0,0.125,4.642333509,3.03780194449211,0.0,0.4399999976158142,-0.7699999809265137,0.0,-0.0126953125,0.0086669921875,1.018310546875,35.810001373291016,0.0,1.0,0.7834930419921875,0.6444854736328125,Waiting,0.0,0.0,0.0,0.0,0.0,0.0,0.0,0.0,
3.848168000000005,0.0,0.0,12805.0,0.0,0.0,0.0,0.0,0.125,1.3452147060000001,0.5509316050660396,0.0,-5372.0,0.125,0.0,0.0,0.0,0.25,4.877929188,4.419324851558671,0.0,14732.0,0.0,0.0,0.0,0.0,0.125,2.725829799,4.398559994763738,0.0,1462.0,0.125,0.0,0.0,0.0,0.125,4.642333509,3.03780194449211,0.0,0.4300000071525574,-0.7599999904632568,0.0,-0.014892578125,0.00628662109375,1.01177978515625,35.810001373291016,0.0,-1.0,0.7834930419921875,0.6444854736328125,Waiting,0.0,0.0,0.0,0.0,0.0,0.0,0.0,0.0,
3.920721000000005,0.0,0.0,12805.0,0.0,0.0,0.0,0.0,0.25,1.3452147060000001,0.5509316050660396,0.0,-5372.0,0.0,0.0,0.0,0.0,0.25,4.879149891,4.419324851558671,0.0,14732.0,0.0,0.0,0.0,0.0,0.125,2.725829799,4.398559994763738,0.0,1462.0,0.125,0.0,0.0,0.0,0.125,4.643554212000001,3.03780194449211,-0.0012207029999995456,0.4300000071525574,-0.7599999904632568,0.0,-0.01416015625,0.00799560546875,1.01666259765625,35.810001373291016,0.0,0.0,0.7834930419921875,0.6444854736328125,Waiting,0.0,0.0,0.0,0.0,0.0,0.0,0.0,0.0,
3.9882430000000024,0.0,0.0,12805.0,0.0,0.0,0.0,0.0,0.25,1.3464354090000001,0.5509316050660396,0.0,-5372.0,0.0,0.0,0.0,0.0,0.25,4.876708485,4.419324851558671,0.0,14732.0,0.0,0.0,0.0,0.0,0.125,2.725829799,4.398559994763738,0.0,1462.0,0.125,0.0,0.0,0.0,0.125,4.642333509,3.03780194449211,0.0012207029999995456,0.4300000071525574,-0.7599999904632568,0.0,-0.01275634765625,0.00836181640625,1.02069091796875,35.83000183105469,0.0,0.0,0.7834930419921875,0.6444854736328125,Waiting,0.0,0.0,0.0,0.0,0.0,0.0,0.0,0.0,
4.058317999999999,0.0,0.0,12805.0,0.0,0.0,0.0,0.0,0.25,1.3464354090000001,0.5509316050660396,0.0,-5372.0,0.0,0.0,0.0,0.0,0.25,4.879149891,4.419324851558671,0.0,14732.0,0.0,0.0,0.0,0.0,0.125,2.725829799,4.398559994763738,0.0,1462.0,0.125,0.0,0.0,0.0,0.125,4.643554212000001,3.03780194449211,0.0,0.4300000071525574,-0.7699999809265137,0.0,-0.0107421875,0.00567626953125,1.01934814453125,35.83000183105469,0.0,3.0,0.7834930419921875,0.6444854736328125,Waiting,0.0,0.0,0.0,0.0,0.0,0.0,0.0,0.0,
4.130572,0.0,0.0,12805.0,0.0,0.0,0.0,0.0,0.25,1.3452147060000001,0.5509316050660396,0.0,-5372.0,0.0,0.0,0.0,0.0,0.25,4.879149891,4.419324851558671,0.0012207029999995456,14732.0,0.0,0.0,0.0,0.0,0.125,2.725829799,4.398559994763738,0.0012207029999995456,1462.0,0.125,0.0,0.0,0.0,0.125,4.642333509,3.03780194449211,0.0012207029999995456,0.4300000071525574,-0.7699999809265137,0.0,-0.010986328125,0.00726318359375,1.01910400390625,35.83000183105469,0.0,2.0,0.7834930419921875,0.6444854736328125,Waiting,0.0,0.0,0.0,0.0,0.0,0.0,0.0,0.0,
4.195793000000005,0.0,0.0,12805.0,0.0,0.0,0.0,0.0,0.25,1.3452147060000001,0.5509316050660396,0.0,-5372.0,0.0,0.0,0.0,0.0,0.25,4.877929188,4.419324851558671,-0.0012207029999995456,14732.0,0.0,0.0,0.0,0.0,0.125,2.725829799,4.398559994763738,-0.0012207029999995456,1462.0,0.125,0.0,0.0,0.0,0.125,4.642333509,3.03780194449211,0.0,0.4300000071525574,-0.7699999809265137,0.0,-0.0140380859375,0.00830078125,1.0194091796875,35.83000183105469,0.0,0.0,0.7834930419921875,0.6444854736328125,Waiting,0.0,0.0,0.0,0.0,0.0,0.0,0.0,0.0,
4.263709000000002,0.0,0.0,12805.0,0.0,0.0,0.0,0.0,0.25,1.3464354090000001,0.5509316050660396,0.0,-5372.0,0.125,0.0,0.0,0.0,0.25,4.879149891,4.419324851558671,0.0,14732.0,0.0,0.0,0.0,0.0,0.125,2.725829799,4.398559994763738,0.0,1462.0,0.125,0.0,0.0,0.0,0.125,4.642333509,3.03780194449211,0.0,0.4300000071525574,-0.7699999809265137,0.0,-0.0152587890625,0.004638671875,1.0216064453125,35.83000183105469,0.0,-1.0,0.7834930419921875,0.6444854736328125,Waiting,0.0,0.0,0.0,0.0,0.0,0.0,0.0,0.0,
4.329383000000002,0.0,0.0,12805.0,0.0,0.0,0.0,0.0,0.25,1.3452147060000001,0.5509316050660396,0.0,-5372.0,0.0,0.0,0.0,0.0,0.25,4.879149891,4.419324851558671,0.0,14732.0,0.0,0.0,0.0,0.0,0.125,2.725829799,4.398559994763738,0.0012207029999995456,1462.0,0.125,0.0,0.0,0.0,0.125,4.643554212000001,3.03780194449211,0.0,0.4300000071525574,-0.7699999809265137,0.0,-0.01409912109375,0.01019287109375,1.02105712890625,35.83000183105469,0.0,0.0,0.7834930419921875,0.6444854736328125,Waiting,0.0,0.0,0.0,0.0,0.0,0.0,0.0,0.0,
4.392229999999996,0.0,0.0,12805.0,0.0,0.0,0.0,0.0,0.125,1.3464354090000001,0.5509316050660396,0.0,-5372.0,0.0,0.0,0.0,0.0,0.25,4.877929188,4.419324851558671,0.0,14732.0,0.0,0.0,0.0,0.0,0.125,2.727050502,4.398559994763738,0.0,1462.0,0.125,0.0,0.0,0.0,0.125,4.643554212000001,3.03780194449211,0.0,0.4399999976158142,-0.7699999809265137,0.0,-0.01373291015625,0.0045166015625,1.017822265625,35.83000183105469,0.0,0.0,0.7834930419921875,0.6444854736328125,Waiting,0.0,0.0,0.0,0.0,0.0,0.0,0.0,0.0,
4.452858000000007,0.0,0.0,12805.0,0.0,0.0,0.0,0.0,0.25,1.3452147060000001,0.5509316050660396,0.0,-5372.0,0.0,0.0,0.0,0.0,0.25,4.879149891,4.419324851558671,0.0,14732.0,0.0,0.0,0.0,0.0,0.125,2.725829799,4.398559994763738,0.0,1462.0,0.125,0.0,0.0,0.0,0.125,4.642333509,3.03780194449211,0.0,0.4399999976158142,-0.7699999809265137,0.0,-0.01495361328125,0.01214599609375,1.01434326171875,35.83000183105469,0.0,-1.0,0.7834930419921875,0.6444854736328125,Waiting,0.0,0.0,0.0,0.0,0.0,0.0,0.0,0.0,
4.525570000000007,0.0,0.0,12805.0,0.0,0.0,0.0,0.0,0.25,1.3464354090000001,0.5509316050660396,0.0,-5372.0,0.0,0.0,0.0,0.0,0.25,4.877929188,4.419324851558671,0.0,14732.0,0.0,0.0,0.0,0.0,0.125,2.725829799,4.398559994763738,-0.0012207029999995456,1462.0,0.125,0.0,0.0,0.0,0.125,4.643554212000001,3.03780194449211,0.0,0.4399999976158142,-0.7699999809265137,0.0,-0.0142822265625,0.01165771484375,1.01300048828125,35.84000015258789,0.0,0.0,0.7834930419921875,0.6444854736328125,Waiting,0.0,0.0,0.0,0.0,0.0,0.0,0.0,0.0,
4.587464000000007,0.0,0.0,12805.0,0.0,0.0,0.0,0.0,0.125,1.3464354090000001,0.5509316050660396,0.0,-5372.0,0.0,0.0,0.0,0.0,0.25,4.880370594,4.419324851558671,0.0,14732.0,0.0,0.0,0.0,0.0,0.125,2.727050502,4.398559994763738,0.0012207029999995456,1462.0,0.125,0.0,0.0,0.0,0.125,4.643554212000001,3.03780194449211,0.0,0.4399999976158142,-0.7699999809265137,0.0,-0.010498046875,0.0079345703125,1.01837158203125,35.84000015258789,0.0,3.0,0.7834930419921875,0.6444854736328125,Waiting,0.0,0.0,0.0,0.0,0.0,0.0,0.0,0.0,
4.650198000000004,0.0,0.0,12805.0,0.0,0.0,0.0,0.0,0.125,1.3452147060000001,0.5509316050660396,0.0,-5372.0,0.125,0.0,0.0,0.0,0.25,4.879149891,4.419324851558671,0.0012207029999995456,14732.0,0.0,0.0,0.0,0.0,0.125,2.725829799,4.398559994763738,0.0,1462.0,0.125,0.0,0.0,0.0,0.125,4.642333509,3.03780194449211,0.0,0.4300000071525574,-0.7699999809265137,0.0,-0.0118408203125,0.01220703125,1.01324462890625,35.84000015258789,0.0,1.0,0.7834930419921875,0.6444854736328125,Waiting,0.0,0.0,0.0,0.0,0.0,0.0,0.0,0.0,
4.719126000000004,0.0,0.0,12805.0,0.0,0.0,0.0,0.0,0.25,1.3452147060000001,0.5509316050660396,0.0,-5372.0,0.0,0.0,0.0,0.0,0.25,4.879149891,4.419324851558671,0.0,14732.0,0.0,0.0,0.0,0.0,0.125,2.725829799,4.398559994763738,-0.0012207029999995456,1462.0,0.125,0.0,0.0,0.0,0.125,4.642333509,3.03780194449211,-0.0012207029999995456,0.4300000071525574,-0.7699999809265137,0.0,-0.0113525390625,0.006591796875,1.01287841796875,35.84000015258789,0.0,2.0,0.7834930419921875,0.6444854736328125,Waiting,0.0,0.0,0.0,0.0,0.0,0.0,0.0,0.0,
4.783891000000003,0.0,0.0,12805.0,0.0,0.0,0.0,0.0,0.25,1.3452147060000001,0.5509316050660396,0.0,-5372.0,0.0,0.0,0.0,0.0,0.25,4.880370594,4.419324851558671,0.0,14732.0,0.0,0.0,0.0,0.0,0.125,2.725829799,4.398559994763738,0.0012207029999995456,1462.0,0.125,0.0,0.0,0.0,0.125,4.643554212000001,3.03780194449211,0.0012207029999995456,0.4300000071525574,-0.7699999809265137,0.0,-0.0159912109375,0.00823974609375,1.01220703125,35.84000015258789,0.0,-2.0,0.7834930419921875,0.6444854736328125,Waiting,0.0,0.0,0.0,0.0,0.0,0.0,0.0,0.0,
4.847266000000003,0.0,0.0,12805.0,0.0,0.0,0.0,0.0,0.25,1.3452147060000001,0.5509316050660396,0.0,-5372.0,0.125,0.0,0.0,0.0,0.25,4.880370594,4.419324851558671,0.0,14732.0,0.0,0.0,0.0,0.0,0.125,2.725829799,4.398559994763738,0.0,1462.0,0.125,0.0,0.0,0.0,0.125,4.642333509,3.03780194449211,0.0,0.4399999976158142,-0.7799999713897705,0.0,-0.0111083984375,0.00970458984375,1.0198974609375,35.84000015258789,0.0,2.0,0.7834930419921875,0.6444854736328125,Waiting,0.0,0.0,0.0,0.0,0.0,0.0,0.0,0.0,
4.910770000000004,0.0,0.0,12805.0,0.0,0.0,0.0,0.0,1.75,1.2695311200000001,0.0,0.0,-5372.0,0.125,0.0,-0.0,0.0,2.375,4.906005357000001,0.0,0.0,14732.0,0.0,0.0,0.0,0.0,1.75,2.872314159,0.0,0.0,1462.0,0.125,0.0,-0.0,0.0,7.375,4.906005357000001,0.0,0.0,0.44999998807907104,-0.7599999904632568,0.0,-0.0537109375,0.0675048828125,1.03192138671875,35.84000015258789,0.0,-39.0,0.783447265625,0.6446533203125,Waiting,0.0,0.0,0.0,0.0,0.0,0.0,0.0,0.0,
4.980543000000005,0.0,0.0,12805.0,0.0,0.0,0.0,0.0,1.125,0.9729002910000001,0.0,-0.13793943900000016,-5372.0,0.0,0.0,-0.0,0.0,0.75,0.262451145,0.0,0.07812499200000023,14732.0,0.0,0.0,0.0,0.0,0.625,3.1604000670000003,0.0,0.1757812320000003,1462.0,0.125,0.0,-0.0,0.0,1.625,0.44067378300000004,0.0,0.262451145,0.5299999713897705,-0.7300000190734863,-0.019999999552965164,0.04901123046875,-0.02435302734375,1.0802001953125,35.84000015258789,0.0,62.0,0.7835540771484375,0.6459197998046875,Waiting,0.0,0.0,0.0,0.0,0.0,0.0,0.0,0.0,
5.044669999999998,0.0,0.0,12810.0,0.0,22.5,0.0,0.0,0.5,0.8044432770000001,0.0,-0.24536130299999992,-5372.0,0.0,0.0,-0.0,0.0,0.5,0.50048823,0.0,-4.678954599000001,14731.0,0.0,-7.5,0.0,0.0,0.25,3.2958981,0.0,0.26123044200000045,1456.0,0.125,-30.0,-0.0,0.0,2.375,0.9228514680000001,0.0,0.5026684260000001,0.5,-0.699999988079071,-0.05999999865889549,-0.03643798828125,0.00787353515625,0.9404296875,35.86000061035156,0.0,-24.0,0.784271240234375,0.6473388671875,Waiting,0.0,0.0,0.0,0.0,0.0,0.0,0.0,0.0,
5.108192999999999,0.0,0.0,12810.0,0.125,37.5,0.0,0.0,0.25,0.7775878110000001,0.0,4.771352579999999,-5372.0,0.0,0.0,-0.0,0.0,0.25,0.521240181,0.0,0.2319335699999998,14731.0,0.0,0.0,0.0,0.0,0.125,3.300780912,0.0,-4.813681264,1456.0,0.125,-45.0,-0.0,0.0,1.5,1.3696287660000002,0.0,0.0,0.49000000953674316,-0.7400000095367432,-0.1599999964237213,-0.06353759765625,0.03826904296875,0.95428466796875,35.86000061035156,0.0,-51.0,0.78485107421875,0.6484527587890625,Waiting,0.0,0.0,0.0,0.0,0.0,0.0,0.0,0.0,
5.171593999999997,0.0,0.0,12813.0,0.125,30.0,0.0,0.0,0.25,0.782470623,0.0,-0.014648435999999876,-5372.0,0.0,0.0,-0.0,0.0,0.25,0.47607417,0.0,0.006103515000000392,14731.0,0.0,0.0,0.0,0.0,0.125,3.2714840400000003,0.0,-0.004882811999999959,1451.0,0.125,-22.5,-0.0,0.0,1.375,1.722411933,0.0,0.4443358919999998,0.49000000953674316,-0.8199999928474426,-0.1899999976158142,-0.02105712890625,-0.00811767578125,1.08270263671875,35.86000061035156,0.0,-5.0,0.7850189208984375,0.6493988037109375,Waiting,0.0,0.0,0.0,0.0,0.0,0.0,0.0,0.0,
5.233487000000008,0.0,0.0,12813.0,0.0,0.0,0.0,0.0,0.125,0.782470623,0.0,0.006103515000000392,-5372.0,0.0,0.0,-0.0,0.0,0.25,0.44799800100000003,0.0,-0.04394530799999963,14731.0,0.0,0.0,0.0,0.0,0.125,3.2568356040000004,0.0,-0.024414059999999793,1451.0,0.125,-15.0,-0.0,0.0,0.625,1.795654113,0.0,-4.639630893,0.5,-0.8199999928474426,-0.1899999976158142,-0.0167236328125,0.00335693359375,0.98492431640625,35.86000061035156,0.0,-2.0,0.7850189208984375,0.6500091552734375,Waiting,0.0,0.0,0.0,0.0,0.0,0.0,0.0,0.0,
5.294721000000005,0.0,0.0,12813.0,0.0,0.0,0.0,0.0,0.25,0.782470623,0.0,0.0,-5372.0,0.0,0.0,-0.0,0.0,0.125,0.44799800100000003,0.0,-0.02441406000000068,14731.0,0.0,0.0,0.0,0.0,0.0,3.2556149010000004,0.0,-0.013427732999999886,1450.0,0.125,0.0,-0.0,0.0,0.25,1.702880685,0.0,0.07446288300000004,0.47999998927116394,-0.7799999713897705,-0.18000000715255737,0.0126953125,0.0091552734375,0.995849609375,35.86000061035156,0.0,26.0,0.785186767578125,0.6500091552734375,Waiting,0.0,0.0,0.0,0.0,0.0,0.0,0.0,0.0,
5.369820000000007,0.0,0.0,12813.0,0.0,0.0,0.0,0.0,0.125,0.783691326,0.0,0.0,-5372.0,0.0,0.0,-0.0,0.0,0.125,0.44799800100000003,0.0,0.0,14731.0,0.0,0.0,0.0,0.0,0.0,3.2556149010000004,0.0,-0.0012207029999999897,1450.0,0.125,0.0,-0.0,0.0,0.25,1.6101072570000001,0.0,-0.09887694300000005,0.49000000953674316,-0.7400000095367432,-0.20000000298023224,-0.01531982421875,0.0042724609375,0.9947509765625,35.86000061035156,0.0,-2.0,0.7854461669921875,0.6500091552734375,Waiting,0.0,0.0,0.0,0.0,0.0,0.0,0.0,0.0,
5.43188900000001,0.0,0.0,12813.0,0.0,0.0,0.0,0.0,0.125,0.782470623,0.0,0.0,-5372.0,0.125,0.0,-0.0,0.0,0.125,0.44799800100000003,0.0,0.0,14731.0,0.0,0.0,0.0,0.0,0.0,3.2556149010000004,0.0,0.0012207029999999897,1451.0,0.125,7.5,-0.0,0.0,0.125,1.5869139,0.0,-0.08422850699999995,0.4699999988079071,-0.7599999904632568,-0.18000000715255737,-0.02276611328125,0.00506591796875,0.99090576171875,35.86000061035156,0.0,-9.0,0.7854461669921875,0.6500091552734375,Waiting,0.0,0.0,0.0,0.0,0.0,0.0,0.0,0.0,
5.494039000000004,0.0,0.0,12813.0,0.0,0.0,0.0,0.0,0.25,0.782470623,0.0,0.0,-5372.0,0.125,0.0,-0.0,0.0,0.125,0.44799800100000003,0.0,0.0,14731.0,0.0,0.0,0.0,0.0,0.0,3.2568356040000004,0.0,-0.0012207029999999897,1451.0,0.125,0.0,-0.0,0.0,0.125,1.5771482760000002,0.0,4.942365237,0.4699999988079071,-0.7799999713897705,-0.18000000715255737,-0.012451171875,0.008056640625,1.000244140625,35.86000061035156,0.0,1.0,0.7854461669921875,0.6500091552734375,Waiting,0.0,0.0,0.0,0.0,0.0,0.0,0.0,0.0,
5.5566410000000035,0.0,0.0,12813.0,0.0,0.0,0.0,0.0,0.25,0.782470623,0.0,0.0,-5372.0,0.125,0.0,-0.0,0.0,0.125,0.44799800100000003,0.0,0.0,14731.0,0.0,0.0,0.0,0.0,0.0,3.2568356040000004,0.0,0.0,1451.0,0.125,0.0,-0.0,0.0,0.25,1.5771482760000002,0.0,0.0,0.46000000834465027,-0.7599999904632568,-0.18000000715255737,-0.00372314453125,0.01336669921875,1.00762939453125,35.81999969482422,0.0,9.0,0.7854461669921875,0.6500091552734375,Waiting,0.0,0.0,0.0,0.0,0.0,0.0,0.0,0.0,
5.626573000000004,0.0,0.0,12813.0,0.0,0.0,0.0,0.0,0.25,0.782470623,0.0,0.0,-5372.0,0.0,0.0,-0.0,0.0,0.125,0.44799800100000003,0.0,0.0,14731.0,0.0,0.0,0.0,0.0,0.0,3.2556149010000004,0.0,0.0,1451.0,0.125,0.0,-0.0,0.0,0.25,1.5771482760000002,0.0,0.0,0.4699999988079071,-0.7699999809265137,-0.18000000715255737,-0.0174560546875,0.0069580078125,1.00701904296875,35.81999969482422,0.0,-3.0,0.7854461669921875,0.6500091552734375,Waiting,0.0,0.0,0.0,0.0,0.0,0.0,0.0,0.0,
5.687604999999996,0.0,0.0,12813.0,0.0,0.0,0.0,0.0,0.25,0.782470623,0.0,0.0,-5372.0,0.125,0.0,-0.0,0.0,0.125,0.44799800100000003,0.0,0.0,14731.0,0.0,0.0,0.0,0.0,0.0,3.2568356040000004,0.0,0.0012207029999999897,1451.0,0.125,0.0,-0.0,0.0,0.25,1.5771482760000002,0.0,0.0,0.46000000834465027,-0.7699999809265137,-0.18000000715255737,-0.0113525390625,0.01226806640625,1.00909423828125,35.81999969482422,0.0,2.0,0.7854461669921875,0.6500091552734375,Waiting,0.0,0.0,0.0,0.0,0.0,0.0,0.0,0.0,
5.750232000000004,0.0,0.0,12813.0,0.0,0.0,0.0,0.0,0.25,0.782470623,0.0,0.0,-5372.0,0.125,0.0,-0.0,0.0,0.125,0.44799800100000003,0.0,0.0,14731.0,0.0,0.0,0.0,0.0,0.0,3.2568356040000004,0.0,-0.0012207029999999897,1451.0,0.125,0.0,-0.0,0.0,0.25,1.5759275730000002,0.0,0.0,0.46000000834465027,-0.7599999904632568,-0.18000000715255737,-0.0108642578125,7.32421875E-4,1.0177001953125,35.81999969482422,0.0,2.0,0.7854461669921875,0.6500091552734375,Waiting,0.0,0.0,0.0,0.0,0.0,0.0,0.0,0.0,
5.815665999999998,0.0,0.0,12813.0,0.0,0.0,0.0,0.0,0.125,0.782470623,0.0,0.0,-5372.0,0.125,0.0,-0.0,0.0,0.125,0.44799800100000003,0.0,0.0,14731.0,0.0,0.0,0.0,0.0,0.0,3.2568356040000004,0.0,0.0,1451.0,0.125,0.0,-0.0,0.0,0.25,1.5759275730000002,0.0,0.0,0.46000000834465027,-0.7699999809265137,-0.18000000715255737,-0.0152587890625,0.011962890625,1.01239013671875,35.81999969482422,0.0,-1.0,0.7854461669921875,0.6500091552734375,Waiting,0.0,0.0,0.0,0.0,0.0,0.0,0.0,0.0,
5.882877999999997,0.0,0.0,12813.0,0.0,0.0,0.0,0.0,0.125,0.782470623,0.0,0.0,-5372.0,0.0,0.0,-0.0,0.0,0.0,0.44799800100000003,0.0,0.0,14731.0,0.0,0.0,0.0,0.0,0.0,3.2568356040000004,0.0,0.0,1451.0,0.125,0.0,-0.0,0.0,0.125,1.5759275730000002,0.0,0.0,0.46000000834465027,-0.7599999904632568,-0.18000000715255737,-0.0074462890625,0.00201416015625,1.013671875,35.81999969482422,0.0,6.0,0.7854461669921875,0.6500091552734375,Waiting,0.0,0.0,0.0,0.0,0.0,0.0,0.0,0.0,
