Time,ClimberA1,ClimberA2,FRpos,FRCurrent,FRspeed,FRsetpoint,FRApos,FRACurrent,FREncpos,FREncSetpoint,FREncSpeed,FLpos,FLCurrent,FLspeed,FLsetpoint,FLApos,FLACurrent,FLEncpos,FLEncSetpoint,FLEncSpeed,BRpos,BRCurrent,BRspeed,BRsetpoint,BRApos,BRACurrent,BREncpos,BREncSetpoint,BREncSpeed,BLpos,BLCurrent,BLspeed,BLsetpoint,BLApos,BLACurrent,BLEncpos,BLEncSetpoint,BLEncSpeed,navx_Pitch,navx_Roll,navx_Yaw,navx_XAcc,navx_YAcc,navx_ZAcc,navx_Temp,navx_Bar,navx_Alt,navx_XDis,navx_YDis,GearPlacerState,ShootOutputV,ShootOutputCurrent,ShootEncPos,ShootEncVelocity,ShootSpeed,ShootSetpoint,CarouselSetpoint,CarouselCurrent,
0.16092699999999968,0.0,0.0,4883.0,0.0,0.0,0.0,0.0,1.875,4.886474109,2.4,0.0,1529.0,0.0,-22.5,0.0,0.0,1.75,0.977783103,2.4,0.0,10387.0,0.0,0.0,0.0,0.0,1.75,1.335449082,2.4,0.0,4911.0,0.125,-75.0,0.0,0.0,2.0,3.189696939,2.4,0.0,0.0,-0.75,0.029999999329447746,0.0233154296875,-0.03887939453125,0.9000244140625,35.849998474121094,0.0,35.0,-0.39556884765625,0.6046295166015625,Waiting,0.0,0.0,0.0,0.0,0.0,0.0,0.0,0.0,
0.20158199999999943,0.0,0.0,4883.0,0.0,0.0,0.0,0.0,2.125,0.260009739,0.0,4.228686537,1529.0,0.0,-37.5,-0.0,0.0,1.75,1.2927244770000001,0.0,0.6797269180000001,10387.0,0.0,-7.5,0.0,0.0,1.875,1.6564939710000002,0.0,3.1530365700000003,4895.0,0.125,-90.0,-0.0,0.0,2.0,3.4716793320000003,0.0,1.682470367,-0.07999999821186066,-0.8199999928474426,0.09000000357627869,-0.0203857421875,-0.04583740234375,1.01385498046875,35.849998474121094,0.0,-5.0,-0.3956451416015625,0.60430908203125,Waiting,0.0,0.0,0.0,0.0,0.0,0.0,0.0,0.0,
0.22589199999999982,0.0,0.0,4877.0,0.0,-15.0,0.0,0.0,1.75,0.40771480200000004,0.0,4.228686537,1521.0,0.0,-37.5,-0.0,0.0,7.25,1.271972526,0.0,0.6797269180000001,10383.0,0.0,-15.0,0.0,0.0,1.625,1.8212888760000001,0.0,3.1530365700000003,4895.0,0.25,-90.0,-0.0,0.0,10.375,3.3740230920000003,0.0,1.682470367,-0.11999999731779099,-0.8100000023841858,0.10999999940395355,-0.07342529296875,0.08740234375,1.00531005859375,35.849998474121094,0.0,-59.0,-0.39569091796875,0.6042327880859375,Waiting,0.0,0.0,0.0,0.0,0.0,0.0,0.0,0.0,
0.2516899999999996,0.0,0.0,4877.0,0.125,-37.5,0.0,0.0,1.375,0.576171816,0.0,0.39672847499999975,1521.0,0.0,-37.5,-0.0,0.0,8.0,1.127929572,0.0,0.1110839729999995,10383.0,0.0,-30.0,0.0,0.0,1.5,2.084960724,0.0,0.45288081300000016,4895.0,0.25,-67.5,-0.0,0.0,12.875,3.2043453750000004,0.0,0.0646972589999999,-0.11999999731779099,-0.800000011920929,0.10999999940395355,0.02813720703125,-0.0936279296875,1.00946044921875,35.849998474121094,0.0,42.0,-0.3958282470703125,0.6040191650390625,Waiting,0.0,0.0,0.0,0.0,0.0,0.0,0.0,0.0,
0.281732,0.0,0.0,4877.0,0.125,-67.5,0.0,0.0,0.625,0.705566334,0.0,0.39672847499999975,1521.0,0.0,-22.5,-0.0,0.0,4.5,1.044921768,0.0,0.1110839729999995,10383.0,0.125,-37.5,0.0,0.0,1.5,2.288818125,0.0,0.45288081300000016,4895.0,0.125,-37.5,-0.0,0.0,6.875,3.0102535980000003,0.0,0.0646972589999999,-0.10999999940395355,-0.800000011920929,0.10000000149011612,0.025390625,-0.09246826171875,1.03167724609375,35.849998474121094,0.0,39.0,-0.3958282470703125,0.603546142578125,Waiting,0.0,0.0,0.0,0.0,0.0,0.0,0.0,0.0,
0.32609799999999994,0.0,0.0,4877.0,0.125,-90.0,0.0,0.0,0.375,0.797119059,0.0,0.16235349899999996,1521.0,0.0,-7.5,-0.0,0.0,0.875,0.709228443,0.0,-0.11962889399999987,10374.0,0.125,-45.0,0.0,0.0,1.375,2.7368161260000003,0.0,0.211181619,4905.0,0.125,22.5,-0.0,0.0,1.5,2.5854489540000003,0.0,-0.15014646900000006,-0.07999999821186066,-0.800000011920929,0.10000000149011612,-0.05517578125,0.0836181640625,1.11663818359375,35.849998474121094,0.0,-39.0,-0.39605712890625,0.6035919189453125,Waiting,0.0,0.0,0.0,0.0,0.0,0.0,0.0,0.0,
0.35983199999999943,0.0,0.0,4865.0,0.125,-75.0,0.0,0.0,0.5,0.820312416,0.0,-4.787221719,1521.0,0.0,0.0,-0.0,0.0,0.5,0.5554198650000001,0.0,-0.42846675300000037,10374.0,0.125,-52.5,0.0,0.0,1.125,2.9455563390000004,0.0,0.2978515319999997,4905.0,0.125,67.5,-0.0,0.0,1.75,2.3718259290000003,0.0,-0.62255853,-0.05000000074505806,-0.8199999928474426,0.07999999821186066,-0.0316162109375,-0.04779052734375,0.90521240234375,35.849998474121094,0.0,-18.0,-0.3962249755859375,0.603790283203125,Waiting,0.0,0.0,0.0,0.0,0.0,0.0,0.0,0.0,
0.3852600000000002,0.0,0.0,4865.0,0.125,-52.5,0.0,0.0,0.25,0.820312416,0.0,-4.787221719,1521.0,0.0,0.0,-0.0,0.0,0.25,0.5017089330000001,0.0,-0.42846675300000037,10374.0,0.125,-60.0,0.0,0.0,1.0,3.118896165,0.0,0.2978515319999997,4905.0,0.25,75.0,-0.0,0.0,2.125,2.188720479,0.0,-0.62255853,-0.07000000029802322,-0.7799999713897705,0.07999999821186066,0.01837158203125,0.1436767578125,1.08575439453125,35.849998474121094,0.0,33.0,-0.396209716796875,0.603973388671875,Waiting,0.0,0.0,0.0,0.0,0.0,0.0,0.0,0.0,
0.41036099999999986,0.0,0.0,4865.0,0.125,-30.0,0.0,0.0,0.25,0.821533119,0.0,0.009765624000000028,1521.0,0.0,0.0,-0.0,0.0,0.25,0.457763625,0.0,-0.13183592399999977,10374.0,0.125,-60.0,0.0,0.0,1.125,3.330077784,0.0,0.5493163499999998,4905.0,0.25,82.5,-0.0,0.0,2.125,1.958007612,0.0,-0.20751951000000002,-0.019999999552965164,-0.7900000214576721,0.07999999821186066,0.01531982421875,0.0233154296875,1.0281982421875,35.849998474121094,0.0,29.0,-0.39599609375,0.604522705078125,Waiting,0.0,0.0,0.0,0.0,0.0,0.0,0.0,0.0,
0.43146100000000026,0.0,0.0,4865.0,0.125,-15.0,0.0,0.0,0.125,0.820312416,0.0,0.009765624000000028,1521.0,0.0,0.0,-0.0,0.0,0.25,0.443115189,0.0,-0.13183592399999977,10374.0,0.125,-67.5,0.0,0.0,0.875,3.403319964,0.0,0.5493163499999998,4905.0,0.25,90.0,-0.0,0.0,1.75,1.8188474700000001,0.0,-0.20751951000000002,-0.03999999910593033,-0.75,0.09000000357627869,6.103515625E-4,0.02166748046875,0.89898681640625,35.849998474121094,0.0,11.0,-0.39556884765625,0.605133056640625,Waiting,0.0,0.0,0.0,0.0,0.0,0.0,0.0,0.0,
0.4586909999999998,0.0,0.0,4864.0,0.125,-7.5,0.0,0.0,0.125,0.820312416,0.0,0.0,1521.0,0.0,0.0,-0.0,0.0,0.25,0.438232377,0.0,-0.09033202200000012,10363.0,0.125,-67.5,0.0,0.0,0.5,3.435058242,0.0,-4.567099258,4920.0,0.25,90.0,-0.0,0.0,1.375,1.673583813,0.0,-0.5773925189999998,-0.05999999865889549,-0.6899999976158142,0.07999999821186066,0.097900390625,-0.02386474609375,0.9600830078125,35.849998474121094,0.0,109.0,-0.395263671875,0.6054534912109375,Waiting,0.0,0.0,0.0,0.0,0.0,0.0,0.0,0.0,
0.48324699999999937,0.0,0.0,4864.0,0.125,0.0,0.0,0.0,0.125,0.821533119,0.0,0.0,1521.0,0.0,0.0,-0.0,0.0,0.125,0.438232377,0.0,-0.09033202200000012,10363.0,0.125,-67.5,0.0,0.0,0.25,3.4265133210000003,0.0,-4.567099258,4920.0,0.25,90.0,-0.0,0.0,0.875,1.6308592080000002,0.0,-0.5773925189999998,-0.03999999910593033,-0.6800000071525574,0.07999999821186066,-0.02423095703125,-0.0255126953125,1.02362060546875,35.849998474121094,0.0,-11.0,-0.394134521484375,0.6064453125,Waiting,0.0,0.0,0.0,0.0,0.0,0.0,0.0,0.0,
0.508634,0.0,0.0,4864.0,0.125,0.0,0.0,0.0,0.125,0.820312416,0.0,0.0,1521.0,0.0,0.0,-0.0,0.0,0.125,0.438232377,0.0,-0.008544920999999484,10363.0,0.125,-45.0,0.0,0.0,0.25,3.408202776,0.0,0.07324218000000027,4920.0,0.25,75.0,-0.0,0.0,0.375,1.6052244450000002,0.0,-0.16479490500000016,-0.05999999865889549,-0.6700000166893005,0.09000000357627869,-0.0042724609375,0.017578125,0.913818359375,35.849998474121094,0.0,6.0,-0.39373779296875,0.6067657470703125,Waiting,0.0,0.0,0.0,0.0,0.0,0.0,0.0,0.0,
0.5286350000000002,0.0,0.0,4864.0,0.125,0.0,0.0,0.0,0.125,0.821533119,0.0,0.0,1521.0,0.0,0.0,-0.0,0.0,0.125,0.438232377,0.0,-0.008544920999999484,10363.0,0.125,-30.0,0.0,0.0,0.125,3.397216449,0.0,0.07324218000000027,4920.0,0.25,52.5,-0.0,0.0,0.25,1.6052244450000002,0.0,-0.16479490500000016,-0.05000000074505806,-0.7200000286102295,0.09000000357627869,-0.02496337890625,-0.022216796875,1.12713623046875,35.849998474121094,0.0,-10.0,-0.39373779296875,0.6073760986328125,Waiting,0.0,0.0,0.0,0.0,0.0,0.0,0.0,0.0,
0.562098,0.0,0.0,4864.0,0.125,0.0,0.0,0.0,0.125,0.820312416,0.0,0.0,1521.0,0.0,0.0,-0.0,0.0,0.125,0.438232377,0.0,0.0,10363.0,0.125,-7.5,0.0,0.0,0.125,3.348388329,0.0,-0.01831054500000029,4920.0,0.25,37.5,-0.0,0.0,0.25,1.624755693,0.0,-0.019531247999999835,-0.07000000029802322,-0.7200000286102295,0.07999999821186066,-0.02337646484375,-0.00616455078125,0.9439697265625,35.849998474121094,0.0,-11.0,-0.3938140869140625,0.6076507568359375,Waiting,0.0,0.0,0.0,0.0,0.0,0.0,0.0,0.0,
0.5860909999999995,0.0,0.0,4864.0,0.125,0.0,0.0,0.0,0.125,0.825195228,0.0,0.0,1521.0,0.0,0.0,-0.0,0.0,0.125,0.438232377,0.0,0.0,10363.0,0.125,0.0,0.0,0.0,0.125,3.338622705,0.0,-0.01831054500000029,4923.0,0.25,22.5,-0.0,0.0,0.125,1.644286941,0.0,-0.019531247999999835,-0.09000000357627869,-0.75,0.07999999821186066,-0.03204345703125,-0.010498046875,1.02606201171875,35.849998474121094,0.0,-18.0,-0.3939971923828125,0.6076507568359375,Waiting,0.0,0.0,0.0,0.0,0.0,0.0,0.0,0.0,
0.6113760000000003,0.0,0.0,4864.0,0.125,0.0,0.0,0.0,0.125,0.820312416,0.0,0.0,1521.0,0.0,0.0,-0.0,0.0,0.125,0.438232377,0.0,-0.0012207030000004337,10363.0,0.125,0.0,0.0,0.0,0.125,3.305663724,0.0,-0.05859374399999995,4923.0,0.125,0.0,-0.0,0.0,0.25,1.673583813,0.0,0.024414060000000015,-0.07999999821186066,-0.7799999713897705,0.07999999821186066,-6.103515625E-4,0.031494140625,1.0528564453125,35.849998474121094,0.0,13.0,-0.3941192626953125,0.6075592041015625,Waiting,0.0,0.0,0.0,0.0,0.0,0.0,0.0,0.0,
0.6331120000000001,0.0,0.0,4864.0,0.125,0.0,0.0,0.0,0.125,0.820312416,0.0,0.0,1521.0,0.0,0.0,-0.0,0.0,0.125,0.438232377,0.0,-0.0012207030000004337,10363.0,0.125,0.0,0.0,0.0,0.125,3.291015288,0.0,-0.05859374399999995,4923.0,0.125,0.0,-0.0,0.0,0.25,1.697997873,0.0,0.024414060000000015,-0.10000000149011612,-0.7400000095367432,0.10999999940395355,0.0203857421875,-0.0042724609375,0.9266357421875,35.849998474121094,0.0,32.0,-0.3940887451171875,0.6075286865234375,Waiting,0.0,0.0,0.0,0.0,0.0,0.0,0.0,0.0,
0.662982,0.0,0.0,4864.0,0.125,0.0,0.0,0.0,0.125,0.820312416,0.0,0.0,1521.0,0.0,0.0,-0.0,0.0,0.125,0.438232377,0.0,0.0012207030000004337,10363.0,0.125,0.0,0.0,0.0,0.125,3.276366852,0.0,-0.04394530800000007,4923.0,0.125,0.0,-0.0,0.0,0.25,1.7126463090000001,0.0,0.04638671399999983,-0.09000000357627869,-0.7599999904632568,0.11999999731779099,0.009033203125,0.0379638671875,1.1092529296875,35.84000015258789,0.0,23.0,-0.393951416015625,0.6075592041015625,Waiting,0.0,0.0,0.0,0.0,0.0,0.0,0.0,0.0,
0.6843189999999995,0.0,0.0,4864.0,0.125,0.0,0.0,0.0,0.125,0.820312416,0.0,0.0,1521.0,0.0,0.0,-0.0,0.0,0.125,0.438232377,0.0,0.0012207030000004337,10363.0,0.125,0.0,0.0,0.0,0.125,3.2714840400000003,0.0,-0.04394530800000007,4923.0,0.125,-7.5,-0.0,0.0,0.25,1.7126463090000001,0.0,0.04638671399999983,-0.07999999821186066,-0.75,0.11999999731779099,-0.00384521484375,-0.0091552734375,1.01165771484375,35.84000015258789,0.0,9.0,-0.3938446044921875,0.60760498046875,Waiting,0.0,0.0,0.0,0.0,0.0,0.0,0.0,0.0,
0.7084049999999997,0.0,0.0,4864.0,0.125,0.0,0.0,0.0,0.125,0.820312416,0.0,0.0,1521.0,0.0,0.0,-0.0,0.0,0.125,0.438232377,0.0,0.0,10363.0,0.125,0.0,0.0,0.0,0.125,3.2714840400000003,0.0,-0.029296871999999752,4922.0,0.125,-7.5,-0.0,0.0,0.25,1.701659982,0.0,0.030517575000000186,-0.07000000029802322,-0.7200000286102295,0.11999999731779099,-0.0113525390625,0.01080322265625,1.02093505859375,35.84000015258789,0.0,1.0,-0.39373779296875,0.607635498046875,Waiting,0.0,0.0,0.0,0.0,0.0,0.0,0.0,0.0,
0.7283559999999998,0.0,0.0,4864.0,0.125,0.0,0.0,0.0,0.125,0.820312416,0.0,0.0,1521.0,0.0,0.0,-0.0,0.0,0.125,0.438232377,0.0,0.0,10363.0,0.125,0.0,0.0,0.0,0.125,3.2702633370000003,0.0,-0.029296871999999752,4922.0,0.125,0.0,-0.0,0.0,0.5,1.693115061,0.0,0.030517575000000186,-0.07000000029802322,-0.7300000190734863,0.10999999940395355,-0.0091552734375,-0.009521484375,1.04864501953125,35.84000015258789,0.0,4.0,-0.39373779296875,0.607635498046875,Waiting,0.0,0.0,0.0,0.0,0.0,0.0,0.0,0.0,
0.7485590000000002,0.0,0.0,4864.0,0.125,0.0,0.0,0.0,0.125,0.820312416,0.0,0.0,1521.0,0.0,0.0,-0.0,0.0,0.125,0.438232377,0.0,0.0,10363.0,0.125,0.0,0.0,0.0,0.125,3.2714840400000003,0.0,0.0,4922.0,0.125,0.0,-0.0,0.0,0.5,1.678466625,0.0,-0.019531248000000057,-0.07000000029802322,-0.7200000286102295,0.10999999940395355,-0.01544189453125,0.00836181640625,1.0235595703125,35.84000015258789,0.0,-2.0,-0.39373779296875,0.607635498046875,Waiting,0.0,0.0,0.0,0.0,0.0,0.0,0.0,0.0,
0.7719389999999994,0.0,0.0,4864.0,0.125,0.0,0.0,0.0,0.125,0.820312416,0.0,0.0,1521.0,0.0,0.0,-0.0,0.0,0.125,0.438232377,0.0,0.0,10363.0,0.125,0.0,0.0,0.0,0.125,3.2714840400000003,0.0,0.0,4922.0,0.125,0.0,-0.0,0.0,0.5,1.679687328,0.0,-0.019531248000000057,-0.07999999821186066,-0.7300000190734863,0.10000000149011612,-0.01416015625,-0.01239013671875,1.00262451171875,35.84000015258789,0.0,-1.0,-0.39373779296875,0.607635498046875,Waiting,0.0,0.0,0.0,0.0,0.0,0.0,0.0,0.0,
0.8105509999999995,0.0,0.0,4864.0,0.125,0.0,0.0,0.0,0.125,0.820312416,0.0,0.0,1521.0,0.0,0.0,-0.0,0.0,0.125,0.438232377,0.0,0.0,10363.0,0.125,0.0,0.0,0.0,0.125,3.2714840400000003,0.0,0.0,4922.0,0.125,0.0,-0.0,0.0,0.5,1.668701001,0.0,-0.013427733000000108,-0.07999999821186066,-0.7400000095367432,0.10000000149011612,-0.0155029296875,1.8310546875E-4,1.02691650390625,35.84000015258789,0.0,-2.0,-0.39373779296875,0.607635498046875,Waiting,0.0,0.0,0.0,0.0,0.0,0.0,0.0,0.0,
0.8409470000000001,0.0,0.0,4864.0,0.125,0.0,0.0,0.0,0.125,0.820312416,0.0,0.0,1521.0,0.0,0.0,-0.0,0.0,0.125,0.438232377,0.0,0.0,10363.0,0.125,0.0,0.0,0.0,0.125,3.2702633370000003,0.0,0.0,4922.0,0.125,0.0,-0.0,0.0,0.25,1.668701001,0.0,-0.004882811999999959,-0.07999999821186066,-0.75,0.10999999940395355,-0.01861572265625,-0.00244140625,1.02081298828125,35.84000015258789,0.0,-5.0,-0.39373779296875,0.607635498046875,Waiting,0.0,0.0,0.0,0.0,0.0,0.0,0.0,0.0,
0.8810559999999996,0.0,0.0,4864.0,0.125,0.0,0.0,0.0,0.125,0.820312416,0.0,0.0,1521.0,0.0,0.0,-0.0,0.0,0.125,0.438232377,0.0,0.0,10363.0,0.125,0.0,0.0,0.0,0.125,3.2714840400000003,0.0,0.0,4922.0,0.125,0.0,-0.0,0.0,0.25,1.668701001,0.0,-0.004882811999999959,-0.07999999821186066,-0.75,0.10999999940395355,-0.009033203125,1.8310546875E-4,1.02703857421875,35.84000015258789,0.0,4.0,-0.39373779296875,0.607635498046875,Waiting,0.0,0.0,0.0,0.0,0.0,0.0,0.0,0.0,
0.9067069999999994,0.0,0.0,4864.0,0.125,0.0,0.0,0.0,0.125,0.820312416,0.0,0.0,1521.0,0.0,0.0,-0.0,0.0,0.125,0.438232377,0.0,0.0,10363.0,0.125,0.0,0.0,0.0,0.125,3.2702633370000003,0.0,0.0,4922.0,0.125,0.0,-0.0,0.0,0.25,1.666259595,0.0,0.0,-0.07000000029802322,-0.7200000286102295,0.10999999940395355,-0.0072021484375,0.0015869140625,1.00421142578125,35.84000015258789,0.0,5.0,-0.39373779296875,0.607635498046875,Waiting,0.0,0.0,0.0,0.0,0.0,0.0,0.0,0.0,
0.9250639999999994,0.0,0.0,4864.0,0.125,0.0,0.0,0.0,0.125,0.821533119,0.0,0.0,1521.0,0.0,0.0,-0.0,0.0,0.125,0.438232377,0.0,0.0,10363.0,0.125,0.0,0.0,0.0,0.125,3.2714840400000003,0.0,0.0,4922.0,0.125,0.0,-0.0,0.0,0.25,1.668701001,0.0,0.0,-0.07999999821186066,-0.7300000190734863,0.10999999940395355,-0.01129150390625,-0.0029296875,1.02520751953125,35.84000015258789,0.0,1.0,-0.39373779296875,0.607635498046875,Waiting,0.0,0.0,0.0,0.0,0.0,0.0,0.0,0.0,
0.9443739999999998,0.0,0.0,4864.0,0.125,0.0,0.0,0.0,0.125,0.819091713,0.0,0.0,1521.0,0.0,0.0,-0.0,0.0,0.125,0.438232377,0.0,0.0,10363.0,0.125,0.0,0.0,0.0,0.125,3.2702633370000003,0.0,0.0,4922.0,0.125,0.0,-0.0,0.0,0.25,1.668701001,0.0,0.0,-0.07000000029802322,-0.7200000286102295,0.10999999940395355,-0.01214599609375,-0.001220703125,1.03460693359375,35.84000015258789,0.0,0.0,-0.39373779296875,0.607635498046875,Waiting,0.0,0.0,0.0,0.0,0.0,0.0,0.0,0.0,
0.9670050000000001,0.0,0.0,4864.0,0.125,0.0,0.0,0.0,0.125,0.820312416,0.0,0.0,1521.0,0.0,0.0,-0.0,0.0,0.125,0.438232377,0.0,0.0,10363.0,0.125,0.0,0.0,0.0,0.125,3.2714840400000003,0.0,0.0,4922.0,0.125,0.0,-0.0,0.0,0.25,1.668701001,0.0,0.0,-0.07000000029802322,-0.7200000286102295,0.10999999940395355,-0.019287109375,0.00152587890625,1.0059814453125,35.84000015258789,0.0,-2.0,-0.39373779296875,0.607635498046875,Waiting,0.0,0.0,0.0,0.0,0.0,0.0,0.0,0.0,
0.9855460000000003,0.0,0.0,4864.0,0.125,0.0,0.0,0.0,0.125,0.820312416,0.0,0.0,1521.0,0.0,0.0,-0.0,0.0,0.125,0.438232377,0.0,0.0,10363.0,0.125,0.0,0.0,0.0,0.125,3.2714840400000003,0.0,0.0,4922.0,0.125,0.0,-0.0,0.0,0.25,1.668701001,0.0,0.0,-0.07000000029802322,-0.7300000190734863,0.10000000149011612,-0.01470947265625,-0.0015869140625,1.0223388671875,35.84000015258789,0.0,-1.0,-0.39373779296875,0.607635498046875,Waiting,0.0,0.0,0.0,0.0,0.0,0.0,0.0,0.0,
1.008004,0.0,0.0,4864.0,0.125,0.0,0.0,0.0,0.125,0.820312416,0.0,0.0,1521.0,0.0,0.0,-0.0,0.0,0.125,0.438232377,0.0,-0.0012207030000004337,10363.0,0.125,0.0,0.0,0.0,0.125,3.2702633370000003,0.0,0.0,4922.0,0.125,0.0,-0.0,0.0,0.25,1.668701001,0.0,-0.0012207029999999897,-0.07000000029802322,-0.7300000190734863,0.10000000149011612,-0.0198974609375,-3.0517578125E-4,1.0413818359375,35.84000015258789,0.0,-6.0,-0.39373779296875,0.607635498046875,Waiting,0.0,0.0,0.0,0.0,0.0,0.0,0.0,0.0,
1.0285990000000003,0.0,0.0,4864.0,0.125,0.0,0.0,0.0,0.125,0.820312416,0.0,0.0,1521.0,0.0,0.0,-0.0,0.0,0.125,0.438232377,0.0,-0.0012207030000004337,10363.0,0.125,0.0,0.0,0.0,0.125,3.2714840400000003,0.0,0.0,4922.0,0.125,0.0,-0.0,0.0,0.25,1.668701001,0.0,-0.0012207029999999897,-0.07999999821186066,-0.7300000190734863,0.10000000149011612,-0.00823974609375,-0.00323486328125,1.001708984375,35.84000015258789,0.0,4.0,-0.39373779296875,0.607635498046875,Waiting,0.0,0.0,0.0,0.0,0.0,0.0,0.0,0.0,
1.0512039999999998,0.0,0.0,4864.0,0.125,0.0,0.0,0.0,0.125,0.820312416,0.0,0.0,1521.0,0.0,0.0,-0.0,0.0,0.125,0.437011674,0.0,0.0012207030000004337,10363.0,0.125,0.0,0.0,0.0,0.125,3.2714840400000003,0.0,0.0,4922.0,0.125,0.0,-0.0,0.0,0.25,1.668701001,0.0,0.0012207029999999897,-0.07999999821186066,-0.7400000095367432,0.10999999940395355,-0.013916015625,0.00213623046875,1.0374755859375,35.84000015258789,0.0,0.0,-0.39373779296875,0.607635498046875,Waiting,0.0,0.0,0.0,0.0,0.0,0.0,0.0,0.0,
1.072648,0.0,0.0,4864.0,0.125,0.0,0.0,0.0,0.125,0.819091713,0.0,0.0,1521.0,0.0,0.0,-0.0,0.0,0.125,0.438232377,0.0,0.0012207030000004337,10363.0,0.125,0.0,0.0,0.0,0.125,3.2714840400000003,0.0,0.0,4922.0,0.125,0.0,-0.0,0.0,0.25,1.668701001,0.0,0.0012207029999999897,-0.07000000029802322,-0.7300000190734863,0.10999999940395355,-0.0098876953125,0.00262451171875,1.02362060546875,35.84000015258789,0.0,3.0,-0.39373779296875,0.607635498046875,Waiting,0.0,0.0,0.0,0.0,0.0,0.0,0.0,0.0,
1.0951769999999996,0.0,0.0,4864.0,0.125,0.0,0.0,0.0,0.125,0.820312416,0.0,0.0,1521.0,0.0,0.0,-0.0,0.0,0.125,0.438232377,0.0,-0.0012207030000004337,10363.0,0.125,0.0,0.0,0.0,0.125,3.2702633370000003,0.0,0.0,4922.0,0.125,0.0,-0.0,0.0,0.25,1.668701001,0.0,0.0,-0.07000000029802322,-0.7200000286102295,0.10999999940395355,-0.00970458984375,2.44140625E-4,1.00408935546875,35.84000015258789,0.0,3.0,-0.39373779296875,0.607635498046875,Waiting,0.0,0.0,0.0,0.0,0.0,0.0,0.0,0.0,
1.1212429999999995,0.0,0.0,4864.0,0.125,0.0,0.0,0.0,0.125,0.821533119,0.0,0.0,1521.0,0.0,0.0,-0.0,0.0,0.125,0.438232377,0.0,-0.0012207030000004337,10363.0,0.125,0.0,0.0,0.0,0.125,3.2702633370000003,0.0,0.0,4922.0,0.125,0.0,-0.0,0.0,0.25,1.668701001,0.0,0.0,-0.07000000029802322,-0.7300000190734863,0.10999999940395355,-0.0155029296875,-0.0023193359375,1.03363037109375,35.84000015258789,0.0,-2.0,-0.39373779296875,0.607635498046875,Waiting,0.0,0.0,0.0,0.0,0.0,0.0,0.0,0.0,
1.148679,0.0,0.0,4864.0,0.125,0.0,0.0,0.0,0.125,0.820312416,0.0,0.0,1521.0,0.0,0.0,-0.0,0.0,0.125,0.438232377,0.0,0.0,10363.0,0.125,0.0,0.0,0.0,0.125,3.2714840400000003,0.0,0.0,4922.0,0.125,0.0,-0.0,0.0,0.25,1.668701001,0.0,-0.0012207029999999897,-0.07000000029802322,-0.7200000286102295,0.10999999940395355,-0.01019287109375,-0.001953125,1.0084228515625,35.84000015258789,0.0,2.0,-0.39373779296875,0.607635498046875,Waiting,0.0,0.0,0.0,0.0,0.0,0.0,0.0,0.0,
1.172768,0.0,0.0,4864.0,0.125,0.0,0.0,0.0,0.125,0.820312416,0.0,0.0,1521.0,0.0,0.0,-0.0,0.0,0.125,0.438232377,0.0,0.0,10363.0,0.125,0.0,0.0,0.0,0.125,3.2714840400000003,0.0,0.0,4922.0,0.125,0.0,-0.0,0.0,0.25,1.668701001,0.0,-0.0012207029999999897,-0.07000000029802322,-0.7200000286102295,0.10000000149011612,-0.01727294921875,-0.00189208984375,1.00811767578125,35.880001068115234,0.0,-2.0,-0.39373779296875,0.607635498046875,Waiting,0.0,0.0,0.0,0.0,0.0,0.0,0.0,0.0,
1.191947,0.0,0.0,4864.0,0.125,0.0,0.0,0.0,0.125,0.820312416,0.0,0.0,1521.0,0.0,0.0,-0.0,0.0,0.125,0.438232377,0.0,0.0,10363.0,0.125,0.0,0.0,0.0,0.125,3.2702633370000003,0.0,0.0,4922.0,0.125,0.0,-0.0,0.0,0.25,1.668701001,0.0,0.0012207029999999897,-0.07000000029802322,-0.7300000190734863,0.10999999940395355,-0.01544189453125,-0.004150390625,1.02801513671875,35.880001068115234,0.0,-2.0,-0.39373779296875,0.607635498046875,Waiting,0.0,0.0,0.0,0.0,0.0,0.0,0.0,0.0,
1.2172669999999999,0.0,0.0,4864.0,0.125,0.0,0.0,0.0,0.125,0.820312416,0.0,0.0,1521.0,0.0,0.0,-0.0,0.0,0.125,0.438232377,0.0,0.0012207030000004337,10363.0,0.125,0.0,0.0,0.0,0.125,3.2714840400000003,0.0,0.0,4922.0,0.125,0.0,-0.0,0.0,0.25,1.668701001,0.0,0.0012207029999999897,-0.07000000029802322,-0.7300000190734863,0.10999999940395355,-0.01251220703125,-0.00238037109375,1.0147705078125,35.880001068115234,0.0,0.0,-0.39373779296875,0.607635498046875,Waiting,0.0,0.0,0.0,0.0,0.0,0.0,0.0,0.0,
1.2379049999999998,0.0,0.0,4864.0,0.125,0.0,0.0,0.0,0.125,0.820312416,0.0,0.0,1521.0,0.0,0.0,-0.0,0.0,0.125,0.438232377,0.0,0.0012207030000004337,10363.0,0.125,0.0,0.0,0.0,0.125,3.2702633370000003,0.0,0.0,4922.0,0.125,0.0,-0.0,0.0,0.25,1.668701001,0.0,0.0012207029999999897,-0.07000000029802322,-0.7300000190734863,0.10999999940395355,-0.0111083984375,0.00244140625,1.02410888671875,35.880001068115234,0.0,2.0,-0.39373779296875,0.607635498046875,Waiting,0.0,0.0,0.0,0.0,0.0,0.0,0.0,0.0,
1.2646130000000002,0.0,0.0,4864.0,0.125,0.0,0.0,0.0,0.125,0.820312416,0.0,0.0,1521.0,0.0,0.0,-0.0,0.0,0.125,0.438232377,0.0,0.0,10363.0,0.125,0.0,0.0,0.0,0.125,3.2714840400000003,0.0,0.0,4922.0,0.125,0.0,-0.0,0.0,0.25,1.668701001,0.0,-0.0012207029999999897,-0.07000000029802322,-0.7300000190734863,0.10999999940395355,-0.0093994140625,0.00341796875,1.02740478515625,35.880001068115234,0.0,3.0,-0.39373779296875,0.607635498046875,Waiting,0.0,0.0,0.0,0.0,0.0,0.0,0.0,0.0,
1.2846149999999998,0.0,0.0,4864.0,0.125,0.0,0.0,0.0,0.125,0.820312416,0.0,0.0,1521.0,0.0,0.0,-0.0,0.0,0.125,0.438232377,0.0,0.0,10363.0,0.125,0.0,0.0,0.0,0.125,3.2714840400000003,0.0,0.0,4922.0,0.125,0.0,-0.0,0.0,0.25,1.668701001,0.0,-0.0012207029999999897,-0.07000000029802322,-0.7200000286102295,0.10999999940395355,-0.00634765625,-0.00335693359375,1.010009765625,35.880001068115234,0.0,6.0,-0.39373779296875,0.607635498046875,Waiting,0.0,0.0,0.0,0.0,0.0,0.0,0.0,0.0,
1.3080190000000003,0.0,0.0,4864.0,0.125,0.0,0.0,0.0,0.125,0.820312416,0.0,0.0,1521.0,0.0,0.0,-0.0,0.0,0.125,0.438232377,0.0,-0.0012207030000004337,10363.0,0.125,0.0,0.0,0.0,0.125,3.2714840400000003,0.0,0.0,4922.0,0.125,0.0,-0.0,0.0,0.25,1.668701001,0.0,0.0012207029999999897,-0.07000000029802322,-0.7200000286102295,0.10999999940395355,-0.01031494140625,-0.00238037109375,1.01629638671875,35.880001068115234,0.0,2.0,-0.39373779296875,0.607635498046875,Waiting,0.0,0.0,0.0,0.0,0.0,0.0,0.0,0.0,
1.3294659999999994,0.0,0.0,4864.0,0.125,0.0,0.0,0.0,0.125,0.820312416,0.0,0.0,1521.0,0.0,0.0,-0.0,0.0,0.125,0.438232377,0.0,-0.0012207030000004337,10363.0,0.125,0.0,0.0,0.0,0.125,3.2702633370000003,0.0,0.0,4922.0,0.125,0.0,-0.0,0.0,0.25,1.668701001,0.0,0.0012207029999999897,-0.07000000029802322,-0.7200000286102295,0.10999999940395355,-0.01611328125,-4.8828125E-4,1.02410888671875,35.880001068115234,0.0,-3.0,-0.39373779296875,0.607635498046875,Waiting,0.0,0.0,0.0,0.0,0.0,0.0,0.0,0.0,
1.3483360000000002,0.0,0.0,4864.0,0.125,0.0,0.0,0.0,0.125,0.820312416,0.0,0.0,1521.0,0.0,0.0,-0.0,0.0,0.125,0.438232377,0.0,0.0,10363.0,0.125,0.0,0.0,0.0,0.125,3.2702633370000003,0.0,0.0,4922.0,0.125,0.0,-0.0,0.0,0.25,1.668701001,0.0,0.0,-0.07000000029802322,-0.7200000286102295,0.10999999940395355,-0.0157470703125,-0.002197265625,1.00335693359375,35.880001068115234,0.0,-3.0,-0.39373779296875,0.607635498046875,Waiting,0.0,0.0,0.0,0.0,0.0,0.0,0.0,0.0,
1.370509,0.0,0.0,4864.0,0.125,0.0,0.0,0.0,0.125,0.820312416,0.0,0.0,1521.0,0.0,0.0,-0.0,0.0,0.125,0.437011674,0.0,0.0,10363.0,0.125,0.0,0.0,0.0,0.125,3.2714840400000003,0.0,0.0,4922.0,0.125,0.0,-0.0,0.0,0.25,1.668701001,0.0,0.0,-0.05999999865889549,-0.7200000286102295,0.10000000149011612,-0.0098876953125,-0.00115966796875,1.01275634765625,35.880001068115234,0.0,2.0,-0.39373779296875,0.607635498046875,Waiting,0.0,0.0,0.0,0.0,0.0,0.0,0.0,0.0,
1.3897079999999997,0.0,0.0,4864.0,0.125,0.0,0.0,0.0,0.125,0.821533119,0.0,0.0,1521.0,0.0,0.0,-0.0,0.0,0.125,0.438232377,0.0,0.0,10363.0,0.125,0.0,0.0,0.0,0.125,3.2714840400000003,0.0,0.0,4922.0,0.125,0.0,-0.0,0.0,0.25,1.668701001,0.0,0.0,-0.07000000029802322,-0.7300000190734863,0.10000000149011612,-0.013671875,6.103515625E-4,1.02593994140625,35.880001068115234,0.0,0.0,-0.39373779296875,0.607635498046875,Waiting,0.0,0.0,0.0,0.0,0.0,0.0,0.0,0.0,
1.41129,0.0,0.0,4864.0,0.125,0.0,0.0,0.0,0.125,0.820312416,0.0,0.0,1521.0,0.0,0.0,-0.0,0.0,0.125,0.438232377,0.0,0.0,10363.0,0.125,0.0,0.0,0.0,0.125,3.2714840400000003,0.0,0.0,4922.0,0.125,0.0,-0.0,0.0,0.25,1.668701001,0.0,0.0,-0.07000000029802322,-0.7300000190734863,0.10999999940395355,-0.013671875,-0.00189208984375,1.01055908203125,35.880001068115234,0.0,0.0,-0.39373779296875,0.607635498046875,Waiting,0.0,0.0,0.0,0.0,0.0,0.0,0.0,0.0,
1.4308509999999997,0.0,0.0,4864.0,0.125,0.0,0.0,0.0,0.125,0.821533119,0.0,0.0,1521.0,0.0,0.0,-0.0,0.0,0.125,0.438232377,0.0,0.0,10363.0,0.125,0.0,0.0,0.0,0.125,3.2702633370000003,0.0,0.0,4922.0,0.125,0.0,-0.0,0.0,0.25,1.668701001,0.0,0.0,-0.05999999865889549,-0.7200000286102295,0.10999999940395355,-0.013427734375,-3.0517578125E-4,1.02532958984375,35.880001068115234,0.0,0.0,-0.39373779296875,0.607635498046875,Waiting,0.0,0.0,0.0,0.0,0.0,0.0,0.0,0.0,
1.451214,0.0,0.0,4864.0,0.125,0.0,0.0,0.0,0.125,0.820312416,0.0,0.0,1521.0,0.0,0.0,-0.0,0.0,0.125,0.438232377,0.0,0.0012207030000004337,10363.0,0.125,0.0,0.0,0.0,0.125,3.2714840400000003,0.0,0.0,4922.0,0.125,0.0,-0.0,0.0,0.25,1.668701001,0.0,0.0,-0.05999999865889549,-0.7200000286102295,0.10999999940395355,-0.01226806640625,0.001220703125,1.02569580078125,35.880001068115234,0.0,0.0,-0.39373779296875,0.607635498046875,Waiting,0.0,0.0,0.0,0.0,0.0,0.0,0.0,0.0,
1.474303,0.0,0.0,4864.0,0.125,0.0,0.0,0.0,0.125,0.821533119,0.0,0.0,1521.0,0.0,0.0,-0.0,0.0,0.125,0.437011674,0.0,0.0012207030000004337,10363.0,0.125,0.0,0.0,0.0,0.125,3.2714840400000003,0.0,0.0,4922.0,0.125,0.0,-0.0,0.0,0.25,1.668701001,0.0,0.0,-0.05999999865889549,-0.7200000286102295,0.10999999940395355,-0.0098876953125,-0.00299072265625,1.014892578125,35.880001068115234,0.0,2.0,-0.39373779296875,0.607635498046875,Waiting,0.0,0.0,0.0,0.0,0.0,0.0,0.0,0.0,
1.4951819999999998,0.0,0.0,4864.0,0.125,0.0,0.0,0.0,0.125,0.820312416,0.0,0.0,1521.0,0.0,0.0,-0.0,0.0,0.125,0.438232377,0.0,0.0,10363.0,0.125,0.0,0.0,0.0,0.125,3.2702633370000003,0.0,0.0,4922.0,0.125,0.0,-0.0,0.0,0.25,1.668701001,0.0,0.0,-0.05999999865889549,-0.7200000286102295,0.10999999940395355,-0.013671875,-0.0054931640625,1.02984619140625,35.880001068115234,0.0,0.0,-0.39373779296875,0.607635498046875,Waiting,0.0,0.0,0.0,0.0,0.0,0.0,0.0,0.0,
1.5212910000000002,0.0,0.0,4864.0,0.125,0.0,0.0,0.0,0.125,0.821533119,0.0,0.0,1521.0,0.0,0.0,-0.0,0.0,0.125,0.438232377,0.0,0.0,10363.0,0.125,0.0,0.0,0.0,0.125,3.2702633370000003,0.0,0.0,4922.0,0.125,0.0,-0.0,0.0,0.25,1.668701001,0.0,0.0,-0.05999999865889549,-0.7200000286102295,0.10999999940395355,-0.013671875,-0.00201416015625,1.0284423828125,35.880001068115234,0.0,0.0,-0.39373779296875,0.607635498046875,Waiting,0.0,0.0,0.0,0.0,0.0,0.0,0.0,0.0,
1.539013,0.0,0.0,4864.0,0.125,0.0,0.0,0.0,0.125,0.820312416,0.0,0.0,1521.0,0.0,0.0,-0.0,0.0,0.125,0.438232377,0.0,0.0,10363.0,0.125,0.0,0.0,0.0,0.125,3.2714840400000003,0.0,0.0,4922.0,0.125,0.0,-0.0,0.0,0.25,1.668701001,0.0,0.0,-0.05999999865889549,-0.7099999785423279,0.10999999940395355,-0.01190185546875,-0.003662109375,1.0123291015625,35.880001068115234,0.0,-1.0,-0.39373779296875,0.607635498046875,Waiting,0.0,0.0,0.0,0.0,0.0,0.0,0.0,0.0,
1.563883,0.0,0.0,4864.0,0.125,0.0,0.0,0.0,0.125,0.820312416,0.0,0.0,1521.0,0.0,0.0,-0.0,0.0,0.125,0.438232377,0.0,-0.0012207030000004337,10363.0,0.125,0.0,0.0,0.0,0.125,3.2714840400000003,0.0,0.0,4922.0,0.125,0.0,-0.0,0.0,0.25,1.668701001,0.0,0.0,-0.05999999865889549,-0.7200000286102295,0.10999999940395355,-0.0126953125,-4.2724609375E-4,1.01934814453125,35.880001068115234,0.0,0.0,-0.39373779296875,0.607635498046875,Waiting,0.0,0.0,0.0,0.0,0.0,0.0,0.0,0.0,
1.584116,0.0,0.0,4864.0,0.125,0.0,246.09375000000003,0.0,0.125,0.820312416,0.0015101322418171908,0.0,1521.0,0.0,0.0,-246.09375000000003,0.0,0.125,0.437011674,0.001519763047320561,0.0012207030000004337,10363.0,0.125,0.0,246.09375000000003,0.0,0.125,3.2702633370000003,0.001512622214025921,0.0,4922.0,0.125,0.0,-246.09375000000003,0.0,0.25,1.668701001,0.0015179999917745589,0.0,-0.05999999865889549,-0.7200000286102295,0.10999999940395355,-0.013671875,4.8828125E-4,1.0247802734375,35.880001068115234,0.0,0.0,-0.39373779296875,0.607635498046875,Waiting,0.0,0.0,0.0,0.0,0.0,0.0,0.0,0.0,
1.6084470000000002,0.0,0.0,4864.0,0.125,0.0,508.59375,0.0,0.125,0.8166503070000001,0.0015101322418171908,0.0,1521.0,0.125,0.0,-508.59375,0.0,0.125,0.438232377,0.001519763047320561,0.0,10363.0,0.375,0.0,508.59375,0.0,0.125,3.2702633370000003,0.001512622214025921,0.0,4922.0,0.375,0.0,-508.59375,0.0,0.25,1.651611159,0.0015179999917745589,0.0,-0.05999999865889549,-0.7200000286102295,0.10000000149011612,-0.00201416015625,-0.01226806640625,1.02557373046875,35.880001068115234,0.0,10.0,-0.39373779296875,0.607635498046875,Waiting,0.0,0.0,0.0,0.0,0.0,0.0,0.0,0.0,
1.6305429999999996,0.0,0.0,4864.0,0.5,0.0,1378.125,0.0,0.125,0.821533119,0.001372847520457022,-0.0012207029999999897,1521.0,0.5,0.0,-1378.125,0.0,0.125,0.438232377,0.0013816027983652637,0.0,10363.0,0.75,0.0,1378.125,0.0,0.125,3.2666012280000003,0.0013751111316018636,0.0,4922.0,0.625,0.0,-1378.125,0.0,0.25,1.668701001,0.0013800000205636026,-0.0012207029999999897,-0.07000000029802322,-0.7200000286102295,0.10000000149011612,0.005126953125,-0.0411376953125,1.02496337890625,35.880001068115234,0.0,17.0,-0.39373779296875,0.60760498046875,Waiting,0.0,0.0,0.0,0.0,0.0,0.0,0.0,0.0,
1.6499430000000002,0.0,0.0,4864.0,4.375,7.5,1919.53125,0.0,0.125,0.821533119,0.0013728475204570218,0.0,1503.0,2.875,-15.0,-1919.53125,0.0,0.125,0.438232377,0.0013816027983652634,0.0,10371.0,3.125,15.0,1919.53125,0.0,0.125,3.245849277,0.0013751111316018636,0.0,4918.0,3.625,0.0,-1919.53125,0.0,0.25,1.6613767830000001,0.0013800000205636024,0.0,-0.07000000029802322,-0.7099999785423279,0.09000000357627869,0.08831787109375,0.13800048828125,1.03607177734375,35.880001068115234,0.0,101.0,-0.3936614990234375,0.607635498046875,Waiting,0.0,0.0,0.0,0.0,0.0,0.0,0.0,0.0,
1.6726170000000002,0.0,0.0,4872.0,10.5,30.0,2001.5625000000002,0.0,0.125,0.8154296040000001,0.0012355627990968527,0.0,1503.0,8.375,-82.5,-2001.5625000000002,0.0,0.125,0.438232377,0.0012434425494099659,0.0012207030000004337,10371.0,8.5,37.5,2001.5625000000002,0.0,0.0,3.232421544,0.0012376000491778059,4.928427346,4918.0,6.875,-22.5,-2001.5625000000002,0.0,0.25,1.668701001,0.0012420000493526462,0.0,-0.18000000715255737,-0.23000000417232513,0.03999999910593033,0.08453369140625,0.20892333984375,0.59393310546875,35.880001068115234,0.0,87.0,-0.3916778564453125,0.6072540283203125,Waiting,0.0,0.0,0.0,0.0,0.0,0.0,0.0,0.0,
1.6918630000000003,0.0,0.0,4872.0,18.0,67.5,2083.59375,0.0,0.125,0.820312416,5.491389877257869E-4,0.0012207029999999897,1503.0,15.75,-165.0,-2083.59375,0.0,0.125,0.438232377,5.526410987586198E-4,-0.0012207030000004337,10371.0,14.875,67.5,2083.59375,0.0,0.0,3.232421544,5.500444321499932E-4,0.0,4918.0,11.5,-105.0,-2083.59375,0.0,0.25,1.666259595,5.519999876618387E-4,0.0,-0.1599999964237213,0.07000000029802322,0.029999999329447746,0.2926025390625,0.322509765625,0.83636474609375,35.880001068115234,0.0,291.0,-0.3901214599609375,0.60736083984375,Waiting,0.0,0.0,0.0,0.0,0.0,0.0,0.0,0.0,
1.714541,0.0,0.0,4872.0,24.75,120.0,2100.0,0.0,0.125,0.820312416,4.1185424079434016E-4,-0.0012207029999999897,1503.0,20.0,-307.5,-2100.0,0.0,0.125,0.43945308000000005,4.144808240689648E-4,0.0012207030000004337,10371.0,22.5,105.0,2100.0,0.0,0.0,3.228759435,4.1253332411249485E-4,-0.0012207030000004337,4918.0,19.625,-202.5,-2100.0,0.0,0.25,1.666259595,4.1399999074637894E-4,0.0,-0.14000000059604645,0.25999999046325684,0.03999999910593033,0.271728515625,-0.3223876953125,1.1748046875,35.880001068115234,0.0,266.0,-0.38818359375,0.60748291015625,Waiting,0.0,0.0,0.0,0.0,0.0,0.0,0.0,0.0,
1.7379470000000001,0.0,0.0,4872.0,28.375,195.0,2100.0,0.0,0.125,0.820312416,5.491389877257869E-4,0.0012207029999999897,1503.0,22.625,-457.5,-2100.0,0.0,0.125,0.445556595,5.526410987586198E-4,-0.0012207030000004337,10371.0,27.625,157.5,2100.0,0.0,0.0,3.232421544,5.500444321499932E-4,0.0012207030000004337,4918.0,25.625,-300.0,-2100.0,0.0,0.25,1.668701001,5.519999876618387E-4,-0.0012207029999999897,-0.14000000059604645,0.8500000238418579,0.009999999776482582,0.44903564453125,-0.269775390625,0.88983154296875,35.880001068115234,0.0,435.0,-0.3827667236328125,0.607879638671875,Waiting,0.0,0.0,0.0,0.0,0.0,0.0,0.0,0.125,
1.764433,0.0,0.0,4872.0,30.375,292.5,1919.53125,0.0,0.125,0.8154296040000001,1.3728474693144673E-4,0.0,1503.0,22.125,-607.5,-1919.53125,0.0,0.125,0.438232377,1.3816027468965494E-4,0.0012207030000004337,10371.0,30.125,210.0,1919.53125,0.0,0.0,3.232421544,1.375111080374983E-4,0.0,4918.0,30.125,-375.0,-1919.53125,0.0,0.25,1.668701001,1.3799999691545967E-4,0.0,-0.18000000715255737,0.949999988079071,-0.029999999329447746,0.3009033203125,-0.07220458984375,1.20281982421875,35.880001068115234,0.0,280.0,-0.3792724609375,0.6078948974609375,Waiting,0.0,0.0,0.0,0.0,0.0,0.0,0.0,0.0,
1.7879359999999997,0.0,0.0,4950.0,30.75,397.5,1804.6875,0.0,0.125,0.820312416,4.941290006745908,-0.0012207029999999897,1376.0,22.125,-727.5,-1804.6875,0.0,0.125,0.437011674,4.972802878051438,-0.0012207030000004337,10422.0,30.875,270.0,1804.6875,0.0,0.0,3.232421544,4.949437422218124,0.0,4839.0,29.25,-465.0,-1804.6875,0.0,0.25,1.666259595,4.967033999995887,0.0,-0.25999999046325684,1.5700000524520874,-0.14000000059604645,0.4559326171875,-0.0604248046875,0.5704345703125,35.880001068115234,0.0,440.0,-0.3709564208984375,0.60772705078125,Waiting,0.0,0.0,0.0,0.0,0.0,0.0,0.0,0.0,
1.810241,0.0,0.0,4950.0,30.0,510.0,1804.6875,0.0,0.125,0.820312416,4.940329013491817,0.0,1376.0,21.75,-802.5,-1804.6875,0.0,0.125,0.437011674,4.971835756102876,0.0012207030000004337,10422.0,30.5,390.0,1804.6875,0.0,0.0,3.232421544,4.948474844436248,0.0,4839.0,29.0,-510.0,-1804.6875,0.0,0.25,1.668701001,4.9660679999917745,-0.0012207029999999897,-0.2199999988079071,1.9600000381469727,-0.27000001072883606,0.3828125,0.06756591796875,1.404052734375,35.880001068115234,0.0,334.0,-0.360687255859375,0.6073455810546875,Waiting,0.0,0.0,0.0,0.0,0.0,0.0,0.0,0.0,
1.8332640000000002,0.0,0.0,4950.0,27.5,630.0,1804.6874999999998,0.0,0.125,0.799560465,4.938544311602709,0.0,1376.0,18.625,-877.5,-1804.6874999999998,0.0,0.125,0.438232377,4.97003967235177,-0.0012207030000004337,10422.0,30.25,472.5,1804.6874999999998,0.0,0.0,3.232421544,4.946687199852467,0.0,4839.0,28.0,-585.0,-1804.6874999999998,0.0,0.25,1.668701001,4.964273999851942,0.0012207029999999897,-0.27000001072883606,2.0,-0.3199999928474426,0.14154052734375,-0.14727783203125,0.90264892578125,35.880001068115234,0.0,110.0,-0.35504150390625,0.60711669921875,Waiting,0.0,0.0,0.0,0.0,0.0,0.0,0.0,0.0,
1.8555270000000001,0.0,2.125,4950.0,25.75,757.5,1788.2812500000002,0.0,0.125,0.820312416,4.937857888098193,0.0,1376.0,17.75,-915.0,-1788.2812500000002,0.0,0.125,0.43945308000000005,4.969348871209931,0.0,10422.0,29.75,585.0,1788.2812500000002,0.0,0.0,3.232421544,4.9459996445428,0.0,4839.0,28.375,-697.5,-1788.2812500000002,0.0,0.25,1.668701001,4.963584000098705,0.0,-0.23999999463558197,2.2799999713897705,-0.36000001430511475,0.43731689453125,-0.26397705078125,0.6014404296875,35.880001068115234,0.0,358.0,-0.342529296875,0.605865478515625,Waiting,0.0,0.0,0.0,0.0,0.0,0.0,0.0,0.0,
1.8846109999999998,0.0,2.125,4950.0,22.875,967.5,1640.625,0.0,0.125,0.821533119,4.936759609918171,0.0,1376.0,17.75,-967.5,-1640.625,0.0,0.125,0.430908159,4.968243588806539,0.0,10422.0,29.25,727.5,1640.625,0.0,0.0,3.232421544,4.944899555473593,0.0,4839.0,27.25,-810.0,-1640.625,0.0,0.25,1.668701001,4.962479999917745,0.0,-0.3799999952316284,2.700000047683716,-0.46000000834465027,0.3779296875,-0.1387939453125,1.11065673828125,35.880001068115234,0.0,326.0,-0.3355560302734375,0.60491943359375,Waiting,0.0,0.0,0.0,0.0,0.0,0.0,0.0,0.0,
1.905947,0.0,0.0,5130.0,20.875,1072.5,1640.625,0.0,0.125,0.820312416,4.93593590138544,0.0,1200.0,17.25,-1057.5,-1640.625,0.0,0.125,0.449218704,4.967414627106932,0.0,10576.0,28.0,877.5,1640.625,0.0,0.0,3.232421544,4.944074488774141,0.0,4682.0,26.25,-907.5,-1640.625,0.0,0.25,1.668701001,4.961651999884844,0.0,-0.3700000047683716,2.8499999046325684,-0.550000011920929,0.27191162109375,0.1795654296875,1.15802001953125,35.880001068115234,0.0,212.0,-0.321136474609375,0.6032867431640625,Waiting,0.0,0.0,0.0,0.0,0.0,0.0,0.0,0.0,
1.9246859999999997,0.0,0.0,5130.0,19.25,1147.5,1624.21875,0.0,0.125,0.820312416,4.934700338586343,0.0012207029999999897,1200.0,16.25,-1147.5,-1624.21875,0.0,0.125,0.438232377,4.966171184557522,-0.0012207030000004337,10576.0,25.375,1035.0,1624.21875,0.0,0.0,3.232421544,4.942836888724963,0.0012207030000004337,4682.0,23.625,-1005.0,-1624.21875,0.0,0.25,1.668701001,4.960409999835491,-0.0012207029999999897,-0.46000000834465027,3.0999999046325684,-0.5899999737739563,0.40509033203125,0.04864501953125,0.533447265625,35.880001068115234,0.0,374.0,-0.3134765625,0.602752685546875,Waiting,0.0,0.0,0.0,0.0,0.0,0.0,0.0,0.0,
1.945621,0.0,0.0,5130.0,17.5,1222.5,1542.1875,0.0,0.125,0.8300780400000001,4.934151200110043,0.0,1200.0,14.5,-1237.5,-1542.1875,0.0,0.125,0.44067378300000004,4.965618543973451,0.0,10576.0,22.625,1162.5,1542.1875,0.0,0.0,3.233642247,4.942286844805082,0.0,4682.0,22.0,-1080.0,-1542.1875,0.0,0.25,1.673583813,4.959858000361919,0.0012207029999999897,-0.38999998569488525,3.390000104904175,-0.6499999761581421,0.29736328125,0.40045166015625,1.3446044921875,35.880001068115234,0.0,212.0,-0.305419921875,0.6025390625,Waiting,0.0,0.0,0.0,0.0,0.0,0.0,0.0,0.0,
1.9679200000000001,0.0,0.0,5130.0,15.375,1297.5,1460.15625,0.0,0.125,0.822753822,4.932778352282731,-0.0012207029999999897,1200.0,13.125,-1312.5,-1460.15625,0.0,0.125,0.438232377,4.964236940866273,0.0012207030000004337,10576.0,19.625,1260.0,1460.15625,0.0,0.0,3.232421544,4.940911733366119,-0.0012207030000004337,4682.0,19.625,-1162.5,-1460.15625,0.0,0.25,1.668701001,4.958478000032902,0.0,-0.38999998569488525,3.200000047683716,-0.7300000190734863,0.1865234375,-0.20880126953125,1.08612060546875,35.880001068115234,0.0,127.0,-0.2888336181640625,0.6026458740234375,Waiting,0.0,0.0,0.0,0.0,0.0,0.0,0.0,0.0,
1.9870100000000002,0.0,0.0,5130.0,13.625,1357.5,1033.5937500000002,0.0,0.125,0.820312416,4.932229212988149,0.0,1200.0,11.5,-1365.0,-1033.5937500000002,0.0,0.125,0.437011674,4.963684299458702,-0.0012207030000004337,10576.0,17.0,1327.5,1033.5937500000002,0.0,0.0,3.232421544,4.9403616886266075,0.0,4682.0,18.25,-1237.5,-1033.5937500000002,0.0,0.25,1.668701001,4.957925999736786,0.0,-0.41999998688697815,3.5899999141693115,-0.7599999904632568,0.32464599609375,0.347900390625,0.88812255859375,35.880001068115234,0.0,263.0,-0.28021240234375,0.6027679443359375,Waiting,0.0,0.0,0.0,0.0,0.0,0.0,0.0,0.0,
2.0097789999999995,0.0,0.0,5130.0,10.375,1417.5,1033.5937499999998,0.0,0.125,0.8044432770000001,4.931817359130925,0.0,969.0,8.75,-1410.0,-1033.5937499999998,0.0,0.125,0.438232377,4.963269819020649,0.0,10807.0,13.0,1387.5,1033.5937499999998,0.0,0.0,3.232421544,4.939949155686697,0.0,4462.0,15.0,-1297.5,-1033.5937499999998,0.0,0.25,1.6638181890000001,4.957512000131607,0.0,-0.4699999988079071,3.5999999046325684,-0.8100000023841858,-0.020751953125,0.0103759765625,1.359619140625,35.880001068115234,0.0,-106.0,-0.262542724609375,0.6036529541015625,Waiting,0.0,0.0,0.0,0.0,0.0,0.0,0.0,0.0,
2.0300979999999997,0.0,0.0,5363.0,7.875,1447.5,246.09375,0.0,0.125,0.8056639800000001,4.9311309352172685,0.0012207029999999897,969.0,6.375,-1440.0,-246.09375,0.0,0.125,0.445556595,4.96257901746706,0.0,10807.0,9.75,1425.0,246.09375,0.0,0.0,3.232421544,4.939261599967215,0.0,4462.0,11.75,-1350.0,-246.09375,0.0,0.25,1.6589353770000002,4.956821999967098,-0.003662108999999969,-0.4399999976158142,3.5299999713897705,-0.8500000238418579,-0.116455078125,-0.19940185546875,1.35797119140625,35.880001068115234,0.0,-197.0,-0.25390625,0.60400390625,Waiting,0.0,0.0,0.0,0.0,0.0,0.0,0.0,0.0,
2.0500460000000005,0.0,0.0,5363.0,3.25,1477.5,0.0,0.0,0.125,0.820312416,4.9311309352172685,0.0012207029999999897,969.0,3.125,-1447.5,0.0,0.0,0.125,0.438232377,4.96257901746706,0.0012207030000004337,10807.0,5.75,1462.5,0.0,0.0,0.0,3.233642247,4.939261599967215,0.0,4462.0,7.25,-1380.0,0.0,0.0,0.25,1.6540525650000002,4.956821999967098,-0.004882811999999959,-0.5199999809265137,3.690000057220459,-0.9100000262260437,-0.05218505859375,-0.00634765625,0.7908935546875,35.880001068115234,0.0,-103.0,-0.2369842529296875,0.604278564453125,Waiting,0.0,0.0,0.0,0.0,0.0,0.0,0.0,0.0,
2.0713009999999996,0.0,0.0,5363.0,1.375,1470.0,0.0,0.0,0.125,0.820312416,4.9311309352172685,0.0012207029999999897,969.0,1.25,-1432.5,0.0,0.0,0.125,0.438232377,4.96257901746706,0.0012207030000004337,10807.0,2.75,1477.5,0.0,0.0,0.0,3.232421544,4.939261599967215,0.0,4462.0,3.0,-1387.5,0.0,0.0,0.25,1.650390456,4.956821999967098,-0.004882811999999959,-0.5099999904632568,3.430000066757202,-0.9599999785423279,-0.09716796875,0.2255859375,1.27813720703125,35.880001068115234,0.0,-177.0,-0.228729248046875,0.6045379638671875,Waiting,0.0,0.0,0.0,0.0,0.0,0.0,0.0,0.0,
2.0903959999999997,0.0,0.0,5363.0,0.125,1425.0,0.0,0.0,0.125,0.820312416,4.9311309352172685,0.0012207029999999897,969.0,0.375,-1372.5,0.0,0.0,0.125,0.438232377,4.96257901746706,0.0012207030000004337,10807.0,1.0,1462.5,0.0,0.0,0.0,3.232421544,4.939261599967215,0.0,4462.0,1.125,-1335.0,0.0,0.0,0.25,1.644286941,4.956821999967098,-0.00976562400000014,-0.3799999952316284,3.200000047683716,-0.9700000286102295,-0.0606689453125,-0.21368408203125,1.11712646484375,35.880001068115234,0.0,-119.0,-0.2206878662109375,0.6048126220703125,Waiting,0.0,0.0,0.0,0.0,0.0,0.0,0.0,0.0,
2.11254,0.0,0.0,5363.0,0.0,1335.0,0.0,0.0,0.125,0.826415931,4.9311309352172685,-0.0012207029999999897,969.0,0.0,-1290.0,0.0,0.0,0.125,0.438232377,4.96257901746706,-0.0012207030000004337,10807.0,0.125,1410.0,0.0,0.0,0.0,3.232421544,4.939261599967215,0.0,4462.0,0.125,-1260.0,0.0,0.0,0.25,1.644286941,4.956821999967098,-0.00976562400000014,-0.5,3.0299999713897705,-1.059999942779541,-0.0728759765625,0.119384765625,1.0333251953125,35.880001068115234,0.0,-129.0,-0.20574951171875,0.6052093505859375,Waiting,0.0,0.0,0.0,0.0,0.0,0.0,0.0,0.0,
2.131479,0.0,0.0,5363.0,0.0,1335.0,0.0,0.0,0.125,0.825195228,4.9311309352172685,-0.0012207029999999897,773.0,0.0,-1222.5,0.0,0.0,0.125,0.438232377,4.96257901746706,-0.0012207030000004337,11007.0,0.0,1327.5,0.0,0.0,0.0,3.232421544,4.939261599967215,0.0,4272.0,0.125,-1192.5,0.0,0.0,0.25,1.639404129,4.956821999967098,-0.00976562400000014,-0.3700000047683716,2.5999999046325684,-1.1299999952316284,-0.09149169921875,-0.00830078125,1.203857421875,35.880001068115234,0.0,-146.0,-0.1921844482421875,0.6059112548828125,Waiting,0.0,0.0,0.0,0.0,0.0,0.0,0.0,0.0,
2.150254,0.0,0.0,5563.0,0.0,1260.0,0.0,0.0,0.125,0.825195228,4.9311309352172685,-0.0012207029999999897,773.0,0.0,-1185.0,0.0,0.0,0.125,0.437011674,4.96257901746706,0.0012207030000004337,11007.0,0.0,1245.0,0.0,0.0,0.0,3.233642247,4.939261599967215,0.0,4272.0,0.125,-1155.0,0.0,0.0,0.25,1.6296385050000002,4.956821999967098,-0.010986326999999907,-0.3100000023841858,2.680000066757202,-1.1200000047683716,-0.08953857421875,-0.24310302734375,0.64208984375,35.880001068115234,0.0,-114.0,-0.185760498046875,0.6060791015625,Waiting,0.0,0.0,0.0,0.0,0.0,0.0,0.0,0.0,
2.1726629999999996,0.0,0.0,5563.0,0.0,1207.5,0.0,0.0,0.25,0.825195228,4.9311309352172685,0.004882811999999959,773.0,0.0,-1185.0,0.0,0.0,0.125,0.438232377,4.96257901746706,0.0012207030000004337,11007.0,0.0,1177.5,0.0,0.0,0.0,3.233642247,4.939261599967215,0.0,4272.0,0.125,-1140.0,0.0,0.0,0.25,1.612548663,4.956821999967098,-0.010986326999999907,-0.4300000071525574,2.440000057220459,-1.1200000047683716,-0.0615234375,-0.1256103515625,0.73541259765625,35.880001068115234,0.0,-90.0,-0.1794586181640625,0.6060028076171875,Waiting,0.0,0.0,0.0,0.0,0.0,0.0,0.0,0.0,
2.190719,0.0,0.0,5563.0,0.0,1200.0,0.0,0.0,0.25,0.825195228,4.9311309352172685,0.004882811999999959,773.0,0.0,-1200.0,0.0,0.0,0.125,0.437011674,4.96257901746706,0.0012207030000004337,11007.0,0.0,1147.5,0.0,0.0,0.0,3.232421544,4.939261599967215,0.0,4272.0,0.125,-1162.5,0.0,0.0,0.25,1.6052244450000002,4.956821999967098,-0.010986326999999907,-0.3100000023841858,2.109999895095825,-1.159999966621399,-0.2816162109375,-0.158935546875,1.08367919921875,35.849998474121094,0.0,-318.0,-0.16754150390625,0.60589599609375,Waiting,0.0,0.0,0.0,0.0,0.0,0.0,0.0,0.0,
2.2239989999999996,0.0,0.0,5563.0,0.0,1237.5,229.6875,0.0,0.25,0.825195228,1.2196377194582386,0.0,773.0,0.25,-1222.5,-229.6875,0.0,0.125,0.43945308000000005,1.2274159082389389,0.0,11007.0,0.0,1147.5,-229.6875,0.0,0.0,3.232421544,3.6968487115701056,0.0,4272.0,0.125,-1177.5,-229.6875,0.0,0.25,1.5771482760000002,1.225992000460626,-0.009765623999999917,-0.33000001311302185,2.2100000381469727,-1.1799999475479126,0.04058837890625,-0.0615234375,0.51318359375,35.849998474121094,0.0,21.0,-0.161956787109375,0.6056976318359375,Waiting,0.0,0.0,0.0,0.0,0.0,0.0,0.0,0.0,
2.242815,0.0,0.0,5563.0,2.5,1222.5,360.9375,0.0,0.25,0.834960852,1.2192258639644513,0.0,773.0,3.375,-1192.5,-360.9375,0.0,0.125,0.438232377,1.2270014261538862,0.0012207030000004337,11007.0,2.75,1155.0,-360.9375,0.0,0.0,3.232421544,3.6964361769909346,0.0,4272.0,2.0,-1185.0,360.9375,0.0,0.25,1.5771482760000002,3.7095779992103592,4.938703128,-0.33000001311302185,1.559999942779541,-1.2599999904632568,-0.92486572265625,0.04986572265625,1.466064453125,35.849998474121094,0.0,-965.0,-0.1519317626953125,0.605438232421875,Waiting,0.0,0.0,0.0,0.0,0.0,0.0,0.0,0.0,
2.267588,0.0,0.0,5732.0,3.875,1147.5,475.78125,0.0,0.25,0.8447264760000001,1.2182648716309261,0.0,610.0,6.125,-1117.5,-475.78125,0.0,0.5,0.44799800100000003,1.2260343051317613,0.0,11181.0,6.5,1140.0,-475.78125,0.0,0.0,3.232421544,3.6954736001311423,0.0,4109.0,5.375,-1125.0,475.78125,0.0,0.25,1.5759275730000002,3.7086120001316085,0.0,-0.30000001192092896,0.8600000143051147,-1.350000023841858,-0.54205322265625,0.33642578125,1.47564697265625,35.849998474121094,0.0,-518.0,-0.14556884765625,0.6059417724609375,Waiting,0.0,0.0,0.0,0.0,0.0,0.0,0.0,0.0,
2.2857510000000003,0.0,0.0,5732.0,4.875,1035.0,656.25,0.0,2.25,0.872802645,1.2157937452144514,0.0012207029999999897,610.0,8.0,-1005.0,-656.25,0.0,7.125,0.462646437,1.2235474192094418,0.008544920999999484,11181.0,9.75,1057.5,-656.25,0.0,4.375,3.139648116,3.692998399213157,-0.010986327000000351,4109.0,9.375,-997.5,656.25,0.0,4.625,1.495361175,3.7061279992103593,-0.003662109000000413,-0.2800000011920929,0.2800000011920929,-1.5399999618530273,-0.2200927734375,-0.09124755859375,0.802978515625,35.849998474121094,0.0,-221.0,-0.143280029296875,0.60614013671875,Waiting,0.0,0.0,0.0,0.0,0.0,0.0,0.0,0.0,
2.3220919999999996,0.0,0.0,5732.0,2.75,802.5,656.25,0.0,5.625,1.140136602,1.2144208990237009,0.0,610.0,4.25,-772.5,-656.25,0.0,8.375,0.743408127,1.2221658177492631,0.0,11181.0,15.375,705.0,-656.25,0.0,6.625,2.875976268,3.691623289413454,0.0,4109.0,16.875,-592.5,656.25,0.0,8.0,1.234130733,3.70474800052643,0.0,-0.18000000715255737,-0.6600000262260437,-1.7100000381469727,-0.84881591796875,0.44647216796875,0.801025390625,35.849998474121094,0.0,-852.0,-0.140899658203125,0.605987548828125,Waiting,0.0,0.0,0.0,0.0,0.0,0.0,0.0,0.0,
2.345128,0.0,0.0,5732.0,1.5,690.0,672.65625,0.0,4.375,1.278076041,1.2120870572263014,0.24780270900000012,610.0,2.5,-660.0,-672.65625,0.0,2.625,0.8813475660000001,1.2198170919729616,0.23437497600000068,11181.0,17.5,495.0,-672.65625,0.0,3.125,2.7453610470000003,3.6892855994754385,-0.24169919399999973,4109.0,17.75,-352.5,672.65625,0.0,4.375,1.093749888,3.7024019994735733,-0.25146481799999965,0.05000000074505806,-1.090000033378601,-1.7400000095367432,-0.72808837890625,0.25384521484375,1.2689208984375,35.849998474121094,0.0,-710.0,-0.14129638671875,0.6063690185546875,Waiting,0.0,0.0,0.0,0.0,0.0,0.0,0.0,0.0,
2.367477,0.0,0.0,5732.0,0.625,562.5,672.65625,0.0,1.75,1.431884619,1.211537918750001,0.16113279599999997,610.0,1.25,-555.0,-672.65625,0.0,2.375,1.0351561440000001,1.2192644513888902,0.16235349899999996,11181.0,18.625,285.0,-672.65625,0.0,2.125,2.5854489540000003,3.6887355555555574,-0.15991209299999998,4111.0,16.875,-150.0,672.65625,0.0,2.25,0.911865141,3.7018500000000016,-0.16479490499999994,0.27000001072883606,-1.6799999475479126,-1.75,-0.49859619140625,0.1832275390625,1.259521484375,35.849998474121094,0.0,-466.0,-0.1442108154296875,0.60772705078125,Waiting,0.0,0.0,0.0,0.0,0.0,0.0,0.0,0.0,
2.386436,0.0,0.0,5794.0,0.25,435.0,672.65625,0.0,1.5,1.5527342160000002,1.211537918750001,0.15258787500000004,542.0,0.625,-465.0,-672.65625,0.0,2.125,1.156005741,1.2192644513888902,0.15502928099999913,11192.0,17.5,135.0,-672.65625,0.0,1.875,2.464599357,3.6887355555555574,-0.157470687,4111.0,15.625,-22.5,672.65625,0.0,1.75,0.786132732,3.7018500000000016,-0.16845701400000035,0.3700000047683716,-1.8600000143051147,-1.7000000476837158,-0.44879150390625,0.12933349609375,0.726318359375,35.849998474121094,0.0,-428.0,-0.1465911865234375,0.6086883544921875,Waiting,0.0,0.0,0.0,0.0,0.0,0.0,0.0,0.0,
2.40904,0.0,0.0,5794.0,0.125,300.0,672.65625,0.0,1.625,1.701659982,1.2122243418453764,0.0,542.0,0.25,-367.5,-672.65625,0.0,2.125,1.312255725,1.2199552521189794,0.0,11192.0,15.75,15.0,-672.65625,0.0,1.875,2.298583749,3.6894231104554085,0.0,4111.0,14.125,37.5,672.65625,0.0,1.375,0.5957030640000001,3.7025399993419663,0.0,0.46000000834465027,-2.5299999713897705,-1.4500000476837158,-0.21868896484375,0.09002685546875,1.264892578125,35.849998474121094,0.0,-164.0,-0.152984619140625,0.611114501953125,Waiting,0.0,0.0,0.0,0.0,0.0,0.0,0.0,0.0,
2.428365,0.0,0.0,5794.0,0.125,180.0,672.65625,0.0,1.375,1.800536925,1.2156564605953764,0.15502928100000002,542.0,0.125,-270.0,-672.65625,0.0,1.75,1.417236183,1.2234092590634238,0.16723631099999992,11192.0,14.125,-45.0,-672.65625,0.0,1.375,2.210693133,3.6928608882331866,-0.16479490499999994,4111.0,12.25,82.5,672.65625,0.0,1.25,0.50048823,3.7059899993419663,-0.1818847469999998,0.5,-2.549999952316284,-1.2999999523162842,-0.16357421875,-0.011474609375,1.21185302734375,35.849998474121094,0.0,-108.0,-0.1565704345703125,0.6124420166015625,Waiting,0.0,0.0,0.0,0.0,0.0,0.0,0.0,0.0,
2.4483729999999997,0.0,0.0,5794.0,0.125,90.0,705.46875,0.0,1.0,1.8713376990000001,1.2203241425536138,0.08666991300000015,542.0,0.0,-187.5,-705.46875,0.0,1.5,1.4770506300000001,1.228106708969028,0.08666991300000015,11192.0,13.25,-97.5,-705.46875,0.0,0.875,2.142333765,3.697536266469957,-0.08544921000000016,4111.0,11.25,120.0,705.46875,0.0,0.625,0.40771480200000004,3.710681999802591,0.0,0.47999998927116394,-2.319999933242798,-0.9300000071525574,0.12738037109375,0.034423828125,0.81817626953125,35.849998474121094,0.0,159.0,-0.1635284423828125,0.61505126953125,Waiting,0.0,0.0,0.0,0.0,0.0,0.0,0.0,0.0,
2.4719960000000003,0.0,0.0,5794.0,0.375,45.0,705.46875,0.0,0.625,1.955566206,1.2227952681518075,0.07446288299999981,542.0,0.125,-127.5,-705.46875,0.0,1.0,1.549072107,1.230593594067848,0.06835936799999986,11192.0,13.125,-135.0,-705.46875,0.0,0.375,2.084960724,3.700011466568313,-0.07446288300000026,4111.0,11.25,157.5,705.46875,0.0,0.5,0.339355434,3.713165999901296,-0.08911131900000013,0.47999998927116394,-2.180000066757202,-0.7599999904632568,0.2532958984375,0.1075439453125,0.91339111328125,35.849998474121094,0.0,286.0,-0.1666107177734375,0.616455078125,Waiting,0.0,0.0,0.0,0.0,0.0,0.0,0.0,0.0,
2.4914989999999997,0.0,0.0,5794.0,0.5,52.5,771.0937499999999,0.0,0.5,1.981200969,1.225129109130926,0.05371093200000021,523.0,0.125,-105.0,-771.0937499999999,0.0,0.75,1.568603355,1.2329423190206499,0.04394530800000007,11164.0,14.0,-157.5,-771.0937499999999,0.0,0.25,2.0605466640000003,3.702349155686698,-0.03295898099999972,4146.0,11.875,187.5,771.0937499999999,0.0,0.125,0.31616207700000004,3.7155120001316084,0.0,0.5600000023841858,-1.8600000143051147,-0.6100000143051147,0.2554931640625,0.15234375,1.17327880859375,35.849998474121094,0.0,292.0,-0.17156982421875,0.619659423828125,Waiting,0.0,0.0,0.0,0.0,0.0,0.0,0.0,0.0,
2.5173949999999996,0.0,0.0,5814.0,0.875,97.5,771.0937500000001,0.0,0.5,2.0092771380000003,1.2271883800536139,0.026855465999999995,523.0,0.375,-112.5,-771.0937500000001,0.0,0.75,1.5783689790000002,1.2350147228579171,0.010986326999999907,11164.0,15.125,-180.0,-771.0937500000001,0.0,0.25,2.0581052580000003,3.704411822025513,-0.01953124800000028,4146.0,12.875,217.5,771.0937500000001,0.0,0.25,0.306396453,3.717581999802591,-0.024414060000000237,0.6899999976158142,-1.659999966621399,-0.6100000143051147,0.10546875,0.21435546875,1.02374267578125,35.849998474121094,0.0,132.0,-0.1735687255859375,0.6215667724609375,Waiting,0.0,0.0,0.0,0.0,0.0,0.0,0.0,0.0,
2.534334,0.0,0.0,5814.0,1.25,157.5,771.0937500000001,0.0,0.5,2.023925574,1.2271883800536139,0.020751951000000046,523.0,0.625,-142.5,-771.0937500000001,0.0,0.5,1.5832517910000001,1.2350147228579171,0.008544921000000372,11164.0,16.25,-195.0,-771.0937500000001,0.0,0.25,2.045898228,3.704411822025513,-0.009765623999999917,4146.0,13.625,232.5,771.0937500000001,0.0,0.125,0.306396453,3.717581999802591,-0.009765623999999917,0.8399999737739563,-1.5299999713897705,-0.6200000047683716,0.04345703125,0.1744384765625,0.9931640625,35.849998474121094,0.0,68.0,-0.1754150390625,0.6237335205078125,Waiting,0.0,0.0,0.0,0.0,0.0,0.0,0.0,0.0,
2.5561219999999993,0.0,0.0,5814.0,1.375,202.5,771.09375,0.0,0.375,2.033691198,1.2270510954345388,0.0,523.0,0.625,-195.0,-771.09375,0.0,0.5,1.597900227,1.2348765627118992,0.0,11164.0,16.5,-217.5,-771.09375,0.0,0.25,2.047118931,3.7042743110455425,0.0,4146.0,14.0,255.0,771.09375,0.0,0.125,0.306396453,3.717443999934198,0.0,1.0700000524520874,-1.6299999952316284,-0.5099999904632568,-0.1473388671875,0.14794921875,1.04779052734375,35.849998474121094,0.0,-118.0,-0.179229736328125,0.6289520263671875,Waiting,0.0,0.0,0.0,0.0,0.0,0.0,0.0,0.0,
2.585628,0.0,0.0,5814.0,1.375,240.0,771.09375,0.0,0.25,2.03857401,1.2285612278809261,0.008544920999999928,523.0,0.625,-262.5,-771.09375,0.0,0.5,1.6015623360000002,1.2363963259650945,0.010986327000000351,11164.0,16.75,-240.0,-771.09375,0.0,0.125,2.043456822,3.7057869334644757,0.0,4146.0,13.875,285.0,771.09375,0.0,0.25,0.311279265,3.7189620001316084,0.0012207029999999897,1.1799999475479126,-1.7799999713897705,-0.38999998569488525,-0.14959716796875,0.160888671875,1.3189697265625,35.849998474121094,0.0,-109.0,-0.181365966796875,0.6318817138671875,Waiting,0.0,0.0,0.0,0.0,0.0,0.0,0.0,0.0,
2.6080559999999995,0.0,0.0,5814.0,1.5,262.5,771.0937499999999,0.0,0.25,2.03857401,1.232130631250001,0.0,456.0,0.625,-330.0,-771.0937499999999,0.0,0.25,1.622314287,1.2399884930555567,0.0,11104.0,16.625,-270.0,-771.0937499999999,0.0,0.125,2.045898228,3.709362222222224,0.0,4214.0,13.875,382.5,771.0937499999999,0.0,0.25,0.312499968,3.7225500000000014,0.0,1.3600000143051147,-1.6699999570846558,-0.09000000357627869,0.0205078125,0.06195068359375,0.7728271484375,35.849998474121094,0.0,42.0,-0.185882568359375,0.6383056640625,Waiting,0.0,0.0,0.0,0.0,0.0,0.0,0.0,0.0,
2.628728,0.0,0.0,5862.0,1.5,285.0,771.09375,0.0,0.125,2.037353307,1.2343271872009043,0.0,456.0,0.5,-390.0,-771.09375,0.0,0.25,1.6284178020000002,1.2421990574505912,0.008544920999999928,11104.0,16.625,-315.0,-771.09375,0.0,0.125,2.047118931,3.711562399950824,0.0,4214.0,13.875,382.5,771.09375,0.0,0.25,0.24291989700000002,3.724757999950649,-0.021972654000000258,1.4199999570846558,-1.659999966621399,0.03999999910593033,0.00750732421875,0.14056396484375,1.0001220703125,35.849998474121094,0.0,36.0,-0.1880950927734375,0.641693115234375,Waiting,0.0,0.0,0.0,0.0,0.0,0.0,0.0,0.0,
2.6486719999999995,0.0,0.0,5862.0,1.625,307.5,771.0937499999999,0.0,0.125,2.03857401,1.2376220213318294,0.0,456.0,0.5,-420.0,-771.0937499999999,0.0,0.25,1.6320799110000002,1.245514904249018,0.009765624000000361,11104.0,16.375,-367.5,-771.0937499999999,0.0,0.125,2.045898228,3.7148626667486315,0.0,4214.0,12.875,487.5,771.0937499999999,0.0,0.25,0.234374976,3.7280700000822558,0.0,1.559999942779541,-1.6799999475479126,0.23999999463558197,0.0467529296875,0.2198486328125,1.23919677734375,35.849998474121094,0.0,83.0,-0.1923828125,0.649078369140625,Waiting,0.0,0.0,0.0,0.0,0.0,0.0,0.0,0.0,
2.671675,0.0,0.0,5862.0,1.625,337.5,771.09375,0.0,0.125,2.03857401,1.2388575839263558,0.0012207029999999897,456.0,0.5,-435.0,-771.09375,0.0,0.25,1.640624832,1.246758346592553,0.004882811999999959,11104.0,15.25,-495.0,-771.09375,0.0,0.125,2.047118931,3.7161002665929015,0.0,4214.0,12.375,540.0,771.09375,0.0,0.375,0.24291989700000002,3.7293119999259727,0.0,1.6399999856948853,-1.590000033378601,0.3400000035762787,-0.01483154296875,0.2105712890625,0.8123779296875,35.849998474121094,0.0,8.0,-0.194427490234375,0.65313720703125,Waiting,0.0,0.0,0.0,0.0,0.0,0.0,0.0,0.0,
2.6907129999999997,0.0,0.0,5862.0,1.625,382.5,771.09375,0.0,0.25,2.03857401,1.2418778486145603,-0.0012207029999999897,456.0,0.5,-435.0,-771.09375,0.0,0.25,1.641845535,1.249797872893069,0.006103514999999504,11104.0,15.25,-495.0,-771.09375,0.0,0.125,2.045898228,3.719125511225861,0.0,4214.0,11.625,585.0,771.09375,0.0,0.375,0.252685521,3.7323480001151577,0.0,1.8600000143051147,-1.5499999523162842,0.5899999737739563,-0.04541015625,0.007568359375,0.9130859375,35.849998474121094,0.0,-20.0,-0.1983489990234375,0.661773681640625,Waiting,0.0,0.0,0.0,0.0,0.0,0.0,0.0,0.0,
2.7176660000000004,0.0,0.0,5862.0,1.5,472.5,771.09375,0.0,0.125,2.03857401,1.2436625498899576,0.0012207029999999897,456.0,0.625,-450.0,-771.09375,0.0,0.25,1.646728347,1.2515939560265505,0.003662109000000413,11104.0,13.375,-607.5,-771.09375,0.0,0.125,2.045898228,3.72091315519492,0.0,4214.0,11.375,622.5,771.09375,0.0,0.375,0.272216769,3.7341419996380822,0.014648435999999876,1.8799999952316284,-1.5700000524520874,0.7099999785423279,0.0670166015625,0.1446533203125,1.08441162109375,35.77000045776367,0.0,98.0,-0.2002410888671875,0.6661834716796875,Waiting,0.0,0.0,0.0,0.0,0.0,0.0,0.0,0.0,
2.7342649999999993,0.0,0.0,5948.0,1.25,472.5,771.09375,0.0,0.125,2.039794713,1.24530996695542,-0.0012207029999999897,378.0,0.625,-465.0,-771.09375,0.0,0.25,1.646728347,1.2532518794257637,0.0012207029999995456,10994.0,12.625,-660.0,-771.09375,0.0,0.125,2.047118931,3.7225632885938236,0.0,4323.0,10.5,652.5,771.09375,0.0,0.375,0.281982393,3.7357979997038857,0.014648435999999876,1.940000057220459,-1.5499999523162842,0.949999988079071,-0.0201416015625,0.200439453125,1.052490234375,35.77000045776367,0.0,11.0,-0.2038116455078125,0.6755828857421875,Waiting,0.0,0.0,0.0,0.0,0.0,0.0,0.0,0.0,
2.760411,0.0,0.0,5948.0,1.125,547.5,771.0937500000001,0.0,0.125,2.03857401,1.248604801086345,0.0,378.0,0.75,-495.0,-771.0937500000001,0.0,0.25,1.645507644,1.2565677262241903,0.0,10994.0,11.875,-697.5,-771.0937500000001,0.0,0.125,2.045898228,3.7258635553916313,0.0,4323.0,9.75,690.0,771.0937500000001,0.0,0.375,0.29663082900000004,3.7391099998354926,0.0,2.059999942779541,-1.5399999618530273,1.0800000429153442,-0.0147705078125,-0.076416015625,1.03900146484375,35.77000045776367,0.0,11.0,-0.2038116455078125,0.6804351806640625,Waiting,0.0,0.0,0.0,0.0,0.0,0.0,0.0,0.0,
