Time,ClimberA1,ClimberA2,FRpos,FRCurrent,FRspeed,FRsetpoint,FRApos,FRACurrent,FREncpos,FREncSetpoint,FREncSpeed,FLpos,FLCurrent,FLspeed,FLsetpoint,FLApos,FLACurrent,FLEncpos,FLEncSetpoint,FLEncSpeed,BRpos,BRCurrent,BRspeed,BRsetpoint,BRApos,BRACurrent,BREncpos,BREncSetpoint,BREncSpeed,BLpos,BLCurrent,BLspeed,BLsetpoint,BLApos,BLACurrent,BLEncpos,BLEncSetpoint,BLEncSpeed,navx_Pitch,navx_Roll,navx_Yaw,navx_XAcc,navx_YAcc,navx_ZAcc,navx_Temp,navx_Bar,navx_Alt,navx_XDis,navx_YDis,GearPlacerState,ShootOutputV,ShootOutputCurrent,ShootEncPos,ShootEncVelocity,ShootSpeed,ShootSetpoint,CarouselSetpoint,CarouselCurrent,
0.12002100000006613,0.0,0.0,32326.0,0.0,0.0,0.0,0.0,0.25,0.810546792,0.0,0.0,-13475.0,0.125,0.0,-0.0,0.0,0.25,0.46142573400000003,0.0,0.0,27192.0,0.0,0.0,0.0,0.0,0.0,3.2568356040000004,0.0,0.0,-5496.0,0.125,0.0,-0.0,0.0,0.125,1.6052244450000002,0.0,0.0,0.33000001311302185,-0.5699999928474426,-0.009999999776482582,-0.0106201171875,0.0040283203125,1.020263671875,35.779998779296875,0.0,0.0,1.39788818359375,0.7765350341796875,Waiting,0.0,0.0,0.0,0.0,0.0,0.0,0.0,0.0,
0.29541500000003723,0.0,0.0,32326.0,0.0,0.0,0.0,0.0,0.25,0.810546792,0.0,0.0,-13475.0,0.125,0.0,-0.0,0.0,0.25,0.462646437,0.0,0.0,27192.0,0.0,0.0,0.0,0.0,0.0,3.2580563070000004,0.0,0.0,-5496.0,0.125,0.0,-0.0,0.0,0.125,1.6052244450000002,0.0,0.0,0.33000001311302185,-0.5699999928474426,-0.019999999552965164,-0.0089111328125,0.003173828125,1.0211181640625,35.81999969482422,0.0,1.0,1.39788818359375,0.7765350341796875,Waiting,0.0,0.0,0.0,0.0,0.0,0.0,0.0,0.0,
0.4759350000000559,0.0,0.0,32326.0,0.0,0.0,0.0,0.0,0.125,0.810546792,0.0,0.0,-13475.0,0.125,0.0,-0.0,0.0,0.25,0.462646437,0.0,0.0,27192.0,0.0,0.0,0.0,0.0,0.0,3.2568356040000004,0.0,0.0,-5496.0,0.125,0.0,-0.0,0.0,0.125,1.6052244450000002,0.0,0.0,0.33000001311302185,-0.5600000023841858,-0.029999999329447746,-0.00787353515625,0.00408935546875,1.01690673828125,35.81999969482422,0.0,2.0,1.39788818359375,0.7765350341796875,Waiting,0.0,0.0,0.0,0.0,0.0,0.0,0.0,0.0,
0.6560840000000316,0.0,0.0,32326.0,0.0,0.0,0.0,0.0,0.125,0.810546792,0.0,0.0,-13475.0,0.0,0.0,-0.0,0.0,0.25,0.462646437,0.0,0.0,27192.0,0.0,0.0,0.0,0.0,0.0,3.2568356040000004,0.0,0.0,-5496.0,0.125,0.0,-0.0,0.0,0.125,1.6052244450000002,0.0,0.0,0.33000001311302185,-0.5600000023841858,-0.05000000074505806,-0.01239013671875,0.00836181640625,1.01727294921875,35.81999969482422,0.0,-2.0,1.39788818359375,0.7765350341796875,Waiting,0.0,0.0,0.0,0.0,0.0,0.0,0.0,0.0,
0.8345750000000699,0.0,0.0,32326.0,0.0,0.0,0.0,0.0,0.125,0.811767495,0.0,0.0,-13475.0,0.0,0.0,-0.0,0.0,0.25,0.462646437,0.0,0.0,27192.0,0.0,0.0,0.0,0.0,0.0,3.2568356040000004,0.0,0.0,-5496.0,0.125,0.0,-0.0,0.0,0.125,1.6052244450000002,0.0,0.0,0.33000001311302185,-0.5699999928474426,-0.05999999865889549,-0.00689697265625,0.00433349609375,1.01971435546875,35.81999969482422,0.0,3.0,1.39788818359375,0.7765350341796875,Waiting,0.0,0.0,0.0,0.0,0.0,0.0,0.0,0.0,
1.0106870000000345,0.0,0.0,32326.0,0.0,0.0,0.0,0.0,0.25,0.810546792,0.0,0.0,-13475.0,0.125,0.0,-0.0,0.0,0.25,0.462646437,0.0,0.0,27192.0,0.0,0.0,0.0,0.0,0.0,3.2568356040000004,0.0,0.0,-5496.0,0.125,0.0,-0.0,0.0,0.125,1.6052244450000002,0.0,0.0,0.33000001311302185,-0.5600000023841858,-0.07000000029802322,-0.0091552734375,0.00775146484375,1.0211181640625,35.81999969482422,0.0,0.0,1.39788818359375,0.7765350341796875,Waiting,0.0,0.0,0.0,0.0,0.0,0.0,0.0,0.0,
1.1941859999999869,0.0,0.0,32326.0,0.0,0.0,0.0,0.0,0.25,0.810546792,0.0,0.0,-13475.0,0.125,0.0,-0.0,0.0,0.25,0.462646437,0.0,0.0,27192.0,0.0,0.0,0.0,0.0,0.0,3.2568356040000004,0.0,0.0,-5496.0,0.125,0.0,-0.0,0.0,0.125,1.6052244450000002,0.0,0.0,0.33000001311302185,-0.5600000023841858,-0.07999999821186066,-0.01055908203125,0.00408935546875,1.02032470703125,35.81999969482422,0.0,0.0,1.39788818359375,0.7765350341796875,Waiting,0.0,0.0,0.0,0.0,0.0,0.0,0.0,0.0,
1.3759480000000912,0.0,0.0,32326.0,0.0,0.0,0.0,0.0,0.25,0.811767495,0.0,0.0,-13475.0,0.125,0.0,-0.0,0.0,0.25,0.46142573400000003,0.0,0.0,27192.0,0.0,0.0,0.0,0.0,0.0,3.2568356040000004,0.0,0.0,-5496.0,0.125,0.0,-0.0,0.0,0.125,1.6052244450000002,0.0,0.0,0.33000001311302185,-0.550000011920929,-0.09000000357627869,-0.01123046875,0.005126953125,1.01580810546875,35.810001373291016,0.0,-1.0,1.39788818359375,0.7765350341796875,Waiting,0.0,0.0,0.0,0.0,0.0,0.0,0.0,0.0,
1.5565050000000047,0.0,0.0,32326.0,0.0,0.0,0.0,0.0,0.25,0.810546792,0.0,0.0,-13475.0,0.125,0.0,-0.0,0.0,0.25,0.462646437,0.0,0.0,27192.0,0.0,0.0,0.0,0.0,0.0,3.2568356040000004,0.0,0.0,-5496.0,0.125,0.0,-0.0,0.0,0.125,1.6052244450000002,0.0,0.0,0.33000001311302185,-0.5600000023841858,-0.10999999940395355,-0.01068115234375,0.0067138671875,1.01904296875,35.810001373291016,0.0,0.0,1.39788818359375,0.7765350341796875,Waiting,0.0,0.0,0.0,0.0,0.0,0.0,0.0,0.125,
1.7412320000000763,0.0,0.0,32306.0,2.0,-120.0,-611.8110448122025,0.0,0.25,0.822753822,4.942250999999997,0.0,-13458.0,3.875,105.0,611.8110448122025,0.0,0.25,0.457763625,4.973769999999997,0.0,27154.0,1.625,-262.5,-611.8110448122025,0.0,0.0,3.2653805250000003,2.3449805060712E-15,0.0,-5480.0,3.0,112.5,611.8110448122025,0.0,0.125,1.5844724940000001,2.3533175408374518E-15,0.0,0.25999999046325684,-0.9800000190734863,-0.019999999552965164,-0.07440185546875,-0.05438232421875,0.7239990234375,35.84000015258789,0.0,-61.0,1.391571044921875,0.7749176025390625,Waiting,0.0,0.0,0.0,0.0,0.0,0.0,0.0,0.0,
1.9262449999999953,0.0,0.0,32274.0,3.125,-315.0,-628.3464699983597,0.0,0.125,0.825195228,4.942250999999997,0.0,-13375.0,5.25,285.0,628.3464699983597,0.0,0.25,0.45166011,4.973769999999997,0.0,27065.0,2.75,-330.0,-628.3464699983597,0.0,0.125,3.2653805250000003,2.3449805060712E-15,0.0,-5402.0,4.625,292.5,628.3464699983597,0.0,0.125,1.5295408590000001,2.3533175408374518E-15,0.0,0.3199999928474426,-1.8600000143051147,0.3100000023841858,-0.1363525390625,-0.0042724609375,1.04583740234375,35.84000015258789,0.0,-102.0,1.3679656982421875,0.7724151611328125,Waiting,0.0,0.0,0.0,0.0,0.0,0.0,0.0,0.0,
2.1099670000000623,0.0,0.0,32129.0,2.375,-540.0,-628.3464699983597,0.0,0.25,0.826415931,4.942250999999997,0.0,-13301.0,4.5,517.5,628.3464699983597,0.0,0.25,0.457763625,4.973769999999997,0.0,26982.0,2.125,-547.5,-628.3464699983597,0.0,0.0,3.2653805250000003,2.3449805060712E-15,0.0,-5329.0,5.625,502.5,628.3464699983597,0.0,0.25,1.573486167,2.3533175408374518E-15,0.0,0.23999999463558197,-2.490000009536743,1.090000033378601,-0.18048095703125,0.0567626953125,1.182861328125,35.84000015258789,0.0,-127.0,1.3264007568359375,0.7670135498046875,Waiting,0.0,0.0,0.0,0.0,0.0,0.0,0.0,0.0,
2.2954210000000894,0.0,0.0,31923.0,1.375,-645.0,-628.3464699983597,0.0,0.25,0.825195228,4.942250999999997,0.0,-13105.0,3.375,622.5,628.3464699983597,0.0,0.25,0.46020503100000004,4.973769999999997,0.0,26789.0,1.5,-615.0,-628.3464699983597,0.0,0.125,3.2678219310000003,2.3449805060712E-15,0.0,-5153.0,3.375,652.5,628.3464699983597,0.0,0.25,1.590576009,2.3533175408374518E-15,0.0,0.18000000715255737,-2.4600000381469727,1.559999942779541,-0.00677490234375,0.03399658203125,1.23773193359375,35.810001373291016,0.0,47.0,1.28082275390625,0.7638092041015625,Waiting,0.0,0.0,0.0,0.0,0.0,0.0,0.0,0.0,
2.486917000000016,0.0,0.0,31811.0,0.75,-682.5,-628.3464699983597,0.0,0.125,0.823974525,4.942250999999997,0.0,-12999.0,2.5,675.0,628.3464699983597,0.0,0.25,0.458984328,4.973769999999997,0.0,26680.0,0.875,-667.5,-628.3464699983597,0.0,0.125,3.2666012280000003,2.3449805060712E-15,0.0,-5044.0,3.25,690.0,628.3464699983597,0.0,0.125,1.590576009,2.3533175408374518E-15,0.0,0.1599999964237213,-2.390000104904175,2.0199999809265137,-0.0142822265625,-0.031982421875,1.30181884765625,35.810001373291016,0.0,38.0,1.236419677734375,0.760833740234375,Waiting,0.0,0.0,0.0,0.0,0.0,0.0,0.0,0.125,
2.6794940000000644,0.0,0.0,31595.0,0.75,-660.0,-628.3464699983597,0.0,0.25,0.825195228,4.942250999999997,0.0,-12781.0,2.25,667.5,628.3464699983597,0.0,0.25,0.457763625,4.973769999999997,0.0,26469.0,0.875,-697.5,-628.3464699983597,0.0,0.125,3.2666012280000003,2.3449805060712E-15,0.0,-4836.0,3.125,660.0,628.3464699983597,0.0,0.125,1.596679524,2.3533175408374518E-15,0.0,0.20999999344348907,-2.0999999046325684,2.390000104904175,-0.0118408203125,0.13458251953125,0.94818115234375,35.810001373291016,0.0,28.0,1.2118682861328125,0.76251220703125,Waiting,0.0,0.0,0.0,0.0,0.0,0.0,0.0,0.0,
2.8685289999999806,0.0,0.0,31497.0,0.375,-472.5,-405.96806205777807,0.0,0.75,4.722899907,4.202987116120406,0.0,-12669.0,6.0,877.5,1068.7205950976972,0.0,0.5,0.133056627,4.72698731070247,0.0,26374.0,0.625,-427.5,-405.96806205777807,0.0,1.0,4.2907710450000005,0.7404828145631496,0.0,-4588.0,6.0,832.5,1068.7205950976972,0.0,0.375,1.909179492,0.2464964002014826,0.0,0.4000000059604645,-1.4500000476837158,-0.07999999821186066,0.09674072265625,-0.20428466796875,1.07745361328125,35.83000183105469,0.0,124.0,1.2115325927734375,0.7831573486328125,Waiting,0.0,0.0,0.0,0.0,0.0,0.0,0.0,0.0,
3.0615380000000587,0.0,0.0,31348.0,0.375,-510.0,-438.7406198156574,0.0,0.5,4.855956534000001,4.186770305314624,0.0,-12336.0,4.0,1125.0,1161.4887383235207,0.0,0.25,0.054931635000000006,4.724645688925953,0.0,26225.0,0.875,-427.5,-438.7406198156574,0.0,0.25,4.1357417640000005,0.7567263643571485,0.0,-4421.0,6.625,1087.5,1161.4887383235207,0.0,0.25,1.962890424,0.2488353054958035,0.0,0.23000000417232513,-1.1299999952316284,-12.970000267028809,8.544921875E-4,-0.164794921875,0.94879150390625,35.83000183105469,0.0,57.0,1.22564697265625,0.80224609375,Waiting,0.0,0.0,0.0,0.0,0.0,0.0,0.0,0.0,
3.2613390000000364,0.0,0.0,31205.0,0.625,-420.0,-438.7406198156574,0.0,0.375,0.14648436,4.186770305314624,0.0,-11989.0,5.75,1042.5,1161.4887383235207,0.0,0.5,0.072021477,4.724645688925953,0.0,26134.0,2.25,-322.5,-438.7406198156574,0.0,0.25,3.908691006,0.7567263643571485,0.0,-4092.0,8.5,1012.5,1161.4887383235207,0.0,0.5,1.8908689470000002,0.2488353054958035,0.0,-0.14000000059604645,-1.559999942779541,-22.940000534057617,-0.0745849609375,-0.137939453125,1.18939208984375,35.79999923706055,0.0,13.0,1.2342071533203125,0.80718994140625,Waiting,0.0,0.0,0.0,0.0,0.0,0.0,0.0,0.0,
3.4551610000000803,0.0,0.0,31131.0,0.625,-472.5,-521.9677028608777,0.0,0.625,0.615234312,4.682599400305987,0.0,-11824.0,3.375,982.5,911.0377905301312,0.0,0.75,0.196533183,4.825902886233245,0.0,26076.0,3.125,-345.0,-521.9677028608777,0.0,0.375,3.3740230920000003,0.2600797246285631,0.0,-3938.0,5.875,990.0,911.0377905301312,0.0,0.5,1.624755693,0.14769557522628468,0.0,-0.28999999165534973,-1.5800000429153442,-30.690000534057617,-0.10076904296875,-0.016357421875,0.73736572265625,35.79999923706055,0.0,-62.0,1.2414398193359375,0.809295654296875,Waiting,0.0,0.0,0.0,0.0,0.0,0.0,0.0,0.0,
3.6496570000000066,0.0,0.0,30945.0,0.625,-675.0,-694.4881707429886,0.0,0.5,0.9362792010000001,4.942250999999997,0.0,-11541.0,2.625,765.0,694.4881707429886,0.0,0.5,0.438232377,4.973769999999997,0.0,25934.0,3.75,-517.5,-694.4881707429886,0.0,0.125,3.1042477290000003,2.3449805060712E-15,0.0,-3651.0,5.5,735.0,694.4881707429886,0.0,0.25,1.492919769,2.3533175408374518E-15,0.0,-0.41999998688697815,-1.7100000381469727,-33.04999923706055,-0.0408935546875,-0.19091796875,1.125244140625,35.79999923706055,0.0,93.0,1.241912841796875,0.803558349609375,Waiting,0.0,0.0,0.0,0.0,0.0,0.0,0.0,0.0,
3.8486610000000803,0.0,0.0,30708.0,0.375,-742.5,-711.0235959291458,0.0,0.375,0.91552725,4.942250999999997,0.0,-11326.0,4.875,652.5,711.0235959291458,0.0,0.125,0.54931635,4.973769999999997,0.0,25742.0,3.5,-547.5,-711.0235959291458,0.0,0.125,3.2580563070000004,2.3449805060712E-15,0.0,-3439.0,7.375,637.5,711.0235959291458,0.0,0.375,1.567382652,2.3533175408374518E-15,0.0,-0.7200000286102295,-1.350000023841858,-31.18000030517578,-0.1746826171875,-0.091064453125,0.892578125,35.75,0.0,-90.0,1.2510223388671875,0.7993316650390625,Waiting,0.0,0.0,0.0,0.0,0.0,0.0,0.0,0.0,
4.050043999999994,0.0,0.0,30606.0,0.125,-600.0,-499.65932348750744,0.0,0.5,0.345458949,4.580003417844728,0.0,-11208.0,7.375,855.0,999.4264519418915,0.0,0.5,0.33081051300000003,4.796405057439442,0.0,25619.0,0.875,-787.5,-499.65932348750744,0.0,0.25,3.721923447,0.3628448718410809,0.0,-3327.0,10.25,855.0,999.4264519418915,0.0,0.375,1.8188474700000001,0.17715918400747394,0.0,-0.6100000143051147,-1.4199999570846558,-31.540000915527344,0.0997314453125,0.057861328125,0.98297119140625,35.75,0.0,70.0,1.2484893798828125,0.7894134521484375,Waiting,0.0,0.0,0.0,0.0,0.0,0.0,0.0,0.0,
4.250631000000052,0.0,0.0,30430.0,0.125,-495.0,-487.5141721701754,0.0,0.375,0.173339826,4.531415582849206,0.0,-10857.0,2.0,1207.5,1028.6960927297139,0.0,0.25,0.16113279600000002,4.784826591407335,0.0,25429.0,2.5,-442.5,-487.5141721701754,0.0,0.125,3.8500972620000002,0.4115128205878837,0.0,-2989.0,5.75,1177.5,1028.6960927297139,0.0,0.25,1.9152830070000002,0.18872421802543304,0.0,-0.6600000262260437,-1.6100000143051147,-41.709999084472656,-0.13214111328125,-0.07159423828125,1.28192138671875,35.7599983215332,0.0,-33.0,1.2493896484375,0.7854766845703125,Waiting,0.0,0.0,0.0,0.0,0.0,0.0,0.0,0.0,
4.440734999999986,0.0,0.0,30346.0,0.125,-480.0,-487.5141721701754,0.0,0.5,0.384521445,4.531415582849206,0.0,-10670.0,1.625,1125.0,1028.6960927297139,0.0,0.25,0.163574202,4.784826591407335,0.0,25361.0,3.0,-427.5,-487.5141721701754,0.0,0.25,3.664550406,0.4115128205878837,0.0,-2632.0,5.375,1117.5,1028.6960927297139,0.0,0.5,1.881103323,0.18872421802543304,0.0,-0.9300000071525574,-1.440000057220459,-50.0,0.0260009765625,-0.173583984375,0.94512939453125,35.7599983215332,0.0,153.0,1.25604248046875,0.7754669189453125,Waiting,0.0,0.0,0.0,0.0,0.0,0.0,0.0,0.0,
4.623875,0.0,0.0,30200.0,0.125,-435.0,-165.35433009266853,0.0,0.75,0.9191893590000001,4.942250999999997,0.0,-10384.0,0.25,637.5,165.35433009266853,0.0,0.75,0.3662109,4.973769999999997,0.0,25234.0,1.75,-315.0,-165.35433009266853,0.0,0.375,3.1005856200000004,2.3449805060712E-15,0.0,-2510.0,0.5,727.5,165.35433009266853,0.0,0.5,1.51367172,2.3533175408374518E-15,0.0,-0.9900000095367432,-0.9599999785423279,-55.41999816894531,0.07330322265625,-0.21343994140625,0.9520263671875,35.7599983215332,0.0,212.0,1.2725982666015625,0.7696533203125,Waiting,0.0,0.0,0.0,0.0,0.0,0.0,0.0,0.0,
4.808724000000046,0.0,0.0,30142.0,0.0,-60.0,0.0,0.0,0.375,1.046142471,4.942250999999997,0.0,-10303.0,0.125,75.0,0.0,0.0,0.25,0.496826121,4.973769999999997,0.0,25197.0,0.0,-60.0,0.0,0.0,0.125,3.095702808,2.3449805060712E-15,0.0,-2427.0,0.125,82.5,0.0,0.0,0.375,1.441650243,2.3533175408374518E-15,0.0,-1.1399999856948853,1.2100000381469727,-55.970001220703125,0.02789306640625,0.04010009765625,1.1661376953125,35.7599983215332,0.0,-50.0,1.31488037109375,0.7993011474609375,Waiting,0.0,0.0,0.0,0.0,0.0,0.0,0.0,0.0,
4.994918999999994,0.0,0.0,30145.0,0.0,67.5,0.0,0.0,0.375,0.8056639800000001,4.942250999999997,0.0,-10303.0,0.125,0.0,0.0,0.0,0.25,0.48706049700000004,4.973769999999997,0.0,25196.0,0.0,0.0,0.0,0.0,0.125,3.300780912,2.3449805060712E-15,0.0,-2428.0,0.125,-7.5,0.0,0.0,0.375,1.571044761,2.3533175408374518E-15,0.0,-0.8799999952316284,0.550000011920929,-56.380001068115234,-0.0902099609375,-0.01043701171875,0.90576171875,35.7599983215332,0.0,-57.0,1.3631591796875,0.8401031494140625,Waiting,0.0,0.0,0.0,0.0,0.0,0.0,0.0,0.0,
5.181423000000068,0.0,0.0,30153.0,0.875,7.5,328.125,0.0,1.125,1.405029153,0.5509316050660396,0.0,-10303.0,1.25,0.0,328.125,0.0,0.875,4.721679204,4.419324851558671,0.0,25214.0,0.75,112.5,328.125,0.0,0.75,2.775878622,4.398559994763738,0.0,-2430.0,1.25,0.0,328.125,0.0,1.375,2.3181149970000003,0.5538019444921097,0.0,-0.6600000262260437,0.2800000011920929,-56.43000030517578,-0.0225830078125,-0.04425048828125,1.03704833984375,35.7599983215332,0.0,11.0,1.3956146240234375,0.852325439453125,Waiting,0.0,0.0,0.0,0.0,0.0,0.0,0.0,0.0,
5.368665000000037,0.0,0.0,30159.0,0.0,0.0,0.0,0.0,0.25,1.5002439870000002,0.5509316050660396,0.0,-10292.0,0.125,15.0,0.0,0.0,0.25,4.6557612420000005,4.419324851558671,0.0,25217.0,0.0,0.0,0.0,0.0,0.125,2.574462627,4.398559994763738,0.0,-2428.0,0.125,0.0,0.0,0.0,0.5,2.347411869,0.5538019444921097,0.0,-0.5899999737739563,0.12999999523162842,-57.13999938964844,-0.04022216796875,-0.001953125,1.03125,35.72999954223633,0.0,-30.0,1.3961944580078125,0.85345458984375,Waiting,0.0,0.0,0.0,0.0,0.0,0.0,0.0,0.0,
5.55125,0.0,0.0,30159.0,0.0,0.0,0.0,0.0,0.375,1.3940428260000002,0.5509316050660396,0.0,-10292.0,0.125,0.0,0.0,0.0,0.25,4.829101068,4.419324851558671,0.0,25217.0,0.0,0.0,0.0,0.0,0.125,2.672118867,4.398559994763738,0.0,-2428.0,0.125,0.0,0.0,0.0,0.5,2.1166990020000003,0.5538019444921097,0.0,-0.5,0.03999999910593033,-57.0099983215332,-0.02294921875,-0.06036376953125,1.04168701171875,35.72999954223633,0.0,29.0,1.3942108154296875,0.8531951904296875,Waiting,0.0,0.0,0.0,0.0,0.0,0.0,0.0,0.125,
5.73408600000001,0.0,0.0,30159.0,0.0,0.0,0.0,0.0,0.25,1.364745954,0.5509316050660396,0.0,-10292.0,0.125,0.0,0.0,0.0,0.0,4.946288556,4.419324851558671,0.0,25217.0,0.0,0.0,0.0,0.0,0.0,2.7355954230000004,4.398559994763738,0.0,-2427.0,0.125,0.0,0.0,0.0,0.25,2.077636506,0.5538019444921097,0.0,-0.4300000071525574,-0.07999999821186066,-57.0099983215332,-0.02264404296875,-0.001220703125,0.997802734375,35.72999954223633,0.0,-16.0,1.393768310546875,0.8528900146484375,Waiting,0.0,0.0,0.0,0.0,0.0,0.0,0.0,0.0,
5.91387200000009,0.0,0.0,30159.0,0.0,0.0,0.0,0.0,0.25,1.364745954,0.5509316050660396,0.0,-10292.0,0.125,0.0,0.0,0.0,0.25,4.884032703,4.419324851558671,0.0,25217.0,0.0,0.0,0.0,0.0,0.125,2.717284878,4.398559994763738,0.0,-2427.0,0.125,0.0,0.0,0.0,0.25,2.1166990020000003,0.5538019444921097,0.0,-0.3499999940395355,-0.1899999976158142,-57.04999923706055,-0.0177001953125,0.00250244140625,1.0064697265625,35.689998626708984,0.0,-15.0,1.3933563232421875,0.8528900146484375,Waiting,0.0,0.0,0.0,0.0,0.0,0.0,0.0,0.0,
6.101597000000067,0.0,0.0,30159.0,0.0,0.0,0.0,0.0,0.125,1.364745954,0.5509316050660396,0.0,-10292.0,0.125,0.0,0.0,0.0,0.25,4.8632807520000005,4.419324851558671,0.0,25217.0,0.0,0.0,0.0,0.0,0.125,2.711181363,4.398559994763738,0.0,-2428.0,0.125,0.0,0.0,0.0,0.25,2.144775171,0.5538019444921097,0.0,-0.2800000011920929,-0.28999999165534973,-57.04999923706055,-0.0169677734375,0.00347900390625,1.02099609375,35.689998626708984,0.0,-13.0,1.3932342529296875,0.8528900146484375,Waiting,0.0,0.0,0.0,0.0,0.0,0.0,0.0,0.0,
6.281679000000004,0.0,0.0,30159.0,0.0,0.0,0.0,0.0,0.25,1.364745954,0.5509316050660396,0.0,-10292.0,0.125,0.0,0.0,0.0,0.125,4.864501455,4.419324851558671,0.0,25217.0,0.0,0.0,0.0,0.0,0.0,2.711181363,4.398559994763738,0.0,-2428.0,0.125,0.0,0.0,0.0,0.125,2.144775171,0.5538019444921097,0.0,-0.2199999988079071,-0.3799999952316284,-57.06999969482422,-0.0146484375,0.00115966796875,1.0169677734375,35.689998626708984,0.0,-8.0,1.3932342529296875,0.8528900146484375,Waiting,0.0,0.0,0.0,0.0,0.0,0.0,0.0,0.0,
6.468125,0.0,0.0,30159.0,0.0,0.0,0.0,0.0,0.25,1.364745954,0.5509316050660396,0.0,-10292.0,0.125,0.0,0.0,0.0,0.125,4.864501455,4.419324851558671,0.0,25217.0,0.0,0.0,0.0,0.0,0.0,2.711181363,4.398559994763738,0.0,-2428.0,0.125,0.0,0.0,0.0,0.125,2.144775171,0.5538019444921097,0.0,-0.18000000715255737,-0.44999998807907104,-57.08000183105469,-0.01336669921875,1.8310546875E-4,1.01568603515625,35.66999816894531,0.0,-5.0,1.3932342529296875,0.8528900146484375,Waiting,0.0,0.0,0.0,0.0,0.0,0.0,0.0,0.125,
6.65307500000007,0.0,0.0,30159.0,0.0,0.0,0.0,0.0,0.25,1.359863142,0.5509316050660396,0.0,-10292.0,0.125,0.0,0.0,0.0,0.125,4.864501455,4.419324851558671,0.0,25217.0,0.0,0.0,0.0,0.0,0.0,2.712402066,4.398559994763738,0.0,-2428.0,0.125,0.0,0.0,0.0,0.125,2.144775171,0.5538019444921097,0.0,-0.12999999523162842,-0.5,-57.099998474121094,-0.0162353515625,0.00286865234375,1.0198974609375,35.66999816894531,0.0,-8.0,1.3932342529296875,0.8528900146484375,Waiting,0.0,0.0,0.0,0.0,0.0,0.0,0.0,0.0,
6.833734000000055,0.0,0.0,30159.0,0.0,0.0,0.0,0.0,0.25,1.365966657,0.5509316050660396,0.0,-10292.0,0.125,0.0,0.0,0.0,0.125,4.859618643,4.419324851558671,0.0,25217.0,0.0,0.0,0.0,0.0,0.0,2.711181363,4.398559994763738,0.0,-2428.0,0.125,0.0,0.0,0.0,0.125,2.143554468,0.5538019444921097,0.0,-0.10000000149011612,-0.5600000023841858,-57.119998931884766,-0.01580810546875,0.00244140625,1.01812744140625,35.63999938964844,0.0,-6.0,1.3932342529296875,0.8528900146484375,Waiting,0.0,0.0,0.0,0.0,0.0,0.0,0.0,0.0,
7.012408000000054,0.0,0.0,30159.0,0.0,0.0,0.0,0.0,0.125,1.364745954,0.5509316050660396,0.0,-10292.0,0.125,0.0,0.0,0.0,0.125,4.864501455,4.419324851558671,0.0,25217.0,0.0,0.0,0.0,0.0,0.0,2.711181363,4.398559994763738,0.0,-2428.0,0.125,0.0,0.0,0.0,0.125,2.144775171,0.5538019444921097,0.0,-0.07999999821186066,-0.6000000238418579,-57.130001068115234,-0.01580810546875,4.2724609375E-4,1.01776123046875,35.63999938964844,0.0,-4.0,1.3932342529296875,0.8528900146484375,Waiting,0.0,0.0,0.0,0.0,0.0,0.0,0.0,0.0,
7.194800000000047,0.0,0.0,30159.0,0.0,0.0,0.0,0.0,0.25,1.364745954,0.5509316050660396,0.0,-10292.0,0.125,0.0,0.0,0.0,0.125,4.864501455,4.419324851558671,0.0,25217.0,0.0,0.0,0.0,0.0,0.0,2.711181363,4.398559994763738,0.0,-2428.0,0.125,0.0,0.0,0.0,0.125,2.144775171,0.5538019444921097,0.0,-0.05999999865889549,-0.6399999856948853,-57.13999938964844,-0.01409912109375,0.00152587890625,1.01910400390625,35.63999938964844,0.0,-3.0,1.3932342529296875,0.8528900146484375,Waiting,0.0,0.0,0.0,0.0,0.0,0.0,0.0,0.0,
7.375228000000003,0.0,0.0,30159.0,0.0,0.0,0.0,0.0,0.25,1.364745954,0.5509316050660396,0.0,-10292.0,0.125,0.0,0.0,0.0,0.125,4.864501455,4.419324851558671,0.0,25217.0,0.0,0.0,0.0,0.0,0.0,2.711181363,4.398559994763738,0.0,-2428.0,0.125,0.0,0.0,0.0,0.125,2.144775171,0.5538019444921097,0.0,-0.029999999329447746,-0.6800000071525574,-57.150001525878906,-0.01617431640625,4.2724609375E-4,1.01708984375,35.630001068115234,0.0,-3.0,1.3932342529296875,0.8528900146484375,Waiting,0.0,0.0,0.0,0.0,0.0,0.0,0.0,0.125,
7.555910000000033,0.0,0.0,30159.0,0.0,0.0,0.0,0.0,0.125,1.364745954,0.5509316050660396,0.0,-10292.0,0.125,0.0,0.0,0.0,0.125,4.864501455,4.419324851558671,0.0,25217.0,0.0,0.0,0.0,0.0,0.0,2.711181363,4.398559994763738,0.0,-2428.0,0.125,0.0,0.0,0.0,0.125,2.144775171,0.5538019444921097,0.0,-0.009999999776482582,-0.7099999785423279,-57.16999816894531,-0.016845703125,0.0015869140625,1.016357421875,35.630001068115234,0.0,-3.0,1.3932342529296875,0.8528900146484375,Waiting,0.0,0.0,0.0,0.0,0.0,0.0,0.0,0.125,
7.746616000000039,0.0,0.0,30159.0,0.0,0.0,0.0,0.0,0.125,1.364745954,0.5509316050660396,0.0,-10292.0,0.125,0.0,0.0,0.0,0.125,4.858397940000001,4.419324851558671,0.0,25217.0,0.0,0.0,0.0,0.0,0.0,2.711181363,4.398559994763738,0.0,-2428.0,0.125,0.0,0.0,0.0,0.125,2.144775171,0.5538019444921097,0.0,0.0,-0.7400000095367432,-57.18000030517578,-0.0174560546875,6.103515625E-4,1.0145263671875,35.630001068115234,0.0,-2.0,1.3932342529296875,0.8528900146484375,Waiting,0.0,0.0,0.0,0.0,0.0,0.0,0.0,0.125,
7.9282820000000065,0.0,0.0,30159.0,0.0,0.0,0.0,0.0,0.25,1.364745954,0.5509316050660396,0.0,-10292.0,0.0,0.0,0.0,0.0,0.125,4.864501455,4.419324851558671,0.0,25217.0,0.0,0.0,0.0,0.0,0.0,2.711181363,4.398559994763738,0.0,-2428.0,0.125,0.0,0.0,0.0,0.125,2.144775171,0.5538019444921097,0.0,0.009999999776482582,-0.7599999904632568,-57.189998626708984,-0.0172119140625,0.0013427734375,1.01922607421875,35.65999984741211,0.0,-2.0,1.3932342529296875,0.8528900146484375,Waiting,0.0,0.0,0.0,0.0,0.0,0.0,0.0,0.0,
8.111766999999993,0.0,0.0,30159.0,0.0,0.0,0.0,0.0,0.25,1.364745954,0.5509316050660396,0.0,-10292.0,0.125,0.0,0.0,0.0,0.125,4.864501455,4.419324851558671,0.0,25217.0,0.0,0.0,0.0,0.0,0.0,2.711181363,4.398559994763738,0.0,-2428.0,0.125,0.0,0.0,0.0,0.125,2.144775171,0.5538019444921097,0.0,0.019999999552965164,-0.7799999713897705,-57.209999084472656,-0.01556396484375,0.0029296875,1.01513671875,35.65999984741211,0.0,-2.0,1.3932342529296875,0.8528900146484375,Waiting,0.0,0.0,0.0,0.0,0.0,0.0,0.0,0.125,
8.292298000000068,0.0,0.0,30159.0,0.0,0.0,0.0,0.0,0.125,1.365966657,0.5509316050660396,0.0,-10292.0,0.125,0.0,0.0,0.0,0.125,4.859618643,4.419324851558671,0.0,25217.0,0.0,0.0,0.0,0.0,0.0,2.711181363,4.398559994763738,0.0,-2428.0,0.125,0.0,0.0,0.0,0.125,2.144775171,0.5538019444921097,0.0,0.029999999329447746,-0.800000011920929,-57.220001220703125,-0.01654052734375,0.00390625,1.01953125,35.65999984741211,0.0,-3.0,1.3932342529296875,0.8528900146484375,Waiting,0.0,0.0,0.0,0.0,0.0,0.0,0.0,0.0,
8.470252000000094,0.0,0.0,30159.0,0.0,0.0,0.0,0.0,0.25,1.364745954,0.5509316050660396,0.0,-10292.0,0.125,0.0,0.0,0.0,0.125,4.864501455,4.419324851558671,0.0,25217.0,0.0,0.0,0.0,0.0,0.0,2.711181363,4.398559994763738,0.0,-2428.0,0.125,0.0,0.0,0.0,0.125,2.143554468,0.5538019444921097,0.0,0.03999999910593033,-0.8199999928474426,-57.2400016784668,-0.013671875,0.0047607421875,1.0223388671875,35.689998626708984,0.0,-2.0,1.3932342529296875,0.8528900146484375,Waiting,0.0,0.0,0.0,0.0,0.0,0.0,0.0,0.0,
8.65391100000008,0.0,0.0,30159.0,0.0,0.0,0.0,0.0,0.25,1.364745954,0.5509316050660396,0.0,-10292.0,0.125,0.0,0.0,0.0,0.125,4.864501455,4.419324851558671,0.0,25217.0,0.0,0.0,0.0,0.0,0.0,2.711181363,4.398559994763738,0.0,-2428.0,0.125,0.0,0.0,0.0,0.125,2.143554468,0.5538019444921097,0.0,0.05000000074505806,-0.8299999833106995,-57.25,-0.01776123046875,0.0015869140625,1.01470947265625,35.689998626708984,0.0,-2.0,1.3932342529296875,0.8528900146484375,Waiting,0.0,0.0,0.0,0.0,0.0,0.0,0.0,0.0,
8.843717999999994,0.0,0.0,30159.0,0.0,0.0,0.0,0.0,0.125,1.364745954,0.5509316050660396,0.0,-10292.0,0.0,0.0,0.0,0.0,0.125,4.858397940000001,4.419324851558671,0.0,25217.0,0.0,0.0,0.0,0.0,0.0,2.711181363,4.398559994763738,0.0,-2428.0,0.125,0.0,0.0,0.0,0.125,2.144775171,0.5538019444921097,0.0,0.05999999865889549,-0.8500000238418579,-57.2599983215332,-0.0172119140625,0.00347900390625,1.01739501953125,35.689998626708984,0.0,-3.0,1.3932342529296875,0.8528900146484375,Waiting,0.0,0.0,0.0,0.0,0.0,0.0,0.0,0.0,
9.026395000000019,0.0,0.0,30159.0,0.0,0.0,0.0,0.0,0.25,1.359863142,0.5509316050660396,0.0,-10292.0,0.125,0.0,0.0,0.0,0.125,4.864501455,4.419324851558671,0.0,25217.0,0.0,0.0,0.0,0.0,0.0,2.711181363,4.398559994763738,0.0,-2428.0,0.125,0.0,0.0,0.0,0.125,2.144775171,0.5538019444921097,0.0,0.05000000074505806,-0.8700000047683716,-57.27000045776367,-0.01885986328125,0.00189208984375,1.0189208984375,35.66999816894531,0.0,-2.0,1.3932342529296875,0.8528900146484375,Waiting,0.0,0.0,0.0,0.0,0.0,0.0,0.0,0.0,
9.216885000000008,0.0,0.0,30159.0,0.0,0.0,0.0,0.0,0.125,1.364745954,0.5509316050660396,0.0,-10292.0,0.125,0.0,0.0,0.0,0.125,4.8632807520000005,4.419324851558671,0.0,25217.0,0.0,0.0,0.0,0.0,0.0,2.70996066,4.398559994763738,0.0,-2428.0,0.125,0.0,0.0,0.0,0.125,2.144775171,0.5538019444921097,0.0,0.05999999865889549,-0.8799999952316284,-57.290000915527344,-0.0164794921875,-4.2724609375E-4,1.0142822265625,35.66999816894531,0.0,0.0,1.3932342529296875,0.8528900146484375,Waiting,0.0,0.0,0.0,0.0,0.0,0.0,0.0,0.0,
9.397131000000051,0.0,0.0,30159.0,0.0,0.0,0.0,0.0,0.25,1.364745954,0.5509316050660396,0.0,-10292.0,0.125,0.0,0.0,0.0,0.125,4.864501455,4.419324851558671,0.0,25217.0,0.0,0.0,0.0,0.0,0.0,2.711181363,4.398559994763738,0.0,-2428.0,0.125,0.0,0.0,0.0,0.125,2.144775171,0.5538019444921097,0.0,0.07000000029802322,-0.8899999856948853,-57.29999923706055,-0.0181884765625,0.00274658203125,1.018310546875,35.68000030517578,0.0,-2.0,1.3932342529296875,0.8528900146484375,Waiting,0.0,0.0,0.0,0.0,0.0,0.0,0.0,0.125,
9.584358000000007,0.0,0.0,30159.0,0.0,0.0,0.0,0.0,0.25,1.364745954,0.5509316050660396,0.0,-10292.0,0.0,0.0,0.0,0.0,0.125,4.8632807520000005,4.419324851558671,0.0,25217.0,0.0,0.0,0.0,0.0,0.0,2.711181363,4.398559994763738,0.0,-2428.0,0.125,0.0,0.0,0.0,0.125,2.144775171,0.5538019444921097,0.0,0.07999999821186066,-0.8999999761581421,-57.310001373291016,-0.01507568359375,0.0023193359375,1.027099609375,35.68000030517578,0.0,0.0,1.3932342529296875,0.8528900146484375,Waiting,0.0,0.0,0.0,0.0,0.0,0.0,0.0,0.0,
9.769877000000095,0.0,0.0,30159.0,0.0,0.0,0.0,0.0,0.25,1.364745954,0.5509316050660396,0.0,-10292.0,0.125,0.0,0.0,0.0,0.125,4.859618643,4.419324851558671,0.0,25217.0,0.0,0.0,0.0,0.0,0.0,2.711181363,4.398559994763738,0.0,-2428.0,0.125,0.0,0.0,0.0,0.125,2.143554468,0.5538019444921097,0.0,0.07999999821186066,-0.8999999761581421,-57.33000183105469,-0.01519775390625,0.00238037109375,1.0203857421875,35.68000030517578,0.0,0.0,1.3932342529296875,0.8528900146484375,Waiting,0.0,0.0,0.0,0.0,0.0,0.0,0.0,0.0,
9.955359999999986,0.0,0.0,30159.0,0.0,0.0,0.0,0.0,0.25,1.364745954,0.5509316050660396,0.0,-10292.0,0.125,0.0,0.0,0.0,0.125,4.858397940000001,4.419324851558671,0.0,25217.0,0.0,0.0,0.0,0.0,0.0,2.711181363,4.398559994763738,0.0,-2428.0,0.125,0.0,0.0,0.0,0.125,2.144775171,0.5538019444921097,0.0,0.07999999821186066,-0.9100000262260437,-57.34000015258789,-0.0152587890625,0.002685546875,1.02056884765625,35.709999084472656,0.0,0.0,1.3932342529296875,0.8528900146484375,Waiting,0.0,0.0,0.0,0.0,0.0,0.0,0.0,0.0,
10.154277000000002,0.0,0.0,30159.0,0.0,0.0,0.0,0.0,0.25,1.364745954,0.5509316050660396,0.0,-10292.0,0.125,0.0,0.0,0.0,0.125,4.8632807520000005,4.419324851558671,0.0,25217.0,0.0,0.0,0.0,0.0,0.0,2.711181363,4.398559994763738,0.0,-2428.0,0.125,0.0,0.0,0.0,0.125,2.144775171,0.5538019444921097,0.0,0.07999999821186066,-0.9100000262260437,-57.349998474121094,-0.0191650390625,0.0028076171875,1.02197265625,35.709999084472656,0.0,-2.0,1.3932342529296875,0.8528900146484375,Waiting,0.0,0.0,0.0,0.0,0.0,0.0,0.0,0.0,
10.350195000000065,0.0,0.0,30159.0,0.0,0.0,0.0,0.0,0.25,1.364745954,0.5509316050660396,0.0,-10292.0,0.125,0.0,0.0,0.0,0.125,4.8632807520000005,4.419324851558671,0.0,25217.0,0.0,0.0,0.0,0.0,0.0,2.711181363,4.398559994763738,0.0,-2428.0,0.125,0.0,0.0,0.0,0.125,2.144775171,0.5538019444921097,0.0,0.09000000357627869,-0.9100000262260437,-57.369998931884766,-0.01605224609375,3.662109375E-4,1.01580810546875,35.709999084472656,0.0,1.0,1.3932342529296875,0.8528900146484375,Waiting,0.0,0.0,0.0,0.0,0.0,0.0,0.0,0.0,
10.535785000000033,0.0,0.0,30159.0,0.0,0.0,0.0,0.0,0.125,1.365966657,0.5509316050660396,0.0,-10292.0,0.0,0.0,0.0,0.0,0.125,4.862060049,4.419324851558671,0.0,25217.0,0.0,0.0,0.0,0.0,0.0,2.711181363,4.398559994763738,0.0,-2428.0,0.125,0.0,0.0,0.0,0.125,2.144775171,0.5538019444921097,0.0,0.09000000357627869,-0.9200000166893005,-57.380001068115234,-0.01849365234375,0.00164794921875,1.0216064453125,35.7400016784668,0.0,-1.0,1.3932342529296875,0.8528900146484375,Waiting,0.0,0.0,0.0,0.0,0.0,0.0,0.0,0.0,
10.728399000000092,0.0,0.0,30159.0,0.0,0.0,0.0,0.0,0.25,1.364745954,0.5509316050660396,0.0,-10292.0,0.125,0.0,0.0,0.0,0.125,4.8632807520000005,4.419324851558671,0.0,25217.0,0.0,0.0,0.0,0.0,0.0,2.711181363,4.398559994763738,0.0,-2428.0,0.125,0.0,0.0,0.0,0.125,2.144775171,0.5538019444921097,0.0,0.09000000357627869,-0.9200000166893005,-57.400001525878906,-0.0166015625,0.0028076171875,1.0206298828125,35.7400016784668,0.0,0.0,1.3932342529296875,0.8528900146484375,Waiting,0.0,0.0,0.0,0.0,0.0,0.0,0.0,0.0,
10.92858600000001,0.0,0.0,30159.0,0.375,0.0,180.46875,0.0,0.25,1.363525251,0.5509316050660396,0.0,-10292.0,0.5,0.0,180.46875,0.0,0.125,4.866942861,4.419324851558671,0.0,25217.0,0.375,0.0,180.46875,0.0,0.0,2.711181363,4.398559994763738,0.0,-2428.0,0.625,0.0,180.46875,0.0,0.125,2.144775171,0.5538019444921097,0.0,0.10000000149011612,-0.9300000071525574,-57.40999984741211,-0.0181884765625,0.0,1.0208740234375,35.7400016784668,0.0,0.0,1.3932342529296875,0.8528900146484375,Waiting,0.0,0.0,0.0,0.0,0.0,0.0,0.0,0.125,
11.126535000000032,0.0,0.0,30159.0,0.0,0.0,0.0,0.0,0.25,1.364745954,0.5509316050660396,0.0,-10292.0,0.125,0.0,0.0,0.0,0.125,4.859618643,4.419324851558671,0.0,25221.0,0.0,0.0,0.0,0.0,0.0,2.711181363,4.398559994763738,0.0,-2428.0,0.125,0.0,0.0,0.0,0.125,2.144775171,0.5538019444921097,0.0,0.09000000357627869,-0.9200000166893005,-57.43000030517578,-0.0185546875,0.0072021484375,1.0196533203125,35.7400016784668,0.0,-5.0,1.3932342529296875,0.8528900146484375,Waiting,0.0,0.0,0.0,0.0,0.0,0.0,0.0,0.125,
11.32575800000003,0.0,0.0,30218.0,7.875,345.0,1246.875,0.0,0.25,1.3452147060000001,0.5509316050660396,0.0,-10225.0,11.125,435.0,1246.875,0.0,0.125,4.858397940000001,4.419324851558671,0.0,25242.0,9.875,262.5,1246.875,0.0,0.0,2.6940915210000003,4.398559994763738,0.0,-2376.0,9.125,382.5,1246.875,0.0,0.125,2.144775171,0.5538019444921097,0.0,0.25999999046325684,-0.9300000071525574,-62.529998779296875,-0.04010009765625,0.12127685546875,1.12872314453125,35.7400016784668,0.0,-112.0,1.3902435302734375,0.853240966796875,Waiting,0.0,0.0,0.0,0.0,0.0,0.0,0.0,0.0,
11.52739300000004,0.0,0.0,30401.0,0.0,570.0,0.0,0.0,0.25,1.3464354090000001,0.5509316050660396,0.0,-10061.0,0.0,540.0,0.0,0.0,0.125,4.858397940000001,4.419324851558671,0.0,25407.0,0.0,495.0,0.0,0.0,0.0,2.6965329270000002,4.398559994763738,0.0,-2217.0,0.125,495.0,0.0,0.0,0.125,2.144775171,0.5538019444921097,0.0,0.2199999988079071,-0.8199999928474426,-74.80999755859375,0.34625244140625,-0.120849609375,0.86407470703125,35.7400016784668,0.0,213.0,1.4002532958984375,0.849090576171875,Waiting,0.0,0.0,0.0,0.0,0.0,0.0,0.0,0.0,
11.71533500000008,0.0,0.0,30422.0,0.0,22.5,0.0,0.0,0.25,1.3464354090000001,0.5509316050660396,0.0,-10024.0,0.125,90.0,0.0,0.0,0.125,4.860839346000001,4.419324851558671,0.0,25425.0,0.0,30.0,0.0,0.0,0.0,2.6977536300000002,4.398559994763738,0.0,-2184.0,0.125,90.0,0.0,0.0,0.125,2.144775171,0.5538019444921097,0.0,0.18000000715255737,-0.9599999785423279,-77.66000366210938,-0.02099609375,0.0496826171875,1.08660888671875,35.7400016784668,0.0,-45.0,1.418792724609375,0.8356781005859375,Waiting,0.0,0.0,0.0,0.0,0.0,0.0,0.0,0.0,
11.90930900000001,0.0,0.0,30407.0,0.125,-75.0,-297.6378098130226,0.0,0.25,1.3452147060000001,0.5509316050660373,0.0,-10023.0,0.875,0.0,-297.6378098130226,0.0,0.125,4.853515128000001,4.419324851558669,0.0,25412.0,0.375,-82.5,-297.6378098130226,0.0,0.0,2.6965329270000002,4.39855999476374,0.0,-2190.0,0.75,-45.0,-297.6378098130226,0.0,0.125,2.149657983,0.553801944492112,0.0,0.17000000178813934,-0.949999988079071,-76.58999633789062,0.013427734375,-0.01519775390625,0.97998046875,35.75,0.0,24.0,1.4263916015625,0.82940673828125,Waiting,0.0,0.0,0.0,0.0,0.0,0.0,0.0,0.0,
12.10202899999998,0.0,0.0,30403.0,0.0,0.0,0.0,0.0,0.25,1.3464354090000001,0.5509316050660373,0.0,-10027.0,0.125,0.0,0.0,0.0,0.0,4.851073722000001,4.419324851558669,0.0,25409.0,0.0,0.0,0.0,0.0,0.0,2.701415739,4.39855999476374,0.0,-2190.0,0.125,0.0,0.0,0.0,0.125,2.154540795,0.553801944492112,0.0,0.18000000715255737,-0.9800000190734863,-76.38999938964844,-0.0167236328125,-0.0018310546875,0.982666015625,35.75,0.0,4.0,1.4264678955078125,0.8294830322265625,Waiting,0.0,0.0,0.0,0.0,0.0,0.0,0.0,0.0,
12.288926000000094,0.0,0.0,30377.0,4.125,-187.5,-843.3070600032806,0.0,0.25,1.359863142,0.5509316050660373,0.0,-10067.0,5.0,-247.5,-843.3070600032806,0.0,0.0,4.844970207,4.419324851558669,0.0,25388.0,4.0,-150.0,-843.3070600032806,0.0,0.0,2.729491908,4.39855999476374,0.0,-2220.0,4.0,-210.0,-843.3070600032806,0.0,0.125,2.210693133,0.553801944492112,0.0,0.17000000178813934,-1.0700000524520874,-74.33999633789062,-0.044921875,0.00189208984375,0.901123046875,35.75,0.0,-6.0,1.426513671875,0.8300933837890625,Waiting,0.0,0.0,0.0,0.0,0.0,0.0,0.0,0.0,
12.47120000000007,0.0,0.0,30336.0,0.0,-172.5,0.0,0.0,0.25,1.359863142,0.5509316050660373,0.0,-10103.0,0.0,-165.0,0.0,0.0,0.0,4.859618643,4.419324851558669,0.0,25348.0,0.0,-45.0,0.0,0.0,0.125,2.730712611,4.39855999476374,0.0,-2260.0,0.125,-157.5,0.0,0.0,0.25,2.187499776,0.553801944492112,0.0,0.07000000029802322,-1.2200000286102295,-68.30000305175781,-0.0220947265625,0.14874267578125,0.94500732421875,35.779998779296875,0.0,-138.0,1.4265899658203125,0.8303985595703125,Waiting,0.0,0.0,0.0,0.0,0.0,0.0,0.0,0.0,
12.653028000000049,0.0,0.0,30303.0,0.0,0.0,0.0,0.0,0.25,1.359863142,0.5509316050660373,0.0,-10127.0,0.125,0.0,0.0,0.0,0.125,4.859618643,4.419324851558669,0.0,25342.0,0.0,0.0,0.0,0.0,0.125,2.727050502,4.39855999476374,0.0,-2282.0,0.125,0.0,0.0,0.0,0.25,2.1728513400000002,0.553801944492112,0.0,0.14000000059604645,-0.9300000071525574,-69.2699966430664,0.02642822265625,0.001220703125,0.95208740234375,35.779998779296875,0.0,15.0,1.4290924072265625,0.8316650390625,Waiting,0.0,0.0,0.0,0.0,0.0,0.0,0.0,0.0,
12.83460600000003,0.0,0.0,30304.0,1.75,-75.0,-512.5984311103821,0.0,0.25,1.359863142,0.5509316050660373,0.0,-10135.0,2.125,-127.5,-512.5984311103821,0.0,0.125,4.857177237,4.419324851558669,0.0,25341.0,1.5,-135.0,-512.5984311103821,0.0,0.125,2.730712611,4.39855999476374,0.0,-2285.0,1.875,-105.0,-512.5984311103821,0.0,0.25,2.1740720430000002,0.553801944492112,0.0,0.10000000149011612,-1.0499999523162842,-68.47000122070312,-0.001220703125,0.02496337890625,1.0059814453125,35.779998779296875,0.0,-15.0,1.433258056640625,0.830596923828125,Waiting,0.0,0.0,0.0,0.0,0.0,0.0,0.0,0.125,
13.01653800000006,0.0,0.0,30284.0,0.0,0.0,0.0,0.0,0.125,1.359863142,0.5509316050660373,0.0,-10159.0,0.125,0.0,0.0,0.0,0.125,4.858397940000001,4.419324851558669,0.0,25322.0,0.0,0.0,0.0,0.0,0.125,2.730712611,4.39855999476374,0.0,-2311.0,0.125,0.0,0.0,0.0,0.25,2.1740720430000002,0.553801944492112,0.0,0.11999999731779099,-1.0199999809265137,-66.80999755859375,-0.01556396484375,0.02423095703125,1.02691650390625,35.79999923706055,0.0,-19.0,1.43792724609375,0.8294219970703125,Waiting,0.0,0.0,0.0,0.0,0.0,0.0,0.0,0.0,
13.20796000000008,0.0,0.0,30284.0,0.0,0.0,0.0,0.0,0.25,1.359863142,0.5509316050660373,0.0,-10159.0,0.125,0.0,0.0,0.0,0.125,4.859618643,4.419324851558669,0.0,25322.0,0.0,0.0,0.0,0.0,0.125,2.730712611,4.39855999476374,0.0,-2311.0,0.125,0.0,0.0,0.0,0.25,2.1728513400000002,0.553801944492112,0.0,0.12999999523162842,-0.9800000190734863,-67.55000305175781,-5.4931640625E-4,-0.01336669921875,1.00262451171875,35.79999923706055,0.0,20.0,1.4378509521484375,0.82952880859375,Waiting,0.0,0.0,0.0,0.0,0.0,0.0,0.0,0.0,
13.388079000000028,0.0,0.0,30244.0,7.625,-345.0,-1240.1575148105621,0.0,0.25,1.353759627,0.5509316050660373,0.0,-10195.0,12.375,-322.5,-1240.1575148105621,0.0,0.125,4.862060049,4.419324851558669,0.0,25307.0,9.625,-217.5,-1240.1575148105621,0.0,0.125,2.729491908,4.39855999476374,0.0,-2344.0,9.0,-375.0,-1240.1575148105621,0.0,0.25,2.1728513400000002,0.553801944492112,0.0,-0.03999999910593033,-1.2699999809265137,-62.790000915527344,-0.0953369140625,-0.1661376953125,1.23822021484375,35.79999923706055,0.0,115.0,1.4387054443359375,0.8284454345703125,Waiting,0.0,0.0,0.0,0.0,0.0,0.0,0.0,0.0,
13.574253000000025,0.0,0.0,30073.0,0.0,-495.0,0.0,0.0,0.25,1.359863142,0.5509316050660373,0.0,-10360.0,0.0,-510.0,0.0,0.0,0.125,4.859618643,4.419324851558669,0.0,25167.0,0.0,-405.0,0.0,0.0,0.125,2.730712611,4.39855999476374,0.0,-2505.0,0.125,-487.5,0.0,0.0,0.25,2.177734152,0.553801944492112,0.0,-0.25999999046325684,-1.059999942779541,-50.70000076293945,-0.08349609375,0.071044921875,0.42681884765625,35.779998779296875,0.0,-104.0,1.443511962890625,0.82171630859375,Waiting,0.0,0.0,0.0,0.0,0.0,0.0,0.0,0.0,
13.766119999999995,0.0,0.0,30050.0,0.0,-30.0,0.0,0.0,0.25,1.359863142,0.5509316050660373,0.0,-10390.0,0.125,-60.0,0.0,0.0,0.125,4.859618643,4.419324851558669,0.0,25147.0,0.0,-30.0,0.0,0.0,0.125,2.730712611,4.39855999476374,0.0,-2529.0,0.125,-45.0,0.0,0.0,0.25,2.177734152,0.553801944492112,0.0,-0.05000000074505806,-1.1699999570846558,-49.5099983215332,-0.05615234375,-0.03387451171875,1.15924072265625,35.779998779296875,0.0,3.0,1.4480743408203125,0.817596435546875,Waiting,0.0,0.0,0.0,0.0,0.0,0.0,0.0,0.0,
13.950087000000059,0.0,0.0,30050.0,0.0,0.0,0.0,0.0,0.125,1.359863142,0.5509316050660373,0.0,-10390.0,0.125,0.0,0.0,0.0,0.125,4.859618643,4.419324851558669,0.0,25147.0,0.0,0.0,0.0,0.0,0.125,2.720946987,4.39855999476374,0.0,-2529.0,0.125,0.0,0.0,0.0,0.25,2.177734152,0.553801944492112,0.0,-0.05999999865889549,-0.9800000190734863,-50.38999938964844,-0.05926513671875,-0.012451171875,0.96990966796875,35.7599983215332,0.0,-18.0,1.4492950439453125,0.8167266845703125,Waiting,0.0,0.0,0.0,0.0,0.0,0.0,0.0,0.0,
14.131174,0.0,0.0,30050.0,0.0,0.0,0.0,0.0,0.25,1.359863142,0.5509316050660373,0.0,-10390.0,0.125,0.0,0.0,0.0,0.125,4.859618643,4.419324851558669,0.0,25147.0,0.0,0.0,0.0,0.0,0.125,2.720946987,4.39855999476374,0.0,-2529.0,0.125,0.0,0.0,0.0,0.25,2.177734152,0.553801944492112,0.0,-0.05000000074505806,-0.9599999785423279,-50.209999084472656,-0.0399169921875,0.0135498046875,1.036376953125,35.7599983215332,0.0,-25.0,1.4496917724609375,0.8170318603515625,Waiting,0.0,0.0,0.0,0.0,0.0,0.0,0.0,0.125,
14.314978000000004,0.0,0.0,30050.0,0.0,0.0,0.0,0.0,0.25,1.359863142,0.5509316050660373,0.0,-10390.0,0.125,0.0,0.0,0.0,0.125,4.859618643,4.419324851558669,0.0,25147.0,0.0,0.0,0.0,0.0,0.125,2.720946987,4.39855999476374,0.0,-2529.0,0.125,0.0,0.0,0.0,0.25,2.178954855,0.553801944492112,0.0,-0.019999999552965164,-0.9399999976158142,-50.2599983215332,-0.01373291015625,0.00836181640625,1.0301513671875,35.7599983215332,0.0,-4.0,1.4495697021484375,0.817169189453125,Waiting,0.0,0.0,0.0,0.0,0.0,0.0,0.0,0.0,
14.507859000000055,0.0,0.0,30074.0,2.5,195.0,721.875,0.0,0.125,1.340331894,0.5509316050660396,0.0,-10365.0,3.375,187.5,721.875,0.0,0.125,4.859618643,4.419324851558671,0.0,25159.0,2.875,142.5,721.875,0.0,0.125,2.6965329270000002,4.398559994763738,0.0,-2508.0,3.25,180.0,721.875,0.0,0.25,2.1215818140000002,0.5538019444921097,0.0,0.019999999552965164,-0.7900000214576721,-51.75,0.05047607421875,0.025634765625,0.79779052734375,35.7400016784668,0.0,18.0,1.4471435546875,0.818023681640625,Waiting,0.0,0.0,0.0,0.0,0.0,0.0,0.0,0.0,
14.689766999999993,0.0,0.0,30116.0,0.0,7.5,0.0,0.0,0.125,1.340331894,0.5509316050660396,0.0,-10320.0,0.125,0.0,0.0,0.0,0.125,4.858397940000001,4.419324851558671,0.0,25190.0,0.0,0.0,0.0,0.0,0.0,2.6965329270000002,4.398559994763738,0.0,-2467.0,0.125,0.0,0.0,0.0,0.25,2.1105954870000003,0.5538019444921097,0.0,-0.03999999910593033,-0.9599999785423279,-54.689998626708984,-0.00238037109375,0.02374267578125,0.93609619140625,35.7400016784668,0.0,-12.0,1.445281982421875,0.81689453125,Waiting,0.0,0.0,0.0,0.0,0.0,0.0,0.0,0.0,
15.061546000000089,0.0,0.0,30116.0,0.0,0.0,0.0,0.0,0.125,1.340331894,0.5509316050660396,0.0,-10320.0,0.125,0.0,0.0,0.0,0.125,4.853515128000001,4.419324851558671,0.0,25190.0,0.0,0.0,0.0,0.0,0.0,2.6965329270000002,4.398559994763738,0.0,-2467.0,0.125,0.0,0.0,0.0,0.25,2.1118161900000003,0.5538019444921097,0.0,0.0,-0.949999988079071,-54.310001373291016,-0.00213623046875,0.01007080078125,1.0115966796875,35.7400016784668,0.0,0.0,1.4451904296875,0.8171844482421875,Waiting,0.0,0.0,0.0,0.0,0.0,0.0,0.0,0.0,
15.25453600000008,0.0,0.0,30135.0,1.5,90.0,492.18749999999994,0.0,0.25,1.340331894,0.5509316050660396,0.0,-10302.0,2.0,75.0,492.18749999999994,0.0,0.0,4.848632316000001,4.419324851558671,0.0,25208.0,1.5,82.5,492.18749999999994,0.0,0.0,2.6965329270000002,4.398559994763738,0.0,-2459.0,2.375,45.0,492.18749999999994,0.0,0.25,2.1105954870000003,0.5538019444921097,0.0,-0.019999999552965164,-0.949999988079071,-55.209999084472656,0.01348876953125,0.0196533203125,1.0513916015625,35.7400016784668,0.0,1.0,1.4451904296875,0.8166961669921875,Waiting,0.0,0.0,0.0,0.0,0.0,0.0,0.0,0.0,
15.440244000000064,0.0,0.0,30139.0,0.0,0.0,0.0,0.0,0.25,1.3415525970000002,0.5509316050660396,0.0,-10296.0,0.0,0.0,0.0,0.0,0.0,4.848632316000001,4.419324851558671,0.0,25211.0,0.0,0.0,0.0,0.0,0.0,2.6965329270000002,4.398559994763738,0.0,-2456.0,0.125,0.0,0.0,0.0,0.25,2.1118161900000003,0.5538019444921097,0.0,-0.019999999552965164,-0.9300000071525574,-55.97999954223633,-0.02264404296875,-0.0078125,1.03289794921875,35.7400016784668,0.0,2.0,1.4446868896484375,0.8164825439453125,Waiting,0.0,0.0,0.0,0.0,0.0,0.0,0.0,0.125,
15.624439000000013,0.0,0.0,30138.0,0.0,-7.5,0.0,0.0,0.25,1.3415525970000002,0.5509316050660396,0.0,-10296.0,0.125,0.0,0.0,0.0,0.0,4.848632316000001,4.419324851558671,0.0,25208.0,0.0,-7.5,0.0,0.0,0.0,2.6965329270000002,4.398559994763738,0.0,-2456.0,0.125,0.0,0.0,0.0,0.25,2.1166990020000003,0.5538019444921097,0.0,-0.009999999776482582,-0.9399999976158142,-55.61000061035156,-0.003662109375,0.00408935546875,1.0540771484375,35.720001220703125,0.0,4.0,1.4448089599609375,0.8166046142578125,Waiting,0.0,0.0,0.0,0.0,0.0,0.0,0.0,0.0,
15.810342999999994,0.0,0.0,30138.0,0.0,0.0,0.0,0.0,0.25,1.3415525970000002,0.5509316050660396,0.0,-10296.0,0.0,0.0,0.0,0.0,0.0,4.848632316000001,4.419324851558671,0.0,25208.0,0.0,0.0,0.0,0.0,0.0,2.6965329270000002,4.398559994763738,0.0,-2456.0,0.125,0.0,0.0,0.0,0.25,2.1154782990000003,0.5538019444921097,0.0,0.0,-0.9200000166893005,-55.61000061035156,-0.01025390625,0.0028076171875,1.02178955078125,35.720001220703125,0.0,1.0,1.4448089599609375,0.8167572021484375,Waiting,0.0,0.0,0.0,0.0,0.0,0.0,0.0,0.0,
15.991513000000035,0.0,0.0,30188.0,8.125,255.0,1164.84375,0.0,0.125,1.340331894,0.5509316050660396,0.0,-10249.0,12.0,315.0,1164.84375,0.0,0.0,4.848632316000001,4.419324851558671,0.0,25251.0,6.875,262.5,1164.84375,0.0,0.0,2.6977536300000002,4.398559994763738,0.0,-2405.0,8.25,322.5,1164.84375,0.0,0.25,2.1118161900000003,0.5538019444921097,0.0,0.23999999463558197,-0.8899999856948853,-59.68000030517578,-0.10516357421875,-0.019775390625,0.93707275390625,35.7400016784668,0.0,-25.0,1.444976806640625,0.819549560546875,Waiting,0.0,0.0,0.0,0.0,0.0,0.0,0.0,0.0,
16.182255000000005,0.0,0.0,30254.0,0.0,367.5,0.0,0.0,0.125,1.340331894,0.5509316050660396,0.0,-10181.0,0.125,405.0,0.0,0.0,0.0,4.848632316000001,4.419324851558671,0.0,25317.0,0.0,270.0,0.0,0.0,0.0,2.6965329270000002,4.398559994763738,0.0,-2343.0,0.125,390.0,0.0,0.0,0.25,2.108154081,0.5538019444921097,0.0,0.14000000059604645,-1.0099999904632568,-68.94999694824219,0.2119140625,-0.0673828125,0.8824462890625,35.7400016784668,0.0,146.0,1.4458160400390625,0.8232269287109375,Waiting,0.0,0.0,0.0,0.0,0.0,0.0,0.0,0.125,
16.369761000000057,0.0,0.0,30318.0,0.0,22.5,0.0,0.0,0.25,1.340331894,0.5509316050660396,0.0,-10117.0,0.125,7.5,0.0,0.0,0.0,4.849853019,4.419324851558671,0.0,25370.0,0.0,52.5,0.0,0.0,0.0,2.6965329270000002,4.398559994763738,0.0,-2286.0,0.125,22.5,0.0,0.0,0.25,2.1118161900000003,0.5538019444921097,0.0,0.03999999910593033,-0.9800000190734863,-69.68000030517578,-0.02392578125,0.04620361328125,1.017578125,35.7400016784668,0.0,-44.0,1.4486236572265625,0.82177734375,Waiting,0.0,0.0,0.0,0.0,0.0,0.0,0.0,0.0,
16.552168999999996,0.0,0.0,30318.0,0.0,0.0,0.0,0.0,0.25,1.3415525970000002,0.5509316050660396,0.0,-10117.0,0.125,0.0,0.0,0.0,0.0,4.835204583,4.419324851558671,0.0,25369.0,0.0,-15.0,0.0,0.0,0.0,2.6965329270000002,4.398559994763738,0.0,-2286.0,0.125,0.0,0.0,0.0,0.25,2.1105954870000003,0.5538019444921097,0.0,0.07000000029802322,-0.9599999785423279,-68.76000213623047,-0.0540771484375,0.01611328125,1.0338134765625,35.77000045776367,0.0,-27.0,1.4492034912109375,0.82080078125,Waiting,0.0,0.0,0.0,0.0,0.0,0.0,0.0,0.125,
16.733853000000003,0.0,0.0,30252.0,6.375,-442.5,-1289.7637903690338,0.0,0.25,1.359863142,0.5509316050660373,0.0,-10181.0,11.625,-420.0,-1289.7637903690338,0.0,0.125,4.835204583,4.419324851558669,0.0,25311.0,6.875,-412.5,-1289.7637903690338,0.0,0.0,2.730712611,4.39855999476374,0.0,-2337.0,9.25,-382.5,-1289.7637903690338,0.0,0.25,2.198486103,0.553801944492112,0.0,0.07000000029802322,-0.9599999785423279,-64.51000213623047,0.04754638671875,-0.0489501953125,0.721923828125,35.77000045776367,0.0,70.0,1.447906494140625,0.8217620849609375,Waiting,0.0,0.0,0.0,0.0,0.0,0.0,0.0,0.125,
16.927059000000007,0.0,0.0,30163.0,0.0,-457.5,0.0,0.0,0.125,1.359863142,0.5509316050660373,0.0,-10329.0,0.125,-472.5,0.0,0.0,0.125,4.849853019,4.419324851558669,0.0,25160.0,0.0,-375.0,0.0,0.0,0.125,2.729491908,4.39855999476374,0.0,-2486.0,0.125,-420.0,0.0,0.0,0.25,2.188720479,0.553801944492112,0.0,0.07000000029802322,-0.9100000262260437,-53.650001525878906,-0.109375,0.18048095703125,1.140625,35.77000045776367,0.0,-198.0,1.4429931640625,0.8219451904296875,Waiting,0.0,0.0,0.0,0.0,0.0,0.0,0.0,0.0,
17.111134000000078,0.0,0.0,30082.0,0.0,-7.5,0.0,0.0,0.25,1.359863142,0.5509316050660373,0.0,-10348.0,0.125,-7.5,0.0,0.0,0.0,4.849853019,4.419324851558669,0.0,25136.0,0.0,-52.5,0.0,0.0,0.125,2.730712611,4.39855999476374,0.0,-2502.0,0.125,-30.0,0.0,0.0,0.25,2.178954855,0.553801944492112,0.0,0.25,-1.0700000524520874,-52.060001373291016,-0.10589599609375,-0.02197265625,1.162353515625,35.720001220703125,0.0,-30.0,1.4373016357421875,0.8262939453125,Waiting,0.0,0.0,0.0,0.0,0.0,0.0,0.0,0.125,
17.292918999999994,0.0,0.0,30082.0,0.0,0.0,0.0,0.0,0.125,1.359863142,0.5509316050660373,0.0,-10348.0,0.125,0.0,0.0,0.0,0.0,4.849853019,4.419324851558669,0.0,25136.0,0.0,0.0,0.0,0.0,0.125,2.725829799,4.39855999476374,0.0,-2502.0,0.125,0.0,0.0,0.0,0.25,2.177734152,0.553801944492112,0.0,0.20000000298023224,-0.9599999785423279,-52.54999923706055,-0.03021240234375,-0.00823974609375,1.03582763671875,35.720001220703125,0.0,1.0,1.43768310546875,0.8278045654296875,Waiting,0.0,0.0,0.0,0.0,0.0,0.0,0.0,0.125,
17.489506999999982,0.0,0.0,30086.0,0.375,60.0,213.28125,0.0,0.25,1.363525251,0.5509316050660396,0.0,-10348.0,0.625,0.0,213.28125,0.0,0.0,4.859618643,4.419324851558671,0.0,25136.0,0.375,0.0,213.28125,0.0,0.125,2.725829799,4.398559994763738,0.0,-2502.0,0.75,0.0,213.28125,0.0,0.25,2.178954855,0.5538019444921097,0.0,0.18000000715255737,-0.9399999976158142,-52.459999084472656,-0.01898193359375,-0.02685546875,1.00103759765625,35.720001220703125,0.0,22.0,1.437713623046875,0.8276519775390625,Waiting,0.0,0.0,0.0,0.0,0.0,0.0,0.0,0.0,
17.686278000000048,0.0,0.0,30092.0,0.0,0.0,0.0,0.0,0.25,1.359863142,0.5509316050660396,0.0,-10348.0,0.125,0.0,0.0,0.0,0.0,4.849853019,4.419324851558671,0.0,25140.0,0.0,0.0,0.0,0.0,0.125,2.720946987,4.398559994763738,0.0,-2500.0,0.125,0.0,0.0,0.0,0.25,2.178954855,0.5538019444921097,0.0,0.14000000059604645,-0.9200000166893005,-52.560001373291016,-0.0302734375,-0.02154541015625,0.98040771484375,35.75,0.0,10.0,1.4377899169921875,0.8275604248046875,Waiting,0.0,0.0,0.0,0.0,0.0,0.0,0.0,0.0,
17.874627000000096,0.0,0.0,30092.0,0.0,0.0,0.0,0.0,0.25,1.359863142,0.5509316050660396,0.0,-10348.0,0.125,0.0,0.0,0.0,0.0,4.849853019,4.419324851558671,0.0,25139.0,0.0,0.0,0.0,0.0,0.125,2.72216769,4.398559994763738,0.0,-2500.0,0.125,0.0,0.0,0.0,0.25,2.177734152,0.5538019444921097,0.0,0.14000000059604645,-0.9200000166893005,-52.560001373291016,-0.01153564453125,0.00408935546875,1.00634765625,35.75,0.0,1.0,1.4377899169921875,0.82745361328125,Waiting,0.0,0.0,0.0,0.0,0.0,0.0,0.0,0.0,
18.073078000000095,0.0,0.0,30092.0,0.0,0.0,0.0,0.0,0.25,1.359863142,0.5509316050660396,0.0,-10348.0,0.125,0.0,0.0,0.0,0.0,4.848632316000001,4.419324851558671,0.0,25139.0,0.0,0.0,0.0,0.0,0.125,2.720946987,4.398559994763738,0.0,-2500.0,0.125,0.0,0.0,0.0,0.25,2.178954855,0.5538019444921097,0.0,0.14000000059604645,-0.9200000166893005,-52.59000015258789,-0.01495361328125,-0.00341796875,1.009765625,35.72999954223633,0.0,5.0,1.4377899169921875,0.82745361328125,Waiting,0.0,0.0,0.0,0.0,0.0,0.0,0.0,0.0,
18.268792000000015,0.0,0.0,30092.0,0.0,0.0,0.0,0.0,0.25,1.361083845,0.5509316050660396,0.0,-10348.0,0.125,0.0,0.0,0.0,0.0,4.849853019,4.419324851558671,0.0,25139.0,0.0,0.0,0.0,0.0,0.125,2.719726284,4.398559994763738,0.0,-2500.0,0.125,0.0,0.0,0.0,0.25,2.177734152,0.5538019444921097,0.0,0.12999999523162842,-0.9100000262260437,-52.599998474121094,-0.01556396484375,0.00518798828125,1.01824951171875,35.72999954223633,0.0,-1.0,1.4377899169921875,0.82745361328125,Waiting,0.0,0.0,0.0,0.0,0.0,0.0,0.0,0.0,
18.456763000000034,0.0,0.0,30092.0,0.0,0.0,0.0,0.0,0.25,1.359863142,0.5509316050660396,0.0,-10348.0,0.125,0.0,0.0,0.0,0.0,4.848632316000001,4.419324851558671,0.0,25139.0,0.0,0.0,0.0,0.0,0.125,2.719726284,4.398559994763738,0.0,-2500.0,0.125,0.0,0.0,0.0,0.25,2.178954855,0.5538019444921097,0.0,0.12999999523162842,-0.9100000262260437,-52.61000061035156,-0.01348876953125,0.001953125,1.013916015625,35.72999954223633,0.0,1.0,1.4377899169921875,0.82745361328125,Waiting,0.0,0.0,0.0,0.0,0.0,0.0,0.0,0.0,
18.663217000000063,0.0,0.0,30092.0,0.0,0.0,0.0,0.0,0.25,1.359863142,0.5509316050660396,0.0,-10348.0,0.125,0.0,0.0,0.0,0.0,4.849853019,4.419324851558671,0.0,25139.0,0.0,0.0,0.0,0.0,0.125,2.720946987,4.398559994763738,0.0,-2500.0,0.125,0.0,0.0,0.0,0.25,2.177734152,0.5538019444921097,0.0,0.12999999523162842,-0.8999999761581421,-52.630001068115234,-0.01593017578125,0.002685546875,1.02496337890625,35.77000045776367,0.0,0.0,1.4377899169921875,0.82745361328125,Waiting,0.0,0.0,0.0,0.0,0.0,0.0,0.0,0.0,
18.855720000000087,0.0,0.0,30092.0,0.0,0.0,0.0,0.0,0.25,1.359863142,0.5509316050660396,0.0,-10348.0,0.125,0.0,0.0,0.0,0.0,4.849853019,4.419324851558671,0.0,25139.0,0.0,0.0,0.0,0.0,0.125,2.720946987,4.398559994763738,0.0,-2500.0,0.125,0.0,0.0,0.0,0.25,2.178954855,0.5538019444921097,0.0,0.12999999523162842,-0.8899999856948853,-52.63999938964844,-0.01666259765625,-3.0517578125E-4,1.0167236328125,35.77000045776367,0.0,1.0,1.4377899169921875,0.82745361328125,Waiting,0.0,0.0,0.0,0.0,0.0,0.0,0.0,0.0,
19.04802000000002,0.0,0.0,30092.0,0.0,0.0,0.0,0.0,0.25,1.359863142,0.5509316050660396,0.0,-10348.0,0.125,0.0,0.0,0.0,0.0,4.849853019,4.419324851558671,0.0,25139.0,0.0,0.0,0.0,0.0,0.125,2.720946987,4.398559994763738,0.0,-2500.0,0.125,0.0,0.0,0.0,0.25,2.178954855,0.5538019444921097,0.0,0.12999999523162842,-0.8899999856948853,-52.650001525878906,-0.01373291015625,0.00323486328125,1.01861572265625,35.77000045776367,0.0,0.0,1.4377899169921875,0.82745361328125,Waiting,0.0,0.0,0.0,0.0,0.0,0.0,0.0,0.0,
19.23181700000004,0.0,0.0,30092.0,0.0,0.0,0.0,0.0,0.25,1.361083845,0.5509316050660396,0.0,-10348.0,0.125,0.0,0.0,0.0,0.0,4.851073722000001,4.419324851558671,0.0,25139.0,0.0,0.0,0.0,0.0,0.125,2.720946987,4.398559994763738,0.0,-2500.0,0.125,0.0,0.0,0.0,0.25,2.178954855,0.5538019444921097,0.0,0.12999999523162842,-0.8899999856948853,-52.66999816894531,-0.01763916015625,0.00311279296875,1.0169677734375,35.779998779296875,0.0,-1.0,1.4377899169921875,0.82745361328125,Waiting,0.0,0.0,0.0,0.0,0.0,0.0,0.0,0.0,
19.413724000000045,0.0,0.0,30092.0,0.0,0.0,0.0,0.0,0.25,1.361083845,0.5509316050660396,0.0,-10348.0,0.125,0.0,0.0,0.0,0.0,4.848632316000001,4.419324851558671,0.0,25139.0,0.0,0.0,0.0,0.0,0.125,2.719726284,4.398559994763738,0.0,-2500.0,0.125,0.0,0.0,0.0,0.375,2.177734152,0.5538019444921097,0.0,0.11999999731779099,-0.8899999856948853,-52.68000030517578,-0.01690673828125,0.00665283203125,1.0174560546875,35.779998779296875,0.0,-4.0,1.4377899169921875,0.82745361328125,Waiting,0.0,0.0,0.0,0.0,0.0,0.0,0.0,0.0,
19.592060999999987,0.0,0.0,30092.0,0.0,0.0,0.0,0.0,0.25,1.359863142,0.5509316050660396,0.0,-10348.0,0.125,0.0,0.0,0.0,0.0,4.848632316000001,4.419324851558671,0.0,25139.0,0.0,0.0,0.0,0.0,0.125,2.720946987,4.398559994763738,0.0,-2500.0,0.125,0.0,0.0,0.0,0.25,2.177734152,0.5538019444921097,0.0,0.11999999731779099,-0.8799999952316284,-52.689998626708984,-0.011962890625,0.00335693359375,1.014892578125,35.779998779296875,0.0,1.0,1.4377899169921875,0.82745361328125,Waiting,0.0,0.0,0.0,0.0,0.0,0.0,0.0,0.125,
19.773184000000008,0.0,0.0,30092.0,0.0,0.0,0.0,0.0,0.25,1.359863142,0.5509316050660396,0.0,-10348.0,0.125,0.0,0.0,0.0,0.0,4.849853019,4.419324851558671,0.0,25139.0,0.0,0.0,0.0,0.0,0.125,2.720946987,4.398559994763738,0.0,-2500.0,0.125,0.0,0.0,0.0,0.25,2.177734152,0.5538019444921097,0.0,0.11999999731779099,-0.8700000047683716,-52.709999084472656,-0.01318359375,0.0035400390625,1.02252197265625,35.779998779296875,0.0,0.0,1.4377899169921875,0.82745361328125,Waiting,0.0,0.0,0.0,0.0,0.0,0.0,0.0,0.0,
19.96454000000004,0.0,0.0,30092.0,0.0,0.0,0.0,0.0,0.25,1.359863142,0.5509316050660396,0.0,-10348.0,0.125,0.0,0.0,0.0,0.0,4.848632316000001,4.419324851558671,0.0,25139.0,0.0,0.0,0.0,0.0,0.125,2.720946987,4.398559994763738,0.0,-2500.0,0.125,0.0,0.0,0.0,0.25,2.178954855,0.5538019444921097,0.0,0.10999999940395355,-0.8799999952316284,-52.720001220703125,-0.01470947265625,0.00347900390625,1.018798828125,35.779998779296875,0.0,0.0,1.4377899169921875,0.82745361328125,Waiting,0.0,0.0,0.0,0.0,0.0,0.0,0.0,0.0,
20.146435999999987,0.0,0.0,30092.0,0.0,0.0,0.0,0.0,0.25,1.359863142,0.5509316050660396,0.0,-10348.0,0.125,0.0,0.0,0.0,0.0,4.848632316000001,4.419324851558671,0.0,25139.0,0.0,0.0,0.0,0.0,0.125,2.720946987,4.398559994763738,0.0,-2500.0,0.125,0.0,0.0,0.0,0.25,2.178954855,0.5538019444921097,0.0,0.11999999731779099,-0.8799999952316284,-52.72999954223633,-0.0162353515625,0.00341796875,1.01873779296875,35.79999923706055,0.0,-1.0,1.4377899169921875,0.82745361328125,Waiting,0.0,0.0,0.0,0.0,0.0,0.0,0.0,0.0,
20.329273000000043,0.0,0.0,30092.0,0.0,0.0,0.0,0.0,0.25,1.359863142,0.5509316050660396,0.0,-10348.0,0.125,0.0,0.0,0.0,0.0,4.849853019,4.419324851558671,0.0,25139.0,0.0,0.0,0.0,0.0,0.125,2.720946987,4.398559994763738,0.0,-2500.0,0.125,0.0,0.0,0.0,0.25,2.178954855,0.5538019444921097,0.0,0.11999999731779099,-0.8700000047683716,-52.7400016784668,-0.01654052734375,0.00238037109375,1.02001953125,35.79999923706055,0.0,0.0,1.4377899169921875,0.82745361328125,Waiting,0.0,0.0,0.0,0.0,0.0,0.0,0.0,0.0,
20.51330300000007,0.0,0.0,30092.0,0.0,0.0,0.0,0.0,0.25,1.359863142,0.5509316050660396,0.0,-10348.0,0.125,0.0,0.0,0.0,0.0,4.849853019,4.419324851558671,0.0,25139.0,0.0,0.0,0.0,0.0,0.125,2.720946987,4.398559994763738,0.0,-2500.0,0.125,0.0,0.0,0.0,0.375,2.177734152,0.5538019444921097,0.0,0.11999999731779099,-0.8700000047683716,-52.77000045776367,-0.0155029296875,0.0015869140625,1.0189208984375,35.79999923706055,0.0,0.0,1.4377899169921875,0.82745361328125,Waiting,0.0,0.0,0.0,0.0,0.0,0.0,0.0,0.0,
20.69366200000001,0.0,0.0,30092.0,0.0,0.0,0.0,0.0,0.25,1.358642439,0.5509316050660396,0.0,-10348.0,0.125,0.0,0.0,0.0,0.0,4.848632316000001,4.419324851558671,0.0,25139.0,0.0,0.0,0.0,0.0,0.125,2.719726284,4.398559994763738,0.0,-2500.0,0.125,0.0,0.0,0.0,0.25,2.177734152,0.5538019444921097,0.0,0.10999999940395355,-0.8700000047683716,-52.779998779296875,-0.014892578125,0.0018310546875,1.0159912109375,35.7400016784668,0.0,0.0,1.4377899169921875,0.82745361328125,Waiting,0.0,0.0,0.0,0.0,0.0,0.0,0.0,0.0,
20.878129000000072,0.0,0.0,30092.0,0.0,0.0,0.0,0.0,0.25,1.359863142,0.5509316050660396,0.0,-10348.0,0.125,0.0,0.0,0.0,0.0,4.848632316000001,4.419324851558671,0.0,25139.0,0.0,0.0,0.0,0.0,0.125,2.720946987,4.398559994763738,0.0,-2500.0,0.125,0.0,0.0,0.0,0.25,2.177734152,0.5538019444921097,0.0,0.11999999731779099,-0.8700000047683716,-52.79999923706055,-0.01495361328125,0.00152587890625,1.01837158203125,35.7400016784668,0.0,0.0,1.4377899169921875,0.82745361328125,Waiting,0.0,0.0,0.0,0.0,0.0,0.0,0.0,0.0,
21.055146999999998,0.0,0.0,30092.0,0.0,0.0,0.0,0.0,0.25,1.359863142,0.5509316050660396,0.0,-10348.0,0.125,0.0,0.0,0.0,0.0,4.849853019,4.419324851558671,0.0,25139.0,0.0,0.0,0.0,0.0,0.125,2.720946987,4.398559994763738,0.0,-2500.0,0.125,0.0,0.0,0.0,0.25,2.178954855,0.5538019444921097,0.0,0.10999999940395355,-0.8600000143051147,-52.810001373291016,-0.01416015625,0.00213623046875,1.01739501953125,35.7400016784668,0.0,0.0,1.4377899169921875,0.82745361328125,Waiting,0.0,0.0,0.0,0.0,0.0,0.0,0.0,0.0,
21.251683000000078,0.0,0.0,30092.0,0.0,0.0,0.0,0.0,0.25,1.359863142,0.5509316050660396,0.0,-10348.0,0.125,0.0,0.0,0.0,0.0,4.849853019,4.419324851558671,0.0,25139.0,0.0,0.0,0.0,0.0,0.125,2.720946987,4.398559994763738,0.0,-2500.0,0.125,0.0,0.0,0.0,0.25,2.177734152,0.5538019444921097,0.0,0.10999999940395355,-0.8500000238418579,-52.81999969482422,-0.01171875,-5.4931640625E-4,1.0130615234375,35.75,0.0,4.0,1.4377899169921875,0.82745361328125,Waiting,0.0,0.0,0.0,0.0,0.0,0.0,0.0,0.0,
21.432901000000072,0.0,0.0,30092.0,0.0,0.0,0.0,0.0,0.25,1.361083845,0.5509316050660396,0.0,-10348.0,0.125,0.0,0.0,0.0,0.0,4.848632316000001,4.419324851558671,0.0,25139.0,0.0,0.0,0.0,0.0,0.125,2.720946987,4.398559994763738,0.0,-2500.0,0.125,0.0,0.0,0.0,0.25,2.178954855,0.5538019444921097,0.0,0.10999999940395355,-0.8500000238418579,-52.83000183105469,-0.0146484375,0.00213623046875,1.0152587890625,35.75,0.0,0.0,1.4377899169921875,0.82745361328125,Waiting,0.0,0.0,0.0,0.0,0.0,0.0,0.0,0.0,
21.613962000000058,0.0,0.0,30092.0,0.0,0.0,0.0,0.0,0.25,1.359863142,0.5509316050660396,0.0,-10348.0,0.125,0.0,0.0,0.0,0.0,4.849853019,4.419324851558671,0.0,25139.0,0.0,0.0,0.0,0.0,0.125,2.720946987,4.398559994763738,0.0,-2500.0,0.125,0.0,0.0,0.0,0.25,2.178954855,0.5538019444921097,0.0,0.10000000149011612,-0.8399999737739563,-52.84000015258789,-0.01470947265625,0.002685546875,1.0172119140625,35.7400016784668,0.0,0.0,1.4377899169921875,0.82745361328125,Waiting,0.0,0.0,0.0,0.0,0.0,0.0,0.0,0.0,
