Time,ClimberA1,ClimberA2,CameraExists,HeapSpace,LoopTime,FRpos,FRCurrent,FRspeed,FRsetpoint,FRApos,FRACurrent,FREncpos,FREncSetpoint,FREncSpeed,FLpos,FLCurrent,FLspeed,FLsetpoint,FLApos,FLACurrent,FLEncpos,FLEncSetpoint,FLEncSpeed,BRpos,BRCurrent,BRspeed,BRsetpoint,BRApos,BRACurrent,BREncpos,BREncSetpoint,BREncSpeed,BLpos,BLCurrent,BLspeed,BLsetpoint,BLApos,BLACurrent,BLEncpos,BLEncSetpoint,BLEncSpeed,navx_Pitch,navx_Roll,navx_Yaw,navx_XAcc,navx_YAcc,navx_ZAcc,navx_Temp,navx_Bar,navx_Alt,navx_XDis,navx_YDis,GearPlacerState,ShootOutputV,ShootOutputCurrent,ShootEncPos,ShootEncVelocity,ShootSpeed,ShootSetpoint,CarouselSetpoint,CarouselCurrent,
0.08483699999999954,0.0,0.0,false,2838413.9602694768,,30.0,0.0,0.0,0.0,0.0,0.125,4.805907711000001,0.01,0.0,117.0,0.0,0.0,-0.0,0.0,0.0,4.798583493000001,0.01,0.0,-29.0,0.0,0.0,0.0,0.0,0.0,4.787597166,0.01,0.0,11.0,0.0,0.0,-0.0,0.0,0.0,4.777831542,0.01,0.0,1.1200000047683716,0.44999998807907104,99.0,0.0101318359375,0.01885986328125,1.00146484375,30.920000076293945,0.0,-1.0,-0.0186309814453125,-0.1090087890625,Waiting,0.0,0.0,0.0,0.0,0.0,0.0,0.0,0.0,
0.1214649999999965,0.0,0.0,false,2838992.9381692572,,30.0,0.0,0.0,0.0,0.0,0.125,4.804687008,0.01,0.0,117.0,0.0,0.0,-0.0,0.0,0.0,4.796142087000001,0.01,0.0,-29.0,0.0,0.0,0.0,0.0,0.0,4.787597166,0.01,0.0012207030000004337,11.0,0.0,0.0,-0.0,0.0,0.0,4.776610839,0.01,0.0,1.1299999952316284,0.46000000834465027,99.0,0.0113525390625,0.01861572265625,1.01007080078125,30.920000076293945,0.0,-1.0,-0.0186309814453125,-0.1090087890625,Waiting,0.0,0.0,0.0,0.0,0.0,0.0,0.0,0.0,
0.15164599999997883,0.0,0.0,false,2839563.597306165,,30.0,0.0,0.0,0.0,0.0,0.125,4.807128414,0.01,0.0,117.0,0.0,0.0,-0.0,0.0,0.0,4.796142087000001,0.01,-0.0012207029999995456,-29.0,0.0,0.0,0.0,0.0,0.0,4.787597166,0.01,-0.0012207030000004337,11.0,0.0,0.0,-0.0,0.0,0.0,4.776610839,0.01,0.0,1.1299999952316284,0.46000000834465027,99.0,0.00946044921875,0.01995849609375,1.00152587890625,30.920000076293945,0.0,0.0,-0.0186309814453125,-0.1090087890625,Waiting,0.0,0.0,0.0,0.0,0.0,0.0,0.0,0.0,
0.1917609999999986,0.0,0.0,false,2840125.9627071824,,30.0,0.0,0.0,0.0,0.0,0.125,4.804687008,0.01,0.0,117.0,0.0,0.0,-0.0,0.0,0.0,4.79736279,0.01,-0.0012207029999995456,-29.0,0.0,0.0,0.0,0.0,0.0,4.787597166,0.01,-0.0012207030000004337,11.0,0.0,0.0,-0.0,0.0,0.0,4.776610839,0.01,0.0,1.1299999952316284,0.46000000834465027,99.0,0.00714111328125,0.017333984375,1.00286865234375,30.920000076293945,0.0,-2.0,-0.0186309814453125,-0.1090087890625,Waiting,0.0,0.0,0.0,0.0,0.0,0.0,0.0,0.0,
0.2353609999999753,0.0,0.0,false,2840672.274814431,,30.0,0.0,0.0,0.0,0.0,0.125,4.807128414,0.01,-0.0012207030000004337,117.0,0.0,0.0,-0.0,0.0,0.0,4.796142087000001,0.01,0.0,-29.0,0.0,0.0,0.0,0.0,0.0,4.786376463,0.01,0.0,11.0,0.0,0.0,-0.0,0.0,0.0,4.775390136,0.01,0.0,1.1299999952316284,0.46000000834465027,99.0,0.0098876953125,0.01873779296875,1.0072021484375,30.920000076293945,0.0,-1.0,-0.0186309814453125,-0.1090087890625,Waiting,0.0,0.0,0.0,0.0,0.0,0.0,0.0,0.0,
0.2665929999999935,0.0,0.0,false,2841210.304452882,,30.0,0.0,0.0,0.0,0.0,0.125,4.804687008,0.01,0.0,117.0,0.0,0.0,-0.0,0.0,0.0,4.79736279,0.01,0.0,-29.0,0.0,0.0,0.0,0.0,0.0,4.786376463,0.01,0.0,11.0,0.0,0.0,-0.0,0.0,0.0,4.776610839,0.01,0.0,1.1299999952316284,0.46000000834465027,99.0,0.00823974609375,0.0225830078125,1.0015869140625,30.920000076293945,0.0,2.0,-0.0186309814453125,-0.1090087890625,Waiting,0.0,0.0,0.0,0.0,0.0,0.0,0.0,0.0,
0.30702999999999886,0.0,0.0,false,2841740.4093183777,,30.0,0.0,0.0,0.0,0.0,0.125,4.805907711000001,0.01,0.0,117.0,0.0,0.0,-0.0,0.0,0.0,4.79736279,0.01,0.0012207029999995456,-29.0,0.0,0.0,0.0,0.0,0.0,4.78515576,0.01,0.0,11.0,0.0,0.0,-0.0,0.0,0.0,4.775390136,0.01,0.0,1.1299999952316284,0.46000000834465027,99.0,0.01068115234375,0.0205078125,0.99725341796875,30.920000076293945,0.0,0.0,-0.0186309814453125,-0.1090087890625,Waiting,0.0,0.0,0.0,0.0,0.0,0.0,0.0,0.0,
0.347125,0.0,0.0,false,2842262.2401656313,,30.0,0.0,0.0,0.0,0.0,0.125,4.805907711000001,0.01,0.0,117.0,0.0,0.0,-0.0,0.0,0.0,4.796142087000001,0.01,0.0012207029999995456,-29.0,0.0,0.0,0.0,0.0,0.0,4.787597166,0.01,0.0,11.0,0.0,0.0,-0.0,0.0,0.0,4.776610839,0.01,0.0,1.1299999952316284,0.46000000834465027,99.0,0.0087890625,0.019775390625,1.009765625,30.920000076293945,0.0,0.0,-0.0186309814453125,-0.1090087890625,Waiting,0.0,0.0,0.0,0.0,0.0,0.0,0.0,0.0,
0.3881269999999786,0.0,0.0,false,2842775.801276522,,30.0,0.0,0.0,0.0,0.0,0.125,4.805907711000001,0.01,0.0,117.0,0.0,0.0,-0.0,0.0,0.0,4.79736279,0.01,-0.0012207029999995456,-29.0,0.0,0.0,0.0,0.0,0.0,4.786376463,0.01,0.0,11.0,0.0,0.0,-0.0,0.0,0.0,4.777831542,0.01,0.0,1.1299999952316284,0.46000000834465027,99.0,0.005615234375,0.021240234375,1.00372314453125,30.920000076293945,0.0,1.0,-0.0186309814453125,-0.1090087890625,Waiting,0.0,0.0,0.0,0.0,0.0,0.0,0.0,0.0,
0.42644899999999325,0.0,0.0,false,2843281.076233184,,30.0,0.0,0.0,0.0,0.0,0.125,4.804687008,0.01,0.0,117.0,0.0,0.0,-0.0,0.0,0.0,4.79736279,0.01,0.0,-29.0,0.0,0.0,0.0,0.0,0.0,4.788817869,0.01,0.0,11.0,0.0,0.0,-0.0,0.0,0.0,4.777831542,0.01,0.0,1.1399999856948853,0.46000000834465027,99.0,0.0059814453125,0.01873779296875,1.00189208984375,30.920000076293945,0.0,0.0,-0.0186309814453125,-0.1090087890625,Waiting,0.0,0.0,0.0,0.0,0.0,0.0,0.0,0.0,
0.4664939999999769,0.0,0.0,false,2843778.09001552,,30.0,0.0,0.0,0.0,0.0,0.125,4.805907711000001,0.01,0.0,117.0,0.0,0.0,-0.0,0.0,0.0,4.796142087000001,0.01,0.0,-29.0,0.0,0.0,0.0,0.0,0.0,4.787597166,0.01,0.0,11.0,0.0,0.0,-0.0,0.0,0.0,4.776610839,0.01,0.0,1.1299999952316284,0.46000000834465027,99.0,0.0103759765625,0.019775390625,1.0047607421875,30.920000076293945,0.0,0.0,-0.0186309814453125,-0.1090087890625,Waiting,0.0,0.0,0.0,0.0,0.0,0.0,0.0,0.0,
0.5061689999999944,0.0,0.0,false,2844259.0924137933,,30.0,0.0,0.0,0.0,0.0,0.125,4.805907711000001,0.01,0.0012207030000004337,117.0,0.0,0.0,-0.0,0.0,0.0,4.798583493000001,0.01,0.0,-29.0,0.0,0.0,0.0,0.0,0.0,4.787597166,0.01,0.0,11.0,0.0,0.0,-0.0,0.0,0.0,4.776610839,0.01,0.0,1.1299999952316284,0.46000000834465027,99.0,0.006591796875,0.0203857421875,1.00482177734375,30.920000076293945,0.0,0.0,-0.0186309814453125,-0.1090087890625,Waiting,0.0,0.0,0.0,0.0,0.0,0.0,0.0,0.0,
0.5445489999999991,0.0,0.0,false,2844732.1978969146,,30.0,0.0,0.0,0.0,0.0,0.125,4.805907711000001,0.01,0.0012207030000004337,117.0,0.0,0.0,-0.0,0.0,0.0,4.798583493000001,0.01,0.0,-29.0,0.0,0.0,0.0,0.0,0.0,4.788817869,0.01,0.0,11.0,0.0,0.0,-0.0,0.0,0.0,4.777831542,0.01,0.0,1.1299999952316284,0.46000000834465027,99.0,0.0059814453125,0.02392578125,1.00518798828125,30.959999084472656,0.0,4.0,-0.0186309814453125,-0.1090087890625,Waiting,0.0,0.0,0.0,0.0,0.0,0.0,0.0,0.0,
0.5905539999999746,0.0,0.0,false,2845197.0575663564,,30.0,0.0,0.0,0.0,0.0,0.125,4.805907711000001,0.01,-0.0012207030000004337,117.0,0.0,0.0,-0.0,0.0,0.0,4.79736279,0.01,0.0,-29.0,0.0,0.0,0.0,0.0,0.0,4.787597166,0.01,0.0,11.0,0.0,0.0,-0.0,0.0,0.0,4.776610839,0.01,0.0,1.1299999952316284,0.46000000834465027,99.0,0.00775146484375,0.01995849609375,0.9984130859375,30.959999084472656,0.0,0.0,-0.0186309814453125,-0.1090087890625,Waiting,0.0,0.0,0.0,0.0,0.0,0.0,0.0,0.0,
0.6304899999999907,0.0,0.0,false,2845653.6756849904,,30.0,0.0,0.0,0.0,0.0,0.125,4.805907711000001,0.01,0.0,117.0,0.0,0.0,-0.0,0.0,0.0,4.798583493000001,0.01,0.0,-29.0,0.0,0.0,0.0,0.0,0.0,4.787597166,0.01,0.0,11.0,0.0,0.0,-0.0,0.0,0.0,4.776610839,0.01,0.0,1.1299999952316284,0.46000000834465027,99.0,0.01031494140625,0.0220947265625,1.00128173828125,30.959999084472656,0.0,1.0,-0.0186309814453125,-0.1090087890625,Waiting,0.0,0.0,0.0,0.0,0.0,0.0,0.0,0.0,
0.6669479999999749,0.0,0.0,false,2846102.0565127498,,30.0,0.0,0.0,0.0,0.0,0.125,4.807128414,0.01,0.0012207030000004337,117.0,0.0,0.0,-0.0,0.0,0.0,4.798583493000001,0.01,0.0012207029999995456,-29.0,0.0,0.0,0.0,0.0,0.0,4.787597166,0.01,0.0012207030000004337,11.0,0.0,0.0,-0.0,0.0,0.0,4.776610839,0.01,0.0,1.1299999952316284,0.46000000834465027,99.0,0.00634765625,0.021240234375,1.004150390625,30.959999084472656,0.0,1.0,-0.0186309814453125,-0.1090087890625,Waiting,0.0,0.0,0.0,0.0,0.0,0.0,0.0,0.0,
0.7119469999999856,0.0,0.0,false,2846542.2043066323,,30.0,0.0,0.0,0.0,0.0,0.125,4.805907711000001,0.01,0.0,117.0,0.0,0.0,-0.0,0.0,0.0,4.79736279,0.01,0.0,-29.0,0.0,0.0,0.0,0.0,0.0,4.786376463,0.01,0.0,11.0,0.0,0.0,-0.0,0.0,0.0,4.776610839,0.01,0.0,1.1299999952316284,0.46000000834465027,99.0,0.00860595703125,0.0208740234375,1.0057373046875,30.959999084472656,0.0,0.0,-0.0186309814453125,-0.1090087890625,Waiting,0.0,0.0,0.0,0.0,0.0,0.0,0.0,0.0,
0.7508969999999973,0.0,0.0,false,2846974.123320703,,30.0,0.0,0.0,0.0,0.0,0.125,4.807128414,0.01,0.0,117.0,0.0,0.0,-0.0,0.0,0.0,4.796142087000001,0.01,0.0,-29.0,0.0,0.0,0.0,0.0,0.0,4.787597166,0.01,0.0,11.0,0.0,0.0,-0.0,0.0,0.0,4.776610839,0.01,0.0,1.1299999952316284,0.46000000834465027,99.0,0.0050048828125,0.01947021484375,1.00201416015625,30.959999084472656,0.0,0.0,-0.0186309814453125,-0.1090087890625,Waiting,0.0,0.0,0.0,0.0,0.0,0.0,0.0,0.0,
0.7958729999999923,0.0,0.0,false,2847390.094713277,,30.0,0.0,0.0,0.0,0.0,0.125,4.805907711000001,0.01,0.0,117.0,0.0,0.0,-0.0,0.0,0.0,4.798583493000001,0.01,0.0,-29.0,0.0,0.0,0.0,0.0,0.0,4.787597166,0.01,0.0,11.0,0.0,0.0,-0.0,0.0,0.0,4.777831542,0.01,0.0,1.1299999952316284,0.46000000834465027,99.0,0.00958251953125,0.02227783203125,1.00811767578125,30.959999084472656,0.0,2.0,-0.0186309814453125,-0.1090087890625,Waiting,0.0,0.0,0.0,0.0,0.0,0.0,0.0,0.0,
0.830048999999999,0.0,0.0,false,2847798.2011019285,,30.0,0.0,0.0,0.0,0.0,0.125,4.807128414,0.01,0.0,117.0,0.0,0.0,-0.0,0.0,0.0,4.79736279,0.01,0.0,-29.0,0.0,0.0,0.0,0.0,0.0,4.788817869,0.01,-0.0012207030000004337,11.0,0.0,0.0,-0.0,0.0,0.0,4.776610839,0.01,0.0,1.1299999952316284,0.46000000834465027,99.0,0.010986328125,0.01654052734375,1.00494384765625,30.959999084472656,0.0,0.0,-0.0186309814453125,-0.1090087890625,Waiting,0.0,0.0,0.0,0.0,0.0,0.0,0.0,0.0,
0.8671779999999853,0.0,0.0,false,2848198.0939920815,,30.0,0.0,0.0,0.0,0.0,0.125,4.805907711000001,0.01,0.0,117.0,0.0,0.0,-0.0,0.0,0.0,4.79736279,0.01,-0.0012207029999995456,-29.0,0.0,0.0,0.0,0.0,0.0,4.787597166,0.01,0.0,11.0,0.0,0.0,-0.0,0.0,0.0,4.776610839,0.01,0.0,1.1299999952316284,0.46000000834465027,99.0,0.01092529296875,0.02178955078125,1.00390625,30.959999084472656,0.0,1.0,-0.0186309814453125,-0.1090087890625,Waiting,0.0,0.0,0.0,0.0,0.0,0.0,0.0,0.0,
0.9059169999999868,0.0,0.0,false,2848589.777624785,,30.0,0.0,0.0,0.0,0.0,0.125,4.804687008,0.01,0.0,117.0,0.0,0.0,-0.0,0.0,0.0,4.79736279,0.01,0.0012207029999995456,-29.0,0.0,0.0,0.0,0.0,0.0,4.787597166,0.01,0.0,11.0,0.0,0.0,-0.0,0.0,0.0,4.776610839,0.01,0.0,1.1299999952316284,0.46000000834465027,99.0,0.00946044921875,0.0169677734375,0.99871826171875,30.959999084472656,0.0,-2.0,-0.0186309814453125,-0.1090087890625,Waiting,0.0,0.0,0.0,0.0,0.0,0.0,0.0,0.0,
0.9476440000000003,0.0,0.0,false,2848973.256238169,,30.0,0.0,0.0,0.0,0.0,0.125,4.805907711000001,0.01,0.0,117.0,0.0,0.0,-0.0,0.0,0.0,4.79736279,0.01,0.0012207029999995456,-29.0,0.0,0.0,0.0,0.0,0.0,4.787597166,0.01,0.0,11.0,0.0,0.0,-0.0,0.0,0.0,4.776610839,0.01,0.0,1.1299999952316284,0.46000000834465027,99.0,0.009033203125,0.01910400390625,0.99835205078125,30.959999084472656,0.0,0.0,-0.0186309814453125,-0.1090087890625,Waiting,0.0,0.0,0.0,0.0,0.0,0.0,0.0,0.0,
0.9894739999999874,0.0,0.0,false,2849348.534067447,,30.0,0.0,0.0,0.0,0.0,0.125,4.805907711000001,0.01,-0.0012207030000004337,117.0,0.0,0.0,-0.0,0.0,0.0,4.79736279,0.01,0.0,-29.0,0.0,0.0,0.0,0.0,0.0,4.786376463,0.01,0.0,11.0,0.0,0.0,-0.0,0.0,0.0,4.776610839,0.01,0.0,1.1299999952316284,0.46000000834465027,99.0,0.007080078125,0.02008056640625,1.0045166015625,30.959999084472656,0.0,0.0,-0.0186309814453125,-0.1090087890625,Waiting,0.0,0.0,0.0,0.0,0.0,0.0,0.0,0.0,
1.0280069999999832,0.0,0.0,false,2849715.6153449165,,30.0,0.0,0.0,0.0,0.0,0.125,4.804687008,0.01,0.0,117.0,0.0,0.0,-0.0,0.0,0.0,4.79736279,0.01,0.0,-29.0,0.0,0.0,0.0,0.0,0.0,4.787597166,0.01,0.0,11.0,0.0,0.0,-0.0,0.0,0.0,4.776610839,0.01,0.0,1.1299999952316284,0.46000000834465027,99.0,0.011474609375,0.01251220703125,1.00738525390625,30.940000534057617,0.0,-7.0,-0.0186309814453125,-0.1090087890625,Waiting,0.0,0.0,0.0,0.0,0.0,0.0,0.0,0.0,
1.0603009999999777,0.0,0.0,false,2850066.790505676,,30.0,0.0,0.0,0.0,0.0,0.125,4.805907711000001,0.01,0.0,117.0,0.0,0.0,-0.0,0.0,0.0,4.798583493000001,0.01,-0.0012207029999995456,-29.0,0.0,0.0,0.0,0.0,0.0,4.787597166,0.01,0.0,11.0,0.0,0.0,-0.0,0.0,0.0,4.776610839,0.01,0.0,1.1299999952316284,0.4699999988079071,99.0,0.0029296875,0.005126953125,0.9935302734375,30.940000534057617,0.0,-13.0,-0.0186309814453125,-0.1090087890625,Waiting,0.0,0.0,0.0,0.0,0.0,0.0,0.0,0.0,
1.101066999999981,0.0,0.0,false,2850410.132416165,,30.0,0.0,0.0,0.0,0.0,0.125,4.805907711000001,0.01,0.0,117.0,0.0,0.0,-0.0,0.0,0.0,4.796142087000001,0.01,-0.0012207029999995456,-29.0,0.0,0.0,0.0,0.0,0.0,4.787597166,0.01,0.0,11.0,0.0,0.0,-0.0,0.0,0.0,4.775390136,0.01,0.0,1.1200000047683716,0.46000000834465027,99.0,0.0098876953125,0.02642822265625,0.99346923828125,30.940000534057617,0.0,6.0,-0.0186309814453125,-0.1090087890625,Waiting,0.0,0.0,0.0,0.0,0.0,0.0,0.0,0.0,
1.1423219999999856,0.0,0.0,false,2850745.2929848693,,30.0,0.0,0.0,0.0,0.0,0.125,4.805907711000001,0.01,0.0012207030000004337,117.0,0.0,0.0,-0.0,0.0,0.0,4.79736279,0.01,0.0012207029999995456,-29.0,0.0,0.0,0.0,0.0,0.0,4.788817869,0.01,0.0012207030000004337,11.0,0.0,0.0,-0.0,0.0,0.0,4.776610839,0.01,0.0,1.1299999952316284,0.46000000834465027,99.0,0.00860595703125,0.01629638671875,1.01068115234375,30.940000534057617,0.0,-3.0,-0.0186309814453125,-0.1090087890625,Waiting,0.0,0.0,0.0,0.0,0.0,0.0,0.0,0.0,
1.1811659999999975,0.0,0.0,false,2851072.2764311503,,30.0,0.0,0.0,0.0,0.0,0.125,4.805907711000001,0.01,0.0,117.0,0.0,0.0,-0.0,0.0,0.0,4.79736279,0.01,0.0,-29.0,0.0,0.0,0.0,0.0,0.0,4.787597166,0.01,0.0,11.0,0.0,0.0,-0.0,0.0,0.0,4.776610839,0.01,0.0,1.1299999952316284,0.4699999988079071,99.0,0.0057373046875,0.02264404296875,1.009033203125,30.940000534057617,0.0,3.0,-0.0186309814453125,-0.1090087890625,Waiting,0.0,0.0,0.0,0.0,0.0,0.0,0.0,0.0,
1.2195599999999978,0.0,0.0,false,2851391.086971468,,30.0,0.0,0.0,0.0,0.0,0.125,4.805907711000001,0.01,0.0,117.0,0.0,0.0,-0.0,0.0,0.0,4.79736279,0.01,0.0,-29.0,0.0,0.0,0.0,0.0,0.0,4.787597166,0.01,0.0,11.0,0.0,0.0,-0.0,0.0,0.0,4.776610839,0.01,0.0,1.1299999952316284,0.4699999988079071,99.0,0.00701904296875,0.0220947265625,1.00701904296875,30.940000534057617,0.0,2.0,-0.0186309814453125,-0.1090087890625,Waiting,0.0,0.0,0.0,0.0,0.0,0.0,0.0,0.0,
1.258560999999987,0.0,0.0,false,2851701.7288193847,,30.0,0.0,0.0,0.0,0.0,0.125,4.807128414,0.01,0.0,117.0,0.0,0.0,-0.0,0.0,0.0,4.79736279,0.01,0.0,-29.0,0.0,0.0,0.0,0.0,0.0,4.787597166,0.01,-0.0012207030000004337,11.0,0.0,0.0,-0.0,0.0,0.0,4.776610839,0.01,0.0,1.1299999952316284,0.4699999988079071,99.0,0.011474609375,0.02142333984375,0.99945068359375,30.940000534057617,0.0,1.0,-0.0186309814453125,-0.1090087890625,Waiting,0.0,0.0,0.0,0.0,0.0,0.0,0.0,0.0,
1.3007279999999737,0.0,0.0,false,2852004.206185567,,30.0,0.0,0.0,0.0,0.0,0.125,4.805907711000001,0.01,-0.0012207030000004337,117.0,0.0,0.0,-0.0,0.0,0.0,4.79736279,0.01,0.0,-29.0,0.0,0.0,0.0,0.0,0.0,4.787597166,0.01,-0.0012207030000004337,11.0,0.0,0.0,-0.0,0.0,0.0,4.776610839,0.01,0.0,1.1299999952316284,0.47999998927116394,99.0,0.008544921875,0.0223388671875,0.9990234375,30.940000534057617,0.0,2.0,-0.0186309814453125,-0.1090087890625,Waiting,0.0,0.0,0.0,0.0,0.0,0.0,0.0,0.0,
1.342130999999994,0.0,0.0,false,2852290.8187596635,,30.0,0.0,0.0,0.0,0.0,0.125,4.808349117000001,0.01,0.0,117.0,0.0,0.0,-0.0,0.0,0.0,4.79736279,0.01,-0.0012207029999995456,-29.0,0.0,0.0,0.0,0.0,0.0,4.788817869,0.01,0.0,11.0,0.0,0.0,-0.0,0.0,0.0,4.775390136,0.01,0.0,1.1299999952316284,0.4699999988079071,99.0,0.01031494140625,0.02423095703125,1.00433349609375,30.940000534057617,0.0,3.0,-0.0186309814453125,-0.1090087890625,Waiting,0.0,0.0,0.0,0.0,0.0,0.0,0.0,0.0,
1.385051999999996,0.0,0.0,false,2852569.2779113706,,30.0,0.0,0.0,0.0,0.0,0.125,4.805907711000001,0.01,0.0,117.0,0.0,0.0,-0.0,0.0,0.0,4.79736279,0.01,0.0,-29.0,0.0,0.0,0.0,0.0,0.0,4.788817869,0.01,0.0,11.0,0.0,0.0,-0.0,0.0,0.0,4.777831542,0.01,0.0,1.1299999952316284,0.47999998927116394,99.0,0.00714111328125,0.01885986328125,1.0050048828125,30.940000534057617,0.0,0.0,-0.0186309814453125,-0.1090087890625,Waiting,0.0,0.0,0.0,0.0,0.0,0.0,0.0,0.0,
1.4269629999999889,0.0,0.0,false,2852839.587841319,,30.0,0.0,0.0,0.0,0.0,0.125,4.805907711000001,0.01,0.0,117.0,0.0,0.0,-0.0,0.0,0.0,4.796142087000001,0.01,0.0012207029999995456,-29.0,0.0,0.0,0.0,0.0,0.0,4.786376463,0.01,0.0,11.0,0.0,0.0,-0.0,0.0,0.0,4.777831542,0.01,0.0,1.1299999952316284,0.47999998927116394,99.0,0.00799560546875,0.02020263671875,1.00634765625,30.940000534057617,0.0,0.0,-0.0186309814453125,-0.1090087890625,Waiting,0.0,0.0,0.0,0.0,0.0,0.0,0.0,0.0,
1.4675539999999747,0.0,0.0,false,2853101.7527472526,,30.0,0.0,0.0,0.0,0.0,0.125,4.805907711000001,0.01,0.0012207030000004337,117.0,0.0,0.0,-0.0,0.0,0.0,4.796142087000001,0.01,0.0,-29.0,0.0,0.0,0.0,0.0,0.0,4.787597166,0.01,0.0012207030000004337,11.0,0.0,0.0,-0.0,0.0,0.0,4.776610839,0.01,0.0,1.1299999952316284,0.47999998927116394,99.0,0.010009765625,0.01947021484375,1.00140380859375,30.940000534057617,0.0,0.0,-0.0186309814453125,-0.1090087890625,Waiting,0.0,0.0,0.0,0.0,0.0,0.0,0.0,0.0,
1.509140999999974,0.0,0.0,false,2853355.7768240343,,30.0,0.0,0.0,0.0,0.0,0.125,4.807128414,0.01,0.0,117.0,0.0,0.0,-0.0,0.0,0.0,4.79736279,0.01,0.0,-29.0,0.0,0.0,0.0,0.0,0.0,4.786376463,0.01,0.0,11.0,0.0,0.0,-0.0,0.0,0.0,4.776610839,0.01,0.0,1.1299999952316284,0.47999998927116394,99.0,0.010986328125,0.0201416015625,1.006103515625,30.940000534057617,0.0,0.0,-0.0186309814453125,-0.1090087890625,Waiting,0.0,0.0,0.0,0.0,0.0,0.0,0.0,0.0,
1.5519439999999887,0.0,0.0,false,2853601.6642636457,,30.0,0.0,0.0,0.0,0.0,0.125,4.805907711000001,0.01,0.0,117.0,0.0,0.0,-0.0,0.0,0.0,4.79736279,0.01,0.0,-29.0,0.0,0.0,0.0,0.0,0.0,4.787597166,0.01,0.0,11.0,0.0,0.0,-0.0,0.0,0.0,4.777831542,0.01,0.0,1.1299999952316284,0.47999998927116394,99.0,0.00897216796875,0.02093505859375,1.004638671875,30.940000534057617,0.0,0.0,-0.0186309814453125,-0.1090087890625,Waiting,0.0,0.0,0.0,0.0,0.0,0.0,0.0,0.0,
1.5922679999999818,0.0,0.0,false,2853839.7707224987,,30.0,0.0,0.0,0.0,0.0,0.125,4.805907711000001,0.01,0.0,117.0,0.0,0.0,-0.0,0.0,0.0,4.79736279,0.01,0.0,-29.0,0.0,0.0,0.0,0.0,0.0,4.787597166,0.01,0.0,11.0,0.0,0.0,-0.0,0.0,0.0,4.776610839,0.01,0.0,1.1299999952316284,0.47999998927116394,99.0,0.0096435546875,0.01904296875,1.002685546875,30.940000534057617,0.0,0.0,-0.0186309814453125,-0.1090087890625,Waiting,0.0,0.0,0.0,0.0,0.0,0.0,0.0,0.0,
1.624533999999985,0.0,0.0,false,2854062.0535346605,,30.0,0.0,0.0,0.0,0.0,0.125,4.807128414,0.01,-0.0012207030000004337,117.0,0.0,0.0,-0.0,0.0,0.0,4.79736279,0.01,-0.0012207029999995456,-29.0,0.0,0.0,0.0,0.0,0.0,4.786376463,0.01,-0.0012207030000004337,11.0,0.0,0.0,-0.0,0.0,0.0,4.776610839,0.01,0.0,1.1299999952316284,0.47999998927116394,99.0,0.00958251953125,0.02020263671875,1.004150390625,30.940000534057617,0.0,0.0,-0.0186309814453125,-0.1090087890625,Waiting,0.0,0.0,0.0,0.0,0.0,0.0,0.0,0.0,
1.6674609999999812,0.0,0.0,false,2854276.214788128,,30.0,0.0,0.0,0.0,0.0,0.125,4.807128414,0.01,0.0012207030000004337,117.0,0.0,0.0,-0.0,0.0,0.0,4.79736279,0.01,0.0012207029999995456,-29.0,0.0,0.0,0.0,0.0,0.0,4.787597166,0.01,0.0012207030000004337,11.0,0.0,0.0,-0.0,0.0,0.0,4.777831542,0.01,0.0,1.1299999952316284,0.4699999988079071,99.0,0.0084228515625,0.02227783203125,1.00823974609375,30.940000534057617,0.0,2.0,-0.0186309814453125,-0.1090087890625,Waiting,0.0,0.0,0.0,0.0,0.0,0.0,0.0,0.0,
1.7089899999999907,0.0,0.0,false,2854483.4442538596,,30.0,0.0,0.0,0.0,0.0,0.125,4.805907711000001,0.01,0.0,117.0,0.0,0.0,-0.0,0.0,0.0,4.798583493000001,0.01,0.0,-29.0,0.0,0.0,0.0,0.0,0.0,4.786376463,0.01,0.0,11.0,0.0,0.0,-0.0,0.0,0.0,4.775390136,0.01,0.0,1.1299999952316284,0.47999998927116394,99.0,0.00738525390625,0.01800537109375,0.99981689453125,30.940000534057617,0.0,-1.0,-0.0186309814453125,-0.1090087890625,Waiting,0.0,0.0,0.0,0.0,0.0,0.0,0.0,0.0,
1.759877999999997,0.0,0.0,false,2855054.762476419,,30.0,0.0,0.0,0.0,0.0,0.125,4.805907711000001,0.01,-0.0012207030000004337,117.0,0.0,0.0,-0.0,0.0,0.0,4.79736279,0.01,-0.0012207029999995456,-29.0,0.0,0.0,0.0,0.0,0.0,4.787597166,0.01,-0.0012207030000004337,11.0,0.0,0.0,-0.0,0.0,0.0,4.777831542,0.01,0.0,1.1299999952316284,0.47999998927116394,99.0,0.0093994140625,0.018798828125,0.99932861328125,30.940000534057617,0.0,-1.0,-0.0186309814453125,-0.1090087890625,Waiting,0.0,0.0,0.0,0.0,0.0,0.0,0.0,0.0,
1.797261999999988,0.0,0.0,false,2855610.2606310016,,30.0,0.0,0.0,0.0,0.0,0.125,4.804687008,0.01,-0.0012207030000004337,117.0,0.0,0.0,-0.0,0.0,0.0,4.798583493000001,0.01,-0.0012207029999995456,-29.0,0.0,0.0,0.0,0.0,0.0,4.787597166,0.01,-0.0012207030000004337,11.0,0.0,0.0,-0.0,0.0,0.0,4.776610839,0.01,0.0,1.1399999856948853,0.47999998927116394,99.0,0.009033203125,0.0216064453125,1.008056640625,30.940000534057617,0.0,1.0,-0.0186309814453125,-0.1090087890625,Waiting,0.0,0.0,0.0,0.0,0.0,0.0,0.0,0.0,
1.8440919999999752,0.0,0.0,false,2856157.582033259,,30.0,0.0,0.0,0.0,0.0,0.125,4.805907711000001,0.01,0.0,117.0,0.0,0.0,-0.0,0.0,0.0,4.79736279,0.01,0.0,-29.0,0.0,0.0,0.0,0.0,0.0,4.787597166,0.01,0.0,11.0,0.0,0.0,-0.0,0.0,0.0,4.776610839,0.01,0.0,1.1399999856948853,0.47999998927116394,99.0,0.00567626953125,0.02215576171875,1.00335693359375,30.940000534057617,0.0,2.0,-0.0186309814453125,-0.1090087890625,Waiting,0.0,0.0,0.0,0.0,0.0,0.0,0.0,0.0,
1.8827669999999925,0.0,0.0,false,2856696.7089475486,,30.0,0.0,0.0,0.0,0.0,0.125,4.807128414,0.01,0.0,117.0,0.0,0.0,-0.0,0.0,0.0,4.79736279,0.01,0.0,-29.0,0.0,0.0,0.0,0.0,0.0,4.787597166,0.01,0.0,11.0,0.0,0.0,-0.0,0.0,0.0,4.776610839,0.01,0.0,1.1399999856948853,0.47999998927116394,99.0,0.00994873046875,0.0238037109375,1.005615234375,30.940000534057617,0.0,3.0,-0.0186309814453125,-0.1090087890625,Waiting,0.0,0.0,0.0,0.0,0.0,0.0,0.0,0.0,
1.9249519999999902,0.0,0.0,false,2857227.667523565,,30.0,0.0,0.0,0.0,0.0,0.125,4.805907711000001,0.01,0.0,117.0,0.0,0.0,-0.0,0.0,0.0,4.79736279,0.01,0.0,-29.0,0.0,0.0,0.0,0.0,0.0,4.786376463,0.01,0.0,11.0,0.0,0.0,-0.0,0.0,0.0,4.776610839,0.01,-0.0012207029999995456,1.1399999856948853,0.47999998927116394,99.0,0.01275634765625,0.01861572265625,1.001220703125,30.940000534057617,0.0,-2.0,-0.0186309814453125,-0.1090087890625,Waiting,0.0,0.0,0.0,0.0,0.0,0.0,0.0,0.0,
1.9646019999999844,0.0,0.0,false,2857750.461960247,,30.0,0.0,0.0,0.0,0.0,0.125,4.805907711000001,0.01,0.0012207030000004337,117.0,0.0,0.0,-0.0,0.0,0.0,4.79736279,0.01,0.0012207029999995456,-29.0,0.0,0.0,0.0,0.0,0.0,4.787597166,0.01,0.0012207030000004337,11.0,0.0,0.0,-0.0,0.0,0.0,4.777831542,0.01,0.0012207029999995456,1.1299999952316284,0.47999998927116394,98.98999786376953,0.0072021484375,0.02008056640625,1.00360107421875,30.940000534057617,0.0,0.0,-0.0186309814453125,-0.1090087890625,Waiting,0.0,0.0,0.0,0.0,0.0,0.0,0.0,0.0,
2.00374099999998,0.0,0.0,false,2858265.447318828,,30.0,0.0,0.0,0.0,0.0,0.125,4.805907711000001,0.01,0.0012207030000004337,117.0,0.0,0.0,-0.0,0.0,0.0,4.79736279,0.01,0.0012207029999995456,-29.0,0.0,0.0,0.0,0.0,0.0,4.787597166,0.01,0.0012207030000004337,11.0,0.0,0.0,-0.0,0.0,0.0,4.776610839,0.01,0.0,1.1299999952316284,0.47999998927116394,98.98999786376953,0.00830078125,0.01934814453125,1.00323486328125,30.940000534057617,0.0,0.0,-0.0186309814453125,-0.1090087890625,Waiting,0.0,0.0,0.0,0.0,0.0,0.0,0.0,0.0,
2.0451269999999786,0.0,0.0,false,2858764.6481671804,,30.0,0.0,0.0,0.0,0.0,0.125,4.807128414,0.01,0.0,117.0,0.0,0.0,-0.0,0.0,0.0,4.798583493000001,0.01,0.0,-29.0,0.0,0.0,0.0,0.0,0.0,4.787597166,0.01,0.0,11.0,0.0,0.0,-0.0,0.0,0.0,4.777831542,0.01,0.0,1.1299999952316284,0.47999998927116394,98.98999786376953,0.008544921875,0.01580810546875,0.9993896484375,30.940000534057617,0.0,-4.0,-0.0186309814453125,-0.1090087890625,Waiting,0.0,0.0,0.0,0.0,0.0,0.0,0.0,0.0,
2.086121999999974,0.0,0.0,false,2859255.3259119713,,30.0,0.0,0.0,0.0,0.0,0.125,4.805907711000001,0.01,0.0,117.0,0.0,0.0,-0.0,0.0,0.0,4.79736279,0.01,-0.0012207029999995456,-29.0,0.0,0.0,0.0,0.0,0.0,4.787597166,0.01,-0.0012207030000004337,11.0,0.0,0.0,-0.0,0.0,0.0,4.777831542,0.01,0.0,1.1299999952316284,0.47999998927116394,98.98999786376953,0.0078125,0.01898193359375,1.00408935546875,30.93000030517578,0.0,0.0,-0.0186309814453125,-0.1090087890625,Waiting,0.0,0.0,0.0,0.0,0.0,0.0,0.0,0.0,
2.122917999999976,0.0,0.0,false,2859737.85890411,,30.0,0.0,0.0,0.0,0.0,0.125,4.804687008,0.01,-0.0012207030000004337,117.0,0.0,0.0,-0.0,0.0,0.0,4.79736279,0.01,0.0,-29.0,0.0,0.0,0.0,0.0,0.0,4.787597166,0.01,0.0,11.0,0.0,0.0,-0.0,0.0,0.0,4.777831542,0.01,0.0,1.1299999952316284,0.47999998927116394,98.98999786376953,0.00726318359375,0.01763916015625,1.0076904296875,30.93000030517578,0.0,-2.0,-0.0186309814453125,-0.1090087890625,Waiting,0.0,0.0,0.0,0.0,0.0,0.0,0.0,0.0,
2.1625199999999896,0.0,0.0,false,2860212.2294127718,,30.0,0.0,0.0,0.0,0.0,0.125,4.804687008,0.01,0.0,117.0,0.0,0.0,-0.0,0.0,0.0,4.79736279,0.01,0.0,-29.0,0.0,0.0,0.0,0.0,0.0,4.788817869,0.01,0.0,11.0,0.0,0.0,-0.0,0.0,0.0,4.776610839,0.01,0.0,1.1299999952316284,0.47999998927116394,98.98999786376953,0.010986328125,0.01910400390625,0.99957275390625,30.93000030517578,0.0,-1.0,-0.0186309814453125,-0.1090087890625,Waiting,0.0,0.0,0.0,0.0,0.0,0.0,0.0,0.0,
2.2058479999999983,0.0,0.0,false,2860678.4635398835,,30.0,0.125,0.0,-984.3749999999999,0.0,0.125,4.807128414,0.11941713829040225,0.0,117.0,0.0,0.0,984.3749999999999,0.0,0.0,4.798583493000001,0.11941713829040225,0.0,-29.0,0.0,0.0,-984.3749999999999,0.0,0.0,4.787597166,0.11941713829040225,0.0,11.0,0.0,0.0,984.3749999999999,0.0,0.0,4.779052245,0.11941713829040225,0.0,1.1299999952316284,0.49000000953674316,98.98999786376953,0.00775146484375,0.018798828125,0.99853515625,30.93000030517578,0.0,0.0,-0.0186309814453125,-0.1090087890625,Waiting,0.0,0.0,0.0,0.0,0.0,0.0,0.0,0.0,
2.2447189999999826,0.0,0.0,false,2861136.565462947,,30.0,0.25,0.0,-2701.061848638773,0.0,0.125,4.802245602,0.3996682319107709,0.0012207030000004337,118.0,0.125,0.0,2701.061848638773,0.0,0.0,4.798583493000001,0.3996682319107709,0.0012207029999995456,-30.0,1.0,0.0,-2701.061848638773,0.0,0.0,4.79736279,0.3996682319107709,0.0012207030000004337,11.0,2.0,0.0,2701.061848638773,0.0,0.0,4.803466305000001,0.3996682319107709,0.0,1.1299999952316284,0.49000000953674316,98.98999786376953,0.0087890625,0.01446533203125,1.00927734375,30.93000030517578,0.0,-5.0,-0.0186309814453125,-0.1090087890625,Waiting,0.0,0.0,0.0,0.0,0.0,0.0,0.0,0.0,
2.285130999999994,0.0,0.0,false,2861579.2689938396,,30.0,3.125,-30.0,-3065.845917325585,0.0,0.5,4.887694812,0.5805959762397326,0.0,118.0,3.125,22.5,3065.845917325585,0.0,2.0,4.8181147410000005,0.5805959762397326,0.0,-30.0,4.625,-82.5,-3065.845917325585,0.0,2.0,4.891356921,0.5805959762397326,0.0,11.0,6.125,22.5,3065.845917325585,0.0,2.875,4.912108872,0.5805959762397326,0.0,1.1399999856948853,0.5299999713897705,99.01000213623047,0.2186279296875,-0.0517578125,1.1229248046875,30.93000030517578,0.0,-105.0,-0.018768310546875,-0.1092071533203125,Waiting,0.0,0.0,0.0,0.0,0.0,0.0,0.0,0.0,
2.322688999999984,0.0,0.0,false,2862013.851154833,,30.0,6.25,-105.0,-3123.4168284805746,0.0,2.75,0.102539052,0.6013989204526512,0.0,118.0,7.75,82.5,3123.4168284805746,0.0,2.5,0.104980458,0.6013989204526512,0.0,-30.0,9.125,-195.0,-3123.4168284805746,0.0,2.875,0.16845701400000002,0.6013989204526512,0.0,11.0,8.25,52.5,3123.4168284805746,0.0,4.375,0.15869139000000002,0.6013989204526512,0.0,1.0299999713897705,0.6700000166893005,99.16000366210938,0.01031494140625,0.05426025390625,1.11810302734375,30.93000030517578,0.0,34.0,-0.0198516845703125,-0.110382080078125,Waiting,0.0,0.0,0.0,0.0,0.0,0.0,0.0,0.0,
2.363311999999976,0.0,0.0,false,2862440.295586726,,9.0,7.75,-135.0,-2589.353789735785,0.0,3.0,0.344238246,0.29915136140762266,0.0,137.0,9.75,112.5,2589.353789735785,0.0,2.875,0.393066366,0.29915136140762266,0.0,-59.0,7.75,-180.0,-2589.353789735785,0.0,1.625,0.418701129,0.29915136140762266,0.0,24.0,7.25,67.5,2589.353789735785,0.0,1.375,0.37841793,0.29915136140762266,0.0,1.100000023841858,0.7200000286102295,99.43000030517578,-0.05316162109375,0.14239501953125,1.07073974609375,30.93000030517578,0.0,130.0,-0.0212860107421875,-0.1111907958984375,Waiting,0.0,0.0,0.0,0.0,0.0,0.0,0.0,0.0,
2.403791999999987,0.0,0.0,false,2862858.626988199,,9.0,6.625,-75.0,-2592.8519717978984,0.0,1.875,0.38208003900000004,4.728014146410367,0.17211912299999998,137.0,7.75,82.5,2592.8519717978984,0.0,1.625,0.5029296360000001,4.728014146410367,0.25878903600000003,-59.0,6.5,-135.0,-2592.8519717978984,0.0,1.0,0.5151366660000001,4.728014146410367,0.241699194,24.0,6.5,67.5,2592.8519717978984,0.0,1.125,0.416259723,4.728014146410367,0.19653318300000003,1.1399999856948853,0.6499999761581421,99.66999816894531,0.02825927734375,0.09716796875,0.82159423828125,30.93000030517578,0.0,76.0,-0.0218353271484375,-0.1114654541015625,Waiting,0.0,0.0,0.0,0.0,0.0,0.0,0.0,0.0,
2.442996999999974,0.0,0.0,false,2863268.849521204,,9.0,6.0,-15.0,-2825.8503145350032,0.0,3.125,0.36254879100000004,4.388867280083829,0.0073242179999999935,137.0,6.125,52.5,3342.5188229302485,0.0,4.5,0.39428706900000005,4.454176567450099,0.06958007100000002,-59.0,6.625,-52.5,-2588.9801394560013,0.0,5.875,0.42846675300000003,4.538090359310212,0.04882812000000003,24.0,5.75,75.0,3144.808459029429,0.0,6.0,0.339355434,4.582337376750025,0.015869138999999977,1.2899999618530273,0.5400000214576721,99.86000061035156,-0.080322265625,0.09356689453125,1.28643798828125,30.93000030517578,0.0,79.0,-0.0221405029296875,-0.111572265625,Waiting,0.0,0.0,0.0,0.0,0.0,0.0,0.0,0.0,
2.4828619999999937,0.0,0.0,false,2863663.7031971277,,10.0,7.25,0.0,-2865.4516989603226,0.0,4.0,0.13916014200000001,3.9636770502862793,0.0,149.0,10.75,60.0,4200.0,0.0,6.125,0.09399413100000001,4.292082856816256,0.0,-64.0,6.375,-30.0,-1459.8900673578194,0.0,7.75,0.15869139000000002,4.502647087420537,0.0,36.0,8.875,75.0,3400.068465442339,0.0,6.75,0.09399413100000001,4.664260142989044,0.0,1.2100000381469727,0.5099999904632568,99.8499984741211,0.08868408203125,-0.0936279296875,0.9609375,30.93000030517578,0.0,-125.0,-0.0223541259765625,-0.1111602783203125,Waiting,0.0,0.0,0.0,0.0,0.0,0.0,0.0,0.0,
2.5220839999999733,0.0,0.0,false,2864050.458803419,,10.0,8.0,7.5,-2337.6836135172116,0.0,1.875,4.842528801,3.947924383411274,0.0,149.0,20.5,120.0,4200.0,0.0,0.5,4.735106937,4.38788498464874,0.0,-64.0,2.875,15.0,-1180.6583323766204,0.0,1.125,4.8205561470000005,0.33386034030936,0.0,36.0,12.25,82.5,3683.6380686630246,0.0,0.75,4.82177685,0.10393069094525523,0.0,1.2799999713897705,0.7099999785423279,99.8499984741211,0.015380859375,-0.03289794921875,0.99566650390625,30.93000030517578,0.0,-54.0,-0.023162841796875,-0.1111602783203125,Waiting,0.0,0.0,0.0,0.0,0.0,0.0,0.0,0.0,
2.558703999999998,0.0,0.0,false,2864429.1204922237,,10.0,7.25,0.0,1667.1955158231233,0.0,1.875,4.632567885,0.9291449524810073,4.698485847,149.0,23.0,180.0,2864.3017755321443,0.0,0.0,4.560546408,4.341708031821475,0.0,-64.0,1.5,67.5,1515.6430884267922,0.0,3.875,4.869384267,3.8808257360441947,0.0,36.0,14.5,97.5,2778.8230862780324,0.0,0.5,4.825438959,0.4030309012633053,0.0,1.2200000286102295,0.7799999713897705,99.93000030517578,0.07781982421875,0.0120849609375,0.95892333984375,30.920000076293945,0.0,-19.0,-0.0237579345703125,-0.111328125,Waiting,0.0,0.0,0.0,0.0,0.0,0.0,0.0,0.0,
2.5943649999999905,0.0,0.0,false,2864799.6924128504,,21.0,3.75,15.0,2099.9999999999995,0.0,10.0,4.580077656,0.5977500000000006,-0.209960916,178.0,15.0,187.5,2099.9999999999995,0.0,0.0,4.410399939,4.184250000000001,-0.12207029999999985,-36.0,1.125,127.5,2099.9999999999995,0.0,9.5,4.771728027,4.184249999999999,0.053710932000000426,54.0,9.875,105.0,2099.9999999999995,0.0,2.25,4.848632316000001,0.5977499999999984,0.004882811999999959,1.2300000190734863,0.6600000262260437,100.08000183105469,-0.1142578125,0.13336181640625,1.2728271484375,30.920000076293945,0.0,126.0,-0.0246124267578125,-0.111480712890625,Waiting,0.0,0.0,0.0,0.0,0.0,0.0,0.0,0.0,
2.641736999999994,0.0,0.0,false,2865162.178711772,,21.0,2.375,82.5,2099.9999999999995,0.0,10.875,4.8657221580000005,0.5977500000000006,0.11596678500000035,178.0,5.5,157.5,2099.9999999999995,0.0,0.625,4.213866756,4.184250000000001,-0.19042966800000016,-36.0,2.125,240.0,2099.9999999999995,0.0,5.625,4.475097198,4.184249999999999,4.613542986,54.0,4.375,82.5,2099.9999999999995,0.0,3.5,0.167236311,0.5977499999999984,0.08666991299999971,1.2999999523162842,0.46000000834465027,100.1500015258789,-0.1217041015625,0.12957763671875,1.04107666015625,30.920000076293945,0.0,127.0,-0.0250396728515625,-0.110626220703125,Waiting,0.0,0.0,0.0,0.0,0.0,0.0,0.0,0.0,
2.682015999999974,0.0,0.0,false,2865516.583532627,,21.0,3.375,142.5,2099.9999999999995,0.0,1.875,0.19531248,0.5977500000000006,0.0,178.0,3.625,112.5,2099.9999999999995,0.0,0.625,4.019774979,4.184250000000001,0.0,-36.0,2.625,270.0,2099.9999999999995,0.0,0.375,4.200439023,4.184249999999999,0.0,54.0,5.875,37.5,2099.9999999999995,0.0,2.625,0.42846675300000003,0.5977499999999984,0.0,1.2599999904632568,0.4300000071525574,100.22000122070312,0.05078125,0.01068115234375,1.03485107421875,30.920000076293945,0.0,-19.0,-0.025115966796875,-0.1097564697265625,Waiting,0.0,0.0,0.0,0.0,0.0,0.0,0.0,0.0,
2.7224539999999977,0.0,0.0,false,2865855.304526046,,34.0,3.625,105.0,2099.9999999999995,0.0,2.25,0.46020503100000004,0.5977500000000006,0.0,190.0,3.625,82.5,2099.9999999999995,0.0,0.75,3.912353115,4.184250000000001,0.0,-6.0,2.75,180.0,2099.9999999999995,0.0,0.0,4.0307613060000005,4.184249999999999,0.0,54.0,6.5,0.0,2099.9999999999995,0.0,2.25,0.611572203,0.5977499999999984,0.0,1.100000023841858,0.4099999964237213,100.47000122070312,0.02911376953125,-0.09027099609375,0.84259033203125,30.920000076293945,0.0,-108.0,-0.025848388671875,-0.108428955078125,Waiting,0.0,0.0,0.0,0.0,0.0,0.0,0.0,0.0,
2.7622729999999867,0.0,0.0,false,2866185.954918033,,34.0,2.875,60.0,2099.9999999999995,0.0,2.0,0.637206966,0.5977500000000006,0.0,190.0,3.75,82.5,2099.9999999999995,0.0,1.125,3.929442957,4.184250000000001,0.0,-6.0,3.25,120.0,2099.9999999999995,0.0,0.0,4.016112870000001,4.184249999999999,0.0,54.0,6.0,-7.5,2099.9999999999995,0.0,1.375,0.6604003230000001,0.5977499999999984,0.0,0.8899999856948853,0.38999998569488525,100.83999633789062,0.05645751953125,-0.11663818359375,1.04400634765625,30.920000076293945,0.0,-139.0,-0.0279083251953125,-0.1068878173828125,Waiting,0.0,0.0,0.0,0.0,0.0,0.0,0.0,0.0,
2.8024089999999853,0.0,0.0,false,2866508.538842411,,34.0,2.75,105.0,2099.9999999999995,0.0,0.875,0.7397460180000001,0.5977500000000006,0.142822251,190.0,3.625,97.5,2099.9999999999995,0.0,0.875,3.9990230280000003,4.184250000000001,0.014648435999999876,-6.0,3.875,52.5,2099.9999999999995,0.0,0.125,4.041747633,4.184249999999999,0.003662108999999525,54.0,5.75,-7.5,2099.9999999999995,0.0,0.375,0.670165947,0.5977499999999984,0.03540038700000003,0.8199999928474426,0.46000000834465027,101.02999877929688,0.0775146484375,0.038818359375,1.0118408203125,30.920000076293945,0.0,10.0,-0.0288543701171875,-0.1060333251953125,Waiting,0.0,0.0,0.0,0.0,0.0,0.0,0.0,0.0,
2.8445659999999915,0.0,0.0,false,2866823.0604301807,,57.0,3.0,142.5,2099.9999999999995,0.0,0.25,0.734863206,0.5977500000000006,0.079345695,211.0,3.875,120.0,2099.9999999999995,0.0,0.75,4.136962467,4.184250000000001,0.104980458,-6.0,4.125,7.5,2099.9999999999995,0.0,0.375,4.127196843,4.184249999999999,0.046386714000000495,56.0,5.625,0.0,2099.9999999999995,0.0,0.0,0.654296808,0.5977499999999984,0.004882811999999959,1.0099999904632568,0.550000011920929,101.16000366210938,-0.00433349609375,0.1876220703125,1.03765869140625,30.920000076293945,0.0,168.0,-0.0281982421875,-0.105316162109375,Waiting,0.0,0.0,0.0,0.0,0.0,0.0,0.0,0.0,
2.87772199999998,0.0,0.0,false,2867129.873357228,,57.0,3.125,120.0,2099.9999999999995,0.0,0.125,0.7006835220000001,0.5977500000000006,0.0,211.0,4.5,112.5,2099.9999999999995,0.0,0.625,4.218749568,4.184250000000001,0.0,-6.0,5.25,-7.5,2099.9999999999995,0.0,0.125,4.1906733990000005,4.184249999999999,0.0,56.0,4.625,15.0,2099.9999999999995,0.0,0.0,0.624999936,0.5977499999999984,0.0,1.2100000381469727,0.47999998927116394,101.2699966430664,-0.0247802734375,0.0921630859375,0.9560546875,30.920000076293945,0.0,76.0,-0.0260162353515625,-0.104644775390625,Waiting,0.0,0.0,0.0,0.0,0.0,0.0,0.0,0.0,
2.920578999999998,0.0,0.0,false,2867421.0320819113,,57.0,2.875,67.5,1437.6441540608143,0.0,0.125,0.6860350860000001,0.8697203043722292,0.0,211.0,6.125,67.5,2709.6556182735612,0.0,0.25,4.223632380000001,4.398622734622294,0.0,-6.0,5.75,-22.5,1765.808514989245,0.0,0.0,4.197997617,3.848876089721583,0.0,56.0,4.625,15.0,2897.152492973879,0.0,0.0,0.588378846,0.46497262851397647,0.0,1.2599999904632568,0.4300000071525574,101.30999755859375,-0.02044677734375,0.05914306640625,1.05859375,30.920000076293945,0.0,40.0,-0.0240936279296875,-0.10400390625,Waiting,0.0,0.0,0.0,0.0,0.0,0.0,0.0,0.0,
2.9616599999999744,0.0,0.0,false,2867704.1433202527,,58.0,1.75,15.0,-1662.2121531863288,0.0,0.875,0.6982421160000001,4.61909074533978,0.0,213.0,9.75,15.0,3336.7536952989853,0.0,1.0,4.276122609000001,4.701313583034663,0.0,-8.0,4.75,-15.0,-2106.094908411463,0.0,2.625,4.044189039,0.5251667482805096,0.0,59.0,8.75,15.0,3578.632664039129,0.0,0.0,0.587158143,0.29225073833532017,0.0,1.2000000476837158,0.4699999988079071,101.27999877929688,0.04010009765625,-0.05389404296875,1.007568359375,30.920000076293945,0.0,-79.0,-0.02130126953125,-0.1036376953125,Waiting,0.0,0.0,0.0,0.0,0.0,0.0,0.0,0.0,
3.0031049999999815,0.0,0.0,false,2867979.21119072,,58.0,1.0,-82.5,-2190.6672908089377,0.0,8.25,0.675048759,0.07074204578714072,0.010986326999999907,213.0,12.5,7.5,2768.7354030236525,0.0,5.25,4.439696811,0.05594202497739358,0.06225585299999992,-8.0,2.625,-90.0,-2317.619590629915,0.0,9.375,4.152831606,0.2624208085470875,-0.16235349899999996,59.0,13.125,22.5,2870.2322414410914,0.0,0.75,0.465087843,0.21039196908411512,-0.014648435999999987,1.1100000143051147,0.46000000834465027,101.4000015258789,-0.13519287109375,-0.03057861328125,0.98211669921875,30.920000076293945,0.0,-20.0,-0.0188751220703125,-0.103546142578125,Waiting,0.0,0.0,0.0,0.0,0.0,0.0,0.0,0.0,
3.0442119999999995,0.0,0.0,false,2868246.2398089715,,58.0,3.0,-202.5,-2557.530683940835,0.0,6.125,0.430908159,0.2819749592454807,-0.07080077399999996,213.0,9.875,15.0,2557.530683940835,0.0,5.25,4.691161629000001,0.2819749592454807,0.209960916,-8.0,3.25,-232.5,-2557.530683940835,0.0,6.25,4.428710484000001,0.2819749592454807,0.1757812319999994,59.0,9.625,30.0,2557.530683940835,0.0,1.125,0.29785153200000003,0.2819749592454807,-0.15136717200000005,1.2000000476837158,0.3799999952316284,101.61000061035156,0.094970703125,-0.0628662109375,1.06097412109375,30.920000076293945,0.0,-101.0,-0.01739501953125,-0.1031646728515625,Waiting,0.0,0.0,0.0,0.0,0.0,0.0,0.0,0.0,
3.085125,0.0,0.0,false,2868505.2332878583,,35.0,5.5,-157.5,-2778.661313252173,0.0,1.25,0.17456052900000002,0.48640935046840766,0.0,217.0,8.5,15.0,2778.661313252173,0.0,2.875,0.028076169,0.48640935046840766,0.0,-52.0,4.5,-262.5,-2778.661313252173,0.0,0.75,4.748534670000001,0.48640935046840766,0.0,70.0,7.25,60.0,2778.661313252173,0.0,0.25,0.095214834,0.48640935046840766,0.0,1.1699999570846558,0.5,101.83000183105469,0.127197265625,-0.01318359375,1.1676025390625,30.90999984741211,0.0,-60.0,-0.01519775390625,-0.103179931640625,Waiting,0.0,0.0,0.0,0.0,0.0,0.0,0.0,0.0,
3.1225619999999763,0.0,0.0,false,2868748.602216539,,35.0,6.375,-82.5,-2957.3343595751594,0.0,0.625,0.133056627,0.577122736037245,0.0,217.0,8.5,22.5,2957.3343595751594,0.0,1.75,0.209960916,0.577122736037245,0.0,-52.0,6.375,-165.0,-2957.3343595751594,0.0,1.0,0.10864256700000001,0.577122736037245,0.0,70.0,8.0,90.0,2957.3343595751594,0.0,2.25,4.94384715,0.577122736037245,0.0,1.159999966621399,0.6700000166893005,101.97000122070312,0.0211181640625,0.06121826171875,1.0810546875,30.90999984741211,0.0,36.0,-0.0130767822265625,-0.1042022705078125,Waiting,0.0,0.0,0.0,0.0,0.0,0.0,0.0,0.0,
3.1650909999999857,0.0,0.0,false,2868983.946812138,,35.0,8.375,30.0,-3077.190372249471,0.0,3.875,0.225830055,0.624745591049487,0.0,217.0,9.5,37.5,3077.190372249471,0.0,3.625,0.477294873,0.624745591049487,0.0,-52.0,7.75,-120.0,-3077.190372249471,0.0,1.0,0.40893550500000003,0.624745591049487,0.0,70.0,9.0,97.5,3077.190372249471,0.0,7.625,0.206298807,0.624745591049487,0.0,1.2000000476837158,0.7300000190734863,102.1500015258789,0.02423095703125,0.04779052734375,0.9874267578125,30.90999984741211,0.0,23.0,-0.0108489990234375,-0.1057281494140625,Waiting,0.0,0.0,0.0,0.0,0.0,0.0,0.0,0.0,
3.206946999999986,0.0,0.0,false,2869211.271177774,,33.0,9.0,7.5,-3521.977395204298,0.0,4.25,0.468749952,0.7511090877619545,0.17456052900000005,228.0,10.25,45.0,3521.977395204298,0.0,2.375,0.679931571,0.7511090877619545,0.290527314,-68.0,8.125,-97.5,-3521.977395204298,0.0,0.75,0.667724541,0.7511090877619545,0.31982418600000007,85.0,10.25,90.0,3521.977395204298,0.0,1.125,0.46752924900000004,0.7511090877619545,0.0,1.2999999523162842,0.7599999904632568,102.41999816894531,0.10296630859375,0.14483642578125,1.06866455078125,30.90999984741211,0.0,98.0,-0.0082855224609375,-0.106109619140625,Waiting,0.0,0.0,0.0,0.0,0.0,0.0,0.0,0.0,
3.251603999999992,0.0,0.0,false,2869430.5794137698,,33.0,9.875,-30.0,-3427.4348667224876,0.0,1.25,0.70800774,0.793650119443584,0.261230442,228.0,13.375,82.5,3427.4348667224876,0.0,0.25,0.832519446,0.793650119443584,0.19531248,-68.0,11.875,-90.0,-3427.4348667224876,0.0,0.125,0.898437408,0.793650119443584,0.261230442,85.0,13.0,90.0,3427.4348667224876,0.0,2.0,0.718994067,0.793650119443584,0.26855466,1.3600000143051147,0.7599999904632568,102.58999633789062,-0.03814697265625,0.0701904296875,0.90521240234375,30.90999984741211,0.0,58.0,-0.006134033203125,-0.1067962646484375,Waiting,0.0,0.0,0.0,0.0,0.0,0.0,0.0,0.0,
3.2977029999999794,0.0,0.0,false,2869641.875617652,,33.0,10.75,-52.5,-913.7833963169583,0.0,1.25,0.9191893590000001,0.969084356667148,0.235595679,228.0,13.5,127.5,913.7833963169583,0.0,0.125,0.90332022,0.969084356667148,0.118408191,-68.0,10.25,-75.0,-913.7833963169583,0.0,0.0,0.9851073210000001,0.969084356667148,0.17456052899999996,85.0,10.0,105.0,913.7833963169583,0.0,2.0,0.937499904,0.969084356667148,0.262451145,1.4700000286102295,0.6100000143051147,102.81999969482422,-0.01885986328125,0.04156494140625,1.0223388671875,30.90999984741211,0.0,21.0,-0.002197265625,-0.1075897216796875,Waiting,0.0,0.0,0.0,0.0,0.0,0.0,0.0,0.0,
3.3378769999999784,0.0,0.0,false,2869845.163884157,,28.0,4.875,-52.5,0.0,0.0,1.125,0.9985350540000001,0.969084356667148,0.12573240900000004,245.0,3.125,105.0,0.0,0.0,0.0,0.9106444380000001,0.969084356667148,0.031738278000000064,-73.0,2.875,-15.0,0.0,0.0,0.0,0.9851073210000001,0.969084356667148,0.05737304100000007,101.0,2.25,97.5,0.0,0.0,0.25,1.0327147380000001,0.969084356667148,0.16357420200000006,1.4199999570846558,0.38999998569488525,103.11000061035156,-0.095947265625,-0.05914306640625,1.072509765625,30.90999984741211,0.0,-60.0,0.00103759765625,-0.107452392578125,Waiting,0.0,0.0,0.0,0.0,0.0,0.0,0.0,0.0,
3.3865229999999866,0.0,0.0,false,2870411.6668369956,,28.0,0.0,7.5,0.0,0.0,0.25,1.0034178660000002,0.969084356667148,0.05493163499999998,245.0,0.0,45.0,0.0,0.0,0.0,0.9362792010000001,0.969084356667148,0.014648435999999987,-73.0,0.0,82.5,0.0,0.0,0.0,0.9851073210000001,0.969084356667148,-0.0012207029999999897,101.0,0.0,45.0,0.0,0.0,0.0,1.0339354410000001,0.969084356667148,0.08422850700000006,1.340000033378601,0.25999999046325684,103.43000030517578,-0.02825927734375,0.02618408203125,0.937744140625,30.90999984741211,0.0,11.0,0.003631591796875,-0.1060333251953125,Waiting,0.0,0.0,0.0,0.0,0.0,0.0,0.0,0.0,
3.4232739999999757,0.0,0.0,false,2870968.944141689,,28.0,0.0,15.0,0.0,0.0,0.125,0.989990133,0.969084356667148,-0.0012207029999999897,245.0,0.0,0.0,0.0,0.0,0.0,0.9472655280000001,0.969084356667148,0.014648435999999987,-73.0,0.0,135.0,0.0,0.0,0.0,0.991210836,0.969084356667148,0.0012207029999999897,100.0,0.0,0.0,0.0,0.0,0.0,1.027831926,0.969084356667148,-0.0012207029999999897,1.340000033378601,0.25999999046325684,103.52999877929688,0.05938720703125,0.01708984375,1.05859375,30.90999984741211,0.0,-76.0,0.006103515625,-0.1043701171875,Waiting,0.0,0.0,0.0,0.0,0.0,0.0,0.0,0.0,
3.4636629999999715,0.0,0.0,false,2871518.0248595267,,29.0,0.125,0.0,-677.9527455568314,0.0,0.0,0.9716795880000001,0.5977499999999984,0.0,245.0,0.0,0.0,677.9527455568314,0.0,0.0,0.941162013,1.7932499999999991,0.0,-53.0,0.0,97.5,677.9527455568314,0.0,0.0,0.9863280240000001,1.7932500000000018,0.0,100.0,0.0,0.0,-677.9527455568314,0.0,0.0,1.036376847,0.5977500000000006,0.0,1.2100000381469727,0.38999998569488525,103.58999633789062,0.06427001953125,-0.03948974609375,0.98748779296875,30.90999984741211,0.0,-72.0,0.0073089599609375,-0.10357666015625,Waiting,0.0,0.0,0.0,0.0,0.0,0.0,0.0,0.0,
3.506063999999984,0.0,0.0,false,2872058.9349676543,,29.0,0.875,0.0,-1951.1810481548307,0.0,2.625,0.9094237350000001,0.5977499999999984,-0.017089841999999966,245.0,0.875,0.0,1951.1810481548307,0.0,5.375,1.102294809,1.7932499999999991,0.006103514999999948,-53.0,0.75,45.0,1951.1810481548307,0.0,7.625,1.1877440190000002,1.7932500000000018,0.007324217999999938,100.0,1.0,0.0,-1951.1810481548307,0.0,4.875,0.889892487,0.5977500000000006,0.0,1.1299999952316284,0.4099999964237213,103.58999633789062,-0.001220703125,-0.00933837890625,1.0338134765625,30.90999984741211,0.0,-26.0,0.0084228515625,-0.102569580078125,Waiting,0.0,0.0,0.0,0.0,0.0,0.0,0.0,0.0,
3.545523999999976,0.0,0.0,false,2872591.678638298,,29.0,2.0,-7.5,-2099.9999999999995,0.0,2.875,0.748290939,0.5977499999999984,-0.09277342799999999,245.0,2.5,7.5,2099.9999999999995,0.0,5.75,1.3684080630000002,1.7932499999999991,0.23925778800000008,-53.0,2.5,90.0,2099.9999999999995,0.0,2.875,1.462402194,1.7932500000000018,0.288085908,96.0,3.25,-7.5,-2099.9999999999995,0.0,2.625,0.677490165,0.5977500000000006,-0.20507810399999993,1.190000057220459,0.36000001430511475,103.54000091552734,-0.05902099609375,0.25958251953125,0.94464111328125,30.90999984741211,0.0,248.0,0.009918212890625,-0.1014251708984375,Waiting,0.0,0.0,0.0,0.0,0.0,0.0,0.0,0.0,
3.587019,0.0,0.0,false,2873116.2600408443,,26.0,3.875,-22.5,-2099.9999999999995,0.0,0.625,0.5566405680000001,0.5977499999999984,0.0,250.0,5.625,30.0,2099.9999999999995,0.0,1.625,1.6625974860000001,1.7932499999999991,0.0,-36.0,4.0,127.5,2099.9999999999995,0.0,0.625,1.7346189630000002,1.7932500000000018,0.0,96.0,4.5,-22.5,-2099.9999999999995,0.0,0.625,0.507812448,0.5977500000000006,0.0,1.2300000190734863,0.28999999165534973,103.51000213623047,-0.0721435546875,0.0972900390625,1.004150390625,30.93000030517578,0.0,91.0,0.0118255615234375,-0.10076904296875,Waiting,0.0,0.0,0.0,0.0,0.0,0.0,0.0,0.0,
3.619337999999989,0.0,0.0,false,2873625.031818955,,26.0,4.25,-15.0,-2099.9999999999995,0.0,0.25,0.523681587,0.5977499999999984,0.0,250.0,6.25,30.0,2099.9999999999995,0.0,1.0,1.859130669,1.7932499999999991,0.0,-36.0,4.375,105.0,2099.9999999999995,0.0,0.375,1.861572075,1.7932500000000018,0.0,96.0,4.75,-30.0,-2099.9999999999995,0.0,0.75,0.505371042,0.5977500000000006,0.0,1.2200000286102295,0.33000001311302185,103.37000274658203,-0.0130615234375,-0.0074462890625,1.12890625,30.93000030517578,0.0,-26.0,0.014617919921875,-0.0997772216796875,Waiting,0.0,0.0,0.0,0.0,0.0,0.0,0.0,0.0,
3.6606979999999747,0.0,0.0,false,2874126.0006805034,,26.0,3.875,-7.5,-2099.9999999999995,0.0,0.125,0.5285643990000001,0.5977499999999984,-0.020751950999999935,250.0,5.5,15.0,2099.9999999999995,0.0,0.25,1.938476364,1.7932499999999991,0.0,-36.0,4.75,30.0,2099.9999999999995,0.0,0.125,1.8920896500000002,1.7932500000000018,0.0,96.0,4.625,-15.0,-2099.9999999999995,0.0,0.0,0.510253854,0.5977500000000006,0.0,1.1699999570846558,0.3799999952316284,103.2699966430664,-0.0257568359375,-0.039306640625,1.03521728515625,30.93000030517578,0.0,-51.0,0.0170135498046875,-0.0989227294921875,Waiting,0.0,0.0,0.0,0.0,0.0,0.0,0.0,0.0,
3.700203999999998,0.0,0.0,false,2874618.822248682,,23.0,3.875,-15.0,-2099.9999999999995,0.0,0.125,0.5419921320000001,0.5977499999999984,0.017089841999999966,252.0,5.375,7.5,2099.9999999999995,0.0,0.0,1.932372849,1.7932499999999991,0.06225585299999992,-36.0,5.25,0.0,2099.9999999999995,0.0,0.0,1.8688962930000002,1.7932500000000018,0.021972654000000036,96.0,4.625,0.0,-2099.9999999999995,0.0,0.0,0.509033151,0.5977500000000006,0.004882811999999959,1.1399999856948853,0.3700000047683716,103.2699966430664,-0.009033203125,-0.04296875,1.017333984375,30.93000030517578,0.0,-58.0,0.0185699462890625,-0.0982666015625,Waiting,0.0,0.0,0.0,0.0,0.0,0.0,0.0,0.0,
3.7399109999999927,0.0,0.0,false,2875103.4789115647,,23.0,4.0,-15.0,-2099.9999999999995,0.0,0.125,0.545654241,0.5977499999999984,0.0,252.0,5.625,7.5,2099.9999999999995,0.0,0.0,1.8933103530000002,1.7932499999999991,0.0,-36.0,4.875,0.0,2099.9999999999995,0.0,0.0,1.824950985,1.7932500000000018,0.0,96.0,4.625,0.0,-2099.9999999999995,0.0,0.0,0.526122993,0.5977500000000006,0.0,1.1399999856948853,0.4000000059604645,103.2699966430664,0.0155029296875,0.02032470703125,0.9586181640625,30.93000030517578,0.0,0.0,0.02008056640625,-0.09735107421875,Waiting,0.0,0.0,0.0,0.0,0.0,0.0,0.0,0.0,
3.7808949999999895,0.0,0.0,false,2875579.996599218,,23.0,4.0,-7.5,-2099.9999999999995,0.0,0.125,0.5419921320000001,0.5977499999999984,0.0,252.0,5.75,7.5,2099.9999999999995,0.0,0.0,1.8713376990000001,1.7932499999999991,0.0,-36.0,4.625,0.0,2099.9999999999995,0.0,0.0,1.798095519,1.7932500000000018,0.0,96.0,5.0,0.0,-2099.9999999999995,0.0,0.0,0.557861271,0.5977500000000006,0.0,1.149999976158142,0.38999998569488525,103.25,0.01806640625,0.046142578125,0.97906494140625,30.93000030517578,0.0,23.0,0.0200958251953125,-0.0970611572265625,Waiting,0.0,0.0,0.0,0.0,0.0,0.0,0.0,0.0,
3.8153609999999754,0.0,0.0,false,2876040.754845291,,23.0,4.0,0.0,-2099.9999999999995,0.0,0.125,0.5541991620000001,0.5977499999999984,0.004882811999999959,253.0,6.125,7.5,2099.9999999999995,0.0,0.0,1.8701169960000001,1.7932499999999991,-0.014648435999999876,-36.0,4.875,0.0,2099.9999999999995,0.0,0.0,1.807861143,1.7932500000000018,-0.018310544999999845,95.0,5.0,-7.5,-2099.9999999999995,0.0,0.0,0.56152338,0.5977500000000006,0.0,1.159999966621399,0.4000000059604645,103.25,0.01361083984375,0.00311279296875,0.95196533203125,30.93000030517578,0.0,-17.0,0.020172119140625,-0.0970611572265625,Waiting,0.0,0.0,0.0,0.0,0.0,0.0,0.0,0.0,
3.851965999999986,0.0,0.0,false,2876493.7331293556,,23.0,3.75,0.0,-1488.1890177726743,0.0,0.125,0.5810546280000001,0.5977499999999984,0.021972654000000036,253.0,5.5,0.0,1488.1890177726743,0.0,0.0,1.8371580150000002,1.7932499999999991,-0.013427733000000108,-36.0,5.125,0.0,1488.1890177726743,0.0,0.0,1.822509579,1.7932500000000018,-0.004882812000000181,95.0,4.625,0.0,-1488.1890177726743,0.0,0.0,0.562744083,0.5977500000000006,0.004882811999999959,1.159999966621399,0.38999998569488525,103.26000213623047,9.765625E-4,0.00946044921875,1.042236328125,30.93000030517578,0.0,-9.0,0.020172119140625,-0.0970611572265625,Waiting,0.0,0.0,0.0,0.0,0.0,0.0,0.0,0.0,
3.889517999999982,0.0,0.0,false,2876938.5873555406,,23.0,2.75,0.0,-1518.3700668831561,0.0,0.125,0.5810546280000001,0.5925816123725913,0.008544921000000039,253.0,3.5,0.0,1347.4142960115555,0.0,0.0,1.827392391,0.6949291096987071,-0.020751951000000046,-36.0,3.125,0.0,1350.1952183000558,0.0,0.0,1.80664044,2.880040886547269,0.0,95.0,2.875,0.0,1154.6015557801275,0.0,0.0,0.56152338,0.5909532232045054,0.0,1.1399999856948853,0.4000000059604645,103.23999786376953,0.0196533203125,0.0137939453125,0.95831298828125,30.93000030517578,0.0,-8.0,0.020172119140625,-0.0970611572265625,Waiting,0.0,0.0,0.0,0.0,0.0,0.0,0.0,0.0,
3.932857999999978,0.0,0.0,false,2877375.3012744263,,23.0,3.0,0.0,-2955.9819285102517,0.0,0.125,0.5822753310000001,0.631800976377119,0.0,254.0,4.25,7.5,2955.9819285102517,0.0,0.0,1.7590330230000002,0.631800976377119,0.0,-36.0,3.375,0.0,-2955.9819285102517,0.0,0.0,1.772460756,0.631800976377119,0.0,95.0,1.875,0.0,2955.9819285102517,0.0,0.0,0.56152338,0.631800976377119,0.0,1.159999966621399,0.4000000059604645,103.23999786376953,0.021240234375,0.06463623046875,1.00628662109375,30.93000030517578,0.0,39.0,0.02020263671875,-0.097076416015625,Waiting,0.0,0.0,0.0,0.0,0.0,0.0,0.0,0.0,
3.9715349999999745,0.0,0.0,false,2877803.8994223583,,23.0,6.75,0.0,-3269.7438497738053,0.0,0.125,0.592040955,0.7015324445750973,0.0,254.0,9.125,15.0,3269.7438497738053,0.0,5.0,1.485595551,0.7015324445750973,0.0,-36.0,5.25,-105.0,-3269.7438497738053,0.0,7.0,1.5051267990000001,0.7015324445750973,0.0,95.0,6.625,37.5,3269.7438497738053,0.0,0.25,0.572509707,0.7015324445750973,0.0,1.2400000095367432,0.6000000238418579,103.11000061035156,0.13104248046875,0.03875732421875,1.29107666015625,30.93000030517578,0.0,-16.0,0.0201568603515625,-0.0977020263671875,Waiting,0.0,0.0,0.0,0.0,0.0,0.0,0.0,0.0,
4.016132999999972,0.0,0.0,false,2878224.3859351114,,23.0,9.625,-30.0,-3453.396544276199,0.0,0.375,0.605468688,0.7471526811815065,0.0,254.0,12.875,75.0,3453.396544276199,0.0,0.625,1.121826057,0.7471526811815065,0.0,-77.0,10.375,-270.0,-3453.396544276199,0.0,1.5,1.192626831,0.7471526811815065,0.0,118.0,11.375,120.0,3453.396544276199,0.0,0.5,0.6103515,0.7471526811815065,0.0,1.3899999856948853,0.5400000214576721,102.73999786376953,-0.052490234375,0.1229248046875,1.1292724609375,30.93000030517578,0.0,107.0,0.020843505859375,-0.0991973876953125,Waiting,0.0,0.0,0.0,0.0,0.0,0.0,0.0,0.0,
4.067754999999975,0.0,0.0,false,2878629.1453804346,,11.0,10.125,-90.0,-3563.8181771801997,0.0,1.25,0.614013609,0.7657841869354217,0.0,282.0,14.0,210.0,3563.8181771801997,0.0,0.5,0.78124992,0.7657841869354217,0.0,-77.0,10.25,-187.5,-3563.8181771801997,0.0,1.125,0.865478427,0.7657841869354217,0.0,118.0,15.125,150.0,3563.8181771801997,0.0,0.875,0.668945244,0.7657841869354217,0.0,1.3899999856948853,0.5,102.58999633789062,-0.03167724609375,0.0230712890625,1.08642578125,30.93000030517578,0.0,5.0,0.0220184326171875,-0.1003875732421875,Waiting,0.0,0.0,0.0,0.0,0.0,0.0,0.0,0.0,
4.113329999999987,0.0,0.0,false,2879025.804041433,,11.0,11.0,-105.0,-3114.92088646024,0.0,1.625,0.635986263,0.8846600311234707,0.017089841999999966,282.0,13.375,240.0,3114.92088646024,0.0,0.0,0.571289004,0.8846600311234707,0.0,-77.0,11.875,-75.0,-3114.92088646024,0.0,0.375,0.6335448570000001,0.8846600311234707,0.0,118.0,13.625,82.5,3114.92088646024,0.0,0.875,0.704345631,0.8846600311234707,0.0,1.2300000190734863,0.5,102.68000030517578,0.1422119140625,-0.104248046875,1.0855712890625,30.969999313354492,0.0,-153.0,0.022552490234375,-0.1012420654296875,Waiting,0.0,0.0,0.0,0.0,0.0,0.0,0.0,0.0,
4.160650999999984,0.0,0.0,false,2879414.3660441427,,2.0,9.5,-67.5,-2766.6366793681095,0.0,2.75,0.721435473,1.0413273639505662,0.0,312.0,10.875,210.0,2766.6366793681095,0.0,1.25,0.49316401200000004,1.0413273639505662,0.0,-85.0,10.5,-60.0,-2766.6366793681095,0.0,0.375,0.574951113,1.0413273639505662,0.0,125.0,11.375,45.0,2766.6366793681095,0.0,1.125,0.79345695,1.0413273639505662,0.0,1.1299999952316284,0.5,102.9800033569336,-0.02105712890625,0.11785888671875,1.01092529296875,30.969999313354492,0.0,102.0,0.021697998046875,-0.10223388671875,Waiting,0.0,0.0,0.0,0.0,0.0,0.0,0.0,0.0,
4.206560999999987,0.0,0.0,false,2879794.8355117976,,2.0,7.875,-22.5,-2597.556544139126,0.0,4.875,0.8410643670000001,1.1814696105256417,0.10253905200000002,312.0,10.0,135.0,2597.556544139126,0.0,3.875,0.6188964210000001,1.1814696105256417,-0.030517574999999963,-85.0,8.375,-30.0,-2597.556544139126,0.0,3.25,0.692138601,1.1814696105256417,-0.023193357000000026,125.0,10.375,67.5,2597.556544139126,0.0,2.0,0.9228514680000001,1.1814696105256417,0.11352537900000004,1.2100000381469727,0.4300000071525574,103.08999633789062,-0.0531005859375,0.04205322265625,1.0885009765625,30.969999313354492,0.0,32.0,0.0215606689453125,-0.1025238037109375,Waiting,0.0,0.0,0.0,0.0,0.0,0.0,0.0,0.0,
4.250992999999988,0.0,0.0,false,2880167.2165648337,,2.0,7.25,0.0,-2532.9634825449516,0.0,5.5,1.0327147380000001,1.2930100510526368,0.17089842,312.0,9.0,60.0,2532.9634825449516,0.0,4.625,0.913085844,1.2930100510526368,0.23925778799999997,-85.0,7.25,0.0,-2532.9634825449516,0.0,4.125,0.9753416970000001,1.2930100510526368,0.211181619,125.0,9.125,67.5,2532.9634825449516,0.0,2.625,1.1071776210000002,1.2930100510526368,0.14892576599999996,1.25,0.4399999976158142,103.2699966430664,0.00140380859375,0.0648193359375,1.0318603515625,30.969999313354492,0.0,42.0,0.0218353271484375,-0.102630615234375,Waiting,0.0,0.0,0.0,0.0,0.0,0.0,0.0,0.0,
4.300166999999987,0.0,0.0,false,2880523.9029356865,,1.0,6.375,0.0,-2520.0000000000005,0.0,2.75,1.30615221,1.373098203150429,0.2075195099999999,314.0,9.0,7.5,2520.0000000000005,0.0,1.75,1.284179556,1.373098203150429,0.290527314,-84.0,6.625,0.0,-2520.0000000000005,0.0,1.0,1.339111191,1.373098203150429,0.28076169000000006,135.0,5.625,52.5,2520.0000000000005,0.0,1.375,1.313476428,1.373098203150429,0.18066404400000002,1.2899999618530273,0.49000000953674316,103.63999938964844,-0.01971435546875,0.03729248046875,1.00091552734375,30.969999313354492,0.0,20.0,0.02239990234375,-0.1031494140625,Waiting,0.0,0.0,0.0,0.0,0.0,0.0,0.0,0.0,
4.344560999999987,0.0,0.0,false,2880872.5117068207,,1.0,5.625,-15.0,-2520.0000000000005,0.0,2.0,1.495361175,1.376684658559161,0.24658200600000013,314.0,9.125,0.0,2520.0000000000005,0.0,1.375,1.5832517910000001,1.376684658559161,0.34423824599999997,-84.0,6.75,-22.5,-2520.0000000000005,0.0,0.75,1.6027830390000002,1.376684658559161,0.34179684,135.0,5.75,75.0,2520.0000000000005,0.0,0.5,1.462402194,1.376684658559161,0.20141599500000007,1.2799999713897705,0.47999998927116394,103.70999908447266,0.0067138671875,0.01837158203125,0.97943115234375,30.969999313354492,0.0,-3.0,0.022857666015625,-0.1034698486328125,Waiting,0.0,0.0,0.0,0.0,0.0,0.0,0.0,0.0,
4.387548999999999,0.0,0.0,false,2881213.046988974,,1.0,5.875,-30.0,-2520.0,0.0,1.125,1.591796712,1.3777473495483368,0.0,314.0,8.5,0.0,2520.0,0.0,1.875,1.7419431810000001,1.3777473495483368,0.0,-84.0,5.75,-52.5,-2520.0,0.0,1.75,1.752929508,1.3777473495483368,0.0,145.0,6.0,75.0,2520.0,0.0,0.75,1.539306483,1.3777473495483368,0.0,1.2300000190734863,0.4000000059604645,103.69000244140625,-0.0333251953125,-0.00677490234375,1.013916015625,30.969999313354492,0.0,-18.0,0.0234832763671875,-0.1033172607421875,Waiting,0.0,0.0,0.0,0.0,0.0,0.0,0.0,0.0,
4.425510999999998,0.0,0.0,false,2881545.512890095,,-4.0,6.125,-22.5,-2520.0,0.0,0.875,1.57470687,1.3772160040537493,0.0,316.0,8.75,15.0,2520.0,0.0,2.75,1.588134603,1.3772160040537493,0.0,-94.0,6.125,-52.5,-2520.0,0.0,3.375,1.640624832,1.3772160040537493,0.0,145.0,6.75,45.0,2520.0,0.0,0.375,1.461181491,1.3772160040537493,0.0,1.1200000047683716,0.3199999928474426,103.62999725341797,0.0262451171875,-0.043212890625,1.1273193359375,30.969999313354492,0.0,-68.0,0.02392578125,-0.1026611328125,Waiting,0.0,0.0,0.0,0.0,0.0,0.0,0.0,0.0,
4.4761109999999755,0.0,0.0,false,2881869.9135153466,,-4.0,6.375,-7.5,-2520.0000000000005,0.0,0.25,1.488036957,1.3765517968495664,0.0,316.0,8.625,37.5,2520.0000000000005,0.0,0.5,1.5014646900000002,1.3765517968495664,0.0,-94.0,7.125,-22.5,-2520.0000000000005,0.0,1.125,1.4257811040000001,1.3765517968495664,0.0,145.0,8.25,22.5,2520.0000000000005,0.0,0.0,1.429443213,1.3765517968495664,0.0,1.100000023841858,0.36000001430511475,103.62000274658203,0.06341552734375,-0.0047607421875,0.9552001953125,30.969999313354492,0.0,-36.0,0.0239105224609375,-0.1027069091796875,Waiting,0.0,0.0,0.0,0.0,0.0,0.0,0.0,0.0,
4.521748999999982,0.0,0.0,false,2882186.2529671076,,-4.0,5.875,0.0,-1448.5039973258972,0.0,0.25,1.378173687,1.3764190364837623,0.0,324.0,7.75,45.0,1448.5039973258972,0.0,0.0,1.3720701720000001,1.3764190364837623,0.0,-94.0,7.125,-7.5,-1448.5039973258972,0.0,0.375,1.298827992,1.3764190364837623,0.0,148.0,8.625,15.0,1448.5039973258972,0.0,0.0,1.417236183,1.3764190364837623,0.0,1.1299999952316284,0.4099999964237213,103.5999984741211,0.02484130859375,0.07843017578125,1.0103759765625,30.969999313354492,0.0,52.0,0.0237884521484375,-0.1031646728515625,Waiting,0.0,0.0,0.0,0.0,0.0,0.0,0.0,0.0,
