Time,ClimberA1,ClimberA2,CameraExists,HeapSpace,LoopTime,FRpos,FRCurrent,FRspeed,FRsetpoint,FRApos,FRACurrent,FREncpos,FREncSetpoint,FREncSpeed,FLpos,FLCurrent,FLspeed,FLsetpoint,FLApos,FLACurrent,FLEncpos,FLEncSetpoint,FLEncSpeed,BRpos,BRCurrent,BRspeed,BRsetpoint,BRApos,BRACurrent,BREncpos,BREncSetpoint,BREncSpeed,BLpos,BLCurrent,BLspeed,BLsetpoint,BLApos,BLACurrent,BLEncpos,BLEncSetpoint,BLEncSpeed,navx_Pitch,navx_Roll,navx_Yaw,navx_XAcc,navx_YAcc,navx_ZAcc,navx_Temp,navx_Bar,navx_Alt,navx_XDis,navx_YDis,GearPlacerState,ShootOutputV,ShootOutputCurrent,ShootEncPos,ShootEncVelocity,ShootSpeed,ShootSetpoint,CarouselSetpoint,CarouselCurrent,
0.7206560000000173,0.0,0.0,false,2667303.3352112677,,32.0,0.0,0.0,0.0,0.0,0.125,1.80664044,0.0,0.0,9.0,0.0,0.0,0.0,0.0,1.625,1.614990069,0.0,0.0,0.0,0.0,0.0,0.0,0.0,0.375,3.072509451,0.0,0.0,1.0,0.0,0.0,0.0,0.0,0.0,2.559814191,0.0,0.0,1.340000033378601,0.46000000834465027,-118.80999755859375,-0.0421142578125,0.0341796875,1.04412841796875,31.0,0.0,15.0,-0.0071258544921875,-0.006072998046875,Waiting,0.0,0.0,1.0,0.0,0.0,0.0,0.0,0.0,
1.0302210000000196,0.0,0.0,false,2668074.3136771694,,32.0,0.0,0.0,0.0,0.0,0.125,1.807861143,0.0,0.0,13.0,0.0,0.0,-0.0,0.0,1.75,2.308349373,0.0,0.0,0.0,0.0,0.0,0.0,0.0,1.25,4.359130413,0.0,0.0,1.0,0.0,0.0,-0.0,0.0,0.0,2.559814191,0.0,0.0,1.3300000429153442,0.5099999904632568,-118.79000091552734,0.0357666015625,0.04058837890625,1.00762939453125,31.040000915527344,0.0,-27.0,-0.0078277587890625,-0.004364013671875,Waiting,-12.4,0.0,1.0,0.0,0.0,-1640.0,0.0,0.0,
1.0519880000000121,0.0,0.0,false,2668838.597676874,,32.0,0.0,0.0,0.0,0.0,0.125,1.807861143,0.0,0.0,13.0,0.0,0.0,-0.0,0.0,1.625,2.463378654,0.0,0.0,0.0,0.0,0.0,0.0,0.0,1.0,4.4958491490000005,0.0,0.0,1.0,0.0,0.0,-0.0,0.0,0.0,2.559814191,0.0,0.0,1.3300000429153442,0.5,-118.80999755859375,0.00927734375,0.0418701171875,1.00799560546875,31.040000915527344,0.0,-16.0,-0.0079345703125,-0.00384521484375,Waiting,-12.4,23.0,1.0,0.0,0.0,-1640.0,0.0,0.0,
1.0815540000000037,0.0,0.0,false,2669599.4017244414,,32.0,0.0,0.0,0.0,0.0,0.125,1.807861143,0.0,0.0,13.0,0.0,0.0,-0.0,0.0,1.5,2.672118867,0.0,0.0,0.0,0.0,0.0,0.0,0.0,1.0,4.692382332,0.0,0.0,1.0,0.0,0.0,-0.0,0.0,0.0,2.559814191,0.0,0.0,1.2899999618530273,0.5699999928474426,-118.88999938964844,-0.05517578125,0.00689697265625,0.88214111328125,31.040000915527344,0.0,42.0,-0.0081787109375,-0.0025787353515625,Waiting,-12.4,48.125,1.0,0.0,-7.5,-1640.0,0.0,0.0,
1.1007750000000234,0.0,0.0,false,2670353.5172413792,,32.0,0.0,0.0,0.0,0.0,0.125,1.807861143,0.0,0.0,13.0,0.0,0.0,-0.0,0.0,1.5,2.806396197,0.0,0.0,0.0,0.0,0.0,0.0,0.0,1.0,4.829101068,0.0,0.0,1.0,0.0,0.0,-0.0,0.0,0.0,2.559814191,0.0,0.0,1.309999942779541,0.5299999713897705,-118.91999816894531,-0.047607421875,0.06329345703125,1.03326416015625,31.040000915527344,0.0,-6.0,-0.0081634521484375,-0.0023040771484375,Waiting,-12.4,73.25,1.0,0.0,-22.5,-1640.0,0.0,0.0,
1.1230430000000051,0.0,0.0,false,2671100.9477572558,,32.0,0.0,0.0,0.0,0.0,0.125,1.807861143,0.0,0.0,13.0,0.0,0.0,-0.0,0.0,1.625,2.9553219630000003,0.0,0.0,0.0,0.0,0.0,0.0,0.0,1.0,0.040283199000000006,0.0,0.0,1.0,0.0,0.0,-0.0,0.0,0.0,2.561034894,0.0,0.0,1.3300000429153442,0.49000000953674316,-118.94000244140625,-0.00701904296875,0.03802490234375,1.0709228515625,31.040000915527344,0.0,-3.0,-0.0081787109375,-0.0020751953125,Waiting,-10.5,79.0,-17.0,-8.0,-60.0,-1640.0,0.0,0.0,
1.1435640000000131,0.0,0.0,false,2671844.9060851214,,32.0,0.0,0.0,0.0,0.0,0.125,1.80664044,0.0,0.0,13.0,0.0,0.0,-0.0,0.0,1.625,3.092040699,0.0,0.0,0.0,0.0,0.0,0.0,0.0,1.25,0.186767559,0.0,0.0,1.0,0.0,0.0,-0.0,0.0,0.0,2.561034894,0.0,0.0,1.2999999523162842,0.5099999904632568,-118.95999908447266,0.02557373046875,0.0220947265625,0.9716796875,31.040000915527344,0.0,-29.0,-0.0081939697265625,-0.00164794921875,Waiting,-10.5,75.125,-17.0,-8.0,-165.0,-1640.0,0.0,0.0,
1.1652370000000227,0.0,0.0,false,2672582.1853349744,,32.0,0.0,0.0,0.0,0.0,0.125,1.807861143,0.0,0.0,13.0,0.0,0.0,-0.0,0.0,2.375,3.305663724,0.0,0.0,0.0,0.0,0.0,0.0,0.0,1.375,0.418701129,0.0,0.0,1.0,0.0,0.0,-0.0,0.0,0.0,2.559814191,0.0,0.0,1.3300000429153442,0.44999998807907104,-118.94999694824219,-0.026123046875,0.02935791015625,0.9466552734375,31.040000915527344,0.0,9.0,-0.0083160400390625,-0.00140380859375,Waiting,-10.5,73.5,-17.0,-8.0,-240.0,-1640.0,0.0,0.0,
1.1947110000000103,0.0,0.0,false,2673312.786216596,,32.0,0.0,0.0,0.0,0.0,0.125,1.80664044,0.0,0.0,13.0,0.0,0.0,-0.0,0.0,2.5,3.45458949,0.0,0.0,0.0,0.0,0.0,0.0,0.0,1.375,0.5554198650000001,0.0,0.0,1.0,0.0,0.0,-0.0,0.0,0.0,2.559814191,0.0,0.0,1.3799999952316284,0.44999998807907104,-118.94000244140625,-0.1331787109375,0.0582275390625,0.9794921875,31.040000915527344,0.0,37.0,-0.0083465576171875,-0.001434326171875,Waiting,-10.5,72.25,-17.0,-8.0,-315.0,-1640.0,0.0,0.0,
1.2193880000000064,0.0,0.0,false,2674039.922657761,,32.0,0.0,0.0,0.0,0.0,0.125,1.80664044,0.0,0.0,13.0,0.0,0.0,-0.0,0.0,2.625,3.608398068,0.0,0.0,0.0,0.0,0.0,0.0,0.0,1.375,0.709228443,0.0,0.0,1.0,0.0,0.0,-0.0,0.0,0.0,2.561034894,0.0,0.0,1.3600000143051147,0.44999998807907104,-118.94000244140625,0.0379638671875,-0.06329345703125,1.04449462890625,31.040000915527344,0.0,62.0,-0.0083770751953125,-0.00164794921875,Waiting,-10.5,71.0,-17.0,-8.0,-390.0,-1640.0,0.0,0.0,
1.2378369999999996,0.0,0.0,false,2674760.3894551843,,32.0,0.0,0.0,0.0,0.0,0.125,1.805419737,0.0,0.0,13.0,0.0,0.0,-0.0,0.0,2.5,3.756103131,0.0,0.0,0.0,0.0,0.0,0.0,0.0,1.375,0.8410643670000001,0.0,0.0,1.0,0.0,0.0,-0.0,0.0,0.0,2.559814191,0.0,0.0,1.350000023841858,0.47999998927116394,-118.91999816894531,-0.02105712890625,0.02325439453125,1.0184326171875,31.040000915527344,0.0,15.0,-0.0083465576171875,-0.001708984375,Waiting,-10.600000000000001,70.0,-101.0,-59.0,-465.0,-1640.0,0.0,0.0,
1.263228000000003,0.0,0.0,false,2675470.106483922,,32.0,0.0,0.0,0.0,0.0,0.125,1.80664044,0.0,0.0,13.0,0.0,0.0,-0.0,0.0,3.0,3.9501949080000003,0.0,0.0,0.0,0.0,0.0,0.0,0.0,1.375,1.066894422,0.0,0.0,1.0,0.0,0.0,-0.0,0.0,0.0,2.559814191,0.0,0.0,1.3600000143051147,0.46000000834465027,-118.91000366210938,0.0899658203125,0.101318359375,1.01507568359375,31.040000915527344,0.0,-106.0,-0.0084381103515625,-0.0019989013671875,Waiting,-10.600000000000001,67.875,-101.0,-59.0,-615.0,-1640.0,0.0,0.0,
1.2930380000000006,0.0,0.0,false,2676173.159522136,,32.0,0.0,0.0,0.0,0.0,0.125,1.80664044,0.0,0.0,13.0,0.0,0.0,-0.0,0.0,3.0,4.074706614,0.0,0.0,0.0,0.0,0.0,0.0,0.0,1.375,1.202392455,0.0,0.0,1.0,0.0,0.0,-0.0,0.0,0.0,2.558593488,0.0,0.0,1.350000023841858,0.49000000953674316,-118.87999725341797,-0.02825927734375,-0.16680908203125,1.03448486328125,31.040000915527344,0.0,185.0,-0.0084686279296875,-0.0020904541015625,Waiting,-10.600000000000001,66.625,-101.0,-59.0,-690.0,-1640.0,0.0,0.0,
1.3126330000000017,0.0,0.0,false,2676872.7602318637,,32.0,0.0,0.0,0.0,0.0,0.125,1.807861143,0.0,0.0,13.0,0.0,0.0,-0.0,0.0,2.75,4.246825737,0.0,0.0,0.0,0.0,0.0,0.0,0.0,1.375,1.352538924,0.0,0.0,1.0,0.0,0.0,-0.0,0.0,0.0,2.559814191,0.0,0.0,1.2799999713897705,0.5,-118.87000274658203,-0.08465576171875,0.08294677734375,1.0367431640625,31.040000915527344,0.0,-7.0,-0.008270263671875,-0.00213623046875,Waiting,-10.600000000000001,65.5,-101.0,-59.0,-757.5,-1640.0,0.0,0.0,
1.3337449999999953,0.0,0.0,false,2677565.7056550756,,32.0,0.0,0.0,0.0,0.0,0.125,1.807861143,0.0,0.0,13.0,0.0,0.0,-0.0,0.0,2.625,4.373778849,0.0,0.0,0.0,0.0,0.0,0.0,0.0,1.375,1.4733885210000002,0.0,0.0,1.0,0.0,0.0,-0.0,0.0,0.0,2.561034894,0.0,0.0,1.2400000095367432,0.5,-118.8499984741211,6.103515625E-5,-0.12017822265625,1.0338134765625,31.040000915527344,0.0,129.0,-0.0079803466796875,-0.0022125244140625,Waiting,-10.600000000000001,64.25,-101.0,-59.0,-825.0,-1640.0,0.0,0.0,
1.3534980000000214,0.0,0.0,false,2678251.9964881474,,32.0,0.0,0.0,0.0,0.0,0.125,1.807861143,0.0,0.0,12.0,0.0,0.0,-0.0,0.0,2.625,4.481200713000001,0.0,0.0,0.0,0.0,0.0,0.0,0.0,1.375,1.6076658510000001,0.0,0.0,1.0,0.0,0.0,-0.0,0.0,0.0,2.559814191,0.0,0.0,1.25,0.41999998688697815,-118.79000091552734,-0.08294677734375,0.1907958984375,1.17840576171875,31.040000915527344,0.0,-100.0,-0.0071868896484375,-0.002288818359375,Waiting,-10.7,63.375,-250.0,-114.0,-892.5,-1640.0,0.0,0.0,
1.3747419999999984,0.0,0.0,false,2678934.842696629,,32.0,0.0,0.0,0.0,0.0,0.125,1.807861143,0.0,0.0,12.0,0.0,0.0,-0.0,0.0,2.75,4.632567885,0.0,0.0,0.0,0.0,0.0,0.0,0.0,1.375,1.752929508,0.0,0.0,1.0,0.0,0.0,-0.0,0.0,0.0,2.561034894,0.0,0.0,1.2799999713897705,0.4099999964237213,-118.75,0.0841064453125,-0.049072265625,0.96630859375,31.040000915527344,0.0,24.0,-0.006866455078125,-0.002410888671875,Waiting,-10.7,62.5,-250.0,-114.0,-960.0,-1640.0,0.0,0.0,
1.3936389999999956,0.0,0.0,false,2679611.04300509,,32.0,0.0,0.0,0.0,0.0,0.125,1.807861143,0.0,0.0,12.0,0.0,-7.5,-0.0,0.0,2.375,4.754638185,0.0,0.0,0.0,0.0,0.0,0.0,0.0,1.375,1.878661917,0.0,0.0,1.0,0.0,0.0,-0.0,0.0,0.0,2.559814191,0.0,0.0,1.2699999809265137,0.4000000059604645,-118.69999694824219,-0.00836181640625,-0.0169677734375,1.041259765625,31.040000915527344,0.0,42.0,-0.006500244140625,-0.002532958984375,Waiting,-10.7,62.5,-250.0,-114.0,-1027.5,-1640.0,0.0,0.0,
1.4131480000000156,0.0,0.0,false,2680280.6009126008,,32.0,0.0,0.0,0.0,0.0,0.125,1.80664044,0.0,0.0,12.0,0.0,-22.5,-0.0,0.0,2.375,4.91943309,0.0,0.0,0.0,0.0,0.0,0.0,0.0,1.25,2.033691198,0.0,0.0,1.0,0.0,0.0,-0.0,0.0,0.0,2.561034894,0.0,0.0,1.2899999618530273,0.3700000047683716,-118.58999633789062,-0.02728271484375,-0.01708984375,1.0601806640625,31.040000915527344,0.0,52.0,-0.00567626953125,-0.0026702880859375,Waiting,-10.7,60.625,-250.0,-114.0,-1087.5,-1640.0,0.0,0.0,
1.4349159999999974,0.0,0.0,false,2680943.5199157745,,32.0,0.0,0.0,0.0,0.0,0.125,1.807861143,0.0,0.0,12.0,0.0,-30.0,-0.0,0.0,2.375,0.130615221,0.0,0.0,0.0,0.0,0.0,0.0,0.0,1.25,2.1679685280000003,0.0,0.0,1.0,0.0,0.0,-0.0,0.0,0.0,2.559814191,0.0,0.0,1.309999942779541,0.3700000047683716,-118.55000305175781,0.05426025390625,-0.0341796875,1.0020751953125,31.040000915527344,0.0,27.0,-0.0052032470703125,-0.002777099609375,Waiting,-10.7,60.625,-250.0,-114.0,-1087.5,-1640.0,0.0,0.0,
1.454326000000001,0.0,0.0,false,2681603.0049122805,,32.0,0.0,0.0,0.0,0.0,0.125,1.807861143,0.0,0.0,12.0,0.0,-37.5,-0.0,0.0,2.125,0.22705075800000002,0.0,0.0,0.0,0.0,0.0,0.0,0.0,1.0,2.2790525010000002,0.0,0.0,1.0,0.0,0.0,-0.0,0.0,0.0,2.561034894,0.0,0.0,1.2699999809265137,0.4399999976158142,-118.48999786376953,0.0655517578125,-0.03363037109375,0.9945068359375,31.040000915527344,0.0,21.0,-0.0041656494140625,-0.0027313232421875,Waiting,-10.7,59.75,-250.0,-114.0,-1155.0,-1640.0,0.0,0.0,
1.4752780000000203,0.0,0.0,false,2682255.8540606913,,32.0,0.0,0.0,0.0,0.0,0.125,1.807861143,0.0,0.0,2.0,0.0,-45.0,-0.0,0.0,1.875,0.410156208,0.0,0.0,0.0,0.0,0.0,0.0,0.0,1.0,2.437743891,0.0,0.0,1.0,0.0,0.0,-0.0,0.0,0.0,2.558593488,0.0,0.0,1.2799999713897705,0.44999998807907104,-118.48999786376953,0.03619384765625,0.02154541015625,1.093505859375,31.040000915527344,0.0,-10.0,-0.003631591796875,-0.002593994140625,Waiting,-10.356598240469209,58.875,-456.0,-163.0,-1215.0,-1640.0,0.0,0.0,
1.4931180000000168,0.0,0.0,false,2682902.0736583653,,32.0,0.0,0.0,0.0,0.0,0.125,1.80664044,0.0,0.0,2.0,0.0,-52.5,-0.0,0.0,1.75,0.518798775,0.0,0.0,0.0,0.0,0.0,0.0,0.0,1.0,2.5634763,0.0,0.0,1.0,0.0,0.0,-0.0,0.0,0.0,2.559814191,0.0,0.0,1.2599999904632568,0.49000000953674316,-118.48999786376953,0.05999755859375,-0.03240966796875,1.1278076171875,31.040000915527344,0.0,26.0,-0.003082275390625,-0.0023956298828125,Waiting,-10.8,57.375,-456.0,-163.0,-1275.0,-1640.0,0.0,0.0,
1.5244070000000065,0.0,0.0,false,2683544.8669121517,,32.0,0.0,0.0,0.0,0.0,0.125,1.807861143,0.0,0.0,2.0,0.0,-60.0,-0.0,0.0,1.75,0.7263182850000001,0.0,0.0,0.0,0.0,0.0,0.0,0.0,1.0,2.761230186,0.0,0.0,1.0,0.0,0.0,-0.0,0.0,0.0,2.561034894,0.0,0.0,1.2300000190734863,0.5699999928474426,-118.5199966430664,0.05517578125,0.0447998046875,0.9713134765625,31.030000686645508,0.0,-42.0,-0.0020904541015625,-0.0017852783203125,Waiting,-10.335483870967742,50.25,-456.0,-163.0,-1395.0,-1640.0,0.0,0.0,
1.5470660000000207,0.0,0.0,false,2684181.0364656383,,32.0,0.0,0.0,0.0,0.0,0.125,1.807861143,0.0,0.0,2.0,0.0,-67.5,-0.0,0.0,1.875,0.8813475660000001,0.0,0.0,0.0,0.0,0.0,0.0,0.0,1.25,2.9052731400000003,0.0,0.0,1.0,0.0,0.0,-0.0,0.0,0.0,2.559814191,0.0,0.0,1.309999942779541,0.5400000214576721,-118.54000091552734,0.00537109375,0.04534912109375,1.07330322265625,31.030000686645508,0.0,-15.0,-0.0012359619140625,-0.001220703125,Waiting,-9.448680351906159,44.25,-456.0,-163.0,-1447.5,-1640.0,0.0,0.0,
1.5704830000000074,0.0,0.0,false,2684810.5858019283,,32.0,0.0,0.0,0.0,0.0,0.125,1.807861143,0.0,0.0,2.0,0.0,-75.0,-0.0,0.0,1.875,1.096191294,0.0,0.0,0.0,0.0,0.0,0.0,0.0,1.375,3.1127926500000003,0.0,0.0,1.0,0.0,0.0,-0.0,0.0,0.0,2.559814191,0.0,0.0,1.309999942779541,0.5299999713897705,-118.52999877929688,0.0462646484375,0.0413818359375,0.99652099609375,31.030000686645508,0.0,-33.0,-4.730224609375E-4,-0.001190185546875,Waiting,-8.667448680351907,37.0,-456.0,-163.0,-1500.0,-1640.0,0.0,0.0,
1.5921990000000223,0.0,0.0,false,2685433.5184016824,,32.0,0.0,0.0,0.0,0.0,0.125,1.807861143,0.0,0.0,2.0,0.0,-75.0,-0.0,0.0,1.875,1.210937376,0.0,0.0,0.0,0.0,0.0,0.0,0.0,1.625,3.237304356,0.0,0.0,1.0,0.0,0.0,-0.0,0.0,0.0,2.559814191,0.0,0.0,1.2899999618530273,0.5600000023841858,-118.5199966430664,0.00732421875,0.0543212890625,0.9073486328125,31.030000686645508,0.0,-28.0,-1.678466796875E-4,-0.00115966796875,Waiting,-8.422580645161291,29.375,-711.0,-206.0,-1552.5,-1640.0,0.0,0.0,
1.6108030000000144,0.0,0.0,false,2686053.0352199054,,32.0,0.0,0.0,0.0,0.0,0.125,1.809081846,0.0,0.0,-9.0,0.0,-67.5,-0.0,0.0,1.875,1.350097518,0.0,0.0,0.0,0.0,0.0,0.0,0.0,1.625,3.386230122,0.0,0.0,1.0,0.0,0.0,-0.0,0.0,0.0,2.558593488,0.0,0.0,1.309999942779541,0.5400000214576721,-118.52999877929688,-0.0504150390625,0.0196533203125,1.05401611328125,31.030000686645508,0.0,32.0,1.373291015625E-4,-0.001190185546875,Waiting,-7.666129032258065,23.0,-711.0,-206.0,-1597.5,-1640.0,0.0,0.0,
1.6309619999999996,0.0,0.0,false,2686665.9411352486,,32.0,0.0,0.0,0.0,0.0,0.125,1.807861143,0.0,0.0,-9.0,0.0,-60.0,-0.0,0.0,1.875,1.4758299270000002,0.0,0.0,0.0,0.0,0.0,0.0,0.0,1.625,3.498534798,0.0,0.0,1.0,0.0,0.0,-0.0,0.0,0.0,2.561034894,0.0,0.0,1.309999942779541,0.550000011920929,-118.52999877929688,-0.03594970703125,0.0230712890625,1.04638671875,31.030000686645508,0.0,22.0,5.035400390625E-4,-0.0012664794921875,Waiting,-7.30483870967742,18.0,-711.0,-206.0,-1635.0,-1640.0,0.0,0.0,
1.648256000000023,0.0,0.0,false,2687272.23962165,,32.0,0.0,0.0,0.0,0.0,0.125,1.807861143,0.0,0.0,-9.0,0.0,-45.0,-0.0,0.0,1.875,1.6101072570000001,0.0,0.0,0.0,0.0,0.0,0.0,0.0,1.375,3.615722286,0.0,0.0,1.0,0.0,0.0,-0.0,0.0,0.0,2.559814191,0.0,0.0,1.2699999809265137,0.5799999833106995,-118.55000305175781,0.04632568359375,0.00286865234375,0.917724609375,31.030000686645508,0.0,-2.0,8.697509765625E-4,-0.0013427734375,Waiting,-6.683870967741936,18.0,-711.0,-206.0,-1665.0,-1640.0,0.0,0.0,
1.6650320000000065,0.0,0.0,false,2687871.934150613,,32.0,0.0,0.0,0.0,0.0,0.125,1.80664044,0.0,0.0,-9.0,0.0,-37.5,-0.0,0.0,1.875,1.750488102,0.0,0.0,0.0,0.0,0.0,0.0,0.0,1.25,3.754882428,0.0,0.0,1.0,0.0,0.0,-0.0,0.0,0.0,2.559814191,0.0,0.0,1.2599999904632568,0.5799999833106995,-118.56999969482422,0.07275390625,-0.00311279296875,1.04107666015625,31.030000686645508,0.0,-6.0,0.001220703125,-0.0012664794921875,Waiting,-6.424193548387097,14.0,-711.0,-206.0,-1665.0,-1640.0,0.0,0.0,
1.6835439999999944,0.0,0.0,false,2688468.2234284715,,32.0,0.0,0.0,0.0,0.0,0.125,1.80664044,0.0,0.0,-9.0,0.0,-30.0,-0.0,0.0,2.0,1.8701169960000001,0.0,0.0,0.0,0.0,0.0,0.0,0.0,1.25,3.874511322,0.0,0.0,1.0,0.0,0.0,-0.0,0.0,0.0,2.559814191,0.0,0.0,1.2000000476837158,0.6299999952316284,-118.61000061035156,0.05743408203125,0.0284423828125,1.01654052734375,31.030000686645508,0.0,-28.0,0.0012054443359375,-0.0011138916015625,Waiting,-6.029032258064517,11.125,-711.0,-206.0,-1695.0,-1640.0,0.0,0.0,
1.7044740000000165,0.0,0.0,false,2689057.9145658263,,32.0,0.0,0.0,0.0,0.0,0.125,1.807861143,0.0,0.0,-9.0,0.0,-30.0,-0.0,0.0,2.0,2.030029089,0.0,0.0,0.0,0.0,0.0,0.0,0.0,1.25,4.034423415,0.0,0.0,1.0,0.0,0.0,-0.0,0.0,0.0,2.559814191,0.0,0.0,1.149999976158142,0.6399999856948853,-118.6500015258789,0.01202392578125,0.00909423828125,0.9918212890625,31.030000686645508,0.0,9.0,0.00115966796875,-9.1552734375E-4,Waiting,-5.622580645161291,9.0,-711.0,-206.0,-1710.0,-1640.0,0.0,0.0,
1.723298999999999,0.0,0.0,false,2689641.0110274814,,32.0,0.0,0.0,0.0,0.0,0.125,1.807861143,0.0,0.0,-14.0,0.0,-30.0,-0.0,0.0,1.875,2.1728513400000002,0.0,0.0,0.0,0.0,0.0,0.0,0.0,1.25,4.176024963000001,0.0,0.0,1.0,0.0,0.0,-0.0,0.0,0.0,2.559814191,0.0,0.0,1.1100000143051147,0.6100000143051147,-118.69000244140625,-0.036865234375,-0.001953125,1.12115478515625,31.030000686645508,0.0,44.0,0.00115966796875,-7.476806640625E-4,Waiting,-5.724633431085044,7.5,-989.0,-229.0,-1725.0,-1640.0,0.0,0.0,
1.7425050000000046,0.0,0.0,false,2690220.7098354916,,32.0,0.0,0.0,0.0,0.0,0.125,1.807861143,0.0,0.0,-14.0,0.0,-30.0,-0.0,0.0,1.75,2.3181149970000003,0.0,0.0,0.0,0.0,0.0,0.0,0.0,1.25,4.316405808,0.0,0.0,1.0,0.0,0.0,-0.0,0.0,0.0,2.559814191,0.0,0.0,1.1200000047683716,0.6800000071525574,-118.79000091552734,-0.0081787109375,0.04052734375,0.9156494140625,31.030000686645508,0.0,-10.0,0.001251220703125,-5.79833984375E-4,Waiting,-3.0743401759530795,6.625,-989.0,-229.0,-1740.0,-1640.0,0.0,0.0,
1.763412000000011,0.0,0.0,false,2690793.8197725285,,32.0,0.0,0.0,0.0,0.0,0.125,1.807861143,0.0,0.0,-14.0,0.0,-30.0,-0.0,0.0,1.75,2.503661853,0.0,0.0,0.0,0.0,0.0,0.0,0.0,1.25,4.493407743000001,0.0,0.0,1.0,0.0,0.0,-0.0,0.0,0.0,2.559814191,0.0,0.0,1.1200000047683716,0.6499999761581421,-118.8499984741211,0.057861328125,0.15740966796875,1.1016845703125,31.030000686645508,0.0,-140.0,0.0012054443359375,-5.645751953125E-4,Waiting,-5.26524926686217,5.5,-989.0,-229.0,-1747.5,-1640.0,0.0,0.0,
1.781439000000013,0.0,0.0,false,2691356.278516445,,32.0,0.0,0.0,0.0,0.0,0.125,1.807861143,0.0,0.0,-14.0,0.0,-30.0,-0.0,0.0,1.75,2.619628638,0.0,0.0,0.0,0.0,0.0,0.0,0.0,1.25,4.609374528,0.0,0.0,1.0,0.0,0.0,-0.0,0.0,0.0,2.559814191,0.0,0.0,1.1699999570846558,0.6200000047683716,-118.9000015258789,0.07794189453125,0.1263427734375,1.0335693359375,31.030000686645508,0.0,-124.0,9.765625E-4,-5.645751953125E-4,Waiting,-5.229912023460411,4.875,-989.0,-229.0,-1747.5,-1640.0,0.0,0.0,
1.8005439999999944,0.0,0.0,false,2691912.156725555,,32.0,0.0,0.0,0.0,0.0,0.125,1.807861143,0.0,0.0,-14.0,0.0,-22.5,-0.0,0.0,1.875,2.766112998,0.0,0.0,0.0,0.0,0.0,0.0,0.0,1.25,4.753417482000001,0.0,0.0,1.0,0.0,0.0,-0.0,0.0,0.0,2.559814191,0.0,0.0,1.1799999475479126,0.6399999856948853,-118.93000030517578,0.09405517578125,0.07232666015625,0.9093017578125,31.030000686645508,0.0,-87.0,5.950927734375E-4,-5.18798828125E-4,Waiting,-5.076783968719453,4.375,-989.0,-229.0,-1755.0,-1640.0,0.0,0.0,
1.8211380000000064,0.0,0.0,false,2692464.649178034,,32.0,0.0,0.0,0.0,0.0,0.125,1.807861143,0.0,0.0,-14.0,0.0,-15.0,-0.0,0.0,1.875,2.921142279,0.0,0.0,0.0,0.0,0.0,0.0,0.0,1.25,4.9182123870000005,0.0,0.0,1.0,0.0,0.0,-0.0,0.0,0.0,2.561034894,0.0,0.0,1.2699999809265137,0.550000011920929,-118.98999786376953,-0.0750732421875,0.12420654296875,1.10333251953125,31.030000686645508,0.0,-45.0,-4.8828125E-4,-6.256103515625E-4,Waiting,-5.0414467253176936,4.125,-989.0,-229.0,-1755.0,-1640.0,0.0,0.0,
1.8395950000000012,0.0,0.0,false,2693010.566882322,,32.0,0.0,0.0,0.0,0.0,0.125,1.807861143,0.0,0.0,-15.0,0.0,0.0,-0.0,0.0,2.0,3.0554196090000003,0.0,0.0,0.0,0.0,0.0,0.0,0.0,1.25,0.12573240900000002,0.0,0.0,1.0,0.0,0.0,-0.0,0.0,0.0,2.561034894,0.0,0.0,1.2699999809265137,0.5400000214576721,-119.0,-0.09625244140625,0.06500244140625,0.9598388671875,31.030000686645508,0.0,12.0,-0.0011138916015625,-9.1552734375E-4,Waiting,-5.047653958944282,4.125,-1270.0,-234.0,-1755.0,-1640.0,0.0,0.0,
1.8599049999999988,0.0,0.0,false,2693549.9132867134,,32.0,0.0,0.0,0.0,0.0,0.125,1.807861143,0.0,0.0,-15.0,0.0,0.0,-0.0,0.0,2.0,3.199462563,0.0,0.0,0.0,0.0,0.0,0.0,0.0,1.25,0.289306611,0.0,0.0,1.0,0.0,0.0,-0.0,0.0,0.0,2.561034894,0.0,0.0,1.2799999713897705,0.47999998927116394,-118.98999786376953,-0.04229736328125,0.00787353515625,1.0225830078125,31.030000686645508,0.0,37.0,-0.002166748046875,-0.0017547607421875,Waiting,-5.000146627565983,4.0,-1270.0,-234.0,-1755.0,-1640.0,0.0,0.0,
1.8790650000000024,0.0,0.0,false,2694082.6918370915,,32.0,0.0,0.0,0.0,0.0,0.125,1.807861143,0.0,0.0,-15.0,0.0,0.0,-0.0,0.0,2.5,3.338622705,0.0,0.0,0.0,0.0,0.0,0.0,0.0,1.25,0.42724605000000004,0.0,0.0,1.0,0.0,0.0,-0.0,0.0,0.0,2.559814191,0.0,0.0,1.2799999713897705,0.4699999988079071,-118.97000122070312,-0.0472412109375,0.1337890625,0.91412353515625,31.030000686645508,0.0,-72.0,-0.0026702880859375,-0.0023040771484375,Waiting,-4.988269794721408,4.0,-1270.0,-234.0,-1755.0,-1640.0,0.0,0.0,
1.899460000000021,0.0,0.0,false,2694612.0950716534,,32.0,0.0,0.0,0.0,0.0,0.125,1.807861143,0.0,0.0,-15.0,0.0,-7.5,-0.0,0.0,2.5,3.493651986,0.0,0.0,0.0,0.0,0.0,0.0,0.0,1.25,0.571289004,0.0,0.0,1.0,0.0,0.0,-0.0,0.0,0.0,2.561034894,0.0,0.0,1.2899999618530273,0.4699999988079071,-118.97000122070312,0.110595703125,-0.119384765625,1.033203125,31.030000686645508,0.0,75.0,-0.003173828125,-0.0028228759765625,Waiting,-4.952639296187684,3.875,-1270.0,-234.0,-1755.0,-1640.0,0.0,0.0,
1.9218050000000222,0.0,0.0,false,2695134.9362222613,,32.0,0.0,0.0,0.0,0.0,0.125,1.80664044,0.0,0.0,-15.0,0.0,-7.5,-0.0,0.0,2.375,3.648681267,0.0,0.0,0.0,0.0,0.0,0.0,0.0,1.375,0.74462883,0.0,0.0,1.0,0.0,0.0,-0.0,0.0,0.0,2.561034894,0.0,0.0,1.2000000476837158,0.5199999809265137,-118.95999908447266,0.1070556640625,-0.07666015625,0.9600830078125,31.030000686645508,0.0,37.0,-0.00408935546875,-0.00341796875,Waiting,-5.059530791788857,3.75,-1270.0,-234.0,-1755.0,-1640.0,0.0,0.0,
1.938171000000002,0.0,0.0,false,2695651.2187281623,,32.0,0.0,0.0,0.0,0.0,0.125,1.80664044,0.0,0.0,-15.0,0.0,0.0,-0.0,0.0,2.25,3.7805171910000004,0.0,0.0,0.0,0.0,0.0,0.0,0.0,1.375,0.865478427,0.0,0.0,1.0,0.0,0.0,-0.0,0.0,0.0,2.559814191,0.0,0.0,1.1799999475479126,0.550000011920929,-118.95999908447266,0.00750732421875,-0.0526123046875,1.02276611328125,31.030000686645508,0.0,65.0,-0.0044708251953125,-0.0035400390625,Waiting,-5.0239002932551315,3.875,-1270.0,-234.0,-1747.5,-1640.0,0.0,0.0,
1.9598250000000117,0.0,0.0,false,2696164.1334497817,,32.0,0.0,0.0,0.0,0.0,0.125,1.80664044,0.0,0.0,-16.0,0.0,0.0,-0.0,0.0,2.25,3.9392085810000004,0.0,0.0,0.0,0.0,0.0,0.0,0.0,1.375,1.0290526290000002,0.0,0.0,1.0,0.0,0.0,-0.0,0.0,0.0,2.559814191,0.0,0.0,1.190000057220459,0.5400000214576721,-118.95999908447266,-0.1005859375,0.1595458984375,1.0775146484375,31.030000686645508,0.0,-66.0,-0.0048370361328125,-0.0037384033203125,Waiting,-4.967741935483871,3.875,-1552.0,-233.0,-1747.5,-1640.0,0.0,0.0,
1.9790510000000068,0.0,0.0,false,2696670.4952846663,,32.0,0.0,0.0,0.0,0.0,0.125,1.80664044,0.0,0.0,-16.0,0.0,0.0,-0.0,0.0,2.375,4.079589426,0.0,0.0,0.0,0.0,0.0,0.0,0.0,1.375,1.168212771,0.0,0.0,1.0,0.0,0.0,-0.0,0.0,0.0,2.562255597,0.0,0.0,1.2000000476837158,0.5400000214576721,-118.94000244140625,-0.11138916015625,0.04913330078125,0.99456787109375,31.030000686645508,0.0,33.0,-0.005767822265625,-0.0045166015625,Waiting,-7.427956989247312,4.0,-1552.0,-233.0,-1747.5,-1640.0,0.0,0.0,
1.9996600000000035,0.0,0.0,false,2697170.3076654444,,32.0,0.0,0.0,0.0,0.0,0.125,1.807861143,0.0,0.0,-16.0,0.0,-7.5,-0.0,0.0,2.5,4.241942925,0.0,0.0,0.0,0.0,0.0,0.0,0.0,1.375,1.314697131,0.0,0.0,1.0,0.0,0.0,-0.0,0.0,0.0,2.561034894,0.0,0.0,1.2400000095367432,0.5099999904632568,-118.91999816894531,-0.02532958984375,-0.1331787109375,0.913330078125,31.030000686645508,0.0,150.0,-0.006103515625,-0.0050048828125,Waiting,-5.050537634408602,4.125,-1552.0,-233.0,-1740.0,-1640.0,0.0,0.0,
2.0221940000000176,0.0,0.0,false,2697663.574022346,,32.0,0.0,0.0,0.0,0.0,0.125,1.80664044,0.0,0.0,-16.0,0.0,-15.0,-0.0,0.0,2.625,4.396972206,0.0,0.0,0.0,0.0,0.0,0.0,0.0,1.375,1.483154145,0.0,0.0,1.0,0.0,0.0,-0.0,0.0,0.0,2.561034894,0.0,0.0,1.2000000476837158,0.47999998927116394,-118.83000183105469,-0.10223388671875,0.08160400390625,1.06243896484375,31.020000457763672,0.0,1.0,-0.0064544677734375,-0.00592041015625,Waiting,-5.0032258064516135,4.0,-1552.0,-233.0,-1740.0,-1640.0,0.0,0.0,
2.0396030000000027,0.0,0.0,false,2698153.4829813233,,32.0,0.0,0.0,0.0,0.0,0.125,1.80664044,0.0,0.0,-16.0,0.0,-22.5,-0.0,0.0,2.75,4.519042506,0.0,0.0,0.0,0.0,0.0,0.0,0.0,1.375,1.6088865540000001,0.0,0.0,1.0,0.0,0.0,-0.0,0.0,0.0,2.559814191,0.0,0.0,1.2699999809265137,0.4300000071525574,-118.77999877929688,0.02655029296875,-0.126220703125,0.943603515625,31.020000457763672,0.0,119.0,-0.00653076171875,-0.0064239501953125,Waiting,-4.991397849462365,4.125,-1552.0,-233.0,-1740.0,-1640.0,0.0,0.0,
2.0595090000000202,0.0,0.0,false,2698636.8516579405,,32.0,0.0,0.0,0.0,0.0,0.125,1.807861143,0.0,0.0,-16.0,0.0,-37.5,-0.0,0.0,2.5,4.671630381,0.0,0.0,0.0,0.0,0.0,0.0,0.0,1.375,1.7578123200000002,0.0,0.0,1.0,0.0,0.0,-0.0,0.0,0.0,2.559814191,0.0,0.0,1.2599999904632568,0.4300000071525574,-118.70999908447266,0.00250244140625,0.04345703125,0.9984130859375,31.020000457763672,0.0,-16.0,-0.0065155029296875,-0.0068817138671875,Waiting,-5.086021505376344,4.125,-1552.0,-233.0,-1732.5,-1640.0,0.0,0.0,
2.078997000000003,0.0,0.0,false,2699113.6834758334,,32.0,0.0,0.0,0.0,0.0,0.125,1.807861143,0.0,0.0,-24.0,0.0,-45.0,-0.0,0.0,2.375,4.8107905230000005,0.0,0.0,0.0,0.0,0.0,0.0,0.0,1.25,1.901855274,0.0,0.0,1.0,0.0,0.0,-0.0,0.0,0.0,2.559814191,0.0,0.0,1.2599999904632568,0.4000000059604645,-118.66000366210938,-0.05194091796875,-0.12420654296875,0.90740966796875,31.020000457763672,0.0,154.0,-0.0064239501953125,-0.0068817138671875,Waiting,-5.071407624633431,4.125,-1828.0,-231.0,-1732.5,-1640.0,0.0,0.0,
2.0989250000000172,0.0,0.0,false,2699587.1653872994,,32.0,0.0,0.0,0.0,0.0,0.125,1.807861143,0.0,0.0,-24.0,0.0,-45.0,-0.0,0.0,2.25,0.034179684,0.0,0.0,0.0,0.0,0.0,0.0,0.0,1.25,2.052001743,0.0,0.0,1.0,0.0,0.0,-0.0,0.0,0.0,2.561034894,0.0,0.0,1.2599999904632568,0.3700000047683716,-118.54000091552734,-0.0928955078125,0.03173828125,1.02459716796875,31.020000457763672,0.0,39.0,-0.005767822265625,-0.006805419921875,Waiting,-5.059530791788857,4.125,-1828.0,-231.0,-1732.5,-1640.0,0.0,0.0,
2.122043000000005,0.0,0.0,false,2700054.116169545,,32.0,0.0,0.0,0.0,0.0,0.125,1.80664044,0.0,0.0,-24.0,0.0,-52.5,-0.0,0.0,2.125,0.20751951000000002,0.0,0.0,0.0,0.0,0.0,0.0,0.0,1.25,2.2216794600000003,0.0,0.0,1.0,0.0,0.0,-0.0,0.0,0.0,2.561034894,0.0,0.0,1.25,0.4000000059604645,-118.5,-0.042724609375,-0.07672119140625,0.8814697265625,31.020000457763672,0.0,107.0,-0.0052947998046875,-0.0068511962890625,Waiting,-5.0239002932551315,4.125,-1828.0,-231.0,-1732.5,-1640.0,0.0,0.0,
2.1396780000000146,0.0,0.0,false,2700514.539239623,,32.0,0.0,0.0,0.0,0.0,0.125,1.80664044,0.0,0.0,-24.0,0.0,-52.5,-0.0,0.0,1.875,0.347900355,0.0,0.0,0.0,0.0,0.0,0.0,0.0,1.25,2.352294681,0.0,0.0,1.0,0.0,0.0,-0.0,0.0,0.0,2.561034894,0.0,0.0,1.25,0.4300000071525574,-118.4800033569336,0.0308837890625,-0.1080322265625,0.96075439453125,31.020000457763672,0.0,102.0,-0.004669189453125,-0.0068359375,Waiting,-5.000146627565983,4.0,-1828.0,-231.0,-1732.5,-1640.0,0.0,0.0,
2.163344000000012,0.0,0.0,false,2700968.4380122055,,32.0,0.0,0.0,0.0,0.0,0.125,1.807861143,0.0,0.0,-24.0,0.125,-52.5,-0.0,0.0,1.625,0.546874944,0.0,0.0,0.0,0.0,0.0,0.0,0.0,1.25,2.559814191,0.0,0.0,1.0,0.0,0.0,-0.0,0.0,0.0,2.559814191,0.0,0.0,1.2400000095367432,0.4699999988079071,-118.45999908447266,0.119140625,0.03497314453125,1.07275390625,31.020000457763672,0.0,-62.0,-0.0032958984375,-0.0064544677734375,Waiting,-5.095161290322581,4.125,-1828.0,-231.0,-1725.0,-1640.0,0.0,0.0,
2.181375,0.0,0.0,false,2701418.9972106,,32.0,0.0,0.0,0.0,0.0,0.125,1.805419737,0.0,0.0,-24.0,0.125,-52.5,-0.0,0.0,1.625,0.6591796200000001,0.0,0.0,0.0,0.0,0.0,0.0,0.0,1.25,2.669677461,0.0,0.0,1.0,0.0,0.0,-0.0,0.0,0.0,2.561034894,0.0,0.0,1.2300000190734863,0.5299999713897705,-118.47000122070312,0.13800048828125,0.0078125,0.93316650390625,31.020000457763672,0.0,-50.0,-0.0027008056640625,-0.00604248046875,Waiting,-5.071407624633431,4.125,-1828.0,-231.0,-1725.0,-1640.0,0.0,0.0,
2.1992270000000134,0.0,0.0,false,2701863.037824647,,32.0,0.0,0.0,0.0,0.0,0.125,1.807861143,0.0,0.0,-35.0,0.125,-60.0,-0.0,0.0,1.75,0.798339762,0.0,0.0,0.0,0.0,0.0,0.0,0.0,1.25,2.7990719790000003,0.0,0.0,1.0,0.0,0.0,-0.0,0.0,0.0,2.558593488,0.0,0.0,1.2400000095367432,0.5600000023841858,-118.4800033569336,0.0665283203125,0.02764892578125,0.96270751953125,31.020000457763672,0.0,-33.0,-0.002166748046875,-0.0055389404296875,Waiting,-5.059530791788857,4.125,-2106.0,-230.0,-1725.0,-1640.0,0.0,0.0,
2.2212760000000125,0.0,0.0,false,2702300.5632624608,,32.0,0.0,0.0,0.0,0.0,0.125,1.80664044,0.0,0.0,-35.0,0.125,-60.0,-0.0,0.0,1.75,0.968017479,0.0,0.0,0.0,0.0,0.0,0.0,0.0,1.25,2.965087587,0.0,0.0,1.0,0.0,0.0,-0.0,0.0,0.0,2.561034894,0.0,0.0,1.2999999523162842,0.5299999713897705,-118.5,-0.03350830078125,0.05224609375,1.0362548828125,31.020000457763672,0.0,-4.0,-0.0011749267578125,-0.0044708251953125,Waiting,-5.0239002932551315,4.25,-2106.0,-230.0,-1725.0,-1640.0,0.0,0.0,
2.2399860000000045,0.0,0.0,false,2702734.756577801,,32.0,0.0,0.0,0.0,0.0,0.125,1.80664044,0.0,0.0,-35.0,0.125,-60.0,-0.0,0.0,1.75,1.1083983240000002,0.0,0.0,0.0,0.0,0.0,0.0,0.0,1.375,3.096923511,0.0,0.0,1.0,0.0,0.0,-0.0,0.0,0.0,2.561034894,0.0,0.0,1.2999999523162842,0.5299999713897705,-118.5,-0.0477294921875,0.0340576171875,1.009033203125,31.020000457763672,0.0,17.0,-0.0011749267578125,-0.0040283203125,Waiting,-5.000146627565983,4.0,-2106.0,-230.0,-1725.0,-1640.0,0.0,0.0,
2.2595080000000016,0.0,0.0,false,2703162.4404181186,,32.0,0.0,0.0,0.0,0.0,0.125,1.807861143,0.0,0.0,-35.0,0.125,-60.0,-0.0,0.0,1.875,1.248779169,0.0,0.0,0.0,0.0,0.0,0.0,0.0,1.375,3.24706998,0.0,0.0,1.0,0.0,0.0,-0.0,0.0,0.0,2.558593488,0.0,0.0,1.3200000524520874,0.5299999713897705,-118.51000213623047,-0.03271484375,-0.04351806640625,0.97540283203125,31.020000457763672,0.0,77.0,-9.46044921875E-4,-0.0033416748046875,Waiting,-5.107038123167156,4.0,-2106.0,-230.0,-1717.5,-1640.0,0.0,0.0,
2.279982000000018,0.0,0.0,false,2703583.618184985,,32.0,0.0,0.0,0.0,0.0,0.125,1.807861143,0.0,0.0,-35.0,0.125,-45.0,-0.0,0.0,1.875,1.402587747,0.0,0.0,0.0,0.0,0.0,0.0,0.0,1.375,3.388671528,0.0,0.0,1.0,0.0,0.0,-0.0,0.0,0.0,2.561034894,0.0,0.0,1.309999942779541,0.5099999904632568,-118.5199966430664,-0.012451171875,0.00537109375,1.05316162109375,31.020000457763672,0.0,27.0,-7.01904296875E-4,-0.003021240234375,Waiting,-5.083284457478006,4.125,-2106.0,-230.0,-1717.5,-1640.0,0.0,0.0,
2.2998129999999946,0.0,0.0,false,2703998.2932776036,,32.0,0.0,0.0,0.0,0.0,0.125,1.807861143,0.0,0.0,-35.0,0.125,-30.0,-0.0,0.0,2.0,1.546630701,0.0,0.0,0.0,0.0,0.0,0.0,0.0,1.25,3.547362918,0.0,0.0,1.0,0.0,0.0,-0.0,0.0,0.0,2.559814191,0.0,0.0,1.309999942779541,0.5,-118.52999877929688,0.08551025390625,4.2724609375E-4,1.03363037109375,31.020000457763672,0.0,-16.0,-4.57763671875E-4,-0.0026702880859375,Waiting,-5.047653958944282,4.125,-2106.0,-230.0,-1717.5,-1640.0,0.0,0.0,
2.322841000000015,0.0,0.0,false,2704409.646526206,,32.0,0.0,0.0,0.0,0.0,0.125,1.807861143,0.0,0.0,-35.0,0.125,-7.5,-0.0,0.0,2.125,1.722411933,0.0,0.0,0.0,0.0,0.0,0.0,0.0,1.25,3.7255855560000004,0.0,0.0,1.0,0.0,0.0,-0.0,0.0,0.0,2.559814191,0.0,0.0,1.2699999809265137,0.5099999904632568,-118.58000183105469,0.030517578125,-0.010009765625,0.91534423828125,31.020000457763672,0.0,16.0,-2.288818359375E-4,-0.0017547607421875,Waiting,-5.0239002932551315,4.25,-2379.0,-229.0,-1717.5,-1640.0,0.0,0.0,
2.33936500000002,0.0,0.0,false,2704810.4568245127,,32.0,0.0,0.0,0.0,0.0,0.125,1.807861143,0.0,0.0,-35.0,0.125,0.0,-0.0,0.0,2.125,1.8469236390000001,0.0,0.0,0.0,0.0,0.0,0.0,0.0,1.25,3.8415523410000003,0.0,0.0,1.0,0.0,0.0,-0.0,0.0,0.0,2.567138409,0.0,0.0,1.25,0.47999998927116394,-118.62000274658203,0.02667236328125,0.0062255859375,0.9853515625,31.020000457763672,0.0,4.0,-2.288818359375E-4,-0.0012359619140625,Waiting,-5.012023460410558,4.125,-2379.0,-229.0,-1717.5,-1640.0,0.0,0.0,
2.3592140000000072,0.0,0.0,false,2705204.774934726,,32.0,0.0,0.0,0.0,0.0,0.125,1.807861143,0.0,0.0,-35.0,0.125,0.0,-0.0,0.0,2.25,1.9958494050000002,0.0,0.0,0.0,0.0,0.0,0.0,0.0,1.25,3.9868159980000004,0.0,0.0,1.0,0.0,0.0,-0.0,0.0,0.0,2.559814191,0.0,0.0,1.2400000095367432,0.4699999988079071,-118.66000366210938,-0.0244140625,0.11053466796875,1.06488037109375,31.020000457763672,0.0,-60.0,-2.74658203125E-4,-7.476806640625E-4,Waiting,-4.988269794721408,4.0,-2379.0,-229.0,-1717.5,-1640.0,0.0,0.0,
2.3788980000000155,0.0,0.0,false,2705592.6042464324,,32.0,0.0,0.0,0.0,0.0,0.125,1.80664044,0.0,0.0,-35.0,0.125,0.0,-0.0,0.0,2.25,2.139892359,0.0,0.0,0.0,0.0,0.0,0.0,0.0,1.375,4.132079655,0.0,0.0,1.0,0.0,0.0,-0.0,0.0,0.0,2.568359112,0.0,0.0,1.2699999809265137,0.49000000953674316,-118.76000213623047,-0.0709228515625,-0.03765869140625,0.9920654296875,31.020000457763672,0.0,90.0,-2.74658203125E-4,-3.0517578125E-5,Waiting,-5.107038123167156,4.125,-2379.0,-229.0,-1710.0,-1640.0,0.0,0.0,
2.3993920000000215,0.0,0.0,false,2705977.123368714,,32.0,0.0,0.0,0.0,0.0,0.125,1.807861143,0.0,0.0,-35.0,0.125,0.0,-0.0,0.0,2.25,2.293700937,0.0,0.0,0.0,0.0,0.0,0.0,0.0,1.375,4.281005421000001,0.0,0.0,1.0,0.0,0.0,-0.0,0.0,0.0,2.559814191,0.0,0.0,1.2799999713897705,0.4699999988079071,-118.81999969482422,-0.067626953125,-0.06072998046875,1.02984619140625,31.020000457763672,0.0,110.0,-9.1552734375E-5,2.44140625E-4,Waiting,-5.083284457478006,4.125,-2379.0,-229.0,-1710.0,-1640.0,0.0,0.0,
2.422540000000008,0.0,0.0,false,2706355.1593597773,,32.0,0.0,0.0,0.0,0.0,0.125,1.805419737,0.0,0.0,-35.0,0.125,0.0,-0.0,0.0,2.25,2.463378654,0.0,0.0,0.0,0.0,0.0,0.0,0.0,1.375,4.4506831380000005,0.0,0.0,1.0,0.0,0.0,-0.0,0.0,0.0,2.559814191,0.0,0.0,1.2799999713897705,0.47999998927116394,-118.87999725341797,-0.0115966796875,0.03582763671875,0.98095703125,31.020000457763672,0.0,-2.0,1.373291015625E-4,4.8828125E-4,Waiting,-5.059530791788857,4.25,-2379.0,-229.0,-1710.0,-1640.0,0.0,0.0,
2.4393620000000227,0.0,0.0,false,2706726.7156027136,,32.0,0.0,0.0,0.0,0.0,0.125,1.807861143,0.0,0.0,-35.0,0.125,0.0,-0.0,0.0,2.25,2.601318093,0.0,0.0,0.0,0.0,0.0,0.0,0.0,1.375,4.580077656,0.0,0.0,1.0,0.0,0.0,-0.0,0.0,0.0,2.559814191,0.0,0.0,1.3300000429153442,0.46000000834465027,-119.0,0.0294189453125,-0.02740478515625,1.0428466796875,31.020000457763672,0.0,35.0,7.171630859375E-4,0.001129150390625,Waiting,-5.047653958944282,4.25,-2653.0,-228.0,-1710.0,-1640.0,0.0,0.0,
2.459970000000001,0.0,0.0,false,2707094.9690434784,,32.0,0.0,0.0,0.0,0.0,0.125,1.80664044,0.0,0.0,-35.0,0.125,0.0,-0.0,0.0,2.125,2.753905968,0.0,0.0,0.0,0.0,0.0,0.0,0.0,1.375,4.735106937,0.0,0.0,1.0,0.0,0.0,-0.0,0.0,0.0,2.561034894,0.0,0.0,1.340000033378601,0.4300000071525574,-119.05000305175781,0.019287109375,0.0040283203125,1.09771728515625,31.020000457763672,0.0,13.0,0.0010528564453125,0.0015411376953125,Waiting,-5.0239002932551315,4.125,-2653.0,-228.0,-1710.0,-1640.0,0.0,0.0,
2.4798030000000146,0.0,0.0,false,2707456.7428273344,,32.0,0.0,0.0,0.0,0.0,0.125,1.807861143,0.0,0.0,-35.0,0.125,0.0,-0.0,0.0,2.125,2.9028317340000003,0.0,0.0,0.0,0.0,0.0,0.0,0.0,1.25,4.884032703,0.0,0.0,1.0,0.0,0.0,-0.0,0.0,0.0,2.561034894,0.0,0.0,1.3200000524520874,0.41999998688697815,-119.06999969482422,0.018310546875,0.03900146484375,0.94305419921875,31.020000457763672,0.0,-20.0,0.0013885498046875,0.001953125,Waiting,-5.000146627565983,4.0,-2653.0,-228.0,-1710.0,-1640.0,0.0,0.0,
2.499162000000011,0.0,0.0,false,2707812.045897079,,32.0,0.0,0.0,0.0,0.0,0.125,1.807861143,0.0,0.0,-35.0,0.125,0.0,-0.0,0.0,2.0,3.0554196090000003,0.0,0.0,0.0,0.0,0.0,0.0,0.0,1.25,0.104980458,0.0,0.0,1.0,0.0,0.0,-0.0,0.0,0.0,2.559814191,0.0,0.0,1.340000033378601,0.4099999964237213,-119.08000183105469,-0.06396484375,0.0411376953125,0.90289306640625,31.020000457763672,0.0,16.0,0.001708984375,0.0023345947265625,Waiting,-4.976392961876833,4.0,-2653.0,-228.0,-1710.0,-1640.0,0.0,0.0,
2.5224800000000105,0.0,0.0,false,2708160.881626977,,32.0,0.0,0.0,0.0,0.0,0.125,1.807861143,0.0,0.0,-35.0,0.125,0.0,-0.0,0.0,2.0,3.242187168,0.0,0.0,0.0,0.0,0.0,0.0,0.0,1.25,0.28320309600000004,0.0,0.0,1.0,0.0,0.0,-0.0,0.0,0.0,2.558593488,0.0,0.0,1.3600000143051147,0.3799999952316284,-119.06999969482422,-0.09857177734375,-0.0191650390625,1.009521484375,31.020000457763672,0.0,88.0,0.0021209716796875,0.0026092529296875,Waiting,-5.083284457478006,4.125,-2653.0,-228.0,-1702.5,-1640.0,0.0,0.0,
2.541311000000016,0.0,0.0,false,2708506.4247480016,,32.0,0.0,0.0,0.0,0.0,0.125,1.807861143,0.0,0.0,-35.0,0.125,0.0,-0.0,0.0,2.375,3.354491844,0.0,0.0,0.0,0.0,0.0,0.0,0.0,1.25,0.418701129,0.0,0.0,1.0,0.0,0.0,-0.0,0.0,0.0,2.559814191,0.0,0.0,1.3799999952316284,0.33000001311302185,-119.05999755859375,-0.06231689453125,0.03741455078125,1.07421875,31.020000457763672,0.0,23.0,0.003082275390625,0.0028076171875,Waiting,-5.071407624633431,4.25,-2653.0,-228.0,-1702.5,-1640.0,0.0,0.0,
2.585697000000015,0.0,0.0,false,2709264.4503909643,,32.0,0.0,0.0,0.0,0.0,0.125,1.80664044,0.0,0.0,-35.0,0.125,0.0,-0.0,0.0,2.375,3.72314415,0.0,0.0,0.0,0.0,0.0,0.0,0.0,1.375,0.786132732,0.0,0.0,1.0,0.0,0.0,-0.0,0.0,0.0,2.561034894,0.0,0.0,1.399999976158142,0.2800000011920929,-119.05999755859375,0.0491943359375,-7.32421875E-4,0.94427490234375,31.0,0.0,0.0,0.0049896240234375,0.0027313232421875,Waiting,-5.0239002932551315,4.125,-2926.0,-227.0,-1702.5,-1640.0,0.0,0.0,
2.602301999999996,0.0,0.0,false,2710013.041000695,,32.0,0.0,0.0,0.0,0.0,0.125,1.80664044,0.0,0.0,-35.0,0.125,0.0,-0.0,0.0,2.375,3.8000484390000002,0.0,0.0,0.0,0.0,0.0,0.0,0.0,1.375,0.875244051,0.0,0.0,1.0,0.0,0.0,-0.0,0.0,0.0,2.561034894,0.0,0.0,1.399999976158142,0.30000001192092896,-119.05999755859375,0.10736083984375,-0.15447998046875,0.99615478515625,31.0,0.0,106.0,0.005706787109375,0.002899169921875,Waiting,-5.012023460410558,4.125,-2926.0,-227.0,-1702.5,-1640.0,0.0,0.0,
2.6220080000000014,0.0,0.0,false,2710756.3606044813,,32.0,0.0,0.0,0.0,0.0,0.125,1.807861143,0.0,0.0,-35.0,0.125,0.0,-0.0,0.0,2.375,3.959960532,0.0,0.0,0.0,0.0,0.0,0.0,0.0,1.375,1.022949114,0.0,0.0,1.0,0.0,0.0,-0.0,0.0,0.0,2.559814191,0.0,0.0,1.3899999856948853,0.3199999928474426,-119.02999877929688,-0.07843017578125,0.0904541015625,1.11651611328125,31.0,0.0,-14.0,0.006500244140625,0.0030975341796875,Waiting,-4.988269794721408,4.0,-2926.0,-227.0,-1702.5,-1640.0,0.0,0.0,
2.6390170000000217,0.0,0.0,false,2711494.4119485933,,32.0,0.0,0.0,0.0,0.0,0.125,1.80664044,0.0,0.0,-35.0,0.125,0.0,-0.0,0.0,2.375,4.074706614,0.0,0.0,0.0,0.0,-15.0,0.0,0.0,1.375,1.140136602,0.0,0.0,1.0,0.0,0.0,-0.0,0.0,0.0,2.559814191,0.0,0.0,1.3899999856948853,0.28999999165534973,-119.01000213623047,0.00323486328125,0.0794677734375,0.96612548828125,31.0,0.0,-47.0,0.007232666015625,0.003204345703125,Waiting,-4.976392961876833,4.0,-2926.0,-227.0,-1702.5,-1640.0,0.0,0.0,
2.659269,0.0,0.0,false,2712227.197777392,,32.0,0.0,0.0,0.0,0.0,0.125,1.80664044,0.0,0.0,-35.0,0.125,-7.5,-0.0,0.0,2.5,4.228515192000001,0.0,0.0,0.0,0.0,-22.5,0.0,0.0,1.375,1.2902830710000002,0.0,0.0,1.0,0.0,0.0,-0.0,0.0,0.0,2.561034894,0.0,0.0,1.4700000286102295,0.27000001072883606,-118.94000244140625,-0.03472900390625,-0.036376953125,0.9285888671875,31.0,0.0,71.0,0.0086669921875,0.0031890869140625,Waiting,-5.083284457478006,4.0,-2926.0,-227.0,-1695.0,-1640.0,0.0,0.0,
2.679951000000001,0.0,0.0,false,2712954.720833333,,32.0,0.0,0.0,0.0,0.0,0.125,1.80664044,0.0,0.0,-40.0,0.125,-15.0,-0.0,0.0,2.625,4.367675334,0.0,0.0,-5.0,0.0,-30.0,0.0,0.0,1.375,1.439208837,0.0,0.0,1.0,0.0,0.0,-0.0,0.0,0.0,2.561034894,0.0,0.0,1.5299999713897705,0.23000000417232513,-118.9000015258789,-0.027099609375,-0.0225830078125,1.134765625,31.0,0.0,61.0,0.0094757080078125,0.003143310546875,Waiting,-5.071407624633431,4.125,-3198.0,-226.0,-1695.0,-1640.0,0.0,0.0,
2.699716000000015,0.0,0.0,false,2713676.983856969,,32.0,0.0,0.0,0.0,0.0,0.125,1.807861143,0.0,0.0,-40.0,0.125,-22.5,-0.0,0.0,2.75,4.519042506,0.0,0.0,-5.0,0.0,-30.0,0.0,0.0,1.375,1.589355306,0.0,0.0,1.0,0.0,0.0,-0.0,0.0,0.0,2.561034894,0.0,0.0,1.5,0.25,-118.8499984741211,-0.17742919921875,0.16351318359375,1.0653076171875,31.0,0.0,-30.0,0.01031494140625,0.0029449462890625,Waiting,-5.047653958944282,4.125,-3198.0,-226.0,-1695.0,-1640.0,0.0,0.0,
2.7212580000000015,0.0,0.0,false,2714393.989586949,,32.0,0.0,0.0,0.0,0.0,0.125,1.807861143,0.0,0.0,-40.0,0.125,-30.0,-0.0,0.0,2.75,4.691161629000001,0.0,0.0,-5.0,0.0,-22.5,0.0,0.0,1.375,1.752929508,0.0,0.0,1.0,0.0,0.0,-0.0,0.0,0.0,2.558593488,0.0,0.0,1.5099999904632568,0.23000000417232513,-118.70999908447266,0.02984619140625,0.0421142578125,0.985107421875,31.0,0.0,-26.0,0.012054443359375,0.0023956298828125,Waiting,-5.035777126099707,4.25,-3198.0,-226.0,-1695.0,-1640.0,0.0,0.0,
2.7392820000000064,0.0,0.0,false,2715105.740760021,,32.0,0.0,0.0,0.0,0.0,0.125,1.807861143,0.0,0.0,-40.0,0.125,-30.0,-0.0,0.0,2.5,4.8132319290000005,0.0,0.0,-5.0,0.0,-15.0,0.0,0.0,1.25,1.883544729,0.0,0.0,1.0,0.0,0.0,-0.0,0.0,0.0,2.559814191,0.0,0.0,1.5399999618530273,0.18000000715255737,-118.63999938964844,0.03656005859375,-0.0155029296875,1.0399169921875,31.0,0.0,22.0,0.0129241943359375,0.002197265625,Waiting,-5.012023460410558,4.125,-3198.0,-226.0,-1695.0,-1640.0,0.0,0.0,
2.760141000000003,0.0,0.0,false,2715812.240111034,,32.0,0.0,0.0,0.0,0.0,0.125,1.80664044,0.0,0.0,-40.0,0.125,-30.0,-0.0,0.0,2.375,0.037841793,0.0,0.0,-5.0,0.0,-7.5,0.0,0.0,1.25,2.047118931,0.0,0.0,1.0,0.0,0.0,-0.0,0.0,0.0,2.561034894,0.0,0.0,1.5399999618530273,0.18000000715255737,-118.55999755859375,0.06256103515625,-0.028076171875,1.0079345703125,31.0,0.0,20.0,0.0138397216796875,0.0020751953125,Waiting,-5.000146627565983,4.125,-3198.0,-226.0,-1695.0,-1640.0,0.0,0.0,
2.780644,0.0,0.0,false,2716513.49037294,,32.0,0.0,0.0,0.0,0.0,0.125,1.807861143,0.0,0.0,-40.0,0.125,-30.0,-0.0,0.0,2.25,0.19775388600000002,0.0,0.0,-5.0,0.0,0.0,0.0,0.0,1.0,2.198486103,0.0,0.0,1.0,0.0,0.0,-0.0,0.0,0.0,2.559814191,0.0,0.0,1.4199999570846558,0.25,-118.45999908447266,-0.0078125,-0.0440673828125,0.88153076171875,31.0,0.0,63.0,0.015777587890625,0.002044677734375,Waiting,-4.988269794721408,4.0,-3198.0,-226.0,-1695.0,-1640.0,0.0,0.0,
2.7997259999999953,0.0,0.0,false,2717209.494276795,,32.0,0.0,0.0,0.0,0.0,0.125,1.80664044,0.0,0.0,-46.0,0.125,-30.0,-0.0,0.0,1.875,0.34301754300000004,0.0,0.0,-5.0,0.0,0.0,0.0,0.0,1.0,2.342529057,0.0,0.0,1.0,0.0,0.0,-0.0,0.0,0.0,2.559814191,0.0,0.0,1.440000057220459,0.27000001072883606,-118.44000244140625,-0.0172119140625,-0.0279541015625,1.056640625,31.0,0.0,58.0,0.016876220703125,0.0020599365234375,Waiting,-4.9645161290322575,4.0,-3472.0,-226.0,-1695.0,-1640.0,0.0,0.0,
2.8219440000000175,0.0,0.0,false,2717900.25455176,,32.0,0.0,0.0,0.0,0.0,0.125,1.80664044,0.0,0.0,-46.0,0.125,-30.0,-0.0,0.0,1.75,0.52490229,0.0,0.0,-5.0,0.0,0.0,0.0,0.0,1.0,2.520751695,0.0,0.0,1.0,0.0,0.0,-0.0,0.0,0.0,2.561034894,0.0,0.0,1.3899999856948853,0.3499999940395355,-118.44000244140625,0.0616455078125,-0.05706787109375,0.9056396484375,31.0,0.0,42.0,0.0192718505859375,0.0021209716796875,Waiting,-4.952639296187684,4.0,-3472.0,-226.0,-1695.0,-1640.0,0.0,0.0,
2.8389740000000163,0.0,0.0,false,2718585.773925104,,32.0,0.0,0.0,0.0,0.0,0.125,1.807861143,0.0,0.0,-46.0,0.125,-37.5,-0.0,0.0,1.75,0.639648372,0.0,0.0,-5.0,0.0,0.0,0.0,0.0,1.25,2.6403805890000003,0.0,0.0,1.0,0.0,0.0,-0.0,0.0,0.0,2.561034894,0.0,0.0,1.3799999952316284,0.38999998569488525,-118.44999694824219,0.07293701171875,-0.0286865234375,0.92279052734375,31.0,0.0,13.0,0.020538330078125,0.0023193359375,Waiting,-4.928885630498534,4.0,-3472.0,-226.0,-1695.0,-1640.0,0.0,0.0,
2.8633600000000152,0.0,0.0,false,2719261.054602184,,32.0,0.0,0.0,0.0,0.0,0.125,1.80664044,0.0,0.0,-46.0,0.125,-45.0,-0.0,0.0,1.625,0.836181555,0.0,0.0,-5.0,0.0,0.0,0.0,0.0,1.25,2.838134475,0.0,0.0,1.0,0.0,0.0,-0.0,0.0,0.0,2.561034894,0.0,0.0,1.3899999856948853,0.3799999952316284,-118.45999908447266,0.0565185546875,0.046875,1.0662841796875,31.0,0.0,-41.0,0.02178955078125,0.0025787353515625,Waiting,-5.047653958944282,4.125,-3472.0,-226.0,-1687.5,-1640.0,0.0,0.0,
2.8806540000000096,0.0,0.0,false,2719931.101559792,,32.0,0.0,0.0,0.0,0.0,0.125,1.807861143,0.0,0.0,-46.0,0.125,-52.5,-0.0,0.0,1.625,0.9582518550000001,0.0,0.0,-5.0,0.0,0.0,0.0,0.0,1.25,2.9541012600000003,0.0,0.0,1.0,0.0,0.0,-0.0,0.0,0.0,2.559814191,0.0,0.0,1.3899999856948853,0.3799999952316284,-118.45999908447266,0.0570068359375,0.0294189453125,1.04736328125,31.0,0.0,-27.0,0.022979736328125,0.0028839111328125,Waiting,-5.035777126099707,4.125,-3472.0,-226.0,-1687.5,-1640.0,0.0,0.0,
2.9000830000000133,0.0,0.0,false,2720595.917518628,,32.0,0.0,0.0,0.0,0.0,0.125,1.7919920040000001,0.0,0.0,-46.0,0.125,-52.5,-0.0,0.0,1.75,1.105956918,0.0,0.0,-5.0,0.0,0.0,0.0,0.0,1.25,3.098144214,0.0,0.0,1.0,0.0,0.0,-0.0,0.0,0.0,2.559814191,0.0,0.0,1.3700000047683716,0.4099999964237213,-118.44999694824219,0.0196533203125,0.00836181640625,0.95751953125,31.0,0.0,6.0,0.024169921875,0.0036773681640625,Waiting,-5.0239002932551315,4.25,-3472.0,-226.0,-1687.5,-1640.0,0.0,0.0,
2.9220320000000064,0.0,0.0,false,2721255.505197505,,32.0,0.0,0.0,0.0,0.0,0.125,1.80664044,0.0,0.0,-55.0,0.25,-52.5,-0.0,0.0,1.75,1.273193229,0.0,0.0,-5.0,0.0,0.0,0.0,0.0,1.25,3.2617184160000003,0.0,0.0,1.0,0.0,0.0,-0.0,0.0,0.0,2.559814191,0.0,0.0,1.3600000143051147,0.4099999964237213,-118.44999694824219,-0.03363037109375,-0.00390625,0.9490966796875,31.0,0.0,42.0,0.024200439453125,0.0040740966796875,Waiting,-5.020723362658847,4.125,-3739.0,-225.0,-1687.5,-1640.0,0.0,0.0,
2.941296000000002,0.0,0.0,false,2721907.1387493503,,32.0,0.0,0.0,0.0,0.0,0.125,1.807861143,0.0,0.0,-55.0,0.25,-52.5,-0.0,0.0,1.875,1.407470559,0.0,0.0,-5.0,0.0,0.0,0.0,0.0,1.25,3.397216449,0.0,0.0,1.0,0.0,0.0,-0.0,0.0,0.0,2.561034894,0.0,0.0,1.3600000143051147,0.3799999952316284,-118.47000122070312,-0.04095458984375,0.0179443359375,0.99224853515625,31.0,0.0,27.0,0.024444580078125,0.00469970703125,Waiting,-5.008797653958944,4.125,-3739.0,-225.0,-1687.5,-1640.0,0.0,0.0,
2.9597630000000064,0.0,0.0,false,2722553.550398337,,32.0,0.0,0.0,0.0,0.0,0.125,1.807861143,0.0,0.0,-55.0,0.25,-52.5,-0.0,0.0,1.875,1.547851404,0.0,0.0,-5.0,0.0,0.0,0.0,0.0,1.25,3.542480106,0.0,0.0,1.0,0.0,0.0,-0.0,0.0,0.0,2.558593488,0.0,0.0,1.3600000143051147,0.3700000047683716,-118.48999786376953,-7.32421875E-4,0.01763916015625,0.9581298828125,31.0,0.0,7.0,0.0246124267578125,0.00494384765625,Waiting,-4.98494623655914,4.0,-3739.0,-225.0,-1687.5,-1640.0,0.0,0.0,
2.980358999999997,0.0,0.0,false,2723194.742857143,,32.0,0.0,0.0,0.0,0.0,0.125,1.807861143,0.0,0.0,-55.0,0.25,-45.0,-0.0,0.0,2.0,1.701659982,0.0,0.0,-5.0,0.0,0.0,0.0,0.0,1.25,3.6865230600000003,0.0,0.0,1.0,0.0,0.0,-0.0,0.0,0.0,2.576904033,0.0,0.0,1.340000033378601,0.3700000047683716,-118.5199966430664,0.01922607421875,0.02587890625,0.94500732421875,31.0,0.0,-9.0,0.0247802734375,0.0052032470703125,Waiting,-4.98494623655914,4.0,-3739.0,-225.0,-1687.5,-1640.0,0.0,0.0,
2.9997490000000107,0.0,0.0,false,2723830.718836565,,32.0,0.0,0.0,0.0,0.0,0.125,1.807861143,0.0,0.0,-55.0,0.25,-37.5,-0.0,0.0,2.0,1.8469236390000001,0.0,0.0,-5.0,0.0,0.0,0.0,0.0,1.25,3.8305660140000004,0.0,0.0,1.0,0.0,0.0,-0.0,0.0,0.0,2.559814191,0.0,0.0,1.350000023841858,0.3700000047683716,-118.55000305175781,0.10247802734375,0.04449462890625,1.08831787109375,31.0,0.0,-69.0,0.0249176025390625,0.0059051513671875,Waiting,-4.961094819159336,4.0,-3739.0,-225.0,-1687.5,-1640.0,0.0,0.0,
3.02165300000002,0.0,0.0,false,2724461.4810455255,,32.0,0.0,0.0,0.0,0.0,0.125,1.80664044,0.0,0.0,-55.0,0.25,-30.0,-0.0,0.0,2.125,2.0104978410000003,0.0,0.0,-5.0,0.0,0.0,0.0,0.0,1.25,4.000243731,0.0,0.0,1.0,0.0,0.0,-0.0,0.0,0.0,2.559814191,0.0,0.0,1.3700000047683716,0.38999998569488525,-118.62999725341797,0.07086181640625,0.06829833984375,1.045166015625,31.0,0.0,-68.0,0.0248565673828125,0.0063629150390625,Waiting,-5.080351906158358,4.125,-3739.0,-225.0,-1680.0,-1640.0,0.0,0.0,
3.041451000000001,0.0,0.0,false,2725087.03219107,,32.0,0.0,0.0,0.0,0.0,0.125,1.80664044,0.0,0.0,-56.0,0.25,-15.0,-0.0,0.0,2.125,2.158202904,0.0,0.0,-5.0,0.0,0.0,0.0,0.0,1.25,4.136962467,0.0,0.0,1.0,0.0,0.0,-0.0,0.0,0.0,2.561034894,0.0,0.0,1.3700000047683716,0.41999998688697815,-118.68000030517578,0.07916259765625,0.1202392578125,0.96954345703125,31.0,0.0,-119.0,0.024658203125,0.006866455078125,Waiting,-5.047653958944282,4.25,-4010.0,-224.0,-1680.0,-1640.0,0.0,0.0,
3.061164000000019,0.0,0.0,false,2725707.37497837,,32.0,0.0,0.0,0.0,0.0,0.125,1.80664044,0.0,0.0,-56.0,0.25,-7.5,-0.0,0.0,2.125,2.3181149970000003,0.0,0.0,-5.0,0.0,0.0,0.0,0.0,1.375,4.29687456,0.0,0.0,1.0,0.0,0.0,-0.0,0.0,0.0,2.559814191,0.0,0.0,1.3799999952316284,0.4699999988079071,-118.80000305175781,-0.0308837890625,0.035400390625,1.0050048828125,31.030000686645508,0.0,9.0,0.024017333984375,0.0078277587890625,Waiting,-5.035777126099707,4.25,-4010.0,-224.0,-1680.0,-1640.0,0.0,0.0,
3.0805470000000206,0.0,0.0,false,2726322.5121107264,,32.0,0.0,0.0,0.0,0.0,0.125,1.80664044,0.0,0.0,-56.0,0.25,0.0,-0.0,0.0,2.0,2.45361303,0.0,0.0,-5.0,0.0,0.0,0.0,0.0,1.375,4.432372593,0.0,0.0,1.0,0.0,0.0,-0.0,0.0,0.0,2.559814191,0.0,0.0,1.3899999856948853,0.47999998927116394,-118.83999633789062,-0.024658203125,-0.04803466796875,1.04766845703125,31.030000686645508,0.0,80.0,0.02374267578125,0.008270263671875,Waiting,-5.0239002932551315,4.25,-4010.0,-224.0,-1680.0,-1640.0,0.0,0.0,
3.102021000000008,0.0,0.0,false,2726927.456149455,,32.0,0.0,0.0,0.0,0.0,0.125,1.807861143,0.0,0.0,-56.0,0.25,0.0,-0.0,0.0,2.0,2.62451145,0.0,0.0,-5.0,0.0,0.0,0.0,0.0,1.375,4.594726092,0.0,0.0,1.0,0.0,0.0,-0.0,0.0,0.0,2.559814191,0.0,0.0,1.3600000143051147,0.49000000953674316,-118.9000015258789,-0.0067138671875,0.046142578125,1.0408935546875,31.030000686645508,0.0,-11.0,0.0235137939453125,0.008697509765625,Waiting,-5.012023460410558,4.125,-4010.0,-224.0,-1680.0,-1640.0,0.0,0.0,
3.1207670000000216,0.0,0.0,false,2727527.2016603253,,32.0,0.0,0.0,0.0,0.0,0.125,1.807861143,0.0,0.0,-56.0,0.25,0.0,-0.0,0.0,2.0,2.767333701,0.0,0.0,-5.0,0.0,0.0,0.0,0.0,1.375,4.744872561,0.0,0.0,1.0,0.0,0.0,-0.0,0.0,0.0,2.559814191,0.0,0.0,1.3300000429153442,0.46000000834465027,-118.9800033569336,0.06524658203125,-0.0172119140625,1.00628662109375,31.030000686645508,0.0,8.0,0.023284912109375,0.009613037109375,Waiting,-5.000146627565983,4.0,-4010.0,-224.0,-1680.0,-1640.0,0.0,0.0,
3.1399870000000227,0.0,0.0,false,2728121.751340135,,32.0,0.0,0.0,0.0,0.0,0.125,1.80664044,0.0,0.0,-56.0,0.25,0.0,-0.0,0.0,1.875,2.911376655,0.0,0.0,-5.0,0.0,0.0,0.0,0.0,1.25,4.884032703,0.0,0.0,1.0,0.0,0.0,-0.0,0.0,0.0,2.559814191,0.0,0.0,1.3300000429153442,0.44999998807907104,-119.01000213623047,-0.01983642578125,0.0679931640625,1.01629638671875,31.030000686645508,0.0,-25.0,0.0232696533203125,0.0101165771484375,Waiting,-4.988269794721408,4.0,-4010.0,-224.0,-1680.0,-1640.0,0.0,0.0,
3.1593680000000166,0.0,0.0,false,2728711.1078838175,,32.0,0.0,0.0,0.0,0.0,0.125,1.807861143,0.0,0.0,-56.0,0.25,0.0,-0.0,0.0,1.875,3.0590817180000003,0.0,0.0,-5.0,0.0,0.0,0.0,0.0,1.25,0.08544921,0.0,0.0,1.0,0.0,0.0,-0.0,0.0,0.0,2.561034894,0.0,0.0,1.350000023841858,0.4000000059604645,-119.01000213623047,-0.05230712890625,0.08795166015625,1.02508544921875,31.030000686645508,0.0,-26.0,0.023223876953125,0.0105438232421875,Waiting,-4.9645161290322575,4.0,-4279.0,-224.0,-1680.0,-1640.0,0.0,0.0,
3.1796689999999943,0.0,0.0,false,2729295.2739844425,,32.0,0.0,0.0,0.0,0.0,0.125,1.807861143,0.0,0.0,-56.0,0.25,0.0,-0.0,0.0,1.875,3.2128902960000003,0.0,0.0,-5.0,0.0,0.0,0.0,0.0,1.375,0.24047849100000002,0.0,0.0,1.0,0.0,0.0,-0.0,0.0,0.0,2.559814191,0.0,0.0,1.3600000143051147,0.3100000023841858,-118.9800033569336,-0.08795166015625,0.1402587890625,0.97705078125,31.030000686645508,0.0,-57.0,0.0229339599609375,0.010955810546875,Waiting,-4.952639296187684,4.0,-4279.0,-224.0,-1680.0,-1640.0,0.0,0.0,
3.2002000000000117,0.0,0.0,false,2729874.252333218,,32.0,0.0,0.0,0.0,0.0,0.125,1.80664044,0.0,0.0,-56.0,0.25,0.0,-0.0,0.0,2.375,3.354491844,0.0,0.0,-5.0,0.0,0.0,0.0,0.0,1.375,0.391845663,0.0,0.0,1.0,0.0,0.0,-0.0,0.0,0.0,2.561034894,0.0,0.0,1.3799999952316284,0.33000001311302185,-118.97000122070312,-0.147705078125,0.11016845703125,0.90234375,31.030000686645508,0.0,-3.0,0.0227203369140625,0.0108489990234375,Waiting,-4.952639296187684,4.0,-4279.0,-224.0,-1680.0,-1640.0,0.0,0.0,
3.225426999999996,0.0,0.0,false,2730448.045619492,,32.0,0.0,0.0,0.0,0.0,0.125,1.807861143,0.0,0.0,-56.0,0.25,0.0,-0.0,0.0,2.625,3.547362918,0.0,0.0,-5.0,0.0,0.0,0.0,0.0,1.375,0.58593744,0.0,0.0,1.0,0.0,0.0,-0.0,0.0,0.0,2.559814191,0.0,0.0,1.409999966621399,0.30000001192092896,-118.95999908447266,-0.031494140625,0.04571533203125,1.0924072265625,31.030000686645508,0.0,1.0,0.0223846435546875,0.0104217529296875,Waiting,-5.071407624633431,4.125,-4279.0,-224.0,-1672.5,-1640.0,0.0,0.0,
3.240911000000022,0.0,0.0,false,2731016.6565307532,,32.0,0.0,0.0,0.0,0.0,0.125,1.807861143,0.0,0.0,-56.0,0.125,0.0,-0.0,0.0,2.625,3.64990197,0.0,0.0,-5.0,0.0,0.0,0.0,0.0,1.375,0.7006835220000001,0.0,0.0,1.0,0.0,0.0,-0.0,0.0,0.0,2.559814191,0.0,0.0,1.3799999952316284,0.3400000035762787,-118.94999694824219,0.08758544921875,0.0194091796875,0.9315185546875,31.030000686645508,0.0,-36.0,0.022216796875,0.010223388671875,Waiting,-5.059530791788857,4.25,-4279.0,-224.0,-1672.5,-1640.0,0.0,0.0,
3.2610690000000178,0.0,0.0,false,2731580.087752634,,32.0,0.0,0.0,0.0,0.0,0.125,1.807861143,0.0,0.0,-56.0,0.125,0.0,-0.0,0.0,2.375,3.804931251,0.0,0.0,-5.0,0.0,0.0,0.0,0.0,1.375,0.860595615,0.0,0.0,1.0,0.0,0.0,-0.0,0.0,0.0,2.561034894,0.0,0.0,1.3799999952316284,0.3799999952316284,-118.94000244140625,0.03057861328125,-0.03619384765625,1.02301025390625,31.030000686645508,0.0,41.0,0.022064208984375,0.010101318359375,Waiting,-5.047653958944282,4.25,-4279.0,-224.0,-1672.5,-1640.0,0.0,0.0,
3.279894,0.0,0.0,false,2732135.621416235,,32.0,0.0,0.0,0.0,0.0,0.125,1.80664044,0.0,0.0,-57.0,0.125,0.0,-0.0,0.0,2.375,3.9392085810000004,0.0,0.0,-5.0,0.0,0.0,0.0,0.0,1.375,0.9851073210000001,0.0,0.0,1.0,0.0,0.0,-0.0,0.0,0.0,2.559814191,0.0,0.0,1.3799999952316284,0.3799999952316284,-118.93000030517578,0.117431640625,0.08746337890625,1.084228515625,31.030000686645508,0.0,-106.0,0.021575927734375,0.009857177734375,Waiting,-5.035777126099707,4.25,-4546.0,-223.0,-1672.5,-1640.0,0.9,0.0,
3.2996630000000007,0.0,0.0,false,2732685.981695735,,32.0,0.0,0.0,0.0,0.0,0.125,1.807861143,0.0,0.0,-57.0,0.125,0.0,-0.0,0.0,2.25,4.093017159,0.0,0.0,-5.0,0.0,0.0,0.0,0.0,1.375,1.1352537900000002,0.0,0.0,1.0,0.0,0.0,-0.0,0.0,0.0,2.559814191,0.0,0.0,1.3600000143051147,0.38999998569488525,-118.91000366210938,-0.0015869140625,0.1702880859375,1.11126708984375,31.030000686645508,0.0,-121.0,0.0211181640625,0.009735107421875,Waiting,-5.0239002932551315,4.125,-4546.0,-223.0,-1672.5,-1640.0,0.9,4.0,
3.3214020000000017,0.0,0.0,false,2733231.1712707183,,32.0,0.0,0.0,0.0,0.0,0.125,1.80664044,0.0,0.0,-57.0,0.125,-7.5,-0.0,0.0,2.5,4.2407222220000005,0.0,0.0,-5.0,0.0,0.0,0.0,0.0,1.375,1.2963865860000001,0.0,0.0,1.0,0.0,0.0,-0.0,0.0,0.0,2.561034894,0.0,0.0,1.409999966621399,0.3799999952316284,-118.87999725341797,0.00396728515625,-0.06744384765625,0.91656494140625,31.030000686645508,0.0,79.0,0.0206451416015625,0.0095977783203125,Waiting,-5.012023460410558,4.125,-4546.0,-223.0,-1672.5,-1640.0,0.9,5.125,
3.339333000000013,0.0,0.0,false,2733766.2130157086,,32.0,0.0,0.0,0.0,0.0,0.125,1.807861143,0.0,0.0,-57.0,0.125,-15.0,-0.0,0.0,2.625,4.373778849,0.0,0.0,-5.0,0.0,0.0,0.0,0.0,1.375,1.4208982920000002,0.0,0.0,1.0,0.0,0.0,-0.0,0.0,0.0,2.561034894,0.0,0.0,1.3600000143051147,0.4000000059604645,-118.77999877929688,-0.15789794921875,0.1046142578125,1.04217529296875,31.030000686645508,0.0,9.0,0.0198516845703125,0.00927734375,Waiting,-5.012023460410558,4.125,-4546.0,-223.0,-1672.5,-1640.0,0.9,5.5,
3.363871000000014,0.0,0.0,false,2734296.091128754,,32.0,0.0,0.0,0.0,0.0,0.125,1.807861143,0.0,0.0,-57.0,0.125,-22.5,-0.0,0.0,2.75,4.571532735,0.0,0.0,-5.0,0.0,0.0,0.0,0.0,1.375,1.618652178,0.0,0.0,1.0,0.0,0.0,-0.0,0.0,0.0,2.543945052,0.0,0.0,1.409999966621399,0.3499999940395355,-118.7300033569336,-0.03900146484375,-0.07696533203125,0.95269775390625,31.030000686645508,0.0,109.0,0.0195465087890625,0.008941650390625,Waiting,-5.000146627565983,4.0,-4546.0,-223.0,-1672.5,-1640.0,0.9,1.5,
3.3820750000000115,0.0,0.0,false,2734820.8082830026,,32.0,0.0,0.0,0.0,0.0,0.125,1.807861143,0.0,0.0,-57.0,0.125,-22.5,-0.0,0.0,2.5,4.7058100650000005,0.0,0.0,-5.0,0.0,-7.5,0.0,0.0,1.25,1.7382810720000001,0.0,0.0,1.0,0.0,0.0,-0.0,0.0,0.0,2.561034894,0.0,0.0,1.3799999952316284,0.33000001311302185,-118.66999816894531,-0.01922607421875,0.08050537109375,1.0926513671875,31.030000686645508,0.0,-35.0,0.019287109375,0.008575439453125,Waiting,-4.988269794721408,4.0,-4546.0,-223.0,-1672.5,-1640.0,0.9,0.5,
3.40394200000001,0.0,0.0,false,2735340.3671497586,,32.0,0.0,0.0,0.0,0.0,0.125,1.80664044,0.0,0.0,-61.0,0.25,-15.0,-0.0,0.0,2.375,4.853515128000001,0.0,0.0,-6.0,0.0,-7.5,0.0,0.0,1.25,1.907958789,0.0,0.0,1.0,0.0,0.0,-0.0,0.0,0.0,2.561034894,0.0,0.0,1.3600000143051147,0.2800000011920929,-118.54000091552734,0.03057861328125,-0.114013671875,0.9271240234375,31.030000686645508,0.0,107.0,0.01898193359375,0.0079803466796875,Waiting,-5.107038123167156,4.25,-4814.0,-223.0,-1665.0,-1640.0,0.9,0.375,
3.42144200000001,0.0,0.0,false,2735854.7703984817,,32.0,0.0,0.0,0.0,0.0,0.125,1.80664044,0.0,0.0,-61.0,0.25,-15.0,-0.0,0.0,2.375,0.062255853,0.0,0.0,-6.0,0.0,0.0,0.0,0.0,1.25,2.037353307,0.0,0.0,1.0,0.0,0.0,-0.0,0.0,0.0,2.559814191,0.0,0.0,1.3600000143051147,0.25,-118.47000122070312,0.02362060546875,0.03057861328125,1.112060546875,31.030000686645508,0.0,-12.0,0.0189361572265625,0.0078125,Waiting,-5.095161290322581,4.375,-4814.0,-223.0,-1665.0,-1640.0,0.9,0.25,
3.439561000000016,0.0,0.0,false,2736364.020696792,,32.0,0.0,0.0,0.0,0.0,0.125,1.807861143,0.0,0.0,-61.0,0.25,-22.5,-0.0,0.0,2.375,0.192871074,0.0,0.0,-6.0,0.0,0.0,0.0,0.0,1.25,2.1643064190000003,0.0,0.0,1.0,0.0,0.0,-0.0,0.0,0.0,2.561034894,0.0,0.0,1.3600000143051147,0.25999999046325684,-118.41999816894531,-0.02752685546875,-0.0089111328125,1.03143310546875,31.030000686645508,0.0,44.0,0.0189361572265625,0.00762939453125,Waiting,-5.095161290322581,4.375,-4814.0,-223.0,-1665.0,-1640.0,0.9,0.25,
3.459019,0.0,0.0,false,2736868.1207104675,,32.0,0.0,0.0,0.0,0.0,0.125,1.807861143,0.0,0.0,-61.0,0.25,-22.5,-0.0,0.0,2.25,0.347900355,0.0,0.0,-6.0,0.0,0.0,0.0,0.0,1.25,2.3181149970000003,0.0,0.0,1.0,0.0,0.0,-0.0,0.0,0.0,2.559814191,0.0,0.0,1.3200000524520874,0.3100000023841858,-118.37000274658203,0.04107666015625,-0.0523681640625,0.96661376953125,31.030000686645508,0.0,48.0,0.01910400390625,0.00738525390625,Waiting,-5.083284457478006,4.375,-4814.0,-223.0,-1665.0,-1640.0,0.9,0.25,
3.4805450000000127,0.0,0.0,false,2737367.0731034484,,32.0,0.0,0.0,0.0,0.0,0.125,1.80664044,0.0,0.0,-61.0,0.25,-30.0,-0.0,0.0,2.0,0.5041503390000001,0.0,0.0,-6.0,0.0,0.0,0.0,0.0,1.25,2.4768063870000003,0.0,0.0,1.0,0.0,0.0,-0.0,0.0,0.0,2.559814191,0.0,0.0,1.340000033378601,0.3400000035762787,-118.37999725341797,0.02392578125,6.103515625E-4,1.08465576171875,31.030000686645508,0.0,13.0,0.019256591796875,0.007354736328125,Waiting,-5.071407624633431,4.375,-4814.0,-223.0,-1665.0,-1640.0,0.9,0.5,
3.4994839999999967,0.0,0.0,false,2737860.880537838,,32.0,0.0,0.0,0.0,0.0,0.125,1.7871091920000002,0.0,0.0,-61.0,0.25,-37.5,-0.0,0.0,1.75,0.6445311840000001,0.0,0.0,-6.0,0.0,0.0,0.0,0.0,1.25,2.622070044,0.0,0.0,1.0,0.0,0.0,-0.0,0.0,0.0,2.561034894,0.0,0.0,1.340000033378601,0.3400000035762787,-118.37999725341797,0.02392578125,6.103515625E-4,1.08465576171875,31.030000686645508,0.0,13.0,0.019256591796875,0.007354736328125,Waiting,-5.071407624633431,4.375,-4814.0,-223.0,-1665.0,-1640.0,0.9,0.5,
3.52044200000001,0.0,0.0,false,2738349.5456739054,,32.0,0.0,0.0,0.0,0.0,0.125,1.807861143,0.0,0.0,-72.0,0.375,-52.5,-0.0,0.0,1.75,0.812988198,0.0,0.0,-6.0,0.0,0.0,0.0,0.0,1.25,2.785644246,0.0,0.0,1.0,0.0,0.0,-0.0,0.0,0.0,2.559814191,0.0,0.0,1.309999942779541,0.4399999976158142,-118.4000015258789,0.1070556640625,7.32421875E-4,0.9014892578125,31.030000686645508,0.0,-29.0,0.0195159912109375,0.0074920654296875,Waiting,-5.059530791788857,4.375,-5084.0,-222.0,-1665.0,-1640.0,0.9,0.875,
