Time,ClimberA1,ClimberA2,CameraExists,HeapSpace,LoopTime,FRpos,FRCurrent,FRspeed,FRsetpoint,FRApos,FRACurrent,FREncpos,FREncSetpoint,FREncSpeed,FLpos,FLCurrent,FLspeed,FLsetpoint,FLApos,FLACurrent,FLEncpos,FLEncSetpoint,FLEncSpeed,BRpos,BRCurrent,BRspeed,BRsetpoint,BRApos,BRACurrent,BREncpos,BREncSetpoint,BREncSpeed,BLpos,BLCurrent,BLspeed,BLsetpoint,BLApos,BLACurrent,BLEncpos,BLEncSetpoint,BLEncSpeed,navx_Pitch,navx_Roll,navx_Yaw,navx_XAcc,navx_YAcc,navx_ZAcc,navx_Temp,navx_Bar,navx_Alt,navx_XDis,navx_YDis,GearPlacerState,ShootOutputV,ShootOutputCurrent,ShootEncPos,ShootEncVelocity,ShootSpeed,ShootSetpoint,CarouselSetpoint,CarouselCurrent,
0.5597670000000071,0.0,0.0,false,2535780.5892083496,,23.0,0.0,67.5,0.0,0.0,1.75,3.7316890710000004,0.01,0.0,121.0,0.0,-60.0,0.0,0.0,1.875,1.1376951960000001,0.01,0.0,-12.0,0.0,-15.0,0.0,0.0,1.0,2.552489973,0.01,0.0,7.0,0.0,37.5,0.0,0.0,1.875,3.559569948,0.01,0.0,1.1399999856948853,0.3799999952316284,99.52999877929688,0.01873779296875,-0.037109375,0.974853515625,30.90999984741211,0.0,-57.0,-0.01300048828125,-0.0828857421875,Waiting,0.0,0.0,0.0,0.0,0.0,0.0,0.0,0.0,
0.8385339999999997,0.0,0.0,false,2536462.8627682617,,40.0,0.0,0.0,0.0,0.0,1.375,4.582519062,0.01,0.0,109.0,0.0,0.0,-0.0,0.0,1.5,0.384521445,0.01,0.0,-23.0,0.0,-30.0,0.0,0.0,1.0,4.226073786000001,0.01,0.0,11.0,0.0,0.0,-0.0,0.0,1.375,4.569091329,0.01,0.948486231,0.9599999785423279,0.49000000953674316,99.37000274658203,0.02227783203125,-6.7138671875E-4,0.9405517578125,30.889999389648438,0.0,-18.0,-0.012237548828125,-0.085784912109375,Waiting,0.0,0.0,0.0,0.0,0.0,0.0,0.0,0.0,
0.8662890000000043,0.0,0.0,false,2537139.2488188976,,40.0,0.0,-7.5,0.0,0.0,1.625,4.771728027,0.01,0.9167479530000007,109.0,0.0,0.0,-0.0,0.0,1.75,0.202636698,0.01,-0.787353435,-23.0,0.0,-30.0,0.0,0.0,1.0,4.411620642,0.01,1.41601548,11.0,0.0,0.0,-0.0,0.0,1.75,4.7131342830000005,0.01,0.948486231,1.0099999904632568,0.5099999904632568,99.26000213623047,0.1148681640625,0.040283203125,1.04864501953125,30.889999389648438,0.0,4.0,-0.012237548828125,-0.0858612060546875,Waiting,0.0,0.0,0.0,0.0,0.0,0.0,0.0,0.0,
0.8890669999999955,0.0,0.0,false,2537806.828577052,,40.0,0.0,-15.0,0.0,0.0,1.375,4.892577624,0.01,0.9167479530000007,109.0,0.0,0.0,-0.0,0.0,1.875,0.037841793,0.01,-0.787353435,-23.0,0.0,-15.0,0.0,0.0,1.0,4.609374528,0.01,1.41601548,11.0,0.0,0.0,-0.0,0.0,0.875,4.882812,0.01,0.3247069979999999,1.0299999713897705,0.5099999904632568,99.16999816894531,0.03955078125,0.02838134765625,1.01177978515625,30.889999389648438,0.0,5.0,-0.012298583984375,-0.0863037109375,Waiting,0.0,0.0,0.0,0.0,0.0,0.0,0.0,0.0,
0.9176549999999989,0.0,0.0,false,2538467.1200314835,,31.0,0.0,-52.5,0.0,0.0,0.625,0.067138665,0.01,-4.436541051000001,115.0,0.0,22.5,-0.0,0.0,1.5,4.792479978,0.01,-0.349121058,-24.0,0.0,-7.5,0.0,0.0,0.75,4.802245602,0.01,0.36621090000000045,11.0,0.0,0.0,-0.0,0.0,0.5,0.034179684,0.01,0.3247069979999999,1.059999942779541,0.5099999904632568,99.1500015258789,-0.01922607421875,0.0897216796875,0.93560791015625,30.889999389648438,0.0,75.0,-0.012298583984375,-0.086578369140625,Waiting,0.0,0.0,0.0,0.0,0.0,0.0,0.0,0.0,
0.9419440000000031,0.0,0.0,false,2539121.5329529806,,31.0,0.0,-60.0,0.0,0.0,0.375,0.067138665,0.01,-4.436541051000001,115.0,0.0,37.5,-0.0,0.0,0.75,4.738769046,0.01,-0.349121058,-24.0,0.0,-7.5,0.0,0.0,0.625,4.932860823,0.01,-4.398699258000001,11.0,0.0,0.0,-0.0,0.0,0.25,0.052490229,0.01,-4.69970655,1.1399999856948853,0.44999998807907104,99.18000030517578,-0.05767822265625,0.0308837890625,0.876220703125,30.889999389648438,0.0,23.0,-0.0115814208984375,-0.0867156982421875,Waiting,0.0,0.0,0.0,0.0,0.0,0.0,0.0,0.0,
0.985846000000005,0.0,0.0,false,2539768.6514555467,,31.0,0.0,-45.0,0.0,0.0,0.125,0.042724605,0.01,0.023699705999999883,115.0,0.0,52.5,-0.0,0.0,0.0,4.702147956,0.01,4.617919449,-24.0,0.0,-30.0,0.0,0.0,0.375,0.083007804,0.01,0.035906735999999946,11.0,0.0,0.0,-0.0,0.0,0.0,0.042724605,0.01,0.018310544999999998,1.159999966621399,0.41999998688697815,99.20999908447266,0.11767578125,9.1552734375E-4,1.07098388671875,30.889999389648438,0.0,-38.0,-0.010772705078125,-0.0865325927734375,Waiting,0.0,0.0,0.0,0.0,0.0,0.0,0.0,0.0,
1.0212090000000025,0.0,0.0,false,2540409.8973451327,,31.0,0.0,-15.0,0.0,0.0,0.125,0.018310545,0.01,-0.019531248000000008,115.0,0.0,22.5,-0.0,0.0,0.0,4.719237798,0.01,-0.07324217999999938,-24.0,0.0,-37.5,0.0,0.0,0.0,0.063476556,0.01,0.035906735999999946,11.0,0.0,0.0,-0.0,0.0,0.0,0.029296872,0.01,0.018310544999999998,1.1399999856948853,0.4399999976158142,99.19000244140625,0.13629150390625,-0.03179931640625,1.00225830078125,30.889999389648438,0.0,-71.0,-0.0106658935546875,-0.08673095703125,Waiting,0.0,0.0,0.0,0.0,0.0,0.0,0.0,0.0,
1.0427939999999944,0.0,0.0,false,2541043.8757373183,,30.0,0.0,-7.5,0.0,0.0,0.125,4.94384715,0.01,-0.019531248000000008,117.0,0.0,7.5,-0.0,0.0,0.0,4.744872561,0.01,-0.07324217999999938,-29.0,0.0,-30.0,0.0,0.0,0.0,0.037841793,0.01,-0.03295898100000001,11.0,0.0,0.0,-0.0,0.0,0.0,0.017089842,0.01,-0.026855465999999998,1.1399999856948853,0.49000000953674316,99.12999725341797,0.01263427734375,0.023681640625,1.02032470703125,30.889999389648438,0.0,2.0,-0.0105743408203125,-0.087432861328125,Waiting,0.0,0.0,0.0,0.0,0.0,0.0,0.0,0.0,
1.067005999999994,0.0,0.0,false,2541671.981128366,,30.0,0.0,0.0,0.0,0.0,0.125,4.941405744,0.01,0.963134667,117.0,0.0,0.0,-0.0,0.0,0.0,4.766845215,0.01,0.03295898099999928,-29.0,0.0,-15.0,0.0,0.0,0.0,0.018310545,0.01,-0.03295898100000001,11.0,0.0,0.0,-0.0,0.0,0.0,4.938964338,0.01,-0.026855465999999998,1.1399999856948853,0.5,99.0999984741211,-0.06060791015625,0.066650390625,1.00634765625,30.889999389648438,0.0,56.0,-0.010498046875,-0.0877685546875,Waiting,0.0,0.0,0.0,0.0,0.0,0.0,0.0,0.0,
1.0888999999999942,0.0,0.0,false,2542294.2185534593,,30.0,0.0,0.0,0.0,0.0,5.125,4.936522932,0.01,0.963134667,117.0,0.0,0.0,-0.0,0.0,0.0,4.7656245120000005,0.01,0.03295898099999928,-29.0,0.0,-7.5,0.0,0.0,0.0,4.941405744,0.01,-0.03295898100000001,11.0,0.0,0.0,-0.0,0.0,0.0,4.9255366050000005,0.01,-0.026855465999999998,1.149999976158142,0.5099999904632568,99.06999969482422,-0.072021484375,0.03387451171875,0.9833984375,30.889999389648438,0.0,26.0,-0.0101776123046875,-0.0881195068359375,Waiting,0.0,0.0,0.0,0.0,0.0,0.0,0.0,0.0,
1.1122639999999955,0.0,0.0,false,2542909.1939477306,,30.0,0.0,0.0,0.0,0.0,5.875,4.749755373,0.01,-0.854998449,117.0,0.0,0.0,-0.0,0.0,0.0,4.792479978,0.01,0.03906249600000056,-29.0,0.0,0.0,0.0,0.0,0.0,4.93164012,0.01,-0.037841793,11.0,0.0,0.0,-0.0,0.0,0.0,4.908446763000001,0.01,0.12522606000000058,1.1699999570846558,0.5,99.08000183105469,0.0286865234375,0.0059814453125,0.9808349609375,30.889999389648438,0.0,-17.0,-0.009765625,-0.08819580078125,Waiting,0.0,0.0,0.0,0.0,0.0,0.0,0.0,0.0,
1.1336600000000034,0.0,0.0,false,2543518.311984283,,30.0,0.0,0.0,0.0,0.0,4.5,4.647216321,0.01,-0.854998449,117.0,0.0,0.0,-0.0,0.0,0.125,4.79736279,0.01,0.03906249600000056,-29.0,0.0,0.0,0.0,0.0,0.0,4.93164012,0.01,-0.037841793,11.0,0.0,0.0,-0.0,0.0,0.0,4.880370594,0.01,0.12522606000000058,1.159999966621399,0.47999998927116394,99.0999984741211,0.01953125,0.01007080078125,1.0386962890625,30.889999389648438,0.0,-12.0,-0.009765625,-0.08819580078125,Waiting,0.0,0.0,0.0,0.0,0.0,0.0,0.0,0.0,
1.1620859999999957,0.0,0.0,false,2544120.1822824595,,30.0,0.0,0.0,0.0,0.0,0.875,4.588622577000001,0.01,4.459734408,117.0,0.0,0.0,-0.0,0.0,0.0,4.792479978,0.01,-4.753923831,-29.0,0.0,0.0,0.0,0.0,0.0,4.932860823,0.01,0.13010887200000015,11.0,0.0,0.0,-0.0,0.0,0.0,4.862060049,0.01,-0.024414059999999793,1.1399999856948853,0.4699999988079071,99.11000061035156,0.07421875,0.00274658203125,1.0565185546875,30.889999389648438,0.0,-28.0,-0.0098876953125,-0.0884246826171875,Waiting,0.0,0.0,0.0,0.0,0.0,0.0,0.0,0.0,
1.1907580000000015,0.0,0.0,false,2544716.210526316,,30.0,0.0,0.0,0.0,0.0,1.0,4.609374528,0.01,4.459734408,117.0,0.0,0.0,-0.0,0.0,0.0,4.79736279,0.01,-4.753923831,-29.0,0.0,0.0,0.0,0.0,0.0,4.888915515,0.01,-0.013427732999999442,11.0,0.0,0.0,-0.0,0.0,0.0,4.836425286,0.01,-0.04882812000000049,1.1200000047683716,0.49000000953674316,99.11000061035156,-0.0411376953125,0.03509521484375,0.964599609375,30.889999389648438,0.0,23.0,-0.01007080078125,-0.088836669921875,Waiting,0.0,0.0,0.0,0.0,0.0,0.0,0.0,0.0,
1.216252999999997,0.0,0.0,false,2545306.400157078,,30.0,0.0,0.0,0.0,0.0,1.0,4.630126479,0.01,-0.02075195099999938,117.0,0.0,0.0,-0.0,0.0,0.0,4.79736279,0.01,0.0012207029999995456,-29.0,0.0,0.0,0.0,0.0,0.0,4.838866692,0.01,-0.013427732999999442,11.0,0.0,0.0,-0.0,0.0,0.0,4.801024899000001,0.01,-0.04882812000000049,1.1299999952316284,0.49000000953674316,99.08999633789062,-0.04815673828125,0.02606201171875,0.95941162109375,30.889999389648438,0.0,15.0,-0.010101318359375,-0.0889739990234375,Waiting,0.0,0.0,0.0,0.0,0.0,0.0,0.0,0.0,
1.2391509999999981,0.0,0.0,false,2545886.438947782,,30.0,0.0,0.0,0.0,0.0,0.625,4.644774915,0.01,-0.02075195099999938,117.0,0.0,0.0,-0.0,0.0,0.0,4.79736279,0.01,0.0012207029999995456,-29.0,0.0,0.0,0.0,0.0,0.0,4.8132319290000005,0.01,-0.08911131900000058,11.0,0.0,0.0,-0.0,0.0,0.0,4.780272948,0.01,-0.05981444699999993,1.1299999952316284,0.5,99.08999633789062,-0.01025390625,0.013427734375,0.9630126953125,30.889999389648438,0.0,-2.0,-0.010101318359375,-0.088958740234375,Waiting,0.0,0.0,0.0,0.0,0.0,0.0,0.0,0.0,
1.2696230000000068,0.0,0.0,false,2546460.644553484,,30.0,0.0,0.0,0.0,0.0,0.25,4.716796392,0.01,0.030517574999999297,117.0,0.0,0.0,-0.0,0.0,0.0,4.799804196,0.01,-0.0012207029999995456,-29.0,0.0,0.0,0.0,0.0,0.0,4.769286621,0.01,-0.08911131900000058,11.0,0.0,0.0,-0.0,0.0,0.0,4.7631831060000005,0.01,-0.05981444699999993,1.1399999856948853,0.4699999988079071,99.08000183105469,0.08575439453125,0.0184326171875,1.02459716796875,30.889999389648438,0.0,-14.0,-0.010101318359375,-0.0890045166015625,Waiting,0.0,0.0,0.0,0.0,0.0,0.0,0.0,0.0,
1.2897280000000029,0.0,0.0,false,2547027.623233909,,30.0,0.0,0.0,0.0,0.0,0.25,4.7631831060000005,0.01,0.030517574999999297,117.0,0.0,0.0,-0.0,0.0,0.0,4.794921384,0.01,-0.0012207029999995456,-29.0,0.0,0.0,0.0,0.0,0.0,4.759520997,0.01,4.716082038000001,11.0,0.0,0.0,-0.0,0.0,0.0,4.754638185,0.01,4.744158207,1.149999976158142,0.47999998927116394,99.06999969482422,0.0440673828125,0.00970458984375,1.03277587890625,30.889999389648438,0.0,-16.0,-0.010101318359375,-0.08941650390625,Waiting,0.0,0.0,0.0,0.0,0.0,0.0,0.0,0.0,
1.3127679999999964,0.0,0.0,false,2547588.7792819305,,30.0,0.0,0.0,0.0,0.0,0.25,4.8156733350000005,0.01,0.11352537900000037,117.0,0.0,0.0,-0.0,0.0,0.0,4.79736279,0.01,0.0,-29.0,0.0,0.0,0.0,0.0,0.0,4.754638185,0.01,4.716082038000001,11.0,0.0,0.0,-0.0,0.0,0.0,4.757079591,0.01,4.744158207,1.159999966621399,0.4699999988079071,99.06999969482422,0.01898193359375,-0.01165771484375,1.0284423828125,30.889999389648438,0.0,-33.0,-0.0101470947265625,-0.089691162109375,Waiting,0.0,0.0,0.0,0.0,0.0,0.0,0.0,0.0,
1.3360840000000025,0.0,0.0,false,2548142.7053746567,,30.0,0.0,0.0,0.0,0.0,0.25,4.83398388,0.01,0.11352537900000037,117.0,0.0,0.0,-0.0,0.0,0.0,4.798583493000001,0.01,0.0,-29.0,0.0,0.0,0.0,0.0,0.0,4.750976076000001,0.01,4.716082038000001,11.0,0.0,0.0,-0.0,0.0,0.0,4.7583002940000005,0.01,4.744158207,1.149999976158142,0.47999998927116394,99.06999969482422,-0.06695556640625,0.034912109375,0.96453857421875,30.889999389648438,0.0,27.0,-0.01025390625,-0.090118408203125,Waiting,0.0,0.0,0.0,0.0,0.0,0.0,0.0,0.0,
1.362968000000008,0.0,0.0,false,2548690.8162384783,,30.0,0.0,0.0,0.0,0.0,0.25,4.83398388,0.01,-4.691667978,117.0,0.0,0.0,-0.0,0.0,0.0,4.79736279,0.01,0.0,-29.0,0.0,0.0,0.0,0.0,0.0,4.769286621,0.01,-0.009765623999999917,11.0,0.0,0.0,-0.0,0.0,0.0,4.757079591,0.01,-0.004882811999999959,1.149999976158142,0.47999998927116394,99.06999969482422,-0.07354736328125,0.01953125,0.97174072265625,30.889999389648438,0.0,12.0,-0.0102691650390625,-0.090179443359375,Waiting,0.0,0.0,0.0,0.0,0.0,0.0,0.0,0.0,
1.3854429999999993,0.0,0.0,false,2549231.7129411763,,30.0,0.0,0.0,0.0,0.0,0.125,4.829101068,0.01,-4.691667978,117.0,0.0,0.0,-0.0,0.0,0.0,4.79736279,0.01,0.0,-29.0,0.0,0.0,0.0,0.0,0.0,4.774169433,0.01,-0.009765623999999917,11.0,0.0,0.0,-0.0,0.0,0.0,4.757079591,0.01,-0.004882811999999959,1.1399999856948853,0.49000000953674316,99.08000183105469,-0.00823974609375,0.03094482421875,0.9945068359375,30.889999389648438,0.0,13.0,-0.0102691650390625,-0.0900726318359375,Waiting,0.0,0.0,0.0,0.0,0.0,0.0,0.0,0.0,
1.4113629999999975,0.0,0.0,false,2549766.801803568,,30.0,0.0,0.0,0.0,0.0,0.125,4.8205561470000005,0.01,0.0,117.0,0.0,0.0,-0.0,0.0,0.0,4.79736279,0.01,0.0012207029999995456,-29.0,0.0,0.0,0.0,0.0,0.0,4.788817869,0.01,0.014648435999999876,11.0,0.0,0.0,-0.0,0.0,0.0,4.757079591,0.01,0.0,1.1200000047683716,0.4699999988079071,99.08000183105469,0.08453369140625,0.02996826171875,1.030517578125,30.889999389648438,0.0,-2.0,-0.0102691650390625,-0.09002685546875,Waiting,0.0,0.0,0.0,0.0,0.0,0.0,0.0,0.0,
1.4417939999999945,0.0,0.0,false,2550296.083104665,,30.0,0.0,0.0,0.0,0.0,0.0,4.8107905230000005,0.01,0.0,117.0,0.0,0.0,-0.0,0.0,0.0,4.79736279,0.01,0.0012207029999995456,-29.0,0.0,0.0,0.0,0.0,0.0,4.787597166,0.01,0.014648435999999876,11.0,0.0,0.0,-0.0,0.0,0.0,4.757079591,0.01,-0.0012207029999995456,1.1399999856948853,0.47999998927116394,99.08000183105469,0.0653076171875,-0.0057373046875,1.02337646484375,30.889999389648438,0.0,-34.0,-0.0102996826171875,-0.0903778076171875,Waiting,0.0,0.0,0.0,0.0,0.0,0.0,0.0,0.0,
1.472050000000003,0.0,0.0,false,2550818.16500098,,30.0,0.0,0.0,0.0,0.0,0.0,4.8107905230000005,0.01,-0.017089841999999855,117.0,0.0,0.0,-0.0,0.0,0.0,4.796142087000001,0.01,-0.0012207029999995456,-29.0,0.0,0.0,0.0,0.0,0.0,4.794921384,0.01,0.0183105449999994,11.0,0.0,0.0,-0.0,0.0,0.0,4.757079591,0.01,-0.0012207029999995456,1.1399999856948853,0.49000000953674316,99.06999969482422,-0.02496337890625,0.02374267578125,0.988525390625,30.889999389648438,0.0,9.0,-0.01043701171875,-0.0908660888671875,Waiting,0.0,0.0,0.0,0.0,0.0,0.0,0.0,0.0,
1.500350999999995,0.0,0.0,false,2551334.44984326,,30.0,0.0,0.0,0.0,0.0,0.0,4.805907711000001,0.01,-0.017089841999999855,117.0,0.0,0.0,-0.0,0.0,0.0,4.79736279,0.01,0.0,-29.0,0.0,0.0,0.0,0.0,0.0,4.787597166,0.01,0.0,11.0,0.0,0.0,-0.0,0.0,0.0,4.761962403,0.01,0.0012207029999995456,1.149999976158142,0.5,99.06999969482422,-0.0745849609375,0.0250244140625,0.9844970703125,30.889999389648438,0.0,18.0,-0.0105133056640625,-0.0910797119140625,Waiting,0.0,0.0,0.0,0.0,0.0,0.0,0.0,0.0,
1.525322,0.0,0.0,false,2551843.543192948,,30.0,0.0,0.0,0.0,0.0,0.125,4.804687008,0.01,-0.009765623999999917,117.0,0.0,0.0,-0.0,0.0,0.0,4.79736279,0.01,0.0,-29.0,0.0,0.0,0.0,0.0,0.0,4.788817869,0.01,0.0,11.0,0.0,0.0,-0.0,0.0,0.0,4.761962403,0.01,0.0012207029999995456,1.149999976158142,0.5,99.06999969482422,-0.032470703125,0.0264892578125,0.988525390625,30.889999389648438,0.0,13.0,-0.010498046875,-0.0910491943359375,Waiting,0.0,0.0,0.0,0.0,0.0,0.0,0.0,0.0,
1.544698000000004,0.0,0.0,false,2552346.84057971,,30.0,0.0,0.0,0.0,0.0,0.125,4.807128414,0.01,-0.009765623999999917,117.0,0.0,0.0,-0.0,0.0,0.0,4.796142087000001,0.01,0.0,-29.0,0.0,0.0,0.0,0.0,0.0,4.787597166,0.01,0.0,11.0,0.0,0.0,-0.0,0.0,0.0,4.761962403,0.01,0.0012207029999995456,1.1399999856948853,0.49000000953674316,99.08000183105469,0.00250244140625,0.0279541015625,0.996337890625,30.889999389648438,0.0,8.0,-0.010498046875,-0.0909881591796875,Waiting,0.0,0.0,0.0,0.0,0.0,0.0,0.0,0.0,
1.566971000000005,0.0,0.0,false,2552842.954376346,,30.0,0.0,0.0,0.0,0.0,0.125,4.805907711000001,0.01,0.0,117.0,0.0,0.0,-0.0,0.0,0.0,4.79736279,0.01,0.0012207029999995456,-29.0,0.0,0.0,0.0,0.0,0.0,4.787597166,0.01,0.0,11.0,0.0,0.0,-0.0,0.0,0.0,4.766845215,0.01,0.004882811999999959,1.1299999952316284,0.47999998927116394,99.08000183105469,0.072021484375,0.02996826171875,1.02056884765625,30.889999389648438,0.0,0.0,-0.010498046875,-0.09100341796875,Waiting,0.0,0.0,0.0,0.0,0.0,0.0,0.0,0.0,
1.5843800000000046,0.0,0.0,false,2553330.3790133125,,30.0,0.0,0.0,0.0,0.0,0.125,4.807128414,0.01,0.0,117.0,0.0,0.0,-0.0,0.0,0.0,4.79736279,0.01,0.0012207029999995456,-29.0,0.0,0.0,0.0,0.0,0.0,4.787597166,0.01,0.0,11.0,0.0,0.0,-0.0,0.0,0.0,4.770507324,0.01,0.004882811999999959,1.1299999952316284,0.47999998927116394,99.08000183105469,0.07568359375,0.00750732421875,1.02069091796875,30.889999389648438,0.0,-23.0,-0.0105133056640625,-0.09112548828125,Waiting,0.0,0.0,0.0,0.0,0.0,0.0,0.0,0.0,
1.6057639999999955,0.0,0.0,false,2553812.025836759,,30.0,0.0,0.0,0.0,0.0,0.125,4.805907711000001,0.01,-0.0012207030000004337,117.0,0.0,0.0,-0.0,0.0,0.0,4.796142087000001,0.01,0.0,-29.0,0.0,0.0,0.0,0.0,0.0,4.787597166,0.01,0.0,11.0,0.0,0.0,-0.0,0.0,0.0,4.776610839,0.01,0.009765623999999917,1.1399999856948853,0.4699999988079071,99.06999969482422,0.04254150390625,-0.0103759765625,1.03564453125,30.889999389648438,0.0,-36.0,-0.0105743408203125,-0.09130859375,Waiting,0.0,0.0,0.0,0.0,0.0,0.0,0.0,0.0,
1.6271070000000036,0.0,0.0,false,2554286.5017612525,,30.0,0.0,0.0,0.0,0.0,0.125,4.805907711000001,0.01,-0.0012207030000004337,117.0,0.0,0.0,-0.0,0.0,0.0,4.79736279,0.01,0.0,-29.0,0.0,0.0,0.0,0.0,0.0,4.787597166,0.01,0.0,11.0,0.0,0.0,-0.0,0.0,0.0,4.779052245,0.01,0.009765623999999917,1.1399999856948853,0.49000000953674316,99.06999969482422,-0.03607177734375,0.02972412109375,0.97161865234375,30.889999389648438,0.0,17.0,-0.0106658935546875,-0.0916900634765625,Waiting,0.0,0.0,0.0,0.0,0.0,0.0,0.0,0.0,
1.646945000000007,0.0,0.0,false,2554755.2072001565,,30.0,0.0,0.0,0.0,0.0,0.125,4.805907711000001,0.01,-0.0012207030000004337,117.0,0.0,0.0,-0.0,0.0,0.0,4.79736279,0.01,0.0,-29.0,0.0,0.0,0.0,0.0,0.0,4.786376463,0.01,0.0012207030000004337,11.0,0.0,0.0,-0.0,0.0,0.0,4.776610839,0.01,0.004882811999999959,1.1399999856948853,0.49000000953674316,99.06999969482422,-0.06390380859375,0.0294189453125,0.973388671875,30.889999389648438,0.0,21.0,-0.010650634765625,-0.0917816162109375,Waiting,0.0,0.0,0.0,0.0,0.0,0.0,0.0,0.0,
1.6695200000000041,0.0,0.0,false,2555216.7496087635,,30.0,0.0,0.0,0.0,0.0,0.125,4.805907711000001,0.01,0.0012207030000004337,117.0,0.0,0.0,-0.0,0.0,0.0,4.798583493000001,0.01,0.0,-29.0,0.0,0.0,0.0,0.0,0.0,4.787597166,0.01,0.0012207030000004337,11.0,0.0,0.0,-0.0,0.0,0.0,4.777831542,0.01,0.004882811999999959,1.1399999856948853,0.5,99.06999969482422,-0.013671875,0.03466796875,1.00018310546875,30.889999389648438,0.0,18.0,-0.010498046875,-0.0917510986328125,Waiting,0.0,0.0,0.0,0.0,0.0,0.0,0.0,0.0,
1.6882609999999987,0.0,0.0,false,2555672.5288480343,,30.0,0.0,0.0,0.0,0.0,0.125,4.805907711000001,0.01,0.0012207030000004337,117.0,0.0,0.0,-0.0,0.0,0.0,4.79736279,0.01,0.0,-29.0,0.0,0.0,0.0,0.0,0.0,4.786376463,0.01,0.0012207030000004337,11.0,0.0,0.0,-0.0,0.0,0.0,4.776610839,0.01,0.004882811999999959,1.1399999856948853,0.49000000953674316,99.08000183105469,0.02520751953125,0.026611328125,1.00677490234375,30.889999389648438,0.0,3.0,-0.010498046875,-0.091705322265625,Waiting,0.0,0.0,0.0,0.0,0.0,0.0,0.0,0.0,
1.7102930000000052,0.0,0.0,false,2556121.145091905,,30.0,0.0,0.0,0.0,0.0,0.125,4.805907711000001,0.01,0.0,117.0,0.0,0.0,-0.0,0.0,0.0,4.79736279,0.01,0.0,-29.0,0.0,0.0,0.0,0.0,0.0,4.787597166,0.01,0.0,11.0,0.0,0.0,-0.0,0.0,0.0,4.777831542,0.01,0.0,1.1399999856948853,0.49000000953674316,99.08000183105469,0.06402587890625,0.03375244140625,1.01788330078125,30.889999389648438,0.0,4.0,-0.010498046875,-0.091705322265625,Waiting,0.0,0.0,0.0,0.0,0.0,0.0,0.0,0.0,
1.728726999999999,0.0,0.0,false,2556564.0054740957,,30.0,0.0,0.0,0.0,0.0,0.125,4.805907711000001,0.01,0.0,117.0,0.0,0.0,-0.0,0.0,0.0,4.79736279,0.01,0.0,-29.0,0.0,0.0,0.0,0.0,0.0,4.788817869,0.01,0.0,11.0,0.0,0.0,-0.0,0.0,0.0,4.776610839,0.01,0.0,1.1399999856948853,0.4699999988079071,99.08000183105469,0.057861328125,-0.00958251953125,1.03338623046875,30.889999389648438,0.0,-37.0,-0.010528564453125,-0.0919647216796875,Waiting,0.0,0.0,0.0,0.0,0.0,0.0,0.0,0.0,
1.7467259999999951,0.0,0.0,false,2556999.7185301017,,30.0,0.0,0.0,0.0,0.0,0.125,4.805907711000001,0.01,0.0,117.0,0.0,0.0,-0.0,0.0,0.0,4.79736279,0.01,0.0,-29.0,0.0,0.0,0.0,0.0,0.0,4.787597166,0.01,0.0,11.0,0.0,0.0,-0.0,0.0,0.0,4.777831542,0.01,0.0,1.1399999856948853,0.4699999988079071,99.08000183105469,0.021240234375,-0.0140380859375,1.02301025390625,30.889999389648438,0.0,-36.0,-0.0106201171875,-0.0921630859375,Waiting,0.0,0.0,0.0,0.0,0.0,0.0,0.0,0.0,
1.7686410000000032,0.0,0.0,false,2557429.683017393,,30.0,0.0,0.0,0.0,0.0,0.125,4.805907711000001,0.01,0.0,117.0,0.0,0.0,-0.0,0.0,0.0,4.798583493000001,0.01,0.0,-29.0,0.0,0.0,0.0,0.0,0.0,4.788817869,0.01,0.0,11.0,0.0,0.0,-0.0,0.0,0.0,4.777831542,0.01,0.0,1.1299999952316284,0.49000000953674316,99.06999969482422,-0.0196533203125,0.0096435546875,0.97918701171875,30.889999389648438,0.0,-5.0,-0.0107269287109375,-0.0923614501953125,Waiting,0.0,0.0,0.0,0.0,0.0,0.0,0.0,0.0,
1.7869750000000058,0.0,0.0,false,2557853.902305588,,30.0,0.0,0.0,0.0,0.0,0.125,4.805907711000001,0.01,0.0,117.0,0.0,0.0,-0.0,0.0,0.0,4.79736279,0.01,0.0,-29.0,0.0,0.0,0.0,0.0,0.0,4.787597166,0.01,0.0,11.0,0.0,0.0,-0.0,0.0,0.0,4.777831542,0.01,0.0,1.1299999952316284,0.5,99.06999969482422,-0.0606689453125,0.02130126953125,0.95941162109375,30.889999389648438,0.0,19.0,-0.0107269287109375,-0.092498779296875,Waiting,0.0,0.0,0.0,0.0,0.0,0.0,0.0,0.0,
1.8100200000000042,0.0,0.0,false,2558270.985739402,,30.0,0.0,0.0,0.0,0.0,0.125,4.805907711000001,0.01,0.0,117.0,0.0,0.0,-0.0,0.0,0.0,4.796142087000001,0.01,0.0,-29.0,0.0,0.0,0.0,0.0,0.0,4.787597166,0.01,0.0,11.0,0.0,0.0,-0.0,0.0,0.0,4.777831542,0.01,0.0,1.1399999856948853,0.5,99.06999969482422,-0.0223388671875,0.03533935546875,0.9952392578125,30.889999389648438,0.0,20.0,-0.0106964111328125,-0.09246826171875,Waiting,0.0,0.0,0.0,0.0,0.0,0.0,0.0,0.0,
1.829823000000004,0.0,0.0,false,2558682.33125,,30.0,0.0,0.0,0.0,0.0,0.125,4.807128414,0.01,0.0,117.0,0.0,0.0,-0.0,0.0,0.0,4.79736279,0.01,0.0,-29.0,0.0,0.0,0.0,0.0,0.0,4.787597166,0.01,0.0,11.0,0.0,0.0,-0.0,0.0,0.0,4.776610839,0.01,0.0,1.1299999952316284,0.5,99.06999969482422,0.0577392578125,0.03814697265625,1.02630615234375,30.889999389648438,0.0,9.0,-0.010589599609375,-0.092376708984375,Waiting,0.0,0.0,0.0,0.0,0.0,0.0,0.0,0.0,
1.8490800000000018,0.0,0.0,false,2559087.942198789,,30.0,0.0,0.0,0.0,0.0,0.125,4.805907711000001,0.01,0.0,117.0,0.0,0.0,-0.0,0.0,0.0,4.79736279,0.01,0.0,-29.0,0.0,0.0,0.0,0.0,0.0,4.787597166,0.01,0.0,11.0,0.0,0.0,-0.0,0.0,0.0,4.776610839,0.01,0.0,1.1299999952316284,0.49000000953674316,99.06999969482422,0.07861328125,0.0299072265625,1.0235595703125,30.8700008392334,0.0,-1.0,-0.010589599609375,-0.092437744140625,Waiting,0.0,0.0,0.0,0.0,0.0,0.0,0.0,0.0,
1.8709860000000045,0.0,0.0,false,2559486.4209293243,,30.0,0.0,0.0,0.0,0.0,0.125,4.805907711000001,0.01,0.0,117.0,0.0,0.0,-0.0,0.0,0.0,4.79736279,0.01,0.0,-29.0,0.0,0.0,0.0,0.0,0.0,4.787597166,0.01,0.0,11.0,0.0,0.0,-0.0,0.0,0.0,4.777831542,0.01,0.0,1.1399999856948853,0.47999998927116394,99.06999969482422,0.03564453125,-0.01507568359375,1.03594970703125,30.8700008392334,0.0,-39.0,-0.0106658935546875,-0.0927886962890625,Waiting,0.0,0.0,0.0,0.0,0.0,0.0,0.0,0.0,
1.8919579999999987,0.0,0.0,false,2559879.1723599453,,30.0,0.0,0.0,0.0,0.0,0.125,4.804687008,0.01,0.0,117.0,0.0,0.0,-0.0,0.0,0.0,4.79736279,0.01,0.0,-29.0,0.0,0.0,0.0,0.0,0.0,4.787597166,0.01,0.0,11.0,0.0,0.0,-0.0,0.0,0.0,4.776610839,0.01,0.0,1.1299999952316284,0.49000000953674316,99.06999969482422,0.00177001953125,0.003173828125,1.0,30.8700008392334,0.0,-15.0,-0.0107574462890625,-0.0930023193359375,Waiting,0.0,0.0,0.0,0.0,0.0,0.0,0.0,0.0,
1.9141030000000028,0.0,0.0,false,2560263.3021077286,,30.0,0.0,0.0,0.0,0.0,0.125,4.804687008,0.01,0.0,117.0,0.0,0.0,-0.0,0.0,0.0,4.79736279,0.01,0.0,-29.0,0.0,0.0,0.0,0.0,0.0,4.787597166,0.01,0.0,11.0,0.0,0.0,-0.0,0.0,0.0,4.776610839,0.01,0.0,1.1399999856948853,0.5,99.06999969482422,-0.0440673828125,0.017578125,0.95904541015625,30.8700008392334,0.0,6.0,-0.0107574462890625,-0.093170166015625,Waiting,0.0,0.0,0.0,0.0,0.0,0.0,0.0,0.0,
1.9338830000000016,0.0,0.0,false,2560640.32,,30.0,0.0,0.0,0.0,0.0,0.125,4.805907711000001,0.01,0.0,117.0,0.0,0.0,-0.0,0.0,0.0,4.79736279,0.01,0.0,-29.0,0.0,0.0,0.0,0.0,0.0,4.787597166,0.01,0.0,11.0,0.0,0.0,-0.0,0.0,0.0,4.776610839,0.01,0.0,1.1299999952316284,0.5,99.06999969482422,-0.0440673828125,0.03424072265625,0.991455078125,30.8700008392334,0.0,22.0,-0.0107269287109375,-0.09326171875,Waiting,0.0,0.0,0.0,0.0,0.0,0.0,0.0,0.0,
1.9539189999999944,0.0,0.0,false,2561011.6223175963,,30.0,0.0,0.0,0.0,0.0,0.125,4.805907711000001,0.01,0.0,117.0,0.0,0.0,-0.0,0.0,0.0,4.79736279,0.01,0.0,-29.0,0.0,0.0,0.0,0.0,0.0,4.787597166,0.01,0.0,11.0,0.0,0.0,-0.0,0.0,0.0,4.776610839,0.01,0.0,1.1299999952316284,0.5099999904632568,99.06999969482422,-0.0052490234375,0.03900146484375,0.99554443359375,30.8700008392334,0.0,21.0,-0.01068115234375,-0.0932159423828125,Waiting,0.0,0.0,0.0,0.0,0.0,0.0,0.0,0.0,
1.974244000000006,0.0,0.0,false,2561377.212404915,,30.0,0.0,0.0,0.0,0.0,0.125,4.805907711000001,0.01,0.0,117.0,0.0,0.0,-0.0,0.0,0.0,4.798583493000001,0.01,0.0,-29.0,0.0,0.0,0.0,0.0,0.0,4.788817869,0.01,0.0,11.0,0.0,0.0,-0.0,0.0,0.0,4.776610839,0.01,0.0,1.1299999952316284,0.5,99.06999969482422,0.038330078125,0.0308837890625,1.0164794921875,30.8700008392334,0.0,5.0,-0.0106048583984375,-0.09320068359375,Waiting,0.0,0.0,0.0,0.0,0.0,0.0,0.0,0.0,
1.9924510000000009,0.0,0.0,false,2561735.7020280813,,30.0,0.0,0.0,0.0,0.0,0.125,4.805907711000001,0.01,0.0,117.0,0.0,0.0,-0.0,0.0,0.0,4.79736279,0.01,0.0,-29.0,0.0,0.0,0.0,0.0,0.0,4.787597166,0.01,-0.0012207030000004337,11.0,0.0,0.0,-0.0,0.0,0.0,4.777831542,0.01,0.0,1.1399999856948853,0.49000000953674316,99.06999969482422,0.0772705078125,0.018798828125,1.02264404296875,30.8700008392334,0.0,-12.0,-0.0106048583984375,-0.0933685302734375,Waiting,0.0,0.0,0.0,0.0,0.0,0.0,0.0,0.0,
2.0192100000000064,0.0,0.0,false,2562088.4866445703,,30.0,0.0,0.0,0.0,0.0,0.125,4.807128414,0.01,-0.0012207030000004337,117.0,0.0,0.0,-0.0,0.0,0.0,4.798583493000001,0.01,-0.0012207029999995456,-29.0,0.0,0.0,0.0,0.0,0.0,4.786376463,0.01,-0.0012207030000004337,11.0,0.0,0.0,-0.0,0.0,0.0,4.777831542,0.01,0.0,1.1399999856948853,0.47999998927116394,99.06999969482422,0.0494384765625,-0.014892578125,1.038330078125,30.8700008392334,0.0,-41.0,-0.0106353759765625,-0.09356689453125,Waiting,0.0,0.0,0.0,0.0,0.0,0.0,0.0,0.0,
2.0369250000000028,0.0,0.0,false,2562434.1754385964,,30.0,0.0,0.0,0.0,0.0,0.125,4.805907711000001,0.01,-0.0012207030000004337,117.0,0.0,0.0,-0.0,0.0,0.0,4.798583493000001,0.01,-0.0012207029999995456,-29.0,0.0,0.0,0.0,0.0,0.0,4.786376463,0.01,-0.0012207030000004337,11.0,0.0,0.0,-0.0,0.0,0.0,4.776610839,0.01,0.0,1.1399999856948853,0.5,99.06999969482422,-0.032470703125,0.0166015625,0.96380615234375,30.8700008392334,0.0,3.0,-0.0108184814453125,-0.0939788818359375,Waiting,0.0,0.0,0.0,0.0,0.0,0.0,0.0,0.0,
2.0645709999999964,0.0,0.0,false,2562774.1664392906,,30.0,0.0,0.0,0.0,0.0,0.125,4.807128414,0.01,0.0,117.0,0.0,0.0,-0.0,0.0,0.0,4.796142087000001,0.01,0.0,-29.0,0.0,0.0,0.0,0.0,0.0,4.787597166,0.01,0.0,11.0,0.0,0.0,-0.0,0.0,0.0,4.775390136,0.01,0.0,1.1299999952316284,0.5099999904632568,99.06999969482422,-0.06744384765625,0.02276611328125,0.96630859375,30.8700008392334,0.0,15.0,-0.0108184814453125,-0.0941009521484375,Waiting,0.0,0.0,0.0,0.0,0.0,0.0,0.0,0.0,
2.0839300000000076,0.0,0.0,false,2563107.07248636,,30.0,0.0,0.0,0.0,0.0,0.125,4.804687008,0.01,0.0,117.0,0.0,0.0,-0.0,0.0,0.0,4.796142087000001,0.01,0.0,-29.0,0.0,0.0,0.0,0.0,0.0,4.786376463,0.01,0.0,11.0,0.0,0.0,-0.0,0.0,0.0,4.776610839,0.01,0.0,1.1299999952316284,0.5099999904632568,99.06999969482422,-0.0518798828125,0.0257568359375,0.98345947265625,30.8700008392334,0.0,15.0,-0.0108184814453125,-0.0941314697265625,Waiting,0.0,0.0,0.0,0.0,0.0,0.0,0.0,0.0,
2.1013969999999973,0.0,0.0,false,2563434.2879407755,,30.0,0.0,0.0,0.0,0.0,0.125,4.805907711000001,0.01,0.0,117.0,0.0,0.0,-0.0,0.0,0.0,4.796142087000001,0.01,0.0,-29.0,0.0,0.0,0.0,0.0,0.0,4.786376463,0.01,0.0,11.0,0.0,0.0,-0.0,0.0,0.0,4.776610839,0.01,-0.0012207029999995456,1.1299999952316284,0.5099999904632568,99.06999969482422,0.0240478515625,0.03265380859375,1.0166015625,30.8700008392334,0.0,9.0,-0.0108184814453125,-0.094085693359375,Waiting,0.0,0.0,0.0,0.0,0.0,0.0,0.0,0.0,
2.1267050000000016,0.0,0.0,false,2563755.8161277757,,30.0,0.0,0.0,0.0,0.0,0.125,4.805907711000001,0.01,0.0,117.0,0.0,0.0,-0.0,0.0,0.0,4.796142087000001,0.01,0.0,-29.0,0.0,0.0,0.0,0.0,0.0,4.787597166,0.01,0.0,11.0,0.0,0.0,-0.0,0.0,0.0,4.776610839,0.01,-0.0012207029999995456,1.1299999952316284,0.5,99.06999969482422,0.069580078125,0.04156494140625,1.0166015625,30.8700008392334,0.0,11.0,-0.0108184814453125,-0.0941162109375,Waiting,0.0,0.0,0.0,0.0,0.0,0.0,0.0,0.0,
2.1441830000000044,0.0,0.0,false,2564070.270691334,,30.0,0.0,0.0,0.0,0.0,0.125,4.805907711000001,0.01,0.0,117.0,0.0,0.0,-0.0,0.0,0.0,4.796142087000001,0.01,0.0,-29.0,0.0,0.0,0.0,0.0,0.0,4.787597166,0.01,0.0,11.0,0.0,0.0,-0.0,0.0,0.0,4.776610839,0.01,0.0012207029999995456,1.1399999856948853,0.49000000953674316,99.06999969482422,0.05511474609375,-0.00616455078125,1.0386962890625,30.8700008392334,0.0,-33.0,-0.0108489990234375,-0.0944366455078125,Waiting,0.0,0.0,0.0,0.0,0.0,0.0,0.0,0.0,
2.1692280000000026,0.0,0.0,false,2564379.0451713395,,30.0,0.0,0.0,0.0,0.0,0.125,4.807128414,0.01,0.0,117.0,0.0,0.0,-0.0,0.0,0.0,4.796142087000001,0.01,0.0012207029999995456,-29.0,0.0,0.0,0.0,0.0,0.0,4.787597166,0.01,0.0,11.0,0.0,0.0,-0.0,0.0,0.0,4.777831542,0.01,0.0012207029999995456,1.1399999856948853,0.49000000953674316,99.06999969482422,0.01934814453125,-0.01275634765625,1.021240234375,30.8700008392334,0.0,-34.0,-0.0109100341796875,-0.09466552734375,Waiting,0.0,0.0,0.0,0.0,0.0,0.0,0.0,0.0,
2.1883450000000013,0.0,0.0,false,2564680.750632665,,30.0,0.0,0.0,0.0,0.0,0.125,4.805907711000001,0.01,0.0,117.0,0.0,0.0,-0.0,0.0,0.0,4.79736279,0.01,0.0012207029999995456,-29.0,0.0,0.0,0.0,0.0,0.0,4.787597166,0.01,0.0,11.0,0.0,0.0,-0.0,0.0,0.0,4.777831542,0.01,0.0012207029999995456,1.1399999856948853,0.5,99.06999969482422,-0.0614013671875,0.0233154296875,0.96240234375,30.8700008392334,0.0,15.0,-0.0110015869140625,-0.0950164794921875,Waiting,0.0,0.0,0.0,0.0,0.0,0.0,0.0,0.0,
2.210142000000007,0.0,0.0,false,2564976.783184118,,30.0,0.0,0.0,0.0,0.0,0.125,4.804687008,0.01,0.0012207030000004337,117.0,0.0,0.0,-0.0,0.0,0.0,4.79736279,0.01,0.0,-29.0,0.0,0.0,0.0,0.0,0.0,4.787597166,0.01,0.0,11.0,0.0,0.0,-0.0,0.0,0.0,4.776610839,0.01,0.0,1.1299999952316284,0.5099999904632568,99.06999969482422,-0.05767822265625,0.02508544921875,0.9786376953125,30.8700008392334,0.0,16.0,-0.0110015869140625,-0.0950775146484375,Waiting,0.0,0.0,0.0,0.0,0.0,0.0,0.0,0.0,
2.2282979999999952,0.0,0.0,false,2565267.146137381,,30.0,0.0,0.0,0.0,0.0,0.125,4.805907711000001,0.01,0.0012207030000004337,117.0,0.0,0.0,-0.0,0.0,0.0,4.796142087000001,0.01,0.0,-29.0,0.0,0.0,0.0,0.0,0.0,4.787597166,0.01,0.0,11.0,0.0,0.0,-0.0,0.0,0.0,4.777831542,0.01,0.0,1.1299999952316284,0.5099999904632568,99.06999969482422,-0.01702880859375,0.02752685546875,1.010986328125,30.8700008392334,0.0,7.0,-0.0109405517578125,-0.0950469970703125,Waiting,0.0,0.0,0.0,0.0,0.0,0.0,0.0,0.0,
2.2470320000000066,0.0,0.0,false,2565550.454474708,,30.0,0.0,0.0,0.0,0.0,0.125,4.805907711000001,0.01,0.0012207030000004337,117.0,0.0,0.0,-0.0,0.0,0.0,4.79736279,0.01,0.0,-29.0,0.0,0.0,0.0,0.0,0.0,4.786376463,0.01,0.0,11.0,0.0,0.0,-0.0,0.0,0.0,4.775390136,0.01,0.0,1.1299999952316284,0.49000000953674316,99.06999969482422,0.05731201171875,0.03692626953125,1.0150146484375,30.8700008392334,0.0,9.0,-0.0108795166015625,-0.095062255859375,Waiting,0.0,0.0,0.0,0.0,0.0,0.0,0.0,0.0,
2.2687180000000082,0.0,0.0,false,2565825.2013227,,30.0,0.0,0.0,0.0,0.0,0.125,4.804687008,0.01,-0.0012207030000004337,117.0,0.0,0.0,-0.0,0.0,0.0,4.796142087000001,0.01,-0.0012207029999995456,-29.0,0.0,0.0,0.0,0.0,0.0,4.786376463,0.01,0.0,11.0,0.0,0.0,-0.0,0.0,0.0,4.776610839,0.01,0.0,1.1299999952316284,0.49000000953674316,99.06999969482422,0.07708740234375,0.0350341796875,1.02777099609375,30.8700008392334,0.0,3.0,-0.0108795166015625,-0.09515380859375,Waiting,0.0,0.0,0.0,0.0,0.0,0.0,0.0,0.0,
2.2905869999999995,0.0,0.0,false,2566092.9023726177,,30.0,0.0,0.0,0.0,0.0,0.125,4.805907711000001,0.01,-0.0012207030000004337,117.0,0.0,0.0,-0.0,0.0,0.0,4.796142087000001,0.01,-0.0012207029999995456,-29.0,0.0,0.0,0.0,0.0,0.0,4.786376463,0.01,0.0,11.0,0.0,0.0,-0.0,0.0,0.0,4.776610839,0.01,0.0,1.1299999952316284,0.47999998927116394,99.06999969482422,0.03045654296875,-0.01263427734375,1.02435302734375,30.8700008392334,0.0,-36.0,-0.0109710693359375,-0.095550537109375,Waiting,0.0,0.0,0.0,0.0,0.0,0.0,0.0,0.0,
2.3219790000000065,0.0,0.0,false,2566763.529457515,,30.0,0.0,0.0,0.0,0.0,0.125,4.805907711000001,0.01,0.0,117.0,0.0,0.0,-0.0,0.0,0.0,4.796142087000001,0.01,0.0,-29.0,0.0,0.0,0.0,0.0,0.0,4.786376463,0.01,0.0,11.0,0.0,0.0,-0.0,0.0,0.0,4.776610839,0.01,0.0,1.1399999856948853,0.49000000953674316,99.06999969482422,-0.01123046875,0.01171875,0.9879150390625,30.8700008392334,0.0,-4.0,-0.0110626220703125,-0.09576416015625,Waiting,0.0,0.0,0.0,0.0,0.0,0.0,0.0,0.0,
2.3387160000000002,0.0,0.0,false,2567430.129082426,,30.0,0.0,0.0,0.0,0.0,0.125,4.805907711000001,0.01,0.0,117.0,0.0,0.0,-0.0,0.0,0.0,4.79736279,0.01,0.0,-29.0,0.0,0.0,0.0,0.0,0.0,4.787597166,0.01,0.0,11.0,0.0,0.0,-0.0,0.0,0.0,4.777831542,0.01,0.0,1.1399999856948853,0.5,99.06999969482422,-0.05841064453125,0.0218505859375,0.971435546875,30.8700008392334,0.0,13.0,-0.0110626220703125,-0.0959320068359375,Waiting,0.0,0.0,0.0,0.0,0.0,0.0,0.0,0.0,
2.3617109999999957,0.0,0.0,false,2568088.9376093294,,30.0,0.0,0.0,0.0,0.0,0.125,4.804687008,0.01,0.0012207030000004337,117.0,0.0,0.0,-0.0,0.0,0.0,4.79736279,0.01,0.0,-29.0,0.0,0.0,0.0,0.0,0.0,4.787597166,0.01,0.0,11.0,0.0,0.0,-0.0,0.0,0.0,4.776610839,0.01,0.0,1.1299999952316284,0.5,99.05999755859375,-0.0279541015625,0.0360107421875,0.98883056640625,30.90999984741211,0.0,22.0,-0.0110321044921875,-0.0959930419921875,Waiting,0.0,0.0,0.0,0.0,0.0,0.0,0.0,0.0,
2.3791429999999965,0.0,0.0,false,2568743.724834823,,30.0,0.0,0.0,0.0,0.0,0.125,4.805907711000001,0.01,0.0012207030000004337,117.0,0.0,0.0,-0.0,0.0,0.0,4.79736279,0.01,0.0,-29.0,0.0,0.0,0.0,0.0,0.0,4.788817869,0.01,0.0,11.0,0.0,0.0,-0.0,0.0,0.0,4.777831542,0.01,0.0,1.1399999856948853,0.5,99.05999755859375,-6.103515625E-4,0.02691650390625,1.001220703125,30.90999984741211,0.0,8.0,-0.010986328125,-0.0959625244140625,Waiting,0.0,0.0,0.0,0.0,0.0,0.0,0.0,0.0,
2.4006800000000075,0.0,0.0,false,2569390.7285797554,,30.0,0.0,0.0,0.0,0.0,0.125,4.805907711000001,0.01,0.0012207030000004337,117.0,0.0,0.0,-0.0,0.0,0.0,4.79736279,0.01,0.0,-29.0,0.0,0.0,0.0,0.0,0.0,4.786376463,0.01,0.0,11.0,0.0,0.0,-0.0,0.0,0.0,4.776610839,0.01,0.0,1.1299999952316284,0.49000000953674316,99.05999755859375,0.0767822265625,0.03717041015625,1.01507568359375,30.90999984741211,0.0,6.0,-0.01092529296875,-0.09600830078125,Waiting,0.0,0.0,0.0,0.0,0.0,0.0,0.0,0.0,
2.422574000000008,0.0,0.0,false,2570029.9533799533,,30.0,0.0,0.0,0.0,0.0,0.125,4.807128414,0.01,-0.0012207030000004337,117.0,0.0,0.0,-0.0,0.0,0.0,4.79736279,0.01,0.0,-29.0,0.0,0.0,0.0,0.0,0.0,4.787597166,0.01,0.0,11.0,0.0,0.0,-0.0,0.0,0.0,4.775390136,0.01,0.0,1.1399999856948853,0.49000000953674316,99.06999969482422,0.07183837890625,0.0079345703125,1.02691650390625,30.90999984741211,0.0,-22.0,-0.0109405517578125,-0.096160888671875,Waiting,0.0,0.0,0.0,0.0,0.0,0.0,0.0,0.0,
2.439975000000006,0.0,0.0,false,2570665.1668285104,,30.0,0.0,0.0,0.0,0.0,0.125,4.804687008,0.01,-0.0012207030000004337,117.0,0.0,0.0,-0.0,0.0,0.0,4.79736279,0.01,0.0,-29.0,0.0,0.0,0.0,0.0,0.0,4.787597166,0.01,0.0,11.0,0.0,0.0,-0.0,0.0,0.0,4.776610839,0.01,0.0,1.1399999856948853,0.47999998927116394,99.06999969482422,0.03759765625,-0.019287109375,1.03070068359375,30.90999984741211,0.0,-43.0,-0.0110015869140625,-0.09637451171875,Waiting,0.0,0.0,0.0,0.0,0.0,0.0,0.0,0.0,
2.4613669999999983,0.0,0.0,false,2571292.608932039,,30.0,0.0,0.0,0.0,0.0,0.125,4.805907711000001,0.01,0.0,117.0,0.0,0.0,-0.0,0.0,0.0,4.79736279,0.01,0.0,-29.0,0.0,0.0,0.0,0.0,0.0,4.787597166,0.01,0.0,11.0,0.0,0.0,-0.0,0.0,0.0,4.775390136,0.01,0.0,1.1399999856948853,0.49000000953674316,99.05999755859375,-3.662109375E-4,0.0184326171875,0.9697265625,30.90999984741211,0.0,8.0,-0.0110931396484375,-0.0967559814453125,Waiting,0.0,0.0,0.0,0.0,0.0,0.0,0.0,0.0,
2.4798610000000045,0.0,0.0,false,2571912.284216657,,30.0,0.0,0.0,0.0,0.0,0.125,4.805907711000001,0.01,0.0,117.0,0.0,0.0,-0.0,0.0,0.0,4.796142087000001,0.01,0.0,-29.0,0.0,0.0,0.0,0.0,0.0,4.787597166,0.01,0.0,11.0,0.0,0.0,-0.0,0.0,0.0,4.776610839,0.01,0.0,1.1299999952316284,0.5099999904632568,99.05999755859375,-0.06463623046875,0.01953125,0.97735595703125,30.90999984741211,0.0,11.0,-0.0110931396484375,-0.0968475341796875,Waiting,0.0,0.0,0.0,0.0,0.0,0.0,0.0,0.0,
2.498191000000006,0.0,0.0,false,2572527.9580745343,,30.0,0.0,0.0,0.0,0.0,0.125,4.805907711000001,0.01,0.0,117.0,0.0,0.0,-0.0,0.0,0.0,4.79736279,0.01,0.0,-29.0,0.0,0.0,0.0,0.0,0.0,4.787597166,0.01,0.0,11.0,0.0,0.0,-0.0,0.0,0.0,4.776610839,0.01,0.0,1.1200000047683716,0.5099999904632568,99.05999755859375,-0.03839111328125,0.035888671875,0.98687744140625,30.90999984741211,0.0,23.0,-0.0110626220703125,-0.0968475341796875,Waiting,0.0,0.0,0.0,0.0,0.0,0.0,0.0,0.0,
2.5179569999999947,0.0,0.0,false,2573135.8726955173,,30.0,0.0,0.0,0.0,0.0,0.125,4.805907711000001,0.01,0.0,117.0,0.0,0.0,-0.0,0.0,0.0,4.798583493000001,0.01,0.0,-29.0,0.0,0.0,0.0,0.0,0.0,4.787597166,0.01,0.0,11.0,0.0,0.0,-0.0,0.0,0.0,4.776610839,0.01,0.0,1.1299999952316284,0.5099999904632568,99.05999755859375,-0.0025634765625,0.0364990234375,1.00042724609375,30.90999984741211,0.0,18.0,-0.011016845703125,-0.0968170166015625,Waiting,0.0,0.0,0.0,0.0,0.0,0.0,0.0,0.0,
2.5376389999999955,0.0,0.0,false,2573739.7920062086,,30.0,0.0,0.0,0.0,0.0,0.125,4.805907711000001,0.01,0.0,117.0,0.0,0.0,-0.0,0.0,0.0,4.79736279,0.01,0.0,-29.0,0.0,0.0,0.0,0.0,0.0,4.787597166,0.01,0.0,11.0,0.0,0.0,-0.0,0.0,0.0,4.776610839,0.01,0.0,1.1299999952316284,0.49000000953674316,99.06999969482422,0.07373046875,0.039306640625,1.02239990234375,30.90999984741211,0.0,8.0,-0.0109405517578125,-0.0968475341796875,Waiting,0.0,0.0,0.0,0.0,0.0,0.0,0.0,0.0,
2.561784,0.0,0.0,false,2574333.965470417,,30.0,0.0,0.0,0.0,0.0,0.125,4.807128414,0.01,0.0012207030000004337,117.0,0.0,0.0,-0.0,0.0,0.0,4.798583493000001,0.01,0.0012207029999995456,-29.0,0.0,0.0,0.0,0.0,0.0,4.787597166,0.01,0.0012207030000004337,11.0,0.0,0.0,-0.0,0.0,0.0,4.776610839,0.01,0.0,1.1299999952316284,0.5,99.06999969482422,0.07403564453125,0.015625,1.02301025390625,30.90999984741211,0.0,-14.0,-0.0109405517578125,-0.09698486328125,Waiting,0.0,0.0,0.0,0.0,0.0,0.0,0.0,0.0,
2.5812679999999966,0.0,0.0,false,2574920.392552366,,30.0,0.0,0.0,0.0,0.0,0.125,4.805907711000001,0.01,0.0012207030000004337,117.0,0.0,0.0,-0.0,0.0,0.0,4.79736279,0.01,0.0012207029999995456,-29.0,0.0,0.0,0.0,0.0,0.0,4.788817869,0.01,0.0012207030000004337,11.0,0.0,0.0,-0.0,0.0,0.0,4.776610839,0.01,0.0,1.1299999952316284,0.5,99.05999755859375,0.0091552734375,6.7138671875E-4,1.00738525390625,30.90999984741211,0.0,-19.0,-0.0110626220703125,-0.097412109375,Waiting,0.0,0.0,0.0,0.0,0.0,0.0,0.0,0.0,
2.5989030000000057,0.0,0.0,false,2575502.8349815784,,30.0,0.0,0.0,0.0,0.0,0.125,4.805907711000001,0.01,0.0012207030000004337,117.0,0.0,0.0,-0.0,0.0,0.0,4.79736279,0.01,0.0012207029999995456,-29.0,0.0,0.0,0.0,0.0,0.0,4.787597166,0.01,0.0012207030000004337,11.0,0.0,0.0,-0.0,0.0,0.0,4.776610839,0.01,0.0,1.1399999856948853,0.5,99.05999755859375,-0.04339599609375,0.02166748046875,0.96954345703125,30.90999984741211,0.0,10.0,-0.0111541748046875,-0.09759521484375,Waiting,0.0,0.0,0.0,0.0,0.0,0.0,0.0,0.0,
2.6181490000000047,0.0,0.0,false,2576077.538580845,,30.0,0.0,0.0,0.0,0.0,0.125,4.805907711000001,0.01,-0.0012207030000004337,117.0,0.0,0.0,-0.0,0.0,0.0,4.796142087000001,0.01,-0.0012207029999995456,-29.0,0.0,0.0,0.0,0.0,0.0,4.788817869,0.01,-0.0012207030000004337,11.0,0.0,0.0,-0.0,0.0,0.0,4.777831542,0.01,0.0,1.1399999856948853,0.5099999904632568,99.05999755859375,-0.070068359375,0.01727294921875,0.96771240234375,30.90999984741211,0.0,10.0,-0.0111541748046875,-0.097686767578125,Waiting,0.0,0.0,0.0,0.0,0.0,0.0,0.0,0.0,
2.6398620000000084,0.0,0.0,false,2576644.5078503587,,30.0,0.0,0.0,0.0,0.0,0.125,4.804687008,0.01,-0.0012207030000004337,117.0,0.0,0.0,-0.0,0.0,0.0,4.79736279,0.01,-0.0012207029999995456,-29.0,0.0,0.0,0.0,0.0,0.0,4.787597166,0.01,-0.0012207030000004337,11.0,0.0,0.0,-0.0,0.0,0.0,4.776610839,0.01,0.0,1.1399999856948853,0.5099999904632568,99.05999755859375,-0.00921630859375,0.0372314453125,1.0048828125,30.90999984741211,0.0,19.0,-0.0111541748046875,-0.09765625,Waiting,0.0,0.0,0.0,0.0,0.0,0.0,0.0,0.0,
2.6641619999999966,0.0,0.0,false,2577207.5023255814,,30.0,0.0,0.0,0.0,0.0,0.125,4.805907711000001,0.01,0.0,117.0,0.0,0.0,-0.0,0.0,0.0,4.79736279,0.01,0.0,-29.0,0.0,0.0,0.0,0.0,0.0,4.787597166,0.01,0.0,11.0,0.0,0.0,-0.0,0.0,0.0,4.776610839,0.01,-0.0012207029999995456,1.1299999952316284,0.5099999904632568,99.05999755859375,0.03118896484375,0.03106689453125,1.01641845703125,30.90999984741211,0.0,7.0,-0.0111541748046875,-0.097625732421875,Waiting,0.0,0.0,0.0,0.0,0.0,0.0,0.0,0.0,
2.686642000000007,0.0,0.0,false,2577762.770005813,,30.0,0.0,0.0,0.0,0.0,0.125,4.804687008,0.01,0.0,117.0,0.0,0.0,-0.0,0.0,0.0,4.796142087000001,0.01,0.0,-29.0,0.0,0.0,0.0,0.0,0.0,4.787597166,0.01,0.0,11.0,0.0,0.0,-0.0,0.0,0.0,4.776610839,0.01,-0.0012207029999995456,1.1399999856948853,0.49000000953674316,99.05999755859375,0.07501220703125,0.02130126953125,1.02239990234375,30.90999984741211,0.0,-9.0,-0.0111541748046875,-0.0977630615234375,Waiting,0.0,0.0,0.0,0.0,0.0,0.0,0.0,0.0,
2.7040770000000047,0.0,0.0,false,2578314.0689655175,,30.0,0.0,0.0,0.0,0.0,0.125,4.805907711000001,0.01,0.0,117.0,0.0,0.0,-0.0,0.0,0.0,4.79736279,0.01,0.0,-29.0,0.0,0.0,0.0,0.0,0.0,4.786376463,0.01,0.0,11.0,0.0,0.0,-0.0,0.0,0.0,4.777831542,0.01,0.0,1.1399999856948853,0.49000000953674316,99.05999755859375,0.05133056640625,-0.0164794921875,1.02960205078125,30.90999984741211,0.0,-43.0,-0.0111846923828125,-0.097930908203125,Waiting,0.0,0.0,0.0,0.0,0.0,0.0,0.0,0.0,
2.727164000000004,0.0,0.0,false,2578857.6486538835,,30.0,0.0,0.0,0.0,0.0,0.125,4.804687008,0.01,0.0,117.0,0.0,0.0,-0.0,0.0,0.0,4.79736279,0.01,0.0,-29.0,0.0,0.0,0.0,0.0,0.0,4.786376463,0.01,0.0,11.0,0.0,0.0,-0.0,0.0,0.0,4.776610839,0.01,0.0,1.1399999856948853,0.49000000953674316,99.05999755859375,0.01495361328125,-0.0047607421875,1.00921630859375,30.90999984741211,0.0,-25.0,-0.011260986328125,-0.09814453125,Waiting,0.0,0.0,0.0,0.0,0.0,0.0,0.0,0.0,
2.744195000000007,0.0,0.0,false,2579393.5135553833,,30.0,0.0,0.0,0.0,0.0,0.125,4.807128414,0.01,0.0,117.0,0.0,0.0,-0.0,0.0,0.0,4.79736279,0.01,0.0,-29.0,0.0,0.0,0.0,0.0,0.0,4.786376463,0.01,0.0,11.0,0.0,0.0,-0.0,0.0,0.0,4.776610839,0.01,0.0,1.1399999856948853,0.5,99.05999755859375,-0.06597900390625,0.0198974609375,0.96807861328125,30.90999984741211,0.0,12.0,-0.0113677978515625,-0.0984039306640625,Waiting,0.0,0.0,0.0,0.0,0.0,0.0,0.0,0.0,
2.768096000000005,0.0,0.0,false,2579925.419554695,,30.0,0.0,0.0,0.0,0.0,0.125,4.805907711000001,0.01,0.0,117.0,0.0,0.0,-0.0,0.0,0.0,4.798583493000001,0.01,0.0,-29.0,0.0,0.0,0.0,0.0,0.0,4.786376463,0.01,0.0,11.0,0.0,0.0,-0.0,0.0,0.0,4.776610839,0.01,0.0,1.1399999856948853,0.5099999904632568,99.05999755859375,-0.0543212890625,0.02734375,0.9827880859375,30.90999984741211,0.0,17.0,-0.0113677978515625,-0.0984039306640625,Waiting,0.0,0.0,0.0,0.0,0.0,0.0,0.0,0.0,
2.7865899999999963,0.0,0.0,false,2580447.6283391407,,30.0,0.0,0.0,0.0,0.0,0.125,4.804687008,0.01,0.0,117.0,0.0,0.0,-0.0,0.0,0.0,4.79736279,0.01,0.0,-29.0,0.0,0.0,0.0,0.0,0.0,4.787597166,0.01,0.0,11.0,0.0,0.0,-0.0,0.0,0.0,4.776610839,0.01,0.0,1.1399999856948853,0.5099999904632568,99.05999755859375,-0.01397705078125,0.04193115234375,0.9964599609375,30.90999984741211,0.0,25.0,-0.0113372802734375,-0.098358154296875,Waiting,0.0,0.0,0.0,0.0,0.0,0.0,0.0,0.0,
2.803803,0.0,0.0,false,2580965.885039675,,30.0,0.0,0.0,0.0,0.0,0.125,4.807128414,0.01,0.0,117.0,0.0,0.0,-0.0,0.0,0.0,4.79736279,0.01,0.0,-29.0,0.0,0.0,0.0,0.0,0.0,4.787597166,0.01,0.0,11.0,0.0,0.0,-0.0,0.0,0.0,4.777831542,0.01,0.0012207029999995456,1.1299999952316284,0.5,99.05999755859375,0.06756591796875,0.039794921875,1.02032470703125,30.90999984741211,0.0,10.0,-0.0112152099609375,-0.098297119140625,Waiting,0.0,0.0,0.0,0.0,0.0,0.0,0.0,0.0,
2.8266260000000036,0.0,0.0,false,2581476.4427244584,,30.0,0.0,0.0,0.0,0.0,0.125,4.805907711000001,0.01,0.0,117.0,0.0,0.0,-0.0,0.0,0.0,4.796142087000001,0.01,0.0,-29.0,0.0,0.0,0.0,0.0,0.0,4.787597166,0.01,0.0,11.0,0.0,0.0,-0.0,0.0,0.0,4.776610839,0.01,0.0012207029999995456,1.1399999856948853,0.5,99.05999755859375,0.07855224609375,0.02447509765625,1.02166748046875,30.90999984741211,0.0,-6.0,-0.0112152099609375,-0.098388671875,Waiting,0.0,0.0,0.0,0.0,0.0,0.0,0.0,0.0,
2.8455990000000018,0.0,0.0,false,2581979.305861869,,30.0,0.0,0.0,0.0,0.0,0.125,4.805907711000001,0.01,0.0,117.0,0.0,0.0,-0.0,0.0,0.0,4.79736279,0.01,0.0,-29.0,0.0,0.0,0.0,0.0,0.0,4.787597166,0.01,0.0,11.0,0.0,0.0,-0.0,0.0,0.0,4.777831542,0.01,0.0012207029999995456,1.1399999856948853,0.49000000953674316,99.05999755859375,0.0592041015625,-0.01434326171875,1.0311279296875,30.90999984741211,0.0,-42.0,-0.0112457275390625,-0.0985565185546875,Waiting,0.0,0.0,0.0,0.0,0.0,0.0,0.0,0.0,
2.867029999999999,0.0,0.0,false,2582478.2266924563,,30.0,0.0,0.0,0.0,0.0,0.125,4.805907711000001,0.01,0.0012207030000004337,117.0,0.0,0.0,-0.0,0.0,0.0,4.79736279,0.01,0.0012207029999995456,-29.0,0.0,0.0,0.0,0.0,0.0,4.787597166,0.01,0.0,11.0,0.0,0.0,-0.0,0.0,0.0,4.777831542,0.01,0.0,1.1399999856948853,0.49000000953674316,99.06999969482422,0.02081298828125,-0.0064697265625,1.01055908203125,30.90999984741211,0.0,-28.0,-0.011322021484375,-0.0987548828125,Waiting,0.0,0.0,0.0,0.0,0.0,0.0,0.0,0.0,
2.884536999999997,0.0,0.0,false,2582969.4604525235,,30.0,0.0,0.0,0.0,0.0,0.125,4.805907711000001,0.01,0.0012207030000004337,117.0,0.0,0.0,-0.0,0.0,0.0,4.79736279,0.01,0.0012207029999995456,-29.0,0.0,0.0,0.0,0.0,0.0,4.786376463,0.01,0.0,11.0,0.0,0.0,-0.0,0.0,0.0,4.776610839,0.01,0.0,1.1399999856948853,0.5,99.05999755859375,-0.0654296875,0.01922607421875,0.97186279296875,30.90999984741211,0.0,11.0,-0.0114288330078125,-0.099029541015625,Waiting,0.0,0.0,0.0,0.0,0.0,0.0,0.0,0.0,
2.9035380000000006,0.0,0.0,false,2583453.011600928,,30.0,0.0,0.0,0.0,0.0,0.125,4.805907711000001,0.01,0.0012207030000004337,117.0,0.0,0.0,-0.0,0.0,0.0,4.798583493000001,0.01,-0.0012207029999995456,-29.0,0.0,0.0,0.0,0.0,0.0,4.787597166,0.01,0.0,11.0,0.0,0.0,-0.0,0.0,0.0,4.777831542,0.01,0.0,1.1399999856948853,0.5099999904632568,99.06999969482422,-0.05657958984375,0.0225830078125,0.98748779296875,30.90999984741211,0.0,13.0,-0.0114288330078125,-0.0990447998046875,Waiting,0.0,0.0,0.0,0.0,0.0,0.0,0.0,0.0,
2.9251440000000004,0.0,0.0,false,2583932.6301952447,,30.0,0.0,0.0,0.0,0.0,0.125,4.804687008,0.01,-0.0012207030000004337,117.0,0.0,0.0,-0.0,0.0,0.0,4.79736279,0.01,-0.0012207029999995456,-29.0,0.0,0.0,0.0,0.0,0.0,4.787597166,0.01,0.0,11.0,0.0,0.0,-0.0,0.0,0.0,4.779052245,0.01,0.0,1.1399999856948853,0.5099999904632568,99.06999969482422,-0.01507568359375,0.03765869140625,0.99774169921875,30.90999984741211,0.0,21.0,-0.0113983154296875,-0.0989990234375,Waiting,0.0,0.0,0.0,0.0,0.0,0.0,0.0,0.0,
2.9483600000000005,0.0,0.0,false,2584404.573637418,,30.0,0.0,0.0,0.0,0.0,0.125,4.805907711000001,0.01,-0.0012207030000004337,117.0,0.0,0.0,-0.0,0.0,0.0,4.796142087000001,0.01,-0.0012207029999995456,-29.0,0.0,0.0,0.0,0.0,0.0,4.787597166,0.01,0.0012207030000004337,11.0,0.0,0.0,-0.0,0.0,0.0,4.776610839,0.01,0.0,1.1299999952316284,0.5,99.06999969482422,0.06842041015625,0.04052734375,1.02215576171875,30.90999984741211,0.0,10.0,-0.01129150390625,-0.09893798828125,Waiting,0.0,0.0,0.0,0.0,0.0,0.0,0.0,0.0,
2.972448000000004,0.0,0.0,false,2584868.8463768116,,30.0,0.0,0.0,0.0,0.0,0.125,4.807128414,0.01,0.0012207030000004337,117.0,0.0,0.0,-0.0,0.0,0.0,4.79736279,0.01,0.0012207029999995456,-29.0,0.0,0.0,0.0,0.0,0.0,4.787597166,0.01,0.0012207030000004337,11.0,0.0,0.0,-0.0,0.0,0.0,4.777831542,0.01,0.0,1.1399999856948853,0.49000000953674316,99.06999969482422,0.07525634765625,0.0321044921875,1.02374267578125,30.90999984741211,0.0,1.0,-0.01129150390625,-0.099029541015625,Waiting,0.0,0.0,0.0,0.0,0.0,0.0,0.0,0.0,
2.9906720000000058,0.0,0.0,false,2585329.1962905717,,30.0,0.0,0.0,0.0,0.0,0.125,4.804687008,0.01,0.0012207030000004337,117.0,0.0,0.0,-0.0,0.0,0.0,4.796142087000001,0.01,0.0012207029999995456,-29.0,0.0,0.0,0.0,0.0,0.0,4.787597166,0.01,0.0012207030000004337,11.0,0.0,0.0,-0.0,0.0,0.0,4.776610839,0.01,0.0,1.149999976158142,0.49000000953674316,99.06999969482422,0.05731201171875,-0.01654052734375,1.03057861328125,30.90999984741211,0.0,-44.0,-0.011322021484375,-0.09918212890625,Waiting,0.0,0.0,0.0,0.0,0.0,0.0,0.0,0.0,
3.0126659999999976,0.0,0.0,false,2585781.0546648637,,30.0,0.0,0.0,0.0,0.0,0.125,4.805907711000001,0.01,0.0,117.0,0.0,0.0,-0.0,0.0,0.0,4.79736279,0.01,0.0,-29.0,0.0,0.0,0.0,0.0,0.0,4.787597166,0.01,-0.0012207030000004337,11.0,0.0,0.0,-0.0,0.0,0.0,4.776610839,0.01,0.0,1.1399999856948853,0.49000000953674316,99.05999755859375,-0.022216796875,0.0162353515625,0.97906494140625,30.90999984741211,0.0,1.0,-0.011505126953125,-0.09954833984375,Waiting,0.0,0.0,0.0,0.0,0.0,0.0,0.0,0.0,
3.030171000000002,0.0,0.0,false,2586227.011201236,,30.0,0.0,0.0,0.0,0.0,0.125,4.805907711000001,0.01,0.0,117.0,0.0,0.0,-0.0,0.0,0.0,4.79736279,0.01,0.0,-29.0,0.0,0.0,0.0,0.0,0.0,4.787597166,0.01,-0.0012207030000004337,11.0,0.0,0.0,-0.0,0.0,0.0,4.776610839,0.01,0.0,1.1399999856948853,0.5,99.05999755859375,-0.06402587890625,0.02435302734375,0.96710205078125,30.90999984741211,0.0,16.0,-0.011505126953125,-0.0996551513671875,Waiting,0.0,0.0,0.0,0.0,0.0,0.0,0.0,0.0,
3.049122000000003,0.0,0.0,false,2586665.3129947865,,30.0,0.0,0.0,0.0,0.0,0.125,4.805907711000001,0.01,0.0,117.0,0.0,0.0,-0.0,0.0,0.0,4.79736279,0.01,0.0,-29.0,0.0,0.0,0.0,0.0,0.0,4.786376463,0.01,-0.0012207030000004337,11.0,0.0,0.0,-0.0,0.0,0.0,4.776610839,0.01,0.0,1.1399999856948853,0.5099999904632568,99.05999755859375,-0.054443359375,0.02337646484375,0.98297119140625,30.90999984741211,0.0,13.0,-0.011505126953125,-0.09967041015625,Waiting,0.0,0.0,0.0,0.0,0.0,0.0,0.0,0.0,
3.0696169999999983,0.0,0.0,false,2587095.9644787647,,30.0,0.0,0.0,0.0,0.0,0.125,4.805907711000001,0.01,0.0,117.0,0.0,0.0,-0.0,0.0,0.0,4.796142087000001,0.01,0.0,-29.0,0.0,0.0,0.0,0.0,0.0,4.787597166,0.01,0.0,11.0,0.0,0.0,-0.0,0.0,0.0,4.776610839,0.01,0.0,1.1299999952316284,0.5099999904632568,99.05999755859375,0.01593017578125,0.03179931640625,1.01165771484375,30.90999984741211,0.0,10.0,-0.0114288330078125,-0.0995635986328125,Waiting,0.0,0.0,0.0,0.0,0.0,0.0,0.0,0.0,
3.0906820000000006,0.0,0.0,false,2587522.7099015634,,30.0,0.0,0.0,0.0,0.0,0.125,4.804687008,0.01,0.0,117.0,0.0,0.0,-0.0,0.0,0.0,4.798583493000001,0.01,0.0,-29.0,0.0,0.0,0.0,0.0,0.0,4.787597166,0.01,0.0,11.0,0.0,0.0,-0.0,0.0,0.0,4.777831542,0.01,0.0,1.1299999952316284,0.5,99.05999755859375,0.06646728515625,0.03643798828125,1.01605224609375,30.90999984741211,0.0,7.0,-0.0113677978515625,-0.09954833984375,Waiting,0.0,0.0,0.0,0.0,0.0,0.0,0.0,0.0,
3.1132660000000034,0.0,0.0,false,2587941.812427634,,30.0,0.0,0.0,0.0,0.0,0.125,4.805907711000001,0.01,0.0,117.0,0.0,0.0,-0.0,0.0,0.0,4.79736279,0.01,0.0,-29.0,0.0,0.0,0.0,0.0,0.0,4.787597166,0.01,0.0012207030000004337,11.0,0.0,0.0,-0.0,0.0,0.0,4.777831542,0.01,0.0,1.1399999856948853,0.47999998927116394,99.06999969482422,0.0556640625,-0.0174560546875,1.03021240234375,30.90999984741211,0.0,-44.0,-0.0113983154296875,-0.0997772216796875,Waiting,0.0,0.0,0.0,0.0,0.0,0.0,0.0,0.0,
3.131694000000003,0.0,0.0,false,2588353.2733937874,,30.0,0.0,0.0,0.0,0.0,0.125,4.805907711000001,0.01,0.0,117.0,0.0,0.0,-0.0,0.0,0.0,4.79736279,0.01,0.0,-29.0,0.0,0.0,0.0,0.0,0.0,4.787597166,0.01,0.0012207030000004337,11.0,0.0,0.0,-0.0,0.0,0.0,4.776610839,0.01,0.0,1.1399999856948853,0.49000000953674316,99.05999755859375,0.02386474609375,-0.00982666015625,1.0107421875,30.90999984741211,0.0,-31.0,-0.0114898681640625,-0.0999603271484375,Waiting,0.0,0.0,0.0,0.0,0.0,0.0,0.0,0.0,
3.149979999999996,0.0,0.0,false,2588760.837962963,,30.0,0.0,0.0,0.0,0.0,0.125,4.804687008,0.01,0.0,117.0,0.0,0.0,-0.0,0.0,0.0,4.79736279,0.01,0.0,-29.0,0.0,0.0,0.0,0.0,0.0,4.786376463,0.01,-0.0012207030000004337,11.0,0.0,0.0,-0.0,0.0,0.0,4.776610839,0.01,0.0,1.1399999856948853,0.5,99.05999755859375,-0.0606689453125,0.01904296875,0.9697265625,30.90999984741211,0.0,10.0,-0.0115966796875,-0.1002349853515625,Waiting,0.0,0.0,0.0,0.0,0.0,0.0,0.0,0.0,
3.172448000000004,0.0,0.0,false,2589160.7714561233,,30.0,0.0,0.0,0.0,0.0,0.125,4.807128414,0.01,-0.0012207030000004337,117.0,0.0,0.0,-0.0,0.0,0.0,4.798583493000001,0.01,-0.0012207029999995456,-29.0,0.0,0.0,0.0,0.0,0.0,4.787597166,0.01,-0.0012207030000004337,11.0,0.0,0.0,-0.0,0.0,0.0,4.776610839,0.01,0.0,1.1299999952316284,0.5099999904632568,99.05999755859375,-0.059814453125,0.02288818359375,0.98193359375,30.90999984741211,0.0,14.0,-0.0115966796875,-0.1002349853515625,Waiting,0.0,0.0,0.0,0.0,0.0,0.0,0.0,0.0,
3.190668000000005,0.0,0.0,false,2589556.8145005787,,30.0,0.0,0.0,0.0,0.0,0.125,4.805907711000001,0.01,-0.0012207030000004337,117.0,0.0,0.0,-0.0,0.0,0.0,4.79736279,0.01,-0.0012207029999995456,-29.0,0.0,0.0,0.0,0.0,0.0,4.786376463,0.01,-0.0012207030000004337,11.0,0.0,0.0,-0.0,0.0,0.0,4.776610839,0.01,0.0,1.1399999856948853,0.5,99.05999755859375,-0.01824951171875,0.0367431640625,1.00262451171875,30.90999984741211,0.0,20.0,-0.011566162109375,-0.100189208984375,Waiting,0.0,0.0,0.0,0.0,0.0,0.0,0.0,0.0,
3.2112330000000076,0.0,0.0,false,2589945.2338538654,,30.0,0.0,0.0,0.0,0.0,0.125,4.805907711000001,0.01,0.0,117.0,0.0,0.0,-0.0,0.0,0.0,4.79736279,0.01,0.0012207029999995456,-29.0,0.0,0.0,0.0,0.0,0.0,4.787597166,0.01,0.0,11.0,0.0,0.0,-0.0,0.0,0.0,4.775390136,0.01,0.0,1.1299999952316284,0.5,99.05999755859375,0.07037353515625,0.03826904296875,1.01422119140625,30.90999984741211,0.0,8.0,-0.011474609375,-0.1001129150390625,Waiting,0.0,0.0,0.0,0.0,0.0,0.0,0.0,0.0,
3.232354999999996,0.0,0.0,false,2590326.033924441,,30.0,0.0,0.0,0.0,0.0,0.125,4.805907711000001,0.01,0.0,117.0,0.0,0.0,-0.0,0.0,0.0,4.796142087000001,0.01,0.0012207029999995456,-29.0,0.0,0.0,0.0,0.0,0.0,4.787597166,0.01,0.0,11.0,0.0,0.0,-0.0,0.0,0.0,4.776610839,0.01,0.0,1.1399999856948853,0.49000000953674316,99.05999755859375,0.0777587890625,0.02783203125,1.0213623046875,30.90999984741211,0.0,-3.0,-0.011474609375,-0.100189208984375,Waiting,0.0,0.0,0.0,0.0,0.0,0.0,0.0,0.0,
3.251817999999999,0.0,0.0,false,2590702.9531701677,,30.0,0.0,0.0,0.0,0.0,0.125,4.805907711000001,0.01,0.0,117.0,0.0,0.0,-0.0,0.0,0.0,4.796142087000001,0.01,0.0012207029999995456,-29.0,0.0,0.0,0.0,0.0,0.0,4.786376463,0.01,0.0,11.0,0.0,0.0,-0.0,0.0,0.0,4.776610839,0.01,-0.0012207029999995456,1.1399999856948853,0.47999998927116394,99.05999755859375,0.05157470703125,-0.01434326171875,1.0357666015625,30.90999984741211,0.0,-27.0,-0.0115814208984375,-0.10052490234375,Waiting,0.0,0.0,0.0,0.0,0.0,0.0,0.0,0.0,
3.2745859999999958,0.0,0.0,false,2591070.279768786,,30.0,0.0,0.0,0.0,0.0,0.125,4.805907711000001,0.01,0.0,117.0,0.0,0.0,-0.0,0.0,0.0,4.79736279,0.01,-0.0012207029999995456,-29.0,0.0,0.0,0.0,0.0,0.0,4.787597166,0.01,0.0,11.0,0.0,0.0,-0.0,0.0,0.0,4.777831542,0.01,-0.0012207029999995456,1.1399999856948853,0.49000000953674316,99.05999755859375,-0.02911376953125,0.021240234375,0.98016357421875,30.90999984741211,0.0,7.0,-0.0116729736328125,-0.100677490234375,Waiting,0.0,0.0,0.0,0.0,0.0,0.0,0.0,0.0,
3.2919729999999983,0.0,0.0,false,2591429.999614718,,30.0,0.0,0.0,0.0,0.0,0.125,4.805907711000001,0.01,0.0,117.0,0.0,0.0,-0.0,0.0,0.0,4.79736279,0.01,-0.0012207029999995456,-29.0,0.0,0.0,0.0,0.0,0.0,4.787597166,0.01,0.0,11.0,0.0,0.0,-0.0,0.0,0.0,4.776610839,0.01,-0.0012207029999995456,1.1399999856948853,0.5,99.05999755859375,-0.06500244140625,0.02349853515625,0.973388671875,30.90999984741211,0.0,15.0,-0.0116729736328125,-0.10076904296875,Waiting,0.0,0.0,0.0,0.0,0.0,0.0,0.0,0.0,
3.314279999999999,0.0,0.0,false,2591785.848998459,,30.0,0.0,0.0,0.0,0.0,0.125,4.805907711000001,0.01,0.0,117.0,0.0,0.0,-0.0,0.0,0.0,4.798583493000001,0.01,0.0,-29.0,0.0,0.0,0.0,0.0,0.0,4.787597166,0.01,0.0,11.0,0.0,0.0,-0.0,0.0,0.0,4.777831542,0.01,0.0012207029999995456,1.1299999952316284,0.5099999904632568,99.05999755859375,-0.050048828125,0.023681640625,0.99005126953125,30.90999984741211,0.0,13.0,-0.0116729736328125,-0.10076904296875,Waiting,0.0,0.0,0.0,0.0,0.0,0.0,0.0,0.0,
3.3321150000000053,0.0,0.0,false,2592134.0989793953,,30.0,0.0,0.0,0.0,0.0,0.125,4.805907711000001,0.01,0.0,117.0,0.0,0.0,-0.0,0.0,0.0,4.798583493000001,0.01,0.0,-29.0,0.0,0.0,0.0,0.0,0.0,4.787597166,0.01,0.0,11.0,0.0,0.0,-0.0,0.0,0.0,4.777831542,0.01,0.0012207029999995456,1.1299999952316284,0.5,99.05999755859375,0.02239990234375,0.02880859375,1.0081787109375,30.90999984741211,0.0,6.0,-0.0116729736328125,-0.1006622314453125,Waiting,0.0,0.0,0.0,0.0,0.0,0.0,0.0,0.0,
3.352199999999997,0.0,0.0,false,2592478.4844050827,,30.0,0.0,0.0,0.0,0.0,0.125,4.804687008,0.01,0.0,117.0,0.0,0.0,-0.0,0.0,0.0,4.79736279,0.01,0.0,-29.0,0.0,0.0,0.0,0.0,0.0,4.786376463,0.01,0.0,11.0,0.0,0.0,-0.0,0.0,0.0,4.775390136,0.01,-0.0012207029999995456,1.1299999952316284,0.49000000953674316,99.05999755859375,0.07012939453125,0.04046630859375,1.02398681640625,30.90999984741211,0.0,10.0,-0.0116729736328125,-0.1006622314453125,Waiting,0.0,0.0,0.0,0.0,0.0,0.0,0.0,0.0,
3.3747949999999984,0.0,0.0,false,2592815.2777670836,,30.0,0.0,0.0,0.0,0.0,0.125,4.804687008,0.01,0.0,117.0,0.0,0.0,-0.0,0.0,0.0,4.79736279,0.01,0.0,-29.0,0.0,0.0,0.0,0.0,0.0,4.788817869,0.01,0.0,11.0,0.0,0.0,-0.0,0.0,0.0,4.777831542,0.01,-0.0012207029999995456,1.1399999856948853,0.47999998927116394,99.05999755859375,0.04656982421875,-0.0191650390625,1.031494140625,30.920000076293945,0.0,-45.0,-0.0117034912109375,-0.1009063720703125,Waiting,0.0,0.0,0.0,0.0,0.0,0.0,0.0,0.0,
3.393218000000008,0.0,0.0,false,2593144.4834488067,,30.0,0.0,0.0,0.0,0.0,0.125,4.805907711000001,0.01,0.0,117.0,0.0,0.0,-0.0,0.0,0.0,4.79736279,0.01,0.0,-29.0,0.0,0.0,0.0,0.0,0.0,4.787597166,0.01,0.0,11.0,0.0,0.0,-0.0,0.0,0.0,4.776610839,0.01,-0.0012207029999995456,1.1299999952316284,0.49000000953674316,99.05999755859375,0.01373291015625,0.00421142578125,1.00091552734375,30.920000076293945,0.0,-16.0,-0.01177978515625,-0.10107421875,Waiting,0.0,0.0,0.0,0.0,0.0,0.0,0.0,0.0,
3.419673999999999,0.0,0.0,false,2593469.834135078,,30.0,0.0,0.0,0.0,0.0,0.125,4.805907711000001,0.01,0.0,117.0,0.0,0.0,-0.0,0.0,0.0,4.796142087000001,0.01,0.0,-29.0,0.0,0.0,0.0,0.0,0.0,4.786376463,0.01,0.0,11.0,0.0,0.0,-0.0,0.0,0.0,4.776610839,0.01,0.0012207029999995456,1.1399999856948853,0.49000000953674316,99.05999755859375,-0.04150390625,0.02044677734375,0.97271728515625,30.920000076293945,0.0,8.0,-0.011871337890625,-0.101226806640625,Waiting,0.0,0.0,0.0,0.0,0.0,0.0,0.0,0.0,
3.4399030000000055,0.0,0.0,false,2593787.604463255,,30.0,0.0,0.0,0.0,0.0,0.125,4.805907711000001,0.01,0.0,117.0,0.0,0.0,-0.0,0.0,0.0,4.796142087000001,0.01,0.0,-29.0,0.0,0.0,0.0,0.0,0.0,4.787597166,0.01,0.0,11.0,0.0,0.0,-0.0,0.0,0.0,4.776610839,0.01,0.0012207029999995456,1.1299999952316284,0.5,99.05999755859375,-0.0439453125,0.030029296875,0.98663330078125,30.920000076293945,0.0,18.0,-0.011871337890625,-0.10125732421875,Waiting,0.0,0.0,0.0,0.0,0.0,0.0,0.0,0.0,
3.455845000000001,0.0,0.0,false,2594097.798807463,,30.0,0.0,0.0,0.0,0.0,0.125,4.805907711000001,0.01,0.0,117.0,0.0,0.0,-0.0,0.0,0.0,4.79736279,0.01,0.0,-29.0,0.0,0.0,0.0,0.0,0.0,4.786376463,0.01,0.0,11.0,0.0,0.0,-0.0,0.0,0.0,4.775390136,0.01,-0.0012207029999995456,1.1299999952316284,0.5,99.05999755859375,-0.00689697265625,0.03497314453125,0.99981689453125,30.920000076293945,0.0,17.0,-0.011871337890625,-0.1011810302734375,Waiting,0.0,0.0,0.0,0.0,0.0,0.0,0.0,0.0,
