Time,ClimberA1,ClimberA2,CameraExists,HeapSpace,LoopTime,FRpos,FRCurrent,FRspeed,FRsetpoint,FRApos,FRACurrent,FREncpos,FREncSetpoint,FREncSpeed,FLpos,FLCurrent,FLspeed,FLsetpoint,FLApos,FLACurrent,FLEncpos,FLEncSetpoint,FLEncSpeed,BRpos,BRCurrent,BRspeed,BRsetpoint,BRApos,BRACurrent,BREncpos,BREncSetpoint,BREncSpeed,BLpos,BLCurrent,BLspeed,BLsetpoint,BLApos,BLACurrent,BLEncpos,BLEncSetpoint,BLEncSpeed,navx_Pitch,navx_Roll,navx_Yaw,navx_XAcc,navx_YAcc,navx_ZAcc,navx_Temp,navx_Bar,navx_Alt,navx_XDis,navx_YDis,GearPlacerState,ShootOutputV,ShootOutputCurrent,ShootEncPos,ShootEncVelocity,ShootSpeed,ShootSetpoint,CarouselSetpoint,CarouselCurrent,
0.142375,0.0,0.0,false,4813253.654760031,,0.0,0.0,0.0,0.0,0.0,0.0,1.8408201240000002,0.0,0.0,-8.0,0.0,0.0,-0.0,0.0,0.0,2.670898164,0.0,0.0,0.0,0.0,0.0,0.0,0.0,0.0,3.96728475,0.0,0.0,0.0,0.0,0.0,-0.0,0.0,0.0,2.457275139,0.0,0.0,1.4199999570846558,0.4300000071525574,76.7699966430664,0.01116943359375,0.02423095703125,0.9964599609375,35.720001220703125,0.0,0.0,0.0434417724609375,-0.0381317138671875,Waiting,0.0,0.0,0.0,0.0,0.0,0.0,0.0,0.0,
0.3017369999999937,0.0,0.0,false,4813296.201384518,,0.0,0.0,0.0,0.0,0.0,0.0,1.8408201240000002,0.0,0.0,-8.0,0.0,0.0,-0.0,0.0,0.0,2.670898164,0.0,0.0,0.0,0.0,0.0,0.0,0.0,0.0,4.050292554,0.0,0.0,0.0,0.0,0.0,-0.0,0.0,0.0,2.457275139,0.0,0.0,1.4299999475479126,0.4300000071525574,76.76000213623047,0.00909423828125,0.026611328125,1.00445556640625,35.7599983215332,0.0,1.0,0.0434417724609375,-0.0381317138671875,Waiting,0.0,0.0,0.0,0.0,0.0,0.0,0.0,0.0,
0.45876799999998186,0.0,0.0,false,4813300.444863929,,0.0,0.0,0.0,0.0,0.0,0.0,1.8408201240000002,0.0,0.0,-8.0,0.0,0.0,-0.0,0.0,0.0,2.670898164,0.0,0.0,0.0,0.0,0.0,0.0,0.0,0.0,4.0356441180000004,0.0,0.0,0.0,0.0,0.0,-0.0,0.0,0.0,2.457275139,0.0,0.0,1.4299999475479126,0.4399999976158142,76.76000213623047,0.0074462890625,0.0274658203125,0.9993896484375,35.7599983215332,0.0,2.0,0.0434417724609375,-0.0381317138671875,Waiting,0.0,0.0,0.0,0.0,0.0,0.0,0.0,0.0,
0.6176639999999898,0.0,0.0,false,4813266.04215162,,0.0,0.0,0.0,0.0,0.0,0.0,1.8408201240000002,0.0,0.0,-8.0,0.0,0.0,-0.0,0.0,0.0,2.670898164,0.0,0.0,0.0,0.0,0.0,0.0,0.0,0.0,4.020995682000001,0.0,0.0,0.0,0.0,0.0,-0.0,0.0,0.0,2.456054436,0.0,0.0,1.440000057220459,0.4399999976158142,76.76000213623047,0.01007080078125,0.02374267578125,0.99432373046875,35.7599983215332,0.0,0.0,0.0434417724609375,-0.0381317138671875,Waiting,0.0,0.0,0.0,0.0,0.0,0.0,0.0,0.0,
0.776375,0.0,0.0,false,4813199.591130681,,0.0,0.0,0.0,0.0,0.0,0.0,1.8408201240000002,0.0,0.0,-8.0,0.0,0.0,-0.0,0.0,0.0,2.670898164,0.0,0.0,0.0,0.0,0.0,0.0,0.0,0.0,4.019774979,0.0,0.0,0.0,0.0,0.0,-0.0,0.0,0.0,2.456054436,0.0,0.0,1.4299999475479126,0.44999998807907104,76.76000213623047,0.00958251953125,0.0252685546875,0.9962158203125,35.7400016784668,0.0,0.0,0.0434417724609375,-0.0381317138671875,Waiting,0.0,0.0,0.0,0.0,0.0,0.0,0.0,0.0,
0.9342280000000028,0.0,0.0,false,4813094.567295598,,0.0,0.0,0.0,0.0,0.0,0.0,1.8408201240000002,0.0,0.0,-8.0,0.0,0.0,-0.0,0.0,0.0,2.670898164,0.0,0.0,0.0,0.0,0.0,0.0,0.0,0.0,4.019774979,0.0,0.0,0.0,0.0,0.0,-0.0,0.0,0.0,2.458495842,0.0,0.0,1.4299999475479126,0.44999998807907104,76.76000213623047,0.0064697265625,0.02459716796875,0.99664306640625,35.7400016784668,0.0,0.0,0.0434417724609375,-0.0381317138671875,Waiting,0.0,0.0,0.0,0.0,0.0,0.0,0.0,0.0,
1.096703999999998,0.0,0.0,false,4812951.310800188,,0.0,0.0,0.0,0.0,0.0,0.0,1.8408201240000002,0.0,0.0,-8.0,0.0,0.0,-0.0,0.0,0.0,2.670898164,0.0,0.0,0.0,0.0,0.0,0.0,0.0,0.0,4.020995682000001,0.0,0.0,0.0,0.0,0.0,-0.0,0.0,0.0,2.457275139,0.0,0.0,1.4299999475479126,0.44999998807907104,76.76000213623047,0.00885009765625,0.02703857421875,1.0,35.7400016784668,0.0,2.0,0.0434417724609375,-0.0381317138671875,Waiting,0.0,0.0,0.0,0.0,0.0,0.0,0.0,0.0,
1.2636639999999897,0.0,0.0,false,4812769.51776171,,0.0,0.0,0.0,0.0,0.0,0.0,1.8408201240000002,0.0,0.0,-8.0,0.0,0.0,-0.0,0.0,0.0,2.670898164,0.0,0.0,0.0,0.0,0.0,0.0,0.0,0.0,4.019774979,0.0,0.0,0.0,0.0,0.0,-0.0,0.0,0.0,2.457275139,0.0,0.0,1.440000057220459,0.4399999976158142,76.7699966430664,0.00689697265625,0.02703857421875,1.00384521484375,35.720001220703125,0.0,1.0,0.0434417724609375,-0.0381317138671875,Waiting,0.0,0.0,0.0,0.0,0.0,0.0,0.0,0.0,
1.4268849999999802,0.0,0.0,false,4812549.227722772,,0.0,0.0,0.0,0.0,0.0,0.0,1.8408201240000002,0.0,0.0,-8.0,0.0,0.0,-0.0,0.0,0.0,2.670898164,0.0,0.0,0.0,0.0,0.0,0.0,0.0,0.0,4.019774979,0.0,0.0,0.0,0.0,0.0,-0.0,0.0,0.0,2.457275139,0.0,0.0,1.440000057220459,0.44999998807907104,76.76000213623047,0.00799560546875,0.0296630859375,0.99334716796875,35.720001220703125,0.0,4.0,0.0434417724609375,-0.0381317138671875,Waiting,0.0,0.0,0.0,0.0,0.0,0.0,0.0,0.0,
1.5855419999999867,0.0,0.0,false,4812592.321810182,,0.0,0.0,0.0,0.0,0.0,0.0,1.8408201240000002,0.0,0.0,-8.0,0.0,0.0,-0.0,0.0,0.0,2.670898164,0.0,0.0,0.0,0.0,0.0,0.0,0.0,0.0,4.020995682000001,0.0,0.0,0.0,0.0,0.0,-0.0,0.0,0.0,2.456054436,0.0,0.0,1.4500000476837158,0.4399999976158142,76.76000213623047,0.00457763671875,0.02142333984375,0.98895263671875,35.720001220703125,0.0,-4.0,0.0434417724609375,-0.0381317138671875,Waiting,0.0,0.0,0.0,0.0,0.0,0.0,0.0,0.0,
1.7492629999999771,0.0,0.0,false,4812597.398271799,,0.0,0.0,0.0,0.0,0.0,0.0,1.8408201240000002,0.0,0.0,-8.0,0.0,0.0,-0.0,0.0,0.0,2.670898164,0.0,0.0,0.0,0.0,0.0,0.0,0.0,0.0,4.019774979,0.0,0.0,0.0,0.0,0.0,-0.0,0.0,0.0,2.457275139,0.0,0.0,1.4500000476837158,0.4399999976158142,76.76000213623047,0.0089111328125,0.020751953125,1.0045166015625,35.72999954223633,0.0,-4.0,0.0434417724609375,-0.0381317138671875,Waiting,0.0,0.0,0.0,0.0,0.0,0.0,0.0,0.0,
1.9236569999999775,0.0,0.0,false,4812564.152057807,,0.0,0.0,0.0,0.0,0.0,0.0,1.8408201240000002,0.0,0.0,-8.0,0.0,0.0,-0.0,0.0,0.0,2.670898164,0.0,0.0,0.0,0.0,0.0,0.0,0.0,0.0,4.019774979,0.0,0.0,0.0,0.0,0.0,-0.0,0.0,0.0,2.457275139,0.0,0.0,1.4500000476837158,0.4399999976158142,76.76000213623047,0.00970458984375,0.02728271484375,0.99847412109375,35.72999954223633,0.0,2.0,0.0434417724609375,-0.0381317138671875,Waiting,0.0,0.0,0.0,0.0,0.0,0.0,0.0,0.0,
2.098557000000001,0.0,0.0,false,4812492.602481546,,0.0,0.0,0.0,0.0,0.0,0.0,1.8408201240000002,0.0,0.0,-8.0,0.0,0.0,-0.0,0.0,0.0,2.672118867,0.0,0.0,0.0,0.0,0.0,0.0,0.0,0.0,4.019774979,0.0,0.0,0.0,0.0,0.0,-0.0,0.0,0.0,2.457275139,0.0,0.0,1.4500000476837158,0.4399999976158142,76.76000213623047,0.00872802734375,0.02783203125,1.006103515625,35.72999954223633,0.0,2.0,0.0434417724609375,-0.0381317138671875,Waiting,0.0,0.0,0.0,0.0,0.0,0.0,0.0,0.0,
2.27250999999998,0.0,0.0,false,4812382.786432161,,0.0,0.0,0.0,0.0,0.0,0.0,1.8395994210000002,0.0,0.0,-8.0,0.0,0.0,-0.0,0.0,0.0,2.672118867,0.0,0.0,0.0,0.0,0.0,0.0,0.0,0.0,4.019774979,0.0,0.0,0.0,0.0,0.0,-0.0,0.0,0.0,2.457275139,0.0,0.0,1.4500000476837158,0.4399999976158142,76.76000213623047,0.008056640625,0.02691650390625,1.00006103515625,35.72999954223633,0.0,1.0,0.0434417724609375,-0.0381317138671875,Waiting,0.0,0.0,0.0,0.0,0.0,0.0,0.0,0.0,
2.451715999999986,0.0,0.0,false,4812234.72193437,,0.0,0.0,0.0,0.0,0.0,0.0,1.8408201240000002,0.0,0.0,-8.0,0.0,0.0,-0.0,0.0,0.0,2.670898164,0.0,0.0,0.0,0.0,0.0,0.0,0.0,0.0,4.020995682000001,0.0,0.0,0.0,0.0,0.0,-0.0,0.0,0.0,2.457275139,0.0,0.0,1.440000057220459,0.4399999976158142,76.76000213623047,0.010986328125,0.031494140625,0.9964599609375,35.72999954223633,0.0,6.0,0.0434417724609375,-0.0381317138671875,Waiting,0.0,0.0,0.0,0.0,0.0,0.0,0.0,0.0,
2.621274999999994,0.0,0.0,false,4812048.427001569,,0.0,0.0,0.0,0.0,0.0,0.0,1.8408201240000002,0.0,0.0,-8.0,0.0,0.0,-0.0,0.0,0.0,2.670898164,0.0,0.0,0.0,0.0,0.0,0.0,0.0,0.0,4.019774979,0.0,0.0,0.0,0.0,0.0,-0.0,0.0,0.0,2.457275139,0.0,0.0,1.440000057220459,0.4399999976158142,76.75,0.010986328125,0.02435302734375,0.99627685546875,35.72999954223633,0.0,0.0,0.0434417724609375,-0.0381317138671875,Waiting,0.0,0.0,0.0,0.0,0.0,0.0,0.0,0.0,
2.797561999999976,0.0,0.0,false,4811823.91963585,,0.0,0.0,0.0,0.0,0.0,0.0,1.8408201240000002,0.0,0.0,-8.0,0.0,0.0,-0.0,0.0,0.0,2.670898164,0.0,0.0,0.0,0.0,0.0,0.0,0.0,0.0,4.019774979,0.0,0.0,0.0,0.0,0.0,-0.0,0.0,0.0,2.457275139,0.0,0.0,1.440000057220459,0.4300000071525574,76.76000213623047,0.00701904296875,0.0250244140625,0.99383544921875,35.709999084472656,0.0,0.0,0.0434417724609375,-0.0381317138671875,Waiting,0.0,0.0,0.0,0.0,0.0,0.0,0.0,0.0,
2.9699199999999837,0.0,0.0,false,4811872.661644695,,0.0,0.0,0.0,0.0,0.0,0.0,1.8395994210000002,0.0,0.0,-8.0,0.0,0.0,-0.0,0.0,0.0,2.670898164,0.0,0.0,0.0,0.0,0.0,0.0,0.0,0.0,4.020995682000001,0.0,0.0,0.0,0.0,0.0,-0.0,0.0,0.0,2.456054436,0.0,0.0,1.4299999475479126,0.4699999988079071,76.7300033569336,0.02825927734375,0.0531005859375,1.0338134765625,35.709999084472656,0.0,31.0,0.0431671142578125,-0.0383758544921875,Waiting,0.0,0.0,0.0,0.0,0.0,0.0,0.0,0.0,
3.149645999999979,0.0,0.0,false,4811883.194727758,,0.0,0.0,0.0,0.0,0.0,0.0,1.8408201240000002,0.0,0.0,-8.0,0.0,0.0,-0.0,0.0,0.0,2.672118867,0.0,0.0,0.0,0.0,0.0,0.0,0.0,0.0,4.019774979,0.0,0.0,0.0,0.0,0.0,-0.0,0.0,0.0,2.457275139,0.0,0.0,1.4600000381469727,0.4099999964237213,76.76000213623047,0.02178955078125,0.04168701171875,1.0145263671875,35.709999084472656,0.0,18.0,0.0432281494140625,-0.0378875732421875,Waiting,0.0,0.0,0.0,0.0,0.0,0.0,0.0,0.0,
3.328618999999977,0.0,0.0,false,4811855.176655161,,0.0,0.0,0.0,0.0,0.0,0.0,1.8395994210000002,0.0,0.0,-8.0,0.0,0.0,-0.0,0.0,0.0,2.670898164,0.0,0.0,0.0,0.0,0.0,0.0,0.0,0.0,4.019774979,0.0,0.0,0.0,0.0,0.0,-0.0,0.0,0.0,2.457275139,0.0,0.0,1.5099999904632568,0.4000000059604645,76.66999816894531,-0.02716064453125,0.03143310546875,1.0,35.709999084472656,0.0,-2.0,0.0430755615234375,-0.037506103515625,Waiting,0.0,0.0,0.0,0.0,0.0,0.0,0.0,0.0,
3.497167999999976,0.0,0.0,false,4811782.461490196,,0.0,0.0,0.0,0.0,0.0,0.0,1.8408201240000002,0.0,0.0,-8.0,0.0,0.0,-0.0,0.0,0.0,2.670898164,0.0,0.0,0.0,0.0,0.0,0.0,0.0,0.0,4.019774979,0.0,0.0,0.0,0.0,0.0,-0.0,0.0,0.0,2.457275139,0.0,0.0,1.6399999856948853,0.5699999928474426,75.8499984741211,0.00860595703125,0.01593017578125,0.9962158203125,35.709999084472656,0.0,-12.0,0.04290771484375,-0.0358734130859375,Waiting,0.0,0.0,0.0,0.0,0.0,0.0,0.0,0.0,
3.6605229999999866,0.0,0.0,false,4811677.795483061,,0.0,0.0,0.0,0.0,0.0,0.0,1.8395994210000002,0.0,0.0,-8.0,0.0,0.0,-0.0,0.0,0.0,2.670898164,0.0,0.0,0.0,0.0,0.0,0.0,0.0,0.0,4.020995682000001,0.0,0.0,0.0,0.0,0.0,-0.0,0.0,0.0,2.457275139,0.0,0.0,1.6399999856948853,0.5799999833106995,74.22000122070312,-0.0032958984375,0.002197265625,0.9920654296875,35.709999084472656,0.0,-28.0,0.0426025390625,-0.0355224609375,Waiting,0.0,0.0,0.0,0.0,0.0,0.0,0.0,0.0,
3.818012999999977,0.0,0.0,false,4811534.671475615,,0.0,0.0,0.0,0.0,0.0,0.0,1.8408201240000002,0.0,0.0,-8.0,0.0,0.0,-0.0,0.0,0.0,2.670898164,0.0,0.0,0.0,0.0,0.0,0.0,0.0,0.0,4.019774979,0.0,0.0,0.0,0.0,0.0,-0.0,0.0,0.0,2.457275139,0.0,0.0,1.399999976158142,0.75,72.7300033569336,0.042724609375,-0.01763916015625,1.04046630859375,35.720001220703125,0.0,-32.0,0.039154052734375,-0.0375213623046875,Waiting,0.0,0.0,0.0,0.0,0.0,0.0,0.0,0.0,
3.98207699999999,0.0,0.0,false,4811353.107557228,,0.0,0.0,0.0,0.0,0.0,0.0,1.8408201240000002,0.0,0.0,-8.0,0.0,0.0,-0.0,0.0,0.0,2.672118867,0.0,0.0,0.0,0.0,0.0,0.0,0.0,0.0,4.020995682000001,0.0,0.0,0.0,0.0,0.0,-0.0,0.0,0.0,2.457275139,0.0,0.0,1.5099999904632568,0.7599999904632568,71.6500015258789,4.8828125E-4,0.03076171875,0.992431640625,35.720001220703125,0.0,0.0,0.037994384765625,-0.038604736328125,Waiting,0.0,0.0,0.0,0.0,0.0,0.0,0.0,0.0,
4.149330999999976,0.0,0.0,false,4811133.442859382,,0.0,0.0,0.0,0.0,0.0,0.0,1.8395994210000002,0.0,0.0,-8.0,0.0,0.0,-0.0,0.0,0.0,2.670898164,0.0,0.0,0.0,0.0,0.0,0.0,0.0,0.0,4.020995682000001,0.0,0.0,0.0,0.0,0.0,-0.0,0.0,0.0,2.457275139,0.0,0.0,1.5299999713897705,0.5299999713897705,69.4800033569336,-0.0234375,0.02813720703125,1.01800537109375,35.720001220703125,0.0,-10.0,0.037994384765625,-0.0366058349609375,Waiting,0.0,0.0,0.0,0.0,0.0,0.0,0.0,0.0,
4.313775999999984,0.0,0.0,false,4811182.922884013,,0.0,0.0,0.0,0.0,0.0,0.0,1.8395994210000002,0.0,0.0,-8.0,0.0,0.0,-0.0,0.0,0.0,2.670898164,0.0,0.0,0.0,0.0,0.0,0.0,0.0,0.0,4.020995682000001,0.0,0.0,0.0,0.0,0.0,-0.0,0.0,0.0,2.456054436,0.0,0.0,1.340000033378601,0.3700000047683716,65.54000091552734,-0.00286865234375,0.03485107421875,0.95135498046875,35.72999954223633,0.0,7.0,0.037689208984375,-0.0321044921875,Waiting,0.0,0.0,0.0,0.0,0.0,0.0,0.0,0.0,
4.473311999999976,0.0,0.0,false,4811194.484876978,,0.0,0.0,0.0,0.0,0.0,0.0,1.8408201240000002,0.0,0.0,-8.0,0.0,0.0,-0.0,0.0,0.0,2.672118867,0.0,0.0,0.0,0.0,0.0,0.0,0.0,0.0,4.019774979,0.0,0.0,0.0,0.0,0.0,-0.0,0.0,0.0,2.457275139,0.0,0.0,1.1399999856948853,0.4399999976158142,61.619998931884766,0.06689453125,-0.01800537109375,1.03192138671875,35.72999954223633,0.0,-6.0,0.0378265380859375,-0.0333709716796875,Waiting,0.0,0.0,0.0,0.0,0.0,0.0,0.0,0.0,
4.630327999999979,0.0,0.0,false,4811167.806957067,,0.0,0.0,0.0,0.0,0.0,0.0,1.8395994210000002,0.0,0.0,-8.0,0.0,0.0,-0.0,0.0,0.0,2.670898164,0.0,0.0,0.0,0.0,0.0,0.0,0.0,0.0,4.019774979,0.0,0.0,0.0,0.0,0.0,-0.0,0.0,0.0,2.457275139,0.0,0.0,1.2999999523162842,0.49000000953674316,58.380001068115234,-0.05377197265625,0.07659912109375,0.96246337890625,35.72999954223633,0.0,13.0,0.0407867431640625,-0.0364532470703125,Waiting,0.0,0.0,0.0,0.0,0.0,0.0,0.0,0.0,
4.794125,0.0,0.0,false,4811103.266802444,,0.0,0.0,0.0,0.0,0.0,0.0,1.8408201240000002,0.0,0.0,-8.0,0.0,0.0,-0.0,0.0,0.0,2.670898164,0.0,0.0,0.0,0.0,0.0,0.0,0.0,0.0,4.019774979,0.0,0.0,0.0,0.0,0.0,-0.0,0.0,0.0,2.452392327,0.0,0.0,1.409999966621399,1.0499999523162842,57.41999816894531,0.09027099609375,0.03399658203125,0.96875,35.689998626708984,0.0,47.0,0.0440673828125,-0.037109375,Waiting,0.0,0.0,0.0,0.0,0.0,0.0,0.0,0.0,
4.951877999999997,0.0,0.0,false,4811000.542606517,,0.0,0.0,0.0,0.0,0.0,0.0,1.8395994210000002,0.0,0.0,-8.0,0.0,0.0,-0.0,0.0,0.0,2.670898164,0.0,0.0,0.0,0.0,0.0,0.0,0.0,0.0,4.020995682000001,0.0,0.0,0.0,0.0,0.0,-0.0,0.0,0.0,2.451171624,0.0,0.0,1.3799999952316284,0.7400000095367432,57.66999816894531,-0.02154541015625,-0.0152587890625,0.9405517578125,35.689998626708984,0.0,-50.0,0.0505218505859375,-0.0374603271484375,Waiting,0.0,0.0,0.0,0.0,0.0,0.0,0.0,0.0,
5.114603999999992,0.0,0.0,false,4810859.991855912,,0.0,0.0,0.0,0.0,0.0,0.0,1.8408201240000002,0.0,0.0,-8.0,0.0,0.0,-0.0,0.0,0.0,2.670898164,0.0,0.0,0.0,0.0,0.0,0.0,0.0,0.0,4.022216385,0.0,0.0,0.0,0.0,0.0,-0.0,0.0,0.0,2.451171624,0.0,0.0,1.4199999570846558,0.7099999785423279,57.529998779296875,0.01544189453125,0.03826904296875,1.04254150390625,35.689998626708984,0.0,11.0,0.051544189453125,-0.037384033203125,Waiting,0.0,0.0,0.0,0.0,0.0,0.0,0.0,0.0,
5.276239999999991,0.0,0.0,false,4810681.311619167,,0.0,0.0,0.0,0.0,0.0,0.0,1.8408201240000002,0.0,0.0,-8.0,0.0,0.0,-0.0,0.0,0.0,2.670898164,0.0,0.0,0.0,0.0,0.0,0.0,0.0,0.0,4.019774979,0.0,0.0,0.0,0.0,0.0,-0.0,0.0,0.0,2.452392327,0.0,0.0,1.3899999856948853,0.7900000214576721,57.40999984741211,0.0047607421875,0.0208740234375,0.9224853515625,35.689998626708984,0.0,-5.0,0.051544189453125,-0.037384033203125,Waiting,0.0,0.0,0.0,0.0,0.0,0.0,0.0,0.0,
5.4398429999999935,0.0,0.0,false,4810470.667292939,,0.0,0.0,0.0,0.0,0.0,0.0,1.8408201240000002,0.0,0.0,-8.0,0.0,0.0,-0.0,0.0,0.0,2.670898164,0.0,0.0,0.0,0.0,0.0,0.0,0.0,0.0,4.019774979,0.0,0.0,0.0,0.0,0.0,-0.0,0.0,0.0,2.451171624,0.0,0.0,1.4900000095367432,0.75,57.43000030517578,0.0267333984375,0.02447509765625,0.98150634765625,35.7400016784668,0.0,6.0,0.051544189453125,-0.0372314453125,Waiting,0.0,0.0,0.0,0.0,0.0,0.0,0.0,0.0,
5.608744999999995,0.0,0.0,false,4810526.641202254,,0.0,0.0,0.0,0.0,0.0,0.0,1.8408201240000002,0.0,0.0,-8.0,0.0,0.0,-0.0,0.0,0.0,2.672118867,0.0,0.0,0.0,0.0,0.0,0.0,0.0,0.0,4.019774979,0.0,0.0,0.0,0.0,0.0,-0.0,0.0,0.0,2.452392327,0.0,0.0,1.4900000095367432,0.7200000286102295,57.65999984741211,-0.0047607421875,0.009521484375,0.978271484375,35.7400016784668,0.0,-22.0,0.0515289306640625,-0.037261962890625,Waiting,0.0,0.0,0.0,0.0,0.0,0.0,0.0,0.0,
5.769503999999986,0.0,0.0,false,4810544.159023321,,0.0,0.0,0.0,0.0,0.0,0.0,1.8408201240000002,0.0,0.0,-8.0,0.0,0.0,-0.0,0.0,0.0,2.670898164,0.0,0.0,0.0,0.0,0.0,0.0,0.0,0.0,4.019774979,0.0,0.0,0.0,0.0,0.0,-0.0,0.0,0.0,2.452392327,0.0,0.0,1.4900000095367432,0.6800000071525574,57.650001525878906,0.01739501953125,0.0189208984375,0.98992919921875,35.7400016784668,0.0,-2.0,0.05145263671875,-0.0364532470703125,Waiting,0.0,0.0,0.0,0.0,0.0,0.0,0.0,0.0,
5.935669999999984,0.0,0.0,false,4810523.56056338,,0.0,0.0,0.0,0.0,0.0,0.0,1.8408201240000002,0.0,0.0,-8.0,0.0,0.0,-0.0,0.0,0.0,2.670898164,0.0,0.0,0.0,0.0,0.0,0.0,0.0,0.0,4.020995682000001,0.0,0.0,0.0,0.0,0.0,-0.0,0.0,0.0,2.452392327,0.0,0.0,1.4900000095367432,0.6299999952316284,57.66999816894531,-0.00823974609375,0.032470703125,1.02032470703125,35.720001220703125,0.0,-5.0,0.05145263671875,-0.0364532470703125,Waiting,0.0,0.0,0.0,0.0,0.0,0.0,0.0,0.0,
6.104978000000003,0.0,0.0,false,4810464.542012204,,0.0,0.0,0.0,0.0,0.0,0.0,1.8408201240000002,0.0,0.0,-8.0,0.0,0.0,-0.0,0.0,0.0,2.668456758,0.0,0.0,0.0,0.0,0.0,0.0,0.0,0.0,4.019774979,0.0,0.0,0.0,0.0,0.0,-0.0,0.0,0.0,2.451171624,0.0,0.0,1.4900000095367432,0.6299999952316284,57.65999984741211,0.01336669921875,0.0208740234375,1.00250244140625,35.720001220703125,0.0,-3.0,0.05145263671875,-0.0364532470703125,Waiting,0.0,0.0,0.0,0.0,0.0,0.0,0.0,0.0,
6.267804999999993,0.0,0.0,false,4810367.141426783,,0.0,0.0,0.0,0.0,0.0,0.0,1.8395994210000002,0.0,0.0,-8.0,0.0,0.0,-0.0,0.0,0.0,2.670898164,0.0,0.0,0.0,0.0,0.0,0.0,0.0,0.0,4.018554276000001,0.0,0.0,0.0,0.0,0.0,-0.0,0.0,0.0,2.451171624,0.0,0.0,1.4900000095367432,0.5899999737739563,57.66999816894531,0.0072021484375,0.02801513671875,0.9930419921875,35.720001220703125,0.0,0.0,0.05145263671875,-0.0364532470703125,Waiting,0.0,0.0,0.0,0.0,0.0,0.0,0.0,0.0,
6.428198999999993,0.0,0.0,false,4810231.697168779,,0.0,0.0,0.0,0.0,0.0,0.0,1.8408201240000002,0.0,0.0,-8.0,0.0,0.0,-0.0,0.0,0.0,2.670898164,0.0,0.0,0.0,0.0,0.0,0.0,0.0,0.0,4.020995682000001,0.0,0.0,0.0,0.0,0.0,-0.0,0.0,0.0,2.452392327,0.0,0.0,1.4600000381469727,0.5799999833106995,57.650001525878906,0.0076904296875,0.0179443359375,0.9954833984375,35.70000076293945,0.0,-7.0,0.05145263671875,-0.0364532470703125,Waiting,0.0,0.0,0.0,0.0,0.0,0.0,0.0,0.0,
6.591348999999988,0.0,0.0,false,4810057.906787613,,0.0,0.0,0.0,0.0,0.0,0.0,1.8395994210000002,0.0,0.0,-8.0,0.0,0.0,-0.0,0.0,0.0,2.672118867,0.0,0.0,0.0,0.0,0.0,0.0,0.0,0.0,4.019774979,0.0,0.0,0.0,0.0,0.0,-0.0,0.0,0.0,2.452392327,0.0,0.0,1.4900000095367432,0.6200000047683716,57.61000061035156,0.0159912109375,0.0211181640625,1.00732421875,35.70000076293945,0.0,-1.0,0.05145263671875,-0.0364532470703125,Waiting,0.0,0.0,0.0,0.0,0.0,0.0,0.0,0.0,
6.755818,0.0,0.0,false,4809851.97185301,,0.0,0.0,0.0,0.0,0.0,0.0,1.8395994210000002,0.0,0.0,-8.0,0.0,0.0,-0.0,0.0,0.0,2.669677461,0.0,0.0,0.0,0.0,0.0,0.0,0.0,0.0,4.019774979,0.0,0.0,0.0,0.0,0.0,-0.0,0.0,0.0,2.452392327,0.0,0.0,1.4800000190734863,0.6200000047683716,57.59000015258789,0.02777099609375,0.02655029296875,0.99432373046875,35.70000076293945,0.0,9.0,0.051483154296875,-0.0365447998046875,Waiting,0.0,0.0,0.0,0.0,0.0,0.0,0.0,0.0,
6.927384999999981,0.0,0.0,false,4809907.956222639,,0.0,0.0,0.0,0.0,0.0,0.0,1.8408201240000002,0.0,0.0,-8.0,0.0,0.0,-0.0,0.0,0.0,2.670898164,0.0,0.0,0.0,0.0,0.0,0.0,0.0,0.0,4.019774979,0.0,0.0,0.0,0.0,0.0,-0.0,0.0,0.0,2.452392327,0.0,0.0,1.4500000476837158,0.5199999809265137,57.68000030517578,-0.0086669921875,-0.00927734375,0.99176025390625,35.720001220703125,0.0,-38.0,0.051300048828125,-0.03662109375,Waiting,0.0,0.0,0.0,0.0,0.0,0.0,0.0,0.0,
7.085307000000001,0.0,0.0,false,4809925.532593403,,0.0,0.0,0.0,0.0,0.0,0.0,1.8408201240000002,0.0,0.0,-8.0,0.0,0.0,-0.0,0.0,0.0,2.670898164,0.0,0.0,0.0,0.0,0.0,0.0,0.0,0.0,4.020995682000001,0.0,0.0,0.0,0.0,0.0,-0.0,0.0,0.0,2.451171624,0.0,0.0,1.5800000429153442,0.5600000023841858,57.70000076293945,-0.044921875,0.03240966796875,1.08502197265625,35.720001220703125,0.0,-27.0,0.0510101318359375,-0.0369720458984375,Waiting,0.0,0.0,0.0,0.0,0.0,0.0,0.0,0.0,
7.2454169999999865,0.0,0.0,false,4809911.221006565,,0.0,0.0,0.0,0.0,0.0,0.0,1.8395994210000002,0.0,0.0,-8.0,0.0,0.0,-0.0,0.0,0.0,2.670898164,0.0,0.0,0.0,0.0,0.0,0.0,0.0,0.0,4.019774979,0.0,0.0,0.0,0.0,0.0,-0.0,0.0,0.0,2.452392327,0.0,0.0,1.4700000286102295,0.5299999713897705,57.75,0.03057861328125,-0.0023193359375,1.06890869140625,35.720001220703125,0.0,-14.0,0.05157470703125,-0.036956787109375,Waiting,0.0,0.0,0.0,0.0,0.0,0.0,0.0,0.0,
7.411930999999982,0.0,0.0,false,4809858.535396156,,0.0,0.0,0.0,0.0,0.0,0.0,1.8408201240000002,0.0,0.0,-8.0,0.0,0.0,-0.0,0.0,0.0,2.670898164,0.0,0.0,0.0,0.0,0.0,0.0,0.0,0.0,4.020995682000001,0.0,0.0,0.0,0.0,0.0,-0.0,0.0,0.0,2.452392327,0.0,0.0,1.4700000286102295,0.550000011920929,57.939998626708984,0.02313232421875,0.0335693359375,0.9344482421875,35.7599983215332,0.0,15.0,0.0510101318359375,-0.038299560546875,Waiting,0.0,0.0,0.0,0.0,0.0,0.0,0.0,0.0,
7.57001999999999,0.0,0.0,false,4809767.83375,,0.0,0.0,0.0,0.0,0.0,0.0,1.8408201240000002,0.0,0.0,-8.0,0.0,0.0,-0.0,0.0,0.0,2.670898164,0.0,0.0,0.0,0.0,0.0,0.0,0.0,0.0,4.019774979,0.0,0.0,0.0,0.0,0.0,-0.0,0.0,0.0,2.452392327,0.0,0.0,1.5499999523162842,0.49000000953674316,57.83000183105469,-0.01092529296875,-0.015625,0.94921875,35.7599983215332,0.0,-45.0,0.0521087646484375,-0.0380706787109375,Waiting,0.0,0.0,0.0,0.0,0.0,0.0,0.0,0.0,
7.729364999999991,0.0,0.0,false,4809638.813935323,,0.0,0.0,0.0,0.0,0.0,0.0,1.8408201240000002,0.0,0.0,-8.0,0.0,0.0,-0.0,0.0,0.0,2.670898164,0.0,0.0,0.0,0.0,0.0,0.0,0.0,0.0,4.018554276000001,0.0,0.0,0.0,0.0,0.0,-0.0,0.0,0.0,2.451171624,0.0,0.0,1.4199999570846558,0.5400000214576721,57.880001068115234,0.017578125,0.045166015625,1.0582275390625,35.7599983215332,0.0,17.0,0.05035400390625,-0.0391845703125,Waiting,0.0,0.0,0.0,0.0,0.0,0.0,0.0,0.0,
7.891359999999986,0.0,0.0,false,4809471.813808185,,0.0,0.0,0.0,0.0,0.0,0.0,1.8395994210000002,0.0,0.0,-8.0,0.0,0.0,-0.0,0.0,0.0,2.670898164,0.0,0.0,0.0,0.0,0.0,0.0,0.0,0.0,4.019774979,0.0,0.0,0.0,0.0,0.0,-0.0,0.0,0.0,2.452392327,0.0,0.0,1.5199999809265137,0.4699999988079071,58.02000045776367,0.03448486328125,0.0362548828125,0.970947265625,35.7400016784668,0.0,22.0,0.050445556640625,-0.0367431640625,Waiting,0.0,0.0,0.0,0.0,0.0,0.0,0.0,0.0,
8.048758999999992,0.0,0.0,false,4809266.531313447,,0.0,0.0,0.0,0.0,0.0,0.0,1.8408201240000002,0.0,0.0,-8.0,0.0,0.0,-0.0,0.0,0.0,2.670898164,0.0,0.0,0.0,0.0,0.0,0.0,0.0,0.0,4.019774979,0.0,0.0,0.0,0.0,0.0,-0.0,0.0,0.0,2.451171624,0.0,0.0,1.399999976158142,0.46000000834465027,57.84000015258789,-0.03387451171875,-0.02374267578125,0.95745849609375,35.7400016784668,0.0,-62.0,0.0506591796875,-0.0371551513671875,Waiting,0.0,0.0,0.0,0.0,0.0,0.0,0.0,0.0,
8.21470199999999,0.0,0.0,false,4809328.789506558,,0.0,0.0,0.0,0.0,0.0,0.0,1.8408201240000002,0.0,0.0,-8.0,0.0,0.0,-0.0,0.0,0.0,2.670898164,0.0,0.0,0.0,0.0,0.0,0.0,0.0,0.0,4.019774979,0.0,0.0,0.0,0.0,0.0,-0.0,0.0,0.0,2.451171624,0.0,0.0,1.4700000286102295,0.46000000834465027,58.06999969482422,-0.05047607421875,0.03662109375,1.10174560546875,35.7400016784668,0.0,-24.0,0.04736328125,-0.0356292724609375,Waiting,0.0,0.0,0.0,0.0,0.0,0.0,0.0,0.0,
8.373667999999975,0.0,0.0,false,4809352.685714286,,0.0,0.0,0.0,0.0,0.0,0.0,1.8395994210000002,0.0,0.0,-8.0,0.0,0.0,-0.0,0.0,0.0,2.670898164,0.0,0.0,0.0,0.0,0.0,0.0,0.0,0.0,4.019774979,0.0,0.0,0.0,0.0,0.0,-0.0,0.0,0.0,2.45361303,0.0,0.0,0.9399999976158142,1.1699999570846558,58.97999954223633,0.02667236328125,-0.0565185546875,1.05584716796875,35.7599983215332,0.0,-60.0,0.0429840087890625,-0.02984619140625,Waiting,0.0,0.0,0.0,0.0,0.0,0.0,0.0,0.0,
8.539557,0.0,0.0,false,4809338.558851077,,0.0,0.0,0.0,0.0,0.0,0.0,1.8408201240000002,0.0,0.0,-8.0,0.0,0.0,-0.0,0.0,0.0,2.670898164,0.0,0.0,0.0,0.0,0.0,0.0,0.0,0.0,4.020995682000001,0.0,0.0,0.0,0.0,0.0,-0.0,0.0,0.0,2.452392327,0.0,0.0,0.7400000095367432,1.5800000429153442,59.65999984741211,0.1044921875,-0.0089111328125,1.02252197265625,35.7599983215332,0.0,19.0,0.0370025634765625,-0.0306243896484375,Waiting,0.0,0.0,0.0,0.0,0.0,0.0,0.0,0.0,
8.695677999999985,0.0,0.0,false,4809292.597471516,,0.0,0.0,0.0,0.0,0.0,0.0,1.8408201240000002,0.0,0.0,-8.0,0.0,0.0,-0.0,0.0,0.0,2.670898164,0.0,0.0,0.0,0.0,0.0,0.0,0.0,0.0,4.019774979,0.0,0.0,0.0,0.0,0.0,-0.0,0.0,0.0,2.452392327,0.0,0.0,1.0199999809265137,1.7200000286102295,59.84000015258789,0.08123779296875,0.04571533203125,0.9737548828125,35.7599983215332,0.0,50.0,0.0396728515625,-0.035003662109375,Waiting,0.0,0.0,0.0,0.0,0.0,0.0,0.0,0.0,
8.86137599999999,0.0,0.0,false,4809208.345817728,,0.0,0.0,0.0,0.0,0.0,0.0,1.8408201240000002,0.0,0.0,-8.0,0.0,0.0,-0.0,0.0,0.0,2.670898164,0.0,0.0,0.0,0.0,0.0,0.0,0.0,0.0,4.019774979,0.0,0.0,0.0,0.0,0.0,-0.0,0.0,0.0,2.451171624,0.0,0.0,1.2699999809265137,0.800000011920929,59.529998779296875,-0.12188720703125,0.12054443359375,0.9886474609375,35.7599983215332,0.0,16.0,0.0458221435546875,-0.0383148193359375,Waiting,0.0,0.0,0.0,0.0,0.0,0.0,0.0,0.0,
9.020001999999979,0.0,0.0,false,4809085.821813076,,0.0,0.0,0.0,0.0,0.0,0.0,1.8408201240000002,0.0,0.0,-8.0,0.0,0.0,-0.0,0.0,0.0,2.670898164,0.0,0.0,0.0,0.0,0.0,0.0,0.0,0.0,4.014892167,0.0,0.0,0.0,0.0,0.0,-0.0,0.0,0.0,2.451171624,0.0,0.0,1.559999942779541,0.46000000834465027,59.52000045776367,0.00408935546875,0.04693603515625,0.98150634765625,35.7599983215332,0.0,15.0,0.050262451171875,-0.0360565185546875,Waiting,0.0,0.0,0.0,0.0,0.0,0.0,0.0,0.0,
9.190923999999999,0.0,0.0,false,4808919.193759751,,0.0,0.0,0.0,0.0,0.0,0.0,1.8395994210000002,0.0,0.0,-8.0,0.0,0.0,-0.0,0.0,0.0,2.670898164,0.0,0.0,0.0,0.0,0.0,0.0,0.0,0.0,4.019774979,0.0,0.0,0.0,0.0,0.0,-0.0,0.0,0.0,2.451171624,0.0,0.0,1.4600000381469727,0.550000011920929,59.369998931884766,0.02911376953125,0.0126953125,0.98370361328125,35.7599983215332,0.0,0.0,0.0501251220703125,-0.0368194580078125,Waiting,0.0,0.0,0.0,0.0,0.0,0.0,0.0,0.0,
9.36994199999998,0.0,0.0,false,4808720.499142099,,0.0,0.0,0.0,0.0,0.0,0.0,1.8408201240000002,0.0,0.0,-8.0,0.0,0.0,-0.0,0.0,0.0,2.672118867,0.0,0.0,0.0,0.0,0.0,0.0,0.0,0.0,4.019774979,0.0,0.0,0.0,0.0,0.0,-0.0,0.0,0.0,2.451171624,0.0,0.0,1.5,0.46000000834465027,59.400001525878906,0.0242919921875,0.027099609375,0.96063232421875,35.7400016784668,0.0,10.0,0.0501251220703125,-0.0367279052734375,Waiting,0.0,0.0,0.0,0.0,0.0,0.0,0.0,0.0,
9.553891000000004,0.0,0.0,false,4808788.701185278,,0.0,0.0,0.0,0.0,0.0,0.0,1.8408201240000002,0.0,0.0,-8.0,0.0,0.0,-0.0,0.0,0.0,2.670898164,0.0,0.0,0.0,0.0,0.0,0.0,0.0,0.0,4.014892167,0.0,0.0,0.0,0.0,0.0,-0.0,0.0,0.0,2.452392327,0.0,0.0,1.4800000190734863,0.49000000953674316,59.470001220703125,-0.00665283203125,0.04864501953125,1.048828125,35.7400016784668,0.0,10.0,0.0505523681640625,-0.0367584228515625,Waiting,0.0,0.0,0.0,0.0,0.0,0.0,0.0,0.0,
9.72959599999999,0.0,0.0,false,4808818.926555434,,0.0,0.0,0.0,0.0,0.0,0.0,1.8408201240000002,0.0,0.0,-8.0,0.0,0.0,-0.0,0.0,0.0,2.670898164,0.0,0.0,0.0,0.0,0.0,0.0,0.0,0.0,4.020995682000001,0.0,0.0,0.0,0.0,0.0,-0.0,0.0,0.0,2.451171624,0.0,0.0,1.2599999904632568,0.5,59.63999938964844,-0.02545166015625,0.00201416015625,0.9798583984375,35.7400016784668,0.0,-34.0,0.050689697265625,-0.0333099365234375,Waiting,0.0,0.0,0.0,0.0,0.0,0.0,0.0,0.0,
9.908332999999985,0.0,0.0,false,4808810.835048332,,0.0,0.0,0.0,0.0,0.0,0.0,1.8408201240000002,0.0,0.0,-8.0,0.0,0.0,-0.0,0.0,0.0,2.670898164,0.0,0.0,0.0,0.0,0.0,0.0,0.0,0.0,4.014892167,0.0,0.0,0.0,0.0,0.0,-0.0,0.0,0.0,2.451171624,0.0,0.0,0.800000011920929,0.05999999865889549,61.189998626708984,-0.072509765625,-0.00286865234375,0.93359375,35.709999084472656,0.0,-49.0,0.0456085205078125,-0.0310821533203125,Waiting,0.0,0.0,0.0,0.0,0.0,0.0,0.0,0.0,
10.089573000000003,0.0,0.0,false,4808764.464536243,,0.0,0.0,0.0,0.0,0.0,0.0,1.8408201240000002,0.0,0.0,-8.0,0.0,0.0,-0.0,0.0,0.0,2.670898164,0.0,0.0,0.0,0.0,0.0,0.0,0.0,0.0,4.016112870000001,0.0,0.0,0.0,0.0,0.0,-0.0,0.0,0.0,2.451171624,0.0,0.0,0.5600000023841858,-0.20999999344348907,64.44000244140625,0.0028076171875,0.01629638671875,1.03857421875,35.709999084472656,0.0,8.0,0.0353546142578125,-0.02276611328125,Waiting,0.0,0.0,0.0,0.0,0.0,0.0,0.0,0.0,
10.267281999999977,0.0,0.0,false,4808679.851620948,,0.0,0.0,0.0,0.0,0.0,0.0,1.8408201240000002,0.0,0.0,-8.0,0.0,0.0,-0.0,0.0,0.0,2.670898164,0.0,0.0,0.0,0.0,0.0,0.0,0.0,0.0,4.014892167,0.0,0.0,0.0,0.0,0.0,-0.0,0.0,0.0,2.452392327,0.0,0.0,0.17000000178813934,-0.5099999904632568,68.11000061035156,-0.0015869140625,0.0093994140625,0.97705078125,35.709999084472656,0.0,8.0,0.0348663330078125,-0.021697998046875,Waiting,0.0,0.0,0.0,0.0,0.0,0.0,0.0,0.0,
10.430050999999978,0.0,0.0,false,4808557.014181081,,0.0,0.0,0.0,0.0,0.0,0.0,1.8395994210000002,0.0,0.0,-8.0,0.0,0.0,-0.0,0.0,0.0,2.670898164,0.0,0.0,0.0,0.0,0.0,0.0,0.0,0.0,4.016112870000001,0.0,0.0,0.0,0.0,0.0,-0.0,0.0,0.0,2.452392327,0.0,0.0,0.11999999731779099,-0.07999999821186066,71.58000183105469,0.08929443359375,-0.0167236328125,0.938232421875,35.689998626708984,0.0,10.0,0.0366058349609375,-0.02581787109375,Waiting,0.0,0.0,0.0,0.0,0.0,0.0,0.0,0.0,
10.604781999999977,0.0,0.0,false,4808396.289186662,,0.0,0.0,0.0,0.0,0.0,0.0,1.8408201240000002,0.0,0.0,-8.0,0.0,0.0,-0.0,0.0,0.0,2.670898164,0.0,0.0,0.0,0.0,0.0,0.0,0.0,0.0,4.014892167,0.0,0.0,0.0,0.0,0.0,-0.0,0.0,0.0,2.451171624,0.0,0.0,0.8399999737739563,1.100000023841858,73.61000061035156,0.22601318359375,0.12103271484375,1.04296875,35.689998626708984,0.0,159.0,0.0374603271484375,-0.0482635498046875,Waiting,0.0,0.0,0.0,0.0,0.0,0.0,0.0,0.0,
10.780952999999979,0.0,0.0,false,4808197.375292102,,0.0,0.0,0.0,0.0,0.0,0.0,1.8408201240000002,0.0,0.0,-8.0,0.0,0.0,-0.0,0.0,0.0,2.672118867,0.0,0.0,0.0,0.0,0.0,0.0,0.0,0.0,4.016112870000001,0.0,0.0,0.0,0.0,0.0,-0.0,0.0,0.0,2.442626703,0.0,0.0,1.5099999904632568,1.0299999713897705,73.41000366210938,-0.08929443359375,0.03125,0.9908447265625,35.689998626708984,0.0,-25.0,0.054046630859375,-0.0885162353515625,Waiting,0.0,0.0,0.0,0.0,0.0,0.0,0.0,0.0,
10.949949999999983,0.0,0.0,false,4808266.093457944,,0.0,0.0,0.0,0.0,0.0,0.0,1.8408201240000002,0.0,0.0,-8.0,0.0,0.0,-0.0,0.0,0.0,2.670898164,0.0,0.0,0.0,0.0,0.0,0.0,0.0,0.0,4.014892167,0.0,0.0,0.0,0.0,0.0,-0.0,0.0,0.0,2.452392327,0.0,0.0,1.309999942779541,0.6600000262260437,73.41000366210938,0.052734375,-0.0074462890625,1.00872802734375,35.72999954223633,0.0,-17.0,0.0692596435546875,-0.1201629638671875,Waiting,0.0,0.0,0.0,0.0,0.0,0.0,0.0,0.0,
11.109717999999994,0.0,0.0,false,4808296.816072263,,0.0,0.0,0.0,0.0,0.0,0.0,1.8395994210000002,0.0,0.0,-8.0,0.0,0.0,-0.0,0.0,0.0,2.672118867,0.0,0.0,0.0,0.0,0.0,0.0,0.0,0.0,4.016112870000001,0.0,0.0,0.0,0.0,0.0,-0.0,0.0,0.0,2.452392327,0.0,0.0,1.4600000381469727,0.6899999976158142,73.4000015258789,-0.02691650390625,0.057861328125,1.01776123046875,35.72999954223633,0.0,19.0,0.0702056884765625,-0.137969970703125,Waiting,0.0,0.0,0.0,0.0,0.0,0.0,0.0,0.0,
11.271638999999995,0.0,0.0,false,4808289.530987231,,0.0,0.0,0.0,0.0,0.0,0.0,1.8395994210000002,0.0,0.0,-8.0,0.0,0.0,-0.0,0.0,0.0,2.670898164,0.0,0.0,0.0,0.0,0.0,0.0,0.0,0.0,4.014892167,0.0,0.0,0.0,0.0,0.0,-0.0,0.0,0.0,2.451171624,0.0,0.0,1.440000057220459,0.7099999785423279,73.37999725341797,0.0408935546875,0.00653076171875,0.995361328125,35.72999954223633,0.0,-9.0,0.0702056884765625,-0.1366119384765625,Waiting,0.0,0.0,0.0,0.0,0.0,0.0,0.0,0.0,
11.436217000000005,0.0,0.0,false,4808244.275883543,,0.0,0.0,0.0,0.0,0.0,0.0,1.8395994210000002,0.0,0.0,-8.0,0.0,0.0,-0.0,0.0,0.0,2.670898164,0.0,0.0,0.0,0.0,0.0,0.0,0.0,0.0,4.014892167,0.0,0.0,0.0,0.0,0.0,-0.0,0.0,0.0,2.452392327,0.0,0.0,1.4500000476837158,0.6100000143051147,73.4000015258789,-0.00396728515625,0.038330078125,1.0018310546875,35.70000076293945,0.0,8.0,0.0702056884765625,-0.136383056640625,Waiting,0.0,0.0,0.0,0.0,0.0,0.0,0.0,0.0,
11.60011599999998,0.0,0.0,false,4808161.405977584,,0.0,0.0,0.0,0.0,0.0,0.0,1.8408201240000002,0.0,0.0,-8.0,0.0,0.0,-0.0,0.0,0.0,2.670898164,0.0,0.0,0.0,0.0,0.0,0.0,0.0,0.0,4.016112870000001,0.0,0.0,0.0,0.0,0.0,-0.0,0.0,0.0,2.451171624,0.0,0.0,1.4299999475479126,0.6700000166893005,73.41000366210938,-0.0023193359375,0.02239990234375,1.00439453125,35.70000076293945,0.0,-6.0,0.0702056884765625,-0.1363067626953125,Waiting,0.0,0.0,0.0,0.0,0.0,0.0,0.0,0.0,
11.768375,0.0,0.0,false,4808040.620077821,,0.0,0.0,0.0,0.0,0.0,0.0,1.8408201240000002,0.0,0.0,-8.0,0.0,0.0,-0.0,0.0,0.0,2.670898164,0.0,0.0,0.0,0.0,0.0,0.0,0.0,0.0,4.014892167,0.0,0.0,0.0,0.0,0.0,-0.0,0.0,0.0,2.452392327,0.0,0.0,1.440000057220459,0.6499999761581421,73.45999908447266,0.01983642578125,0.017578125,0.992919921875,35.70000076293945,0.0,-4.0,0.0702056884765625,-0.1361541748046875,Waiting,0.0,0.0,0.0,0.0,0.0,0.0,0.0,0.0,
11.929508000000002,0.0,0.0,false,4807882.2545907255,,0.0,0.0,0.0,0.0,0.0,0.0,1.8408201240000002,0.0,0.0,-8.0,0.0,0.0,-0.0,0.0,0.0,2.670898164,0.0,0.0,0.0,0.0,0.0,0.0,0.0,0.0,4.016112870000001,0.0,0.0,0.0,0.0,0.0,-0.0,0.0,0.0,2.452392327,0.0,0.0,1.3700000047683716,0.6299999952316284,73.45999908447266,0.022705078125,0.06622314453125,1.0008544921875,35.709999084472656,0.0,43.0,0.070220947265625,-0.1361541748046875,Waiting,0.0,0.0,0.0,0.0,0.0,0.0,0.0,0.0,
12.089951000000001,0.0,0.0,false,4807686.008402054,,0.0,0.0,0.0,0.0,0.0,0.0,1.8395994210000002,0.0,0.0,-8.0,0.0,0.0,-0.0,0.0,0.0,2.670898164,0.0,0.0,0.0,0.0,0.0,0.0,0.0,0.0,4.014892167,0.0,0.0,0.0,0.0,0.0,-0.0,0.0,0.0,2.452392327,0.0,0.0,1.3300000429153442,0.6499999761581421,73.43000030517578,0.00506591796875,0.0302734375,1.00177001953125,35.709999084472656,0.0,4.0,0.070404052734375,-0.1363525390625,Waiting,0.0,0.0,0.0,0.0,0.0,0.0,0.0,0.0,
12.26791399999999,0.0,0.0,false,4807761.83322962,,0.0,0.0,0.0,0.0,0.0,0.0,1.8395994210000002,0.0,0.0,-8.0,0.0,0.0,-0.0,0.0,0.0,2.670898164,0.0,0.0,0.0,0.0,0.0,0.0,0.0,0.0,4.014892167,0.0,0.0,0.0,0.0,0.0,-0.0,0.0,0.0,2.452392327,0.0,0.0,1.4199999570846558,0.5899999737739563,73.38999938964844,0.01104736328125,0.0146484375,1.00286865234375,35.709999084472656,0.0,-9.0,0.0705413818359375,-0.1362457275390625,Waiting,0.0,0.0,0.0,0.0,0.0,0.0,0.0,0.0,
12.431087,0.0,0.0,false,4807792.963135791,,0.0,0.0,0.0,0.0,0.0,0.0,1.8408201240000002,0.0,0.0,-8.0,0.0,0.0,-0.0,0.0,0.0,2.670898164,0.0,0.0,0.0,0.0,0.0,0.0,0.0,0.0,4.016112870000001,0.0,0.0,0.0,0.0,0.0,-0.0,0.0,0.0,2.451171624,0.0,0.0,1.399999976158142,0.5799999833106995,73.37000274658203,0.005126953125,0.03033447265625,0.9775390625,35.689998626708984,0.0,4.0,0.0705413818359375,-0.1362457275390625,Waiting,0.0,0.0,0.0,0.0,0.0,0.0,0.0,0.0,
12.593918999999994,0.0,0.0,false,4807786.132503888,,0.0,0.0,0.0,0.0,0.0,0.0,1.8408201240000002,0.0,0.0,-8.0,0.0,0.0,-0.0,0.0,0.0,2.670898164,0.0,0.0,0.0,0.0,0.0,0.0,0.0,0.0,4.014892167,0.0,0.0,0.0,0.0,0.0,-0.0,0.0,0.0,2.452392327,0.0,0.0,1.4199999570846558,0.5799999833106995,73.36000061035156,0.01190185546875,0.02886962890625,1.01904296875,35.689998626708984,0.0,3.0,0.0705413818359375,-0.1362457275390625,Waiting,0.0,0.0,0.0,0.0,0.0,0.0,0.0,0.0,
12.759165999999997,0.0,0.0,false,4807741.697403204,,0.0,0.0,0.0,0.0,0.0,0.0,1.8408201240000002,0.0,0.0,-8.0,0.0,0.0,-0.0,0.0,0.0,2.670898164,0.0,0.0,0.0,0.0,0.0,0.0,0.0,0.0,4.014892167,0.0,0.0,0.0,0.0,0.0,-0.0,0.0,0.0,2.452392327,0.0,0.0,1.409999966621399,0.5699999928474426,73.36000061035156,-0.0032958984375,0.0152587890625,1.00531005859375,35.689998626708984,0.0,-13.0,0.0705413818359375,-0.1362457275390625,Waiting,0.0,0.0,0.0,0.0,0.0,0.0,0.0,0.0,
12.919891000000003,0.0,0.0,false,4807665.480099503,,0.0,0.0,0.0,0.0,0.0,0.0,1.8408201240000002,0.0,0.0,-8.0,0.0,0.0,-0.0,0.0,0.0,2.672118867,0.0,0.0,0.0,0.0,0.0,0.0,0.0,0.0,4.014892167,0.0,0.0,0.0,0.0,0.0,-0.0,0.0,0.0,2.452392327,0.0,0.0,1.4199999570846558,0.5699999928474426,73.3499984741211,0.00787353515625,0.02618408203125,0.98040771484375,35.689998626708984,0.0,1.0,0.0704498291015625,-0.1362457275390625,Waiting,0.0,0.0,0.0,0.0,0.0,0.0,0.0,0.0,
13.075997000000003,0.0,0.0,false,4807551.39188559,,0.0,0.0,0.0,0.0,0.0,0.0,1.8408201240000002,0.0,0.0,-8.0,0.0,0.0,-0.0,0.0,0.0,2.670898164,0.0,0.0,0.0,0.0,0.0,0.0,0.0,0.0,4.016112870000001,0.0,0.0,0.0,0.0,0.0,-0.0,0.0,0.0,2.452392327,0.0,0.0,1.399999976158142,0.5400000214576721,73.33000183105469,0.006591796875,0.01568603515625,1.009521484375,35.720001220703125,0.0,-9.0,0.0704498291015625,-0.1362457275390625,Waiting,0.0,0.0,0.0,0.0,0.0,0.0,0.0,0.0,
13.236755999999994,0.0,0.0,false,4807399.768728629,,0.0,0.0,0.0,0.0,0.0,0.0,1.8408201240000002,0.0,0.0,-8.0,0.0,0.0,-0.0,0.0,0.0,2.670898164,0.0,0.0,0.0,0.0,0.0,0.0,0.0,0.0,4.016112870000001,0.0,0.0,0.0,0.0,0.0,-0.0,0.0,0.0,2.452392327,0.0,0.0,1.4199999570846558,0.550000011920929,73.31999969482422,0.01959228515625,0.02764892578125,0.9869384765625,35.720001220703125,0.0,5.0,0.0704498291015625,-0.1362457275390625,Waiting,0.0,0.0,0.0,0.0,0.0,0.0,0.0,0.0,
13.409236000000005,0.0,0.0,false,4807210.30986791,,0.0,0.0,0.0,0.0,0.0,0.0,1.8408201240000002,0.0,0.0,-8.0,0.0,0.0,-0.0,0.0,0.0,2.672118867,0.0,0.0,0.0,0.0,0.0,0.0,0.0,0.0,4.016112870000001,0.0,0.0,0.0,0.0,0.0,-0.0,0.0,0.0,2.452392327,0.0,0.0,1.4199999570846558,0.5600000023841858,73.33999633789062,0.0015869140625,0.029052734375,1.00604248046875,35.720001220703125,0.0,1.0,0.0704498291015625,-0.1362457275390625,Waiting,0.0,0.0,0.0,0.0,0.0,0.0,0.0,0.0,
13.572550999999978,0.0,0.0,false,4807286.1118707275,,0.0,0.0,0.0,0.0,0.0,0.0,1.8408201240000002,0.0,0.0,-8.0,0.0,0.0,-0.0,0.0,0.0,2.670898164,0.0,0.0,0.0,0.0,0.0,0.0,0.0,0.0,4.016112870000001,0.0,0.0,0.0,0.0,0.0,-0.0,0.0,0.0,2.452392327,0.0,0.0,1.440000057220459,0.6000000238418579,73.3499984741211,0.02410888671875,0.02178955078125,1.0198974609375,35.709999084472656,0.0,0.0,0.0704498291015625,-0.1362457275390625,Waiting,0.0,0.0,0.0,0.0,0.0,0.0,0.0,0.0,
13.731286999999982,0.0,0.0,false,4807323.090880845,,0.0,0.0,0.0,0.0,0.0,0.0,1.8408201240000002,0.0,0.0,-8.0,0.0,0.0,-0.0,0.0,0.0,2.670898164,0.0,0.0,0.0,0.0,0.0,0.0,0.0,0.0,4.016112870000001,0.0,0.0,0.0,0.0,0.0,-0.0,0.0,0.0,2.452392327,0.0,0.0,1.3799999952316284,0.6100000143051147,73.36000061035156,0.01123046875,0.0247802734375,0.99273681640625,35.709999084472656,0.0,0.0,0.0704498291015625,-0.1362457275390625,Waiting,0.0,0.0,0.0,0.0,0.0,0.0,0.0,0.0,
13.893046999999992,0.0,0.0,false,4807321.921093508,,0.0,0.0,0.0,0.0,0.0,0.0,1.8408201240000002,0.0,0.0,-8.0,0.0,0.0,-0.0,0.0,0.0,2.670898164,0.0,0.0,0.0,0.0,0.0,0.0,0.0,0.0,4.017333573,0.0,0.0,0.0,0.0,0.0,-0.0,0.0,0.0,2.451171624,0.0,0.0,1.3899999856948853,0.6100000143051147,73.37999725341797,-7.32421875E-4,0.0220947265625,0.99505615234375,35.709999084472656,0.0,-5.0,0.0704498291015625,-0.1362457275390625,Waiting,0.0,0.0,0.0,0.0,0.0,0.0,0.0,0.0,
14.055811999999976,0.0,0.0,false,4807282.937102035,,0.0,0.0,0.0,0.0,0.0,0.0,1.8408201240000002,0.0,0.0,-8.0,0.0,0.0,-0.0,0.0,0.0,2.670898164,0.0,0.0,0.0,0.0,0.0,0.0,0.0,0.0,4.016112870000001,0.0,0.0,0.0,0.0,0.0,-0.0,0.0,0.0,2.452392327,0.0,0.0,1.3700000047683716,0.6000000238418579,73.33999633789062,4.2724609375E-4,0.0308837890625,1.0,35.720001220703125,0.0,3.0,0.0704498291015625,-0.1362457275390625,Waiting,0.0,0.0,0.0,0.0,0.0,0.0,0.0,0.0,
14.216277000000002,0.0,0.0,false,4807206.176397515,,0.0,0.0,0.0,0.0,0.0,0.0,1.8395994210000002,0.0,0.0,-8.0,0.0,0.0,-0.0,0.0,0.0,2.670898164,0.0,0.0,0.0,0.0,0.0,0.0,0.0,0.0,4.014892167,0.0,0.0,0.0,0.0,0.0,-0.0,0.0,0.0,2.451171624,0.0,0.0,1.409999966621399,0.5400000214576721,73.33999633789062,0.01873779296875,0.02545166015625,1.0029296875,35.720001220703125,0.0,3.0,0.0704498291015625,-0.1362457275390625,Waiting,0.0,0.0,0.0,0.0,0.0,0.0,0.0,0.0,
14.381318999999989,0.0,0.0,false,4807097.476789318,,0.0,0.0,0.0,0.0,0.0,0.0,1.8408201240000002,0.0,0.0,-8.0,0.0,0.0,-0.0,0.0,0.0,2.670898164,0.0,0.0,0.0,0.0,0.0,0.0,0.0,0.0,4.016112870000001,0.0,0.0,0.0,0.0,0.0,-0.0,0.0,0.0,2.452392327,0.0,0.0,1.399999976158142,0.5199999809265137,73.33999633789062,0.00482177734375,0.02667236328125,0.99639892578125,35.720001220703125,0.0,0.0,0.0704498291015625,-0.1362457275390625,Waiting,0.0,0.0,0.0,0.0,0.0,0.0,0.0,0.0,
14.545535999999993,0.0,0.0,false,4806950.715926731,,0.0,0.0,0.0,0.0,0.0,0.0,1.8395994210000002,0.0,0.0,-8.0,0.0,0.0,-0.0,0.0,0.0,2.670898164,0.0,0.0,0.0,0.0,0.0,0.0,0.0,0.0,4.016112870000001,0.0,0.0,0.0,0.0,0.0,-0.0,0.0,0.0,2.452392327,0.0,0.0,1.4199999570846558,0.5299999713897705,73.33999633789062,0.003662109375,0.025390625,0.98992919921875,35.72999954223633,0.0,0.0,0.0704498291015625,-0.1362457275390625,Waiting,0.0,0.0,0.0,0.0,0.0,0.0,0.0,0.0,
14.707220000000001,0.0,0.0,false,4806760.093124321,,0.0,0.0,0.0,0.0,0.0,0.0,1.8395994210000002,0.0,0.0,-8.0,0.0,0.0,-0.0,0.0,0.0,2.670898164,0.0,0.0,0.0,0.0,0.0,0.0,0.0,0.0,4.014892167,0.0,0.0,0.0,0.0,0.0,-0.0,0.0,0.0,2.452392327,0.0,0.0,1.4199999570846558,0.5099999904632568,73.33000183105469,0.0069580078125,0.0238037109375,0.9918212890625,35.72999954223633,0.0,-1.0,0.0704498291015625,-0.1362457275390625,Waiting,0.0,0.0,0.0,0.0,0.0,0.0,0.0,0.0,
14.870630999999994,0.0,0.0,false,4806537.581626319,,0.0,0.0,0.0,0.0,0.0,0.0,1.8408201240000002,0.0,0.0,-8.0,0.0,0.0,-0.0,0.0,0.0,2.670898164,0.0,0.0,0.0,0.0,0.0,0.0,0.0,0.0,4.016112870000001,0.0,0.0,0.0,0.0,0.0,-0.0,0.0,0.0,2.452392327,0.0,0.0,1.440000057220459,0.5199999809265137,73.31999969482422,0.011962890625,0.02392578125,0.9989013671875,35.72999954223633,0.0,0.0,0.0704498291015625,-0.1362457275390625,Waiting,0.0,0.0,0.0,0.0,0.0,0.0,0.0,0.0,
15.031785999999993,0.0,0.0,false,4806580.523196276,,0.0,0.0,0.0,0.0,0.0,0.0,1.8408201240000002,0.0,0.0,-8.0,0.0,0.0,-0.0,0.0,0.0,2.670898164,0.0,0.0,0.0,0.0,0.0,0.0,0.0,0.0,4.014892167,0.0,0.0,0.0,0.0,0.0,-0.0,0.0,0.0,2.452392327,0.0,0.0,1.440000057220459,0.5,73.31999969482422,0.007080078125,0.03076171875,0.99609375,35.709999084472656,0.0,4.0,0.0704498291015625,-0.1362457275390625,Waiting,0.0,0.0,0.0,0.0,0.0,0.0,0.0,0.0,
15.192954999999987,0.0,0.0,false,4806585.437170338,,0.0,0.0,0.0,0.0,0.0,0.0,1.8383787180000002,0.0,0.0,-8.0,0.0,0.0,-0.0,0.0,0.0,2.670898164,0.0,0.0,0.0,0.0,0.0,0.0,0.0,0.0,4.014892167,0.0,0.0,0.0,0.0,0.0,-0.0,0.0,0.0,2.452392327,0.0,0.0,1.409999966621399,0.5099999904632568,73.31999969482422,0.00787353515625,0.0235595703125,0.99603271484375,35.709999084472656,0.0,-1.0,0.0704498291015625,-0.1362457275390625,Waiting,0.0,0.0,0.0,0.0,0.0,0.0,0.0,0.0,
15.359206999999994,0.0,0.0,false,4806551.985109353,,0.0,0.0,0.0,0.0,0.0,0.0,1.8408201240000002,0.0,0.0,-8.0,0.0,0.0,-0.0,0.0,0.0,2.670898164,0.0,0.0,0.0,0.0,0.0,0.0,0.0,0.0,4.014892167,0.0,0.0,0.0,0.0,0.0,-0.0,0.0,0.0,2.452392327,0.0,0.0,1.4299999475479126,0.5099999904632568,73.31999969482422,0.0079345703125,0.02276611328125,0.99859619140625,35.709999084472656,0.0,-2.0,0.0704498291015625,-0.1362457275390625,Waiting,0.0,0.0,0.0,0.0,0.0,0.0,0.0,0.0,
15.517849999999976,0.0,0.0,false,4806480.540942928,,0.0,0.0,0.0,0.0,0.0,0.0,1.8408201240000002,0.0,0.0,-8.0,0.0,0.0,-0.0,0.0,0.0,2.670898164,0.0,0.0,0.0,0.0,0.0,0.0,0.0,0.0,4.014892167,0.0,0.0,0.0,0.0,0.0,-0.0,0.0,0.0,2.452392327,0.0,0.0,1.4199999570846558,0.5,73.31999969482422,0.0113525390625,0.0216064453125,1.00238037109375,35.75,0.0,-2.0,0.0704498291015625,-0.1362457275390625,Waiting,0.0,0.0,0.0,0.0,0.0,0.0,0.0,0.0,
15.688763999999995,0.0,0.0,false,4806376.978756396,,0.0,0.0,0.0,0.0,0.0,0.0,1.8408201240000002,0.0,0.0,-8.0,0.0,0.0,-0.0,0.0,0.0,2.669677461,0.0,0.0,0.0,0.0,0.0,0.0,0.0,0.0,4.016112870000001,0.0,0.0,0.0,0.0,0.0,-0.0,0.0,0.0,2.452392327,0.0,0.0,1.4199999570846558,0.47999998927116394,73.30999755859375,0.00482177734375,0.02752685546875,1.0023193359375,35.75,0.0,1.0,0.0704498291015625,-0.1362457275390625,Waiting,0.0,0.0,0.0,0.0,0.0,0.0,0.0,0.0,
15.847202999999979,0.0,0.0,false,4806228.967441861,,0.0,0.0,0.0,0.0,0.0,0.0,1.8408201240000002,0.0,0.0,-8.0,0.0,0.0,-0.0,0.0,0.0,2.672118867,0.0,0.0,0.0,0.0,0.0,0.0,0.0,0.0,4.016112870000001,0.0,0.0,0.0,0.0,0.0,-0.0,0.0,0.0,2.452392327,0.0,0.0,1.4199999570846558,0.47999998927116394,73.30000305175781,0.00299072265625,0.02667236328125,0.99615478515625,35.75,0.0,0.0,0.0704498291015625,-0.1362457275390625,Waiting,0.0,0.0,0.0,0.0,0.0,0.0,0.0,0.0,
16.005766000000005,0.0,0.0,false,4806049.189272981,,0.0,0.0,0.0,0.0,0.0,0.0,1.8408201240000002,0.0,0.0,-8.0,0.0,0.0,-0.0,0.0,0.0,2.672118867,0.0,0.0,0.0,0.0,0.0,0.0,0.0,0.0,4.016112870000001,0.0,0.0,0.0,0.0,0.0,-0.0,0.0,0.0,2.452392327,0.0,0.0,1.4299999475479126,0.49000000953674316,73.30000305175781,0.011962890625,0.01812744140625,0.9990234375,35.72999954223633,0.0,-5.0,0.0704498291015625,-0.1362457275390625,Waiting,0.0,0.0,0.0,0.0,0.0,0.0,0.0,0.0,
16.164231999999988,0.0,0.0,false,4805831.17048977,,0.0,0.0,0.0,0.0,0.0,0.0,1.8408201240000002,0.0,0.0,-8.0,0.0,0.0,-0.0,0.0,0.0,2.670898164,0.0,0.0,0.0,0.0,0.0,0.0,0.0,0.0,4.016112870000001,0.0,0.0,0.0,0.0,0.0,-0.0,0.0,0.0,2.451171624,0.0,0.0,1.4199999570846558,0.47999998927116394,73.30000305175781,0.01104736328125,0.02581787109375,0.99737548828125,35.72999954223633,0.0,1.0,0.0704498291015625,-0.1362457275390625,Waiting,0.0,0.0,0.0,0.0,0.0,0.0,0.0,0.0,
16.335962,0.0,0.0,false,4805880.528126453,,0.0,0.0,0.0,0.0,0.0,0.0,1.8408201240000002,0.0,0.0,-8.0,0.0,0.0,-0.0,0.0,0.0,2.672118867,0.0,0.0,0.0,0.0,0.0,0.0,0.0,0.0,4.016112870000001,0.0,0.0,0.0,0.0,0.0,-0.0,0.0,0.0,2.452392327,0.0,0.0,1.4199999570846558,0.47999998927116394,73.29000091552734,0.0028076171875,0.02252197265625,1.00115966796875,35.72999954223633,0.0,-3.0,0.0704498291015625,-0.1362457275390625,Waiting,0.0,0.0,0.0,0.0,0.0,0.0,0.0,0.0,
16.507380000000005,0.0,0.0,false,4805892.163619461,,0.0,0.0,0.0,0.0,0.0,0.0,1.8408201240000002,0.0,0.0,-8.0,0.0,0.0,-0.0,0.0,0.0,2.670898164,0.0,0.0,0.0,0.0,0.0,0.0,0.0,0.0,4.014892167,0.0,0.0,0.0,0.0,0.0,-0.0,0.0,0.0,2.452392327,0.0,0.0,1.4299999475479126,0.49000000953674316,73.30000305175781,0.0067138671875,0.02484130859375,0.99249267578125,35.7599983215332,0.0,0.0,0.0704498291015625,-0.1362457275390625,Waiting,0.0,0.0,0.0,0.0,0.0,0.0,0.0,0.0,
16.683103000000003,0.0,0.0,false,4805865.738807126,,0.0,0.0,0.0,0.0,0.0,0.0,1.8408201240000002,0.0,0.0,-8.0,0.0,0.0,-0.0,0.0,0.0,2.670898164,0.0,0.0,0.0,0.0,0.0,0.0,0.0,0.0,4.014892167,0.0,0.0,0.0,0.0,0.0,-0.0,0.0,0.0,2.45361303,0.0,0.0,1.4600000381469727,0.49000000953674316,73.27999877929688,0.00921630859375,0.03558349609375,0.993408203125,35.7599983215332,0.0,9.0,0.0704498291015625,-0.1362457275390625,Waiting,0.0,0.0,0.0,0.0,0.0,0.0,0.0,0.0,
16.85697,0.0,0.0,false,4805795.167286245,,0.0,0.0,0.0,0.0,0.0,0.0,1.8408201240000002,0.0,0.0,-8.0,0.0,0.0,-0.0,0.0,0.0,2.670898164,0.0,0.0,0.0,0.0,0.0,0.0,0.0,0.0,4.016112870000001,0.0,0.0,0.0,0.0,0.0,-0.0,0.0,0.0,2.452392327,0.0,0.0,1.409999966621399,0.49000000953674316,73.2699966430664,0.01220703125,0.0179443359375,1.00360107421875,35.7599983215332,0.0,-5.0,0.0704498291015625,-0.1362457275390625,Waiting,0.0,0.0,0.0,0.0,0.0,0.0,0.0,0.0,
17.034030999999988,0.0,0.0,false,4805692.734087037,,0.0,0.0,0.0,0.0,0.0,0.0,1.8408201240000002,0.0,0.0,-8.0,0.0,0.0,-0.0,0.0,0.0,2.670898164,0.0,0.0,0.0,0.0,0.0,0.0,0.0,0.0,4.014892167,0.0,0.0,0.0,0.0,0.0,-0.0,0.0,0.0,2.452392327,0.0,0.0,1.409999966621399,0.49000000953674316,73.29000091552734,0.00238037109375,0.03851318359375,1.011474609375,35.720001220703125,0.0,11.0,0.0704498291015625,-0.1362457275390625,Waiting,0.0,0.0,0.0,0.0,0.0,0.0,0.0,0.0,
17.209196999999985,0.0,0.0,false,4805552.649117374,,0.0,0.0,0.0,0.0,0.0,0.0,1.8408201240000002,0.0,0.0,-8.0,0.0,0.0,-0.0,0.0,0.0,2.670898164,0.0,0.0,0.0,0.0,0.0,0.0,0.0,0.0,4.016112870000001,0.0,0.0,0.0,0.0,0.0,-0.0,0.0,0.0,2.452392327,0.0,0.0,1.3700000047683716,0.6000000238418579,73.27999877929688,0.01885986328125,0.01116943359375,0.87249755859375,35.720001220703125,0.0,-6.0,0.0707855224609375,-0.13629150390625,Waiting,0.0,0.0,0.0,0.0,0.0,0.0,0.0,0.0,
17.38607699999999,0.0,0.0,false,4805374.612788358,,0.0,0.0,0.0,0.0,0.0,0.0,1.8408201240000002,0.0,0.0,-8.0,0.0,0.0,-0.0,0.0,0.0,2.670898164,0.0,0.0,0.0,0.0,0.0,0.0,0.0,0.0,4.016112870000001,0.0,0.0,0.0,0.0,0.0,-0.0,0.0,0.0,2.452392327,0.0,0.0,1.399999976158142,0.5600000023841858,73.33999633789062,0.0098876953125,0.0328369140625,1.10693359375,35.720001220703125,0.0,5.0,0.0708770751953125,-0.1355438232421875,Waiting,0.0,0.0,0.0,0.0,0.0,0.0,0.0,0.0,
17.55364599999998,0.0,0.0,false,4805158.642724458,,0.0,0.0,0.0,0.0,0.0,0.0,1.8408201240000002,0.0,0.0,-8.0,0.0,0.0,-0.0,0.0,0.0,2.670898164,0.0,0.0,0.0,0.0,0.0,0.0,0.0,0.0,4.016112870000001,0.0,0.0,0.0,0.0,0.0,-0.0,0.0,0.0,2.452392327,0.0,0.0,1.309999942779541,0.550000011920929,73.29000091552734,-0.001220703125,0.0068359375,0.9737548828125,35.7400016784668,0.0,-17.0,0.0709228515625,-0.1352386474609375,Waiting,0.0,0.0,0.0,0.0,0.0,0.0,0.0,0.0,
17.733395999999978,0.0,0.0,false,4805208.018572976,,0.0,0.0,0.0,0.0,0.0,0.0,1.8395994210000002,0.0,0.0,-8.0,0.0,0.0,-0.0,0.0,0.0,2.670898164,0.0,0.0,0.0,0.0,0.0,0.0,0.0,0.0,4.014892167,0.0,0.0,0.0,0.0,0.0,-0.0,0.0,0.0,2.452392327,0.0,0.0,1.3700000047683716,0.5799999833106995,73.30000305175781,5.4931640625E-4,0.037109375,0.95208740234375,35.7400016784668,0.0,11.0,0.0709228515625,-0.1352386474609375,Waiting,0.0,0.0,0.0,0.0,0.0,0.0,0.0,0.0,
17.908677999999984,0.0,0.0,false,4805219.218817703,,0.0,0.0,0.0,0.0,0.0,0.0,1.8395994210000002,0.0,0.0,-8.0,0.0,0.0,-0.0,0.0,0.0,2.670898164,0.0,0.0,0.0,0.0,0.0,0.0,0.0,0.0,4.016112870000001,0.0,0.0,0.0,0.0,0.0,-0.0,0.0,0.0,2.451171624,0.0,0.0,1.3200000524520874,0.5699999928474426,73.30999755859375,0.0225830078125,0.02392578125,0.99365234375,35.7400016784668,0.0,4.0,0.070770263671875,-0.1352386474609375,Waiting,0.0,0.0,0.0,0.0,0.0,0.0,0.0,0.0,
18.08873299999998,0.0,0.0,false,4805192.406003404,,0.0,0.0,0.0,0.0,0.0,0.0,1.8408201240000002,0.0,0.0,-8.0,0.0,0.0,-0.0,0.0,0.0,2.670898164,0.0,0.0,0.0,0.0,0.0,0.0,0.0,0.0,4.014892167,0.0,0.0,0.0,0.0,0.0,-0.0,0.0,0.0,2.452392327,0.0,0.0,1.3899999856948853,0.5400000214576721,73.29000091552734,0.00677490234375,0.01971435546875,1.01239013671875,35.7400016784668,0.0,-5.0,0.070770263671875,-0.1352386474609375,Waiting,0.0,0.0,0.0,0.0,0.0,0.0,0.0,0.0,
18.250883,0.0,0.0,false,4805127.952970297,,0.0,0.0,0.0,0.0,0.0,0.0,1.8395994210000002,0.0,0.0,-8.0,0.0,0.0,-0.0,0.0,0.0,2.670898164,0.0,0.0,0.0,0.0,0.0,0.0,0.0,0.0,4.016112870000001,0.0,0.0,0.0,0.0,0.0,-0.0,0.0,0.0,2.452392327,0.0,0.0,1.3700000047683716,0.5699999928474426,73.29000091552734,0.00921630859375,0.02490234375,0.997802734375,35.7400016784668,0.0,0.0,0.070770263671875,-0.1352386474609375,Waiting,0.0,0.0,0.0,0.0,0.0,0.0,0.0,0.0,
18.409657999999997,0.0,0.0,false,4805025.560402165,,0.0,0.0,0.0,0.0,0.0,0.0,1.8408201240000002,0.0,0.0,-8.0,0.0,0.0,-0.0,0.0,0.0,2.670898164,0.0,0.0,0.0,0.0,0.0,0.0,0.0,0.0,4.0356441180000004,0.0,0.0,0.0,0.0,0.0,-0.0,0.0,0.0,2.452392327,0.0,0.0,1.3799999952316284,0.5600000023841858,73.29000091552734,0.00933837890625,0.025146484375,0.9979248046875,35.7400016784668,0.0,0.0,0.070770263671875,-0.1352386474609375,Waiting,0.0,0.0,0.0,0.0,0.0,0.0,0.0,0.0,
18.569667999999975,0.0,0.0,false,4804885.562635323,,0.0,0.0,0.0,0.0,0.0,0.0,1.8408201240000002,0.0,0.0,-8.0,0.0,0.0,-0.0,0.0,0.0,2.670898164,0.0,0.0,0.0,0.0,0.0,0.0,0.0,0.0,4.045409742,0.0,0.0,0.0,0.0,0.0,-0.0,0.0,0.0,2.451171624,0.0,0.0,1.3799999952316284,0.5600000023841858,73.29000091552734,0.01715087890625,0.02056884765625,1.00225830078125,35.7400016784668,0.0,-1.0,0.070770263671875,-0.1352386474609375,Waiting,0.0,0.0,0.0,0.0,0.0,0.0,0.0,0.0,
18.73666499999998,0.0,0.0,false,4804713.773929179,,0.0,0.0,0.0,0.0,0.0,0.0,1.8408201240000002,0.0,0.0,-8.0,0.0,0.0,-0.0,0.0,0.0,2.670898164,0.0,0.0,0.0,0.0,0.0,0.0,0.0,0.0,4.055175366,0.0,0.0,0.0,0.0,0.0,-0.0,0.0,0.0,2.452392327,0.0,0.0,1.3700000047683716,0.5799999833106995,73.30999755859375,0.0130615234375,0.0277099609375,0.998779296875,35.7400016784668,0.0,4.0,0.070770263671875,-0.1352386474609375,Waiting,0.0,0.0,0.0,0.0,0.0,0.0,0.0,0.0,
18.896712999999988,0.0,0.0,false,4804497.9839208415,,0.0,0.0,0.0,0.0,0.0,0.0,1.8395994210000002,0.0,0.0,-8.0,0.0,0.0,-0.0,0.0,0.0,2.672118867,0.0,0.0,0.0,0.0,0.0,0.0,0.0,0.0,4.045409742,0.0,0.0,0.0,0.0,0.0,-0.0,0.0,0.0,2.452392327,0.0,0.0,1.3700000047683716,0.5799999833106995,73.27999877929688,2.44140625E-4,0.0283203125,0.99169921875,35.7400016784668,0.0,1.0,0.070770263671875,-0.1352386474609375,Waiting,0.0,0.0,0.0,0.0,0.0,0.0,0.0,0.0,
19.061055999999983,0.0,0.0,false,4804547.977121657,,0.0,0.0,0.0,0.0,0.0,0.0,1.8408201240000002,0.0,0.0,-8.0,0.0,0.0,-0.0,0.0,0.0,2.670898164,0.0,0.0,0.0,0.0,0.0,0.0,0.0,0.0,4.006347246,0.0,0.0,0.0,0.0,0.0,-0.0,0.0,0.0,2.452392327,0.0,0.0,1.3799999952316284,0.5899999737739563,73.29000091552734,0.0252685546875,0.0203857421875,0.99884033203125,35.75,0.0,0.0,0.070770263671875,-0.1352386474609375,Waiting,0.0,0.0,0.0,0.0,0.0,0.0,0.0,0.0,
19.22153199999998,0.0,0.0,false,4804560.264605873,,0.0,0.0,0.0,0.0,0.0,0.0,1.8408201240000002,0.0,0.0,-8.0,0.0,0.0,-0.0,0.0,0.0,2.670898164,0.0,0.0,0.0,0.0,0.0,0.0,0.0,0.0,3.9965816220000003,0.0,0.0,0.0,0.0,0.0,-0.0,0.0,0.0,2.451171624,0.0,0.0,1.3799999952316284,0.550000011920929,73.29000091552734,0.00274658203125,0.02618408203125,1.0096435546875,35.75,0.0,0.0,0.070770263671875,-0.1352386474609375,Waiting,0.0,0.0,0.0,0.0,0.0,0.0,0.0,0.0,
19.391049,0.0,0.0,false,4804535.161798795,,0.0,0.0,0.0,0.0,0.0,0.0,1.8408201240000002,0.0,0.0,-8.0,0.0,0.0,-0.0,0.0,0.0,2.672118867,0.0,0.0,0.0,0.0,0.0,0.0,0.0,0.0,4.001464434,0.0,0.0,0.0,0.0,0.0,-0.0,0.0,0.0,2.451171624,0.0,0.0,1.3799999952316284,0.5899999737739563,73.30999755859375,0.00933837890625,0.01873779296875,0.99639892578125,35.75,0.0,-5.0,0.070770263671875,-0.1352386474609375,Waiting,0.0,0.0,0.0,0.0,0.0,0.0,0.0,0.0,
19.550519999999988,0.0,0.0,false,4804472.389369592,,0.0,0.0,0.0,0.0,0.0,0.0,1.8408201240000002,0.0,0.0,-8.0,0.0,0.0,-0.0,0.0,0.0,2.670898164,0.0,0.0,0.0,0.0,0.0,0.0,0.0,0.0,4.171142151000001,0.0,0.0,0.0,0.0,0.0,-0.0,0.0,0.0,2.451171624,0.0,0.0,1.3899999856948853,0.5899999737739563,73.31999969482422,0.02166748046875,0.03106689453125,1.001708984375,35.75,0.0,9.0,0.070770263671875,-0.1352386474609375,Waiting,0.0,0.0,0.0,0.0,0.0,0.0,0.0,0.0,
19.711886,0.0,0.0,false,4804372.299706473,,0.0,0.0,0.0,0.0,0.0,0.0,1.8408201240000002,0.0,0.0,-8.0,0.0,0.0,-0.0,0.0,0.0,2.670898164,0.0,0.0,0.0,0.0,0.0,0.0,0.0,0.125,4.210204647,0.0,0.0,0.0,0.0,0.0,-0.0,0.0,0.0,2.451171624,0.0,0.0,1.3799999952316284,0.5899999737739563,73.29000091552734,0.01312255859375,0.0345458984375,1.00634765625,35.7400016784668,0.0,10.0,0.070770263671875,-0.1352386474609375,Waiting,0.0,0.0,0.0,0.0,0.0,0.0,0.0,0.0,
19.876715999999984,0.0,0.0,false,4804234.593759654,,0.0,0.0,0.0,0.0,0.0,0.0,1.8408201240000002,0.0,0.0,-8.0,0.0,0.0,-0.0,0.0,0.0,2.670898164,0.0,0.0,0.0,0.0,0.0,0.0,0.0,0.0,3.929442957,0.0,0.0,0.0,0.0,0.0,-0.0,0.0,0.0,2.45361303,0.0,0.0,1.3899999856948853,0.5699999928474426,73.29000091552734,0.01580810546875,0.01336669921875,1.00726318359375,35.7400016784668,0.0,-9.0,0.070770263671875,-0.1352386474609375,Waiting,0.0,0.0,0.0,0.0,0.0,0.0,0.0,0.0,
20.042848,0.0,0.0,false,4804059.288957529,,0.0,0.0,0.0,0.0,0.0,0.0,1.8408201240000002,0.0,0.0,-8.0,0.0,0.0,-0.0,0.0,0.0,2.670898164,0.0,0.0,0.0,0.0,0.0,0.0,0.0,0.0,3.929442957,0.0,0.0,0.0,0.0,0.0,-0.0,0.0,0.0,2.452392327,0.0,0.0,1.3899999856948853,0.5600000023841858,73.30000305175781,0.00604248046875,0.0333251953125,1.001953125,35.7400016784668,0.0,7.0,0.070770263671875,-0.1352386474609375,Waiting,0.0,0.0,0.0,0.0,0.0,0.0,0.0,0.0,
20.208813999999983,0.0,0.0,false,4803846.718962322,,0.0,0.0,0.0,0.0,0.0,0.0,1.8395994210000002,0.0,0.0,-8.0,0.0,0.0,-0.0,0.0,0.0,2.669677461,0.0,0.0,0.0,0.0,0.0,0.0,0.0,0.0,4.011230058000001,0.0,0.0,0.0,0.0,0.0,-0.0,0.0,0.0,2.452392327,0.0,0.0,1.3799999952316284,0.5899999737739563,73.29000091552734,0.01031494140625,0.01568603515625,0.99560546875,35.7599983215332,0.0,-7.0,0.070770263671875,-0.1352386474609375,Waiting,0.0,0.0,0.0,0.0,0.0,0.0,0.0,0.0,
20.370247999999993,0.0,0.0,false,4803896.689207966,,0.0,0.0,0.0,0.0,0.0,0.0,1.8395994210000002,0.0,0.0,-8.0,0.0,0.0,-0.0,0.0,0.0,2.672118867,0.0,0.0,0.0,0.0,0.0,0.0,0.0,0.0,4.046630445,0.0,0.0,0.0,0.0,0.0,-0.0,0.0,0.0,2.452392327,0.0,0.0,1.3899999856948853,0.5799999833106995,73.29000091552734,0.01544189453125,0.02593994140625,0.99481201171875,35.7599983215332,0.0,3.0,0.070770263671875,-0.1352386474609375,Waiting,0.0,0.0,0.0,0.0,0.0,0.0,0.0,0.0,
20.530652000000003,0.0,0.0,false,4803915.377585675,,0.0,0.0,0.0,0.0,0.0,0.0,1.8395994210000002,0.0,0.0,-8.0,0.0,0.0,-0.0,0.0,0.0,2.670898164,0.0,0.0,0.0,0.0,0.0,0.0,0.0,0.0,4.034423415,0.0,0.0,0.0,0.0,0.0,-0.0,0.0,0.0,2.452392327,0.0,0.0,1.3799999952316284,0.5799999833106995,73.29000091552734,0.00775146484375,0.0267333984375,0.99761962890625,35.7599983215332,0.0,1.0,0.070770263671875,-0.1352386474609375,Waiting,0.0,0.0,0.0,0.0,0.0,0.0,0.0,0.0,
20.69047199999998,0.0,0.0,false,4803896.7383855535,,0.0,0.0,0.0,0.0,0.0,0.0,1.8408201240000002,0.0,0.0,-8.0,0.0,0.0,-0.0,0.0,0.0,2.670898164,0.0,0.0,0.0,0.0,0.0,0.0,0.0,0.0,4.024657791,0.0,0.0,0.0,0.0,0.0,-0.0,0.0,0.0,2.452392327,0.0,0.0,1.399999976158142,0.6000000238418579,73.30999755859375,0.02392578125,0.0147705078125,0.996337890625,35.779998779296875,0.0,-5.0,0.070770263671875,-0.1352386474609375,Waiting,0.0,0.0,0.0,0.0,0.0,0.0,0.0,0.0,
20.85360699999999,0.0,0.0,false,4803840.474074074,,0.0,0.0,0.0,0.0,0.0,0.0,1.8408201240000002,0.0,0.0,-8.0,0.0,0.0,-0.0,0.0,0.0,2.670898164,0.0,0.0,0.0,0.0,0.0,0.0,0.0,0.0,4.024657791,0.0,0.0,0.0,0.0,0.0,-0.0,0.0,0.0,2.452392327,0.0,0.0,1.350000023841858,0.6100000143051147,73.2699966430664,-3.0517578125E-4,0.03076171875,0.9925537109375,35.779998779296875,0.0,3.0,0.070770263671875,-0.1357269287109375,Waiting,0.0,0.0,0.0,0.0,0.0,0.0,0.0,0.0,
21.02090299999999,0.0,0.0,false,4803746.620583244,,0.0,0.0,0.0,0.0,0.0,0.0,1.8395994210000002,0.0,0.0,-8.0,0.0,0.0,-0.0,0.0,0.0,2.670898164,0.0,0.0,0.0,0.0,0.0,0.0,0.0,0.0,4.0258784940000005,0.0,0.0,0.0,0.0,0.0,-0.0,0.0,0.0,2.452392327,0.0,0.0,1.3799999952316284,0.5699999928474426,73.25,0.0126953125,0.01458740234375,0.99285888671875,35.779998779296875,0.0,-8.0,0.070770263671875,-0.1357269287109375,Waiting,0.0,0.0,0.0,0.0,0.0,0.0,0.0,0.0,
21.181811999999976,0.0,0.0,false,4803609.455106448,,0.0,0.0,0.0,0.0,0.0,0.0,1.8408201240000002,0.0,0.0,-8.0,0.0,0.0,-0.0,0.0,0.0,2.672118867,0.0,0.0,0.0,0.0,0.0,0.0,0.0,0.0,4.024657791,0.0,0.0,0.0,0.0,0.0,-0.0,0.0,0.0,2.452392327,0.0,0.0,1.3799999952316284,0.5299999713897705,73.25,0.0035400390625,0.0303955078125,1.0047607421875,35.7599983215332,0.0,4.0,0.070770263671875,-0.1357269287109375,Waiting,0.0,0.0,0.0,0.0,0.0,0.0,0.0,0.0,
21.35359599999999,0.0,0.0,false,4803440.473854697,,0.0,0.0,0.0,0.0,0.0,0.0,1.8395994210000002,0.0,0.0,-8.0,0.0,0.0,-0.0,0.0,0.0,2.672118867,0.0,0.0,0.0,0.0,0.0,0.0,0.0,0.0,4.024657791,0.0,0.0,0.0,0.0,0.0,-0.0,0.0,0.0,2.452392327,0.0,0.0,1.3899999856948853,0.5299999713897705,73.25,0.01104736328125,0.02239990234375,1.008544921875,35.7599983215332,0.0,-1.0,0.070770263671875,-0.1357269287109375,Waiting,0.0,0.0,0.0,0.0,0.0,0.0,0.0,0.0,
21.51809699999998,0.0,0.0,false,4803233.955582974,,0.0,0.0,0.0,0.0,0.0,0.0,1.8408201240000002,0.0,0.0,-8.0,0.0,0.0,-0.0,0.0,0.0,2.670898164,0.0,0.0,0.0,0.0,0.0,0.0,0.0,0.0,4.024657791,0.0,0.0,0.0,0.0,0.0,-0.0,0.0,0.0,2.451171624,0.0,0.0,1.3799999952316284,0.5199999809265137,73.26000213623047,0.00244140625,0.02587890625,0.99945068359375,35.7599983215332,0.0,0.0,0.070770263671875,-0.1357269287109375,Waiting,0.0,0.0,0.0,0.0,0.0,0.0,0.0,0.0,
21.68711499999999,0.0,0.0,false,4803290.012027756,,0.0,0.0,0.0,0.0,0.0,0.0,1.8408201240000002,0.0,0.0,-8.0,0.0,0.0,-0.0,0.0,0.0,2.670898164,0.0,0.0,0.0,0.0,0.0,0.0,0.0,0.0,4.024657791,0.0,0.0,0.0,0.0,0.0,-0.0,0.0,0.0,2.451171624,0.0,0.0,1.3899999856948853,0.5400000214576721,73.26000213623047,0.01031494140625,0.02264404296875,0.98980712890625,35.7400016784668,0.0,-1.0,0.070770263671875,-0.1357269287109375,Waiting,0.0,0.0,0.0,0.0,0.0,0.0,0.0,0.0,
21.853272999999987,0.0,0.0,false,4803308.77089115,,0.0,0.0,0.0,0.0,0.0,0.0,1.8408201240000002,0.0,0.0,-8.0,0.0,0.0,-0.0,0.0,0.0,2.670898164,0.0,0.0,0.0,0.0,0.0,0.0,0.0,0.0,4.019774979,0.0,0.0,0.0,0.0,0.0,-0.0,0.0,0.0,2.452392327,0.0,0.0,1.399999976158142,0.5299999713897705,73.26000213623047,0.007080078125,0.0302734375,1.001953125,35.7400016784668,0.0,4.0,0.070770263671875,-0.1357269287109375,Waiting,0.0,0.0,0.0,0.0,0.0,0.0,0.0,0.0,
