Time,ClimberA1,ClimberA2,CameraExists,HeapSpace,LoopTime,FRpos,FRCurrent,FRspeed,FRsetpoint,FRApos,FRACurrent,FREncpos,FREncSetpoint,FREncSpeed,FLpos,FLCurrent,FLspeed,FLsetpoint,FLApos,FLACurrent,FLEncpos,FLEncSetpoint,FLEncSpeed,BRpos,BRCurrent,BRspeed,BRsetpoint,BRApos,BRACurrent,BREncpos,BREncSetpoint,BREncSpeed,BLpos,BLCurrent,BLspeed,BLsetpoint,BLApos,BLACurrent,BLEncpos,BLEncSetpoint,BLEncSpeed,navx_Pitch,navx_Roll,navx_Yaw,navx_XAcc,navx_YAcc,navx_ZAcc,navx_Temp,navx_Bar,navx_Alt,navx_XDis,navx_YDis,GearPlacerState,ShootOutputV,ShootOutputCurrent,ShootEncPos,ShootEncVelocity,ShootSpeed,ShootSetpoint,CarouselSetpoint,CarouselCurrent,
0.17196299999998882,0.0,0.0,false,3721320.518166135,,-3098.0,0.0,0.0,0.0,0.0,0.0,1.8457029360000001,0.0,0.0,2702.0,0.0,0.0,-0.0,0.0,0.0,2.666015352,0.0,-0.014648435999999876,-1260.0,0.0,0.0,0.0,0.0,0.0,4.044189039,0.0,0.0,1796.0,0.0,0.0,-0.0,0.0,0.0,2.452392327,0.0,-0.0012207029999995456,1.5499999523162842,0.2199999988079071,19.969999313354492,0.00396728515625,0.02691650390625,1.00250244140625,32.18000030517578,0.0,0.0,-0.77935791015625,1.220977783203125,Waiting,0.0,0.0,0.0,0.0,0.0,0.0,0.0,0.0,
0.23647100000001955,0.0,0.0,false,3721587.468478829,,-3098.0,0.0,0.0,0.0,0.0,0.0,1.8457029360000001,0.0,0.0,2702.0,0.0,0.0,-0.0,0.0,0.0,2.666015352,0.0,0.0,-1260.0,0.0,0.0,0.0,0.0,0.0,4.044189039,0.0,0.0,1796.0,0.0,0.0,-0.0,0.0,0.0,2.452392327,0.0,0.0,1.5499999523162842,0.2199999988079071,19.969999313354492,0.00732421875,0.0284423828125,1.0103759765625,32.18000030517578,0.0,3.0,-0.77935791015625,1.220977783203125,Waiting,0.0,0.0,0.0,0.0,0.0,0.0,0.0,0.0,
0.29295000000001165,0.0,0.0,false,3721849.6898228005,,-3098.0,0.0,0.0,0.0,0.0,0.0,1.8457029360000001,0.0,0.0,2702.0,0.0,0.0,-0.0,0.0,0.0,2.666015352,0.0,0.0,-1260.0,0.0,0.0,0.0,0.0,0.0,4.044189039,0.0,0.0,1796.0,0.0,0.0,-0.0,0.0,0.0,2.45361303,0.0,0.0,1.5499999523162842,0.2199999988079071,19.969999313354492,0.00518798828125,0.02740478515625,1.0079345703125,32.18000030517578,0.0,1.0,-0.77935791015625,1.220977783203125,Waiting,0.0,0.0,0.0,0.0,0.0,0.0,0.0,0.0,
0.3523790000000154,0.0,0.0,false,3722107.182939578,,-3098.0,0.0,0.0,0.0,0.0,0.0,1.8457029360000001,0.0,0.0,2702.0,0.0,0.0,-0.0,0.0,0.0,2.666015352,0.0,0.0,-1260.0,0.0,0.0,0.0,0.0,0.0,4.042968336,0.0,0.0,1796.0,0.0,0.0,-0.0,0.0,0.0,2.452392327,0.0,0.0,1.5499999523162842,0.2199999988079071,19.969999313354492,0.00408935546875,0.02569580078125,1.00714111328125,32.18000030517578,0.0,0.0,-0.77935791015625,1.220977783203125,Waiting,0.0,0.0,0.0,0.0,0.0,0.0,0.0,0.0,
0.41222600000002424,0.0,0.0,false,3722360.620080489,,-3098.0,0.0,0.0,0.0,0.0,0.0,1.8457029360000001,0.0,0.0,2702.0,0.0,0.0,-0.0,0.0,0.0,2.666015352,0.0,0.0,-1260.0,0.0,0.0,0.0,0.0,0.0,4.042968336,0.0,0.0,1796.0,0.0,0.0,-0.0,0.0,0.0,2.452392327,0.0,0.0,1.5499999523162842,0.2199999988079071,19.969999313354492,0.001953125,0.02874755859375,0.996826171875,32.189998626708984,0.0,-1.0,-0.77935791015625,1.220977783203125,Waiting,0.0,0.0,0.0,0.0,0.0,0.0,0.0,0.0,
0.4715300000000279,0.0,0.0,false,3722609.330406606,,-3098.0,0.0,0.0,0.0,0.0,0.0,1.8444822330000001,0.0,0.0,2702.0,0.0,0.0,-0.0,0.0,0.0,2.666015352,0.0,0.0,-1260.0,0.0,0.0,0.0,0.0,0.0,4.044189039,0.0,0.0012207029999995456,1796.0,0.0,0.0,-0.0,0.0,0.0,2.452392327,0.0,0.0012207029999995456,1.5499999523162842,0.2199999988079071,19.969999313354492,0.00390625,0.0291748046875,1.00091552734375,32.189998626708984,0.0,0.0,-0.77935791015625,1.220977783203125,Waiting,0.0,0.0,0.0,0.0,0.0,0.0,0.0,0.0,
0.528396000000008,0.0,0.0,false,3722853.314659002,,-3098.0,0.0,0.0,0.0,0.0,0.0,1.8457029360000001,0.0,0.0,2702.0,0.0,0.0,-0.0,0.0,0.0,2.666015352,0.0,0.0,-1260.0,0.0,0.0,0.0,0.0,0.0,4.044189039,0.0,0.0,1796.0,0.0,0.0,-0.0,0.0,0.0,2.452392327,0.0,0.0,1.5499999523162842,0.20999999344348907,19.969999313354492,0.0032958984375,0.02960205078125,1.00250244140625,32.189998626708984,0.0,0.0,-0.77935791015625,1.220977783203125,Waiting,0.0,0.0,0.0,0.0,0.0,0.0,0.0,0.0,
0.5800750000000117,0.0,0.0,false,3723092.573578595,,-3098.0,0.0,0.0,0.0,0.0,0.0,1.8457029360000001,0.0,0.0,2702.0,0.0,0.0,-0.0,0.0,0.0,2.666015352,0.0,0.0,-1260.0,0.0,0.0,0.0,0.0,0.0,4.044189039,0.0,-0.0012207029999995456,1796.0,0.0,0.0,-0.0,0.0,0.0,2.452392327,0.0,-0.0012207029999995456,1.559999942779541,0.20999999344348907,19.969999313354492,0.00482177734375,0.0263671875,0.99969482421875,32.189998626708984,0.0,0.0,-0.77935791015625,1.220977783203125,Waiting,0.0,0.0,0.0,0.0,0.0,0.0,0.0,0.0,
0.6355,0.0,0.0,false,3723327.7792757484,,-3098.0,0.0,0.0,0.0,0.0,0.0,1.8457029360000001,0.0,0.0,2702.0,0.0,0.0,-0.0,0.0,0.0,2.666015352,0.0,0.0,-1260.0,0.0,0.0,0.0,0.0,0.0,4.045409742,0.0,0.0,1796.0,0.0,0.0,-0.0,0.0,0.0,2.452392327,0.0,0.0,1.5499999523162842,0.2199999988079071,19.969999313354492,0.0018310546875,0.0264892578125,1.0018310546875,32.189998626708984,0.0,-2.0,-0.77935791015625,1.220977783203125,Waiting,0.0,0.0,0.0,0.0,0.0,0.0,0.0,0.0,
0.6931610000000219,0.0,0.0,false,3723558.2610513116,,-3098.0,0.0,0.0,0.0,0.0,0.0,1.8457029360000001,0.0,0.0,2702.0,0.0,0.0,-0.0,0.0,0.0,2.666015352,0.0,0.0,-1260.0,0.0,0.0,0.0,0.0,0.0,4.044189039,0.0,0.0,1796.0,0.0,0.0,-0.0,0.0,0.0,2.452392327,0.0,0.0,1.5499999523162842,0.2199999988079071,19.969999313354492,0.00238037109375,0.0264892578125,1.00225830078125,32.189998626708984,0.0,-1.0,-0.77935791015625,1.220977783203125,Waiting,0.0,0.0,0.0,0.0,0.0,0.0,0.0,0.0,
0.7504390000000131,0.0,0.0,false,3723784.0196457496,,-3098.0,0.0,0.0,0.0,0.0,0.125,1.8444822330000001,0.0,0.0012207030000004337,2702.0,0.0,0.0,-0.0,0.0,0.0,2.666015352,0.0,0.0,-1260.0,0.0,0.0,0.0,0.0,0.0,4.044189039,0.0,0.0012207029999995456,1796.0,0.0,0.0,-0.0,0.0,0.0,2.45361303,0.0,0.0012207029999995456,1.5499999523162842,0.20999999344348907,19.959999084472656,0.00360107421875,0.02655029296875,1.00115966796875,32.189998626708984,0.0,0.0,-0.77935791015625,1.220977783203125,Waiting,0.0,0.0,0.0,0.0,0.0,0.0,0.0,0.0,
0.8073780000000261,0.0,0.0,false,3724005.055799373,,-3098.0,0.0,0.0,0.0,0.0,0.125,1.8457029360000001,0.0,0.0,2702.0,0.0,0.0,-0.0,0.0,0.0,2.666015352,0.0,0.0,-1260.0,0.0,0.0,0.0,0.0,0.0,4.044189039,0.0,-0.0012207029999995456,1796.0,0.0,0.0,-0.0,0.0,0.0,2.452392327,0.0,-0.0012207029999995456,1.5499999523162842,0.2199999988079071,19.959999084472656,0.0035400390625,0.02587890625,0.998779296875,32.189998626708984,0.0,0.0,-0.77935791015625,1.220977783203125,Waiting,0.0,0.0,0.0,0.0,0.0,0.0,0.0,0.0,
0.8674839999999967,0.0,0.0,false,3724221.370252338,,-3098.0,0.0,0.0,0.0,0.0,0.0,1.8457029360000001,0.0,-0.0012207030000004337,2702.0,0.0,0.0,-0.0,0.0,0.0,2.666015352,0.0,0.0,-1260.0,0.0,0.0,0.0,0.0,0.0,4.044189039,0.0,0.0,1796.0,0.0,0.0,-0.0,0.0,0.0,2.452392327,0.0,0.0,1.5499999523162842,0.2199999988079071,19.959999084472656,0.004150390625,0.027587890625,1.00201416015625,32.189998626708984,0.0,0.0,-0.77935791015625,1.220977783203125,Waiting,0.0,0.0,0.0,0.0,0.0,0.0,0.0,0.0,
0.9270460000000312,0.0,0.0,false,3724433.634938878,,-3098.0,0.0,0.0,0.0,0.0,0.0,1.8457029360000001,0.0,0.0,2702.0,0.0,0.0,-0.0,0.0,0.0,2.666015352,0.0,0.0,-1260.0,0.0,0.0,0.0,0.0,0.0,4.044189039,0.0,0.0,1796.0,0.0,0.0,-0.0,0.0,0.0,2.452392327,0.0,0.0012207029999995456,1.5499999523162842,0.2199999988079071,19.959999084472656,0.002197265625,0.0284423828125,1.00506591796875,32.16999816894531,0.0,-1.0,-0.77935791015625,1.220977783203125,Waiting,0.0,0.0,0.0,0.0,0.0,0.0,0.0,0.0,
0.9814800000000395,0.0,0.0,false,3724641.1793344826,,-3098.0,0.0,0.0,0.0,0.0,0.0,1.8457029360000001,0.0,0.0,2702.0,0.0,0.0,-0.0,0.0,0.0,2.666015352,0.0,0.0,-1260.0,0.0,0.0,0.0,0.0,0.0,4.042968336,0.0,0.0,1796.0,0.0,0.0,-0.0,0.0,0.0,2.452392327,0.0,-0.0012207029999995456,1.5499999523162842,0.2199999988079071,19.959999084472656,0.006591796875,0.02667236328125,1.0032958984375,32.16999816894531,0.0,2.0,-0.77935791015625,1.220977783203125,Waiting,0.0,0.0,0.0,0.0,0.0,0.0,0.0,0.0,
1.0402129999999887,0.0,0.0,false,3724844.004178855,,-3098.0,0.0,0.0,0.0,0.0,0.0,1.8457029360000001,0.0,0.0,2702.0,0.0,0.0,-0.0,0.0,0.0,2.666015352,0.0,0.0,-1260.0,0.0,0.0,0.0,0.0,0.0,4.042968336,0.0,0.0,1796.0,0.0,0.0,-0.0,0.0,0.0,2.451171624,0.0,0.0,1.5499999523162842,0.2199999988079071,19.959999084472656,0.00152587890625,0.02630615234375,0.997314453125,32.16999816894531,0.0,-2.0,-0.77935791015625,1.220977783203125,Waiting,0.0,0.0,0.0,0.0,0.0,0.0,0.0,0.0,
1.0967440000000062,0.0,0.0,false,3725042.1102115433,,-3098.0,0.0,0.0,0.0,0.0,0.0,1.8457029360000001,0.0,0.0,2702.0,0.0,0.0,-0.0,0.0,0.0,2.667236055,0.0,0.0,-1260.0,0.0,0.0,0.0,0.0,0.0,4.042968336,0.0,0.0,1796.0,0.0,0.0,-0.0,0.0,0.0,2.452392327,0.0,0.0,1.5499999523162842,0.2199999988079071,19.959999084472656,0.003173828125,0.02532958984375,1.00433349609375,32.16999816894531,0.0,-1.0,-0.77935791015625,1.220977783203125,Waiting,0.0,0.0,0.0,0.0,0.0,0.0,0.0,0.0,
1.1546080000000074,0.0,0.0,false,3725236.169225948,,-3098.0,0.0,0.0,0.0,0.0,0.0,1.8457029360000001,0.0,0.0,2702.0,0.0,0.0,-0.0,0.0,0.0,2.667236055,0.0,0.0,-1260.0,0.0,0.0,0.0,0.0,0.0,4.044189039,0.0,0.0,1796.0,0.0,0.0,-0.0,0.0,0.0,2.452392327,0.0,0.0012207029999995456,1.5499999523162842,0.2199999988079071,19.959999084472656,0.006103515625,0.0301513671875,0.99847412109375,32.16999816894531,0.0,3.0,-0.77935791015625,1.220977783203125,Waiting,0.0,0.0,0.0,0.0,0.0,0.0,0.0,0.0,
1.2187370000000228,0.0,0.0,false,3725425.510837207,,-3098.0,0.0,0.0,0.0,0.0,0.0,1.8457029360000001,0.0,0.0,2702.0,0.0,0.0,-0.0,0.0,0.0,2.667236055,0.0,0.0,-1260.0,0.0,0.0,0.0,0.0,0.0,4.045409742,0.0,0.0,1796.0,0.0,0.0,-0.0,0.0,0.0,2.452392327,0.0,0.0,1.5499999523162842,0.2199999988079071,19.959999084472656,0.0047607421875,0.02606201171875,1.00054931640625,32.16999816894531,0.0,0.0,-0.77935791015625,1.220977783203125,Waiting,0.0,0.0,0.0,0.0,0.0,0.0,0.0,0.0,
1.2764249999999884,0.0,0.0,false,3725606.291623146,,-3098.0,0.0,0.0,0.0,0.0,0.0,1.8457029360000001,0.0,0.0,2702.0,0.0,0.0,-0.0,0.0,0.0,2.667236055,0.0,0.0,-1260.0,0.0,0.0,0.0,0.0,0.0,4.044189039,0.0,-0.0012207029999995456,1796.0,0.0,0.0,-0.0,0.0,0.0,2.452392327,0.0,0.0,1.5499999523162842,0.2199999988079071,19.950000762939453,-3.0517578125E-4,0.0281982421875,1.000732421875,32.16999816894531,0.0,-3.0,-0.77935791015625,1.220977783203125,Waiting,0.0,0.0,0.0,0.0,0.0,0.0,0.0,0.0,
1.3340960000000195,0.0,0.0,false,3725782.356885477,,-3098.0,0.0,0.0,0.0,0.0,0.0,1.8457029360000001,0.0,0.0,2702.0,0.0,0.0,-0.0,0.0,0.0,2.667236055,0.0,0.0,-1260.0,0.0,0.0,0.0,0.0,0.0,4.044189039,0.0,0.0,1796.0,0.0,0.0,-0.0,0.0,0.0,2.452392327,0.0,0.0,1.5499999523162842,0.2199999988079071,19.950000762939453,0.002197265625,0.0279541015625,1.0030517578125,32.16999816894531,0.0,-1.0,-0.77935791015625,1.220977783203125,Waiting,0.0,0.0,0.0,0.0,0.0,0.0,0.0,0.0,
1.3912270000000135,0.0,0.0,false,3725954.3782767626,,-3098.0,0.0,0.0,0.0,0.0,0.0,1.8457029360000001,0.0,0.0,2702.0,0.0,0.0,-0.0,0.0,0.0,2.667236055,0.0,0.0,-1260.0,0.0,0.0,0.0,0.0,0.0,4.044189039,0.0,0.0,1796.0,0.0,0.0,-0.0,0.0,0.0,2.451171624,0.0,0.0012207029999995456,1.5499999523162842,0.2199999988079071,19.950000762939453,0.0064697265625,0.02667236328125,1.0008544921875,32.16999816894531,0.0,2.0,-0.77935791015625,1.220977783203125,Waiting,0.0,0.0,0.0,0.0,0.0,0.0,0.0,0.0,
1.4485290000000386,0.0,0.0,false,3726121.6855516685,,-3098.0,0.0,0.0,0.0,0.0,0.125,1.8457029360000001,0.0,0.0012207030000004337,2702.0,0.0,0.0,-0.0,0.0,0.0,2.666015352,0.0,0.0,-1260.0,0.0,0.0,0.0,0.0,0.0,4.044189039,0.0,0.0012207029999995456,1796.0,0.0,0.0,-0.0,0.0,0.0,2.452392327,0.0,0.0,1.5499999523162842,0.2199999988079071,19.950000762939453,0.00457763671875,0.024658203125,1.00201416015625,32.18000030517578,0.0,0.0,-0.77935791015625,1.220977783203125,Waiting,0.0,0.0,0.0,0.0,0.0,0.0,0.0,0.0,
1.5028649999999908,0.0,0.0,false,3726284.2794486214,,-3098.0,0.0,0.0,0.0,0.0,0.0,1.8457029360000001,0.0,-0.0012207030000004337,2702.0,0.0,0.0,-0.0,0.0,0.0,2.666015352,0.0,0.0,-1260.0,0.0,0.0,0.0,0.0,0.0,4.044189039,0.0,-0.0012207029999995456,1796.0,0.0,0.0,-0.0,0.0,0.0,2.452392327,0.0,-0.0012207029999995456,1.5499999523162842,0.2199999988079071,19.950000762939453,0.00469970703125,0.02679443359375,1.0050048828125,32.18000030517578,0.0,0.0,-0.77935791015625,1.220977783203125,Waiting,0.0,0.0,0.0,0.0,0.0,0.0,0.0,0.0,
1.56163400000002,0.0,0.0,false,3726442.1607058947,,-3098.0,0.0,0.0,0.0,0.0,0.0,1.8457029360000001,0.0,0.0,2702.0,0.0,0.0,-0.0,0.0,0.0,2.666015352,0.0,0.0,-1260.0,0.0,0.0,0.0,0.0,0.0,4.045409742,0.0,0.0,1796.0,0.0,0.0,-0.0,0.0,0.0,2.452392327,0.0,0.0012207029999995456,1.5499999523162842,0.2199999988079071,19.950000762939453,0.0028076171875,0.0272216796875,0.99853515625,32.18000030517578,0.0,0.0,-0.77935791015625,1.220977783203125,Waiting,0.0,0.0,0.0,0.0,0.0,0.0,0.0,0.0,
1.6232170000000041,0.0,0.0,false,3726595.330061606,,-3098.0,0.0,0.0,0.0,0.0,0.0,1.8457029360000001,0.0,0.0,2702.0,0.0,0.0,-0.0,0.0,0.0,2.666015352,0.0,0.0,-1260.0,0.0,0.0,0.0,0.0,0.0,4.042968336,0.0,0.0012207029999995456,1796.0,0.0,0.0,-0.0,0.0,0.0,2.452392327,0.0,0.0,1.5499999523162842,0.2199999988079071,19.950000762939453,0.0054931640625,0.02978515625,1.00164794921875,32.18000030517578,0.0,2.0,-0.77935791015625,1.220977783203125,Waiting,0.0,0.0,0.0,0.0,0.0,0.0,0.0,0.0,
1.682975000000035,0.0,0.0,false,3726744.45899243,,-3098.0,0.0,0.0,0.0,0.0,0.0,1.8457029360000001,0.0,0.0,2702.0,0.0,0.0,-0.0,0.0,0.0,2.666015352,0.0,0.0,-1260.0,0.0,0.0,0.0,0.0,0.0,4.044189039,0.0,-0.0012207029999995456,1796.0,0.0,0.0,-0.0,0.0,0.0,2.452392327,0.0,-0.0012207029999995456,1.5499999523162842,0.2199999988079071,19.950000762939453,0.00494384765625,0.025634765625,1.00384521484375,32.18000030517578,0.0,0.0,-0.77935791015625,1.220977783203125,Waiting,0.0,0.0,0.0,0.0,0.0,0.0,0.0,0.0,
1.7390370000000113,0.0,0.0,false,3726888.877427438,,-3098.0,0.0,0.0,0.0,0.0,0.0,1.8457029360000001,0.0,0.0,2702.0,0.0,0.0,-0.0,0.0,0.0,2.666015352,0.0,0.0,-1260.0,0.0,0.0,0.0,0.0,0.0,4.044189039,0.0,0.0,1796.0,0.0,0.0,-0.0,0.0,0.0,2.452392327,0.0,0.0012207029999995456,1.5499999523162842,0.2199999988079071,19.950000762939453,0.0045166015625,0.02740478515625,1.00054931640625,32.18000030517578,0.0,0.0,-0.77935791015625,1.220977783203125,Waiting,0.0,0.0,0.0,0.0,0.0,0.0,0.0,0.0,
1.7957580000000308,0.0,0.0,false,3727028.586104296,,-3098.0,0.0,0.0,0.0,0.0,0.0,1.8457029360000001,0.0,0.0,2702.0,0.0,0.0,-0.0,0.0,0.0,2.666015352,0.0,0.0,-1260.0,0.0,0.0,0.0,0.0,0.0,4.044189039,0.0,0.0,1796.0,0.0,0.0,-0.0,0.0,0.0,2.452392327,0.0,-0.0012207029999995456,1.5499999523162842,0.2199999988079071,19.950000762939453,0.0032958984375,0.029541015625,0.99957275390625,32.18000030517578,0.0,0.0,-0.77935791015625,1.220977783203125,Waiting,0.0,0.0,0.0,0.0,0.0,0.0,0.0,0.0,
1.8514170000000159,0.0,0.0,false,3727163.585760518,,-3098.0,0.0,0.0,0.0,0.0,0.0,1.8457029360000001,0.0,0.0,2702.0,0.0,0.0,-0.0,0.0,0.0,2.666015352,0.0,0.0,-1260.0,0.0,0.0,0.0,0.0,0.0,4.044189039,0.0,0.0,1796.0,0.0,0.0,-0.0,0.0,0.0,2.452392327,0.0,0.0,1.5499999523162842,0.2199999988079071,19.950000762939453,4.8828125E-4,0.0252685546875,1.0023193359375,32.18000030517578,0.0,-3.0,-0.77935791015625,1.220977783203125,Waiting,0.0,0.0,0.0,0.0,0.0,0.0,0.0,0.0,
1.908984999999986,0.0,0.0,false,3727293.877133462,,-3098.0,0.0,0.0,0.0,0.0,0.125,1.8457029360000001,0.0,0.0012207030000004337,2702.0,0.0,0.0,-0.0,0.0,0.0,2.667236055,0.0,0.0,-1260.0,0.0,0.0,0.0,0.0,0.0,4.044189039,0.0,0.0012207029999995456,1796.0,0.0,0.0,-0.0,0.0,0.0,2.452392327,0.0,0.0012207029999995456,1.5499999523162842,0.2199999988079071,19.950000762939453,0.00201416015625,0.02679443359375,0.9981689453125,32.18000030517578,0.0,-1.0,-0.77935791015625,1.220977783203125,Waiting,0.0,0.0,0.0,0.0,0.0,0.0,0.0,0.0,
1.9729519999999903,0.0,0.0,false,3727419.460960334,,-3098.0,0.0,0.0,0.0,0.0,0.125,1.8457029360000001,0.0,0.0,2702.0,0.0,0.0,-0.0,0.0,0.0,2.667236055,0.0,0.0,-1260.0,0.0,0.0,0.0,0.0,0.0,4.044189039,0.0,-0.0012207029999995456,1796.0,0.0,0.0,-0.0,0.0,0.0,2.452392327,0.0,-0.0012207029999995456,1.5499999523162842,0.2199999988079071,19.950000762939453,0.0013427734375,0.02899169921875,0.9970703125,32.16999816894531,0.0,-1.0,-0.77935791015625,1.220977783203125,Waiting,0.0,0.0,0.0,0.0,0.0,0.0,0.0,0.0,
2.031037000000011,0.0,0.0,false,3727541.008506863,,-3098.0,0.0,0.0,0.0,0.0,0.0,1.8457029360000001,0.0,0.0,2702.0,0.0,0.0,-0.0,0.0,0.0,2.666015352,0.0,0.0,-1260.0,0.0,0.0,0.0,0.0,0.0,4.044189039,0.0,0.0,1796.0,0.0,0.0,-0.0,0.0,0.0,2.45361303,0.0,0.0012207029999995456,1.559999942779541,0.20999999344348907,19.950000762939453,0.00335693359375,0.02593994140625,1.00421142578125,32.16999816894531,0.0,0.0,-0.77935791015625,1.220977783203125,Waiting,0.0,0.0,0.0,0.0,0.0,0.0,0.0,0.0,
2.089558000000019,0.0,0.0,false,3727657.849911283,,-3098.0,0.0,0.0,0.0,0.0,0.0,1.8444822330000001,0.0,0.0,2702.0,0.0,0.0,-0.0,0.0,0.0,2.666015352,0.0,0.0,-1260.0,0.0,0.0,0.0,0.0,0.0,4.044189039,0.0,0.0,1796.0,0.0,0.0,-0.0,0.0,0.0,2.452392327,0.0,-0.0012207029999995456,1.559999942779541,0.2199999988079071,19.950000762939453,0.00347900390625,0.0284423828125,1.00006103515625,32.16999816894531,0.0,0.0,-0.77935791015625,1.220977783203125,Waiting,0.0,0.0,0.0,0.0,0.0,0.0,0.0,0.0,
2.1475740000000223,0.0,0.0,false,3727769.985910348,,-3098.0,0.0,0.0,0.0,0.0,0.125,1.8457029360000001,0.0,0.0012207030000004337,2702.0,0.0,0.0,-0.0,0.0,0.0,2.666015352,0.0,0.0,-1260.0,0.0,0.0,0.0,0.0,0.0,4.044189039,0.0,0.0,1796.0,0.0,0.0,-0.0,0.0,0.0,2.452392327,0.0,0.0012207029999995456,1.559999942779541,0.2199999988079071,19.950000762939453,0.00372314453125,0.02667236328125,1.00238037109375,32.16999816894531,0.0,0.0,-0.77935791015625,1.220977783203125,Waiting,0.0,0.0,0.0,0.0,0.0,0.0,0.0,0.0,
2.2283610000000333,0.0,0.0,false,3728036.965560426,,-3098.0,0.0,0.0,0.0,0.0,0.125,1.8457029360000001,0.0,-0.0012207030000004337,2702.0,0.0,0.0,-0.0,0.0,0.0,2.666015352,0.0,0.0,-1260.0,0.0,0.0,0.0,0.0,0.0,4.044189039,0.0,0.0012207029999995456,1796.0,0.0,0.0,-0.0,0.0,0.0,2.452392327,0.0,0.0,1.5499999523162842,0.2199999988079071,19.950000762939453,0.0064697265625,0.0289306640625,1.0040283203125,32.16999816894531,0.0,2.0,-0.77935791015625,1.220977783203125,Waiting,0.0,0.0,0.0,0.0,0.0,0.0,0.0,0.0,
2.282692000000039,0.0,0.0,false,3728297.6876597963,,-3098.0,0.0,0.0,0.0,0.0,0.0,1.8457029360000001,0.0,0.0012207030000004337,2702.0,0.0,0.0,-0.0,0.0,0.0,2.666015352,0.0,0.0,-1260.0,0.0,0.0,0.0,0.0,0.0,4.044189039,0.0,-0.0012207029999995456,1796.0,0.0,0.0,-0.0,0.0,0.0,2.45361303,0.0,0.0,1.5499999523162842,0.2199999988079071,19.950000762939453,0.004150390625,0.02734375,1.0029296875,32.16999816894531,0.0,0.0,-0.77935791015625,1.220977783203125,Waiting,0.0,0.0,0.0,0.0,0.0,0.0,0.0,0.0,
2.3469160000000264,0.0,0.0,false,3728553.710529062,,-3098.0,0.0,0.0,0.0,0.0,0.125,1.8457029360000001,0.0,0.0,2702.0,0.0,0.0,-0.0,0.0,0.0,2.666015352,0.0,0.0,-1260.0,0.0,0.0,0.0,0.0,0.0,4.042968336,0.0,0.0,1796.0,0.0,0.0,-0.0,0.0,0.0,2.452392327,0.0,0.0,1.5499999523162842,0.2199999988079071,19.950000762939453,0.00567626953125,0.02783203125,1.00067138671875,32.16999816894531,0.0,1.0,-0.77935791015625,1.220977783203125,Waiting,0.0,0.0,0.0,0.0,0.0,0.0,0.0,0.0,
2.406101000000024,0.0,0.0,false,3728805.034903741,,-3098.0,0.0,0.0,0.0,0.0,0.125,1.8457029360000001,0.0,0.0,2702.0,0.0,0.0,-0.0,0.0,0.0,2.666015352,0.0,0.0,-1260.0,0.0,0.0,0.0,0.0,0.0,4.044189039,0.0,0.0012207029999995456,1796.0,0.0,0.0,-0.0,0.0,0.0,2.452392327,0.0,0.0,1.5499999523162842,0.2199999988079071,19.950000762939453,0.0018310546875,0.02789306640625,1.00457763671875,32.16999816894531,0.0,-1.0,-0.77935791015625,1.220977783203125,Waiting,0.0,0.0,0.0,0.0,0.0,0.0,0.0,0.0,
2.4712050000000163,0.0,0.0,false,3729051.6615191987,,-3098.0,0.0,0.0,0.0,0.0,0.0,1.8457029360000001,0.0,-0.0012207030000004337,2702.0,0.0,0.0,-0.0,0.0,0.0,2.666015352,0.0,0.0,-1260.0,0.0,0.0,0.0,0.0,0.0,4.044189039,0.0,0.0,1796.0,0.0,0.0,-0.0,0.0,0.0,2.452392327,0.0,0.0,1.5499999523162842,0.20999999344348907,19.950000762939453,0.006103515625,0.027587890625,0.9989013671875,32.20000076293945,0.0,2.0,-0.77935791015625,1.220977783203125,Waiting,0.0,0.0,0.0,0.0,0.0,0.0,0.0,0.0,
2.5323460000000195,0.0,0.0,false,3729293.591110647,,-3098.0,0.0,0.0,0.0,0.0,0.0,1.8457029360000001,0.0,0.0,2702.0,0.0,0.0,-0.0,0.0,0.0,2.666015352,0.0,0.0,-1260.0,0.0,0.0,0.0,0.0,0.0,4.044189039,0.0,-0.0012207029999995456,1796.0,0.0,0.0,-0.0,0.0,0.0,2.452392327,0.0,-0.0012207029999995456,1.5499999523162842,0.2199999988079071,19.950000762939453,-4.2724609375E-4,0.0274658203125,1.00445556640625,32.20000076293945,0.0,-3.0,-0.77935791015625,1.220977783203125,Waiting,0.0,0.0,0.0,0.0,0.0,0.0,0.0,0.0,
2.5917420000000275,0.0,0.0,false,3729530.8244131454,,-3098.0,0.0,0.0,0.0,0.0,0.0,1.8457029360000001,0.0,0.0,2702.0,0.0,0.0,-0.0,0.0,0.0,2.666015352,0.0,0.0,-1260.0,0.0,0.0,0.0,0.0,0.0,4.044189039,0.0,0.0,1796.0,0.0,0.0,-0.0,0.0,0.0,2.452392327,0.0,0.0,1.5499999523162842,0.2199999988079071,19.950000762939453,0.0037841796875,0.0281982421875,0.9989013671875,32.20000076293945,0.0,0.0,-0.77935791015625,1.220977783203125,Waiting,0.0,0.0,0.0,0.0,0.0,0.0,0.0,0.0,
2.6532330000000073,0.0,0.0,false,3729763.362161598,,-3098.0,0.0,0.0,0.0,0.0,0.0,1.8457029360000001,0.0,0.0,2702.0,0.0,0.0,-0.0,0.0,0.0,2.666015352,0.0,0.0,-1260.0,0.0,0.0,0.0,0.0,0.0,4.044189039,0.0,0.0,1796.0,0.0,0.0,-0.0,0.0,0.0,2.452392327,0.0,0.0,1.559999942779541,0.20999999344348907,19.950000762939453,0.003662109375,0.028076171875,1.00555419921875,32.20000076293945,0.0,0.0,-0.77935791015625,1.220977783203125,Waiting,0.0,0.0,0.0,0.0,0.0,0.0,0.0,0.0,
2.7125009999999894,0.0,0.0,false,3729991.2050907575,,-3098.0,0.0,0.0,0.0,0.0,0.0,1.8457029360000001,0.0,0.0,2702.0,0.0,0.0,-0.0,0.0,0.0,2.666015352,0.0,0.0,-1260.0,0.0,0.0,0.0,0.0,0.0,4.044189039,0.0,0.0,1796.0,0.0,0.0,-0.0,0.0,0.0,2.452392327,0.0,0.0,1.5499999523162842,0.2199999988079071,19.950000762939453,0.00506591796875,0.0286865234375,1.00103759765625,32.20000076293945,0.0,1.0,-0.77935791015625,1.220977783203125,Waiting,0.0,0.0,0.0,0.0,0.0,0.0,0.0,0.0,
2.7804160000000264,0.0,0.0,false,3730215.910707766,,-3098.0,0.0,0.0,0.0,0.0,0.125,1.8457029360000001,0.0,0.0012207030000004337,2702.0,0.0,0.0,-0.0,0.0,0.0,2.666015352,0.0,0.0,-1260.0,0.0,0.0,0.0,0.0,0.0,4.044189039,0.0,0.0,1796.0,0.0,0.0,-0.0,0.0,0.0,2.452392327,0.0,0.0012207029999995456,1.5499999523162842,0.2199999988079071,19.950000762939453,0.00347900390625,0.026611328125,0.99908447265625,32.20000076293945,0.0,0.0,-0.77935791015625,1.220977783203125,Waiting,0.0,0.0,0.0,0.0,0.0,0.0,0.0,0.0,
2.8435140000000247,0.0,0.0,false,3730435.9228121415,,-3098.0,0.0,0.0,0.0,0.0,0.0,1.8457029360000001,0.0,-0.0012207030000004337,2702.0,0.0,0.0,-0.0,0.0,0.0,2.666015352,0.0,0.0,-1260.0,0.0,0.0,0.0,0.0,0.0,4.045409742,0.0,0.0,1796.0,0.0,0.0,-0.0,0.0,0.0,2.451171624,0.0,-0.0012207029999995456,1.5499999523162842,0.2199999988079071,19.950000762939453,0.00628662109375,0.0247802734375,1.00543212890625,32.20000076293945,0.0,0.0,-0.77935791015625,1.220977783203125,Waiting,0.0,0.0,0.0,0.0,0.0,0.0,0.0,0.0,
2.9057980000000097,0.0,0.0,false,3730651.242138201,,-3098.0,0.0,0.0,0.0,0.0,0.0,1.8457029360000001,0.0,0.0,2702.0,0.0,0.0,-0.0,0.0,0.0,2.666015352,0.0,0.0,-1260.0,0.0,0.0,0.0,0.0,0.0,4.044189039,0.0,0.0012207029999995456,1796.0,0.0,0.0,-0.0,0.0,0.0,2.452392327,0.0,0.0012207029999995456,1.5499999523162842,0.2199999988079071,19.950000762939453,0.00347900390625,0.027587890625,1.00482177734375,32.20000076293945,0.0,0.0,-0.77935791015625,1.220977783203125,Waiting,0.0,0.0,0.0,0.0,0.0,0.0,0.0,0.0,
2.9644490000000223,0.0,0.0,false,3730860.2102628285,,-3098.0,0.0,0.0,0.0,0.0,0.0,1.8457029360000001,0.0,0.0,2702.0,0.0,0.0,-0.0,0.0,0.0,2.667236055,0.0,0.0,-1260.0,0.0,0.0,0.0,0.0,0.0,4.044189039,0.0,0.0,1796.0,0.0,0.0,-0.0,0.0,0.0,2.45361303,0.0,0.0,1.5499999523162842,0.2199999988079071,19.950000762939453,0.00628662109375,0.0283203125,1.0013427734375,32.189998626708984,0.0,2.0,-0.77935791015625,1.220977783203125,Waiting,0.0,0.0,0.0,0.0,0.0,0.0,0.0,0.0,
3.032923999999999,0.0,0.0,false,3731064.487250352,,-3098.0,0.0,0.0,0.0,0.0,0.0,1.8457029360000001,0.0,0.0,2702.0,0.0,0.0,-0.0,0.0,0.0,2.666015352,0.0,0.0,-1260.0,0.0,0.0,0.0,0.0,0.0,4.045409742,0.0,-0.0012207029999995456,1796.0,0.0,0.0,-0.0,0.0,0.0,2.452392327,0.0,-0.0012207029999995456,1.5499999523162842,0.2199999988079071,19.950000762939453,0.00445556640625,0.02642822265625,0.9984130859375,32.189998626708984,0.0,0.0,-0.77935791015625,1.220977783203125,Waiting,0.0,0.0,0.0,0.0,0.0,0.0,0.0,0.0,
3.0897829999999957,0.0,0.0,false,3731264.0738346023,,-3098.0,0.0,0.0,0.0,0.0,0.0,1.8457029360000001,0.0,0.0012207030000004337,2702.0,0.0,0.0,-0.0,0.0,0.0,2.666015352,0.0,0.0,-1260.0,0.0,0.0,0.0,0.0,0.0,4.042968336,0.0,0.0012207029999995456,1796.0,0.0,0.0,-0.0,0.0,0.0,2.452392327,0.0,0.0012207029999995456,1.5499999523162842,0.2199999988079071,19.950000762939453,0.002685546875,0.0245361328125,0.996826171875,32.189998626708984,0.0,-1.0,-0.77935791015625,1.220977783203125,Waiting,0.0,0.0,0.0,0.0,0.0,0.0,0.0,0.0,
3.152130999999994,0.0,0.0,false,3731458.970749257,,-3098.0,0.0,0.0,0.0,0.0,0.0,1.8457029360000001,0.0,-0.0012207030000004337,2702.0,0.0,0.0,-0.0,0.0,0.0,2.667236055,0.0,0.0,-1260.0,0.0,0.0,0.0,0.0,0.0,4.044189039,0.0,-0.0012207029999995456,1796.0,0.0,0.0,-0.0,0.0,0.0,2.452392327,0.0,-0.0012207029999995456,1.5499999523162842,0.2199999988079071,19.950000762939453,0.00323486328125,0.02734375,0.9976806640625,32.189998626708984,0.0,0.0,-0.77935791015625,1.220977783203125,Waiting,0.0,0.0,0.0,0.0,0.0,0.0,0.0,0.0,
3.2110599999999976,0.0,0.0,false,3731649.1787278415,,-3098.0,0.0,0.0,0.0,0.0,0.125,1.8457029360000001,0.0,0.0012207030000004337,2702.0,0.0,0.0,-0.0,0.0,0.0,2.666015352,0.0,0.0,-1260.0,0.0,0.0,0.0,0.0,0.0,4.042968336,0.0,0.0,1796.0,0.0,0.0,-0.0,0.0,0.0,2.452392327,0.0,0.0,1.5499999523162842,0.2199999988079071,19.950000762939453,0.00286865234375,0.02880859375,1.00164794921875,32.189998626708984,0.0,0.0,-0.77935791015625,1.220977783203125,Waiting,0.0,0.0,0.0,0.0,0.0,0.0,0.0,0.0,
3.275698000000033,0.0,0.0,false,3731834.6985037276,,-3098.0,0.0,0.0,0.0,0.0,0.125,1.8457029360000001,0.0,0.0,2702.0,0.0,0.0,-0.0,0.0,0.0,2.666015352,0.0,0.0,-1260.0,0.0,0.0,0.0,0.0,0.0,4.044189039,0.0,0.0,1796.0,0.0,0.0,-0.0,0.0,0.0,2.452392327,0.0,0.0,1.5499999523162842,0.2199999988079071,19.950000762939453,0.002685546875,0.03033447265625,0.99871826171875,32.189998626708984,0.0,0.0,-0.77935791015625,1.220977783203125,Waiting,0.0,0.0,0.0,0.0,0.0,0.0,0.0,0.0,
3.3356620000000112,0.0,0.0,false,3732013.974768012,,-3098.0,0.0,0.0,0.0,0.0,0.0,1.8457029360000001,0.0,0.0,2702.0,0.0,0.0,-0.0,0.0,0.0,2.667236055,0.0,0.0,-1260.0,0.0,0.0,0.0,0.0,0.0,4.044189039,0.0,0.0,1796.0,0.0,0.0,-0.0,0.0,0.0,2.452392327,0.0,0.0,1.5499999523162842,0.2199999988079071,19.950000762939453,0.003662109375,0.0279541015625,1.002197265625,32.189998626708984,0.0,0.0,-0.77935791015625,1.220977783203125,Waiting,0.0,0.0,0.0,0.0,0.0,0.0,0.0,0.0,
3.401858999999997,0.0,0.0,false,3732188.564458114,,-3098.0,0.0,0.0,0.0,0.0,0.125,1.8444822330000001,0.0,0.0012207030000004337,2702.0,0.0,0.0,-0.0,0.0,0.0,2.666015352,0.0,0.0,-1260.0,0.0,0.0,0.0,0.0,0.0,4.044189039,0.0,0.0,1796.0,0.0,0.0,-0.0,0.0,0.0,2.452392327,0.0,0.0012207029999995456,1.5499999523162842,0.2199999988079071,19.950000762939453,0.0030517578125,0.0257568359375,1.0048828125,32.189998626708984,0.0,-1.0,-0.77935791015625,1.220977783203125,Waiting,0.0,0.0,0.0,0.0,0.0,0.0,0.0,0.0,
3.463826000000001,0.0,0.0,false,3732360.024186822,,-3098.0,0.0,0.0,0.0,0.0,0.0,1.8457029360000001,0.0,-0.0012207030000004337,2702.0,0.0,0.0,-0.0,0.0,0.0,2.666015352,0.0,0.0,-1260.0,0.0,0.0,0.0,0.0,0.0,4.044189039,0.0,0.0,1796.0,0.0,0.0,-0.0,0.0,0.0,2.452392327,0.0,0.0,1.5499999523162842,0.2199999988079071,19.950000762939453,0.00128173828125,0.02783203125,0.9991455078125,32.209999084472656,0.0,-2.0,-0.77935791015625,1.220977783203125,Waiting,0.0,0.0,0.0,0.0,0.0,0.0,0.0,0.0,
3.524744000000006,0.0,0.0,false,3732526.7986447746,,-3098.0,0.0,0.0,0.0,0.0,0.0,1.8457029360000001,0.0,0.0,2702.0,0.0,0.0,-0.0,0.0,0.0,2.667236055,0.0,0.0,-1260.0,0.0,0.0,0.0,0.0,0.0,4.044189039,0.0,0.0,1796.0,0.0,0.0,-0.0,0.0,0.0,2.452392327,0.0,0.0,1.5499999523162842,0.2199999988079071,19.950000762939453,0.00634765625,0.029052734375,1.0057373046875,32.209999084472656,0.0,2.0,-0.77935791015625,1.220977783203125,Waiting,0.0,0.0,0.0,0.0,0.0,0.0,0.0,0.0,
3.589886999999988,0.0,0.0,false,3732688.8885645783,,-3098.0,0.0,0.0,0.0,0.0,0.0,1.8457029360000001,0.0,0.0,2702.0,0.0,0.0,-0.0,0.0,0.0,2.666015352,0.0,0.0,-1260.0,0.0,0.0,0.0,0.0,0.0,4.044189039,0.0,0.0,1796.0,0.0,0.0,-0.0,0.0,0.0,2.45361303,0.0,0.0,1.559999942779541,0.2199999988079071,19.950000762939453,0.0028076171875,0.02703857421875,1.0015869140625,32.209999084472656,0.0,-1.0,-0.77935791015625,1.220977783203125,Waiting,0.0,0.0,0.0,0.0,0.0,0.0,0.0,0.0,
3.6500050000000046,0.0,0.0,false,3732844.6364726117,,-3098.0,0.0,0.0,0.0,0.0,0.0,1.8457029360000001,0.0,0.0,2702.0,0.0,0.0,-0.0,0.0,0.0,2.667236055,0.0,0.0,-1260.0,0.0,0.0,0.0,0.0,0.0,4.041747633,0.0,0.0,1796.0,0.0,0.0,-0.0,0.0,0.0,2.45361303,0.0,0.0,1.559999942779541,0.2199999988079071,19.940000534057617,0.0023193359375,0.02581787109375,0.99932861328125,32.209999084472656,0.0,-1.0,-0.77935791015625,1.220977783203125,Waiting,0.0,0.0,0.0,0.0,0.0,0.0,0.0,0.0,
3.7109310000000404,0.0,0.0,false,3732995.7014800915,,-3098.0,0.0,0.0,0.0,0.0,0.0,1.8457029360000001,0.0,0.0,2702.0,0.0,0.0,-0.0,0.0,0.0,2.667236055,0.0,0.0,-1260.0,0.0,0.0,0.0,0.0,0.0,4.045409742,0.0,0.0,1796.0,0.0,0.0,-0.0,0.0,0.0,2.452392327,0.0,0.0012207029999995456,1.559999942779541,0.2199999988079071,19.950000762939453,0.0023193359375,0.0255126953125,1.00274658203125,32.209999084472656,0.0,-2.0,-0.77935791015625,1.220977783203125,Waiting,0.0,0.0,0.0,0.0,0.0,0.0,0.0,0.0,
3.773253000000026,0.0,0.0,false,3733142.084319141,,-3098.0,0.0,0.0,0.0,0.0,0.0,1.8457029360000001,0.0,0.0,2702.0,0.0,0.0,-0.0,0.0,0.0,2.667236055,0.0,0.0,-1260.0,0.0,0.0,0.0,0.0,0.0,4.044189039,0.0,0.0,1796.0,0.0,0.0,-0.0,0.0,0.0,2.452392327,0.0,0.0,1.559999942779541,0.2199999988079071,19.950000762939453,0.004150390625,0.0279541015625,1.00048828125,32.209999084472656,0.0,0.0,-0.77935791015625,1.220977783203125,Waiting,0.0,0.0,0.0,0.0,0.0,0.0,0.0,0.0,
3.8337939999999944,0.0,0.0,false,3733283.78572173,,-3098.0,0.0,0.0,0.0,0.0,0.0,1.8444822330000001,0.0,0.0,2702.0,0.0,0.0,-0.0,0.0,0.0,2.666015352,0.0,0.0,-1260.0,0.0,0.0,0.0,0.0,0.0,4.042968336,0.0,0.0,1796.0,0.0,0.0,-0.0,0.0,0.0,2.452392327,0.0,-0.0012207029999995456,1.559999942779541,0.2199999988079071,19.940000534057617,0.00274658203125,0.02850341796875,1.00390625,32.209999084472656,0.0,0.0,-0.77935791015625,1.220977783203125,Waiting,0.0,0.0,0.0,0.0,0.0,0.0,0.0,0.0,
3.8942280000000027,0.0,0.0,false,3733420.8064196757,,-3098.0,0.0,0.0,0.0,0.0,0.0,1.8457029360000001,0.0,0.0,2702.0,0.0,0.0,-0.0,0.0,0.0,2.666015352,0.0,0.0,-1260.0,0.0,0.0,0.0,0.0,0.0,4.044189039,0.0,0.0,1796.0,0.0,0.0,-0.0,0.0,0.0,2.451171624,0.0,0.0,1.559999942779541,0.2199999988079071,19.940000534057617,0.00506591796875,0.02667236328125,1.00152587890625,32.209999084472656,0.0,0.0,-0.77935791015625,1.220977783203125,Waiting,0.0,0.0,0.0,0.0,0.0,0.0,0.0,0.0,
3.959079000000027,0.0,0.0,false,3733553.1471446436,,-3098.0,0.0,0.0,0.0,0.0,0.0,1.8457029360000001,0.0,0.0,2702.0,0.0,0.0,-0.0,0.0,0.0,2.667236055,0.0,0.0,-1260.0,0.0,0.0,0.0,0.0,0.0,4.045409742,0.0,0.0,1796.0,0.0,0.0,-0.0,0.0,0.0,2.452392327,0.0,0.0,1.559999942779541,0.2199999988079071,19.940000534057617,0.00408935546875,0.02655029296875,1.00128173828125,32.20000076293945,0.0,0.0,-0.77935791015625,1.220977783203125,Waiting,0.0,0.0,0.0,0.0,0.0,0.0,0.0,0.0,
4.014335000000021,0.0,0.0,false,3733680.8086281456,,-3098.0,0.0,0.0,0.0,0.0,0.0,1.8457029360000001,0.0,0.0,2702.0,0.0,0.0,-0.0,0.0,0.0,2.667236055,0.0,0.0,-1260.0,0.0,0.0,0.0,0.0,0.0,4.042968336,0.0,0.0,1796.0,0.0,0.0,-0.0,0.0,0.0,2.452392327,0.0,0.0,1.559999942779541,0.20999999344348907,19.940000534057617,0.0050048828125,0.02850341796875,1.00286865234375,32.20000076293945,0.0,1.0,-0.77935791015625,1.220977783203125,Waiting,0.0,0.0,0.0,0.0,0.0,0.0,0.0,0.0,
4.082005000000005,0.0,0.0,false,3733805.346670835,,-3098.0,1.0,0.0,853.125,0.0,0.0,1.8457029360000001,0.5533560492066917,0.0,2702.0,1.75,7.5,853.125,0.0,0.0,2.670898164,4.397316058113637,0.0,-1260.0,1.375,0.0,853.125,0.0,0.0,4.042968336,4.40175868900686,0.0,1796.0,1.375,22.5,853.125,0.0,1.125,2.452392327,0.5515167311543303,0.0,1.590000033378601,0.25999999046325684,19.93000030517578,0.20245361328125,-0.05059814453125,1.02874755859375,32.20000076293945,0.0,158.0,-0.779266357421875,1.2208709716796875,Waiting,0.0,0.0,0.0,0.0,0.0,0.0,0.0,0.0,
4.140255000000004,0.0,0.0,false,3733925.206772597,,-3098.0,10.125,52.5,1558.59375,0.0,1.75,1.8737791050000001,0.5533560492066917,0.0,2702.0,11.75,142.5,1558.59375,0.0,1.5,2.546386458,4.397316058113637,0.0,-1260.0,8.5,60.0,1558.59375,0.0,2.25,3.876952728,4.40175868900686,0.0,1796.0,9.0,142.5,1558.59375,0.0,2.625,2.6452634010000002,0.5515167311543303,0.0,1.590000033378601,0.15000000596046448,19.360000610351562,-0.107421875,0.02716064453125,1.021728515625,32.20000076293945,0.0,-104.0,-0.7787933349609375,1.219635009765625,Waiting,0.0,0.0,0.0,0.0,0.0,0.0,0.0,0.0,
4.197206000000006,0.0,0.0,false,3734040.3896645135,,-3078.0,7.5,135.0,0.0,0.0,0.875,2.141113062,0.5533560492066917,0.07690428899999979,2731.0,12.0,165.0,0.0,0.0,1.375,2.357177493,4.397316058113637,-0.1513671719999996,-1241.0,8.5,120.0,0.0,0.0,1.5,3.6779781390000004,4.40175868900686,4.780660173999999,1830.0,8.875,210.0,0.0,0.0,0.875,2.886962595,0.5515167311543303,-4.747304708,1.7000000476837158,0.23999999463558197,18.420000076293945,0.09576416015625,-0.03497314453125,0.59552001953125,32.20000076293945,0.0,71.0,-0.7789306640625,1.218963623046875,Waiting,0.0,0.0,0.0,0.0,0.0,0.0,0.0,0.0,
4.255699000000022,0.0,0.0,false,3734150.8960775123,,-3078.0,0.0,67.5,0.0,0.0,0.375,2.348632572,0.5533560492066917,0.25146481799999965,2731.0,0.0,82.5,0.0,0.0,1.0,2.283935313,4.397316058113637,-0.17822263800000027,-1241.0,0.0,67.5,0.0,0.0,0.625,3.602294553,4.40175868900686,-0.1940917769999997,1817.0,0.0,-45.0,0.0,0.0,0.25,2.993163756,0.5515167311543303,0.2331542729999998,1.6100000143051147,0.2800000011920929,18.690000534057617,0.03802490234375,-0.00836181640625,0.76043701171875,32.20000076293945,0.0,22.0,-0.779266357421875,1.2177886962890625,Waiting,0.0,0.0,0.0,0.0,0.0,0.0,0.0,0.0,
4.3309580000000425,0.0,0.0,false,3734418.8527971664,,-3084.0,0.0,-75.0,0.0,0.0,0.125,2.4267575640000003,0.5533560492066917,0.20263669800000095,2737.0,0.0,-7.5,0.0,0.0,0.5,2.283935313,4.397316058113637,0.0,-1241.0,0.0,-37.5,0.0,0.0,0.125,3.603515256,4.40175868900686,0.0,1817.0,0.0,-67.5,0.0,0.0,0.0,2.9980465680000004,0.5515167311543303,0.0,1.590000033378601,0.25,19.329999923706055,0.01593017578125,0.059814453125,1.0118408203125,32.20000076293945,0.0,21.0,-0.7794952392578125,1.2170867919921875,Waiting,0.0,0.0,0.0,0.0,0.0,0.0,0.0,0.0,
4.388750999999989,0.0,0.0,false,3734679.9283296005,,-3084.0,0.0,-90.0,0.0,0.0,0.125,2.4291989700000003,0.5533560492066917,0.052490229,2726.0,0.0,-67.5,0.0,0.0,0.125,2.28271461,4.397316058113637,0.0,-1253.0,0.0,-82.5,0.0,0.0,0.0,3.599853147,4.40175868900686,0.0,1813.0,0.0,-7.5,0.0,0.0,0.0,2.9968258650000004,0.5515167311543303,0.0,1.5700000524520874,0.23999999463558197,19.760000228881836,0.018798828125,0.0029296875,1.035400390625,32.20000076293945,0.0,4.0,-0.779571533203125,1.2171173095703125,Waiting,0.0,0.0,0.0,0.0,0.0,0.0,0.0,0.0,
4.446068000000029,0.0,0.0,false,3734936.6925,,-3099.0,0.0,-45.0,0.0,0.0,0.0,2.4304196730000003,0.5533560492066917,0.0,2726.0,0.0,-37.5,0.0,0.0,0.25,2.280273204,4.397316058113637,0.0,-1253.0,0.0,-45.0,0.0,0.0,0.125,3.602294553,4.40175868900686,-0.004882811999999959,1813.0,0.0,-22.5,0.0,0.0,0.0,2.9980465680000004,0.5515167311543303,-0.0012207029999999897,1.5299999713897705,0.23000000417232513,19.790000915527344,-0.00592041015625,0.0340576171875,0.93731689453125,32.20000076293945,0.0,-6.0,-0.77960205078125,1.2170257568359375,Waiting,0.0,0.0,0.0,0.0,0.0,0.0,0.0,0.0,
4.509448000000033,0.0,0.0,false,3735189.14598198,,-3083.0,12.125,37.5,1853.90625,0.0,0.125,2.420654049,0.5533560492066917,0.0,2740.0,12.875,22.5,1853.90625,0.0,0.125,2.2741696890000003,4.397316058113637,0.0,-1237.0,8.25,15.0,1853.90625,0.0,0.0,3.5864254140000003,4.40175868900686,0.0,1829.0,6.75,15.0,1853.90625,0.0,0.0,2.9980465680000004,0.5515167311543303,0.0,1.7000000476837158,0.2199999988079071,19.3700008392334,-0.156982421875,-0.27362060546875,1.00970458984375,32.22999954223633,0.0,-252.0,-0.77947998046875,1.2174072265625,Waiting,0.0,0.0,0.0,0.0,0.0,0.0,0.0,0.0,
4.573411000000022,0.0,0.0,false,3735437.2894490156,,-3083.0,10.25,210.0,0.0,0.0,0.0,2.420654049,0.5533560492066917,-0.009765624000000805,2740.0,12.0,165.0,0.0,0.0,0.0,2.264404065,4.397316058113637,0.0,-1237.0,9.875,195.0,0.0,0.0,0.0,3.554687136,4.40175868900686,-0.013427732999999442,1829.0,11.75,202.5,0.0,0.0,0.0,2.9980465680000004,0.5515167311543303,0.0,1.5499999523162842,0.15000000596046448,17.079999923706055,-0.139892578125,0.21160888671875,1.1082763671875,32.22999954223633,0.0,-83.0,-0.7808074951171875,1.2190399169921875,Waiting,0.0,0.0,0.0,0.0,0.0,0.0,0.0,0.0,
4.633983000000008,0.0,0.0,false,3735681.1235744413,,-3060.0,0.0,150.0,0.0,0.0,0.125,2.420654049,0.5533560492066917,0.0,2775.0,0.0,165.0,0.0,0.0,0.0,2.238769302,4.397316058113637,-0.014648435999999876,-1206.0,0.0,187.5,0.0,0.0,0.0,3.5314937790000003,4.40175868900686,-0.035400387000000144,1860.0,0.0,187.5,0.0,0.0,0.0,2.9992672710000003,0.5515167311543303,-0.0012207029999999897,1.5700000524520874,0.12999999523162842,15.100000381469727,-0.03363037109375,0.131103515625,1.04669189453125,32.22999954223633,0.0,-8.0,-0.783111572265625,1.221160888671875,Waiting,0.0,0.0,0.0,0.0,0.0,0.0,0.0,0.0,
4.691484999999986,0.0,0.0,false,3735920.649031452,,-3060.0,0.0,97.5,0.0,0.0,0.125,2.419433346,0.5533560492066917,0.0,2775.0,0.0,225.0,0.0,0.0,0.0,2.210693133,4.397316058113637,-0.024414059999999793,-1206.0,0.0,172.5,0.0,0.0,0.0,3.5314937790000003,4.40175868900686,-0.01831054500000029,1860.0,0.0,225.0,0.0,0.0,0.0,2.9980465680000004,0.5515167311543303,0.0012207029999999897,1.6799999475479126,0.2199999988079071,14.0,0.06329345703125,-0.0111083984375,1.093505859375,32.22999954223633,0.0,46.0,-0.7850799560546875,1.2243804931640625,Waiting,0.0,0.0,0.0,0.0,0.0,0.0,0.0,0.0,
4.752842000000004,0.0,0.0,false,3736153.7249674564,,-3044.0,0.0,135.0,0.0,0.0,0.125,2.418212643,0.5533560492066917,-0.0012207030000004337,2792.0,0.0,187.5,0.0,0.0,0.0,2.205810321,4.397316058113637,-0.023193357000000248,-1193.0,0.0,142.5,0.0,0.0,0.0,3.5327144820000003,4.40175868900686,0.0,1883.0,0.0,165.0,0.0,0.0,0.0,2.9980465680000004,0.5515167311543303,-0.0012207029999999897,1.5800000429153442,0.3499999940395355,13.640000343322754,0.0706787109375,-0.0242919921875,1.030517578125,32.22999954223633,0.0,49.0,-0.7860870361328125,1.2267608642578125,Waiting,0.0,0.0,0.0,0.0,0.0,0.0,0.0,0.0,
4.810146999999997,0.0,0.0,false,3736381.3820681036,,-3044.0,0.0,30.0,0.0,0.0,0.125,2.419433346,0.5533560492066917,0.0012207030000004337,2792.0,0.0,52.5,0.0,0.0,0.0,2.205810321,4.397316058113637,-0.006103515000000392,-1193.0,0.0,52.5,0.0,0.0,0.0,3.5314937790000003,4.40175868900686,0.0,1883.0,0.0,37.5,0.0,0.0,0.0,2.9992672710000003,0.5515167311543303,0.0,1.559999942779541,0.3799999952316284,13.699999809265137,-0.021240234375,0.05059814453125,1.137939453125,32.22999954223633,0.0,-23.0,-0.7867279052734375,1.2292938232421875,Waiting,0.0,0.0,0.0,0.0,0.0,0.0,0.0,0.0,
4.86782699999999,0.0,0.0,false,3736604.732857812,,-3044.0,0.0,0.0,0.0,0.0,0.125,2.418212643,0.5533560492066917,0.0,2792.0,0.0,7.5,0.0,0.0,0.0,2.205810321,4.397316058113637,0.0012207030000004337,-1192.0,0.0,7.5,0.0,0.0,0.0,3.5314937790000003,4.40175868900686,0.0,1883.0,0.0,0.0,0.0,0.0,0.0,2.9980465680000004,0.5515167311543303,0.0012207029999999897,1.6100000143051147,0.36000001430511475,14.010000228881836,-0.0323486328125,0.04302978515625,1.01409912109375,32.22999954223633,0.0,-34.0,-0.7871246337890625,1.23199462890625,Waiting,0.0,0.0,0.0,0.0,0.0,0.0,0.0,0.0,
4.9262229999999985,0.0,0.0,false,3736823.7780091628,,-3044.0,0.0,0.0,0.0,0.0,0.125,2.419433346,0.5533560492066917,-0.0012207030000004337,2792.0,0.0,0.0,0.0,0.0,0.0,2.205810321,4.397316058113637,0.0,-1192.0,0.0,0.0,0.0,0.0,0.0,3.5314937790000003,4.40175868900686,-0.0012207029999995456,1883.0,0.0,0.0,0.0,0.0,0.0,2.9980465680000004,0.5515167311543303,0.0,1.590000033378601,0.3100000023841858,14.3100004196167,-1.220703125E-4,0.0233154296875,0.95404052734375,32.22999954223633,0.0,-6.0,-0.7880706787109375,1.232757568359375,Waiting,0.0,0.0,0.0,0.0,0.0,0.0,0.0,0.0,
4.981902999999991,0.0,0.0,false,3737038.5181945963,,-3044.0,0.0,0.0,0.0,0.0,0.125,2.421874752,0.5533560492066917,0.0,2792.0,0.0,0.0,0.0,0.0,0.0,2.200927509,4.397316058113637,0.0,-1192.0,0.0,0.0,0.0,0.0,0.0,3.5266109670000003,4.40175868900686,-0.0012207029999995456,1883.0,0.0,0.0,0.0,0.0,0.0,2.9968258650000004,0.5515167311543303,0.0,1.5800000429153442,0.28999999165534973,14.510000228881836,0.0269775390625,0.0260009765625,0.998291015625,32.20000076293945,0.0,20.0,-0.7880401611328125,1.2327880859375,Waiting,0.0,0.0,0.0,0.0,0.0,0.0,0.0,0.0,
5.046647999999987,0.0,0.0,false,3737248.954086413,,-3044.0,0.0,0.0,0.0,0.0,0.125,2.419433346,0.5533560492066917,0.0,2792.0,0.0,0.0,0.0,0.0,0.0,2.200927509,4.397316058113637,-0.004882811999999959,-1192.0,0.0,0.0,0.0,0.0,0.0,3.5266109670000003,4.40175868900686,0.0,1883.0,0.0,0.0,0.0,0.0,0.0,3.0029293800000003,0.5515167311543303,0.0,1.559999942779541,0.3100000023841858,14.5600004196167,-0.0010986328125,0.021240234375,1.02459716796875,32.20000076293945,0.0,-8.0,-0.787933349609375,1.2327880859375,Waiting,0.0,0.0,0.0,0.0,0.0,0.0,0.0,0.0,
5.100341000000015,0.0,0.0,false,3737452.945499974,,-3044.0,0.0,0.0,0.0,0.0,0.125,2.420654049,0.5533560492066917,0.0,2792.0,0.0,0.0,0.0,0.0,0.0,2.202148212,4.397316058113637,0.0,-1192.0,0.0,0.0,0.0,0.0,0.0,3.5229488580000003,4.40175868900686,0.0012207029999995456,1883.0,0.0,0.0,0.0,0.0,0.0,2.9980465680000004,0.5515167311543303,0.0,1.559999942779541,0.30000001192092896,14.529999732971191,-0.00732421875,0.033203125,0.99444580078125,32.20000076293945,0.0,-10.0,-0.787933349609375,1.2327880859375,Waiting,0.0,0.0,0.0,0.0,0.0,0.0,0.0,0.0,
5.162434999999998,0.0,0.0,false,3737652.6341869663,,-3044.0,0.0,0.0,0.0,0.0,0.125,2.419433346,0.5533560492066917,0.0,2792.0,0.0,0.0,0.0,0.0,0.0,2.200927509,4.397316058113637,0.0,-1192.0,0.0,0.0,0.0,0.0,0.0,3.5314937790000003,4.40175868900686,0.0012207029999995456,1883.0,0.0,0.0,0.0,0.0,0.0,2.9980465680000004,0.5515167311543303,-0.0012207029999999897,1.5800000429153442,0.28999999165534973,14.489999771118164,0.007080078125,0.02874755859375,0.975830078125,32.20000076293945,0.0,2.0,-0.787933349609375,1.2327880859375,Waiting,0.0,0.0,0.0,0.0,0.0,0.0,0.0,0.0,
5.2169260000000355,0.0,0.0,false,3737848.020819237,,-3044.0,0.0,0.0,0.0,0.0,0.125,2.419433346,0.5533560492066917,0.0,2792.0,0.0,0.0,0.0,0.0,0.0,2.199706806,4.397316058113637,0.0,-1192.0,0.0,0.0,0.0,0.0,0.0,3.5314937790000003,4.40175868900686,-0.0012207029999995456,1883.0,0.0,0.0,0.0,0.0,0.0,2.9980465680000004,0.5515167311543303,0.0,1.5700000524520874,0.28999999165534973,14.489999771118164,0.00518798828125,0.02069091796875,1.0137939453125,32.20000076293945,0.0,-1.0,-0.787933349609375,1.2327880859375,Waiting,0.0,0.0,0.0,0.0,0.0,0.0,0.0,0.0,
5.283828000000038,0.0,0.0,false,3738037.9947954617,,-3044.0,0.0,0.0,0.0,0.0,0.125,2.419433346,0.5533560492066917,0.0,2792.0,0.0,0.0,0.0,0.0,0.0,2.200927509,4.397316058113637,0.0,-1192.0,0.0,0.0,0.0,0.0,0.0,3.5278316700000003,4.40175868900686,0.0,1883.0,0.0,0.0,0.0,0.0,0.0,2.9980465680000004,0.5515167311543303,0.0,1.5700000524520874,0.2800000011920929,14.510000228881836,0.00347900390625,0.02947998046875,1.02496337890625,32.20000076293945,0.0,-1.0,-0.787933349609375,1.2327880859375,Waiting,0.0,0.0,0.0,0.0,0.0,0.0,0.0,0.0,
5.3444700000000305,0.0,0.0,false,3738223.668175904,,-3044.0,0.0,0.0,0.0,0.0,0.125,2.420654049,0.5533560492066917,-0.0012207030000004337,2792.0,0.0,0.0,0.0,0.0,0.0,2.200927509,4.397316058113637,0.0,-1192.0,0.0,0.0,0.0,0.0,0.0,3.5278316700000003,4.40175868900686,-0.0024414059999999793,1883.0,0.0,0.0,0.0,0.0,0.0,2.9980465680000004,0.5515167311543303,0.0,1.5700000524520874,0.27000001072883606,14.520000457763672,0.00390625,0.026123046875,1.00787353515625,32.20000076293945,0.0,-1.0,-0.787933349609375,1.2327880859375,Waiting,0.0,0.0,0.0,0.0,0.0,0.0,0.0,0.0,
5.401292000000016,0.0,0.0,false,3738402.9013322233,,-3044.0,0.0,0.0,0.0,0.0,0.125,2.420654049,0.5533560492066917,0.0012207030000004337,2792.0,0.0,0.0,0.0,0.0,0.0,2.200927509,4.397316058113637,0.0,-1192.0,0.0,0.0,0.0,0.0,0.0,3.5278316700000003,4.40175868900686,0.0024414059999999793,1883.0,0.0,0.0,0.0,0.0,0.0,2.9980465680000004,0.5515167311543303,0.0,1.559999942779541,0.2800000011920929,14.510000228881836,0.00518798828125,0.02587890625,1.00482177734375,32.20000076293945,0.0,0.0,-0.787933349609375,1.2327880859375,Waiting,0.0,0.0,0.0,0.0,0.0,0.0,0.0,0.0,
5.455540000000037,0.0,0.0,false,3738577.835458188,,-3044.0,2.125,30.0,944.9999999999999,0.0,1.875,2.4255368610000003,1.2410000000000012,0.0,2792.0,2.375,15.0,944.9999999999999,0.0,2.75,2.1191404080000003,3.711750000000001,0.0,-1192.0,2.5,-30.0,-944.9999999999999,0.0,3.125,3.457030896,3.7155000000000014,0.0,1883.0,1.25,-15.0,-944.9999999999999,0.0,3.25,3.085937184,1.236875000000001,0.0,1.590000033378601,0.27000001072883606,14.510000228881836,0.0364990234375,0.408447265625,1.01171875,32.20000076293945,0.0,126.0,-0.7878570556640625,1.2330322265625,Waiting,0.0,0.0,0.0,0.0,0.0,0.0,0.0,0.0,
5.5136820000000295,0.0,0.0,false,3738748.4712248934,,-3021.0,12.375,142.5,2520.0,0.0,2.125,2.677001679,1.2410000000000012,0.0,2809.0,24.0,165.0,2520.0,0.0,1.375,1.8457029360000001,3.711750000000001,0.0,-1210.0,25.625,-157.5,-2520.0,0.0,2.5,3.226318029,3.7155000000000014,0.0,1859.0,22.625,-195.0,-2520.0,0.0,1.375,3.3654781710000004,1.236875000000001,0.0,2.309999942779541,0.28999999165534973,14.5,-0.156494140625,0.30242919921875,0.9117431640625,32.20000076293945,0.0,-89.0,-0.7866058349609375,1.2352142333984375,Waiting,0.0,0.0,0.0,0.0,0.0,0.0,0.0,0.0,
5.574064000000013,0.0,0.0,false,3738914.8093032935,,-3021.0,32.875,240.0,1496.25,0.0,1.625,2.817382524,1.2410000000000012,0.0,2809.0,36.25,277.5,1496.25,0.0,0.0,1.6809080310000002,3.711750000000001,0.0,-1210.0,37.0,-202.5,-1496.25,0.0,1.25,3.140868819,3.7155000000000014,0.0,1859.0,33.25,-240.0,-1496.25,0.0,0.0,3.541259403,1.236875000000001,0.0,2.5799999237060547,0.3400000035762787,14.479999542236328,-0.08758544921875,-0.00140380859375,1.035888671875,32.20000076293945,0.0,-102.0,-0.7841339111328125,1.2412872314453125,Waiting,0.0,0.0,0.0,0.0,0.0,0.0,0.0,0.0,
5.634677000000025,0.0,0.0,false,3739076.850364204,,-2982.0,15.625,255.0,0.0,0.0,1.25,2.935790715,1.2410000000000012,0.0,2866.0,20.0,375.0,0.0,0.0,0.5,1.5539549190000002,3.711750000000001,-0.14282225099999968,-1252.0,7.125,-247.5,0.0,0.0,1.125,2.977294617,3.7155000000000014,-0.10986326999999996,1821.0,9.5,-255.0,0.0,0.0,0.25,3.6779781390000004,1.236875000000001,0.17700193499999983,2.5299999713897705,0.46000000834465027,14.520000457763672,-0.20068359375,-0.03216552734375,0.8770751953125,32.20000076293945,0.0,-218.0,-0.78167724609375,1.24871826171875,Waiting,0.0,0.0,0.0,0.0,0.0,0.0,0.0,0.0,
5.694211999999999,0.0,0.0,false,3739232.45533531,,-2982.0,0.0,157.5,0.0,0.0,0.5,3.044433282,1.2410000000000012,0.12573240900000027,2866.0,0.0,255.0,0.0,0.0,0.25,1.522216641,3.711750000000001,-0.11230467600000038,-1252.0,0.0,-127.5,0.0,0.0,0.125,2.861327832,3.7155000000000014,-0.13061522100000067,1821.0,0.0,-150.0,0.0,0.0,0.0,3.7475582100000002,1.236875000000001,0.13183592400000022,1.940000057220459,0.33000001311302185,14.569999694824219,0.2060546875,-0.16064453125,0.5887451171875,32.20000076293945,0.0,150.0,-0.7814483642578125,1.253204345703125,Waiting,0.0,0.0,0.0,0.0,0.0,0.0,0.0,0.0,
5.752141999999993,0.0,0.0,false,3739383.764852773,,-2970.0,0.0,45.0,0.0,0.0,0.25,3.068847342,1.2410000000000012,0.09643553700000007,2886.0,0.0,75.0,0.0,0.0,0.0,1.517333829,3.711750000000001,-0.024414059999999793,-1265.0,0.0,-82.5,0.0,0.0,0.0,2.8039547910000002,3.7155000000000014,-0.1171874879999999,1800.0,0.0,-97.5,0.0,0.0,0.0,3.748778913,1.236875000000001,0.06591796199999989,1.5800000429153442,0.28999999165534973,14.510000228881836,0.04156494140625,-0.08013916015625,0.88214111328125,32.20000076293945,0.0,9.0,-0.7822265625,1.2538299560546875,Waiting,0.0,0.0,0.0,0.0,0.0,0.0,0.0,0.0,
5.8115760000000005,0.0,0.0,false,3739529.668834209,,-2970.0,0.0,105.0,0.0,0.0,0.0,3.071288748,1.2410000000000012,0.008544920999999928,2886.0,0.0,90.0,0.0,0.0,0.0,1.517333829,3.711750000000001,-0.004882811999999959,-1265.0,0.0,-75.0,0.0,0.0,0.0,2.8039547910000002,3.7155000000000014,-0.04882812000000003,1800.0,0.0,-82.5,0.0,0.0,0.0,3.7475582100000002,1.236875000000001,0.0,1.309999942779541,0.3199999928474426,14.479999542236328,0.0101318359375,-0.0333251953125,0.82763671875,32.20000076293945,0.0,-7.0,-0.7831878662109375,1.2523345947265625,Waiting,0.0,0.0,0.0,0.0,0.0,0.0,0.0,0.0,
5.86957699999999,0.0,0.0,false,3739671.278818144,,-2960.0,0.875,52.5,918.75,0.0,0.0,3.035888361,0.5533560492066917,0.0,2895.0,1.25,52.5,918.75,0.0,2.375,1.5270994530000002,4.397316058113637,0.0,-1267.0,1.375,-7.5,918.75,0.0,3.25,2.885741892,4.40175868900686,0.0,1795.0,2.125,-7.5,918.75,0.0,4.875,3.696288684,0.5515167311543303,0.0,1.2200000286102295,0.25,14.539999961853027,-0.0052490234375,0.00482177734375,0.8963623046875,32.20000076293945,0.0,-12.0,-0.784637451171875,1.2498931884765625,Waiting,0.0,0.0,0.0,0.0,0.0,0.0,0.0,0.0,
5.931869000000006,0.0,0.0,false,3739808.5954746422,,-2960.0,12.625,142.5,2100.0,0.0,3.125,2.8430172870000003,0.5533560492066917,0.0,2895.0,14.5,127.5,2100.0,0.0,1.125,1.779784974,4.397316058113637,0.0,-1267.0,11.5,82.5,2100.0,0.0,0.625,3.150634443,4.40175868900686,0.0,1795.0,18.125,97.5,2100.0,0.0,0.375,3.354491844,0.5515167311543303,0.0,1.2899999618530273,0.27000001072883606,14.180000305175781,-0.0047607421875,-0.07342529296875,1.21343994140625,32.20000076293945,0.0,-34.0,-0.7881317138671875,1.2456207275390625,Waiting,0.0,0.0,0.0,0.0,0.0,0.0,0.0,0.0,
5.989989000000001,0.0,0.0,false,3739941.6194736296,,-2922.0,24.0,247.5,951.5625,0.0,0.75,2.55126927,0.5533560492066917,0.0,2928.0,31.5,187.5,951.5625,0.0,1.125,2.042236119,4.397316058113637,0.0,-1226.0,14.875,382.5,951.5625,0.0,0.625,3.4265133210000003,4.40175868900686,0.0,1832.0,21.25,322.5,951.5625,0.0,0.75,3.074950857,0.5515167311543303,0.0,1.090000033378601,0.38999998569488525,12.5,-0.08721923828125,0.265380859375,1.03375244140625,32.20000076293945,0.0,-38.0,-0.7923736572265625,1.2422943115234375,Waiting,0.0,0.0,0.0,0.0,0.0,0.0,0.0,0.0,
6.054575000000011,0.0,0.0,false,3740070.351484891,,-2922.0,7.25,270.0,0.0,0.0,0.625,2.335204839,0.5533560492066917,-0.2844237989999998,2928.0,12.0,255.0,0.0,0.0,0.25,2.177734152,4.397316058113637,0.2526855210000001,-1226.0,2.25,457.5,0.0,0.0,0.0,3.555907839,4.40175868900686,0.2539062240000005,1832.0,3.625,420.0,0.0,0.0,0.0,2.9492184480000003,0.5515167311543303,-0.2746581749999999,1.3600000143051147,0.11999999731779099,9.949999809265137,0.00531005859375,-3.0517578125E-4,0.65960693359375,32.189998626708984,0.0,1.0,-0.7987823486328125,1.2423858642578125,Waiting,0.0,0.0,0.0,0.0,0.0,0.0,0.0,0.0,
6.11475900000002,0.0,0.0,false,3740194.7921780734,,-2884.0,0.125,232.5,157.5,0.0,0.25,2.2705075800000003,1.2410000000000012,0.0,2963.0,0.0,240.0,157.5,0.0,2.875,2.1728513400000002,3.711750000000001,0.0,-1172.0,0.875,247.5,-157.5,0.0,2.0,3.5302730760000003,3.7155000000000014,0.0,1884.0,0.5,255.0,-157.5,0.0,5.25,2.963866884,1.236875000000001,0.0,1.559999942779541,0.27000001072883606,7.349999904632568,-0.0352783203125,0.18701171875,0.7974853515625,32.189998626708984,0.0,-17.0,-0.803619384765625,1.2447967529296875,Waiting,0.0,0.0,0.0,0.0,0.0,0.0,0.0,0.0,
6.1729970000000325,0.0,0.0,false,3740312.80336991,,-2884.0,5.625,270.0,2008.1249999999998,0.0,5.25,2.513427477,1.2410000000000012,0.0,2963.0,7.25,345.0,2008.1249999999998,0.0,0.875,1.878661917,3.711750000000001,0.0,-1172.0,13.875,90.0,-2008.1249999999998,0.0,3.875,3.232421544,3.7155000000000014,0.0,1884.0,14.5,150.0,-2008.1249999999998,0.0,1.375,3.3190914570000003,1.236875000000001,0.0,1.5700000524520874,0.36000001430511475,6.28000020980835,-0.11602783203125,0.47125244140625,1.082275390625,32.189998626708984,0.0,-73.0,-0.803680419921875,1.24749755859375,Waiting,0.0,0.0,0.0,0.0,0.0,0.0,0.0,0.0,
6.23545199999999,0.0,0.0,false,3740426.524804992,,-2824.0,22.625,375.0,2264.0625,0.0,1.125,2.7404782350000003,1.2410000000000012,0.0,3041.0,26.125,472.5,2264.0625,0.0,0.25,1.618652178,3.711750000000001,0.0,-1170.0,40.125,-60.0,-2264.0625,0.0,2.25,3.040771173,3.7155000000000014,0.0,1891.0,42.125,-30.0,-2264.0625,0.0,0.25,3.607177365,1.236875000000001,0.0,2.2200000286102295,0.4000000059604645,6.309999942779541,0.0194091796875,0.33990478515625,0.84515380859375,32.189998626708984,0.0,47.0,-0.8056640625,1.2542724609375,Waiting,0.0,0.0,0.0,0.0,0.0,0.0,0.0,0.0,
6.2920059999999935,0.0,0.0,false,3740534.8468618374,,-2824.0,23.75,240.0,866.25,0.0,2.5,2.878417674,1.2410000000000012,0.0,3041.0,19.625,307.5,866.25,0.0,0.25,1.4746092240000002,3.711750000000001,0.0,-1170.0,30.875,-330.0,-866.25,0.0,1.25,2.928466497,3.7155000000000014,0.0,1805.0,32.875,-390.0,-866.25,0.0,0.0,3.825683202,1.236875000000001,0.0,2.990000009536743,0.33000001311302185,6.849999904632568,-0.1405029296875,0.2685546875,1.06494140625,32.189998626708984,0.0,-120.0,-0.808990478515625,1.2700958251953125,Waiting,0.0,0.0,0.0,0.0,0.0,0.0,0.0,0.0,
6.365493000000017,0.0,0.0,false,3740801.9534109817,,-2775.0,6.25,382.5,0.0,0.0,1.0,3.0004879740000003,1.2410000000000012,0.14526365699999966,3098.0,5.375,435.0,0.0,0.0,0.0,1.4208982920000002,3.711750000000001,-0.1220703000000003,-1243.0,7.75,-495.0,0.0,0.0,0.125,2.869872753,3.7155000000000014,-0.09887694300000005,1805.0,8.625,-615.0,0.0,0.0,0.0,3.853759371,1.236875000000001,0.20019529200000008,3.319999933242798,0.3499999940395355,6.78000020980835,0.10943603515625,-0.11822509765625,0.74139404296875,32.189998626708984,0.0,85.0,-0.8131866455078125,1.286468505859375,Waiting,0.0,0.0,0.0,0.0,0.0,0.0,0.0,0.0,
6.42005700000003,0.0,0.0,false,3741063.576977071,,-2775.0,0.0,360.0,0.0,0.0,0.125,3.0590817180000003,1.2410000000000012,0.10131834900000003,3098.0,0.0,397.5,0.0,0.0,0.0,1.41601548,3.711750000000001,-0.04272460499999964,-1300.0,0.0,-337.5,0.0,0.0,0.0,2.822265336,3.7155000000000014,-0.052490229,1746.0,0.0,-390.0,0.0,0.0,0.0,3.8488765590000003,1.236875000000001,0.0,2.759999990463257,0.2800000011920929,6.440000057220459,-0.06463623046875,-0.23699951171875,1.13262939453125,32.189998626708984,0.0,-102.0,-0.81768798828125,1.2994384765625,Waiting,0.0,0.0,0.0,0.0,0.0,0.0,0.0,0.0,
6.485275000000024,0.0,0.0,false,3741320.1181241553,,-2707.0,0.0,472.5,0.0,0.0,0.125,3.068847342,1.2410000000000012,0.052490229,3174.0,0.0,450.0,0.0,0.0,0.0,1.414794777,3.711750000000001,-0.004882812000000403,-1300.0,0.0,-352.5,0.0,0.0,0.0,2.7954098700000003,3.7155000000000014,-0.05371093199999999,1746.0,0.0,-330.0,0.0,0.0,0.0,3.809814063,1.236875000000001,-0.004882811999999959,2.619999885559082,0.2800000011920929,6.179999828338623,0.0330810546875,-0.06170654296875,1.21099853515625,32.189998626708984,0.0,14.0,-0.8231964111328125,1.308258056640625,Waiting,0.0,0.0,0.0,0.0,0.0,0.0,0.0,0.0,
6.546042000000016,0.0,0.0,false,3741571.577644918,,-2707.0,0.0,457.5,0.0,0.0,0.0,3.068847342,1.2410000000000012,0.009765623999999917,3224.0,0.0,375.0,0.0,0.0,0.0,1.3964842320000002,3.711750000000001,-0.020751950999999824,-1353.0,0.0,-360.0,0.0,0.0,0.0,2.7893063550000003,3.7155000000000014,-0.024414059999999793,1688.0,0.0,-405.0,0.0,0.0,0.0,3.762206646,1.236875000000001,-0.03906249600000011,2.2300000190734863,0.3499999940395355,6.179999828338623,0.0355224609375,-0.0958251953125,1.044189453125,32.20000076293945,0.0,14.0,-0.8283233642578125,1.314453125,Waiting,0.0,0.0,0.0,0.0,0.0,0.0,0.0,0.0,
6.608165000000037,0.0,0.0,false,3741817.9563318775,,-2651.0,0.0,240.0,0.0,0.0,0.0,3.068847342,1.2410000000000012,0.0,3224.0,0.0,315.0,0.0,0.0,0.0,1.3977049350000001,3.711750000000001,0.0,-1353.0,0.0,-315.0,0.0,0.0,0.0,2.7893063550000003,3.7155000000000014,-0.004882811999999959,1688.0,0.0,-315.0,0.0,0.0,0.0,3.7365718830000003,1.236875000000001,-0.04760741700000004,1.8700000047683716,0.3199999928474426,6.139999866485596,-1.8310546875E-4,-0.11859130859375,1.08343505859375,32.20000076293945,0.0,-22.0,-0.833251953125,1.3188323974609375,Waiting,0.0,0.0,0.0,0.0,0.0,0.0,0.0,0.0,
6.666871000000043,0.0,0.0,false,3742059.2549773874,,-2605.0,0.125,240.0,610.3124999999999,0.0,0.0,3.067626639,1.2410000000000012,0.0,3262.0,0.0,277.5,610.3124999999999,0.0,0.0,1.3940428260000002,3.711750000000001,0.0,-1390.0,0.0,-270.0,-610.3124999999999,0.0,0.0,2.7893063550000003,3.7155000000000014,0.0,1649.0,0.0,-247.5,-610.3124999999999,0.0,0.0,3.7390132890000003,1.236875000000001,0.0,1.6399999856948853,0.3199999928474426,6.090000152587891,0.01171875,-0.09130859375,1.0362548828125,32.20000076293945,0.0,-7.0,-0.8387451171875,1.32073974609375,Waiting,0.0,0.0,0.0,0.0,0.0,0.0,0.0,0.0,
6.730861000000034,0.0,0.0,false,3742297.241293274,,-2605.0,1.0,315.0,984.375,0.0,0.0,3.067626639,1.2410000000000012,0.0,3262.0,1.625,217.5,984.375,0.0,0.0,1.41601548,3.711750000000001,0.0,-1390.0,1.25,-232.5,-984.375,0.0,0.0,2.7880856520000004,3.7155000000000014,0.0,1649.0,1.5,-285.0,-984.375,0.0,0.0,3.7353511800000003,1.236875000000001,0.0,1.5,0.3499999940395355,6.090000152587891,0.05291748046875,-0.0072021484375,1.0242919921875,32.20000076293945,0.0,42.0,-0.8444061279296875,1.32098388671875,Waiting,0.0,0.0,0.0,0.0,0.0,0.0,0.0,0.0,
6.7870169999999925,0.0,0.0,false,3742530.1489682416,,-2605.0,3.375,345.0,984.375,0.0,0.0,3.068847342,1.2410000000000012,0.0,3262.0,3.875,337.5,984.375,0.0,0.0,1.4001463410000001,3.711750000000001,0.0,-1450.0,3.625,-367.5,-984.375,0.0,0.0,2.784423543,3.7155000000000014,0.0,1595.0,3.25,-352.5,-984.375,0.0,0.0,3.7341304770000003,1.236875000000001,0.0,1.7899999618530273,0.3400000035762787,6.130000114440918,-0.032958984375,0.1844482421875,0.73773193359375,32.20000076293945,0.0,-19.0,-0.84967041015625,1.3225250244140625,Waiting,0.0,0.0,0.0,0.0,0.0,0.0,0.0,0.0,
6.846520000000019,0.0,0.0,false,3742757.978794179,,-2554.0,5.125,292.5,984.375,0.0,0.0,3.0651852330000002,1.2410000000000012,0.0,3320.0,5.625,382.5,984.375,0.0,0.0,1.411132668,3.711750000000001,0.0,-1450.0,4.75,-352.5,-984.375,0.0,0.0,2.78320284,3.7155000000000014,0.0,1595.0,4.75,-322.5,-984.375,0.0,0.0,3.7341304770000003,1.236875000000001,0.0,2.1600000858306885,0.41999998688697815,6.079999923706055,0.04510498046875,0.01361083984375,0.6876220703125,32.20000076293945,0.0,38.0,-0.8551483154296875,1.3270721435546875,Waiting,0.0,0.0,0.0,0.0,0.0,0.0,0.0,0.0,
6.905575000000011,0.0,0.0,false,3742980.7315628086,,-2554.0,6.75,382.5,984.375,0.0,0.0,3.067626639,1.2410000000000012,0.0,3320.0,7.125,382.5,984.375,0.0,0.0,1.411132668,3.711750000000001,0.0,-1519.0,6.5,-375.0,-984.375,0.0,0.0,2.784423543,3.7155000000000014,0.0,1523.0,6.625,-382.5,-984.375,0.0,0.0,3.7341304770000003,1.236875000000001,0.0,2.700000047683716,0.3499999940395355,6.039999961853027,0.0223388671875,0.2581787109375,1.10552978515625,32.20000076293945,0.0,37.0,-0.8603973388671875,1.334747314453125,Waiting,0.0,0.0,0.0,0.0,0.0,0.0,0.0,0.0,
6.959435999999987,0.0,0.0,false,3743198.4080656897,,-2481.0,6.0,480.0,728.4375,0.0,0.0,3.067626639,1.2410000000000012,0.0,3392.0,6.75,480.0,728.4375,0.0,0.0,1.4208982920000002,3.711750000000001,0.0,-1519.0,5.0,-510.0,-728.4375,0.0,0.0,2.78320284,3.7155000000000014,0.0,1523.0,4.75,-502.5,-728.4375,0.0,0.0,3.7341304770000003,1.236875000000001,0.0,2.9800000190734863,0.4099999964237213,5.980000019073486,-0.01641845703125,0.14239501953125,1.01531982421875,32.20000076293945,0.0,-14.0,-0.86505126953125,1.3460235595703125,Waiting,0.0,0.0,0.0,0.0,0.0,0.0,0.0,0.0,
