Time,ClimberA1,ClimberA2,CameraExists,HeapSpace,LoopTime,FRpos,FRCurrent,FRspeed,FRsetpoint,FRApos,FRACurrent,FREncpos,FREncSetpoint,FREncSpeed,FLpos,FLCurrent,FLspeed,FLsetpoint,FLApos,FLACurrent,FLEncpos,FLEncSetpoint,FLEncSpeed,BRpos,BRCurrent,BRspeed,BRsetpoint,BRApos,BRACurrent,BREncpos,BREncSetpoint,BREncSpeed,BLpos,BLCurrent,BLspeed,BLsetpoint,BLApos,BLACurrent,BLEncpos,BLEncSetpoint,BLEncSpeed,navx_Pitch,navx_Roll,navx_Yaw,navx_XAcc,navx_YAcc,navx_ZAcc,navx_Temp,navx_Bar,navx_Alt,navx_XDis,navx_YDis,GearPlacerState,ShootOutputV,ShootOutputCurrent,ShootEncPos,ShootEncVelocity,ShootSpeed,ShootSetpoint,CarouselSetpoint,CarouselCurrent,
0.5257870000000002,0.0,0.0,false,2855765.7327065147,,0.0,0.0,0.0,0.0,0.0,6.25,0.250244115,0.0,0.0,0.0,0.0,0.0,-0.0,0.0,6.25,4.842528801,0.0,0.0,0.0,0.0,0.0,0.0,0.0,0.0,4.11376911,0.0,0.0,0.0,0.0,0.0,-0.0,0.0,0.0,2.4877927140000002,0.0,0.0,1.0800000429153442,0.4399999976158142,-10.420000076293945,0.03045654296875,0.02740478515625,1.0169677734375,27.239999771118164,0.0,20.0,-3.96728515625E-4,9.1552734375E-4,Waiting,0.0,0.0,0.0,0.0,0.0,0.0,0.0,0.0,
0.6240329999999994,0.0,0.0,false,2857559.3073825506,,0.0,0.0,0.0,0.0,0.0,0.375,0.255126927,0.0,0.0,0.0,0.0,7.5,-0.0,0.0,0.5,4.317626511,0.0,0.0,0.0,0.0,0.0,0.0,0.0,0.0,4.112548407,0.0,0.0,0.0,0.0,0.0,-0.0,0.0,0.0,2.4877927140000002,0.0,0.0,1.0800000429153442,0.44999998807907104,-10.420000076293945,0.03607177734375,0.0048828125,0.9984130859375,27.239999771118164,0.0,30.0,0.0016937255859375,-4.119873046875E-4,Waiting,0.0,0.0,0.0,0.0,0.0,0.0,0.0,0.0,
0.6547210000000013,0.0,0.0,false,2859318.170355466,,0.0,0.0,0.0,0.0,0.0,0.375,0.245361303,0.0,-0.004882812000000403,1.0,0.0,0.0,-0.0,0.0,0.25,4.027099197,0.0,-0.6997328569999999,0.0,0.0,0.0,0.0,0.0,0.0,4.112548407,0.0,0.0,0.0,0.0,0.0,-0.0,0.0,0.0,2.4877927140000002,0.0,0.0,1.090000033378601,0.44999998807907104,-10.420000076293945,0.0145263671875,0.00762939453125,1.0384521484375,27.239999771118164,0.0,8.0,0.00396728515625,-0.0027923583984375,Waiting,0.0,0.0,0.0,0.0,0.0,0.0,0.0,0.0,
0.6927809999999991,0.0,0.0,false,2861050.563002681,,0.0,0.0,0.0,0.0,0.0,0.25,0.247802709,0.0,0.0012207030000004337,1.0,0.0,0.0,-0.0,0.0,0.125,3.7475582100000002,0.0,-0.5554198649999997,0.0,0.0,0.0,0.0,0.0,0.0,4.114989813,0.0,0.0,0.0,0.0,0.0,-0.0,0.0,0.0,2.4877927140000002,0.0,0.0,1.0800000429153442,0.44999998807907104,-10.420000076293945,0.0169677734375,0.00860595703125,1.001220703125,27.239999771118164,0.0,10.0,0.00396728515625,-0.0045623779296875,Waiting,0.0,0.0,0.0,0.0,0.0,0.0,0.0,0.0,
0.724515000000003,0.0,0.0,false,2862759.137307435,,0.0,0.0,0.0,0.0,0.0,0.375,0.24047849100000002,0.0,0.0012207030000004337,1.0,0.0,0.0,-0.0,0.0,0.0,3.605956662,0.0,-0.5554198649999997,0.0,0.0,0.0,0.0,0.0,0.0,4.112548407,0.0,0.0,0.0,0.0,0.0,-0.0,0.0,0.0,2.4877927140000002,0.0,0.0,1.0800000429153442,0.46000000834465027,-10.430000305175781,-0.022216796875,0.0035400390625,1.02020263671875,27.239999771118164,0.0,-27.0,0.00396728515625,-0.0064544677734375,Waiting,0.0,0.0,0.0,0.0,0.0,0.0,0.0,0.0,
0.751844000000001,0.0,0.0,false,2864441.424364123,,0.0,0.0,0.0,0.0,0.0,0.375,0.247802709,0.0,0.007324217999999938,1.0,0.0,0.0,-0.0,0.0,0.0,3.542480106,0.0,-0.2380370850000002,0.0,0.0,0.0,0.0,0.0,0.0,4.112548407,0.0,0.0,0.0,0.0,0.0,-0.0,0.0,0.0,2.4877927140000002,0.0,0.0,1.0700000524520874,0.44999998807907104,-10.420000076293945,-0.00244140625,0.0206298828125,0.9970703125,27.239999771118164,0.0,-10.0,0.0036773681640625,-0.007354736328125,Waiting,0.0,0.0,0.0,0.0,0.0,0.0,0.0,0.0,
0.8098549999999995,0.0,0.0,false,2866089.2575250836,,0.0,0.0,0.0,0.0,0.0,0.25,0.238037085,0.0,-0.006103515000000392,1.0,0.0,0.0,-0.0,0.0,0.0,3.5241695610000003,0.0,4.852564463,0.0,0.0,0.0,0.0,0.0,0.0,4.114989813,0.0,0.0,0.0,0.0,0.0,-0.0,0.0,0.0,2.4877927140000002,0.0,0.0,1.0800000429153442,0.44999998807907104,-10.420000076293945,-0.0162353515625,0.0205078125,1.01324462890625,27.239999771118164,0.0,-24.0,0.0034027099609375,-0.0073089599609375,Waiting,0.0,0.0,0.0,0.0,0.0,0.0,0.0,0.0,
0.8333979999999974,0.0,0.0,false,2867710.9518716577,,0.0,0.0,0.0,0.0,0.0,0.375,0.24658200600000002,0.0,0.006103515000000392,1.0,0.0,0.0,-0.0,0.0,0.0,3.5241695610000003,0.0,-0.051269526000000454,0.0,0.0,0.0,0.0,0.0,0.0,4.1333003580000005,0.0,0.0,0.0,0.0,0.0,-0.0,0.0,0.0,2.4877927140000002,0.0,0.0,1.0700000524520874,0.46000000834465027,-10.430000305175781,-0.02581787109375,0.0435791015625,1.00543212890625,27.239999771118164,0.0,-37.0,0.0029754638671875,-0.0072479248046875,Waiting,0.0,0.0,0.0,0.0,0.0,0.0,0.0,0.0,
0.8655949999999976,0.0,0.0,false,2869309.0501002003,,0.0,0.0,0.0,0.0,0.0,0.25,0.247802709,0.0,0.006103515000000392,1.0,0.0,0.0,-0.0,0.0,0.0,3.5241695610000003,0.0,-0.051269526000000454,0.0,0.0,0.0,0.0,0.0,0.0,4.11376911,0.0,0.0,0.0,0.0,0.0,-0.0,0.0,0.0,2.4877927140000002,0.0,0.0,1.0700000524520874,0.44999998807907104,-10.430000305175781,-0.03082275390625,0.03961181640625,1.01654052734375,27.239999771118164,0.0,-41.0,0.0023193359375,-0.0071868896484375,Waiting,0.0,0.0,0.0,0.0,0.0,0.0,0.0,0.0,
0.896104000000003,0.0,0.0,false,2870872.8811748996,,0.0,0.0,0.0,0.0,0.0,0.25,0.23925778800000003,0.0,0.0,1.0,0.0,0.0,-0.0,0.0,0.0,3.5327144820000003,0.0,0.0,0.0,0.0,0.0,0.0,0.0,0.0,4.11376911,0.0,0.0,0.0,0.0,0.0,-0.0,0.0,0.0,2.4877927140000002,0.0,0.0,1.0700000524520874,0.4399999976158142,-10.430000305175781,-0.03436279296875,0.0452880859375,1.015625,27.239999771118164,0.0,-46.0,0.0014190673828125,-0.0071868896484375,Waiting,0.0,0.0,0.0,0.0,0.0,0.0,0.0,0.0,
0.9307740000000012,0.0,0.0,false,2872410.700466978,,0.0,0.0,0.0,0.0,0.0,0.25,0.25146481800000003,0.0,0.0,1.0,0.0,0.0,-0.0,0.0,0.0,3.549804324,0.0,0.0,0.0,0.0,0.0,0.0,0.0,0.0,4.11376911,0.0,0.0,0.0,0.0,0.0,-0.0,0.0,0.0,2.4877927140000002,0.0,0.0,1.0700000524520874,0.4399999976158142,-10.430000305175781,-0.02886962890625,0.05450439453125,1.00830078125,27.239999771118164,0.0,-42.0,2.74658203125E-4,-0.0071563720703125,Waiting,0.0,0.0,0.0,0.0,0.0,0.0,0.0,0.0,
0.9788739999999998,0.0,0.0,false,2873925.0826666667,,0.0,0.0,0.0,0.0,0.0,0.25,0.25146481800000003,0.0,-0.008544921000000372,1.0,0.0,0.0,-0.0,0.0,0.0,3.5778804930000003,0.0,0.01831054500000029,0.0,0.0,0.0,0.0,0.0,0.0,4.111327704,0.0,0.0,0.0,0.0,0.0,-0.0,0.0,0.0,2.4877927140000002,0.0,0.0,1.0800000429153442,0.4399999976158142,-10.430000305175781,-0.025146484375,0.06427001953125,1.01611328125,27.239999771118164,0.0,-40.0,-0.0018768310546875,-0.006805419921875,Waiting,0.0,0.0,0.0,0.0,0.0,0.0,0.0,0.0,
1.0150989999999984,0.0,0.0,false,2875402.8247834775,,0.0,0.0,0.0,0.0,0.0,0.25,0.255126927,0.0,0.0024414059999999793,1.0,0.0,0.0,-0.0,0.0,0.0,3.592528929,0.0,0.026855465999999772,0.0,0.0,0.0,0.0,0.0,0.0,4.11376911,0.0,0.0,0.0,0.0,0.0,-0.0,0.0,0.0,2.4877927140000002,0.0,0.0,1.0800000429153442,0.44999998807907104,-10.430000305175781,-0.0341796875,0.0672607421875,1.016845703125,27.229999542236328,0.0,-50.0,-0.00457763671875,-0.0059814453125,Waiting,0.0,0.0,0.0,0.0,0.0,0.0,0.0,0.0,
1.0451830000000009,0.0,0.0,false,2876857.241011984,,0.0,0.0,0.0,0.0,0.0,0.25,0.247802709,0.0,0.0,1.0,0.0,0.0,-0.0,0.0,0.0,3.596191038,0.0,0.026855465999999772,0.0,0.0,0.0,0.0,0.0,0.0,4.11376911,0.0,0.0,0.0,0.0,0.0,-0.0,0.0,0.0,2.4877927140000002,0.0,0.0,1.090000033378601,0.44999998807907104,-10.430000305175781,-0.0306396484375,0.070556640625,1.00299072265625,27.229999542236328,0.0,-47.0,-0.006683349609375,-0.005157470703125,Waiting,0.0,0.0,0.0,0.0,0.0,0.0,0.0,0.0,
1.0748580000000039,0.0,0.0,false,2878288.377910845,,0.0,0.0,0.0,0.0,0.0,0.25,0.224609352,0.0,0.0,1.0,0.0,0.0,-0.0,0.0,0.0,3.596191038,0.0,0.026855465999999772,0.0,0.0,0.0,0.0,0.0,0.0,4.112548407,0.0,-0.0012207030000004337,0.0,0.0,0.0,-0.0,0.0,0.0,2.4865720110000002,0.0,0.0,1.090000033378601,0.44999998807907104,-10.430000305175781,-0.03118896484375,0.07659912109375,1.02288818359375,27.229999542236328,0.0,-49.0,-0.0090484619140625,-0.0041046142578125,Waiting,0.0,0.0,0.0,0.0,0.0,0.0,0.0,0.0,
1.1079779999999992,0.0,0.0,false,2879683.138297872,,0.0,0.0,0.0,0.0,0.0,0.25,0.2441406,0.0,0.008544921000000372,1.0,0.0,0.0,-0.0,0.0,0.0,3.594970335,0.0,0.0,0.0,0.0,0.0,0.0,0.0,0.0,4.112548407,0.0,-0.0012207030000004337,0.0,0.0,0.0,-0.0,0.0,0.0,2.4865720110000002,0.0,0.0,1.090000033378601,0.44999998807907104,-10.430000305175781,-0.02349853515625,0.0682373046875,1.0029296875,27.229999542236328,0.0,-39.0,-0.0116729736328125,-0.0028076171875,Waiting,0.0,0.0,0.0,0.0,0.0,0.0,0.0,0.0,
1.1292080000000024,0.0,0.0,false,2881054.729568106,,0.0,0.0,0.0,0.0,0.0,0.25,0.245361303,0.0,0.008544921000000372,1.0,0.0,0.0,-0.0,0.0,0.0,3.596191038,0.0,0.0,0.0,0.0,0.0,0.0,0.0,0.0,4.11376911,0.0,-0.0012207030000004337,0.0,0.0,0.0,-0.0,0.0,0.0,2.4877927140000002,0.0,0.0012207030000004337,1.0800000429153442,0.44999998807907104,-10.430000305175781,-0.02703857421875,0.06451416015625,1.01934814453125,27.229999542236328,0.0,-42.0,-0.0130615234375,-0.0020751953125,Waiting,0.0,0.0,0.0,0.0,0.0,0.0,0.0,0.0,
1.1582259999999986,0.0,0.0,false,2882403.197875166,,0.0,0.0,0.0,0.0,0.0,0.25,0.25756833300000004,0.0,-0.004882811999999959,1.0,0.0,0.0,-0.0,0.0,0.0,3.594970335,0.0,0.0012207029999995456,0.0,0.0,0.0,0.0,0.0,0.0,4.11376911,0.0,0.0012207030000004337,0.0,0.0,0.0,-0.0,0.0,0.0,2.4877927140000002,0.0,0.0012207030000004337,1.0800000429153442,0.44999998807907104,-10.430000305175781,-0.02960205078125,0.07000732421875,1.00616455078125,27.229999542236328,0.0,-46.0,-0.0160369873046875,-4.57763671875E-4,Waiting,0.0,0.0,0.0,0.0,0.0,0.0,0.0,0.0,
1.1871309999999975,0.0,0.0,false,2883715.4717982747,,0.0,0.0,0.0,0.0,0.0,0.25,0.25146481800000003,0.0,-0.004882811999999959,1.0,0.0,0.0,-0.0,0.0,0.0,3.594970335,0.0,0.0,0.0,0.0,0.0,0.0,0.0,0.0,4.112548407,0.0,0.0,0.0,0.0,0.0,-0.0,0.0,0.0,2.4877927140000002,0.0,-0.0012207030000004337,1.0800000429153442,0.44999998807907104,-10.430000305175781,-0.02447509765625,0.0625,1.00579833984375,27.229999542236328,0.0,-39.0,-0.01922607421875,0.001373291015625,Waiting,0.0,0.0,0.0,0.0,0.0,0.0,0.0,0.0,
1.212344000000001,0.0,0.0,false,2885004.7055702917,,0.0,0.0,0.0,0.0,0.0,0.25,0.23193357,0.0,-0.004882811999999959,1.0,0.0,0.0,-0.0,0.0,0.0,3.596191038,0.0,0.0,0.0,0.0,0.0,0.0,0.0,0.0,4.11376911,0.0,0.0,0.0,0.0,0.0,-0.0,0.0,0.0,2.4877927140000002,0.0,-0.0012207030000004337,1.059999942779541,0.44999998807907104,-10.430000305175781,-0.01727294921875,0.06219482421875,1.0025634765625,27.229999542236328,0.0,-32.0,-0.0226287841796875,0.00341796875,Waiting,0.0,0.0,0.0,0.0,0.0,0.0,0.0,0.0,
1.2456239999999998,0.0,0.0,false,2886270.9715043074,,0.0,0.0,0.0,0.0,0.0,0.25,0.262451145,0.0,0.0024414059999999793,1.0,0.0,0.0,-0.0,0.0,0.0,3.596191038,0.0,-0.0012207029999995456,0.0,0.0,0.0,0.0,0.0,0.0,4.112548407,0.0,0.0,0.0,0.0,0.0,-0.0,0.0,0.0,2.4877927140000002,0.0,0.0,1.059999942779541,0.44999998807907104,-10.430000305175781,-0.0179443359375,0.0660400390625,1.00494384765625,27.229999542236328,0.0,-34.0,-0.026214599609375,0.0056610107421875,Waiting,0.0,0.0,0.0,0.0,0.0,0.0,0.0,0.0,
1.2700680000000029,0.0,0.0,false,2887501.2132450333,,0.0,0.0,0.0,0.0,0.0,0.25,0.24291989700000002,0.0,0.0024414059999999793,1.0,0.0,0.0,-0.0,0.0,0.0,3.594970335,0.0,-0.0012207029999995456,0.0,0.0,0.0,0.0,0.0,0.0,4.112548407,0.0,0.0,0.0,0.0,0.0,-0.0,0.0,0.0,2.4877927140000002,0.0,0.0,1.059999942779541,0.46000000834465027,-10.430000305175781,-0.01580810546875,0.0611572265625,1.0069580078125,27.229999542236328,0.0,-30.0,-0.0299835205078125,0.00811767578125,Waiting,0.0,0.0,0.0,0.0,0.0,0.0,0.0,0.0,
1.2969840000000004,0.0,0.0,false,2888708.5956320316,,0.0,0.0,0.0,0.0,0.0,0.25,0.2441406,0.0,0.006103514999999948,1.0,0.0,0.0,-0.0,0.0,0.0,3.596191038,0.0,0.0,0.0,0.0,0.0,0.0,0.0,0.0,4.112548407,0.0,0.0,0.0,0.0,0.0,-0.0,0.0,0.0,2.4877927140000002,0.0,0.0012207030000004337,1.059999942779541,0.46000000834465027,-10.430000305175781,-0.0150146484375,0.05950927734375,1.0098876953125,27.229999542236328,0.0,-30.0,-0.0319366455078125,0.009429931640625,Waiting,0.0,0.0,0.0,0.0,0.0,0.0,0.0,0.0,
1.3268719999999994,0.0,0.0,false,2889893.164021164,,0.0,0.0,0.0,0.0,0.0,0.25,0.235595679,0.0,0.006103514999999948,1.0,0.0,0.0,-0.0,0.0,0.0,3.597411741,0.0,0.0,0.0,0.0,0.0,0.0,0.0,0.0,4.112548407,0.0,0.0,0.0,0.0,0.0,-0.0,0.0,0.0,2.4877927140000002,0.0,0.0,1.059999942779541,0.46000000834465027,-10.430000305175781,-0.02960205078125,0.06060791015625,0.99847412109375,27.229999542236328,0.0,-44.0,-0.0380859375,0.013671875,Waiting,0.0,0.0,0.0,0.0,0.0,0.0,0.0,0.0,
1.3619600000000027,0.0,0.0,false,2891052.499669531,,0.0,0.0,0.0,0.0,0.0,0.25,0.247802709,0.0,-0.008544920999999928,1.0,0.0,0.0,-0.0,0.0,0.0,3.594970335,0.0,0.0012207029999995456,0.0,0.0,0.0,0.0,0.0,0.0,4.112548407,0.0,0.0,0.0,0.0,0.0,-0.0,0.0,0.0,2.4877927140000002,0.0,0.0,1.059999942779541,0.46000000834465027,-10.430000305175781,-0.019775390625,0.063232421875,1.00433349609375,27.229999542236328,0.0,-35.0,-0.040252685546875,0.0151824951171875,Waiting,0.0,0.0,0.0,0.0,0.0,0.0,0.0,0.0,
1.394752000000004,0.0,0.0,false,2892178.4887714665,,0.0,0.0,0.0,0.0,0.0,0.25,0.25634763,0.0,0.0,1.0,0.0,0.0,-0.0,0.0,0.0,3.596191038,0.0,0.0,0.0,0.0,0.0,0.0,0.0,0.0,4.11376911,0.0,0.0,0.0,0.0,0.0,-0.0,0.0,0.0,2.4877927140000002,0.0,-0.0012207030000004337,1.0499999523162842,0.44999998807907104,-10.430000305175781,-0.0194091796875,0.0770263671875,1.00982666015625,27.229999542236328,0.0,-37.0,-0.04705810546875,0.0200958251953125,Waiting,0.0,0.0,0.0,0.0,0.0,0.0,0.0,0.0,
1.4160099999999984,0.0,0.0,false,2893281.81650165,,0.0,0.0,0.0,0.0,0.0,0.25,0.249023412,0.0,0.0,1.0,0.0,0.0,-0.0,0.0,0.0,3.596191038,0.0,0.0,0.0,0.0,0.0,0.0,0.0,0.0,4.111327704,0.0,0.0,0.0,0.0,0.0,-0.0,0.0,0.0,2.4877927140000002,0.0,-0.0012207030000004337,1.0499999523162842,0.44999998807907104,-10.430000305175781,-0.024169921875,0.0631103515625,1.005126953125,27.229999542236328,0.0,-39.0,-0.0494384765625,0.0218505859375,Waiting,0.0,0.0,0.0,0.0,0.0,0.0,0.0,0.0,
1.443443000000003,0.0,0.0,false,2894360.068601583,,0.0,0.0,0.0,0.0,0.0,0.25,0.255126927,0.0,0.004882811999999959,1.0,0.0,0.0,-0.0,0.0,0.0,3.596191038,0.0,-0.0012207029999995456,0.0,0.0,0.0,0.0,0.0,0.0,4.112548407,0.0,0.0,0.0,0.0,0.0,-0.0,0.0,0.0,2.4890134170000002,0.0,0.0,1.0399999618530273,0.44999998807907104,-10.430000305175781,-0.01678466796875,0.072265625,1.0009765625,27.229999542236328,0.0,-34.0,-0.0543365478515625,0.0255584716796875,Waiting,0.0,0.0,0.0,0.0,0.0,0.0,0.0,0.0,
1.468814000000002,0.0,0.0,false,2895405.168094924,,0.0,0.0,0.0,0.0,0.0,0.25,0.245361303,0.0,0.004882811999999959,1.0,0.0,0.0,-0.0,0.0,0.0,3.596191038,0.0,-0.0012207029999995456,0.0,0.0,0.0,0.0,0.0,0.0,4.112548407,0.0,0.0,0.0,0.0,0.0,-0.0,0.0,0.0,2.4877927140000002,0.0,0.0,1.0399999618530273,0.44999998807907104,-10.430000305175781,-0.016357421875,0.0721435546875,0.9981689453125,27.229999542236328,0.0,-33.0,-0.056854248046875,0.0275115966796875,Waiting,0.0,0.0,0.0,0.0,0.0,0.0,0.0,0.0,
1.4889870000000047,0.0,0.0,false,2896427.757575758,,0.0,0.0,0.0,0.0,0.0,0.25,0.247802709,0.0,-0.006103515000000392,1.0,0.0,0.0,-0.0,0.0,0.0,3.596191038,0.0,0.0012207029999995456,0.0,0.0,0.0,0.0,0.0,0.0,4.112548407,0.0,0.0,0.0,0.0,0.0,-0.0,0.0,0.0,2.4877927140000002,0.0,0.0012207030000004337,1.0399999618530273,0.46000000834465027,-10.430000305175781,-0.013671875,0.07550048828125,1.007080078125,27.229999542236328,0.0,-31.0,-0.0620269775390625,0.0316162109375,Waiting,0.0,0.0,0.0,0.0,0.0,0.0,0.0,0.0,
1.5148400000000002,0.0,0.0,false,2897425.4272547727,,0.0,0.0,0.0,0.0,0.0,0.375,0.247802709,0.0,-0.006103515000000392,1.0,0.0,0.0,-0.0,0.0,0.0,3.596191038,0.0,0.0012207029999995456,0.0,0.0,0.0,0.0,0.0,0.0,4.112548407,0.0,0.0,0.0,0.0,0.0,-0.0,0.0,0.0,2.4877927140000002,0.0,0.0012207030000004337,1.0399999618530273,0.46000000834465027,-10.430000305175781,-0.0260009765625,0.0709228515625,0.99420166015625,27.229999542236328,0.0,-42.0,-0.0673828125,0.0359954833984375,Waiting,0.0,0.0,0.0,0.0,0.0,0.0,0.0,0.0,
1.5376859999999979,0.0,0.0,false,2898379.5736842104,,0.0,0.0,0.0,0.0,0.0,0.25,0.25146481800000003,0.0,0.0012207030000004337,1.0,0.0,0.0,-0.0,0.0,0.0,3.596191038,0.0,-0.0012207029999995456,0.0,0.0,0.0,0.0,0.0,0.0,4.114989813,0.0,0.0,0.0,0.0,0.0,-0.0,0.0,0.0,2.4877927140000002,0.0,-0.0012207030000004337,1.0399999618530273,0.46000000834465027,-10.430000305175781,-0.03009033203125,0.07232666015625,1.00982666015625,27.270000457763672,0.0,-47.0,-0.0729827880859375,0.040618896484375,Waiting,0.0,0.0,0.0,0.0,0.0,0.0,0.0,0.0,
1.5684830000000038,0.0,0.0,false,2899300.828402367,,0.0,0.0,0.0,0.0,0.0,0.25,0.249023412,0.0,0.0012207030000004337,1.0,0.0,0.0,-0.0,0.0,0.0,3.596191038,0.0,-0.0012207029999995456,0.0,0.0,0.0,0.0,0.0,0.0,4.111327704,0.0,0.0,0.0,0.0,0.0,-0.0,0.0,0.0,2.4877927140000002,0.0,-0.0012207030000004337,1.0399999618530273,0.46000000834465027,-10.430000305175781,-0.02862548828125,0.07037353515625,1.00921630859375,27.270000457763672,0.0,-45.0,-0.0758819580078125,0.04302978515625,Waiting,0.0,0.0,0.0,0.0,0.0,0.0,0.0,0.0,
1.5894169999999976,0.0,0.0,false,2900199.7950065704,,0.0,0.0,0.0,0.0,0.0,0.25,0.252685521,0.0,0.008544920999999928,1.0,0.0,0.0,-0.0,0.0,0.0,3.596191038,0.0,0.0,0.0,0.0,0.0,0.0,0.0,0.0,4.112548407,0.0,0.0,0.0,0.0,0.0,-0.0,0.0,0.0,2.4877927140000002,0.0,0.0,1.0399999618530273,0.46000000834465027,-10.430000305175781,-0.02911376953125,0.0672607421875,1.0064697265625,27.270000457763672,0.0,-45.0,-0.0818634033203125,0.0480194091796875,Waiting,0.0,0.0,0.0,0.0,0.0,0.0,0.0,0.0,
1.6190930000000043,0.0,0.0,false,2901074.069599475,,0.0,0.0,0.0,0.0,0.0,0.25,0.249023412,0.0,0.008544920999999928,1.0,0.0,0.0,-0.0,0.0,0.0,3.596191038,0.0,0.0,0.0,0.0,0.0,0.0,0.0,0.0,4.112548407,0.0,0.0,0.0,0.0,0.0,-0.0,0.0,0.0,2.4877927140000002,0.0,0.0,1.0399999618530273,0.46000000834465027,-10.430000305175781,-0.03912353515625,0.062744140625,0.9957275390625,27.270000457763672,0.0,-54.0,-0.0881195068359375,0.05322265625,Waiting,0.0,0.0,0.0,0.0,0.0,0.0,0.0,0.0,
1.6386919999999991,0.0,0.0,false,2901926.146981627,,0.0,0.0,0.0,0.0,0.0,0.25,0.24658200600000002,0.0,0.0,1.0,0.0,0.0,-0.0,0.0,0.0,3.597411741,0.0,0.0,0.0,0.0,0.0,0.0,0.0,0.0,4.11376911,0.0,0.0,0.0,0.0,0.0,-0.0,0.0,0.0,2.4865720110000002,0.0,0.0,1.0399999618530273,0.46000000834465027,-10.430000305175781,-0.04052734375,0.06182861328125,1.00238037109375,27.270000457763672,0.0,-55.0,-0.0913543701171875,0.0558929443359375,Waiting,0.0,0.0,0.0,0.0,0.0,0.0,0.0,0.0,
1.6658999999999977,0.0,0.0,false,2902745.5527868853,,0.0,0.0,0.0,0.0,0.0,0.25,0.25146481800000003,0.0,0.0,1.0,0.0,0.0,-0.0,0.0,0.0,3.594970335,0.0,0.0,0.0,0.0,0.0,0.0,0.0,0.0,4.11376911,0.0,0.0,0.0,0.0,0.0,-0.0,0.0,0.0,2.4877927140000002,0.0,0.0,1.0299999713897705,0.46000000834465027,-10.430000305175781,-0.03277587890625,0.06298828125,1.01019287109375,27.270000457763672,0.0,-48.0,-0.0980377197265625,0.0613861083984375,Waiting,0.0,0.0,0.0,0.0,0.0,0.0,0.0,0.0,
1.6871990000000041,0.0,0.0,false,2903540.4193971166,,0.0,0.0,0.0,0.0,0.0,0.25,0.247802709,0.0,0.0,1.0,0.0,0.0,-0.0,0.0,0.0,3.596191038,0.0,0.0,0.0,0.0,0.0,0.0,0.0,0.0,4.112548407,0.0,0.0,0.0,0.0,0.0,-0.0,0.0,0.0,2.4865720110000002,0.0,0.0,1.0399999618530273,0.46000000834465027,-10.430000305175781,-0.03106689453125,0.0506591796875,1.00506591796875,27.270000457763672,0.0,-44.0,-0.1014862060546875,0.0641937255859375,Waiting,0.0,0.0,0.0,0.0,0.0,0.0,0.0,0.0,
1.7090700000000034,0.0,0.0,false,2904313.2364112637,,0.0,0.0,0.0,0.0,0.0,0.25,0.24291989700000002,0.0,-0.003662108999999969,1.0,0.0,0.0,-0.0,0.0,0.0,3.596191038,0.0,0.0,0.0,0.0,0.0,0.0,0.0,0.0,4.112548407,0.0,0.0,0.0,0.0,0.0,-0.0,0.0,0.0,2.4877927140000002,0.0,0.0,1.0399999618530273,0.46000000834465027,-10.430000305175781,-0.0322265625,0.04840087890625,1.0186767578125,27.270000457763672,0.0,-45.0,-0.1085357666015625,0.069915771484375,Waiting,0.0,0.0,0.0,0.0,0.0,0.0,0.0,0.0,
1.7295390000000006,0.0,0.0,false,2905053.5392670156,,0.0,0.0,0.0,0.0,0.0,0.25,0.245361303,0.0,-0.003662108999999969,1.0,0.0,0.0,-0.0,0.0,0.0,3.594970335,0.0,0.0,0.0,0.0,0.0,0.0,0.0,0.0,4.11376911,0.0,0.0,0.0,0.0,0.0,-0.0,0.0,0.0,2.4877927140000002,0.0,0.0,1.0399999618530273,0.46000000834465027,-10.430000305175781,-0.0316162109375,0.03741455078125,1.011474609375,27.270000457763672,0.0,-42.0,-0.112152099609375,0.07281494140625,Waiting,0.0,0.0,0.0,0.0,0.0,0.0,0.0,0.0,
1.7520220000000009,0.0,0.0,false,2905771.892740353,,0.0,0.0,0.0,0.0,0.0,0.25,0.25146481800000003,0.0,-0.006103515000000392,1.0,0.0,0.0,-0.0,0.0,0.0,3.594970335,0.0,0.0012207029999995456,0.0,0.0,0.0,0.0,0.0,0.0,4.114989813,0.0,0.0,0.0,0.0,0.0,-0.0,0.0,0.0,2.4877927140000002,0.0,0.0012207030000004337,1.0299999713897705,0.46000000834465027,-10.430000305175781,-0.03192138671875,0.0301513671875,1.00396728515625,27.270000457763672,0.0,-41.0,-0.1195526123046875,0.0757293701171875,Waiting,0.0,0.0,0.0,0.0,0.0,0.0,0.0,0.0,
1.771140000000003,0.0,0.0,false,2906465.8928104574,,0.0,0.0,0.0,0.0,0.0,0.25,0.252685521,0.0,-0.006103515000000392,1.0,0.0,0.0,-0.0,0.0,0.0,3.596191038,0.0,0.0012207029999995456,0.0,0.0,0.0,0.0,0.0,0.0,4.11376911,0.0,0.0,0.0,0.0,0.0,-0.0,0.0,0.0,2.4877927140000002,0.0,0.0012207030000004337,1.0299999713897705,0.46000000834465027,-10.430000305175781,-0.0333251953125,0.029541015625,1.00537109375,27.270000457763672,0.0,-42.0,-0.123321533203125,0.0757293701171875,Waiting,0.0,0.0,0.0,0.0,0.0,0.0,0.0,0.0,
1.7945649999999986,0.0,0.0,false,2907127.5558458525,,0.0,0.0,0.0,0.0,0.0,0.25,0.238037085,0.0,0.006103515000000392,1.0,0.0,0.0,-0.0,0.0,0.0,3.597411741,0.0,-0.0012207029999995456,0.0,0.0,0.0,0.0,0.0,0.0,4.112548407,0.0,0.0,0.0,0.0,0.0,-0.0,0.0,0.0,2.4877927140000002,0.0,-0.0012207030000004337,1.0299999713897705,0.46000000834465027,-10.430000305175781,-0.02734375,0.0211181640625,1.013427734375,27.270000457763672,0.0,-35.0,-0.1310577392578125,0.0757293701171875,Waiting,0.0,0.0,0.0,0.0,0.0,0.0,0.0,0.0,
1.8144580000000023,0.0,0.0,false,2907767.415143603,,0.0,0.0,0.0,0.0,0.0,0.25,0.23071286700000002,0.0,0.006103515000000392,1.0,0.0,0.0,-0.0,0.0,0.0,3.596191038,0.0,-0.0012207029999995456,0.0,0.0,0.0,0.0,0.0,0.0,4.11376911,0.0,0.0,0.0,0.0,0.0,-0.0,0.0,0.0,2.4877927140000002,0.0,-0.0012207030000004337,1.0299999713897705,0.46000000834465027,-10.430000305175781,-0.0242919921875,0.02777099609375,1.01318359375,27.270000457763672,0.0,-33.0,-0.134979248046875,0.0757293701171875,Waiting,0.0,0.0,0.0,0.0,0.0,0.0,0.0,0.0,
1.8347979999999988,0.0,0.0,false,2908385.5133724725,,0.0,0.0,0.0,0.0,0.0,0.25,0.249023412,0.0,0.0,1.0,0.0,0.0,-0.0,0.0,0.0,3.596191038,0.0,0.0,0.0,0.0,0.0,0.0,0.0,0.0,4.11376911,0.0,0.0,0.0,0.0,0.0,-0.0,0.0,0.0,2.4877927140000002,0.0,0.0,1.0299999713897705,0.46000000834465027,-10.430000305175781,-0.02374267578125,0.01580810546875,1.0032958984375,27.270000457763672,0.0,-30.0,-0.1389617919921875,0.0757293701171875,Waiting,0.0,0.0,0.0,0.0,0.0,0.0,0.0,0.0,
1.8660139999999992,0.0,0.0,false,2908969.006518905,,0.0,0.0,0.0,0.0,0.0,0.25,0.241699194,0.0,0.0,1.0,0.0,0.0,-0.0,0.0,0.0,3.596191038,0.0,0.0,0.0,0.0,0.0,0.0,0.0,0.0,4.112548407,0.0,0.0,0.0,0.0,0.0,-0.0,0.0,0.0,2.4865720110000002,0.0,0.0,1.0399999618530273,0.46000000834465027,-10.430000305175781,-0.01922607421875,0.01959228515625,1.00592041015625,27.270000457763672,0.0,-27.0,-0.14703369140625,0.0757293701171875,Waiting,0.0,0.0,0.0,0.0,0.0,0.0,0.0,0.0,
1.888469000000001,0.0,0.0,false,2909530.8403908797,,0.0,0.0,0.0,0.0,0.0,0.25,0.2441406,0.0,-0.003662109000000413,1.0,0.0,0.0,-0.0,0.0,0.0,3.596191038,0.0,0.0,0.0,0.0,0.0,0.0,0.0,0.0,4.11376911,0.0,0.0,0.0,0.0,0.0,-0.0,0.0,0.0,2.4877927140000002,0.0,0.0,1.0399999618530273,0.44999998807907104,-10.430000305175781,-0.01190185546875,0.01220703125,1.00701904296875,27.270000457763672,0.0,-18.0,-0.151123046875,0.0757293701171875,Waiting,0.0,0.0,0.0,0.0,0.0,0.0,0.0,0.0,
1.9114260000000032,0.0,0.0,false,2910071.0572916665,,0.0,0.0,0.0,0.0,0.0,0.25,0.245361303,0.0,-0.003662109000000413,1.0,0.0,0.0,-0.0,0.0,0.0,3.596191038,0.0,0.0,0.0,0.0,0.0,0.0,0.0,0.0,4.11376911,0.0,0.0,0.0,0.0,0.0,-0.0,0.0,0.0,2.4877927140000002,0.0,0.0,1.0399999618530273,0.44999998807907104,-10.430000305175781,0.00164794921875,0.0106201171875,1.0196533203125,27.270000457763672,0.0,-4.0,-0.151123046875,0.0757293701171875,Waiting,0.0,0.0,0.0,0.0,0.0,0.0,0.0,0.0,
1.9316810000000004,0.0,0.0,false,2910587.2739102147,,0.0,0.0,0.0,0.0,0.0,0.25,0.247802709,0.0,-0.003662109000000413,1.0,0.0,0.0,-0.0,0.0,0.0,3.596191038,0.0,0.0,0.0,0.0,0.0,0.0,0.0,0.0,4.112548407,0.0,0.0,0.0,0.0,0.0,-0.0,0.0,0.0,2.4877927140000002,0.0,0.0,1.0499999523162842,0.44999998807907104,-10.430000305175781,0.0130615234375,0.00164794921875,1.0206298828125,27.270000457763672,0.0,7.0,-0.151123046875,0.0757293701171875,Waiting,0.0,0.0,0.0,0.0,0.0,0.0,0.0,0.0,
1.9618279999999977,0.0,0.0,false,2911071.531859558,,0.0,0.0,0.0,0.0,0.0,0.375,0.253906224,0.0,0.009765624000000361,1.0,0.0,0.0,-0.0,0.0,0.0,3.596191038,0.0,0.0,0.0,0.0,0.0,0.0,0.0,0.0,4.112548407,0.0,0.0,0.0,0.0,0.0,-0.0,0.0,0.0,2.4865720110000002,0.0,0.0,1.059999942779541,0.44999998807907104,-10.430000305175781,0.015869140625,-0.01177978515625,1.0262451171875,27.270000457763672,0.0,13.0,-0.151123046875,0.0756988525390625,Waiting,0.0,0.0,0.0,0.0,0.0,0.0,0.0,0.0,
1.9806519999999983,0.0,0.0,false,2911534.3157894737,,0.0,0.0,0.0,0.0,0.0,0.375,0.247802709,0.0,0.009765624000000361,1.0,0.0,0.0,-0.0,0.0,0.0,3.596191038,0.0,0.0,0.0,0.0,0.0,0.0,0.0,0.0,4.112548407,0.0,0.0,0.0,0.0,0.0,-0.0,0.0,0.0,2.4877927140000002,0.0,0.0,1.059999942779541,0.46000000834465027,-10.430000305175781,0.0233154296875,-0.02484130859375,1.02728271484375,27.270000457763672,0.0,22.0,-0.151092529296875,0.07562255859375,Waiting,0.0,0.0,0.0,0.0,0.0,0.0,0.0,0.0,
2.007776999999998,0.0,0.0,false,2911975.6675324677,,0.0,0.0,0.0,0.0,0.0,0.375,0.249023412,0.0,-0.006103514999999948,1.0,0.0,0.0,-0.0,0.0,0.0,3.596191038,0.0,0.0,0.0,0.0,0.0,0.0,0.0,0.0,4.112548407,0.0,0.0,0.0,0.0,0.0,-0.0,0.0,0.0,2.4877927140000002,0.0,0.0,1.0700000524520874,0.46000000834465027,-10.430000305175781,0.02410888671875,-0.04388427734375,1.03216552734375,27.270000457763672,0.0,26.0,-0.150970458984375,0.0752716064453125,Waiting,0.0,0.0,0.0,0.0,0.0,0.0,0.0,0.0,
2.030219000000001,0.0,0.0,false,2912382.800778715,,0.0,0.0,0.0,0.0,0.0,0.25,0.25634763,0.0,-0.006103514999999948,1.0,0.0,0.0,-0.0,0.0,0.0,3.596191038,0.0,0.0,0.0,0.0,0.0,0.0,0.0,0.0,4.111327704,0.0,0.0,0.0,0.0,0.0,-0.0,0.0,0.0,2.4877927140000002,0.0,0.0,1.0700000524520874,0.46000000834465027,-10.430000305175781,0.020751953125,-0.04034423828125,1.02618408203125,27.270000457763672,0.0,23.0,-0.150848388671875,0.074981689453125,Waiting,0.0,0.0,0.0,0.0,0.0,0.0,0.0,0.0,
2.0537910000000013,0.0,0.0,false,2912768.6018158235,,0.0,0.0,0.0,0.0,0.0,0.25,0.2441406,0.0,0.0024414059999999793,1.0,0.0,0.0,-0.0,0.0,0.0,3.594970335,0.0,0.0,0.0,0.0,0.0,0.0,0.0,0.0,4.11376911,0.0,0.0,0.0,0.0,0.0,-0.0,0.0,0.0,2.4890134170000002,0.0,0.0,1.0700000524520874,0.46000000834465027,-10.430000305175781,0.02691650390625,-0.03955078125,1.02630615234375,27.280000686645508,0.0,28.0,-0.1505126953125,0.0741424560546875,Waiting,0.0,0.0,0.0,0.0,0.0,0.0,0.0,0.0,
2.1038319999999984,0.0,0.0,false,2914516.635126377,,0.0,0.0,0.0,0.0,0.0,0.25,0.252685521,0.0,-0.008544921000000372,1.0,0.0,0.0,-0.0,0.0,0.0,3.596191038,0.0,0.0,0.0,0.0,0.0,0.0,0.0,0.0,4.111327704,0.0,0.0,0.0,0.0,0.0,-0.0,0.0,0.0,2.4865720110000002,0.0,0.0012207030000004337,1.059999942779541,0.46000000834465027,-10.430000305175781,0.03936767578125,-0.03753662109375,1.01806640625,27.280000686645508,0.0,40.0,-0.14971923828125,0.07232666015625,Waiting,0.0,0.0,0.0,0.0,0.0,0.0,0.0,0.0,
2.126785,0.0,0.0,false,2916240.8186528496,,0.0,0.0,0.0,0.0,0.0,0.25,0.249023412,0.0,-0.008544921000000372,1.0,0.0,0.0,-0.0,0.0,0.0,3.596191038,0.0,0.0,0.0,0.0,0.0,0.0,0.0,0.0,4.11376911,0.0,0.0,0.0,0.0,0.0,-0.0,0.0,0.0,2.4877927140000002,0.0,0.0012207030000004337,1.059999942779541,0.44999998807907104,-10.430000305175781,0.04681396484375,-0.0380859375,1.01397705078125,27.280000686645508,0.0,48.0,-0.1493377685546875,0.071563720703125,Waiting,0.0,0.0,0.0,0.0,0.0,0.0,0.0,0.0,
2.1541610000000038,0.0,0.0,false,2917930.2317152102,,0.0,0.0,0.0,0.0,0.0,0.25,0.247802709,0.0,0.010986327000000351,1.0,0.0,0.0,-0.0,0.0,0.0,3.596191038,0.0,0.0,0.0,0.0,0.0,0.0,0.0,0.0,4.112548407,0.0,0.0,0.0,0.0,0.0,-0.0,0.0,0.0,2.4890134170000002,0.0,-0.0012207030000004337,1.059999942779541,0.4399999976158142,-10.430000305175781,0.05218505859375,-0.02630615234375,1.00604248046875,27.280000686645508,0.0,51.0,-0.1477813720703125,0.0689849853515625,Waiting,0.0,0.0,0.0,0.0,0.0,0.0,0.0,0.0,
2.1737530000000005,0.0,0.0,false,2919599.213454075,,0.0,0.0,0.0,0.0,0.0,0.25,0.247802709,0.0,0.010986327000000351,1.0,0.0,0.0,-0.0,0.0,0.0,3.594970335,0.0,0.0,0.0,0.0,0.0,0.0,0.0,0.0,4.114989813,0.0,0.0,0.0,0.0,0.0,-0.0,0.0,0.0,2.4877927140000002,0.0,-0.0012207030000004337,1.059999942779541,0.4399999976158142,-10.430000305175781,0.05035400390625,-0.0166015625,1.00335693359375,27.280000686645508,0.0,48.0,-0.147125244140625,0.0680389404296875,Waiting,0.0,0.0,0.0,0.0,0.0,0.0,0.0,0.0,
2.198874,0.0,0.0,false,2921233.541047188,,0.0,0.0,0.0,0.0,0.0,0.25,0.252685521,0.0,-0.006103514999999948,1.0,0.0,0.0,-0.0,0.0,0.0,3.596191038,0.0,0.0012207029999995456,0.0,0.0,0.0,0.0,0.0,0.0,4.114989813,0.0,0.0,0.0,0.0,0.0,-0.0,0.0,0.0,2.4865720110000002,0.0,0.0,1.059999942779541,0.4399999976158142,-10.430000305175781,0.04766845703125,-0.005615234375,1.00933837890625,27.280000686645508,0.0,43.0,-0.146392822265625,0.067047119140625,Waiting,0.0,0.0,0.0,0.0,0.0,0.0,0.0,0.0,
2.221541000000001,0.0,0.0,false,2922849.519379845,,0.0,0.0,0.0,0.0,0.0,0.25,0.24658200600000002,0.0,-0.006103514999999948,1.0,0.0,0.0,-0.0,0.0,0.0,3.596191038,0.0,0.0012207029999995456,0.0,0.0,0.0,0.0,0.0,0.0,4.112548407,0.0,0.0,0.0,0.0,0.0,-0.0,0.0,0.0,2.4877927140000002,0.0,0.0,1.059999942779541,0.4399999976158142,-10.430000305175781,0.0469970703125,0.0029296875,1.00341796875,27.280000686645508,0.0,41.0,-0.144775390625,0.0660400390625,Waiting,0.0,0.0,0.0,0.0,0.0,0.0,0.0,0.0,
2.246314000000002,0.0,0.0,false,2924429.0561652677,,0.0,0.0,0.0,0.0,0.0,0.25,0.245361303,0.0,0.0024414059999999793,1.0,0.0,0.0,-0.0,0.0,0.0,3.596191038,0.0,-0.0012207029999995456,0.0,0.0,0.0,0.0,0.0,0.0,4.112548407,0.0,0.0,0.0,0.0,0.0,-0.0,0.0,0.0,2.4890134170000002,0.0,0.0,1.059999942779541,0.4399999976158142,-10.430000305175781,0.042236328125,0.01324462890625,0.99847412109375,27.280000686645508,0.0,34.0,-0.143890380859375,0.0660400390625,Waiting,0.0,0.0,0.0,0.0,0.0,0.0,0.0,0.0,
2.2690760000000045,0.0,0.0,false,2925990.338064516,,0.0,0.0,0.0,0.0,0.0,0.25,0.25878903600000003,0.0,0.0024414059999999793,1.0,0.0,0.0,-0.0,0.0,0.0,3.596191038,0.0,-0.0012207029999995456,0.0,0.0,0.0,0.0,0.0,0.0,4.112548407,0.0,0.0,0.0,0.0,0.0,-0.0,0.0,0.0,2.4877927140000002,0.0,0.0,1.059999942779541,0.4399999976158142,-10.430000305175781,0.0364990234375,0.02764892578125,0.997802734375,27.280000686645508,0.0,26.0,-0.1419830322265625,0.0660400390625,Waiting,0.0,0.0,0.0,0.0,0.0,0.0,0.0,0.0,
2.2905949999999975,0.0,0.0,false,2927533.400386847,,0.0,0.0,0.0,0.0,0.0,0.25,0.2441406,0.0,-0.007324218000000382,1.0,0.0,0.0,-0.0,0.0,0.0,3.596191038,0.0,0.0012207029999995456,0.0,0.0,0.0,0.0,0.0,0.0,4.11376911,0.0,0.0,0.0,0.0,0.0,-0.0,0.0,0.0,2.4890134170000002,0.0,0.0012207030000004337,1.059999942779541,0.44999998807907104,-10.430000305175781,0.0267333984375,0.03436279296875,0.99090576171875,27.280000686645508,0.0,15.0,-0.139923095703125,0.0660400390625,Waiting,0.0,0.0,0.0,0.0,0.0,0.0,0.0,0.0,
2.3156749999999993,0.0,0.0,false,2929040.154639175,,0.0,0.0,0.0,0.0,0.0,0.25,0.24047849100000002,0.0,-0.007324218000000382,1.0,0.0,0.0,-0.0,0.0,0.0,3.596191038,0.0,0.0012207029999995456,0.0,0.0,0.0,0.0,0.0,0.0,4.11376911,0.0,0.0,0.0,0.0,0.0,-0.0,0.0,0.0,2.4877927140000002,0.0,0.0012207030000004337,1.059999942779541,0.44999998807907104,-10.430000305175781,0.01904296875,0.03326416015625,0.98760986328125,27.280000686645508,0.0,8.0,-0.1388702392578125,0.0660400390625,Waiting,0.0,0.0,0.0,0.0,0.0,0.0,0.0,0.0,
2.340087000000003,0.0,0.0,false,2930528.783000644,,0.0,0.0,0.0,0.0,0.0,0.25,0.25146481800000003,0.0,0.003662109000000413,1.0,0.0,0.0,-0.0,0.0,0.0,3.597411741,0.0,-0.0012207029999995456,0.0,0.0,0.0,0.0,0.0,0.0,4.11376911,0.0,0.0,0.0,0.0,0.0,-0.0,0.0,0.0,2.4877927140000002,0.0,-0.0012207030000004337,1.0399999618530273,0.44999998807907104,-10.430000305175781,0.00103759765625,0.0467529296875,0.98333740234375,27.280000686645508,0.0,-11.0,-0.1388702392578125,0.066131591796875,Waiting,0.0,0.0,0.0,0.0,0.0,0.0,0.0,0.0,
2.3640629999999985,0.0,0.0,false,2931983.1454311456,,0.0,0.0,0.0,0.0,0.0,0.25,0.253906224,0.0,0.003662109000000413,1.0,0.0,0.0,-0.0,0.0,0.0,3.596191038,0.0,-0.0012207029999995456,0.0,0.0,0.0,0.0,0.0,0.0,4.112548407,0.0,0.0,0.0,0.0,0.0,-0.0,0.0,0.0,2.4877927140000002,0.0,-0.0012207030000004337,1.0399999618530273,0.44999998807907104,-10.430000305175781,-0.002685546875,0.0479736328125,0.99169921875,27.280000686645508,0.0,-15.0,-0.1388702392578125,0.0662384033203125,Waiting,0.0,0.0,0.0,0.0,0.0,0.0,0.0,0.0,
2.38591,0.0,0.0,false,2933417.5794212217,,0.0,0.0,0.0,0.0,0.0,0.25,0.241699194,0.0,0.003662109000000413,1.0,0.0,0.0,-0.0,0.0,0.0,3.594970335,0.0,-0.0012207029999995456,0.0,0.0,0.0,0.0,0.0,0.0,4.112548407,0.0,0.0,0.0,0.0,0.0,-0.0,0.0,0.0,2.4877927140000002,0.0,0.0,1.0399999618530273,0.44999998807907104,-10.430000305175781,-0.0263671875,0.06036376953125,0.9915771484375,27.280000686645508,0.0,-41.0,-0.1389923095703125,0.066558837890625,Waiting,0.0,0.0,0.0,0.0,0.0,0.0,0.0,0.0,
2.410068000000003,0.0,0.0,false,2934817.8611825192,,0.0,0.0,0.0,0.0,0.0,0.25,0.25878903600000003,0.0,0.003662108999999969,1.0,0.0,0.0,-0.0,0.0,0.0,3.596191038,0.0,0.0,0.0,0.0,0.0,0.0,0.0,0.0,4.112548407,0.0,0.0,0.0,0.0,0.0,-0.0,0.0,0.0,2.4877927140000002,0.0,0.0,1.0399999618530273,0.44999998807907104,-10.430000305175781,-0.02874755859375,0.06640625,0.98809814453125,27.280000686645508,0.0,-44.0,-0.139129638671875,0.0667877197265625,Waiting,0.0,0.0,0.0,0.0,0.0,0.0,0.0,0.0,
2.4297740000000014,0.0,0.0,false,2936198.3095696853,,0.0,0.0,0.0,0.0,0.0,0.25,0.252685521,0.0,0.003662108999999969,1.0,0.0,0.0,-0.0,0.0,0.0,3.594970335,0.0,0.0,0.0,0.0,0.0,0.0,0.0,0.0,4.11376911,0.0,0.0,0.0,0.0,0.0,-0.0,0.0,0.0,2.4877927140000002,0.0,0.0,1.0399999618530273,0.44999998807907104,-10.430000305175781,-0.037109375,0.07794189453125,1.00091552734375,27.280000686645508,0.0,-55.0,-0.139617919921875,0.06744384765625,Waiting,0.0,0.0,0.0,0.0,0.0,0.0,0.0,0.0,
2.453462000000003,0.0,0.0,false,2937544.7188703464,,0.0,0.0,0.0,0.0,0.0,0.25,0.23925778800000003,0.0,0.0024414059999999793,1.0,0.0,0.0,-0.0,0.0,0.0,3.596191038,0.0,0.0012207029999995456,0.0,0.0,0.0,0.0,0.0,0.0,4.112548407,0.0,0.0,0.0,0.0,0.0,-0.0,0.0,0.0,2.4890134170000002,0.0,0.0012207030000004337,1.059999942779541,0.44999998807907104,-10.430000305175781,-0.03668212890625,0.06793212890625,1.0040283203125,27.280000686645508,0.0,-52.0,-0.139984130859375,0.06787109375,Waiting,0.0,0.0,0.0,0.0,0.0,0.0,0.0,0.0,
2.4737129999999996,0.0,0.0,false,2938873.2777421423,,0.0,0.0,0.0,0.0,0.0,0.375,0.24658200600000002,0.0,0.0024414059999999793,1.0,0.0,0.0,-0.0,0.0,0.0,3.597411741,0.0,0.0012207029999995456,0.0,0.0,0.0,0.0,0.0,0.0,4.114989813,0.0,0.0,0.0,0.0,0.0,-0.0,0.0,0.0,2.4877927140000002,0.0,0.0012207030000004337,1.059999942779541,0.46000000834465027,-10.430000305175781,-0.03729248046875,0.0601806640625,1.00640869140625,27.280000686645508,0.0,-52.0,-0.1409149169921875,0.0688629150390625,Waiting,0.0,0.0,0.0,0.0,0.0,0.0,0.0,0.0,
2.4997780000000023,0.0,0.0,false,2940167.9076923076,,0.0,0.0,0.0,0.0,0.0,0.375,0.245361303,0.0,-0.0012207029999999897,1.0,0.0,0.0,-0.0,0.0,0.0,3.596191038,0.0,-0.0012207029999995456,0.0,0.0,0.0,0.0,0.0,0.0,4.11376911,0.0,0.0,0.0,0.0,0.0,-0.0,0.0,0.0,2.4877927140000002,0.0,0.0,1.0499999523162842,0.46000000834465027,-10.430000305175781,-0.03729248046875,0.0501708984375,1.014404296875,27.280000686645508,0.0,-50.0,-0.1414794921875,0.069427490234375,Waiting,0.0,0.0,0.0,0.0,0.0,0.0,0.0,0.0,
2.528929,0.0,0.0,false,2941442.8904548367,,0.0,0.0,0.0,0.0,0.0,0.25,0.247802709,0.0,-0.0012207029999999897,1.0,0.0,0.0,-0.0,0.0,0.0,3.596191038,0.0,-0.0012207029999995456,0.0,0.0,0.0,0.0,0.0,0.0,4.11376911,0.0,0.0,0.0,0.0,0.0,-0.0,0.0,0.0,2.4877927140000002,0.0,0.0,1.0499999523162842,0.46000000834465027,-10.430000305175781,-0.044189453125,0.0306396484375,1.00146484375,27.280000686645508,0.0,-53.0,-0.1428375244140625,0.07000732421875,Waiting,0.0,0.0,0.0,0.0,0.0,0.0,0.0,0.0,
2.5535119999999987,0.0,0.0,false,2942667.9641485275,,0.0,0.0,0.0,0.0,0.0,0.25,0.25146481800000003,0.0,-0.004882811999999959,1.0,0.0,0.0,-0.0,0.0,0.0,3.596191038,0.0,0.0,0.0,0.0,0.0,0.0,0.0,0.0,4.112548407,0.0,0.0,0.0,0.0,0.0,-0.0,0.0,0.0,2.4877927140000002,0.0,-0.0012207030000004337,1.0399999618530273,0.44999998807907104,-10.430000305175781,-0.0316162109375,0.02392578125,1.01202392578125,27.280000686645508,0.0,-39.0,-0.144439697265625,0.07000732421875,Waiting,0.0,0.0,0.0,0.0,0.0,0.0,0.0,0.0,
2.574725000000002,0.0,0.0,false,2943873.5047984645,,0.0,0.0,0.0,0.0,0.0,0.25,0.247802709,0.0,-0.004882811999999959,1.0,0.0,0.0,-0.0,0.0,0.0,3.596191038,0.0,0.0,0.0,0.0,0.0,0.0,0.0,0.0,4.112548407,0.0,0.0,0.0,0.0,0.0,-0.0,0.0,0.0,2.4865720110000002,0.0,-0.0012207030000004337,1.0399999618530273,0.44999998807907104,-10.430000305175781,-0.0145263671875,0.01312255859375,1.0159912109375,27.280000686645508,0.0,-21.0,-0.1453094482421875,0.07000732421875,Waiting,0.0,0.0,0.0,0.0,0.0,0.0,0.0,0.0,
2.593579999999998,0.0,0.0,false,2945045.360613811,,0.0,0.0,0.0,0.0,0.0,0.25,0.238037085,0.0,0.0,1.0,0.0,0.0,-0.0,0.0,0.0,3.596191038,0.0,0.0012207029999995456,0.0,0.0,0.0,0.0,0.0,0.0,4.11376911,0.0,0.0,0.0,0.0,0.0,-0.0,0.0,0.0,2.4865720110000002,0.0,0.0,1.0499999523162842,0.4399999976158142,-10.430000305175781,0.00543212890625,-0.005615234375,1.031982421875,27.280000686645508,0.0,1.0,-0.1461944580078125,0.069976806640625,Waiting,0.0,0.0,0.0,0.0,0.0,0.0,0.0,0.0,
2.620821,0.0,0.0,false,2946199.657507987,,0.0,0.0,0.0,0.0,0.0,0.25,0.247802709,0.0,0.0,1.0,0.0,0.0,-0.0,0.0,0.0,3.597411741,0.0,0.0012207029999995456,0.0,0.0,0.0,0.0,0.0,0.0,4.11376911,0.0,0.0,0.0,0.0,0.0,-0.0,0.0,0.0,2.4877927140000002,0.0,0.0,1.0499999523162842,0.4399999976158142,-10.430000305175781,0.00909423828125,-0.01458740234375,1.031494140625,27.280000686645508,0.0,7.0,-0.1461944580078125,0.069915771484375,Waiting,0.0,0.0,0.0,0.0,0.0,0.0,0.0,0.0,
2.6481550000000023,0.0,0.0,false,2947318.4980842914,,0.0,0.0,0.0,0.0,0.0,0.25,0.24658200600000002,0.0,0.006103514999999948,1.0,0.0,0.0,-0.0,0.0,0.0,3.596191038,0.0,0.0,0.0,0.0,0.0,0.0,0.0,0.0,4.112548407,0.0,0.0,0.0,0.0,0.0,-0.0,0.0,0.0,2.4865720110000002,0.0,0.0,1.059999942779541,0.44999998807907104,-10.430000305175781,0.03045654296875,-0.03515625,1.04010009765625,27.280000686645508,0.0,31.0,-0.1461639404296875,0.069610595703125,Waiting,0.0,0.0,0.0,0.0,0.0,0.0,0.0,0.0,
2.6696769999999996,0.0,0.0,false,2948419.869814933,,0.0,0.0,0.0,0.0,0.0,0.25,0.253906224,0.0,0.006103514999999948,1.0,0.0,0.0,-0.0,0.0,0.0,3.596191038,0.0,0.0,0.0,0.0,0.0,0.0,0.0,0.0,4.112548407,0.0,0.0,0.0,0.0,0.0,-0.0,0.0,0.0,2.4877927140000002,0.0,0.0,1.059999942779541,0.44999998807907104,-10.430000305175781,0.04071044921875,-0.03900146484375,1.03900146484375,27.280000686645508,0.0,42.0,-0.145965576171875,0.06903076171875,Waiting,0.0,0.0,0.0,0.0,0.0,0.0,0.0,0.0,
2.6902599999999985,0.0,0.0,false,2949487.7653061226,,0.0,0.0,0.0,0.0,0.0,0.25,0.25146481800000003,0.0,0.006103514999999948,1.0,0.0,0.0,-0.0,0.0,0.0,3.596191038,0.0,-0.0012207029999995456,0.0,0.0,0.0,0.0,0.0,0.0,4.11376911,0.0,0.0,0.0,0.0,0.0,-0.0,0.0,0.0,2.4877927140000002,0.0,0.0,1.059999942779541,0.44999998807907104,-10.430000305175781,0.04254150390625,-0.03045654296875,1.033935546875,27.280000686645508,0.0,42.0,-0.1457977294921875,0.068634033203125,Waiting,0.0,0.0,0.0,0.0,0.0,0.0,0.0,0.0,
2.7128100000000015,0.0,0.0,false,2950536.402804334,,0.0,0.0,0.0,0.0,0.0,0.25,0.245361303,0.0,-0.0012207029999999897,1.0,0.0,0.0,-0.0,0.0,0.0,3.596191038,0.0,-0.0012207029999995456,0.0,0.0,0.0,0.0,0.0,0.0,4.11376911,0.0,0.0,0.0,0.0,0.0,-0.0,0.0,0.0,2.4877927140000002,0.0,0.0,1.0399999618530273,0.44999998807907104,-10.430000305175781,0.05035400390625,-0.0316162109375,1.0269775390625,27.280000686645508,0.0,50.0,-0.145233154296875,0.0676727294921875,Waiting,0.0,0.0,0.0,0.0,0.0,0.0,0.0,0.0,
2.7332570000000014,0.0,0.0,false,2951551.684076433,,0.0,0.0,0.0,0.0,0.0,0.25,0.2441406,0.0,-0.0012207029999999897,1.0,0.0,0.0,-0.0,0.0,0.0,3.596191038,0.0,-0.0012207029999995456,0.0,0.0,0.0,0.0,0.0,0.0,4.11376911,0.0,0.0,0.0,0.0,0.0,-0.0,0.0,0.0,2.4865720110000002,0.0,0.0,1.0399999618530273,0.4399999976158142,-10.430000305175781,0.05279541015625,-0.02923583984375,1.0234375,27.280000686645508,0.0,52.0,-0.1448516845703125,0.067108154296875,Waiting,0.0,0.0,0.0,0.0,0.0,0.0,0.0,0.0,
2.760388999999999,0.0,0.0,false,2952549.67281986,,0.0,0.0,0.0,0.0,0.0,0.25,0.247802709,0.0,-0.003662108999999969,1.0,0.0,0.0,-0.0,0.0,0.0,3.596191038,0.0,0.0,0.0,0.0,0.0,0.0,0.0,0.0,4.112548407,0.0,0.0,0.0,0.0,0.0,-0.0,0.0,0.0,2.4877927140000002,0.0,0.0,1.0399999618530273,0.4300000071525574,-10.430000305175781,0.0516357421875,-0.00238037109375,1.00738525390625,27.280000686645508,0.0,46.0,-0.14385986328125,0.06585693359375,Waiting,0.0,0.0,0.0,0.0,0.0,0.0,0.0,0.0,
2.787227000000003,0.0,0.0,false,2953528.5292620864,,0.0,0.0,0.0,0.0,0.0,0.25,0.249023412,0.0,-0.003662108999999969,1.0,0.0,0.0,-0.0,0.0,0.0,3.596191038,0.0,0.0,0.0,0.0,0.0,0.0,0.0,0.0,4.11376911,0.0,0.0,0.0,0.0,0.0,-0.0,0.0,0.0,2.4877927140000002,0.0,0.0,1.0399999618530273,0.4300000071525574,-10.430000305175781,0.04669189453125,0.0123291015625,0.99603271484375,27.280000686645508,0.0,39.0,-0.1432647705078125,0.065216064453125,Waiting,0.0,0.0,0.0,0.0,0.0,0.0,0.0,0.0,
2.8133790000000043,0.0,0.0,false,2954474.1716465354,,0.0,0.0,0.0,0.0,0.0,0.25,0.249023412,0.0,-0.004882812000000403,1.0,0.0,0.0,-0.0,0.0,0.0,3.596191038,0.0,0.0,0.0,0.0,0.0,0.0,0.0,0.0,4.112548407,0.0,0.0,0.0,0.0,0.0,-0.0,0.0,0.0,2.4865720110000002,0.0,0.0,1.0499999523162842,0.4399999976158142,-10.430000305175781,0.0435791015625,0.0223388671875,0.9935302734375,27.280000686645508,0.0,34.0,-0.141937255859375,0.065216064453125,Waiting,0.0,0.0,0.0,0.0,0.0,0.0,0.0,0.0,
3.019649000000001,0.0,0.0,false,2955402.6429479034,,0.0,0.0,0.0,0.0,0.0,0.25,0.249023412,0.0,0.0,1.0,0.0,0.0,-0.0,0.0,0.0,3.596191038,0.0,0.0,0.0,0.0,0.0,0.0,0.0,0.0,4.112548407,0.0,0.0,0.0,0.0,0.0,-0.0,0.0,0.0,2.4877927140000002,0.0,0.0,1.0299999713897705,0.46000000834465027,-10.4399995803833,-0.0302734375,0.03515625,0.9990234375,27.280000686645508,0.0,-40.0,-0.142120361328125,0.067840576171875,Waiting,0.0,0.0,0.0,0.0,0.0,0.0,0.0,0.0,
3.315979000000003,0.0,0.0,false,2956213.6533333333,,0.0,0.0,0.0,0.0,0.0,0.25,0.23193357,0.0,0.0,1.0,0.0,0.0,-0.0,0.0,0.0,3.596191038,0.0,0.0,0.0,0.0,0.0,0.0,0.0,0.0,4.11376911,0.0,0.0,0.0,0.0,0.0,-0.0,0.0,0.0,2.4877927140000002,0.0,0.0,1.0299999713897705,0.44999998807907104,-10.4399995803833,-0.03948974609375,0.068359375,0.9813232421875,27.280000686645508,0.0,-55.0,-0.1395263671875,0.0656585693359375,Waiting,0.0,0.0,0.0,0.0,0.0,0.0,0.0,0.0,
3.338018,0.0,0.0,false,2956950.2893401016,,0.0,0.0,0.0,0.0,0.0,0.25,0.252685521,0.0,0.0,1.0,0.0,0.0,-0.0,0.0,0.0,3.596191038,0.0,0.0,0.0,0.0,0.0,0.0,0.0,0.0,4.112548407,0.0,0.0,0.0,0.0,0.0,-0.0,0.0,0.0,2.4877927140000002,0.0,-0.0012207030000004337,1.0399999618530273,0.44999998807907104,-10.4399995803833,-0.0260009765625,0.06927490234375,0.98309326171875,27.280000686645508,0.0,-42.0,-0.139404296875,0.065826416015625,Waiting,0.0,0.0,0.0,0.0,0.0,0.0,0.0,0.0,
3.3636630000000043,0.0,0.0,false,2957654.112872543,,0.0,0.0,0.0,0.0,0.0,0.25,0.24658200600000002,0.0,-0.010986327000000351,1.0,0.0,0.0,-0.0,0.0,0.0,3.596191038,0.0,-0.0012207029999995456,0.0,0.0,0.0,0.0,0.0,0.0,4.112548407,0.0,0.0,0.0,0.0,0.0,-0.0,0.0,0.0,2.4877927140000002,0.0,-0.0012207030000004337,1.0299999713897705,0.46000000834465027,-10.4399995803833,-0.026123046875,0.0450439453125,0.99029541015625,27.280000686645508,0.0,-38.0,-0.1393585205078125,0.066314697265625,Waiting,0.0,0.0,0.0,0.0,0.0,0.0,0.0,0.0,
3.383420000000002,0.0,0.0,false,2958339.249683143,,0.0,0.0,0.0,0.0,0.0,0.25,0.241699194,0.0,-0.010986327000000351,1.0,0.0,0.0,-0.0,0.0,0.0,3.596191038,0.0,-0.0012207029999995456,0.0,0.0,0.0,0.0,0.0,0.0,4.112548407,0.0,0.0,0.0,0.0,0.0,-0.0,0.0,0.0,2.4865720110000002,0.0,-0.0012207030000004337,1.0299999713897705,0.46000000834465027,-10.4399995803833,-0.028564453125,0.03778076171875,0.994140625,27.280000686645508,0.0,-39.0,-0.1394195556640625,0.0666046142578125,Waiting,0.0,0.0,0.0,0.0,0.0,0.0,0.0,0.0,
3.4050859999999994,0.0,0.0,false,2958991.6808106396,,0.0,0.0,0.0,0.0,0.0,0.25,0.252685521,0.0,0.008544921000000372,1.0,0.0,0.0,-0.0,0.0,0.0,3.596191038,0.0,0.0,0.0,0.0,0.0,0.0,0.0,0.0,4.112548407,0.0,0.0,0.0,0.0,0.0,-0.0,0.0,0.0,2.4877927140000002,0.0,0.0,1.0299999713897705,0.44999998807907104,-10.4399995803833,-0.0035400390625,0.02325439453125,1.015625,27.280000686645508,0.0,-12.0,-0.1396484375,0.0666046142578125,Waiting,0.0,0.0,0.0,0.0,0.0,0.0,0.0,0.0,
3.430734,0.0,0.0,false,2959627.37721519,,0.0,0.0,0.0,0.0,0.0,0.25,0.25756833300000004,0.0,0.008544921000000372,1.0,0.0,0.0,-0.0,0.0,0.0,3.596191038,0.0,0.0,0.0,0.0,0.0,0.0,0.0,0.0,4.11376911,0.0,0.0,0.0,0.0,0.0,-0.0,0.0,0.0,2.4877927140000002,0.0,0.0,1.0399999618530273,0.4399999976158142,-10.4399995803833,0.01776123046875,-0.0020751953125,1.02496337890625,27.280000686645508,0.0,18.0,-0.1397552490234375,0.0665740966796875,Waiting,0.0,0.0,0.0,0.0,0.0,0.0,0.0,0.0,
3.4541970000000037,0.0,0.0,false,2960228.6097406703,,0.0,0.0,0.0,0.0,0.0,0.25,0.252685521,0.0,-0.006103515000000392,1.0,0.0,0.0,-0.0,0.0,0.0,3.596191038,0.0,0.0012207029999995456,0.0,0.0,0.0,0.0,0.0,0.0,4.11376911,0.0,0.0,0.0,0.0,0.0,-0.0,0.0,0.0,2.4865720110000002,0.0,0.0,1.0499999523162842,0.44999998807907104,-10.4399995803833,0.0279541015625,-0.020751953125,1.04071044921875,27.280000686645508,0.0,26.0,-0.1397247314453125,0.066497802734375,Waiting,0.0,0.0,0.0,0.0,0.0,0.0,0.0,0.0,
3.4780890000000038,0.0,0.0,false,2960813.193426043,,0.0,0.0,0.0,0.0,0.0,0.375,0.247802709,0.0,-0.006103515000000392,1.0,0.0,0.0,-0.0,0.0,0.0,3.594970335,0.0,0.0,0.0,0.0,0.0,0.0,0.0,0.0,4.112548407,0.0,0.0,0.0,0.0,0.0,-0.0,0.0,0.0,2.4877927140000002,0.0,0.0,1.0499999523162842,0.4399999976158142,-10.4399995803833,0.0399169921875,-0.02880859375,1.03411865234375,27.280000686645508,0.0,40.0,-0.1392059326171875,0.065673828125,Waiting,0.0,0.0,0.0,0.0,0.0,0.0,0.0,0.0,
3.5684180000000016,0.0,0.0,false,2961359.3885028427,,0.0,0.0,0.0,NaN,0.0,0.25,0.253906224,NaN,0.0,1.0,0.0,0.0,NaN,0.0,0.0,3.596191038,NaN,0.0,0.0,0.0,0.0,NaN,0.0,0.0,4.114989813,NaN,0.0,0.0,0.0,0.0,NaN,0.0,0.0,2.4877927140000002,NaN,0.0,1.0499999523162842,0.4399999976158142,-10.4399995803833,0.0113525390625,0.009765625,0.994384765625,27.280000686645508,0.0,5.0,-0.1379547119140625,0.0646209716796875,Waiting,0.0,0.0,0.0,0.0,0.0,0.0,0.0,0.0,
3.589394000000004,0.0,0.0,false,2961826.97979798,,0.0,0.0,0.0,NaN,0.0,0.0,0.245361303,NaN,0.004882811999999959,1.0,0.0,0.0,NaN,0.0,0.0,3.594970335,NaN,0.0012207029999995456,0.0,0.0,0.0,NaN,0.0,0.0,4.112548407,NaN,0.0,0.0,0.0,0.0,NaN,0.0,0.0,2.4865720110000002,NaN,0.0,1.0499999523162842,0.4399999976158142,-10.4399995803833,-0.008544921875,0.01898193359375,0.98779296875,27.280000686645508,0.0,-16.0,-0.1379547119140625,0.0646209716796875,Waiting,0.0,0.0,0.0,0.0,0.0,0.0,0.0,0.0,
3.613475000000002,0.0,0.0,false,2962262.2637223974,,0.0,0.0,0.0,NaN,0.0,0.0,0.27709958100000004,NaN,-0.004882811999999959,1.0,0.0,0.0,NaN,0.0,0.0,3.596191038,NaN,-0.0012207029999995456,0.0,0.0,0.0,NaN,0.0,0.0,4.11376911,NaN,0.0,0.0,0.0,0.0,NaN,0.0,0.0,2.4865720110000002,NaN,0.0,1.0399999618530273,0.4300000071525574,-10.4399995803833,-0.04022216796875,0.048828125,0.97515869140625,27.280000686645508,0.0,-52.0,-0.1380767822265625,0.06463623046875,Waiting,0.0,0.0,0.0,0.0,0.0,0.0,0.0,0.0,
3.7129510000000048,0.0,0.0,false,2962679.2837326606,,0.0,0.0,0.0,0.0,0.0,0.0,0.272216769,NaN,0.0,1.0,0.0,0.0,0.0,0.0,0.0,3.596191038,NaN,0.0,0.0,0.0,0.0,0.0,0.0,0.0,4.112548407,NaN,0.0,0.0,0.0,0.0,0.0,0.0,0.0,2.4890134170000002,NaN,0.0,1.0399999618530273,0.4300000071525574,-10.449999809265137,-0.0067138671875,0.015625,1.01373291015625,27.280000686645508,0.0,-13.0,-0.14044189453125,0.0657196044921875,Waiting,0.0,0.0,0.0,0.0,0.0,0.0,0.0,0.0,
3.745786000000004,0.0,0.0,false,2963020.5469439193,,0.0,0.0,0.0,0.0,0.0,0.0,0.24658200600000002,NaN,0.0024414059999999793,1.0,0.0,0.0,0.0,0.0,0.0,3.596191038,NaN,0.0,0.0,0.0,0.0,0.0,0.0,0.0,4.112548407,NaN,0.0,0.0,0.0,0.0,0.0,0.0,0.0,2.4865720110000002,NaN,0.0,1.0499999523162842,0.4300000071525574,-10.4399995803833,0.01702880859375,-0.02099609375,1.036865234375,27.280000686645508,0.0,16.0,-0.14044189453125,0.065673828125,Waiting,0.0,0.0,0.0,0.0,0.0,0.0,0.0,0.0,
3.7687769999999983,0.0,0.0,false,2963345.55163728,,0.0,0.0,0.0,0.0,0.0,0.0,0.2441406,NaN,0.0024414059999999793,1.0,0.0,0.0,0.0,0.0,0.0,3.594970335,NaN,0.0,0.0,0.0,0.0,0.0,0.0,0.0,4.114989813,NaN,0.0,0.0,0.0,0.0,0.0,0.0,0.0,2.4877927140000002,NaN,0.0,1.059999942779541,0.4399999976158142,-10.449999809265137,0.01678466796875,-0.03082275390625,1.04547119140625,27.280000686645508,0.0,17.0,-0.14044189453125,0.065582275390625,Waiting,0.0,0.0,0.0,0.0,0.0,0.0,0.0,0.0,
3.7938509999999988,0.0,0.0,false,2963632.6393958465,,0.0,0.0,0.0,0.0,0.0,0.0,0.24658200600000002,NaN,-0.0012207029999999897,1.0,0.0,0.0,0.0,0.0,0.0,3.597411741,NaN,0.0,0.0,0.0,0.0,0.0,0.0,0.0,4.11376911,NaN,0.0,0.0,0.0,0.0,0.0,0.0,0.0,2.4877927140000002,NaN,0.0,1.0499999523162842,0.4399999976158142,-10.449999809265137,0.0321044921875,-0.0467529296875,1.0498046875,27.280000686645508,0.0,35.0,-0.1402435302734375,0.0648956298828125,Waiting,0.0,0.0,0.0,0.0,0.0,0.0,0.0,0.0,
4.034316000000002,0.0,0.0,false,2965227.8993710694,,0.0,0.0,0.0,0.0,0.0,0.0,0.245361303,NaN,0.0,1.0,0.0,0.0,0.0,0.0,0.0,3.596191038,NaN,0.0,0.0,0.0,0.0,0.0,0.0,0.0,4.112548407,NaN,0.0,0.0,0.0,0.0,0.0,0.0,0.0,2.4865720110000002,NaN,0.0,1.0499999523162842,0.4399999976158142,-10.4399995803833,0.03497314453125,-0.01593017578125,1.0494384765625,27.290000915527344,0.0,32.0,-0.1425018310546875,0.064422607421875,Waiting,0.0,0.0,0.0,0.0,0.0,0.0,0.0,0.0,
4.109119999999999,0.0,0.0,false,2966751.8189817723,,0.0,0.0,0.0,0.0,0.0,0.0,0.247802709,NaN,0.0,1.0,0.0,0.0,0.0,0.0,0.0,3.596191038,NaN,0.0,0.0,0.0,0.0,0.0,0.0,0.0,4.112548407,NaN,0.0,0.0,0.0,0.0,0.0,0.0,0.0,2.4877927140000002,NaN,0.0,1.0399999618530273,0.4300000071525574,-10.449999809265137,0.0386962890625,-0.0291748046875,1.03936767578125,27.290000915527344,0.0,39.0,-0.1431427001953125,0.06390380859375,Waiting,0.0,0.0,0.0,0.0,0.0,0.0,0.0,0.0,
4.176456999999998,0.0,0.0,false,2968253.6231155777,,0.0,0.0,0.0,0.0,0.0,0.0,0.247802709,NaN,0.0,1.0,0.0,0.0,0.0,0.0,0.0,3.596191038,NaN,0.0,0.0,0.0,0.0,0.0,0.0,0.0,4.112548407,NaN,0.0,0.0,0.0,0.0,0.0,0.0,0.0,2.4877927140000002,NaN,0.0,1.0399999618530273,0.4399999976158142,-10.449999809265137,0.0035400390625,0.02886962890625,0.9842529296875,27.290000915527344,0.0,-5.0,-0.143341064453125,0.063323974609375,Waiting,0.0,0.0,0.0,0.0,0.0,0.0,0.0,0.0,
4.232026000000002,0.0,0.0,false,2969710.694287508,,0.0,0.0,0.0,NaN,0.0,0.0,0.247802709,NaN,0.0,1.0,0.0,0.0,NaN,0.0,0.0,3.594970335,NaN,0.0,0.0,0.0,0.0,NaN,0.0,0.0,4.11376911,NaN,0.0,0.0,0.0,0.0,NaN,0.0,0.0,2.4877927140000002,NaN,0.0,1.0399999618530273,0.4300000071525574,-10.449999809265137,-0.0220947265625,0.072509765625,0.9752197265625,27.290000915527344,0.0,-39.0,-0.143829345703125,0.0635986328125,Waiting,0.0,0.0,0.0,0.0,0.0,0.0,0.0,0.0,
4.472755999999998,0.0,0.0,false,2971145.7616060227,,0.0,0.0,0.0,0.0,0.0,0.0,0.24658200600000002,NaN,0.0,1.0,0.0,0.0,0.0,0.0,0.0,3.596191038,NaN,0.0,0.0,0.0,0.0,0.0,0.0,0.0,4.11376911,NaN,0.0,0.0,0.0,0.0,0.0,0.0,0.0,2.4877927140000002,NaN,0.0,1.059999942779541,0.4300000071525574,-10.449999809265137,0.015625,0.02362060546875,0.984130859375,27.290000915527344,0.0,7.0,-0.147003173828125,0.062835693359375,Waiting,0.0,0.0,0.0,0.0,0.0,0.0,0.0,0.0,
4.494064999999999,0.0,0.0,false,2972514.2219435736,,0.0,0.0,0.0,0.0,0.0,0.0,0.247802709,NaN,0.0,1.0,0.0,0.0,0.0,0.0,0.0,3.596191038,NaN,0.0,0.0,0.0,0.0,0.0,0.0,0.0,4.11376911,NaN,0.0,0.0,0.0,0.0,0.0,0.0,0.0,2.4877927140000002,NaN,0.0,1.0399999618530273,0.4300000071525574,-10.449999809265137,-0.02203369140625,0.041259765625,0.9754638671875,27.290000915527344,0.0,-33.0,-0.14703369140625,0.062835693359375,Waiting,0.0,0.0,0.0,0.0,0.0,0.0,0.0,0.0,
4.519820000000004,0.0,0.0,false,2973862.350877193,,0.0,0.0,0.0,0.0,0.0,0.0,0.247802709,NaN,0.0,1.0,0.0,0.0,0.0,0.0,0.0,3.596191038,NaN,0.0,0.0,0.0,0.0,0.0,0.0,0.0,4.112548407,NaN,0.0,0.0,0.0,0.0,0.0,0.0,0.0,2.4877927140000002,NaN,0.0,1.0399999618530273,0.4300000071525574,-10.449999809265137,-0.03704833984375,0.0665283203125,0.9765625,27.290000915527344,0.0,-52.0,-0.147125244140625,0.0628814697265625,Waiting,0.0,0.0,0.0,0.0,0.0,0.0,0.0,0.0,
4.544486000000001,0.0,0.0,false,2975169.9737006887,,0.0,0.0,0.0,0.0,0.0,0.0,0.247802709,NaN,0.0,1.0,0.0,0.0,0.0,0.0,0.0,3.596191038,NaN,0.0,0.0,0.0,0.0,0.0,0.0,0.0,4.11376911,NaN,0.0,0.0,0.0,0.0,0.0,0.0,0.0,2.4865720110000002,NaN,0.0,1.0399999618530273,0.4300000071525574,-10.449999809265137,-0.0198974609375,0.06683349609375,0.97369384765625,27.290000915527344,0.0,-35.0,-0.147491455078125,0.063140869140625,Waiting,0.0,0.0,0.0,0.0,0.0,0.0,0.0,0.0,
4.573462999999999,0.0,0.0,false,2976457.3667083853,,0.0,0.0,0.0,0.0,0.0,0.0,0.24658200600000002,NaN,0.0,1.0,0.0,0.0,0.0,0.0,0.0,3.596191038,NaN,0.0,0.0,0.0,0.0,0.0,0.0,0.0,4.11376911,NaN,0.0,0.0,0.0,0.0,0.0,0.0,0.0,2.4877927140000002,NaN,0.0,1.0399999618530273,0.4399999976158142,-10.449999809265137,-0.024169921875,0.040283203125,0.98773193359375,27.290000915527344,0.0,-35.0,-0.1480712890625,0.0635833740234375,Waiting,0.0,0.0,0.0,0.0,0.0,0.0,0.0,0.0,
4.594394000000004,0.0,0.0,false,2977705.9862414007,,0.0,0.0,0.0,0.0,0.0,0.0,0.247802709,NaN,0.0,1.0,0.0,0.0,0.0,0.0,0.0,3.596191038,NaN,0.0,0.0,0.0,0.0,0.0,0.0,0.0,4.112548407,NaN,0.0,0.0,0.0,0.0,0.0,0.0,0.0,2.4877927140000002,NaN,0.0,1.0399999618530273,0.4300000071525574,-10.449999809265137,0.01495361328125,0.01611328125,1.0130615234375,27.299999237060547,0.0,7.0,-0.148406982421875,0.0635833740234375,Waiting,0.0,0.0,0.0,0.0,0.0,0.0,0.0,0.0,
4.622373000000003,0.0,0.0,false,2978932.945,,0.0,0.0,0.0,0.0,0.0,0.0,0.247802709,NaN,0.0,1.0,0.0,0.0,0.0,0.0,0.0,3.596191038,NaN,0.0,0.0,0.0,0.0,0.0,0.0,0.0,4.112548407,NaN,0.0,0.0,0.0,0.0,0.0,0.0,0.0,2.4877927140000002,NaN,0.0,1.0499999523162842,0.4300000071525574,-10.449999809265137,0.028076171875,-0.00311279296875,1.029541015625,27.299999237060547,0.0,23.0,-0.1483917236328125,0.0635833740234375,Waiting,0.0,0.0,0.0,0.0,0.0,0.0,0.0,0.0,
4.640514,0.0,0.0,false,2980139.8126171143,,0.0,0.0,0.0,0.0,0.0,0.0,0.247802709,NaN,0.0,1.0,0.0,0.0,0.0,0.0,0.0,3.594970335,NaN,0.0,0.0,0.0,0.0,0.0,0.0,0.0,4.112548407,NaN,0.0,0.0,0.0,0.0,0.0,0.0,0.0,2.4877927140000002,NaN,0.0,1.059999942779541,0.4300000071525574,-10.449999809265137,0.032470703125,-0.01251220703125,1.043212890625,27.299999237060547,0.0,29.0,-0.1483306884765625,0.0635528564453125,Waiting,0.0,0.0,0.0,0.0,0.0,0.0,0.0,0.0,
4.665301000000003,0.0,0.0,false,2981325.0986267165,,0.0,0.0,0.0,0.0,0.0,0.0,0.24658200600000002,NaN,0.0,1.0,0.0,0.0,0.0,0.0,0.0,3.596191038,NaN,0.0,0.0,0.0,0.0,0.0,0.0,0.0,4.112548407,NaN,0.0,0.0,0.0,0.0,0.0,0.0,0.0,2.4877927140000002,NaN,0.0,1.059999942779541,0.4300000071525574,-10.449999809265137,0.02996826171875,-0.03106689453125,1.05999755859375,27.299999237060547,0.0,30.0,-0.148101806640625,0.0633544921875,Waiting,0.0,0.0,0.0,0.0,0.0,0.0,0.0,0.0,
4.686915000000004,0.0,0.0,false,2982471.835308796,,0.0,0.0,0.0,0.0,0.0,0.0,0.247802709,NaN,0.0,1.0,0.0,0.0,0.0,0.0,0.0,3.596191038,NaN,0.0,0.0,0.0,0.0,0.0,0.0,0.0,4.112548407,NaN,0.0,0.0,0.0,0.0,0.0,0.0,0.0,2.4877927140000002,NaN,0.0,1.059999942779541,0.41999998688697815,-10.449999809265137,0.03277587890625,-0.03314208984375,1.04754638671875,27.299999237060547,0.0,34.0,-0.1479034423828125,0.0631561279296875,Waiting,0.0,0.0,0.0,0.0,0.0,0.0,0.0,0.0,
4.708844000000001,0.0,0.0,false,2983597.0922693266,,0.0,0.0,0.0,0.0,0.0,0.0,0.247802709,NaN,0.0,1.0,0.0,0.0,0.0,0.0,0.0,3.596191038,NaN,0.0012207029999995456,0.0,0.0,0.0,0.0,0.0,0.0,4.112548407,NaN,0.0,0.0,0.0,0.0,0.0,0.0,0.0,2.4877927140000002,NaN,0.0,1.059999942779541,0.41999998688697815,-10.449999809265137,0.035400390625,0.00677490234375,1.02508544921875,27.299999237060547,0.0,29.0,-0.14739990234375,0.0626373291015625,Waiting,0.0,0.0,0.0,0.0,0.0,0.0,0.0,0.0,
4.7293620000000045,0.0,0.0,false,2984702.434890966,,0.0,0.0,0.0,0.0,0.0,0.0,0.247802709,NaN,0.0,1.0,0.0,0.0,0.0,0.0,0.0,3.594970335,NaN,0.0012207029999995456,0.0,0.0,0.0,0.0,0.0,0.0,4.112548407,NaN,0.0,0.0,0.0,0.0,0.0,0.0,0.0,2.4877927140000002,NaN,0.0,1.059999942779541,0.41999998688697815,-10.449999809265137,0.0272216796875,0.02069091796875,1.00341796875,27.299999237060547,0.0,19.0,-0.1470794677734375,0.0623626708984375,Waiting,0.0,0.0,0.0,0.0,0.0,0.0,0.0,0.0,
4.750326000000005,0.0,0.0,false,2985787.900373599,,0.0,0.0,0.0,0.0,0.0,0.0,0.247802709,NaN,0.0,1.0,0.0,0.0,0.0,0.0,0.0,3.596191038,NaN,0.0,0.0,0.0,0.0,0.0,0.0,0.0,4.11376911,NaN,0.0,0.0,0.0,0.0,0.0,0.0,0.0,2.4890134170000002,NaN,0.0012207030000004337,1.0499999523162842,0.4300000071525574,-10.449999809265137,-0.00128173828125,0.02947998046875,0.97869873046875,27.299999237060547,0.0,-10.0,-0.1467437744140625,0.0623626708984375,Waiting,0.0,0.0,0.0,0.0,0.0,0.0,0.0,0.0,
4.773727000000003,0.0,0.0,false,2986833.4387056627,,0.0,0.0,0.0,0.0,0.0,0.0,0.247802709,NaN,0.0,1.0,0.0,0.0,0.0,0.0,0.0,3.596191038,NaN,0.0,0.0,0.0,0.0,0.0,0.0,0.0,4.112548407,NaN,0.0,0.0,0.0,0.0,0.0,0.0,0.0,2.4877927140000002,NaN,0.0012207030000004337,1.0499999523162842,0.4300000071525574,-10.449999809265137,-0.02288818359375,0.04302978515625,0.98248291015625,27.299999237060547,0.0,-34.0,-0.1467742919921875,0.0623626708984375,Waiting,0.0,0.0,0.0,0.0,0.0,0.0,0.0,0.0,
4.793944,0.0,0.0,false,2987859.199004975,,0.0,0.0,0.0,0.0,0.0,0.0,0.247802709,NaN,0.0,1.0,0.0,0.0,0.0,0.0,0.0,3.596191038,NaN,0.0,0.0,0.0,0.0,0.0,0.0,0.0,4.11376911,NaN,0.0,0.0,0.0,0.0,0.0,0.0,0.0,2.4890134170000002,NaN,-0.0012207030000004337,1.0399999618530273,0.4300000071525574,-10.449999809265137,-0.02740478515625,0.0738525390625,0.97381591796875,27.299999237060547,0.0,-44.0,-0.1470184326171875,0.0625152587890625,Waiting,0.0,0.0,0.0,0.0,0.0,0.0,0.0,0.0,
4.824903000000002,0.0,0.0,false,2988865.218147918,,0.0,0.0,0.0,0.0,0.0,0.0,0.247802709,NaN,0.0,1.0,0.0,0.0,0.0,0.0,0.0,3.596191038,NaN,-0.0012207029999995456,0.0,0.0,0.0,0.0,0.0,0.0,4.112548407,NaN,0.0,0.0,0.0,0.0,0.0,0.0,0.0,2.4877927140000002,NaN,-0.0012207030000004337,1.0499999523162842,0.4399999976158142,-10.449999809265137,-0.01861572265625,0.058837890625,0.973388671875,27.299999237060547,0.0,-33.0,-0.1472320556640625,0.0626678466796875,Waiting,0.0,0.0,0.0,0.0,0.0,0.0,0.0,0.0,
4.849022000000001,0.0,0.0,false,2989850.0124223605,,0.0,0.0,0.0,0.0,0.0,0.0,0.247802709,NaN,0.0,1.0,0.0,0.0,0.0,0.0,0.0,3.596191038,NaN,-0.0012207029999995456,0.0,0.0,0.0,0.0,0.0,0.0,4.11376911,NaN,0.0,0.0,0.0,0.0,0.0,0.0,0.0,2.4877927140000002,NaN,0.0012207030000004337,1.0499999523162842,0.4399999976158142,-10.460000038146973,-0.01678466796875,0.038818359375,0.98809814453125,27.299999237060547,0.0,-27.0,-0.147796630859375,0.0630950927734375,Waiting,0.0,0.0,0.0,0.0,0.0,0.0,0.0,0.0,
4.871884999999998,0.0,0.0,false,2990795.178150217,,0.0,0.0,0.0,0.0,0.0,0.0,0.247802709,NaN,0.0,1.0,0.0,0.0,0.0,0.0,0.0,3.596191038,NaN,0.0012207029999995456,0.0,0.0,0.0,0.0,0.0,0.0,4.112548407,NaN,0.0,0.0,0.0,0.0,0.0,0.0,0.0,2.4877927140000002,NaN,0.0012207030000004337,1.059999942779541,0.4300000071525574,-10.460000038146973,0.02374267578125,0.01153564453125,1.0213623046875,27.299999237060547,0.0,17.0,-0.1481170654296875,0.0630950927734375,Waiting,0.0,0.0,0.0,0.0,0.0,0.0,0.0,0.0,
4.8910269999999985,0.0,0.0,false,2991720.7394540943,,0.0,0.0,0.0,0.0,0.0,0.0,0.247802709,NaN,0.0,1.0,0.0,0.0,0.0,0.0,0.0,3.596191038,NaN,0.0012207029999995456,0.0,0.0,0.0,0.0,0.0,0.0,4.114989813,NaN,0.0,0.0,0.0,0.0,0.0,0.0,0.0,2.4877927140000002,NaN,0.0012207030000004337,1.059999942779541,0.4300000071525574,-10.460000038146973,0.03338623046875,-0.009521484375,1.0411376953125,27.299999237060547,0.0,30.0,-0.1480865478515625,0.0630645751953125,Waiting,0.0,0.0,0.0,0.0,0.0,0.0,0.0,0.0,
