Time,ClimberA1,ClimberA2,CameraExists,HeapSpace,LoopTime,FRpos,FRCurrent,FRspeed,FRsetpoint,FRApos,FRACurrent,FREncpos,FREncSetpoint,FREncSpeed,FLpos,FLCurrent,FLspeed,FLsetpoint,FLApos,FLACurrent,FLEncpos,FLEncSetpoint,FLEncSpeed,BRpos,BRCurrent,BRspeed,BRsetpoint,BRApos,BRACurrent,BREncpos,BREncSetpoint,BREncSpeed,BLpos,BLCurrent,BLspeed,BLsetpoint,BLApos,BLACurrent,BLEncpos,BLEncSetpoint,BLEncSpeed,navx_Pitch,navx_Roll,navx_Yaw,navx_XAcc,navx_YAcc,navx_ZAcc,navx_Temp,navx_Bar,navx_Alt,navx_XDis,navx_YDis,GearPlacerState,ShootOutputV,ShootOutputCurrent,ShootEncPos,ShootEncVelocity,ShootSpeed,ShootSetpoint,CarouselSetpoint,CarouselCurrent,
0.14899300000001675,0.0,0.0,false,4620059.386133621,,59020.0,0.0,0.0,0.0,0.0,0.125,1.7578123200000002,0.0,0.0,-56397.0,0.0,0.0,-0.0,0.0,0.0,2.667236055,0.0,-0.01521483400000001,47011.0,0.0,0.0,0.0,0.0,0.0,4.0881343470000004,0.0,0.0,-46703.0,0.0,0.0,-0.0,0.0,0.0,2.5268552100000004,0.0,0.0,1.2599999904632568,0.550000011920929,-14.84000015258789,0.01214599609375,0.02142333984375,0.998046875,33.65999984741211,0.0,2.0,-0.1220855712890625,0.051849365234375,Waiting,0.0,0.0,0.0,0.0,0.0,0.0,0.0,0.0,
0.24992700000002516,0.0,0.0,false,4620070.052870417,,59020.0,0.0,0.0,0.0,0.0,0.125,1.7626951320000002,0.0,0.0,-56397.0,0.0,0.0,-0.0,0.0,0.0,2.6855466000000003,0.0,0.003662109000000413,47011.0,0.0,0.0,0.0,0.0,0.0,4.086913644,0.0,0.0,-46703.0,0.0,0.0,-0.0,0.0,0.0,2.525634507,0.0,0.0,1.2599999904632568,0.5400000214576721,-14.829999923706055,0.0098876953125,0.02166748046875,1.0001220703125,33.65999984741211,0.0,0.0,-0.1220855712890625,0.051849365234375,Waiting,0.0,0.0,0.0,0.0,0.0,0.0,0.0,0.0,
0.3473660000000382,0.0,0.0,false,4620075.348723304,,59020.0,0.0,0.0,0.0,0.0,0.125,1.7639158350000002,0.0,0.0,-56397.0,0.0,0.0,-0.0,0.0,0.0,2.700195036,0.0,0.017089841999999855,47011.0,0.0,0.0,0.0,0.0,0.0,4.086913644,0.0,0.0,-46703.0,0.0,0.0,-0.0,0.0,0.0,2.525634507,0.0,0.0,1.2599999904632568,0.550000011920929,-14.84000015258789,0.01025390625,0.01947021484375,0.99725341796875,33.65999984741211,0.0,1.0,-0.1220855712890625,0.051849365234375,Waiting,0.0,0.0,0.0,0.0,0.0,0.0,0.0,0.0,
0.44727000000001865,0.0,0.0,false,4620075.278882166,,59020.0,0.0,0.0,0.0,0.0,0.125,1.7639158350000002,0.0,0.0,-56397.0,0.0,0.0,-0.0,0.0,0.0,2.700195036,0.0,0.012207029999999897,47011.0,0.0,0.0,0.0,0.0,0.0,4.086913644,0.0,0.0,-46703.0,0.0,0.0,-0.0,0.0,0.0,2.525634507,0.0,0.0,1.25,0.5400000214576721,-14.84000015258789,0.0107421875,0.0208740234375,0.99810791015625,33.65999984741211,0.0,1.0,-0.1220855712890625,0.051849365234375,Waiting,0.0,0.0,0.0,0.0,0.0,0.0,0.0,0.0,
0.546591999999946,0.0,0.0,false,4620069.843926681,,59020.0,0.0,0.0,0.0,0.0,0.125,1.7626951320000002,0.0,0.0,-56397.0,0.0,0.0,-0.0,0.0,0.0,2.700195036,0.0,0.0,47011.0,0.0,0.0,0.0,0.0,0.0,4.0881343470000004,0.0,0.0,-46703.0,0.0,0.0,-0.0,0.0,0.0,2.525634507,0.0,0.0,1.25,0.5400000214576721,-14.84000015258789,0.00860595703125,0.02227783203125,0.998291015625,33.65999984741211,0.0,0.0,-0.1220855712890625,0.051849365234375,Waiting,0.0,0.0,0.0,0.0,0.0,0.0,0.0,0.0,
0.6475050000000047,0.0,0.0,false,4620060.216060497,,59020.0,0.0,0.0,0.0,0.0,0.125,1.7626951320000002,0.0,0.0,-56397.0,0.0,0.0,-0.0,0.0,0.0,2.700195036,0.0,0.0,47011.0,0.0,0.0,0.0,0.0,0.0,4.0881343470000004,0.0,0.0,-46703.0,0.0,0.0,-0.0,0.0,0.0,2.525634507,0.0,0.0,1.2400000095367432,0.5299999713897705,-14.84000015258789,0.00775146484375,0.02288818359375,0.99993896484375,33.709999084472656,0.0,-1.0,-0.1220855712890625,0.051849365234375,Waiting,0.0,0.0,0.0,0.0,0.0,0.0,0.0,0.0,
0.7427399999999907,0.0,0.0,false,4620045.224154694,,59020.0,0.0,0.0,0.0,0.0,0.125,1.7626951320000002,0.0,0.0,-56397.0,0.0,0.0,-0.0,0.0,0.0,2.700195036,0.0,0.0,47011.0,0.0,0.0,0.0,0.0,0.0,4.0881343470000004,0.0,0.0,-46703.0,0.0,0.0,-0.0,0.0,0.0,2.525634507,0.0,0.0,1.2400000095367432,0.5400000214576721,-14.84000015258789,0.0079345703125,0.02337646484375,0.99676513671875,33.709999084472656,0.0,-1.0,-0.1220855712890625,0.051849365234375,Waiting,0.0,0.0,0.0,0.0,0.0,0.0,0.0,0.0,
0.8412269999999553,0.0,0.0,false,4620024.868788708,,59020.0,0.0,0.0,0.0,0.0,0.125,1.7639158350000002,0.0,0.0,-56397.0,0.0,0.0,-0.0,0.0,0.0,2.6989743330000002,0.0,0.0,47011.0,0.0,0.0,0.0,0.0,0.0,4.086913644,0.0,0.0,-46703.0,0.0,0.0,-0.0,0.0,0.0,2.5268552100000004,0.0,0.0,1.2400000095367432,0.5299999713897705,-14.84000015258789,0.009521484375,0.02142333984375,1.0010986328125,33.709999084472656,0.0,0.0,-0.1220855712890625,0.051849365234375,Waiting,0.0,0.0,0.0,0.0,0.0,0.0,0.0,0.0,
0.9431489999999758,0.0,0.0,false,4619999.150541893,,59020.0,0.0,0.0,0.0,0.0,0.125,1.7626951320000002,0.0,0.0,-56397.0,0.0,0.0,-0.0,0.0,0.0,2.6989743330000002,0.0,0.0,47011.0,0.0,0.0,0.0,0.0,0.0,4.0881343470000004,0.0,0.0,-46703.0,0.0,0.0,-0.0,0.0,0.0,2.5268552100000004,0.0,0.0,1.25,0.5400000214576721,-14.84000015258789,0.011962890625,0.02044677734375,1.00299072265625,33.709999084472656,0.0,2.0,-0.1220855712890625,0.051849365234375,Waiting,0.0,0.0,0.0,0.0,0.0,0.0,0.0,0.0,
1.043795999999973,0.0,0.0,false,4619968.069993519,,59020.0,0.0,0.0,0.0,0.0,0.125,1.7639158350000002,0.0,0.0,-56397.0,0.0,0.0,-0.0,0.0,0.0,2.700195036,0.0,0.0,47011.0,0.0,0.0,0.0,0.0,0.0,4.0881343470000004,0.0,0.0,-46703.0,0.0,0.0,-0.0,0.0,0.0,2.525634507,0.0,0.0,1.25,0.5400000214576721,-14.84000015258789,0.01171875,0.02191162109375,1.000732421875,33.709999084472656,0.0,2.0,-0.1220855712890625,0.051849365234375,Waiting,0.0,0.0,0.0,0.0,0.0,0.0,0.0,0.0,
1.1508229999999748,0.0,0.0,false,4619931.627722772,,59020.0,0.0,0.0,0.0,0.0,0.125,1.7626951320000002,0.0,0.0,-56397.0,0.0,0.0,-0.0,0.0,0.0,2.700195036,0.0,0.0,47011.0,0.0,0.0,0.0,0.0,0.0,4.084472238,0.0,0.0,-46703.0,0.0,0.0,-0.0,0.0,0.0,2.525634507,0.0,0.0,1.25,0.5400000214576721,-14.850000381469727,0.008544921875,0.020751953125,0.99639892578125,33.70000076293945,0.0,0.0,-0.1220855712890625,0.051849365234375,Waiting,0.0,0.0,0.0,0.0,0.0,0.0,0.0,0.0,
1.2540230000000447,0.0,0.0,false,4619889.688652074,,59020.0,0.0,0.0,0.0,0.0,0.125,1.7639158350000002,0.0,0.0,-56397.0,0.0,0.0,-0.0,0.0,0.0,2.6989743330000002,0.0,0.0,47011.0,0.0,0.0,0.0,0.0,0.0,4.086913644,0.0,0.0,-46703.0,0.0,0.0,-0.0,0.0,0.0,2.525634507,0.0,0.0,1.25,0.5299999713897705,-14.850000381469727,0.009033203125,0.024169921875,0.9898681640625,33.70000076293945,0.0,0.0,-0.1220855712890625,0.051849365234375,Waiting,0.0,0.0,0.0,0.0,0.0,0.0,0.0,0.0,
1.3525840000000318,0.0,0.0,false,4619842.389026892,,59020.0,0.0,0.0,0.0,0.0,0.125,1.7639158350000002,0.0,0.0,-56397.0,0.0,0.0,-0.0,0.0,0.0,2.6965329270000002,0.0,0.0,47011.0,0.0,0.0,0.0,0.0,0.0,4.086913644,0.0,0.0,-46703.0,0.0,0.0,-0.0,0.0,0.0,2.525634507,0.0,0.0,1.25,0.5299999713897705,-14.850000381469727,0.00830078125,0.02191162109375,0.99847412109375,33.70000076293945,0.0,-1.0,-0.1220855712890625,0.051849365234375,Waiting,0.0,0.0,0.0,0.0,0.0,0.0,0.0,0.0,
1.4513539999999339,0.0,0.0,false,4619789.729426164,,59020.0,0.0,0.0,0.0,0.0,0.125,1.7626951320000002,0.0,0.0,-56397.0,0.0,0.0,-0.0,0.0,0.0,2.700195036,0.0,0.0,47011.0,0.0,0.0,0.0,0.0,0.0,4.086913644,0.0,0.0,-46703.0,0.0,0.0,-0.0,0.0,0.0,2.525634507,0.0,0.0,1.25,0.5299999713897705,-14.850000381469727,0.01666259765625,0.0159912109375,0.9923095703125,33.70000076293945,0.0,8.0,-0.1220855712890625,0.051849365234375,Waiting,0.0,0.0,0.0,0.0,0.0,0.0,0.0,0.0,
1.5535039999999571,0.0,0.0,false,4619801.51999712,,59020.0,0.0,0.0,0.0,0.0,0.125,1.7639158350000002,0.0,0.0,-56397.0,0.0,0.0,-0.0,0.0,0.0,2.700195036,0.0,0.0,47011.0,0.0,0.0,0.0,0.0,0.0,4.086913644,0.0,0.0,-46703.0,0.0,0.0,-0.0,0.0,0.0,2.525634507,0.0,0.0,1.25,0.5400000214576721,-14.859999656677246,0.0062255859375,0.01904296875,1.00103759765625,33.70000076293945,0.0,-2.0,-0.1220855712890625,0.051849365234375,Waiting,0.0,0.0,0.0,0.0,0.0,0.0,0.0,0.0,
1.6526759999999776,0.0,0.0,false,4619807.795824334,,59020.0,0.0,0.0,0.0,0.0,0.125,1.7639158350000002,0.0,0.0,-56397.0,0.0,0.0,-0.0,0.0,0.0,2.6989743330000002,0.0,0.0,47011.0,0.0,0.0,0.0,0.0,0.0,4.0881343470000004,0.0,0.0,-46703.0,0.0,0.0,-0.0,0.0,0.0,2.525634507,0.0,0.0,1.25,0.5400000214576721,-14.859999656677246,0.01324462890625,0.01788330078125,0.9957275390625,33.68000030517578,0.0,4.0,-0.1220855712890625,0.051849365234375,Waiting,0.0,0.0,0.0,0.0,0.0,0.0,0.0,0.0,
1.750923999999999,0.0,0.0,false,4619808.454123322,,59020.0,0.0,0.0,0.0,0.0,0.125,1.7639158350000002,0.0,0.0,-56397.0,0.0,0.0,-0.0,0.0,0.0,2.6989743330000002,0.0,0.0,47011.0,0.0,0.0,0.0,0.0,0.0,4.0881343470000004,0.0,0.0,-46703.0,0.0,0.0,-0.0,0.0,0.0,2.525634507,0.0,0.0,1.2599999904632568,0.5400000214576721,-14.859999656677246,0.00714111328125,0.025146484375,0.99761962890625,33.68000030517578,0.0,-3.0,-0.1220855712890625,0.051849365234375,Waiting,0.0,0.0,0.0,0.0,0.0,0.0,0.0,0.0,
1.8488680000000168,0.0,0.0,false,4619804.951407386,,59020.0,0.0,0.0,0.0,0.0,0.125,1.7639158350000002,0.0,0.0,-56397.0,0.0,0.0,-0.0,0.0,0.0,2.700195036,0.0,0.0,47011.0,0.0,0.0,0.0,0.0,0.0,4.086913644,0.0,0.0,-46703.0,0.0,0.0,-0.0,0.0,0.0,2.525634507,0.0,0.0,1.25,0.5299999713897705,-14.869999885559082,0.00543212890625,0.03118896484375,0.998779296875,33.68000030517578,0.0,-6.0,-0.1220855712890625,0.051727294921875,Waiting,0.0,0.0,0.0,0.0,0.0,0.0,0.0,0.0,
1.9500169999999926,0.0,0.0,false,4619795.832271533,,59020.0,0.0,0.0,0.0,0.0,0.125,1.7626951320000002,0.0,0.0,-56397.0,0.0,0.0,-0.0,0.0,0.0,2.810058306,0.0,0.0,47011.0,0.0,0.0,0.0,0.0,0.0,4.086913644,0.0,0.0,-46703.0,0.0,0.0,-0.0,0.0,0.0,2.5268552100000004,0.0,0.0,1.2599999904632568,0.5299999713897705,-14.869999885559082,0.004150390625,0.02288818359375,1.01348876953125,33.68000030517578,0.0,-5.0,-0.1220855712890625,0.051727294921875,Waiting,0.0,0.0,0.0,0.0,0.0,0.0,0.0,0.0,
2.055015000000014,0.0,0.0,false,4619781.200691045,,59020.0,0.0,0.0,0.0,0.0,0.125,1.7639158350000002,0.0,0.0,-56397.0,0.0,0.0,-0.0,0.0,0.0,2.805175494,0.0,0.0,47011.0,0.0,0.0,0.0,0.0,0.0,4.086913644,0.0,0.0,-46703.0,0.0,0.0,-0.0,0.0,0.0,2.525634507,0.0,0.0,1.2400000095367432,0.5199999809265137,-14.869999885559082,0.01214599609375,0.02008056640625,0.997802734375,33.68000030517578,0.0,3.0,-0.1220855712890625,0.051727294921875,Waiting,0.0,0.0,0.0,0.0,0.0,0.0,0.0,0.0,
2.162591000000015,0.0,0.0,false,4619762.306280367,,59020.0,0.0,0.0,0.0,0.0,0.125,1.7626951320000002,0.0,0.0,-56397.0,0.0,0.0,-0.0,0.0,0.0,2.757568077,0.0,0.0,47011.0,0.0,0.0,0.0,0.0,0.0,4.086913644,0.0,0.0,-46703.0,0.0,0.0,-0.0,0.0,0.0,2.525634507,0.0,0.0,1.25,0.5400000214576721,-14.859999656677246,0.00494384765625,0.0194091796875,1.00628662109375,33.709999084472656,0.0,-3.0,-0.1220855712890625,0.051727294921875,Waiting,0.0,0.0,0.0,0.0,0.0,0.0,0.0,0.0,
2.266454999999958,0.0,0.0,false,4619736.444828331,,59020.0,0.0,0.0,0.0,0.0,0.125,1.7626951320000002,0.0,0.0,-56397.0,0.0,0.0,-0.0,0.0,0.0,2.719726284,0.0,0.0,47011.0,0.0,0.0,0.0,0.0,0.0,4.086913644,0.0,0.0,-46703.0,0.0,0.0,-0.0,0.0,0.0,2.525634507,0.0,0.0,1.25,0.5299999713897705,-14.850000381469727,0.00860595703125,0.0234375,0.9945068359375,33.709999084472656,0.0,-1.0,-0.1220855712890625,0.051727294921875,Waiting,0.0,0.0,0.0,0.0,0.0,0.0,0.0,0.0,
2.3693630000000123,0.0,0.0,false,4619706.425018894,,59020.0,0.0,0.0,0.0,0.0,0.125,1.7626951320000002,0.0,0.0,-56397.0,0.0,0.0,-0.0,0.0,0.0,2.6953122240000003,0.0,0.0,47011.0,0.0,0.0,0.0,0.0,0.0,4.086913644,0.0,0.0,-46703.0,0.0,0.0,-0.0,0.0,0.0,2.525634507,0.0,0.0,1.2599999904632568,0.5400000214576721,-14.850000381469727,0.01220703125,0.022216796875,0.99951171875,33.709999084472656,0.0,2.0,-0.1220855712890625,0.051727294921875,Waiting,0.0,0.0,0.0,0.0,0.0,0.0,0.0,0.0,
2.4732460000000427,0.0,0.0,false,4619670.791708651,,59020.0,0.0,0.0,0.0,0.0,0.125,1.7626951320000002,0.0,0.0,-56397.0,0.0,0.0,-0.0,0.0,0.0,2.5854489540000003,0.0,0.0,47011.0,0.0,0.0,0.0,0.0,0.0,4.0881343470000004,0.0,0.0,-46703.0,0.0,0.0,-0.0,0.0,0.0,2.525634507,0.0,0.0,1.25,0.5299999713897705,-14.84000015258789,0.00830078125,0.01800537109375,0.9945068359375,33.709999084472656,0.0,0.0,-0.1220855712890625,0.051727294921875,Waiting,0.0,0.0,0.0,0.0,0.0,0.0,0.0,0.0,
2.574974000000046,0.0,0.0,false,4619629.648853863,,59020.0,0.0,0.0,0.0,0.0,0.125,1.7639158350000002,0.0,0.0,-56397.0,0.0,0.0,-0.0,0.0,0.125,2.622070044,0.0,0.0,47011.0,0.0,0.0,0.0,0.0,0.0,4.0881343470000004,0.0,0.0,-46703.0,0.0,0.0,-0.0,0.0,0.0,2.525634507,0.0,0.0,1.2699999809265137,0.5299999713897705,-14.84000015258789,0.0196533203125,0.034912109375,1.00531005859375,33.709999084472656,0.0,6.0,-0.1222381591796875,0.051727294921875,Waiting,0.0,0.0,0.0,0.0,0.0,0.0,0.0,0.0,
2.6788099999999395,0.0,0.0,false,4619584.245843829,,59020.0,0.0,0.0,0.0,0.0,0.125,1.7639158350000002,0.0,0.0,-56397.0,0.0,0.0,-0.0,0.0,0.0,2.6904294120000003,0.0,0.0,47011.0,0.0,0.0,0.0,0.0,0.0,4.086913644,0.0,0.0,-46703.0,0.0,0.0,-0.0,0.0,0.0,2.525634507,0.0,0.0,1.2799999713897705,0.5299999713897705,-14.850000381469727,0.00274658203125,0.01220703125,1.010009765625,33.66999816894531,0.0,-3.0,-0.1222381591796875,0.051727294921875,Waiting,0.0,0.0,0.0,0.0,0.0,0.0,0.0,0.0,
2.7832449999999955,0.0,0.0,false,4619533.334388831,,59020.0,0.0,0.0,0.0,0.0,0.125,1.7639158350000002,0.0,0.0,-56397.0,0.0,0.0,-0.0,0.0,0.0,2.714843472,0.0,0.0,47011.0,0.0,0.0,0.0,0.0,0.0,4.086913644,0.0,0.0,-46703.0,0.0,0.0,-0.0,0.0,0.0,2.525634507,0.0,0.0,1.25,0.5199999809265137,-14.850000381469727,0.009521484375,0.0191650390625,0.9990234375,33.66999816894531,0.0,1.0,-0.1222381591796875,0.051727294921875,Waiting,0.0,0.0,0.0,0.0,0.0,0.0,0.0,0.0,
2.896508000000031,0.0,0.0,false,4619548.033103052,,59020.0,0.0,0.0,0.0,0.0,0.125,1.7626951320000002,0.0,0.0,-56397.0,0.0,0.0,-0.0,0.0,0.0,2.713622769,0.0,0.019531247999999835,47011.0,0.0,0.0,0.0,0.0,0.0,4.086913644,0.0,0.0,-46703.0,0.0,0.0,-0.0,0.0,0.0,2.525634507,0.0,0.0,1.2599999904632568,0.5299999713897705,-14.850000381469727,0.008544921875,0.02825927734375,0.99664306640625,33.66999816894531,0.0,-2.0,-0.1222381591796875,0.051727294921875,Waiting,0.0,0.0,0.0,0.0,0.0,0.0,0.0,0.0,
3.005150000000023,0.0,0.0,false,4619556.892167092,,59020.0,0.0,0.0,0.0,0.0,0.125,1.7626951320000002,0.0,0.0,-56397.0,0.0,0.0,-0.0,0.0,0.0,2.713622769,0.0,0.0,47011.0,0.0,0.0,0.0,0.0,0.0,4.0881343470000004,0.0,0.0,-46703.0,0.0,0.0,-0.0,0.0,0.0,2.525634507,0.0,0.0,1.2699999809265137,0.5199999809265137,-14.859999656677246,0.01275634765625,0.01800537109375,0.9981689453125,33.66999816894531,0.0,4.0,-0.1222381591796875,0.051727294921875,Waiting,0.0,0.0,0.0,0.0,0.0,0.0,0.0,0.0,
3.1098349999999626,0.0,0.0,false,4619560.064186515,,59020.0,0.0,0.0,0.0,0.0,0.125,1.7626951320000002,0.0,0.0,-56397.0,0.0,0.0,-0.0,0.0,0.0,2.714843472,0.0,0.0,47011.0,0.0,0.0,0.0,0.0,0.0,4.0881343470000004,0.0,0.0,-46703.0,0.0,0.0,-0.0,0.0,0.0,2.5268552100000004,0.0,0.0,1.2699999809265137,0.5299999713897705,-14.859999656677246,0.0098876953125,0.02459716796875,0.99566650390625,33.66999816894531,0.0,0.0,-0.1222381591796875,0.051727294921875,Waiting,0.0,0.0,0.0,0.0,0.0,0.0,0.0,0.0,
3.2108159999999915,0.0,0.0,false,4619558.929879474,,59020.0,0.0,0.0,0.0,0.0,0.125,1.7626951320000002,0.0,0.0,-56397.0,0.0,0.0,-0.0,0.0,0.0,2.714843472,0.0,0.0,47011.0,0.0,0.0,0.0,0.0,0.0,4.086913644,0.0,0.0,-46703.0,0.0,0.0,-0.0,0.0,0.0,2.525634507,0.0,0.0,1.2699999809265137,0.5199999809265137,-14.850000381469727,0.00506591796875,0.01971435546875,0.99261474609375,33.66999816894531,0.0,-3.0,-0.1222381591796875,0.051727294921875,Waiting,0.0,0.0,0.0,0.0,0.0,0.0,0.0,0.0,
3.3113680000000167,0.0,0.0,false,4619550.729601381,,59020.0,0.0,0.0,0.0,0.0,0.125,1.7639158350000002,0.0,0.0,-56397.0,0.0,0.0,-0.0,0.0,0.0,2.714843472,0.0,0.0,47011.0,0.0,0.0,0.0,0.0,0.0,4.086913644,0.0,0.0,-46703.0,0.0,0.0,-0.0,0.0,0.0,2.5268552100000004,0.0,0.0,1.2599999904632568,0.5299999713897705,-14.859999656677246,0.0106201171875,0.0211181640625,0.9993896484375,33.66999816894531,0.0,1.0,-0.1222381591796875,0.051727294921875,Waiting,0.0,0.0,0.0,0.0,0.0,0.0,0.0,0.0,
3.413518999999971,0.0,0.0,false,4619538.224124906,,59020.0,0.0,0.0,0.0,0.0,0.125,1.7639158350000002,0.0,0.0,-56397.0,0.0,0.0,-0.0,0.0,0.0,2.714843472,0.0,0.0,47011.0,0.0,0.0,0.0,0.0,0.0,4.086913644,0.0,0.0,-46703.0,0.0,0.0,-0.0,0.0,0.0,2.525634507,0.0,0.0,1.2699999809265137,0.5299999713897705,-14.859999656677246,0.00732421875,0.0234375,0.9984130859375,33.66999816894531,0.0,-2.0,-0.1222381591796875,0.051727294921875,Waiting,0.0,0.0,0.0,0.0,0.0,0.0,0.0,0.0,
3.522851000000024,0.0,0.0,false,4619520.033959278,,59020.0,0.0,0.0,0.0,0.0,0.125,1.7639158350000002,0.0,0.0,-56397.0,0.0,0.0,-0.0,0.0,0.0,2.713622769,0.0,0.0,47011.0,0.0,0.0,0.0,0.0,0.0,4.0881343470000004,0.0,0.0,-46703.0,0.0,0.0,-0.0,0.0,0.0,2.5268552100000004,0.0,0.0,1.2699999809265137,0.5299999713897705,-14.869999885559082,0.01348876953125,0.0213623046875,1.00018310546875,33.66999816894531,0.0,4.0,-0.1222381591796875,0.051727294921875,Waiting,0.0,0.0,0.0,0.0,0.0,0.0,0.0,0.0,
3.631407999999938,0.0,0.0,false,4619497.539623727,,59020.0,0.0,0.0,0.0,0.0,0.125,1.7639158350000002,0.0,0.0,-56397.0,0.0,0.0,-0.0,0.0,0.0,2.714843472,0.0,0.0,47011.0,0.0,0.0,0.0,0.0,0.0,4.086913644,0.0,0.0,-46703.0,0.0,0.0,-0.0,0.0,0.0,2.525634507,0.0,0.0,1.2699999809265137,0.5299999713897705,-14.869999885559082,0.010009765625,0.0233154296875,0.9964599609375,33.689998626708984,0.0,0.0,-0.1222381591796875,0.051727294921875,Waiting,0.0,0.0,0.0,0.0,0.0,0.0,0.0,0.0,
3.7304989999999525,0.0,0.0,false,4619469.36,,59020.0,0.0,0.0,0.0,0.0,0.125,1.7639158350000002,0.0,0.0,-56397.0,0.0,0.0,-0.0,0.0,0.0,2.714843472,0.0,0.0,47011.0,0.0,0.0,0.0,0.0,0.0,4.086913644,0.0,0.0,-46703.0,0.0,0.0,-0.0,0.0,0.0,2.525634507,0.0,0.0,1.2599999904632568,0.5299999713897705,-14.869999885559082,0.008056640625,0.02349853515625,0.99957275390625,33.689998626708984,0.0,-1.0,-0.1222381591796875,0.051727294921875,Waiting,0.0,0.0,0.0,0.0,0.0,0.0,0.0,0.0,
3.827619999999995,0.0,0.0,false,4619435.49742815,,59020.0,0.0,0.0,0.0,0.0,0.125,1.7626951320000002,0.0,0.0,-56397.0,0.0,0.0,-0.0,0.0,0.0,2.713622769,0.0,0.0,47011.0,0.0,0.0,0.0,0.0,0.0,4.0881343470000004,0.0,0.0,-46703.0,0.0,0.0,-0.0,0.0,0.0,2.525634507,0.0,0.0,1.2599999904632568,0.5299999713897705,-14.859999656677246,0.00927734375,0.02606201171875,1.011474609375,33.689998626708984,0.0,-1.0,-0.1222381591796875,0.051727294921875,Waiting,0.0,0.0,0.0,0.0,0.0,0.0,0.0,0.0,
3.928758000000031,0.0,0.0,false,4619397.3322782535,,59020.0,0.0,0.0,0.0,0.0,0.125,1.7639158350000002,0.0,0.0,-56397.0,0.0,0.0,-0.0,0.0,0.0,2.703857145,0.0,0.0,47011.0,0.0,0.0,0.0,0.0,0.0,4.086913644,0.0,0.0,-46703.0,0.0,0.0,-0.0,0.0,0.0,2.5268552100000004,0.0,0.0,1.2699999809265137,0.5400000214576721,-14.850000381469727,0.0079345703125,0.02166748046875,0.99969482421875,33.689998626708984,0.0,-1.0,-0.1222381591796875,0.051727294921875,Waiting,0.0,0.0,0.0,0.0,0.0,0.0,0.0,0.0,
4.0290420000000156,0.0,0.0,false,4619353.4853073405,,59020.0,0.0,0.0,0.0,0.0,0.125,1.7626951320000002,0.0,0.0,-56397.0,0.0,0.0,-0.0,0.0,0.0,2.66113254,0.0,0.0,47011.0,0.0,0.0,0.0,0.0,0.0,4.0881343470000004,0.0,0.0,-46703.0,0.0,0.0,-0.0,0.0,0.0,2.5268552100000004,0.0,0.0,1.2599999904632568,0.5400000214576721,-14.859999656677246,0.0198974609375,0.02484130859375,0.9951171875,33.689998626708984,0.0,9.0,-0.1222381591796875,0.051727294921875,Waiting,0.0,0.0,0.0,0.0,0.0,0.0,0.0,0.0,
4.131108999999938,0.0,0.0,false,4619303.957128471,,59020.0,0.0,0.0,0.0,0.0,0.125,1.7626951320000002,0.0,0.0,-56397.0,0.0,0.0,-0.0,0.0,0.0,2.6403805890000003,0.0,0.0,47011.0,0.0,0.0,0.0,0.0,0.0,4.086913644,0.0,0.0,-46703.0,0.0,0.0,-0.0,0.0,0.0,2.5268552100000004,0.0,0.0,1.2799999713897705,0.5400000214576721,-14.850000381469727,0.014892578125,0.02679443359375,1.003173828125,33.709999084472656,0.0,4.0,-0.1222381591796875,0.051727294921875,Waiting,0.0,0.0,0.0,0.0,0.0,0.0,0.0,0.0,
4.234626999999978,0.0,0.0,false,4619250.210825391,,59020.0,0.0,0.0,0.0,0.0,0.125,1.7626951320000002,0.0,0.0,-56397.0,0.0,0.0,-0.0,0.0,0.0,2.6428219950000003,0.0,0.0,47011.0,0.0,0.0,0.0,0.0,0.0,4.086913644,0.0,0.0,-46703.0,0.0,0.0,-0.0,0.0,0.0,2.525634507,0.0,0.0,1.2899999618530273,0.5400000214576721,-14.850000381469727,0.00994873046875,0.025146484375,1.0079345703125,33.709999084472656,0.0,0.0,-0.1222381591796875,0.051727294921875,Waiting,0.0,0.0,0.0,0.0,0.0,0.0,0.0,0.0,
4.333780999999959,0.0,0.0,false,4619260.359634611,,59020.0,0.0,0.0,0.0,0.0,0.125,1.7639158350000002,0.0,0.0,-56397.0,0.0,0.0,-0.0,0.0,0.0,2.667236055,0.0,0.0,47011.0,0.0,0.0,0.0,0.0,0.0,4.086913644,0.0,0.0,-46703.0,0.0,0.0,-0.0,0.0,0.0,2.525634507,0.0,0.0,1.2799999713897705,0.5400000214576721,-14.850000381469727,0.00921630859375,0.01898193359375,1.0093994140625,33.709999084472656,0.0,0.0,-0.1222381591796875,0.051727294921875,Waiting,0.0,0.0,0.0,0.0,0.0,0.0,0.0,0.0,
4.431320999999996,0.0,0.0,false,4619264.798647823,,59020.0,0.0,0.0,0.0,0.0,0.125,1.7626951320000002,0.0,0.0,-56397.0,0.0,0.0,-0.0,0.0,0.0,2.6843258970000003,0.0,0.0,47011.0,0.0,0.0,0.0,0.0,0.0,4.0881343470000004,0.0,0.0,-46703.0,0.0,0.0,-0.0,0.0,0.0,2.525634507,0.0,0.0,1.2699999809265137,0.5400000214576721,-14.859999656677246,0.0115966796875,0.02288818359375,0.99676513671875,33.709999084472656,0.0,2.0,-0.1222381591796875,0.051727294921875,Waiting,0.0,0.0,0.0,0.0,0.0,0.0,0.0,0.0,
4.5312889999999895,0.0,0.0,false,4619264.922324511,,59020.0,0.0,0.0,0.0,0.0,0.125,1.7626951320000002,0.0,0.0,-56397.0,0.0,0.0,-0.0,0.0,0.0,2.6843258970000003,0.0,0.0,47011.0,0.0,0.0,0.0,0.0,0.0,4.0881343470000004,0.0,0.0,-46703.0,0.0,0.0,-0.0,0.0,0.0,2.525634507,0.0,0.0,1.2899999618530273,0.5299999713897705,-14.859999656677246,0.0081787109375,0.02398681640625,0.9954833984375,33.709999084472656,0.0,-1.0,-0.1222381591796875,0.051727294921875,Waiting,0.0,0.0,0.0,0.0,0.0,0.0,0.0,0.0,
4.627329000000027,0.0,0.0,false,4619259.33762451,,59020.0,0.0,0.0,0.0,0.0,0.125,1.7626951320000002,0.0,0.0,-56397.0,0.0,0.0,-0.0,0.0,0.0,2.6855466000000003,0.0,0.0,47011.0,0.0,0.0,0.0,0.0,0.0,4.0881343470000004,0.0,0.0,-46703.0,0.0,0.0,-0.0,0.0,0.0,2.5268552100000004,0.0,0.0,1.2799999713897705,0.5400000214576721,-14.859999656677246,0.00604248046875,0.0208740234375,1.00592041015625,33.709999084472656,0.0,-2.0,-0.1222381591796875,0.051727294921875,Waiting,0.0,0.0,0.0,0.0,0.0,0.0,0.0,0.0,
4.727606000000029,0.0,0.0,false,4619248.044875944,,59020.0,0.0,0.0,0.0,0.0,0.125,1.7626951320000002,0.0,0.0,-56397.0,0.0,0.0,-0.0,0.0,0.0,2.6879880060000003,0.0,0.0,47011.0,0.0,0.0,0.0,0.0,0.0,4.0856929410000005,0.0,0.0,-46703.0,0.0,0.0,-0.0,0.0,0.0,2.525634507,0.0,0.0,1.2699999809265137,0.5299999713897705,-14.859999656677246,0.007568359375,0.02349853515625,1.00018310546875,33.709999084472656,0.0,-1.0,-0.1222381591796875,0.051727294921875,Waiting,0.0,0.0,0.0,0.0,0.0,0.0,0.0,0.0,
4.827802000000025,0.0,0.0,false,4619232.438387688,,59020.0,0.0,0.0,0.0,0.0,0.125,1.7626951320000002,0.0,0.0,-56397.0,0.0,0.0,-0.0,0.0,0.0,2.6855466000000003,0.0,0.0,47011.0,0.0,0.0,0.0,0.0,0.0,4.086913644,0.0,0.0,-46703.0,0.0,0.0,-0.0,0.0,0.0,2.525634507,0.0,0.0,1.2699999809265137,0.5400000214576721,-14.859999656677246,0.0091552734375,0.02099609375,1.0009765625,33.709999084472656,0.0,0.0,-0.1222381591796875,0.051727294921875,Waiting,0.0,0.0,0.0,0.0,0.0,0.0,0.0,0.0,
4.927815999999992,0.0,0.0,false,4619211.1295843525,,59020.0,0.0,0.0,0.0,0.0,0.125,1.7626951320000002,0.0,0.0,-56397.0,0.0,0.0,-0.0,0.0,0.0,2.6855466000000003,0.0,0.0,47011.0,0.0,0.0,0.0,0.0,0.0,4.086913644,0.0,0.0,-46703.0,0.0,0.0,-0.0,0.0,0.0,2.5268552100000004,0.0,0.0,1.2699999809265137,0.5400000214576721,-14.859999656677246,0.01165771484375,0.02069091796875,0.99609375,33.709999084472656,0.0,2.0,-0.1222381591796875,0.051727294921875,Waiting,0.0,0.0,0.0,0.0,0.0,0.0,0.0,0.0,
5.021577000000049,0.0,0.0,false,4619184.119081005,,59020.0,0.0,0.0,0.0,0.0,0.125,1.7626951320000002,0.0,0.0,-56397.0,0.0,0.0,-0.0,0.0,0.0,2.6855466000000003,0.0,0.0,47011.0,0.0,0.0,0.0,0.0,0.0,4.0881343470000004,0.0,0.0,-46703.0,0.0,0.0,-0.0,0.0,0.0,2.525634507,0.0,0.0,1.2799999713897705,0.5400000214576721,-14.859999656677246,0.0091552734375,0.0208740234375,1.00054931640625,33.709999084472656,0.0,0.0,-0.1222381591796875,0.051727294921875,Waiting,0.0,0.0,0.0,0.0,0.0,0.0,0.0,0.0,
5.126265000000014,0.0,0.0,false,4619152.7228014665,,59020.0,0.0,0.0,0.0,0.0,0.125,1.7626951320000002,0.0,0.0,-56397.0,0.0,0.0,-0.0,0.0,0.0,2.6855466000000003,0.0,0.0,47011.0,0.0,0.0,0.0,0.0,0.0,4.0881343470000004,0.0,0.0,-46703.0,0.0,0.0,-0.0,0.0,0.0,2.525634507,0.0,0.0,1.2699999809265137,0.5400000214576721,-14.859999656677246,0.00909423828125,0.02056884765625,1.000732421875,33.709999084472656,0.0,0.0,-0.1222381591796875,0.051727294921875,Waiting,0.0,0.0,0.0,0.0,0.0,0.0,0.0,0.0,
5.22425,0.0,0.0,false,4619115.625957217,,59020.0,0.0,0.0,0.0,0.0,0.125,1.7639158350000002,0.0,0.0,-56397.0,0.0,0.0,-0.0,0.0,0.0,2.6953122240000003,0.0,0.0,47011.0,0.0,0.0,0.0,0.0,0.0,4.0881343470000004,0.0,0.0,-46703.0,0.0,0.0,-0.0,0.0,0.0,2.5268552100000004,0.0,0.0,1.2699999809265137,0.5299999713897705,-14.869999885559082,0.0108642578125,0.028076171875,1.0042724609375,33.709999084472656,0.0,0.0,-0.1222381591796875,0.051727294921875,Waiting,0.0,0.0,0.0,0.0,0.0,0.0,0.0,0.0,
5.331045999999973,0.0,0.0,false,4619074.218004026,,59020.0,0.0,0.0,0.0,0.0,0.125,1.7626951320000002,0.0,0.0,-56397.0,0.0,0.0,-0.0,0.0,0.0,2.713622769,0.0,0.0,47011.0,0.0,0.0,0.0,0.0,0.0,4.086913644,0.0,0.0,-46703.0,0.0,0.0,-0.0,0.0,0.0,2.5268552100000004,0.0,0.0,1.2699999809265137,0.5299999713897705,-14.869999885559082,0.01043701171875,0.02239990234375,0.9957275390625,33.709999084472656,0.0,1.0,-0.1222381591796875,0.051727294921875,Waiting,0.0,0.0,0.0,0.0,0.0,0.0,0.0,0.0,
5.431540999999968,0.0,0.0,false,4619025.721824784,,59020.0,0.0,0.0,0.0,0.0,0.125,1.7639158350000002,0.0,0.0,-56397.0,0.0,0.0,-0.0,0.0,0.0,2.818603227,0.0,0.0,47011.0,0.0,0.0,0.0,0.0,0.0,4.0881343470000004,0.0,0.0,-46703.0,0.0,0.0,-0.0,0.0,0.0,2.525634507,0.0,0.0,1.2699999809265137,0.5199999809265137,-14.880000114440918,-5.4931640625E-4,0.0233154296875,0.99462890625,33.709999084472656,0.0,-9.0,-0.1222381591796875,0.051727294921875,Waiting,0.0,0.0,0.0,0.0,0.0,0.0,0.0,0.0,
5.530444999999949,0.0,0.0,false,4618972.8420447195,,59020.0,0.0,0.0,0.0,0.0,0.125,1.7626951320000002,0.0,0.0,-56397.0,0.0,0.0,-0.0,0.0,0.0,2.8002926820000003,0.0,0.0,47011.0,0.0,0.0,0.0,0.0,0.0,4.0881343470000004,0.0,0.0,-46703.0,0.0,0.0,-0.0,0.0,0.0,2.525634507,0.0,0.0,1.2699999809265137,0.5199999809265137,-14.880000114440918,0.013671875,0.019775390625,0.99627685546875,33.709999084472656,0.0,4.0,-0.1222381591796875,0.051727294921875,Waiting,0.0,0.0,0.0,0.0,0.0,0.0,0.0,0.0,
5.6342719999999975,0.0,0.0,false,4618984.543800999,,59020.0,0.0,0.0,0.0,0.0,0.125,1.7626951320000002,0.0,0.0,-56397.0,0.0,0.0,-0.0,0.0,0.0,2.752685265,0.0,0.0,47011.0,0.0,0.0,0.0,0.0,0.0,4.086913644,0.0,0.0,-46703.0,0.0,0.0,-0.0,0.0,0.0,2.520751695,0.0,0.0,1.2599999904632568,0.5299999713897705,-14.869999885559082,0.0042724609375,0.02679443359375,1.00439453125,33.709999084472656,0.0,-6.0,-0.1222381591796875,0.051727294921875,Waiting,0.0,0.0,0.0,0.0,0.0,0.0,0.0,0.0,
5.735256999999983,0.0,0.0,false,4618991.869158879,,59020.0,0.0,0.0,0.0,0.0,0.125,1.7626951320000002,0.0,0.0,-56397.0,0.0,0.0,-0.0,0.0,0.0,2.728271205,0.0,0.0,47011.0,0.0,0.0,0.0,0.0,0.0,4.0881343470000004,0.0,0.0,-46703.0,0.0,0.0,-0.0,0.0,0.0,2.5268552100000004,0.0,0.0,1.2799999713897705,0.5299999713897705,-14.869999885559082,0.015869140625,0.0233154296875,1.00115966796875,33.689998626708984,0.0,6.0,-0.1222381591796875,0.051727294921875,Waiting,0.0,0.0,0.0,0.0,0.0,0.0,0.0,0.0,
5.831660999999964,0.0,0.0,false,4618993.41533374,,59020.0,0.0,0.0,0.0,0.0,0.125,1.7639158350000002,0.0,0.0,-56397.0,0.0,0.0,-0.0,0.0,0.0,2.595214578,0.0,0.0,47011.0,0.0,0.0,0.0,0.0,0.0,4.0881343470000004,0.0,0.0,-46703.0,0.0,0.0,-0.0,0.0,0.0,2.5268552100000004,0.0,0.0,1.2699999809265137,0.5299999713897705,-14.869999885559082,0.0150146484375,0.0216064453125,1.01239013671875,33.689998626708984,0.0,5.0,-0.1222381591796875,0.051727294921875,Waiting,0.0,0.0,0.0,0.0,0.0,0.0,0.0,0.0,
5.9313369999999415,0.0,0.0,false,4618990.586442384,,59020.0,0.0,0.0,0.0,0.0,0.125,1.7639158350000002,0.0,0.0,-56397.0,0.0,0.0,-0.0,0.0,0.0,2.6318356680000004,0.0,0.0,47011.0,0.0,0.0,0.0,0.0,0.0,4.086913644,0.0,0.0,-46703.0,0.0,0.0,-0.0,0.0,0.0,2.525634507,0.0,0.0,1.2799999713897705,0.5400000214576721,-14.869999885559082,0.0125732421875,0.03021240234375,0.97821044921875,33.689998626708984,0.0,1.0,-0.1222381591796875,0.051727294921875,Waiting,0.0,0.0,0.0,0.0,0.0,0.0,0.0,0.0,
6.031976000000024,0.0,0.0,false,4618981.974912842,,59020.0,0.0,0.0,0.0,0.0,0.125,1.7639158350000002,0.0,0.0,-56397.0,0.0,0.0,-0.0,0.0,0.0,2.705077848,0.0,0.0,47011.0,0.0,0.0,0.0,0.0,0.0,4.086913644,0.0,0.0,-46703.0,0.0,0.0,-0.0,0.0,0.0,2.5268552100000004,0.0,0.0,1.2699999809265137,0.5199999809265137,-14.859999656677246,0.01165771484375,0.01312255859375,0.98541259765625,33.689998626708984,0.0,4.0,-0.1222381591796875,0.051727294921875,Waiting,0.0,0.0,0.0,0.0,0.0,0.0,0.0,0.0,
6.129875,0.0,0.0,false,4618967.585968948,,59020.0,0.0,0.0,0.0,0.0,0.125,1.7626951320000002,0.0,0.0,-56397.0,0.0,0.0,-0.0,0.0,0.0,2.73437472,0.0,0.0,47011.0,0.0,0.0,0.0,0.0,0.0,4.0881343470000004,0.0,0.0,-46703.0,0.0,0.0,-0.0,0.0,0.0,2.5268552100000004,0.0,0.0,1.2699999809265137,0.5199999809265137,-14.869999885559082,0.00946044921875,0.0240478515625,0.98675537109375,33.689998626708984,0.0,0.0,-0.1222381591796875,0.051727294921875,Waiting,0.0,0.0,0.0,0.0,0.0,0.0,0.0,0.0,
6.228390000000014,0.0,0.0,false,4618948.827888589,,59020.0,0.0,0.0,0.0,0.0,0.125,1.7626951320000002,0.0,0.0,-56397.0,0.0,0.0,-0.0,0.0,0.0,2.733154017,0.0,0.0,47011.0,0.0,0.0,0.0,0.0,0.0,4.086913644,0.0,0.0,-46703.0,0.0,0.0,-0.0,0.0,0.0,2.5268552100000004,0.0,0.0,1.2799999713897705,0.5199999809265137,-14.859999656677246,0.00689697265625,0.02239990234375,1.00262451171875,33.68000030517578,0.0,-2.0,-0.1222381591796875,0.051727294921875,Waiting,0.0,0.0,0.0,0.0,0.0,0.0,0.0,0.0,
6.325724000000045,0.0,0.0,false,4618924.293538418,,59020.0,0.0,0.0,0.0,0.0,0.125,1.7626951320000002,0.0,0.0,-56397.0,0.0,0.0,-0.0,0.0,0.0,2.733154017,0.0,0.0,47011.0,0.0,0.0,0.0,0.0,0.0,4.0881343470000004,0.0,0.0,-46703.0,0.0,0.0,-0.0,0.0,0.0,2.525634507,0.0,0.0,1.2699999809265137,0.5199999809265137,-14.869999885559082,0.01171875,0.0234375,1.01025390625,33.68000030517578,0.0,2.0,-0.1222381591796875,0.051727294921875,Waiting,0.0,0.0,0.0,0.0,0.0,0.0,0.0,0.0,
6.425728000000003,0.0,0.0,false,4618895.317497395,,59020.0,0.0,0.0,0.0,0.0,0.125,1.7626951320000002,0.0,0.0,-56397.0,0.0,0.0,-0.0,0.0,0.0,2.733154017,0.0,0.0,47011.0,0.0,0.0,0.0,0.0,0.0,4.086913644,0.0,0.0,-46703.0,0.0,0.0,-0.0,0.0,0.0,2.525634507,0.0,0.0,1.2699999809265137,0.5299999713897705,-14.850000381469727,0.0064697265625,0.0233154296875,1.002197265625,33.68000030517578,0.0,-3.0,-0.1222381591796875,0.051727294921875,Waiting,0.0,0.0,0.0,0.0,0.0,0.0,0.0,0.0,
6.523233999999938,0.0,0.0,false,4618860.566336065,,59020.0,0.0,0.0,0.0,0.0,0.125,1.7626951320000002,0.0,0.0,-56397.0,0.0,0.0,-0.0,0.0,0.0,2.73437472,0.0,0.0,47011.0,0.0,0.0,0.0,0.0,0.0,4.086913644,0.0,0.0,-46703.0,0.0,0.0,-0.0,0.0,0.0,2.5268552100000004,0.0,0.0,1.2599999904632568,0.5199999809265137,-14.859999656677246,0.01123046875,0.0201416015625,0.98919677734375,33.68000030517578,0.0,2.0,-0.1222381591796875,0.051727294921875,Waiting,0.0,0.0,0.0,0.0,0.0,0.0,0.0,0.0,
6.6182199999999725,0.0,0.0,false,4618820.040676991,,59020.0,0.0,0.0,0.0,0.0,0.125,1.7626951320000002,0.0,0.0,-56397.0,0.0,0.0,-0.0,0.0,0.0,2.733154017,0.0,0.0,47011.0,0.0,0.0,0.0,0.0,0.0,4.086913644,0.0,0.0,-46703.0,0.0,0.0,-0.0,0.0,0.0,2.525634507,0.0,0.0,1.2699999809265137,0.5299999713897705,-14.859999656677246,0.009521484375,0.02459716796875,0.9947509765625,33.68000030517578,0.0,0.0,-0.1222381591796875,0.051727294921875,Waiting,0.0,0.0,0.0,0.0,0.0,0.0,0.0,0.0,
6.714947000000044,0.0,0.0,false,4618775.148544736,,59020.0,0.0,0.0,0.0,0.0,0.125,1.7626951320000002,0.0,0.0,-56397.0,0.0,0.0,-0.0,0.0,0.0,2.733154017,0.0,0.0,47011.0,0.0,0.0,0.0,0.0,0.0,4.086913644,0.0,0.0,-46703.0,0.0,0.0,-0.0,0.0,0.0,2.525634507,0.0,0.0,1.2699999809265137,0.5199999809265137,-14.859999656677246,0.00958251953125,0.02154541015625,0.99578857421875,33.65999984741211,0.0,0.0,-0.1222381591796875,0.051727294921875,Waiting,0.0,0.0,0.0,0.0,0.0,0.0,0.0,0.0,
6.8133449999999725,0.0,0.0,false,4618724.48305846,,59020.0,0.0,0.0,0.0,0.0,0.125,1.7626951320000002,0.0,0.0,-56397.0,0.0,0.0,-0.0,0.0,0.0,2.733154017,0.0,0.0,47011.0,0.0,0.0,0.0,0.0,0.0,4.086913644,0.0,0.0,-46703.0,0.0,0.0,-0.0,0.0,0.0,2.525634507,0.0,0.0,1.2699999809265137,0.5299999713897705,-14.869999885559082,0.0076904296875,0.02435302734375,1.00640869140625,33.65999984741211,0.0,-2.0,-0.1222381591796875,0.051727294921875,Waiting,0.0,0.0,0.0,0.0,0.0,0.0,0.0,0.0,
6.91905700000003,0.0,0.0,false,4618739.081632653,,59020.0,0.0,0.0,0.0,0.0,0.125,1.7626951320000002,0.0,0.0,-56397.0,0.0,0.0,-0.0,0.0,0.0,2.73437472,0.0,0.0,47011.0,0.0,0.0,0.0,0.0,0.0,4.08935505,0.0,0.0,-46703.0,0.0,0.0,-0.0,0.0,0.0,2.5268552100000004,0.0,0.0,1.2799999713897705,0.5299999713897705,-14.869999885559082,0.0069580078125,0.02252197265625,1.000732421875,33.65999984741211,0.0,-2.0,-0.1222381591796875,0.051727294921875,Waiting,0.0,0.0,0.0,0.0,0.0,0.0,0.0,0.0,
7.014542999999947,0.0,0.0,false,4618747.858441418,,59020.0,0.0,0.0,0.0,0.0,0.125,1.7639158350000002,0.0,0.0,-56397.0,0.0,0.0,-0.0,0.0,0.0,2.733154017,0.0,0.0,47011.0,0.0,0.0,0.0,0.0,0.0,4.086913644,0.0,0.0,-46703.0,0.0,0.0,-0.0,0.0,0.0,2.525634507,0.0,0.0,1.2699999809265137,0.5299999713897705,-14.869999885559082,0.0067138671875,0.02227783203125,1.00164794921875,33.65999984741211,0.0,-2.0,-0.1222381591796875,0.051727294921875,Waiting,0.0,0.0,0.0,0.0,0.0,0.0,0.0,0.0,
7.116342999999993,0.0,0.0,false,4618752.231084285,,59020.0,0.0,0.0,0.0,0.0,0.125,1.7626951320000002,0.0,0.0,-56397.0,0.0,0.0,-0.0,0.0,0.0,2.733154017,0.0,0.0,47011.0,0.0,0.0,0.0,0.0,0.0,4.086913644,0.0,0.0,-46703.0,0.0,0.0,-0.0,0.0,0.0,2.5268552100000004,0.0,0.0,1.2699999809265137,0.5400000214576721,-14.859999656677246,0.01361083984375,0.024658203125,0.99853515625,33.65999984741211,0.0,3.0,-0.1222381591796875,0.051910400390625,Waiting,0.0,0.0,0.0,0.0,0.0,0.0,0.0,0.0,
7.212506999999984,0.0,0.0,false,4618750.787425903,,59020.0,0.0,0.0,0.0,0.0,0.125,1.7639158350000002,0.0,0.0,-56397.0,0.0,0.0,-0.0,0.0,0.0,2.733154017,0.0,0.0,47011.0,0.0,0.0,0.0,0.0,0.0,4.086913644,0.0,-0.0012207029999995456,-46703.0,0.0,0.0,-0.0,0.0,0.0,2.5268552100000004,0.0,0.0,1.2699999809265137,0.5199999809265137,-14.850000381469727,0.01080322265625,0.026123046875,1.0048828125,33.70000076293945,0.0,0.0,-0.1222381591796875,0.051910400390625,Waiting,0.0,0.0,0.0,0.0,0.0,0.0,0.0,0.0,
7.314866999999969,0.0,0.0,false,4618744.940939791,,59020.0,0.0,0.0,0.0,0.0,0.125,1.7626951320000002,0.0,0.0,-56397.0,0.0,0.0,-0.0,0.0,0.0,2.73437472,0.0,0.0,47011.0,0.0,0.0,0.0,0.0,0.0,4.0881343470000004,0.0,0.0012207029999995456,-46703.0,0.0,0.0,-0.0,0.0,0.0,2.525634507,0.0,0.0,1.2699999809265137,0.5,-14.859999656677246,0.0018310546875,0.0267333984375,1.0167236328125,33.70000076293945,0.0,-7.0,-0.1222381591796875,0.051910400390625,Waiting,0.0,0.0,0.0,0.0,0.0,0.0,0.0,0.0,
7.411591000000015,0.0,0.0,false,4618733.20113518,,59020.0,0.0,0.0,0.0,0.0,0.125,1.7639158350000002,0.0,0.0,-56397.0,0.0,0.0,-0.0,0.0,0.0,2.73437472,0.0,0.0,47011.0,0.0,0.0,0.0,0.0,0.0,4.0881343470000004,0.0,0.0,-46703.0,0.0,0.0,-0.0,0.0,0.0,2.525634507,0.0,0.0,1.2599999904632568,0.5299999713897705,-14.859999656677246,0.02191162109375,0.0218505859375,0.9908447265625,33.70000076293945,0.0,12.0,-0.1222381591796875,0.051910400390625,Waiting,0.0,0.0,0.0,0.0,0.0,0.0,0.0,0.0,
7.514555999999982,0.0,0.0,false,4618717.137438035,,59020.0,0.0,0.0,0.0,0.0,0.125,1.7639158350000002,0.0,0.0,-56397.0,0.0,0.0,-0.0,0.0,0.0,2.733154017,0.0,0.0,47011.0,0.0,0.0,0.0,0.0,0.0,4.0881343470000004,0.0,0.0,-46703.0,0.0,0.0,-0.0,0.0,0.0,2.525634507,0.0,0.0012207030000004337,1.2699999809265137,0.5099999904632568,-14.850000381469727,1.220703125E-4,0.025146484375,0.99652099609375,33.70000076293945,0.0,-7.0,-0.1222381591796875,0.051910400390625,Waiting,0.0,0.0,0.0,0.0,0.0,0.0,0.0,0.0,
7.6126559999999595,0.0,0.0,false,4618695.186177664,,59020.0,0.0,0.0,0.0,0.0,0.125,1.7639158350000002,0.0,0.0,-56397.0,0.0,0.0,-0.0,0.0,0.0,2.73437472,0.0,0.0,47011.0,0.0,0.0,0.0,0.0,0.0,4.0856929410000005,0.0,0.0,-46703.0,0.0,0.0,-0.0,0.0,0.0,2.5268552100000004,0.0,-0.0012207030000004337,1.2699999809265137,0.5199999809265137,-14.859999656677246,0.01885986328125,0.021240234375,0.9913330078125,33.70000076293945,0.0,9.0,-0.1222381591796875,0.051910400390625,Waiting,0.0,0.0,0.0,0.0,0.0,0.0,0.0,0.0,
7.713498999999953,0.0,0.0,false,4618667.421551724,,59020.0,0.0,0.0,0.0,0.0,0.125,1.7626951320000002,0.0,0.0,-56397.0,0.0,0.0,-0.0,0.0,0.0,2.73437472,0.0,0.0,47011.0,0.0,0.0,0.0,0.0,0.0,4.086913644,0.0,0.0,-46703.0,0.0,0.0,-0.0,0.0,0.0,2.5305173190000003,0.0,0.0,1.2599999904632568,0.5299999713897705,-14.880000114440918,0.02886962890625,0.0235595703125,0.9991455078125,33.720001220703125,0.0,18.0,-0.1224212646484375,0.0518951416015625,Waiting,0.0,0.0,0.0,0.0,0.0,0.0,0.0,0.0,
7.812236999999965,0.0,0.0,false,4618633.844186631,,59020.0,0.0,0.0,0.0,0.0,0.125,1.7639158350000002,0.0,0.0,-56397.0,0.0,0.0,-0.0,0.0,0.0,2.73437472,0.0,0.0,47011.0,0.0,0.0,0.0,0.0,0.0,4.086913644,0.0,0.0,-46703.0,0.0,0.0,-0.0,0.0,0.0,2.5317380220000003,0.0,0.0,1.2599999904632568,0.550000011920929,-14.829999923706055,0.00701904296875,0.0347900390625,1.004638671875,33.720001220703125,0.0,-5.0,-0.1224212646484375,0.0518646240234375,Waiting,0.0,0.0,0.0,0.0,0.0,0.0,0.0,0.0,
7.911925999999978,0.0,0.0,false,4618595.871560951,,59020.0,0.0,0.0,0.0,0.0,0.125,1.7626951320000002,0.0,0.0,-56397.0,0.0,0.0,-0.0,0.0,0.0,2.73437472,0.0,0.0,47011.0,0.0,0.0,0.0,0.0,0.0,4.086913644,0.0,0.0,-46703.0,0.0,0.0,-0.0,0.0,0.0,2.525634507,0.0,0.0,1.2799999713897705,0.49000000953674316,-14.829999923706055,0.0078125,0.02398681640625,1.00238037109375,33.720001220703125,0.0,-1.0,-0.1225738525390625,0.0518646240234375,Waiting,0.0,0.0,0.0,0.0,0.0,0.0,0.0,0.0,
8.006587999999988,0.0,0.0,false,4618552.08734691,,59020.0,0.0,0.0,0.0,0.0,0.125,1.7626951320000002,0.0,0.0,-56397.0,0.0,0.0,-0.0,0.0,0.0,2.73437472,0.0,0.0,47011.0,0.0,0.0,0.0,0.0,0.0,4.086913644,0.0,0.0,-46703.0,0.0,0.0,-0.0,0.0,0.0,2.525634507,0.0,0.0,1.2899999618530273,0.5400000214576721,-14.859999656677246,0.0147705078125,0.02606201171875,1.00341796875,33.720001220703125,0.0,4.0,-0.1225738525390625,0.0518646240234375,Waiting,0.0,0.0,0.0,0.0,0.0,0.0,0.0,0.0,
8.101209000000031,0.0,0.0,false,4618503.835368481,,59020.0,0.0,0.0,0.0,0.0,0.125,1.7639158350000002,0.0,0.0,-56397.0,0.0,0.0,-0.0,0.0,0.0,2.733154017,0.0,0.0,47011.0,0.0,0.0,0.0,0.0,0.0,4.086913644,0.0,0.0,-46703.0,0.0,0.0,-0.0,0.0,0.0,2.525634507,0.0,0.0,1.2799999713897705,0.5299999713897705,-14.869999885559082,0.00897216796875,0.0174560546875,1.00274658203125,33.720001220703125,0.0,0.0,-0.1225738525390625,0.0518646240234375,Waiting,0.0,0.0,0.0,0.0,0.0,0.0,0.0,0.0,
8.19834600000002,0.0,0.0,false,4618449.772957443,,59020.0,0.0,0.0,0.0,0.0,0.125,1.7626951320000002,0.0,0.0,-56397.0,0.0,0.0,-0.0,0.0,0.0,2.733154017,0.0,0.0,47011.0,0.0,0.0,0.0,0.0,0.0,4.086913644,0.0,0.0,-46703.0,0.0,0.0,-0.0,0.0,0.0,2.525634507,0.0,0.0,1.2599999904632568,0.5299999713897705,-14.869999885559082,0.01202392578125,0.02081298828125,0.99603271484375,33.720001220703125,0.0,2.0,-0.1225738525390625,0.0518646240234375,Waiting,0.0,0.0,0.0,0.0,0.0,0.0,0.0,0.0,
8.302623000000022,0.0,0.0,false,4618461.421245421,,59020.0,0.0,0.0,0.0,0.0,0.125,1.7626951320000002,0.0,0.0,-56397.0,0.0,0.0,-0.0,0.0,0.0,2.73437472,0.0,0.0,47011.0,0.0,0.0,0.0,0.0,0.0,4.086913644,0.0,0.0,-46703.0,0.0,0.0,-0.0,0.0,0.0,2.525634507,0.0,0.0,1.2599999904632568,0.5400000214576721,-14.850000381469727,0.013916015625,0.024169921875,1.0032958984375,33.709999084472656,0.0,3.0,-0.1225738525390625,0.0518646240234375,Waiting,0.0,0.0,0.0,0.0,0.0,0.0,0.0,0.0,
8.402074999999954,0.0,0.0,false,4618467.21154882,,59020.0,0.0,0.0,0.0,0.0,0.125,1.7639158350000002,0.0,0.0,-56397.0,0.0,0.0,-0.0,0.0,0.0,2.733154017,0.0,0.0,47011.0,0.0,0.0,0.0,0.0,0.0,4.086913644,0.0,0.0,-46703.0,0.0,0.0,-0.0,0.0,0.0,2.525634507,0.0,0.0,1.2699999809265137,0.5299999713897705,-14.850000381469727,0.00213623046875,0.0269775390625,0.9967041015625,33.709999084472656,0.0,-8.0,-0.1225738525390625,0.0518646240234375,Waiting,0.0,0.0,0.0,0.0,0.0,0.0,0.0,0.0,
8.49281700000004,0.0,0.0,false,4618468.575409365,,59020.0,0.0,0.0,0.0,0.0,0.125,1.7626951320000002,0.0,0.0,-56397.0,0.0,0.0,-0.0,0.0,0.0,2.73437472,0.0,0.0,47011.0,0.0,0.0,0.0,0.0,0.0,4.086913644,0.0,0.0,-46703.0,0.0,0.0,-0.0,0.0,0.0,2.525634507,0.0,0.0,1.2699999809265137,0.5099999904632568,-14.880000114440918,0.00970458984375,0.0123291015625,0.9888916015625,33.709999084472656,0.0,3.0,-0.1225738525390625,0.0518646240234375,Waiting,0.0,0.0,0.0,0.0,0.0,0.0,0.0,0.0,
8.59501800000004,0.0,0.0,false,4618464.082731876,,59020.0,0.0,0.0,0.0,0.0,0.125,1.7639158350000002,0.0,0.0,-56397.0,0.0,0.0,-0.0,0.0,0.0,2.733154017,0.0,0.0,47011.0,0.0,0.0,0.0,0.0,0.0,4.0881343470000004,0.0,0.0,-46703.0,0.0,0.0,-0.0,0.0,0.0,2.525634507,0.0,0.0,1.2400000095367432,0.5400000214576721,-14.859999656677246,0.0091552734375,0.01837158203125,0.99237060546875,33.709999084472656,0.0,0.0,-0.1225738525390625,0.0518646240234375,Waiting,0.0,0.0,0.0,0.0,0.0,0.0,0.0,0.0,
8.700474000000046,0.0,0.0,false,4618453.733859964,,59020.0,0.0,0.0,0.0,0.0,0.125,1.7626951320000002,0.0,0.0,-56397.0,0.0,0.0,-0.0,0.0,0.0,2.733154017,0.0,0.0,47011.0,0.0,0.0,0.0,0.0,0.0,4.086913644,0.0,0.0,-46703.0,0.0,0.0,-0.0,0.0,0.0,2.525634507,0.0,0.0,1.2699999809265137,0.5299999713897705,-14.850000381469727,0.008544921875,0.0382080078125,0.9996337890625,33.709999084472656,0.0,-4.0,-0.1225738525390625,0.0518646240234375,Waiting,0.0,0.0,0.0,0.0,0.0,0.0,0.0,0.0,
8.798079000000026,0.0,0.0,false,4618438.960180963,,59020.0,0.0,0.0,0.0,0.0,0.125,1.7639158350000002,0.0,0.0,-56397.0,0.0,0.0,-0.0,0.0,0.0,2.73437472,0.0,0.0,47011.0,0.0,0.0,0.0,0.0,0.0,4.0881343470000004,0.0,0.0,-46703.0,0.0,0.0,-0.0,0.0,0.0,2.525634507,0.0,0.0,1.2799999713897705,0.5400000214576721,-14.859999656677246,0.01226806640625,0.01837158203125,0.99755859375,33.720001220703125,0.0,3.0,-0.1225738525390625,0.0518646240234375,Waiting,0.0,0.0,0.0,0.0,0.0,0.0,0.0,0.0,
8.892353999999933,0.0,0.0,false,4618418.262530519,,59020.0,0.0,0.0,0.0,0.0,0.125,1.7639158350000002,0.0,0.0,-56397.0,0.0,0.0,-0.0,0.0,0.0,2.733154017,0.0,0.0,47011.0,0.0,0.0,0.0,0.0,0.0,4.086913644,0.0,0.0,-46703.0,0.0,0.0,-0.0,0.0,0.0,2.5268552100000004,0.0,0.0,1.2400000095367432,0.5400000214576721,-14.850000381469727,0.0076904296875,0.0250244140625,0.99554443359375,33.720001220703125,0.0,-2.0,-0.1225738525390625,0.0518646240234375,Waiting,0.0,0.0,0.0,0.0,0.0,0.0,0.0,0.0,
8.991907000000007,0.0,0.0,false,4618393.141133809,,59020.0,0.0,0.0,0.0,0.0,0.125,1.7639158350000002,0.0,0.0,-56397.0,0.0,0.0,-0.0,0.0,0.0,2.73437472,0.0,0.0,47011.0,0.0,0.0,0.0,0.0,0.0,4.0881343470000004,0.0,0.0,-46703.0,0.0,0.0,-0.0,0.0,0.0,2.525634507,0.0,0.0,1.2699999809265137,0.5400000214576721,-14.850000381469727,0.00970458984375,0.0281982421875,0.999755859375,33.720001220703125,0.0,-1.0,-0.1225738525390625,0.0518646240234375,Waiting,0.0,0.0,0.0,0.0,0.0,0.0,0.0,0.0,
9.091505999999935,0.0,0.0,false,4618362.170460257,,59020.0,0.0,0.0,0.0,0.0,0.125,1.7626951320000002,0.0,0.0,-56397.0,0.0,0.0,-0.0,0.0,0.0,2.733154017,0.0,0.0,47011.0,0.0,0.0,0.0,0.0,0.0,4.086913644,0.0,0.0,-46703.0,0.0,0.0,-0.0,0.0,0.0,2.525634507,0.0,0.0,1.2599999904632568,0.5400000214576721,-14.850000381469727,0.0113525390625,0.0142822265625,1.0006103515625,33.720001220703125,0.0,3.0,-0.1225738525390625,0.0518646240234375,Waiting,0.0,0.0,0.0,0.0,0.0,0.0,0.0,0.0,
9.189488999999943,0.0,0.0,false,4618326.777095674,,59020.0,0.0,0.0,0.0,0.0,0.125,1.7639158350000002,0.0,0.0,-56397.0,0.0,0.0,-0.0,0.0,0.0,2.73437472,0.0,0.0,47011.0,0.0,0.0,0.0,0.0,0.0,4.086913644,0.0,0.0,-46703.0,0.0,0.0,-0.0,0.0,0.0,2.5268552100000004,0.0,0.0,1.25,0.5299999713897705,-14.850000381469727,0.00811767578125,0.02655029296875,1.00115966796875,33.720001220703125,0.0,-2.0,-0.1225738525390625,0.0518646240234375,Waiting,0.0,0.0,0.0,0.0,0.0,0.0,0.0,0.0,
9.28742299999995,0.0,0.0,false,4618285.535611717,,59020.0,0.0,0.0,0.0,0.0,0.125,1.7639158350000002,0.0,0.0,-56397.0,0.0,0.0,-0.0,0.0,0.0,2.73437472,0.0,0.0,47011.0,0.0,0.0,0.0,0.0,0.0,4.086913644,0.0,0.0,-46703.0,0.0,0.0,-0.0,0.0,0.0,2.5268552100000004,0.0,0.0,1.2599999904632568,0.5299999713897705,-14.850000381469727,0.0086669921875,0.02020263671875,0.99932861328125,33.709999084472656,0.0,0.0,-0.1225738525390625,0.0518646240234375,Waiting,0.0,0.0,0.0,0.0,0.0,0.0,0.0,0.0,
9.392474000000046,0.0,0.0,false,4618239.798973328,,59020.0,0.0,0.0,0.0,0.0,0.125,1.7626951320000002,0.0,0.0,-56397.0,0.0,0.0,-0.0,0.0,0.0,2.733154017,0.0,0.0,47011.0,0.0,0.0,0.0,0.0,0.0,4.086913644,0.0,0.0,-46703.0,0.0,0.0,-0.0,0.0,0.0,2.525634507,0.0,0.0,1.2599999904632568,0.5299999713897705,-14.850000381469727,0.009521484375,0.022216796875,1.0003662109375,33.709999084472656,0.0,0.0,-0.1225738525390625,0.0518646240234375,Waiting,0.0,0.0,0.0,0.0,0.0,0.0,0.0,0.0,
9.496300000000046,0.0,0.0,false,4618188.215377988,,59020.0,0.0,0.0,0.0,0.0,0.0,1.7602537260000002,0.0,0.0,-56397.0,0.0,0.0,-0.0,0.0,0.0,2.73437472,0.0,0.0,47011.0,0.0,0.0,0.0,0.0,0.0,4.0881343470000004,0.0,0.0,-46703.0,0.0,0.0,-0.0,0.0,0.0,2.525634507,0.0,0.0,1.2599999904632568,0.5299999713897705,-14.850000381469727,0.01007080078125,0.02313232421875,1.0008544921875,33.709999084472656,0.0,0.0,-0.1225738525390625,0.0518646240234375,Waiting,0.0,0.0,0.0,0.0,0.0,0.0,0.0,0.0,
