Time,ClimberA1,ClimberA2,CameraExists,HeapSpace,LoopTime,FRpos,FRCurrent,FRspeed,FRsetpoint,FRApos,FRACurrent,FREncpos,FREncSetpoint,FREncSpeed,FLpos,FLCurrent,FLspeed,FLsetpoint,FLApos,FLACurrent,FLEncpos,FLEncSetpoint,FLEncSpeed,BRpos,BRCurrent,BRspeed,BRsetpoint,BRApos,BRACurrent,BREncpos,BREncSetpoint,BREncSpeed,BLpos,BLCurrent,BLspeed,BLsetpoint,BLApos,BLACurrent,BLEncpos,BLEncSetpoint,BLEncSpeed,navx_Pitch,navx_Roll,navx_Yaw,navx_XAcc,navx_YAcc,navx_ZAcc,navx_Temp,navx_Bar,navx_Alt,navx_XDis,navx_YDis,GearPlacerState,ShootOutputV,ShootOutputCurrent,ShootEncPos,ShootEncVelocity,ShootSpeed,ShootSetpoint,CarouselSetpoint,CarouselCurrent,
0.13991099999996368,0.0,0.0,false,2655153.6426104973,,0.0,0.0,0.0,0.0,0.0,0.125,4.938964338,0.0,0.0,-8.0,0.0,0.0,-0.0,0.0,0.0,2.507323962,0.0,0.0,0.0,0.0,0.0,0.0,0.0,0.0,4.938964338,0.0,0.0,3.0,0.0,0.0,-0.0,0.0,0.0,0.01220703,0.0,0.0,1.3799999952316284,0.38999998569488525,78.16999816894531,0.0042724609375,0.0238037109375,0.99920654296875,34.47999954223633,0.0,0.0,0.0394287109375,-0.034393310546875,Waiting,0.0,0.0,0.0,0.0,0.0,0.0,0.0,0.0,
0.1791459999999497,0.0,0.0,false,2655262.938236437,,0.0,0.0,0.0,0.0,0.0,0.125,4.942626447,0.0,0.0,-8.0,0.0,0.0,-0.0,0.0,0.0,2.492675526,0.0,0.10000000000000009,0.0,0.0,0.0,0.0,0.0,0.0,4.941405744,0.0,0.0012207029999995456,3.0,0.0,0.0,-0.0,0.0,0.0,0.01220703,0.0,-0.001220703,1.3799999952316284,0.38999998569488525,78.16999816894531,0.00958251953125,0.02398681640625,0.99945068359375,34.5099983215332,0.0,0.0,0.0394287109375,-0.034393310546875,Waiting,0.0,0.0,0.0,0.0,0.0,0.0,0.0,0.0,
0.2281720000000205,0.0,0.0,false,2655368.84419508,,0.0,0.0,0.0,0.0,0.0,0.125,4.938964338,0.0,0.0,-8.0,0.0,0.0,-0.0,0.0,0.0,2.452392327,0.0,-0.020751950999999824,0.0,0.0,0.0,0.0,0.0,0.0,4.942626447,0.0,-0.0012207029999995456,3.0,0.0,0.0,-0.0,0.0,0.0,0.01220703,0.0,0.0,1.3799999952316284,0.3799999952316284,78.16999816894531,0.00567626953125,0.0247802734375,0.99981689453125,34.5099983215332,0.0,0.0,0.0394287109375,-0.034393310546875,Waiting,0.0,0.0,0.0,0.0,0.0,0.0,0.0,0.0,
0.27742399999999906,0.0,0.0,false,2655471.355401148,,0.0,0.0,0.0,0.0,0.0,0.125,4.940185041,0.0,0.0,-8.0,0.0,0.0,-0.0,0.0,0.0,2.4340817820000002,0.0,-0.036621090000000134,0.0,0.0,0.0,0.0,0.0,0.0,4.940185041,0.0,0.0012207029999995456,3.0,0.0,0.0,-0.0,0.0,0.0,0.01220703,0.0,0.001220703,1.3799999952316284,0.3799999952316284,78.16999816894531,0.01129150390625,0.016845703125,0.999755859375,34.5099983215332,0.0,-6.0,0.0394287109375,-0.034393310546875,Waiting,0.0,0.0,0.0,0.0,0.0,0.0,0.0,0.0,
0.3246239999999525,0.0,0.0,false,2655570.4778180565,,0.0,0.0,0.0,0.0,0.0,0.125,4.941405744,0.0,0.0,-8.0,0.0,0.0,-0.0,0.0,0.0,2.4243161580000003,0.0,-0.021972653999999814,0.0,0.0,0.0,0.0,0.0,0.0,4.940185041,0.0,0.0,3.0,0.0,0.0,-0.0,0.0,0.0,0.01220703,0.0,-0.001220703,1.3799999952316284,0.3799999952316284,78.16999816894531,0.0030517578125,0.02337646484375,0.99993896484375,34.5099983215332,0.0,-1.0,0.0394287109375,-0.034393310546875,Waiting,0.0,0.0,0.0,0.0,0.0,0.0,0.0,0.0,
0.3691089999999385,0.0,0.0,false,2655666.211884521,,0.0,0.0,0.0,0.0,0.0,0.125,4.94384715,0.0,0.0,-8.0,0.0,0.0,-0.0,0.0,0.0,2.4243161580000003,0.0,-0.004882811999999959,0.0,0.0,0.0,0.0,0.0,0.0,4.938964338,0.0,0.0,3.0,0.0,0.0,-0.0,0.0,0.0,0.01220703,0.0,0.001220703,1.3799999952316284,0.38999998569488525,78.16999816894531,0.00823974609375,0.02508544921875,0.99957275390625,34.5099983215332,0.0,1.0,0.0394287109375,-0.034393310546875,Waiting,0.0,0.0,0.0,0.0,0.0,0.0,0.0,0.0,
0.4153869999999879,0.0,0.0,false,2655758.558039182,,0.0,0.0,0.0,0.0,0.0,0.125,4.940185041,0.0,0.0,-8.0,0.0,0.0,-0.0,0.0,0.0,2.421874752,0.0,0.0,0.0,0.0,0.0,0.0,0.0,0.0,4.941405744,0.0,0.0,3.0,0.0,0.0,-0.0,0.0,0.0,0.01220703,0.0,-0.001220703,1.3799999952316284,0.38999998569488525,78.16999816894531,0.007568359375,0.02374267578125,1.00164794921875,34.5099983215332,0.0,0.0,0.0394287109375,-0.034393310546875,Waiting,0.0,0.0,0.0,0.0,0.0,0.0,0.0,0.0,
0.4616350000000093,0.0,0.0,false,2655847.5115426104,,0.0,0.0,0.0,0.0,0.0,0.125,4.941405744,0.0,0.0,-8.0,0.0,0.0,-0.0,0.0,0.0,2.4243161580000003,0.0,0.0,0.0,0.0,0.0,0.0,0.0,0.0,4.942626447,0.0,0.0,3.0,0.0,0.0,-0.0,0.0,0.0,0.010986327,0.0,0.001220703,1.3799999952316284,0.38999998569488525,78.16999816894531,0.007568359375,0.0255126953125,0.9996337890625,34.5099983215332,0.0,1.0,0.0394287109375,-0.034393310546875,Waiting,0.0,0.0,0.0,0.0,0.0,0.0,0.0,0.0,
0.5113989999999757,0.0,0.0,false,2655933.0780117363,,0.0,0.0,0.0,0.0,0.0,0.125,4.940185041,0.0,0.0,-8.0,0.0,0.0,-0.0,0.0,0.0,2.4243161580000003,0.0,0.0,0.0,0.0,0.0,0.0,0.0,0.0,4.941405744,0.0,0.0,3.0,0.0,0.0,-0.0,0.0,0.0,0.010986327,0.0,-0.001220703,1.3799999952316284,0.38999998569488525,78.16999816894531,0.008056640625,0.0223388671875,0.99554443359375,34.5099983215332,0.0,-1.0,0.0394287109375,-0.034393310546875,Waiting,0.0,0.0,0.0,0.0,0.0,0.0,0.0,0.0,
0.5553129999999655,0.0,0.0,false,2656015.2523622555,,0.0,0.0,0.0,0.0,0.0,0.125,4.940185041,0.0,0.0,-8.0,0.0,0.0,-0.0,0.0,0.0,2.4230954550000003,0.0,0.0,0.0,0.0,0.0,0.0,0.0,0.0,4.941405744,0.0,0.0,3.0,0.0,0.0,-0.0,0.0,0.0,0.010986327,0.0,0.001220703,1.3799999952316284,0.38999998569488525,78.16999816894531,0.00677490234375,0.02410888671875,0.999755859375,34.5099983215332,0.0,0.0,0.0394287109375,-0.034393310546875,Waiting,0.0,0.0,0.0,0.0,0.0,0.0,0.0,0.0,
0.6024699999999721,0.0,0.0,false,2656094.0405556993,,0.0,0.0,0.0,0.0,0.0,0.125,4.942626447,0.0,0.0,-8.0,0.0,0.0,-0.0,0.0,0.0,2.4230954550000003,0.0,0.0,0.0,0.0,0.0,0.0,0.0,0.0,4.940185041,0.0,0.0,3.0,0.0,0.0,-0.0,0.0,0.0,0.01220703,0.0,0.0,1.3799999952316284,0.38999998569488525,78.16999816894531,0.008544921875,0.02484130859375,1.000244140625,34.5099983215332,0.0,1.0,0.0394287109375,-0.034393310546875,Waiting,0.0,0.0,0.0,0.0,0.0,0.0,0.0,0.0,
0.6502060000000056,0.0,0.0,false,2656169.443030329,,0.0,0.0,0.0,0.0,0.0,0.125,4.941405744,0.0,0.0,-8.0,0.0,0.0,-0.0,0.0,0.0,2.4230954550000003,0.0,0.0,0.0,0.0,0.0,0.0,0.0,0.0,4.941405744,0.0,0.0,3.0,0.0,0.0,-0.0,0.0,0.0,0.01220703,0.0,0.0,1.3799999952316284,0.38999998569488525,78.16999816894531,0.00567626953125,0.0250244140625,0.998779296875,34.5099983215332,0.0,0.0,0.0394287109375,-0.034393310546875,Waiting,0.0,0.0,0.0,0.0,0.0,0.0,0.0,0.0,
0.6938199999999488,0.0,0.0,false,2656241.4602243314,,0.0,0.0,0.0,0.0,0.0,0.125,4.941405744,0.0,0.0,-8.0,0.0,0.0,-0.0,0.0,0.0,2.4243161580000003,0.0,0.0,0.0,0.0,0.0,0.0,0.0,0.0,4.941405744,0.0,0.0,3.0,0.0,0.0,-0.0,0.0,0.0,0.01220703,0.0,-0.001220703,1.3799999952316284,0.3799999952316284,78.16999816894531,0.0068359375,0.0225830078125,0.99603271484375,34.5,0.0,-1.0,0.0394287109375,-0.034393310546875,Waiting,0.0,0.0,0.0,0.0,0.0,0.0,0.0,0.0,
0.7438229999999748,0.0,0.0,false,2656310.0925758164,,0.0,0.0,0.0,0.0,0.0,0.125,4.942626447,0.0,0.0,-8.0,0.0,0.0,-0.0,0.0,0.0,2.4243161580000003,0.0,0.0,0.0,0.0,0.0,0.0,0.0,0.0,4.94384715,0.0,0.0,3.0,0.0,0.0,-0.0,0.0,0.0,0.01220703,0.0,0.001220703,1.3799999952316284,0.3799999952316284,78.16999816894531,0.00579833984375,0.025390625,0.9998779296875,34.5,0.0,0.0,0.0394287109375,-0.034393310546875,Waiting,0.0,0.0,0.0,0.0,0.0,0.0,0.0,0.0,
0.7896419999999925,0.0,0.0,false,2656375.340522819,,0.0,0.0,0.0,0.0,0.0,0.125,4.941405744,0.0,0.0,-8.0,0.0,0.0,-0.0,0.0,0.0,2.4243161580000003,0.0,0.0,0.0,0.0,0.0,0.0,0.0,0.0,4.941405744,0.0,0.0,3.0,0.0,0.0,-0.0,0.0,0.0,0.01220703,0.0,0.0,1.3799999952316284,0.3799999952316284,78.16999816894531,0.00946044921875,0.0234375,1.00048828125,34.5,0.0,0.0,0.0394287109375,-0.034393310546875,Waiting,0.0,0.0,0.0,0.0,0.0,0.0,0.0,0.0,
0.8355089999999619,0.0,0.0,false,2656437.2045032997,,0.0,0.0,0.0,0.0,0.0,0.125,4.940185041,0.0,0.0,-8.0,0.0,0.0,-0.0,0.0,0.0,2.4243161580000003,0.0,0.0,0.0,0.0,0.0,0.0,0.0,0.0,4.941405744,0.0,0.0,3.0,0.0,0.0,-0.0,0.0,0.0,0.01220703,0.0,0.0,1.3799999952316284,0.3799999952316284,78.16999816894531,0.0052490234375,0.02349853515625,0.99981689453125,34.5,0.0,-1.0,0.0394287109375,-0.034393310546875,Waiting,0.0,0.0,0.0,0.0,0.0,0.0,0.0,0.0,
0.8862219999999507,0.0,0.0,false,2656495.6849551415,,0.0,0.0,0.0,0.0,0.0,0.125,4.942626447,0.0,0.0,-8.0,0.0,0.0,-0.0,0.0,0.0,2.4230954550000003,0.0,0.0,0.0,0.0,0.0,0.0,0.0,0.0,4.942626447,0.0,0.0,3.0,0.0,0.0,-0.0,0.0,0.0,0.01220703,0.0,0.0,1.3799999952316284,0.38999998569488525,78.16999816894531,0.00762939453125,0.0235595703125,1.000244140625,34.5,0.0,0.0,0.0394287109375,-0.034393310546875,Waiting,0.0,0.0,0.0,0.0,0.0,0.0,0.0,0.0,
0.9353419999999459,0.0,0.0,false,2656550.7823161525,,0.0,0.0,0.0,0.0,0.0,0.125,4.940185041,0.0,0.0,-8.0,0.0,0.0,-0.0,0.0,0.0,2.4230954550000003,0.0,0.0,0.0,0.0,0.0,0.0,0.0,0.0,4.941405744,0.0,0.0,3.0,0.0,0.0,-0.0,0.0,0.0,0.01220703,0.0,0.0,1.3799999952316284,0.38999998569488525,78.16999816894531,0.005859375,0.025634765625,0.99676513671875,34.5,0.0,1.0,0.0394287109375,-0.034393310546875,Waiting,0.0,0.0,0.0,0.0,0.0,0.0,0.0,0.0,
0.9866609999999637,0.0,0.0,false,2656602.4970240663,,0.0,0.0,0.0,0.0,0.0,0.125,4.941405744,0.0,0.0,-8.0,0.0,0.0,-0.0,0.0,0.0,2.4230954550000003,0.0,0.0,0.0,0.0,0.0,0.0,0.0,0.0,4.940185041,0.0,0.0,3.0,0.0,0.0,-0.0,0.0,0.0,0.010986327,0.0,0.0,1.3799999952316284,0.3799999952316284,78.16999816894531,0.00799560546875,0.02435302734375,1.00006103515625,34.5,0.0,0.0,0.0394287109375,-0.034393310546875,Waiting,0.0,0.0,0.0,0.0,0.0,0.0,0.0,0.0,
1.0323959999999497,0.0,0.0,false,2656650.8295165394,,0.0,0.0,0.0,0.0,0.0,0.125,4.942626447,0.0,0.0,-8.0,0.0,0.0,-0.0,0.0,0.0,2.4243161580000003,0.0,0.0,0.0,0.0,0.0,0.0,0.0,0.0,4.940185041,0.0,-0.0012207029999995456,3.0,0.0,0.0,-0.0,0.0,0.0,0.01220703,0.0,0.0,1.3799999952316284,0.3799999952316284,78.16000366210938,0.00830078125,0.0255126953125,1.0003662109375,34.5,0.0,1.0,0.0394287109375,-0.034393310546875,Waiting,0.0,0.0,0.0,0.0,0.0,0.0,0.0,0.0,
1.082564999999944,0.0,0.0,false,2656695.780231154,,0.0,0.0,0.0,0.0,0.0,0.125,4.940185041,0.0,0.0,-8.0,0.0,0.0,-0.0,0.0,0.0,2.4230954550000003,0.0,0.0,0.0,0.0,0.0,0.0,0.0,0.0,4.942626447,0.0,0.0012207029999995456,3.0,0.0,0.0,-0.0,0.0,0.0,0.01220703,0.0,-0.001220703,1.3799999952316284,0.3799999952316284,78.16000366210938,0.0079345703125,0.0223388671875,1.00213623046875,34.5,0.0,-1.0,0.0394287109375,-0.034393310546875,Waiting,0.0,0.0,0.0,0.0,0.0,0.0,0.0,0.0,
1.1342770000000018,0.0,0.0,false,2656737.3496054164,,0.0,0.0,0.0,0.0,0.0,0.125,4.940185041,0.0,0.0,-8.0,0.0,0.0,-0.0,0.0,0.0,2.4243161580000003,0.0,0.0,0.0,0.0,0.0,0.0,0.0,0.0,4.941405744,0.0,0.0,3.0,0.0,0.0,-0.0,0.0,0.0,0.01220703,0.0,0.0,1.3799999952316284,0.3799999952316284,78.16000366210938,0.005615234375,0.02557373046875,1.0020751953125,34.5,0.0,1.0,0.0394287109375,-0.034393310546875,Waiting,0.0,0.0,0.0,0.0,0.0,0.0,0.0,0.0,
1.1833229999999748,0.0,0.0,false,2656773.8935748166,,0.0,0.0,0.0,0.0,0.0,0.125,4.938964338,0.0,0.0,-8.0,0.0,0.0,-0.0,0.0,0.0,2.4230954550000003,0.0,0.0,0.0,0.0,0.0,0.0,0.0,0.0,4.942626447,0.0,0.0,3.0,0.0,0.0,-0.0,0.0,0.0,0.01220703,0.0,0.001220703,1.3799999952316284,0.3799999952316284,78.16000366210938,0.0081787109375,0.02392578125,1.00042724609375,34.529998779296875,0.0,0.0,0.0394287109375,-0.034393310546875,Waiting,0.0,0.0,0.0,0.0,0.0,0.0,0.0,0.0,
1.2307589999999617,0.0,0.0,false,2656806.9689103533,,0.0,0.0,0.0,0.0,0.0,0.125,4.941405744,0.0,0.0,-8.0,0.0,0.0,-0.0,0.0,0.0,2.4230954550000003,0.0,0.0,0.0,0.0,0.0,0.0,0.0,0.0,4.942626447,0.0,0.0,3.0,0.0,0.0,-0.0,0.0,0.0,0.010986327,0.0,0.0,1.3799999952316284,0.3799999952316284,78.16000366210938,0.0086669921875,0.02081298828125,0.99945068359375,34.529998779296875,0.0,-2.0,0.0394287109375,-0.034393310546875,Waiting,0.0,0.0,0.0,0.0,0.0,0.0,0.0,0.0,
1.2771609999999636,0.0,0.0,false,2656838.3087271475,,0.0,0.0,0.0,0.0,0.0,0.125,4.940185041,0.0,0.0,-8.0,0.0,0.0,-0.0,0.0,0.0,2.4230954550000003,0.0,0.0,0.0,0.0,0.0,0.0,0.0,0.0,4.940185041,0.0,0.0,3.0,0.0,0.0,-0.0,0.0,0.0,0.01220703,0.0,-0.001220703,1.3799999952316284,0.3799999952316284,78.16000366210938,0.0067138671875,0.02569580078125,1.00048828125,34.529998779296875,0.0,1.0,0.0394287109375,-0.034393310546875,Waiting,0.0,0.0,0.0,0.0,0.0,0.0,0.0,0.0,
1.3356629999999423,0.0,0.0,false,2656947.5955676283,,0.0,0.0,0.0,0.0,0.0,0.125,4.941405744,0.0,0.0,-8.0,0.0,0.0,-0.0,0.0,0.0,2.4243161580000003,0.0,0.0,0.0,0.0,0.0,0.0,0.0,0.0,4.940185041,0.0,0.0,3.0,0.0,0.0,-0.0,0.0,0.0,0.01220703,0.0,0.0,1.3799999952316284,0.3799999952316284,78.16000366210938,0.0062255859375,0.0240478515625,1.0001220703125,34.529998779296875,0.0,0.0,0.0394287109375,-0.034393310546875,Waiting,0.0,0.0,0.0,0.0,0.0,0.0,0.0,0.0,
1.384363999999943,0.0,0.0,false,2657055.1121841855,,0.0,0.0,0.0,0.0,0.0,0.125,4.942626447,0.0,0.0,-8.0,0.0,0.0,-0.0,0.0,0.0,2.4243161580000003,0.0,0.0,0.0,0.0,0.0,0.0,0.0,0.0,4.941405744,0.0,0.0,3.0,0.0,0.0,-0.0,0.0,0.0,0.01220703,0.0,0.0,1.3799999952316284,0.3799999952316284,78.16000366210938,0.00518798828125,0.02728271484375,0.99725341796875,34.529998779296875,0.0,2.0,0.0394287109375,-0.034393310546875,Waiting,0.0,0.0,0.0,0.0,0.0,0.0,0.0,0.0,
1.431405000000028,0.0,0.0,false,2657159.196723432,,0.0,0.0,0.0,0.0,0.0,0.125,4.940185041,0.0,0.0,-8.0,0.0,0.0,-0.0,0.0,0.0,2.4243161580000003,0.0,0.0,0.0,0.0,0.0,0.0,0.0,0.0,4.940185041,0.0,0.0,3.0,0.0,0.0,-0.0,0.0,0.0,0.01220703,0.0,0.0,1.3799999952316284,0.3799999952316284,78.16000366210938,0.0084228515625,0.02276611328125,1.00140380859375,34.529998779296875,0.0,-1.0,0.0394287109375,-0.034393310546875,Waiting,0.0,0.0,0.0,0.0,0.0,0.0,0.0,0.0,
1.4780899999999675,0.0,0.0,false,2657259.8441110537,,0.0,0.0,0.0,0.0,0.0,0.125,4.941405744,0.0,0.0,-8.0,0.0,0.0,-0.0,0.0,0.0,2.4243161580000003,0.0,0.0,0.0,0.0,0.0,0.0,0.0,0.0,4.940185041,0.0,0.0,3.0,0.0,0.0,-0.0,0.0,0.0,0.01220703,0.0,0.0,1.3799999952316284,0.3799999952316284,78.16000366210938,0.00689697265625,0.02545166015625,0.99951171875,34.529998779296875,0.0,1.0,0.0394287109375,-0.034393310546875,Waiting,0.0,0.0,0.0,0.0,0.0,0.0,0.0,0.0,
1.5291990000000224,0.0,0.0,false,2657357.060309523,,0.0,0.0,0.0,0.0,0.0,0.125,4.940185041,0.0,0.0,-8.0,0.0,0.0,-0.0,0.0,0.0,2.4230954550000003,0.0,0.0,0.0,0.0,0.0,0.0,0.0,0.0,4.940185041,0.0,-0.0012207029999995456,3.0,0.0,0.0,-0.0,0.0,0.0,0.010986327,0.0,0.001220703,1.3799999952316284,0.3799999952316284,78.16000366210938,0.0079345703125,0.024658203125,0.99749755859375,34.529998779296875,0.0,0.0,0.0394287109375,-0.034393310546875,Waiting,0.0,0.0,0.0,0.0,0.0,0.0,0.0,0.0,
1.5855059999999357,0.0,0.0,false,2657450.8457625657,,0.0,0.0,0.0,0.0,0.0,0.125,4.940185041,0.0,0.0,-8.0,0.0,0.0,-0.0,0.0,0.0,2.4243161580000003,0.0,0.0,0.0,0.0,0.0,0.0,0.0,0.0,4.940185041,0.0,0.0,3.0,0.0,0.0,-0.0,0.0,0.0,0.01220703,0.0,0.0,1.3799999952316284,0.3799999952316284,78.16000366210938,0.008056640625,0.02276611328125,0.99395751953125,34.529998779296875,0.0,0.0,0.0394287109375,-0.034393310546875,Waiting,0.0,0.0,0.0,0.0,0.0,0.0,0.0,0.0,
1.6307239999999292,0.0,0.0,false,2657541.2009138325,,0.0,0.0,0.0,0.0,0.0,0.125,4.942626447,0.0,0.0,-8.0,0.0,0.0,-0.0,0.0,0.0,2.4230954550000003,0.0,0.0,0.0,0.0,0.0,0.0,0.0,0.0,4.940185041,0.0,0.0,3.0,0.0,0.0,-0.0,0.0,0.0,0.01220703,0.0,0.0,1.3799999952316284,0.3799999952316284,78.1500015258789,0.00537109375,0.02569580078125,1.00067138671875,34.529998779296875,0.0,1.0,0.0394287109375,-0.034393310546875,Waiting,0.0,0.0,0.0,0.0,0.0,0.0,0.0,0.0,
1.6761639999999898,0.0,0.0,false,2657628.121034483,,0.0,0.0,0.0,0.0,0.0,0.125,4.941405744,0.0,0.0,-8.0,0.0,0.0,-0.0,0.0,0.0,2.4243161580000003,0.0,0.0,0.0,0.0,0.0,0.0,0.0,0.0,4.940185041,0.0,0.0012207029999995456,3.0,0.0,0.0,-0.0,0.0,0.0,0.01220703,0.0,0.0,1.3799999952316284,0.3799999952316284,78.1500015258789,0.00836181640625,0.022705078125,1.00115966796875,34.54999923706055,0.0,-1.0,0.0394287109375,-0.034393310546875,Waiting,0.0,0.0,0.0,0.0,0.0,0.0,0.0,0.0,
1.729076999999932,0.0,0.0,false,2657711.611740873,,0.0,0.0,0.0,0.0,0.0,0.125,4.941405744,0.0,0.0,-8.0,0.0,0.0,-0.0,0.0,0.0,2.4243161580000003,0.0,0.0,0.0,0.0,0.0,0.0,0.0,0.0,4.942626447,0.0,-0.0012207029999995456,3.0,0.0,0.0,-0.0,0.0,0.0,0.01220703,0.0,0.0,1.3899999856948853,0.3799999952316284,78.1500015258789,0.01019287109375,0.02490234375,1.0003662109375,34.54999923706055,0.0,1.0,0.0394287109375,-0.034393310546875,Waiting,0.0,0.0,0.0,0.0,0.0,0.0,0.0,0.0,
1.7722689999999712,0.0,0.0,false,2657791.6679596584,,0.0,0.0,0.0,0.0,0.0,0.125,4.941405744,0.0,0.0,-8.0,0.0,0.0,-0.0,0.0,0.0,2.4230954550000003,0.0,0.0,0.0,0.0,0.0,0.0,0.0,0.0,4.942626447,0.0,0.0012207029999995456,3.0,0.0,0.0,-0.0,0.0,0.0,0.01220703,0.0,0.0,1.3899999856948853,0.3799999952316284,78.1500015258789,0.00555419921875,0.0245361328125,0.9993896484375,34.54999923706055,0.0,0.0,0.0394287109375,-0.034393310546875,Waiting,0.0,0.0,0.0,0.0,0.0,0.0,0.0,0.0,
1.8222330000000075,0.0,0.0,false,2657868.295651424,,0.0,0.0,0.0,0.0,0.0,0.125,4.940185041,0.0,0.0,-8.0,0.0,0.0,-0.0,0.0,0.0,2.4230954550000003,0.0,0.0,0.0,0.0,0.0,0.0,0.0,0.0,4.938964338,0.0,-0.0012207029999995456,3.0,0.0,0.0,-0.0,0.0,0.0,0.01220703,0.0,0.0,1.3899999856948853,0.3799999952316284,78.1500015258789,0.006591796875,0.02398681640625,1.00048828125,34.54999923706055,0.0,0.0,0.0394287109375,-0.034393310546875,Waiting,0.0,0.0,0.0,0.0,0.0,0.0,0.0,0.0,
1.870920999999973,0.0,0.0,false,2657941.495259438,,0.0,0.0,0.0,0.0,0.0,0.125,4.941405744,0.0,0.0,-8.0,0.0,0.0,-0.0,0.0,0.0,2.4243161580000003,0.0,0.0,0.0,0.0,0.0,0.0,0.0,0.0,4.941405744,0.0,0.0012207029999995456,3.0,0.0,0.0,-0.0,0.0,0.0,0.01220703,0.0,0.0,1.3899999856948853,0.3799999952316284,78.1500015258789,0.0054931640625,0.02197265625,0.998291015625,34.54999923706055,0.0,-2.0,0.0394287109375,-0.034393310546875,Waiting,0.0,0.0,0.0,0.0,0.0,0.0,0.0,0.0,
1.915783999999985,0.0,0.0,false,2658011.2672268907,,0.0,0.0,0.0,0.0,0.0,0.125,4.940185041,0.0,0.0,-8.0,0.0,0.0,-0.0,0.0,0.0,2.4230954550000003,0.0,0.0,0.0,0.0,0.0,0.0,0.0,0.0,4.941405744,0.0,-0.0012207029999995456,3.0,0.0,0.0,-0.0,0.0,0.0,0.01220703,0.0,0.0,1.3899999856948853,0.3799999952316284,78.1500015258789,0.00494384765625,0.02362060546875,1.00213623046875,34.54999923706055,0.0,-1.0,0.0394287109375,-0.034393310546875,Waiting,0.0,0.0,0.0,0.0,0.0,0.0,0.0,0.0,
1.9556380000000353,0.0,0.0,false,2658077.6119968975,,0.0,0.0,0.0,0.0,0.0,0.125,4.941405744,0.0,0.0,-8.0,0.0,0.0,-0.0,0.0,0.0,2.4230954550000003,0.0,0.0,0.0,0.0,0.0,0.0,0.0,0.0,4.941405744,0.0,0.0,3.0,0.0,0.0,-0.0,0.0,0.0,0.01220703,0.0,0.0,1.3899999856948853,0.3799999952316284,78.1500015258789,0.00714111328125,0.02398681640625,0.99871826171875,34.54999923706055,0.0,0.0,0.0394287109375,-0.034393310546875,Waiting,0.0,0.0,0.0,0.0,0.0,0.0,0.0,0.0,
2.008721999999951,0.0,0.0,false,2658140.5300124963,,0.0,0.0,0.0,0.0,0.0,0.125,4.941405744,0.0,0.0,-8.0,0.0,0.0,-0.0,0.0,0.0,2.4230954550000003,0.0,0.0,0.0,0.0,0.0,0.0,0.0,0.0,4.942626447,0.0,0.0,3.0,0.0,0.0,-0.0,0.0,0.0,0.010986327,0.0,-0.001220703,1.3899999856948853,0.3700000047683716,78.1500015258789,0.009765625,0.02490234375,0.99908447265625,34.54999923706055,0.0,1.0,0.0394287109375,-0.034393310546875,Waiting,0.0,0.0,0.0,0.0,0.0,0.0,0.0,0.0,
2.0551600000000327,0.0,0.0,false,2658200.0217166496,,0.0,0.0,0.0,0.0,0.0,0.125,4.940185041,0.0,0.0,-8.0,0.0,0.0,-0.0,0.0,0.0,2.4230954550000003,0.0,0.0,0.0,0.0,0.0,0.0,0.0,0.0,4.941405744,0.0,0.0,3.0,0.0,0.0,-0.0,0.0,0.0,0.01220703,0.0,0.001220703,1.3799999952316284,0.3700000047683716,78.1500015258789,0.0081787109375,0.02349853515625,0.99462890625,34.54999923706055,0.0,0.0,0.0394287109375,-0.034393310546875,Waiting,0.0,0.0,0.0,0.0,0.0,0.0,0.0,0.0,
2.1092829999999374,0.0,0.0,false,2658255.999310612,,0.0,0.0,0.0,0.0,0.0,0.125,4.941405744,0.0,0.0,-8.0,0.0,0.0,-0.0,0.0,0.0,2.4243161580000003,0.0,0.0,0.0,0.0,0.0,0.0,0.0,0.0,4.941405744,0.0,0.0,3.0,0.0,0.0,-0.0,0.0,0.0,0.01220703,0.0,0.0,1.3799999952316284,0.3700000047683716,78.1500015258789,0.009033203125,0.0245361328125,0.9957275390625,34.54999923706055,0.0,0.0,0.0394287109375,-0.034393310546875,Waiting,0.0,0.0,0.0,0.0,0.0,0.0,0.0,0.0,
2.155103999999934,0.0,0.0,false,2658308.5514864284,,0.0,0.0,0.0,0.0,0.0,0.125,4.942626447,0.0,0.0,-8.0,0.0,0.0,-0.0,0.0,0.0,2.4230954550000003,0.0,0.0,0.0,0.0,0.0,0.0,0.0,0.0,4.94384715,0.0,0.0012207029999995456,3.0,0.0,0.0,-0.0,0.0,0.0,0.01220703,0.0,-0.001220703,1.3799999952316284,0.3700000047683716,78.1500015258789,0.00799560546875,0.02532958984375,1.00115966796875,34.54999923706055,0.0,1.0,0.0394287109375,-0.034393310546875,Waiting,0.0,0.0,0.0,0.0,0.0,0.0,0.0,0.0,
2.2081940000000175,0.0,0.0,false,2658357.6786868297,,0.0,0.0,0.0,0.0,0.0,0.125,4.941405744,0.0,0.0,-8.0,0.0,0.0,-0.0,0.0,0.0,2.4230954550000003,0.0,0.0,0.0,0.0,0.0,0.0,0.0,0.0,4.941405744,0.0,0.0,3.0,0.0,0.0,-0.0,0.0,0.0,0.013427733,0.0,0.001220703,1.3799999952316284,0.3700000047683716,78.1500015258789,0.00921630859375,0.0263671875,1.00103759765625,34.529998779296875,0.0,2.0,0.0394287109375,-0.034393310546875,Waiting,0.0,0.0,0.0,0.0,0.0,0.0,0.0,0.0,
2.253380000000005,0.0,0.0,false,2658403.3813544717,,0.0,0.0,0.0,0.0,0.0,0.125,4.940185041,0.0,0.0,-8.0,0.0,0.0,-0.0,0.0,0.0,2.4230954550000003,0.0,0.0,0.0,0.0,0.0,0.0,0.0,0.0,4.942626447,0.0,0.0,3.0,0.0,0.0,-0.0,0.0,0.0,0.01220703,0.0,-0.001220703,1.3799999952316284,0.3700000047683716,78.1500015258789,0.0057373046875,0.02655029296875,1.00067138671875,34.529998779296875,0.0,2.0,0.0394287109375,-0.034393310546875,Waiting,0.0,0.0,0.0,0.0,0.0,0.0,0.0,0.0,
2.299765000000014,0.0,0.0,false,2658445.659931935,,0.0,0.0,0.0,0.0,0.0,0.125,4.942626447,0.0,0.0,-8.0,0.0,0.0,-0.0,0.0,0.0,2.4243161580000003,0.0,0.0,0.0,0.0,0.0,0.0,0.0,0.0,4.941405744,0.0,0.0,3.0,0.0,0.0,-0.0,0.0,0.0,0.010986327,0.0,0.001220703,1.3799999952316284,0.3700000047683716,78.1500015258789,0.00714111328125,0.0234375,1.001220703125,34.529998779296875,0.0,0.0,0.0394287109375,-0.034393310546875,Waiting,0.0,0.0,0.0,0.0,0.0,0.0,0.0,0.0,
2.3482219999999505,0.0,0.0,false,2658484.5148617215,,0.0,0.0,0.0,0.0,0.0,0.125,4.940185041,0.0,0.0,-8.0,0.0,0.0,-0.0,0.0,0.0,2.4230954550000003,0.0,0.0,0.0,0.0,0.0,0.0,0.0,0.0,4.942626447,0.0,-0.0012207029999995456,3.0,0.0,0.0,-0.0,0.0,0.0,0.01220703,0.0,0.0,1.3799999952316284,0.3700000047683716,78.1500015258789,0.0069580078125,0.02606201171875,0.99835205078125,34.529998779296875,0.0,1.0,0.0394287109375,-0.034393310546875,Waiting,0.0,0.0,0.0,0.0,0.0,0.0,0.0,0.0,
2.3964869999999645,0.0,0.0,false,2658519.9465862587,,0.0,0.0,0.0,0.0,0.0,0.125,4.937743635,0.0,0.0,-8.0,0.0,0.0,-0.0,0.0,0.0,2.4230954550000003,0.0,0.0,0.0,0.0,0.0,0.0,0.0,0.0,4.941405744,0.0,0.0012207029999995456,3.0,0.0,0.0,-0.0,0.0,0.0,0.01220703,0.0,-0.001220703,1.3799999952316284,0.3700000047683716,78.1500015258789,0.0050048828125,0.024658203125,1.00299072265625,34.529998779296875,0.0,0.0,0.0394287109375,-0.034393310546875,Waiting,0.0,0.0,0.0,0.0,0.0,0.0,0.0,0.0,
2.4478240000000224,0.0,0.0,false,2658551.955547898,,0.0,0.0,0.0,0.0,0.0,0.125,4.940185041,0.0,0.0,-8.0,0.0,0.0,-0.0,0.0,0.0,2.421874752,0.0,0.0,0.0,0.0,0.0,0.0,0.0,0.0,4.942626447,0.0,0.0012207029999995456,3.0,0.0,0.0,-0.0,0.0,0.0,0.01220703,0.0,0.001220703,1.3799999952316284,0.3700000047683716,78.1500015258789,0.00677490234375,0.02490234375,0.9993896484375,34.529998779296875,0.0,0.0,0.0394287109375,-0.034393310546875,Waiting,0.0,0.0,0.0,0.0,0.0,0.0,0.0,0.0,
2.492070999999996,0.0,0.0,false,2658580.542188913,,0.0,0.0,0.0,0.0,0.0,0.0,4.941405744,0.0,0.0,-8.0,0.0,0.0,-0.0,0.0,0.0,2.4243161580000003,0.0,0.0,0.0,0.0,0.0,0.0,0.0,0.0,4.941405744,0.0,0.0,3.0,0.0,0.0,-0.0,0.0,0.0,0.01220703,0.0,-0.001220703,1.3799999952316284,0.3700000047683716,78.1500015258789,0.008544921875,0.0260009765625,0.99884033203125,34.529998779296875,0.0,2.0,0.0394287109375,-0.034393310546875,Waiting,0.0,0.0,0.0,0.0,0.0,0.0,0.0,0.0,
