Time,ClimberA1,ClimberA2,CameraExists,HeapSpace,LoopTime,FRpos,FRCurrent,FRspeed,FRsetpoint,FRApos,FRACurrent,FREncpos,FREncSetpoint,FREncSpeed,FLpos,FLCurrent,FLspeed,FLsetpoint,FLApos,FLACurrent,FLEncpos,FLEncSetpoint,FLEncSpeed,BRpos,BRCurrent,BRspeed,BRsetpoint,BRApos,BRACurrent,BREncpos,BREncSetpoint,BREncSpeed,BLpos,BLCurrent,BLspeed,BLsetpoint,BLApos,BLACurrent,BLEncpos,BLEncSetpoint,BLEncSpeed,navx_Pitch,navx_Roll,navx_Yaw,navx_XAcc,navx_YAcc,navx_ZAcc,navx_Temp,navx_Bar,navx_Alt,navx_XDis,navx_YDis,GearPlacerState,ShootOutputV,ShootOutputCurrent,ShootEncPos,ShootEncVelocity,ShootSpeed,ShootSetpoint,CarouselSetpoint,CarouselCurrent,
0.229625,0.0,0.0,false,4561421.88112824,,-2707.0,0.0,0.0,0.0,0.0,0.0,0.5407714290000001,NaN,0.0,-2895.0,0.0,0.0,0.0,0.0,0.0,4.848632316000001,NaN,-0.0012207029999995456,-3212.0,0.0,0.0,0.0,0.0,0.0,2.861327832,NaN,-0.0012207029999999897,3454.0,0.0,0.0,0.0,0.0,0.0,1.271972526,NaN,0.0,1.2000000476837158,0.49000000953674316,-12.710000038146973,0.0096435546875,0.01702880859375,0.99920654296875,31.190000534057617,0.0,1.0,-0.2235565185546875,0.0517730712890625,Waiting,0.0,0.0,0.0,0.0,0.0,0.0,0.0,0.0,
0.2895659999999916,0.0,0.0,false,4561497.170219094,,-2707.0,0.0,0.0,0.0,0.0,0.0,0.5407714290000001,NaN,0.0,-2895.0,0.0,0.0,0.0,0.0,0.0,4.849853019,NaN,0.0,-3212.0,0.0,0.0,0.0,0.0,0.0,2.861327832,NaN,0.0012207029999999897,3454.0,0.0,0.0,0.0,0.0,0.0,1.271972526,NaN,0.0,1.190000057220459,0.47999998927116394,-12.710000038146973,0.00714111328125,0.02423095703125,1.000732421875,31.190000534057617,0.0,-2.0,-0.2235565185546875,0.0517730712890625,Waiting,0.0,0.0,0.0,0.0,0.0,0.0,0.0,0.0,
0.3547699999999604,0.0,0.0,false,4561568.126493185,,-2707.0,0.0,0.0,0.0,0.0,0.0,0.5407714290000001,NaN,0.0,-2895.0,0.0,0.0,0.0,0.0,0.0,4.849853019,NaN,0.0,-3212.0,0.0,0.0,0.0,0.0,0.0,2.862548535,NaN,0.0,3454.0,0.0,0.0,0.0,0.0,0.0,1.271972526,NaN,0.0,1.2000000476837158,0.47999998927116394,-12.710000038146973,0.010986328125,0.02166748046875,1.000732421875,31.190000534057617,0.0,2.0,-0.2235565185546875,0.0517730712890625,Waiting,0.0,0.0,0.0,0.0,0.0,0.0,0.0,0.0,
0.4236039999999921,0.0,0.0,false,4561634.750594766,,-2707.0,0.0,0.0,0.0,0.0,0.0,0.5407714290000001,NaN,0.0,-2895.0,0.0,0.0,0.0,0.0,0.0,4.849853019,NaN,0.0,-3212.0,0.0,0.0,0.0,0.0,0.0,2.860107129,NaN,-0.0012207029999999897,3454.0,0.0,0.0,0.0,0.0,0.0,1.2707518230000001,NaN,0.0,1.2100000381469727,0.47999998927116394,-12.710000038146973,0.01177978515625,0.0181884765625,1.00445556640625,31.190000534057617,0.0,3.0,-0.2235565185546875,0.0517730712890625,Waiting,0.0,0.0,0.0,0.0,0.0,0.0,0.0,0.0,
0.48030099999997766,0.0,0.0,false,4561697.043167964,,-2707.0,0.0,0.0,0.0,0.0,0.0,0.5432128350000001,NaN,0.0,-2895.0,0.0,0.0,0.0,0.0,0.0,4.848632316000001,NaN,0.0,-3212.0,0.0,0.0,0.0,0.0,0.0,2.861327832,NaN,0.0,3454.0,0.0,0.0,0.0,0.0,0.0,1.2707518230000001,NaN,0.0,1.2000000476837158,0.49000000953674316,-12.710000038146973,0.0089111328125,0.0208740234375,1.00115966796875,31.219999313354492,0.0,0.0,-0.2235565185546875,0.0517730712890625,Waiting,0.0,0.0,0.0,0.0,0.0,0.0,0.0,0.0,
0.5470050000000046,0.0,0.0,false,4561755.004856775,,-2707.0,0.0,0.0,0.0,0.0,0.0,0.5419921320000001,NaN,0.0,-2895.0,0.0,0.0,0.0,0.0,0.0,4.849853019,NaN,0.0,-3212.0,0.0,0.0,0.0,0.0,0.0,2.861327832,NaN,0.0,3454.0,0.0,0.0,0.0,0.0,0.0,1.271972526,NaN,0.0,1.2000000476837158,0.49000000953674316,-12.710000038146973,0.008056640625,0.0205078125,1.00311279296875,31.219999313354492,0.0,0.0,-0.2235565185546875,0.0517730712890625,Waiting,0.0,0.0,0.0,0.0,0.0,0.0,0.0,0.0,
0.6150579999999609,0.0,0.0,false,4561807.907626741,,-2707.0,0.0,0.0,0.0,0.0,0.0,0.5407714290000001,NaN,0.0,-2895.0,0.0,0.0,0.0,0.0,0.0,4.848632316000001,NaN,0.0,-3212.0,0.0,0.0,0.0,0.0,0.0,2.861327832,NaN,0.0012207029999999897,3454.0,0.0,0.0,0.0,0.0,0.0,1.271972526,NaN,0.0,1.2000000476837158,0.47999998927116394,-12.710000038146973,0.0135498046875,0.01947021484375,1.00567626953125,31.219999313354492,0.0,5.0,-0.2235565185546875,0.0517730712890625,Waiting,0.0,0.0,0.0,0.0,0.0,0.0,0.0,0.0,
0.6879049999999697,0.0,0.0,false,4561856.4808721505,,-2707.0,0.0,0.0,0.0,0.0,0.0,0.5419921320000001,NaN,0.0,-2895.0,0.0,0.0,0.0,0.0,0.0,4.848632316000001,NaN,0.0,-3212.0,0.0,0.0,0.0,0.0,0.0,2.861327832,NaN,0.0,3454.0,0.0,0.0,0.0,0.0,0.0,1.271972526,NaN,0.0,1.2000000476837158,0.47999998927116394,-12.710000038146973,0.00860595703125,0.01715087890625,0.9937744140625,31.219999313354492,0.0,0.0,-0.2235565185546875,0.0517730712890625,Waiting,0.0,0.0,0.0,0.0,0.0,0.0,0.0,0.0,
0.7517909999999683,0.0,0.0,false,4561900.725236609,,-2707.0,0.0,0.0,0.0,0.0,0.0,0.5419921320000001,NaN,0.0,-2895.0,0.0,0.0,0.0,0.0,0.0,4.848632316000001,NaN,0.0,-3212.0,0.0,0.0,0.0,0.0,0.0,2.861327832,NaN,0.0,3454.0,0.0,0.0,0.0,0.0,0.0,1.2707518230000001,NaN,0.0,1.190000057220459,0.47999998927116394,-12.710000038146973,0.011474609375,0.02154541015625,1.00146484375,31.219999313354492,0.0,2.0,-0.2235565185546875,0.0517730712890625,Waiting,0.0,0.0,0.0,0.0,0.0,0.0,0.0,0.0,
0.8272660000000033,0.0,0.0,false,4561940.641363591,,-2707.0,0.0,0.0,0.0,0.0,0.0,0.5419921320000001,NaN,0.0,-2895.0,0.0,0.0,0.0,0.0,0.0,4.848632316000001,NaN,0.0,-3212.0,0.0,0.0,0.0,0.0,0.0,2.861327832,NaN,0.0,3454.0,0.0,0.0,0.0,0.0,0.0,1.271972526,NaN,0.0,1.2000000476837158,0.49000000953674316,-12.720000267028809,0.0113525390625,0.02032470703125,1.00006103515625,31.219999313354492,0.0,2.0,-0.2235565185546875,0.0517730712890625,Waiting,0.0,0.0,0.0,0.0,0.0,0.0,0.0,0.0,
0.8910399999999791,0.0,0.0,false,4561975.501362532,,-2707.0,0.0,0.0,0.0,0.0,0.0,0.5407714290000001,NaN,0.0,-2895.0,0.0,0.0,0.0,0.0,0.0,4.849853019,NaN,0.0012207029999995456,-3212.0,0.0,0.0,0.0,0.0,0.0,2.862548535,NaN,0.0,3454.0,0.0,0.0,0.0,0.0,0.0,1.271972526,NaN,0.0,1.190000057220459,0.49000000953674316,-12.710000038146973,0.00909423828125,0.0223388671875,1.0003662109375,31.219999313354492,0.0,0.0,-0.2235565185546875,0.0517730712890625,Waiting,0.0,0.0,0.0,0.0,0.0,0.0,0.0,0.0,
0.9616819999999716,0.0,0.0,false,4562006.0344827585,,-2707.0,0.0,0.0,0.0,0.0,0.0,0.5419921320000001,NaN,0.0,-2895.0,0.0,0.0,0.0,0.0,0.0,4.849853019,NaN,0.0,-3212.0,0.0,0.0,0.0,0.0,0.0,2.861327832,NaN,0.0,3454.0,0.0,0.0,0.0,0.0,0.0,1.2707518230000001,NaN,0.0,1.2000000476837158,0.49000000953674316,-12.720000267028809,0.00762939453125,0.02264404296875,1.00103759765625,31.209999084472656,0.0,-1.0,-0.2235565185546875,0.0517730712890625,Waiting,0.0,0.0,0.0,0.0,0.0,0.0,0.0,0.0,
1.0326489999999757,0.0,0.0,false,4562032.241367352,,-2707.0,0.0,0.0,0.0,0.0,0.0,0.5419921320000001,NaN,0.0,-2895.0,0.0,0.0,0.0,0.0,0.0,4.849853019,NaN,0.0,-3212.0,0.0,0.0,0.0,0.0,0.0,2.861327832,NaN,0.0012207029999999897,3454.0,0.0,0.0,0.0,0.0,0.0,1.271972526,NaN,0.0,1.2000000476837158,0.49000000953674316,-12.720000267028809,0.01318359375,0.02093505859375,1.00079345703125,31.209999084472656,0.0,4.0,-0.2235565185546875,0.0517730712890625,Waiting,0.0,0.0,0.0,0.0,0.0,0.0,0.0,0.0,
1.0950339999999852,0.0,0.0,false,4562054.122659269,,-2707.0,0.0,0.0,0.0,0.0,0.0,0.5419921320000001,NaN,0.0,-2895.0,0.0,0.0,0.0,0.0,0.0,4.849853019,NaN,0.0,-3212.0,0.0,0.0,0.0,0.0,0.0,2.861327832,NaN,-0.0012207029999999897,3454.0,0.0,0.0,0.0,0.0,0.0,1.2707518230000001,NaN,0.0,1.2000000476837158,0.49000000953674316,-12.720000267028809,0.011474609375,0.02105712890625,1.0032958984375,31.209999084472656,0.0,2.0,-0.2235565185546875,0.0517730712890625,Waiting,0.0,0.0,0.0,0.0,0.0,0.0,0.0,0.0,
1.1656169999999693,0.0,0.0,false,4562071.679001338,,-2707.0,0.0,0.0,0.0,0.0,0.0,0.5419921320000001,NaN,0.0,-2895.0,0.0,0.0,0.0,0.0,0.0,4.848632316000001,NaN,0.0,-3212.0,0.0,0.0,0.0,0.0,0.0,2.861327832,NaN,0.0,3454.0,0.0,0.0,0.0,0.0,0.0,1.271972526,NaN,0.0,1.2000000476837158,0.47999998927116394,-12.710000038146973,0.008056640625,0.02032470703125,1.00054931640625,31.209999084472656,0.0,0.0,-0.2235565185546875,0.0517730712890625,Waiting,0.0,0.0,0.0,0.0,0.0,0.0,0.0,0.0,
1.231597000000009,0.0,0.0,false,4562084.9110362595,,-2707.0,0.0,0.0,0.0,0.0,0.0,0.5419921320000001,NaN,0.0,-2895.0,0.0,0.0,0.0,0.0,0.0,4.851073722000001,NaN,0.0,-3212.0,0.0,0.0,0.0,0.0,0.0,2.861327832,NaN,0.0012207029999999897,3454.0,0.0,0.0,0.0,0.0,0.0,1.271972526,NaN,0.0,1.2000000476837158,0.49000000953674316,-12.720000267028809,0.01214599609375,0.021484375,1.00537109375,31.209999084472656,0.0,3.0,-0.2235565185546875,0.0517730712890625,Waiting,0.0,0.0,0.0,0.0,0.0,0.0,0.0,0.0,
1.2937000000000116,0.0,0.0,false,4562092.009708257,,-2707.0,0.0,0.0,0.0,0.0,0.0,0.5407714290000001,NaN,0.0,-2895.0,0.0,0.0,0.0,0.0,0.0,4.849853019,NaN,0.0,-3212.0,0.0,0.0,0.0,0.0,0.0,2.862548535,NaN,-0.0012207029999999897,3454.0,0.0,0.0,0.0,0.0,0.0,1.271972526,NaN,0.0,1.2000000476837158,0.49000000953674316,-12.720000267028809,0.0074462890625,0.0203857421875,0.999755859375,31.209999084472656,0.0,0.0,-0.2235565185546875,0.0517730712890625,Waiting,0.0,0.0,0.0,0.0,0.0,0.0,0.0,0.0,
1.3530219999999973,0.0,0.0,false,4562094.785537395,,-2707.0,0.0,0.0,0.0,0.0,0.0,0.5419921320000001,NaN,0.0,-2895.0,0.0,0.0,0.0,0.0,0.0,4.849853019,NaN,0.0,-3212.0,0.0,0.0,0.0,0.0,0.0,2.862548535,NaN,0.0012207029999999897,3454.0,0.0,0.0,0.0,0.0,0.0,1.271972526,NaN,0.0,1.2000000476837158,0.49000000953674316,-12.720000267028809,0.0045166015625,0.01971435546875,1.0064697265625,31.209999084472656,0.0,-3.0,-0.2235565185546875,0.0517730712890625,Waiting,0.0,0.0,0.0,0.0,0.0,0.0,0.0,0.0,
1.426667000000016,0.0,0.0,false,4562093.2391659655,,-2707.0,0.0,0.0,0.0,0.0,0.0,0.5419921320000001,NaN,0.0,-2895.0,0.0,0.0,0.0,0.0,0.0,4.849853019,NaN,0.0,-3212.0,0.0,0.0,0.0,0.0,0.0,2.861327832,NaN,-0.0012207029999999897,3454.0,0.0,0.0,0.0,0.0,0.0,1.271972526,NaN,0.0,1.2000000476837158,0.47999998927116394,-12.720000267028809,0.0093994140625,0.0244140625,0.9974365234375,31.209999084472656,0.0,0.0,-0.2235565185546875,0.0517730712890625,Waiting,0.0,0.0,0.0,0.0,0.0,0.0,0.0,0.0,
1.4901069999999599,0.0,0.0,false,4562087.371236133,,-2707.0,0.0,0.0,0.0,0.0,0.0,0.5419921320000001,NaN,0.0,-2895.0,0.0,0.0,0.0,0.0,0.0,4.848632316000001,NaN,0.0,-3212.0,0.0,0.0,0.0,0.0,0.0,2.861327832,NaN,0.0012207029999999897,3454.0,0.0,0.0,0.0,0.0,0.0,1.271972526,NaN,0.0,1.2000000476837158,0.5,-12.720000267028809,0.01171875,0.02093505859375,1.00177001953125,31.219999313354492,0.0,2.0,-0.2235565185546875,0.0517730712890625,Waiting,0.0,0.0,0.0,0.0,0.0,0.0,0.0,0.0,
1.5496329999999725,0.0,0.0,false,4562077.182389937,,-2707.0,0.0,0.0,0.0,0.0,0.0,0.5419921320000001,NaN,0.0,-2895.0,0.0,0.0,0.0,0.0,0.0,4.848632316000001,NaN,0.0012207029999995456,-3212.0,0.0,0.0,0.0,0.0,0.0,2.860107129,NaN,0.0,3454.0,0.0,0.0,0.0,0.0,0.0,1.271972526,NaN,0.0,1.190000057220459,0.49000000953674316,-12.720000267028809,0.00665283203125,0.01959228515625,1.0072021484375,31.219999313354492,0.0,-1.0,-0.2235565185546875,0.0517730712890625,Waiting,0.0,0.0,0.0,0.0,0.0,0.0,0.0,0.0,
1.615094999999972,0.0,0.0,false,4562061.945132217,,-2707.0,0.0,0.0,0.0,0.0,0.0,0.5419921320000001,NaN,0.0,-2895.0,0.0,0.0,0.0,0.0,0.0,4.849853019,NaN,0.0,-3212.0,0.0,0.0,0.0,0.0,0.0,2.862548535,NaN,-0.0012207029999999897,3454.0,0.0,0.0,0.0,0.0,0.0,1.271972526,NaN,0.0,1.190000057220459,0.47999998927116394,-12.710000038146973,0.00897216796875,0.02008056640625,0.99761962890625,31.219999313354492,0.0,0.0,-0.2235565185546875,0.0517730712890625,Waiting,0.0,0.0,0.0,0.0,0.0,0.0,0.0,0.0,
1.6751369999999879,0.0,0.0,false,4562042.388313939,,-2707.0,0.0,0.0,0.0,0.0,0.0,0.5419921320000001,NaN,0.0,-2895.0,0.0,0.0,0.0,0.0,0.0,4.851073722000001,NaN,0.0,-3212.0,0.0,0.0,0.0,0.0,0.0,2.861327832,NaN,0.0,3454.0,0.0,0.0,0.0,0.0,0.0,1.271972526,NaN,0.0,1.190000057220459,0.47999998927116394,-12.710000038146973,0.01031494140625,0.0205078125,1.00445556640625,31.219999313354492,0.0,1.0,-0.2235565185546875,0.0517730712890625,Waiting,0.0,0.0,0.0,0.0,0.0,0.0,0.0,0.0,
1.7420210000000078,0.0,0.0,false,4562017.432362844,,-2707.0,0.0,0.0,0.0,0.0,0.0,0.5419921320000001,NaN,0.0,-2895.0,0.0,0.0,0.0,0.0,0.0,4.849853019,NaN,0.0,-3212.0,0.0,0.0,0.0,0.0,0.0,2.861327832,NaN,0.0,3454.0,0.0,0.0,0.0,0.0,0.0,1.271972526,NaN,0.0,1.2000000476837158,0.49000000953674316,-12.710000038146973,0.00714111328125,0.01983642578125,1.00518798828125,31.219999313354492,0.0,-1.0,-0.2235565185546875,0.0517730712890625,Waiting,0.0,0.0,0.0,0.0,0.0,0.0,0.0,0.0,
1.8161780000000145,0.0,0.0,false,4562096.021389315,,-2707.0,0.0,0.0,0.0,0.0,0.0,0.5407714290000001,NaN,0.0,-2895.0,0.0,0.0,0.0,0.0,0.0,4.848632316000001,NaN,0.0,-3212.0,0.0,0.0,0.0,0.0,0.0,2.861327832,NaN,0.0,3454.0,0.0,0.0,0.0,0.0,0.0,1.271972526,NaN,0.0,1.190000057220459,0.49000000953674316,-12.710000038146973,0.00592041015625,0.02069091796875,0.99755859375,31.219999313354492,0.0,-2.0,-0.2235565185546875,0.0517730712890625,Waiting,0.0,0.0,0.0,0.0,0.0,0.0,0.0,0.0,
1.8877369999999647,0.0,0.0,false,4562169.799386078,,-2707.0,0.0,0.0,0.0,0.0,0.0,0.5407714290000001,NaN,0.0,-2895.0,0.0,0.0,0.0,0.0,0.0,4.849853019,NaN,0.0,-3212.0,0.0,0.0,0.0,0.0,0.0,2.861327832,NaN,0.0012207029999999897,3454.0,0.0,0.0,0.0,0.0,0.0,1.271972526,NaN,0.0,1.2000000476837158,0.47999998927116394,-12.710000038146973,0.00921630859375,0.02276611328125,1.0069580078125,31.219999313354492,0.0,0.0,-0.2235565185546875,0.0517730712890625,Waiting,0.0,0.0,0.0,0.0,0.0,0.0,0.0,0.0,
1.9478939999999711,0.0,0.0,false,4562239.172632309,,-2707.0,0.0,0.0,0.0,0.0,0.0,0.5419921320000001,NaN,0.0,-2895.0,0.0,0.0,0.0,0.0,0.0,4.847411613,NaN,0.0,-3212.0,0.0,0.0,0.0,0.0,0.0,2.861327832,NaN,0.0,3454.0,0.0,0.0,0.0,0.0,0.0,1.271972526,NaN,0.0,1.190000057220459,0.47999998927116394,-12.710000038146973,0.01080322265625,0.01983642578125,1.002685546875,31.219999313354492,0.0,2.0,-0.2235565185546875,0.0517730712890625,Waiting,0.0,0.0,0.0,0.0,0.0,0.0,0.0,0.0,
2.0074049999999697,0.0,0.0,false,4562304.141782179,,-2707.0,0.0,0.0,0.0,0.0,0.0,0.5407714290000001,NaN,0.0,-2895.0,0.0,0.0,0.0,0.0,0.0,4.848632316000001,NaN,0.0,-3212.0,0.0,0.0,0.0,0.0,0.0,2.861327832,NaN,0.0,3454.0,0.0,0.0,0.0,0.0,0.0,1.271972526,NaN,0.0,1.190000057220459,0.47999998927116394,-12.710000038146973,0.0111083984375,0.0194091796875,0.99981689453125,31.239999771118164,0.0,2.0,-0.2235565185546875,0.0517730712890625,Waiting,0.0,0.0,0.0,0.0,0.0,0.0,0.0,0.0,
2.071197999999975,0.0,0.0,false,4562364.208900549,,-2707.0,0.0,0.0,0.0,0.0,0.0,0.5419921320000001,NaN,0.0,-2895.0,0.0,0.0,0.0,0.0,0.0,4.849853019,NaN,0.0,-3212.0,0.0,0.0,0.0,0.0,0.0,2.861327832,NaN,0.0,3454.0,0.0,0.0,0.0,0.0,0.0,1.271972526,NaN,0.0,1.190000057220459,0.47999998927116394,-12.710000038146973,0.00946044921875,0.02032470703125,1.00140380859375,31.239999771118164,0.0,1.0,-0.2235565185546875,0.0517730712890625,Waiting,0.0,0.0,0.0,0.0,0.0,0.0,0.0,0.0,
2.1412270000000135,0.0,0.0,false,4562419.873279873,,-2707.0,0.0,0.0,0.0,0.0,0.0,0.5419921320000001,0.0,0.0,-2895.0,0.0,0.0,-0.0,0.0,0.0,4.848632316000001,0.0,0.0,-3212.0,0.0,0.0,0.0,0.0,0.0,2.861327832,0.0,-0.0012207029999999897,3454.0,0.0,0.0,-0.0,0.0,0.0,1.271972526,0.0,0.0,1.190000057220459,0.47999998927116394,-12.710000038146973,0.00970458984375,0.02471923828125,1.00189208984375,31.239999771118164,0.0,0.0,-0.2235565185546875,0.0517730712890625,Waiting,0.0,0.0,0.0,0.0,0.0,0.0,0.0,0.0,
2.200795999999973,0.0,0.0,false,4562471.1355739245,,-2707.0,0.0,0.0,0.0,0.0,4.375,0.5566405680000001,0.0,0.0,-2895.0,0.0,0.0,-0.0,0.0,4.5,4.830321771,0.0,0.0,-3212.0,0.0,0.0,0.0,0.0,6.625,3.018798519,0.0,0.0012207029999999897,3454.0,0.0,0.0,-0.0,0.0,8.125,1.433105322,0.0,0.0,1.2000000476837158,0.47999998927116394,-12.710000038146973,0.0062255859375,0.02471923828125,1.006591796875,31.239999771118164,0.0,-3.0,-0.2235565185546875,0.0517730712890625,Waiting,0.0,0.0,0.0,0.0,0.0,0.0,0.0,0.0,
2.2729859999999755,0.0,0.0,false,4562517.497921203,,-2707.0,0.0,0.0,0.0,0.0,2.75,1.125488166,0.0,0.0,-2895.0,0.0,0.0,-0.0,0.0,2.125,4.26025347,0.0,0.0,-3212.0,0.0,0.0,0.0,0.0,0.375,3.60107385,0.0,0.0,3454.0,0.0,0.0,-0.0,0.0,0.25,2.022704871,0.0,0.0,1.190000057220459,0.47999998927116394,-12.710000038146973,-0.005126953125,0.06787109375,1.03765869140625,31.239999771118164,0.0,-23.0,-0.223541259765625,0.0517578125,Waiting,0.0,0.0,0.0,0.0,0.0,0.0,0.0,0.0,
2.3343859999999985,0.0,0.0,false,4562557.9941598615,,-2707.0,0.0,0.0,0.0,0.0,0.375,1.719970527,0.0,0.6213378269999996,-2895.0,0.0,0.0,-0.0,0.0,0.0,3.696288684,0.0,-0.6176757180000001,-3212.0,0.0,0.0,0.0,0.0,0.0,4.160155824,0.0,0.6384276689999999,3454.0,0.0,0.0,-0.0,0.0,0.0,2.5927731720000002,0.0,0.6127929060000001,1.190000057220459,0.4699999988079071,-12.710000038146973,0.0020751953125,0.02557373046875,1.013427734375,31.239999771118164,0.0,-7.0,-0.223236083984375,0.0517730712890625,Waiting,0.0,0.0,0.0,0.0,0.0,0.0,0.0,0.0,
2.402787000000011,0.0,0.0,false,4562594.090468178,,-2707.0,0.0,0.0,0.0,0.0,0.125,2.100829863,0.0,-4.396373105,-2895.0,0.0,0.0,-0.0,0.0,0.0,3.449706678,0.0,-0.5090331509999997,-3212.0,0.0,0.0,0.0,0.0,0.0,4.326171432000001,0.0,-4.440084036999999,3454.0,0.0,0.0,-0.0,0.0,0.0,2.824706742,0.0,-4.39818365,1.1799999475479126,0.46000000834465027,-12.710000038146973,-0.00408935546875,0.048095703125,1.015625,31.239999771118164,0.0,-18.0,-0.223236083984375,0.051666259765625,Waiting,0.0,0.0,0.0,0.0,0.0,0.0,0.0,0.0,
2.4715719999999854,0.0,0.0,false,4562627.252734201,,-2707.0,0.0,0.0,0.0,0.0,0.625,2.023925574,0.0,0.0,-2895.0,0.0,0.0,-0.0,0.0,0.0,3.441161757,0.0,4.736597678,-3212.0,0.0,0.0,0.0,0.0,0.0,4.2956538570000005,0.0,0.14038084499999925,3454.0,0.0,0.0,-0.0,0.0,0.0,2.763671592,0.0,0.2209472429999999,1.190000057220459,0.4699999988079071,-12.710000038146973,0.01190185546875,0.022216796875,1.01239013671875,31.229999542236328,0.0,3.0,-0.223236083984375,0.05169677734375,Waiting,0.0,0.0,0.0,0.0,0.0,0.0,0.0,0.0,
2.5339869999999647,0.0,0.0,false,4562655.517814727,,-2707.0,0.0,0.0,0.0,0.0,0.125,1.832275203,0.0,-0.12451170600000028,-2895.0,0.0,0.0,-0.0,0.0,0.0,3.4790035500000003,0.0,-0.004882811999999959,-3212.0,0.0,0.0,0.0,0.0,0.0,4.1906733990000005,0.0,-0.035400386999999256,3454.0,0.0,0.0,-0.0,0.0,0.0,2.618407935,0.0,-0.06225585299999992,1.2000000476837158,0.47999998927116394,-12.710000038146973,0.0045166015625,0.0145263671875,1.01446533203125,31.229999542236328,0.0,-2.0,-0.223175048828125,0.05169677734375,Waiting,0.0,0.0,0.0,0.0,0.0,0.0,0.0,0.0,
2.595866999999969,0.0,0.0,false,4562679.384828541,,-2707.0,0.0,0.0,0.0,0.0,0.0,1.6809080310000002,0.0,-0.20019529199999986,-2895.0,0.0,0.0,-0.0,0.0,0.0,3.5803218990000003,0.0,0.05737304099999996,-3212.0,0.0,0.0,0.0,0.0,0.0,4.086913644,0.0,-0.10742186399999998,3454.0,0.0,0.0,-0.0,0.0,0.0,2.512206774,0.0,-0.14770506300000008,1.190000057220459,0.4699999988079071,-12.710000038146973,-0.00299072265625,0.02593994140625,1.00830078125,31.229999542236328,0.0,-12.0,-0.223175048828125,0.05169677734375,Waiting,0.0,0.0,0.0,0.0,0.0,0.0,0.0,0.0,
2.66633600000001,0.0,0.0,false,4562697.389411182,,-2707.0,0.0,0.0,0.0,0.0,0.0,1.6577146740000002,0.0,4.849253918,-2895.0,0.0,0.0,-0.0,0.0,0.0,3.618163692,0.0,0.0,-3212.0,0.0,0.0,0.0,0.0,0.0,4.057616772,0.0,4.860005868999999,3454.0,0.0,0.0,-0.0,0.0,0.0,2.467040763,0.0,0.0,1.190000057220459,0.4699999988079071,-12.710000038146973,0.0150146484375,0.03302001953125,0.99432373046875,31.229999542236328,0.0,3.0,-0.223175048828125,0.05169677734375,Waiting,0.0,0.0,0.0,0.0,0.0,0.0,0.0,0.0,
2.7281180000000167,0.0,0.0,false,4562711.963980011,,-2707.0,0.0,0.0,0.0,0.0,0.0,1.673583813,0.0,-0.013427732999999442,-2895.0,0.0,0.0,-0.0,0.0,0.0,3.6291500190000003,0.0,0.037841793000000123,-3212.0,0.0,0.0,0.0,0.0,0.0,4.056396069,0.0,-0.025634763000000227,3454.0,0.0,0.0,-0.0,0.0,0.0,2.452392327,0.0,4.899892583,1.190000057220459,0.47999998927116394,-12.710000038146973,0.0115966796875,0.0286865234375,1.0054931640625,31.229999542236328,0.0,1.0,-0.223175048828125,0.05169677734375,Waiting,0.0,0.0,0.0,0.0,0.0,0.0,0.0,0.0,
2.7918310000000055,0.0,0.0,false,4562722.14248961,,-2707.0,0.0,0.0,0.0,0.0,0.0,1.7102049030000002,0.0,0.0183105449999994,-2895.0,0.0,0.0,-0.0,0.0,0.0,3.6291500190000003,0.0,-4.939234376,-3212.0,0.0,0.0,0.0,0.0,0.0,4.069823802,0.0,0.0,3454.0,0.0,0.0,-0.0,0.0,0.0,2.452392327,0.0,-0.012207029999999008,1.190000057220459,0.4699999988079071,-12.710000038146973,0.0067138671875,0.01580810546875,0.99896240234375,31.229999542236328,0.0,0.0,-0.223175048828125,0.05169677734375,Waiting,0.0,0.0,0.0,0.0,0.0,0.0,0.0,0.0,
2.8499789999999923,0.0,0.0,false,4562727.92559244,,-2707.0,0.0,0.0,0.0,0.0,0.0,1.7395017750000001,0.0,0.04150390200000054,-2895.0,0.0,0.0,-0.0,0.0,0.0,3.6279293160000003,0.0,0.0,-3212.0,0.0,0.0,0.0,0.0,0.0,4.068603099000001,0.0,0.004882812000000847,3454.0,0.0,0.0,-0.0,0.0,0.0,2.452392327,0.0,0.0,1.190000057220459,0.4699999988079071,-12.710000038146973,0.0096435546875,0.01495361328125,0.99725341796875,31.229999542236328,0.0,2.0,-0.223175048828125,0.05169677734375,Waiting,0.0,0.0,0.0,0.0,0.0,0.0,0.0,0.0,
2.913148999999976,0.0,0.0,false,4562729.313940833,,-2707.0,0.0,0.0,0.0,0.0,0.0,1.744384587,0.0,0.025634763000000227,-2895.0,0.0,0.0,-0.0,0.0,0.0,3.6279293160000003,0.0,-0.0012207029999999897,-3212.0,0.0,0.0,0.0,0.0,0.0,4.073485911000001,0.0,0.008544920999999484,3454.0,0.0,0.0,-0.0,0.0,0.0,2.452392327,0.0,0.0,1.190000057220459,0.4699999988079071,-12.710000038146973,0.0115966796875,0.0201416015625,1.01287841796875,31.229999542236328,0.0,3.0,-0.223175048828125,0.05169677734375,Waiting,0.0,0.0,0.0,0.0,0.0,0.0,0.0,0.0,
2.9729959999999847,0.0,0.0,false,4562725.809943112,,-2707.0,0.0,0.0,0.0,0.0,0.0,1.744384587,0.0,0.0,-2895.0,0.0,0.0,-0.0,0.0,0.0,3.6303707220000003,0.0,0.0,-3212.0,0.0,0.0,0.0,0.0,0.0,4.073485911000001,0.0,0.0,3454.0,0.0,0.0,-0.0,0.0,0.0,2.471923575,0.0,0.0,1.190000057220459,0.47999998927116394,-12.710000038146973,0.00994873046875,0.021484375,1.0093994140625,31.229999542236328,0.0,1.0,-0.223175048828125,0.05169677734375,Waiting,0.0,0.0,0.0,0.0,0.0,0.0,0.0,0.0,
3.0375939999999826,0.0,0.0,false,4562717.910170162,,-2707.0,0.0,0.0,0.0,0.0,0.0,1.744384587,0.0,0.0,-2895.0,0.0,0.0,-0.0,0.0,0.0,3.6291500190000003,0.0,0.0,-3212.0,0.0,0.0,0.0,0.0,0.0,4.072265208,0.0,0.0,3454.0,0.0,0.0,-0.0,0.0,0.0,2.496337635,0.0,0.02563476299999934,1.190000057220459,0.47999998927116394,-12.710000038146973,0.0057373046875,0.0177001953125,0.9989013671875,31.209999084472656,0.0,-1.0,-0.223175048828125,0.05169677734375,Waiting,0.0,0.0,0.0,0.0,0.0,0.0,0.0,0.0,
3.1030559999999823,0.0,0.0,false,4562705.617648514,,-2707.0,0.0,0.0,0.0,0.0,0.0,1.744384587,0.0,0.0,-2895.0,0.0,0.0,-0.0,0.0,0.0,3.6279293160000003,0.0,0.0,-3212.0,0.0,0.0,0.0,0.0,0.0,4.072265208,0.0,0.0,3454.0,0.0,0.0,-0.0,0.0,0.0,2.496337635,0.0,0.019531247999999835,1.190000057220459,0.47999998927116394,-12.710000038146973,0.0098876953125,0.02154541015625,0.99566650390625,31.209999084472656,0.0,1.0,-0.223175048828125,0.05169677734375,Waiting,0.0,0.0,0.0,0.0,0.0,0.0,0.0,0.0,
3.1696460000000077,0.0,0.0,false,4562688.933029973,,-2707.0,0.0,0.0,0.0,0.0,0.0,1.744384587,0.0,0.0,-2895.0,0.0,0.0,-0.0,0.0,0.0,3.6279293160000003,0.0,0.0,-3212.0,0.0,0.0,0.0,0.0,0.0,4.073485911000001,0.0,0.0,3454.0,0.0,0.0,-0.0,0.0,0.0,2.497558338,0.0,0.0,1.190000057220459,0.47999998927116394,-12.710000038146973,0.01226806640625,0.0179443359375,1.00848388671875,31.209999084472656,0.0,4.0,-0.223175048828125,0.05169677734375,Waiting,0.0,0.0,0.0,0.0,0.0,0.0,0.0,0.0,
3.2321579999999956,0.0,0.0,false,4562667.358820911,,-2707.0,0.0,0.0,0.0,0.0,0.0,1.744384587,0.0,0.0,-2895.0,0.0,0.0,-0.0,0.0,0.0,3.6291500190000003,0.0,0.0012207029999999897,-3212.0,0.0,0.0,0.0,0.0,0.0,4.072265208,0.0,0.0,3454.0,0.0,0.0,-0.0,0.0,0.0,2.496337635,0.0,0.0,1.190000057220459,0.47999998927116394,-12.710000038146973,0.00799560546875,0.0213623046875,1.00457763671875,31.209999084472656,0.0,0.0,-0.223175048828125,0.05169677734375,Waiting,0.0,0.0,0.0,0.0,0.0,0.0,0.0,0.0,
3.302078999999969,0.0,0.0,false,4562641.393867458,,-2707.0,0.0,0.0,0.0,0.0,0.0,1.744384587,0.0,0.0,-2895.0,0.0,0.0,-0.0,0.0,0.0,3.6279293160000003,0.0,-0.0012207029999999897,-3212.0,0.0,0.0,0.0,0.0,0.0,4.073485911000001,0.0,0.0,3454.0,0.0,0.0,-0.0,0.0,0.0,2.496337635,0.0,-0.0012207029999995456,1.190000057220459,0.47999998927116394,-12.710000038146973,0.00689697265625,0.02252197265625,1.00006103515625,31.209999084472656,0.0,-1.0,-0.223175048828125,0.05169677734375,Waiting,0.0,0.0,0.0,0.0,0.0,0.0,0.0,0.0,
3.3740019999999786,0.0,0.0,false,4562719.488848227,,-2707.0,0.0,0.0,0.0,0.0,0.0,1.744384587,0.0,0.0,-2895.0,0.0,0.0,-0.0,0.0,0.0,3.6267086130000004,0.0,0.0,-3212.0,0.0,0.0,0.0,0.0,0.0,4.073485911000001,0.0,0.0,3454.0,0.0,0.0,-0.0,0.0,0.0,2.496337635,0.0,0.0,1.190000057220459,0.49000000953674316,-12.710000038146973,0.0118408203125,0.02099609375,1.00653076171875,31.209999084472656,0.0,3.0,-0.223175048828125,0.05169677734375,Waiting,0.0,0.0,0.0,0.0,0.0,0.0,0.0,0.0,
3.436698999999964,0.0,0.0,false,4562792.313322124,,-2707.0,0.0,0.0,0.0,0.0,0.0,1.744384587,0.0,0.0,-2895.0,0.0,0.0,-0.0,0.0,0.0,3.6279293160000003,0.0,0.0,-3212.0,0.0,0.0,0.0,0.0,0.0,4.072265208,0.0,0.0,3454.0,0.0,0.0,-0.0,0.0,0.0,2.496337635,0.0,0.0,1.190000057220459,0.49000000953674316,-12.710000038146973,0.0093994140625,0.02264404296875,0.9970703125,31.209999084472656,0.0,0.0,-0.223175048828125,0.05169677734375,Waiting,0.0,0.0,0.0,0.0,0.0,0.0,0.0,0.0,
3.4940009999999893,0.0,0.0,false,4562859.969341839,,-2707.0,0.0,0.0,0.0,0.0,0.0,1.744384587,0.0,0.0,-2895.0,0.0,0.0,-0.0,0.0,0.0,3.6315914250000003,0.0,0.0,-3212.0,0.0,0.0,0.0,0.0,0.0,4.073485911000001,0.0,0.0,3454.0,0.0,0.0,-0.0,0.0,0.0,2.496337635,0.0,0.0012207029999995456,1.190000057220459,0.49000000953674316,-12.710000038146973,0.0054931640625,0.02227783203125,0.99920654296875,31.229999542236328,0.0,-3.0,-0.223175048828125,0.05169677734375,Waiting,0.0,0.0,0.0,0.0,0.0,0.0,0.0,0.0,
3.5524159999999685,0.0,0.0,false,4562923.829905063,,-2707.0,0.0,0.0,0.0,0.0,0.0,1.743163884,0.0,0.0,-2895.0,0.0,0.0,-0.0,0.0,0.0,3.6279293160000003,0.0,0.0,-3212.0,0.0,0.0,0.0,0.0,0.0,4.073485911000001,0.0,0.0,3454.0,0.0,0.0,-0.0,0.0,0.0,2.496337635,0.0,-0.0012207029999995456,1.190000057220459,0.49000000953674316,-12.710000038146973,0.0118408203125,0.02154541015625,1.00396728515625,31.229999542236328,0.0,3.0,-0.223175048828125,0.05169677734375,Waiting,0.0,0.0,0.0,0.0,0.0,0.0,0.0,0.0,
3.6132609999999987,0.0,0.0,false,4562982.5234116195,,-2707.0,0.0,0.0,0.0,0.0,0.0,1.744384587,0.0,0.0,-2895.0,0.0,0.0,-0.0,0.0,0.0,3.6279293160000003,0.0,0.0,-3212.0,0.0,0.0,0.0,0.0,0.0,4.073485911000001,0.0,0.0,3454.0,0.0,0.0,-0.0,0.0,0.0,2.496337635,0.0,0.0,1.190000057220459,0.49000000953674316,-12.710000038146973,0.00762939453125,0.01849365234375,0.9976806640625,31.229999542236328,0.0,0.0,-0.223175048828125,0.05169677734375,Waiting,0.0,0.0,0.0,0.0,0.0,0.0,0.0,0.0,
3.6736049999999816,0.0,0.0,false,4563037.422723227,,-2707.0,0.0,0.0,0.0,0.0,0.0,1.744384587,0.0,0.0,-2895.0,0.0,0.0,-0.0,0.0,0.0,3.6279293160000003,0.0,0.0,-3212.0,0.0,0.0,0.0,0.0,0.0,4.073485911000001,0.0,0.0,3454.0,0.0,0.0,-0.0,0.0,0.0,2.496337635,0.0,0.0012207029999995456,1.2000000476837158,0.5,-12.710000038146973,0.004150390625,0.01995849609375,0.997314453125,31.229999542236328,0.0,-4.0,-0.223175048828125,0.05169677734375,Waiting,0.0,0.0,0.0,0.0,0.0,0.0,0.0,0.0,
3.7352299999999814,0.0,0.0,false,4563087.156375142,,-2707.0,0.0,0.0,0.0,0.0,0.0,1.744384587,0.0,0.0,-2895.0,0.0,0.0,-0.0,0.0,0.0,3.6291500190000003,0.0,0.0,-3212.0,0.0,0.0,0.0,0.0,0.0,4.072265208,0.0,0.0,3454.0,0.0,0.0,-0.0,0.0,0.0,2.496337635,0.0,0.0,1.190000057220459,0.49000000953674316,-12.710000038146973,0.00909423828125,0.02056884765625,1.002197265625,31.229999542236328,0.0,0.0,-0.223175048828125,0.05169677734375,Waiting,0.0,0.0,0.0,0.0,0.0,0.0,0.0,0.0,
3.79494299999997,0.0,0.0,false,4563133.445125569,,-2707.0,0.0,0.0,0.0,0.0,0.0,1.744384587,0.0,0.0,-2895.0,0.0,0.0,-0.0,0.0,0.0,3.6291500190000003,0.0,0.0,-3212.0,0.0,0.0,0.0,0.0,0.0,4.073485911000001,0.0,0.0,3454.0,0.0,0.0,-0.0,0.0,0.0,2.496337635,0.0,-0.0012207029999995456,1.2000000476837158,0.49000000953674316,-12.710000038146973,0.01019287109375,0.01953125,1.0013427734375,31.229999542236328,0.0,1.0,-0.223175048828125,0.05169677734375,Waiting,0.0,0.0,0.0,0.0,0.0,0.0,0.0,0.0,
3.8635739999999643,0.0,0.0,false,4563174.221563103,,-2707.0,0.0,0.0,0.0,0.0,0.0,1.744384587,0.0,0.0,-2895.0,0.0,0.0,-0.0,0.0,0.0,3.6279293160000003,0.0,0.0012207029999999897,-3212.0,0.0,0.0,0.0,0.0,0.0,4.072265208,0.0,0.0,3454.0,0.0,0.0,-0.0,0.0,0.0,2.495116932,0.0,0.0012207029999995456,1.2000000476837158,0.5,-12.710000038146973,0.0072021484375,0.02239990234375,1.00115966796875,31.229999542236328,0.0,-1.0,-0.223175048828125,0.05169677734375,Waiting,0.0,0.0,0.0,0.0,0.0,0.0,0.0,0.0,
3.9279930000000167,0.0,0.0,false,4563211.554325259,,-2707.0,0.0,0.0,0.0,0.0,0.0,1.744384587,0.0,0.0,-2895.0,0.0,0.0,-0.0,0.0,0.0,3.6291500190000003,0.0,-0.0012207029999999897,-3212.0,0.0,0.0,0.0,0.0,0.0,4.071044505000001,0.0,0.0,3454.0,0.0,0.0,-0.0,0.0,0.0,2.496337635,0.0,0.0,1.2000000476837158,0.49000000953674316,-12.710000038146973,0.01123046875,0.0216064453125,0.99993896484375,31.229999542236328,0.0,2.0,-0.223175048828125,0.05169677734375,Waiting,0.0,0.0,0.0,0.0,0.0,0.0,0.0,0.0,
3.98669299999997,0.0,0.0,false,4563243.724185656,,-2707.0,0.0,0.0,0.0,0.0,0.0,1.744384587,0.0,0.0,-2895.0,0.0,0.0,-0.0,0.0,0.0,3.6279293160000003,0.0,0.0012207029999999897,-3212.0,0.0,0.0,0.0,0.0,0.0,4.073485911000001,0.0,0.0,3454.0,0.0,0.0,-0.0,0.0,0.0,2.496337635,0.0,0.0,1.2000000476837158,0.49000000953674316,-12.710000038146973,0.0098876953125,0.02020263671875,1.0018310546875,31.229999542236328,0.0,1.0,-0.223175048828125,0.05169677734375,Waiting,0.0,0.0,0.0,0.0,0.0,0.0,0.0,0.0,
4.046716000000015,0.0,0.0,false,4563272.10359826,,-2707.0,0.0,0.0,0.0,0.0,0.0,1.743163884,0.0,0.0,-2895.0,0.0,0.0,-0.0,0.0,0.0,3.6279293160000003,0.0,0.0,-3212.0,0.0,0.0,0.0,0.0,0.0,4.073485911000001,0.0,0.0,3454.0,0.0,0.0,-0.0,0.0,0.0,2.496337635,0.0,0.0,1.2000000476837158,0.49000000953674316,-12.710000038146973,0.0064697265625,0.0206298828125,0.99932861328125,31.200000762939453,0.0,-1.0,-0.223175048828125,0.05169677734375,Waiting,0.0,0.0,0.0,0.0,0.0,0.0,0.0,0.0,
4.11486599999998,0.0,0.0,false,4563295.321504473,,-2707.0,0.0,0.0,0.0,0.0,0.0,1.744384587,0.0,0.0,-2895.0,0.0,0.0,-0.0,0.0,0.0,3.6291500190000003,0.0,-0.0012207029999999897,-3212.0,0.0,0.0,0.0,0.0,0.0,4.073485911000001,0.0,0.0,3454.0,0.0,0.0,-0.0,0.0,0.0,2.496337635,0.0,0.0,1.2000000476837158,0.49000000953674316,-12.710000038146973,0.00982666015625,0.02081298828125,1.00115966796875,31.200000762939453,0.0,1.0,-0.223175048828125,0.05169677734375,Waiting,0.0,0.0,0.0,0.0,0.0,0.0,0.0,0.0,
4.18081899999996,0.0,0.0,false,4563313.030740338,,-2707.0,0.0,0.0,0.0,0.0,0.0,1.743163884,0.0,0.0,-2895.0,0.0,0.0,-0.0,0.0,0.0,3.6279293160000003,0.0,0.0,-3212.0,0.0,0.0,0.0,0.0,0.0,4.073485911000001,0.0,0.0,3454.0,0.0,0.0,-0.0,0.0,0.0,2.496337635,0.0,0.0012207029999995456,1.2000000476837158,0.49000000953674316,-12.720000267028809,0.0087890625,0.0228271484375,1.0013427734375,31.200000762939453,0.0,0.0,-0.223175048828125,0.05169677734375,Waiting,0.0,0.0,0.0,0.0,0.0,0.0,0.0,0.0,
4.248368000000017,0.0,0.0,false,4563327.299431678,,-2707.0,0.0,0.0,0.0,0.0,0.0,1.744384587,0.0,0.0,-2895.0,0.0,0.0,-0.0,0.0,0.0,3.6279293160000003,0.0,0.0012207029999999897,-3212.0,0.0,0.0,0.0,0.0,0.0,4.072265208,0.0,0.0,3454.0,0.0,0.0,-0.0,0.0,0.0,2.496337635,0.0,0.0,1.2000000476837158,0.49000000953674316,-12.720000267028809,0.0086669921875,0.02252197265625,1.0009765625,31.200000762939453,0.0,0.0,-0.223175048828125,0.05169677734375,Waiting,0.0,0.0,0.0,0.0,0.0,0.0,0.0,0.0,
4.314988000000012,0.0,0.0,false,4563336.408776438,,-2707.0,0.0,0.0,0.0,0.0,0.0,1.743163884,0.0,0.0,-2895.0,0.0,0.0,-0.0,0.0,0.0,3.6279293160000003,0.0,0.0,-3212.0,0.0,0.0,0.0,0.0,0.0,4.073485911000001,0.0,0.0,3454.0,0.0,0.0,-0.0,0.0,0.0,2.496337635,0.0,0.0,1.2000000476837158,0.49000000953674316,-12.720000267028809,0.00762939453125,0.01885986328125,1.00335693359375,31.200000762939453,0.0,0.0,-0.223175048828125,0.05169677734375,Waiting,0.0,0.0,0.0,0.0,0.0,0.0,0.0,0.0,
4.385148999999976,0.0,0.0,false,4563340.011661808,,-2707.0,0.0,0.0,0.0,0.0,0.0,1.744384587,0.0,0.0,-2895.0,0.0,0.0,-0.0,0.0,0.0,3.6279293160000003,0.0,0.0,-3212.0,0.0,0.0,0.0,0.0,0.0,4.072265208,0.0,0.0,3454.0,0.0,0.0,-0.0,0.0,0.0,2.497558338,0.0,0.0,1.2000000476837158,0.49000000953674316,-12.720000267028809,0.0115966796875,0.020751953125,1.00506591796875,31.200000762939453,0.0,2.0,-0.223175048828125,0.05169677734375,Waiting,0.0,0.0,0.0,0.0,0.0,0.0,0.0,0.0,
4.445043000000005,0.0,0.0,false,4563340.17590671,,-2707.0,0.0,0.0,0.0,0.0,0.0,1.744384587,0.0,0.0,-2895.0,0.0,0.0,-0.0,0.0,0.0,3.6279293160000003,0.0,0.0,-3212.0,0.0,0.0,0.0,0.0,0.0,4.073485911000001,0.0,0.0,3454.0,0.0,0.0,-0.0,0.0,0.0,2.497558338,0.0,0.0,1.2000000476837158,0.5,-12.720000267028809,0.00872802734375,0.02093505859375,0.99847412109375,31.200000762939453,0.0,0.0,-0.223175048828125,0.05169677734375,Waiting,0.0,0.0,0.0,0.0,0.0,0.0,0.0,0.0,
4.511566999999981,0.0,0.0,false,4563334.835120312,,-2707.0,0.0,0.0,0.0,0.0,0.0,1.744384587,0.0,0.0,-2895.0,0.0,0.0,-0.0,0.0,0.0,3.6279293160000003,0.0,0.0,-3212.0,0.0,0.0,0.0,0.0,0.0,4.074706614,0.0,0.0,3454.0,0.0,0.0,-0.0,0.0,0.0,2.496337635,0.0,0.0,1.2000000476837158,0.5,-12.720000267028809,0.00714111328125,0.02008056640625,1.0025634765625,31.200000762939453,0.0,-1.0,-0.223175048828125,0.05169677734375,Waiting,0.0,0.0,0.0,0.0,0.0,0.0,0.0,0.0,
4.573142999999982,0.0,0.0,false,4563326.056916996,,-2707.0,0.0,0.0,0.0,0.0,0.0,1.744384587,0.0,0.0,-2895.0,0.0,0.0,-0.0,0.0,0.0,3.6279293160000003,0.0,0.0,-3212.0,0.0,0.0,0.0,0.0,0.0,4.072265208,0.0,0.0,3454.0,0.0,0.0,-0.0,0.0,0.0,2.496337635,0.0,0.0,1.2000000476837158,0.5,-12.720000267028809,0.00775146484375,0.0208740234375,1.00238037109375,31.219999313354492,0.0,0.0,-0.223175048828125,0.05169677734375,Waiting,0.0,0.0,0.0,0.0,0.0,0.0,0.0,0.0,
4.636168999999994,0.0,0.0,false,4563312.122918828,,-2707.0,0.0,0.0,0.0,0.0,0.0,1.744384587,0.0,0.0,-2895.0,0.0,0.0,-0.0,0.0,0.0,3.6279293160000003,0.0,0.0,-3212.0,0.0,0.0,0.0,0.0,0.0,4.073485911000001,0.0,0.0,3454.0,0.0,0.0,-0.0,0.0,0.0,2.496337635,0.0,0.0012207029999995456,1.2000000476837158,0.5,-12.720000267028809,0.0111083984375,0.02484130859375,1.0074462890625,31.219999313354492,0.0,1.0,-0.223175048828125,0.05169677734375,Waiting,0.0,0.0,0.0,0.0,0.0,0.0,0.0,0.0,
4.697722999999998,0.0,0.0,false,4563294.404900702,,-2707.0,0.0,0.0,0.0,0.0,0.0,1.744384587,0.0,0.0,-2895.0,0.0,0.0,-0.0,0.0,0.0,3.6279293160000003,0.0,0.0012207029999999897,-3212.0,0.0,0.0,0.0,0.0,0.0,4.072265208,0.0,0.0,3454.0,0.0,0.0,-0.0,0.0,0.0,2.497558338,0.0,0.0,1.2000000476837158,0.5,-12.720000267028809,0.01141357421875,0.02081298828125,0.99932861328125,31.219999313354492,0.0,2.0,-0.223175048828125,0.05169677734375,Waiting,0.0,0.0,0.0,0.0,0.0,0.0,0.0,0.0,
4.758818999999959,0.0,0.0,false,4563271.532480364,,-2707.0,0.0,0.0,0.0,0.0,0.0,1.744384587,0.0,0.0,-2895.0,0.0,0.0,-0.0,0.0,0.0,3.6279293160000003,0.0,0.0,-3212.0,0.0,0.0,0.0,0.0,0.0,4.073485911000001,0.0,0.0,3454.0,0.0,0.0,-0.0,0.0,0.0,2.496337635,0.0,0.0,1.2100000381469727,0.5,-12.720000267028809,0.00732421875,0.02166748046875,1.002197265625,31.219999313354492,0.0,-1.0,-0.223175048828125,0.05169677734375,Waiting,0.0,0.0,0.0,0.0,0.0,0.0,0.0,0.0,
4.826339999999967,0.0,0.0,false,4563243.158664295,,-2707.0,0.0,0.0,0.0,0.0,0.0,1.744384587,0.0,0.0,-2895.0,0.0,0.0,-0.0,0.0,0.0,3.6267086130000004,0.0,0.0,-3212.0,0.0,0.0,0.0,0.0,0.0,4.073485911000001,0.0,0.0,3454.0,0.0,0.0,-0.0,0.0,0.0,2.496337635,0.0,0.0,1.2100000381469727,0.5,-12.729999542236328,0.007080078125,0.02001953125,0.99993896484375,31.219999313354492,0.0,-1.0,-0.223175048828125,0.05169677734375,Waiting,0.0,0.0,0.0,0.0,0.0,0.0,0.0,0.0,
4.894320999999996,0.0,0.0,false,4563321.098147691,,-2707.0,0.0,0.0,0.0,0.0,0.0,1.744384587,0.0,0.0,-2895.0,0.0,0.0,-0.0,0.0,0.0,3.6291500190000003,0.0,-0.0012207029999999897,-3212.0,0.0,0.0,0.0,0.0,0.0,4.073485911000001,0.0,0.0,3454.0,0.0,0.0,-0.0,0.0,0.0,2.496337635,0.0,0.0,1.2100000381469727,0.5,-12.729999542236328,0.009765625,0.02423095703125,1.00244140625,31.219999313354492,0.0,0.0,-0.223175048828125,0.05169677734375,Waiting,0.0,0.0,0.0,0.0,0.0,0.0,0.0,0.0,
4.955060999999987,0.0,0.0,false,4563393.268398696,,-2707.0,0.0,0.0,0.0,0.0,0.0,1.744384587,0.0,0.0,-2895.0,0.0,0.0,-0.0,0.0,0.0,3.6291500190000003,0.0,0.0,-3212.0,0.0,0.0,0.0,0.0,0.0,4.073485911000001,0.0,0.0,3454.0,0.0,0.0,-0.0,0.0,0.0,2.496337635,0.0,-0.0012207029999995456,1.2100000381469727,0.5,-12.729999542236328,0.0093994140625,0.01934814453125,1.00067138671875,31.219999313354492,0.0,1.0,-0.223175048828125,0.05169677734375,Waiting,0.0,0.0,0.0,0.0,0.0,0.0,0.0,0.0,
5.0148630000000125,0.0,0.0,false,4563461.407615943,,-2707.0,0.0,0.0,0.0,0.0,0.0,1.744384587,0.0,0.0,-2895.0,0.0,0.0,-0.0,0.0,0.0,3.6279293160000003,0.0,0.0,-3212.0,0.0,0.0,0.0,0.0,0.0,4.072265208,0.0,0.0,3454.0,0.0,0.0,-0.0,0.0,0.0,2.497558338,0.0,0.0,1.2100000381469727,0.5,-12.729999542236328,0.0086669921875,0.01953125,1.00103759765625,31.229999542236328,0.0,0.0,-0.223175048828125,0.05169677734375,Waiting,0.0,0.0,0.0,0.0,0.0,0.0,0.0,0.0,
5.087626999999978,0.0,0.0,false,4563525.7668905575,,-2707.0,0.0,0.0,0.0,0.0,0.0,1.743163884,0.0,0.0,-2895.0,0.0,0.0,-0.0,0.0,0.0,3.6279293160000003,0.0,0.0012207029999999897,-3212.0,0.0,0.0,0.0,0.0,0.0,4.072265208,0.0,0.0,3454.0,0.0,0.0,-0.0,0.0,0.0,2.496337635,0.0,0.0,1.2100000381469727,0.5,-12.729999542236328,0.01123046875,0.0181884765625,1.00079345703125,31.229999542236328,0.0,2.0,-0.223175048828125,0.05169677734375,Waiting,0.0,0.0,0.0,0.0,0.0,0.0,0.0,0.0,
5.148426999999967,0.0,0.0,false,4563586.096301052,,-2707.0,0.0,0.0,0.0,0.0,0.0,1.743163884,0.0,0.0,-2895.0,0.0,0.0,-0.0,0.0,0.0,3.6279293160000003,0.0,0.0,-3212.0,0.0,0.0,0.0,0.0,0.0,4.074706614,0.0,0.0,3454.0,0.0,0.0,-0.0,0.0,0.0,2.496337635,0.0,0.0,1.2100000381469727,0.5,-12.729999542236328,0.00811767578125,0.0208740234375,1.00006103515625,31.229999542236328,0.0,0.0,-0.223175048828125,0.05169677734375,Waiting,0.0,0.0,0.0,0.0,0.0,0.0,0.0,0.0,
5.211347000000009,0.0,0.0,false,4563640.760493827,,-2707.0,0.0,0.0,0.0,0.0,0.0,1.744384587,0.0,0.0,-2895.0,0.0,0.0,-0.0,0.0,0.0,3.6267086130000004,0.0,-0.0012207029999999897,-3212.0,0.0,0.0,0.0,0.0,0.0,4.074706614,0.0,0.0,3454.0,0.0,0.0,-0.0,0.0,0.0,2.496337635,0.0,-0.0012207029999995456,1.2100000381469727,0.5,-12.729999542236328,0.00836181640625,0.01837158203125,1.001220703125,31.229999542236328,0.0,0.0,-0.223175048828125,0.05169677734375,Waiting,0.0,0.0,0.0,0.0,0.0,0.0,0.0,0.0,
5.275664999999979,0.0,0.0,false,4563691.396177966,,-2707.0,0.0,0.0,0.0,0.0,0.0,1.744384587,0.0,0.0,-2895.0,0.0,0.0,-0.0,0.0,0.0,3.6279293160000003,0.0,0.0012207029999999897,-3212.0,0.0,0.0,0.0,0.0,0.0,4.072265208,0.0,0.0,3454.0,0.0,0.0,-0.0,0.0,0.0,2.496337635,0.0,0.0,1.2100000381469727,0.5,-12.729999542236328,0.01190185546875,0.02191162109375,1.00115966796875,31.229999542236328,0.0,2.0,-0.223175048828125,0.05169677734375,Waiting,0.0,0.0,0.0,0.0,0.0,0.0,0.0,0.0,
5.345127999999968,0.0,0.0,false,4563738.003950227,,-2707.0,0.0,0.0,0.0,0.0,0.0,1.744384587,0.0,0.0,-2895.0,0.0,0.0,-0.0,0.0,0.0,3.6267086130000004,0.0,-0.0012207029999999897,-3212.0,0.0,0.0,0.0,0.0,0.0,4.073485911000001,0.0,0.0,3454.0,0.0,0.0,-0.0,0.0,0.0,2.496337635,0.0,0.0012207029999995456,1.2100000381469727,0.5,-12.739999771118164,0.00823974609375,0.02166748046875,1.0042724609375,31.229999542236328,0.0,0.0,-0.223175048828125,0.05169677734375,Waiting,0.0,0.0,0.0,0.0,0.0,0.0,0.0,0.0,
5.407468999999983,0.0,0.0,false,4563778.948698958,,-2707.0,0.0,0.0,0.0,0.0,0.0,1.744384587,0.0,0.0,-2895.0,0.0,0.0,-0.0,0.0,0.0,3.6279293160000003,0.0,0.0012207029999999897,-3212.0,0.0,0.0,0.0,0.0,0.0,4.073485911000001,0.0,0.0,3454.0,0.0,0.0,-0.0,0.0,0.0,2.497558338,0.0,0.0,1.2100000381469727,0.5,-12.729999542236328,0.0098876953125,0.02191162109375,1.0035400390625,31.229999542236328,0.0,0.0,-0.223175048828125,0.05169677734375,Waiting,0.0,0.0,0.0,0.0,0.0,0.0,0.0,0.0,
5.474766000000003,0.0,0.0,false,4563813.98084329,,-2707.0,0.0,0.0,0.0,0.0,0.0,1.744384587,0.0,0.0,-2895.0,0.0,0.0,-0.0,0.0,0.0,3.6291500190000003,0.0,-0.0012207029999999897,-3212.0,0.0,0.0,0.0,0.0,0.0,4.072265208,0.0,0.0,3454.0,0.0,0.0,-0.0,0.0,0.0,2.497558338,0.0,0.0,1.2100000381469727,0.5,-12.729999542236328,0.007568359375,0.0228271484375,0.9971923828125,31.229999542236328,0.0,-1.0,-0.223175048828125,0.05169677734375,Waiting,0.0,0.0,0.0,0.0,0.0,0.0,0.0,0.0,
5.533812999999966,0.0,0.0,false,4563845.237620341,,-2707.0,0.0,0.0,0.0,0.0,0.0,1.744384587,0.0,0.0,-2895.0,0.0,0.0,-0.0,0.0,0.0,3.6279293160000003,0.0,0.0,-3212.0,0.0,0.0,0.0,0.0,0.0,4.072265208,0.0,0.0,3454.0,0.0,0.0,-0.0,0.0,0.0,2.496337635,0.0,0.0,1.2100000381469727,0.5,-12.729999542236328,0.00994873046875,0.0218505859375,0.99810791015625,31.229999542236328,0.0,1.0,-0.223175048828125,0.05169677734375,Waiting,0.0,0.0,0.0,0.0,0.0,0.0,0.0,0.0,
5.60002999999997,0.0,0.0,false,4563872.469194313,,-2707.0,0.0,0.0,0.0,0.0,0.0,1.743163884,0.0,0.0,-2895.0,0.0,0.0,-0.0,0.0,0.0,3.6279293160000003,0.0,0.0012207029999999897,-3212.0,0.0,0.0,0.0,0.0,0.0,4.073485911000001,0.0,0.0012207030000004337,3454.0,0.0,0.0,-0.0,0.0,0.0,2.496337635,0.0,0.0,1.2100000381469727,0.5,-12.729999542236328,0.00677490234375,0.0208740234375,1.00408935546875,31.229999542236328,0.0,-1.0,-0.223175048828125,0.05169677734375,Waiting,0.0,0.0,0.0,0.0,0.0,0.0,0.0,0.0,
5.666388999999967,0.0,0.0,false,4563894.040776028,,-2707.0,0.0,0.0,0.0,0.0,0.0,1.744384587,0.0,0.0,-2895.0,0.0,0.0,-0.0,0.0,0.0,3.6279293160000003,0.0,0.0,-3212.0,0.0,0.0,0.0,0.0,0.0,4.073485911000001,0.0,0.0,3454.0,0.0,0.0,-0.0,0.0,0.0,2.496337635,0.0,0.0,1.2100000381469727,0.5,-12.729999542236328,0.00860595703125,0.0218505859375,1.00152587890625,31.229999542236328,0.0,0.0,-0.223175048828125,0.05169677734375,Waiting,0.0,0.0,0.0,0.0,0.0,0.0,0.0,0.0,
5.732424999999989,0.0,0.0,false,4563911.588508244,,-2707.0,0.0,0.0,0.0,0.0,0.0,1.744384587,0.0,0.0,-2895.0,0.0,0.0,-0.0,0.0,0.0,3.6279293160000003,0.0,0.0,-3212.0,0.0,0.0,0.0,0.0,0.0,4.073485911000001,0.0,0.0,3454.0,0.0,0.0,-0.0,0.0,0.0,2.496337635,0.0,0.0,1.2100000381469727,0.5,-12.739999771118164,0.0093994140625,0.02081298828125,1.0054931640625,31.229999542236328,0.0,0.0,-0.223175048828125,0.05169677734375,Waiting,0.0,0.0,0.0,0.0,0.0,0.0,0.0,0.0,
5.7895849999999625,0.0,0.0,false,4563925.363344686,,-2707.0,0.0,0.0,0.0,0.0,0.0,1.744384587,0.0,0.0,-2895.0,0.0,0.0,-0.0,0.0,0.0,3.6267086130000004,0.0,0.0,-3212.0,0.0,0.0,0.0,0.0,0.0,4.073485911000001,0.0,0.0,3454.0,0.0,0.0,-0.0,0.0,0.0,2.496337635,0.0,0.0,1.2100000381469727,0.5,-12.739999771118164,0.00946044921875,0.0223388671875,1.00482177734375,31.229999542236328,0.0,0.0,-0.223175048828125,0.05169677734375,Waiting,0.0,0.0,0.0,0.0,0.0,0.0,0.0,0.0,
5.852798999999999,0.0,0.0,false,4563933.230009872,,-2707.0,0.0,0.0,0.0,0.0,0.0,1.744384587,0.0,0.0,-2895.0,0.0,0.0,-0.0,0.0,0.0,3.6279293160000003,0.0,0.0,-3212.0,0.0,0.0,0.0,0.0,0.0,4.072265208,0.0,0.0,3454.0,0.0,0.0,-0.0,0.0,0.0,2.496337635,0.0,-0.0012207029999995456,1.2100000381469727,0.5,-12.739999771118164,0.00677490234375,0.02178955078125,1.00048828125,31.229999542236328,0.0,-2.0,-0.223175048828125,0.05169677734375,Waiting,0.0,0.0,0.0,0.0,0.0,0.0,0.0,0.0,
5.90971100000001,0.0,0.0,false,4563937.325107349,,-2707.0,0.0,0.0,0.0,0.0,0.0,1.744384587,0.0,0.0,-2895.0,0.0,0.0,-0.0,0.0,0.0,3.6279293160000003,0.0,0.0,-3212.0,0.0,0.0,0.0,0.0,0.0,4.073485911000001,0.0,0.0,3454.0,0.0,0.0,-0.0,0.0,0.0,2.496337635,0.0,0.0,1.2100000381469727,0.5,-12.739999771118164,0.00738525390625,0.019287109375,1.00341796875,31.229999542236328,0.0,0.0,-0.223175048828125,0.05169677734375,Waiting,0.0,0.0,0.0,0.0,0.0,0.0,0.0,0.0,
5.9755719999999855,0.0,0.0,false,4563937.398874741,,-2707.0,0.0,0.0,0.0,0.0,0.0,1.744384587,0.0,0.0,-2895.0,0.0,0.0,-0.0,0.0,0.0,3.6279293160000003,0.0,0.0,-3212.0,0.0,0.0,0.0,0.0,0.0,4.072265208,0.0,0.0,3454.0,0.0,0.0,-0.0,0.0,0.0,2.496337635,0.0,0.0,1.2100000381469727,0.5,-12.739999771118164,0.00732421875,0.0208740234375,1.00140380859375,31.229999542236328,0.0,-1.0,-0.223175048828125,0.05169677734375,Waiting,0.0,0.0,0.0,0.0,0.0,0.0,0.0,0.0,
6.037072999999975,0.0,0.0,false,4563933.451907418,,-2707.0,0.0,0.0,0.0,0.0,0.0,1.743163884,0.0,0.0,-2895.0,0.0,0.0,-0.0,0.0,0.0,3.6279293160000003,0.0,0.0,-3212.0,0.0,0.0,0.0,0.0,0.0,4.073485911000001,0.0,0.0,3454.0,0.0,0.0,-0.0,0.0,0.0,2.496337635,0.0,0.0012207029999995456,1.2100000381469727,0.5,-12.739999771118164,0.00823974609375,0.01922607421875,1.00164794921875,31.25,0.0,0.0,-0.223175048828125,0.05169677734375,Waiting,0.0,0.0,0.0,0.0,0.0,0.0,0.0,0.0,
6.1062589999999615,0.0,0.0,false,4563923.84998026,,-2707.0,0.0,0.0,0.0,0.0,0.0,1.744384587,0.0,0.0,-2895.0,0.0,0.0,-0.0,0.0,0.0,3.6291500190000003,0.0,0.0012207029999999897,-3212.0,0.0,0.0,0.0,0.0,0.0,4.072265208,0.0,0.0,3454.0,0.0,0.0,-0.0,0.0,0.0,2.496337635,0.0,0.0,1.2100000381469727,0.5,-12.739999771118164,0.00860595703125,0.02191162109375,1.0010986328125,31.25,0.0,0.0,-0.223175048828125,0.05169677734375,Waiting,0.0,0.0,0.0,0.0,0.0,0.0,0.0,0.0,
6.1636379999999775,0.0,0.0,false,4563910.228670121,,-2707.0,0.0,0.0,0.0,0.0,0.0,1.744384587,0.0,0.0,-2895.0,0.0,0.0,-0.0,0.0,0.0,3.6279293160000003,0.0,0.0,-3212.0,0.0,0.0,0.0,0.0,0.0,4.073485911000001,0.0,0.0,3454.0,0.0,0.0,-0.0,0.0,0.0,2.497558338,0.0,0.0,1.2100000381469727,0.5,-12.739999771118164,0.0087890625,0.01788330078125,1.00006103515625,31.25,0.0,0.0,-0.223175048828125,0.05169677734375,Waiting,0.0,0.0,0.0,0.0,0.0,0.0,0.0,0.0,
6.232845999999961,0.0,0.0,false,4563892.838843383,,-2707.0,0.0,0.0,0.0,0.0,0.0,1.744384587,0.0,0.0,-2895.0,0.0,0.0,-0.0,0.0,0.0,3.6279293160000003,0.0,0.0,-3212.0,0.0,0.0,0.0,0.0,0.0,4.073485911000001,0.0,0.0012207030000004337,3454.0,0.0,0.0,-0.0,0.0,0.0,2.496337635,0.0,0.0,1.2100000381469727,0.5,-12.75,0.00762939453125,0.02288818359375,1.00146484375,31.25,0.0,-1.0,-0.223175048828125,0.05169677734375,Waiting,0.0,0.0,0.0,0.0,0.0,0.0,0.0,0.0,
6.292934999999997,0.0,0.0,false,4563869.545961415,,-2707.0,0.0,0.0,0.0,0.0,0.0,1.744384587,0.0,0.0,-2895.0,0.0,0.0,-0.0,0.0,0.0,3.6279293160000003,0.0,-0.0012207029999999897,-3212.0,0.0,0.0,0.0,0.0,0.0,4.072265208,0.0,-0.0012207030000004337,3454.0,0.0,0.0,-0.0,0.0,0.0,2.496337635,0.0,-0.0012207029999995456,1.2100000381469727,0.5,-12.75,0.01251220703125,0.02008056640625,1.00604248046875,31.25,0.0,3.0,-0.223175048828125,0.05169677734375,Waiting,0.0,0.0,0.0,0.0,0.0,0.0,0.0,0.0,
6.362883999999962,0.0,0.0,false,4563842.4858890865,,-2707.0,0.0,0.0,0.0,0.0,0.0,1.744384587,0.0,0.0,-2895.0,0.0,0.0,-0.0,0.0,0.0,3.6279293160000003,0.0,0.0,-3212.0,0.0,0.0,0.0,0.0,0.0,4.073485911000001,0.0,0.0,3454.0,0.0,0.0,-0.0,0.0,0.0,2.496337635,0.0,0.0,1.2100000381469727,0.5,-12.75,0.009765625,0.02142333984375,0.9998779296875,31.25,0.0,0.0,-0.223175048828125,0.05169677734375,Waiting,0.0,0.0,0.0,0.0,0.0,0.0,0.0,0.0,
6.434084999999962,0.0,0.0,false,4563918.12876807,,-2707.0,0.0,0.0,0.0,0.0,0.0,1.744384587,0.0,0.0,-2895.0,0.0,0.0,-0.0,0.0,0.0,3.6279293160000003,0.0,0.0,-3212.0,0.0,0.0,0.0,0.0,0.0,4.074706614,0.0,0.0,3454.0,0.0,0.0,-0.0,0.0,0.0,2.496337635,0.0,0.0012207029999995456,1.2100000381469727,0.5,-12.75,0.00897216796875,0.02069091796875,1.0013427734375,31.25,0.0,0.0,-0.223175048828125,0.05169677734375,Waiting,0.0,0.0,0.0,0.0,0.0,0.0,0.0,0.0,
6.504360999999975,0.0,0.0,false,4563989.570399606,,-2707.0,0.0,0.0,0.0,0.0,0.0,1.744384587,0.0,0.0,-2895.0,0.0,0.0,-0.0,0.0,0.0,3.6279293160000003,0.0,0.0012207029999999897,-3212.0,0.0,0.0,0.0,0.0,0.0,4.072265208,0.0,0.0012207030000004337,3454.0,0.0,0.0,-0.0,0.0,0.0,2.496337635,0.0,0.0,1.2000000476837158,0.5,-12.760000228881836,0.007568359375,0.0213623046875,0.99847412109375,31.25,0.0,-1.0,-0.223175048828125,0.05169677734375,Waiting,0.0,0.0,0.0,0.0,0.0,0.0,0.0,0.0,
6.567104999999981,0.0,0.0,false,4564056.998470722,,-2707.0,0.0,0.0,0.0,0.0,0.0,1.744384587,0.0,0.0,-2895.0,0.0,0.0,-0.0,0.0,0.0,3.6279293160000003,0.0,0.0,-3212.0,0.0,0.0,0.0,0.0,0.0,4.073485911000001,0.0,0.0,3454.0,0.0,0.0,-0.0,0.0,0.0,2.496337635,0.0,0.0,1.2000000476837158,0.5,-12.760000228881836,0.009033203125,0.021240234375,1.00433349609375,31.229999542236328,0.0,0.0,-0.223175048828125,0.05169677734375,Waiting,0.0,0.0,0.0,0.0,0.0,0.0,0.0,0.0,
6.63235699999996,0.0,0.0,false,4564120.226519337,,-2707.0,0.0,0.0,0.0,0.0,0.0,1.744384587,0.0,0.0,-2895.0,0.0,0.0,-0.0,0.0,0.0,3.6279293160000003,0.0,0.0,-3212.0,0.0,0.0,0.0,0.0,0.0,4.073485911000001,0.0,0.0,3454.0,0.0,0.0,-0.0,0.0,0.0,2.496337635,0.0,0.0,1.190000057220459,0.49000000953674316,-12.760000228881836,0.00994873046875,0.02105712890625,0.999267578125,31.229999542236328,0.0,1.0,-0.223175048828125,0.05169677734375,Waiting,0.0,0.0,0.0,0.0,0.0,0.0,0.0,0.0,
6.692883999999962,0.0,0.0,false,4564179.255166971,,-2707.0,0.0,0.0,0.0,0.0,0.0,1.744384587,0.0,0.0,-2895.0,0.0,0.0,-0.0,0.0,0.0,3.6279293160000003,0.0,-0.0012207029999999897,-3212.0,0.0,0.0,0.0,0.0,0.0,4.073485911000001,0.0,0.0,3454.0,0.0,0.0,-0.0,0.0,0.0,2.496337635,0.0,0.0,1.190000057220459,0.49000000953674316,-12.760000228881836,0.00927734375,0.02239990234375,0.9993896484375,31.229999542236328,0.0,0.0,-0.223175048828125,0.05169677734375,Waiting,0.0,0.0,0.0,0.0,0.0,0.0,0.0,0.0,
6.754076000000001,0.0,0.0,false,4564234.0850350205,,-2707.0,0.0,0.0,0.0,0.0,0.0,1.744384587,0.0,0.0,-2895.0,0.0,0.0,-0.0,0.0,0.0,3.6279293160000003,0.0,0.0,-3212.0,0.0,0.0,0.0,0.0,0.0,4.072265208,0.0,0.0,3454.0,0.0,0.0,-0.0,0.0,0.0,2.496337635,0.0,0.0,1.2000000476837158,0.5,-12.760000228881836,0.00872802734375,0.01861572265625,0.99591064453125,31.229999542236328,0.0,0.0,-0.223175048828125,0.05169677734375,Waiting,0.0,0.0,0.0,0.0,0.0,0.0,0.0,0.0,
6.814197999999974,0.0,0.0,false,4564282.900912453,,-2707.0,0.0,0.0,0.0,0.0,0.0,1.744384587,0.0,0.0,-2895.0,0.0,0.0,-0.0,0.0,0.0,3.6267086130000004,0.0,0.0,-3212.0,0.0,0.0,0.0,0.0,0.0,4.072265208,0.0,0.0,3454.0,0.0,0.0,-0.0,0.0,0.0,2.496337635,0.0,-0.0012207029999995456,1.190000057220459,0.5,-12.760000228881836,0.01190185546875,0.0194091796875,1.00665283203125,31.229999542236328,0.0,3.0,-0.223175048828125,0.05169677734375,Waiting,0.0,0.0,0.0,0.0,0.0,0.0,0.0,0.0,
6.889535999999963,0.0,0.0,false,4564327.519431841,,-2707.0,0.0,0.0,0.0,0.0,0.0,1.743163884,0.0,0.0,-2895.0,0.0,0.0,-0.0,0.0,0.0,3.6291500190000003,0.0,0.0012207029999999897,-3212.0,0.0,0.0,0.0,0.0,0.0,4.073485911000001,0.0,0.0012207030000004337,3454.0,0.0,0.0,-0.0,0.0,0.0,2.496337635,0.0,0.0012207029999995456,1.190000057220459,0.49000000953674316,-12.760000228881836,0.012939453125,0.021728515625,1.0013427734375,31.229999542236328,0.0,3.0,-0.223175048828125,0.05169677734375,Waiting,0.0,0.0,0.0,0.0,0.0,0.0,0.0,0.0,
6.954316999999981,0.0,0.0,false,4564367.941214183,,-2707.0,0.0,0.0,0.0,0.0,0.0,1.744384587,0.0,0.0,-2895.0,0.0,0.0,-0.0,0.0,0.0,3.6267086130000004,0.0,-0.0012207029999999897,-3212.0,0.0,0.0,0.0,0.0,0.0,4.073485911000001,0.0,-0.0012207030000004337,3454.0,0.0,0.0,-0.0,0.0,0.0,2.497558338,0.0,-0.0012207029999995456,1.190000057220459,0.5,-12.760000228881836,0.00787353515625,0.02130126953125,1.00457763671875,31.229999542236328,0.0,-1.0,-0.223175048828125,0.05169677734375,Waiting,0.0,0.0,0.0,0.0,0.0,0.0,0.0,0.0,
7.021511999999988,0.0,0.0,false,4564404.166880363,,-2707.0,0.0,0.0,0.0,0.0,0.0,1.744384587,0.0,0.0,-2895.0,0.0,0.0,-0.0,0.0,0.0,3.6267086130000004,0.0,0.0,-3212.0,0.0,0.0,0.0,0.0,0.0,4.073485911000001,0.0,0.0,3454.0,0.0,0.0,-0.0,0.0,0.0,2.496337635,0.0,0.0,1.190000057220459,0.5,-12.760000228881836,0.00933837890625,0.02252197265625,0.998291015625,31.229999542236328,0.0,0.0,-0.223175048828125,0.05169677734375,Waiting,0.0,0.0,0.0,0.0,0.0,0.0,0.0,0.0,
7.094730999999971,0.0,0.0,false,4564436.384042606,,-2707.0,0.0,0.0,0.0,0.0,0.0,1.744384587,0.0,0.0,-2895.0,0.0,0.0,-0.0,0.0,0.0,3.6279293160000003,0.0,-0.0012207029999999897,-3212.0,0.0,0.0,0.0,0.0,0.0,4.073485911000001,0.0,0.0,3454.0,0.0,0.0,-0.0,0.0,0.0,2.496337635,0.0,-0.0012207029999995456,1.190000057220459,0.5,-12.760000228881836,0.00616455078125,0.0206298828125,0.99713134765625,31.239999771118164,0.0,-2.0,-0.223175048828125,0.05169677734375,Waiting,0.0,0.0,0.0,0.0,0.0,0.0,0.0,0.0,
7.166303000000014,0.0,0.0,false,4564462.403944774,,-2707.0,0.0,0.0,0.0,0.0,0.0,1.744384587,0.0,0.0,-2895.0,0.0,0.0,-0.0,0.0,0.0,3.6279293160000003,0.0,0.0012207029999999897,-3212.0,0.0,0.0,0.0,0.0,0.0,4.0759273170000005,0.0,0.0,3454.0,0.0,0.0,-0.0,0.0,0.0,2.496337635,0.0,0.0012207029999995456,1.190000057220459,0.5,-12.760000228881836,0.0079345703125,0.0198974609375,1.0020751953125,31.239999771118164,0.0,0.0,-0.223175048828125,0.05169677734375,Waiting,0.0,0.0,0.0,0.0,0.0,0.0,0.0,0.0,
7.2349890000000014,0.0,0.0,false,4564484.229771707,,-2707.0,0.0,0.0,0.0,0.0,0.0,1.744384587,0.0,0.0,-2895.0,0.0,0.0,-0.0,0.0,0.0,3.6279293160000003,0.0,-0.0012207029999999897,-3212.0,0.0,0.0,0.0,0.0,0.0,4.072265208,0.0,0.0,3454.0,0.0,0.0,-0.0,0.0,0.0,2.496337635,0.0,-0.0012207029999995456,1.190000057220459,0.5,-12.760000228881836,0.00909423828125,0.0189208984375,1.003662109375,31.239999771118164,0.0,0.0,-0.223175048828125,0.05169677734375,Waiting,0.0,0.0,0.0,0.0,0.0,0.0,0.0,0.0,
7.307757999999972,0.0,0.0,false,4564501.862143773,,-2707.0,0.0,0.0,0.0,0.0,0.0,1.744384587,0.0,0.0,-2895.0,0.0,0.0,-0.0,0.0,0.0,3.6291500190000003,0.0,0.0012207029999999897,-3212.0,0.0,0.0,0.0,0.0,0.0,4.074706614,0.0,0.0,3454.0,0.0,0.0,-0.0,0.0,0.0,2.497558338,0.0,0.0012207029999995456,1.190000057220459,0.5,-12.760000228881836,0.00946044921875,0.0224609375,1.00384521484375,31.239999771118164,0.0,0.0,-0.223175048828125,0.05169677734375,Waiting,0.0,0.0,0.0,0.0,0.0,0.0,0.0,0.0,
7.383693999999959,0.0,0.0,false,4564515.301681211,,-2707.0,0.0,0.0,0.0,0.0,0.0,1.743163884,0.0,0.0,-2895.0,0.0,0.0,-0.0,0.0,0.0,3.6279293160000003,0.0,0.0,-3212.0,0.0,0.0,0.0,0.0,0.0,4.073485911000001,0.0,0.0,3454.0,0.0,0.0,-0.0,0.0,0.0,2.496337635,0.0,0.0,1.190000057220459,0.49000000953674316,-12.760000228881836,0.006591796875,0.0196533203125,1.002197265625,31.239999771118164,0.0,-1.0,-0.223175048828125,0.05169677734375,Waiting,0.0,0.0,0.0,0.0,0.0,0.0,0.0,0.0,
7.462024999999965,0.0,0.0,false,4564522.547032144,,-2707.0,0.0,0.0,0.0,0.0,0.0,1.743163884,0.0,0.0,-2895.0,0.0,0.0,-0.0,0.0,0.0,3.6291500190000003,0.0,0.0012207029999999897,-3212.0,0.0,0.0,0.0,0.0,0.0,4.072265208,0.0,0.0,3454.0,0.0,0.0,-0.0,0.0,0.0,2.496337635,0.0,0.0,1.190000057220459,0.49000000953674316,-12.760000228881836,0.008544921875,0.02056884765625,1.0020751953125,31.239999771118164,0.0,0.0,-0.223175048828125,0.05169677734375,Waiting,0.0,0.0,0.0,0.0,0.0,0.0,0.0,0.0,
7.533863000000012,0.0,0.0,false,4564525.60098595,,-2707.0,0.0,0.0,0.0,0.0,0.0,1.744384587,0.0,0.0,-2895.0,0.0,0.0,-0.0,0.0,0.0,3.6291500190000003,0.0,0.0,-3212.0,0.0,0.0,0.0,0.0,0.0,4.074706614,0.0,0.0,3454.0,0.0,0.0,-0.0,0.0,0.0,2.496337635,0.0,-0.0012207029999995456,1.2000000476837158,0.5,-12.760000228881836,0.01043701171875,0.0218505859375,1.0023193359375,31.239999771118164,0.0,1.0,-0.223175048828125,0.05169677734375,Waiting,0.0,0.0,0.0,0.0,0.0,0.0,0.0,0.0,
7.6075709999999965,0.0,0.0,false,4564524.6510894215,,-2707.0,0.0,0.0,0.0,0.0,0.0,1.744384587,0.0,0.0,-2895.0,0.0,0.0,-0.0,0.0,0.0,3.6279293160000003,0.0,0.0012207029999999897,-3212.0,0.0,0.0,0.0,0.0,0.0,4.072265208,0.0,0.0,3454.0,0.0,0.0,-0.0,0.0,0.0,2.496337635,0.0,0.0012207029999995456,1.190000057220459,0.49000000953674316,-12.760000228881836,0.01177978515625,0.01983642578125,1.0035400390625,31.270000457763672,0.0,3.0,-0.223175048828125,0.05169677734375,Waiting,0.0,0.0,0.0,0.0,0.0,0.0,0.0,0.0,
7.668452999999979,0.0,0.0,false,4564517.509340957,,-2707.0,0.0,0.0,0.0,0.0,0.0,1.744384587,0.0,0.0,-2895.0,0.0,0.0,-0.0,0.0,0.0,3.6279293160000003,0.0,-0.0012207029999999897,-3212.0,0.0,0.0,0.0,0.0,0.0,4.073485911000001,0.0,0.0,3454.0,0.0,0.0,-0.0,0.0,0.0,2.496337635,0.0,0.0,1.190000057220459,0.49000000953674316,-12.760000228881836,0.0087890625,0.0194091796875,1.002685546875,31.270000457763672,0.0,0.0,-0.223175048828125,0.05169677734375,Waiting,0.0,0.0,0.0,0.0,0.0,0.0,0.0,0.0,
7.744575000000012,0.0,0.0,false,4564506.178233438,,-2707.0,0.0,0.0,0.0,0.0,0.0,1.744384587,0.0,0.0,-2895.0,0.0,0.0,-0.0,0.0,0.0,3.6279293160000003,0.0,0.0012207029999999897,-3212.0,0.0,0.0,0.0,0.0,0.0,4.073485911000001,0.0,0.0,3454.0,0.0,0.0,-0.0,0.0,0.0,2.497558338,0.0,0.0012207029999995456,1.190000057220459,0.49000000953674316,-12.760000228881836,0.0086669921875,0.01947021484375,1.0029296875,31.270000457763672,0.0,0.0,-0.223175048828125,0.05169677734375,Waiting,0.0,0.0,0.0,0.0,0.0,0.0,0.0,0.0,
7.8094649999999675,0.0,0.0,false,4564490.658386318,,-2707.0,0.0,0.0,0.0,0.0,0.0,1.744384587,0.0,0.0,-2895.0,0.0,0.0,-0.0,0.0,0.0,3.6279293160000003,0.0,-0.0012207029999999897,-3212.0,0.0,0.0,0.0,0.0,0.0,4.072265208,0.0,0.0,3454.0,0.0,0.0,-0.0,0.0,0.0,2.496337635,0.0,0.0,1.190000057220459,0.49000000953674316,-12.760000228881836,0.01141357421875,0.02154541015625,1.0003662109375,31.270000457763672,0.0,2.0,-0.223175048828125,0.05169677734375,Waiting,0.0,0.0,0.0,0.0,0.0,0.0,0.0,0.0,
7.882372999999963,0.0,0.0,false,4564470.950418926,,-2707.0,0.0,0.0,0.0,0.0,0.0,1.744384587,0.0,0.0,-2895.0,0.0,0.0,-0.0,0.0,0.0,3.6279293160000003,0.0,0.0012207029999999897,-3212.0,0.0,0.0,0.0,0.0,0.0,4.072265208,0.0,0.0,3454.0,0.0,0.0,-0.0,0.0,0.0,2.496337635,0.0,0.0,1.190000057220459,0.5,-12.760000228881836,0.01031494140625,0.02197265625,0.99957275390625,31.270000457763672,0.0,1.0,-0.223175048828125,0.05169677734375,Waiting,0.0,0.0,0.0,0.0,0.0,0.0,0.0,0.0,
7.952277000000002,0.0,0.0,false,4564447.241831354,,-2707.0,0.0,0.0,0.0,0.0,0.0,1.744384587,0.0,0.0,-2895.0,0.0,0.0,-0.0,0.0,0.0,3.6279293160000003,0.0,-0.0012207029999999897,-3212.0,0.0,0.0,0.0,0.0,0.0,4.073485911000001,0.0,0.0,3454.0,0.0,0.0,-0.0,0.0,0.0,2.496337635,0.0,-0.0012207029999995456,1.190000057220459,0.49000000953674316,-12.760000228881836,0.0078125,0.01715087890625,1.00286865234375,31.270000457763672,0.0,0.0,-0.223175048828125,0.05169677734375,Waiting,0.0,0.0,0.0,0.0,0.0,0.0,0.0,0.0,
8.016515000000014,0.0,0.0,false,4564417.556475459,,-2707.0,0.0,0.0,0.0,0.0,0.0,1.744384587,0.0,0.0,-2895.0,0.0,0.0,-0.0,0.0,0.0,3.6279293160000003,0.0,0.0012207029999999897,-3212.0,0.0,0.0,0.0,0.0,0.0,4.073485911000001,0.0,0.0,3454.0,0.0,0.0,-0.0,0.0,0.0,2.496337635,0.0,0.0,1.1799999475479126,0.5,-12.760000228881836,0.00750732421875,0.021240234375,0.99774169921875,31.270000457763672,0.0,-1.0,-0.223175048828125,0.05169677734375,Waiting,0.0,0.0,0.0,0.0,0.0,0.0,0.0,0.0,
8.09956799999997,0.0,0.0,false,4564492.86039521,,-2707.0,0.0,0.0,0.0,0.0,0.0,1.744384587,0.0,0.0,-2895.0,0.0,0.0,-0.0,0.0,0.0,3.6279293160000003,0.0,0.0,-3212.0,0.0,0.0,0.0,0.0,0.0,4.073485911000001,0.0,0.0,3454.0,0.0,0.0,-0.0,0.0,0.0,2.496337635,0.0,0.0,1.1799999475479126,0.5,-12.770000457763672,0.01153564453125,0.0228271484375,1.0032958984375,31.260000228881836,0.0,2.0,-0.223175048828125,0.05169677734375,Waiting,0.0,0.0,0.0,0.0,0.0,0.0,0.0,0.0,
8.170056999999971,0.0,0.0,false,4564563.895535626,,-2707.0,0.0,0.0,0.0,0.0,0.0,1.744384587,0.0,0.0,-2895.0,0.0,0.0,-0.0,0.0,0.0,3.6291500190000003,0.0,0.0,-3212.0,0.0,0.0,0.0,0.0,0.0,4.073485911000001,0.0,0.0,3454.0,0.0,0.0,-0.0,0.0,0.0,2.496337635,0.0,0.0,1.1799999475479126,0.5,-12.760000228881836,0.0086669921875,0.02197265625,1.0047607421875,31.260000228881836,0.0,0.0,-0.223175048828125,0.05169677734375,Waiting,0.0,0.0,0.0,0.0,0.0,0.0,0.0,0.0,
8.248793999999995,0.0,0.0,false,4564630.656220744,,-2707.0,0.0,0.0,0.0,0.0,0.0,1.744384587,0.0,0.0,-2895.0,0.0,0.0,-0.0,0.0,0.0,3.6279293160000003,0.0,0.0,-3212.0,0.0,0.0,0.0,0.0,0.0,4.073485911000001,0.0,0.0,3454.0,0.0,0.0,-0.0,0.0,0.0,2.496337635,0.0,0.0,1.190000057220459,0.5,-12.770000457763672,0.00714111328125,0.0179443359375,0.99737548828125,31.260000228881836,0.0,-1.0,-0.223175048828125,0.05169677734375,Waiting,0.0,0.0,0.0,0.0,0.0,0.0,0.0,0.0,
8.312974999999977,0.0,0.0,false,4564693.1493890425,,-2707.0,0.0,0.0,0.0,0.0,0.0,1.743163884,0.0,0.0,-2895.0,0.0,0.0,-0.0,0.0,0.0,3.6291500190000003,0.0,-0.0012207029999999897,-3212.0,0.0,0.0,0.0,0.0,0.0,4.073485911000001,0.0,0.0,3454.0,0.0,0.0,-0.0,0.0,0.0,2.496337635,0.0,0.0,1.190000057220459,0.5,-12.770000457763672,0.00836181640625,0.0184326171875,0.9993896484375,31.260000228881836,0.0,0.0,-0.223175048828125,0.05169677734375,Waiting,0.0,0.0,0.0,0.0,0.0,0.0,0.0,0.0,
