Time,ClimberA1,ClimberA2,CameraExists,HeapSpace,LoopTime,FRpos,FRCurrent,FRspeed,FRsetpoint,FRApos,FRACurrent,FREncpos,FREncSetpoint,FREncSpeed,FLpos,FLCurrent,FLspeed,FLsetpoint,FLApos,FLACurrent,FLEncpos,FLEncSetpoint,FLEncSpeed,BRpos,BRCurrent,BRspeed,BRsetpoint,BRApos,BRACurrent,BREncpos,BREncSetpoint,BREncSpeed,BLpos,BLCurrent,BLspeed,BLsetpoint,BLApos,BLACurrent,BLEncpos,BLEncSetpoint,BLEncSpeed,navx_Pitch,navx_Roll,navx_Yaw,navx_XAcc,navx_YAcc,navx_ZAcc,navx_Temp,navx_Bar,navx_Alt,navx_XDis,navx_YDis,GearPlacerState,ShootOutputV,ShootOutputCurrent,ShootEncPos,ShootEncVelocity,ShootSpeed,ShootSetpoint,CarouselSetpoint,CarouselCurrent,
0.24145199999999023,0.0,0.0,false,4548011.0309607405,,0.0,0.0,0.0,0.0,0.0,0.0,1.744384587,0.0,0.0,1.0,0.0,0.0,-0.0,0.0,0.0,3.594970335,0.0,-0.0012207029999995456,0.0,0.0,0.0,0.0,0.0,0.0,4.112548407,0.0,0.0,0.0,0.0,0.0,-0.0,0.0,0.0,2.4877927140000002,0.0,0.0,1.149999976158142,0.49000000953674316,-11.949999809265137,-0.019287109375,0.055908203125,0.967529296875,29.8799991607666,0.0,-34.0,-0.1388397216796875,0.06524658203125,Waiting,0.0,0.0,0.0,0.0,0.0,0.0,0.0,0.0,
0.3117949999999837,0.0,0.0,false,4548018.425635134,,0.0,0.0,0.0,0.0,0.0,0.0,1.744384587,0.0,0.0,1.0,0.0,0.0,-0.0,0.0,0.0,3.594970335,0.0,0.0,0.0,0.0,0.0,0.0,0.0,0.0,4.111327704,0.0,0.0,0.0,0.0,0.0,-0.0,0.0,0.0,2.4865720110000002,0.0,0.0,1.149999976158142,0.49000000953674316,-11.949999809265137,-0.016357421875,0.0631103515625,0.97772216796875,29.8799991607666,0.0,-33.0,-0.1396331787109375,0.065765380859375,Waiting,0.0,0.0,0.0,0.0,0.0,0.0,0.0,0.0,
0.3693549999999814,0.0,0.0,false,4548021.259462564,,0.0,0.0,0.0,0.0,0.0,0.0,1.74560529,0.0,0.0,1.0,0.0,0.0,-0.0,0.0,0.0,3.594970335,0.0,0.0,0.0,0.0,0.0,0.0,0.0,0.0,4.111327704,0.0,0.0,0.0,0.0,0.0,-0.0,0.0,0.0,2.4877927140000002,0.0,0.0,1.159999966621399,0.47999998927116394,-11.949999809265137,0.02392578125,0.02001953125,1.02734375,29.8799991607666,0.0,15.0,-0.140625,0.0662689208984375,Waiting,0.0,0.0,0.0,0.0,0.0,0.0,0.0,0.0,
0.41441499999997905,0.0,0.0,false,4548019.533316313,,0.0,0.0,0.0,0.0,0.0,0.0,1.743163884,0.0,0.0,1.0,0.0,0.0,-0.0,0.0,0.0,3.594970335,0.0,0.0,0.0,0.0,0.0,0.0,0.0,0.0,4.112548407,0.0,0.0,0.0,0.0,0.0,-0.0,0.0,0.0,2.4865720110000002,0.0,0.0,1.159999966621399,0.4699999988079071,-11.949999809265137,0.04144287109375,-0.023193359375,1.0489501953125,29.899999618530273,0.0,41.0,-0.1416473388671875,0.0660858154296875,Waiting,0.0,0.0,0.0,0.0,0.0,0.0,0.0,0.0,
0.4605449999999837,0.0,0.0,false,4548013.248069436,,0.0,0.0,0.0,0.0,0.0,0.0,1.744384587,0.0,0.0,1.0,0.0,0.0,-0.0,0.0,0.0,3.594970335,0.0,0.0,0.0,0.0,0.0,0.0,0.0,0.0,4.112548407,0.0,0.0,0.0,0.0,0.0,-0.0,0.0,0.0,2.4865720110000002,0.0,0.0,1.1699999570846558,0.47999998927116394,-11.949999809265137,0.0330810546875,-0.0068359375,1.0078125,29.899999618530273,0.0,29.0,-0.141876220703125,0.0655364990234375,Waiting,0.0,0.0,0.0,0.0,0.0,0.0,0.0,0.0,
0.5105910000000149,0.0,0.0,false,4548002.404594767,,0.0,0.0,0.0,0.0,0.0,0.0,1.744384587,0.0,0.0,1.0,0.0,0.0,-0.0,0.0,0.0,3.596191038,0.0,0.0,0.0,0.0,0.0,0.0,0.0,0.0,4.112548407,0.0,0.0,0.0,0.0,0.0,-0.0,0.0,0.0,2.4877927140000002,0.0,0.0,1.159999966621399,0.47999998927116394,-11.949999809265137,-0.01568603515625,0.02008056640625,0.96868896484375,29.899999618530273,0.0,-23.0,-0.1418304443359375,0.0652923583984375,Waiting,0.0,0.0,0.0,0.0,0.0,0.0,0.0,0.0,
0.5589720000000088,0.0,0.0,false,4547987.003764916,,0.0,0.0,0.0,0.0,0.0,0.0,1.744384587,0.0,0.0,1.0,0.0,0.0,-0.0,0.0,0.0,3.594970335,0.0,0.0012207029999995456,0.0,0.0,0.0,0.0,0.0,0.0,4.110107001,0.0,0.0,0.0,0.0,0.0,-0.0,0.0,0.0,2.4865720110000002,0.0,0.0,1.159999966621399,0.47999998927116394,-11.949999809265137,-0.03375244140625,0.05157470703125,0.966796875,29.899999618530273,0.0,-47.0,-0.14208984375,0.0654449462890625,Waiting,0.0,0.0,0.0,0.0,0.0,0.0,0.0,0.0,
0.6096389999999665,0.0,0.0,false,4547967.046452272,,0.0,0.0,0.0,0.0,0.0,0.0,1.744384587,0.0,0.0,1.0,0.0,0.0,-0.0,0.0,0.0,3.594970335,0.0,-0.0012207029999995456,0.0,0.0,0.0,0.0,0.0,0.0,4.112548407,0.0,0.0,0.0,0.0,0.0,-0.0,0.0,0.0,2.4865720110000002,0.0,0.0,1.159999966621399,0.4699999988079071,-11.949999809265137,0.00946044921875,0.025390625,1.008544921875,29.899999618530273,0.0,0.0,-0.14324951171875,0.06610107421875,Waiting,0.0,0.0,0.0,0.0,0.0,0.0,0.0,0.0,
0.6546059999999707,0.0,0.0,false,4547942.5335289985,,0.0,0.0,0.0,0.0,0.0,0.0,1.744384587,0.0,0.0,1.0,0.0,0.0,-0.0,0.0,0.0,3.594970335,0.0,0.0,0.0,0.0,0.0,0.0,0.0,0.0,4.112548407,0.0,0.0,0.0,0.0,0.0,-0.0,0.0,0.0,2.4865720110000002,0.0,0.0,1.1699999570846558,0.4699999988079071,-11.949999809265137,0.03216552734375,-0.0147705078125,1.03240966796875,29.899999618530273,0.0,30.0,-0.1440887451171875,0.066070556640625,Waiting,0.0,0.0,0.0,0.0,0.0,0.0,0.0,0.0,
0.7057469999999739,0.0,0.0,false,4547913.465867041,,0.0,0.0,0.0,0.0,0.0,0.0,1.744384587,0.0,0.0,1.0,0.0,0.0,-0.0,0.0,0.0,3.594970335,0.0,0.0,0.0,0.0,0.0,0.0,0.0,0.0,4.110107001,0.0,0.0,0.0,0.0,0.0,-0.0,0.0,0.0,2.4865720110000002,0.0,0.0,1.1699999570846558,0.4699999988079071,-11.949999809265137,0.04693603515625,-0.00701904296875,1.031494140625,29.899999618530273,0.0,43.0,-0.1444244384765625,0.0657501220703125,Waiting,0.0,0.0,0.0,0.0,0.0,0.0,0.0,0.0,
0.7501989999999641,0.0,0.0,false,4547879.844338118,,0.0,0.0,0.0,0.0,0.0,0.0,1.744384587,0.0,0.0,1.0,0.0,0.0,-0.0,0.0,0.0,3.594970335,0.0,0.0,0.0,0.0,0.0,0.0,0.0,0.0,4.111327704,0.0,0.0,0.0,0.0,0.0,-0.0,0.0,0.0,2.4865720110000002,0.0,0.0,1.1699999570846558,0.47999998927116394,-11.949999809265137,-6.103515625E-5,0.00994873046875,0.97698974609375,29.899999618530273,0.0,-6.0,-0.1443634033203125,0.065582275390625,Waiting,0.0,0.0,0.0,0.0,0.0,0.0,0.0,0.0,
0.7941639999999898,0.0,0.0,false,4547841.669813728,,0.0,0.0,0.0,0.0,0.0,0.0,1.744384587,0.0,0.0,1.0,0.0,0.0,-0.0,0.0,0.0,3.593749632,0.0,0.0012207029999995456,0.0,0.0,0.0,0.0,0.0,0.0,4.111327704,0.0,0.0,0.0,0.0,0.0,-0.0,0.0,0.0,2.4865720110000002,0.0,0.0,1.159999966621399,0.47999998927116394,-11.949999809265137,-0.04144287109375,0.05523681640625,0.97027587890625,29.899999618530273,0.0,-55.0,-0.1445159912109375,0.0656585693359375,Waiting,0.0,0.0,0.0,0.0,0.0,0.0,0.0,0.0,
0.8453859999999986,0.0,0.0,false,4547798.943165147,,0.0,0.0,0.0,0.0,0.0,0.0,1.744384587,0.0,0.0,1.0,0.0,0.0,-0.0,0.0,0.0,3.594970335,0.0,-0.0012207029999995456,0.0,0.0,0.0,0.0,0.0,0.0,4.112548407,0.0,0.0,0.0,0.0,0.0,-0.0,0.0,0.0,2.4865720110000002,0.0,0.0,1.159999966621399,0.4699999988079071,-11.949999809265137,-0.0103759765625,0.052734375,0.98583984375,29.899999618530273,0.0,-24.0,-0.145294189453125,0.0660247802734375,Waiting,0.0,0.0,0.0,0.0,0.0,0.0,0.0,0.0,
0.8915499999999884,0.0,0.0,false,4547751.6652634265,,0.0,0.0,0.0,0.0,0.0,0.0,1.744384587,0.0,0.0,1.0,0.0,0.0,-0.0,0.0,0.0,3.594970335,0.0,0.0,0.0,0.0,0.0,0.0,0.0,0.0,4.112548407,0.0,0.0,0.0,0.0,0.0,-0.0,0.0,0.0,2.4865720110000002,0.0,0.0,1.1699999570846558,0.4699999988079071,-11.949999809265137,0.03436279296875,-0.013427734375,1.04913330078125,29.899999618530273,0.0,32.0,-0.1455230712890625,0.066375732421875,Waiting,0.0,0.0,0.0,0.0,0.0,0.0,0.0,0.0,
0.9395709999999963,0.0,0.0,false,4547699.836979399,,0.0,0.0,0.0,0.0,0.0,0.0,1.744384587,0.0,0.0,1.0,0.0,0.0,-0.0,0.0,0.0,3.594970335,0.0,0.0,0.0,0.0,0.0,0.0,0.0,0.0,4.112548407,0.0,0.0,0.0,0.0,0.0,-0.0,0.0,0.0,2.4865720110000002,0.0,0.0,1.1699999570846558,0.4699999988079071,-11.949999809265137,0.04376220703125,-0.00262451171875,1.02740478515625,29.899999618530273,0.0,39.0,-0.144927978515625,0.066070556640625,Waiting,0.0,0.0,0.0,0.0,0.0,0.0,0.0,0.0,
0.9877660000000033,0.0,0.0,false,4547643.458163265,,0.0,0.0,0.0,0.0,0.0,0.0,1.744384587,0.0,0.0,1.0,0.0,0.0,-0.0,0.0,0.0,3.594970335,0.0,0.0,0.0,0.0,0.0,0.0,0.0,0.0,4.112548407,0.0,0.0,0.0,0.0,0.0,-0.0,0.0,0.0,2.4877927140000002,0.0,0.0,1.1699999570846558,0.4699999988079071,-11.949999809265137,-0.0079345703125,0.01220703125,0.983154296875,29.899999618530273,0.0,-14.0,-0.1443023681640625,0.06591796875,Waiting,0.0,0.0,0.0,0.0,0.0,0.0,0.0,0.0,
1.03399099999998,0.0,0.0,false,4547582.399081691,,0.0,0.0,0.0,0.0,0.0,0.0,1.744384587,0.0,0.0,1.0,0.0,0.0,-0.0,0.0,0.0,3.594970335,0.0,0.0,0.0,0.0,0.0,0.0,0.0,0.0,4.111327704,0.0,0.0,0.0,0.0,0.0,-0.0,0.0,0.0,2.4865720110000002,0.0,0.0,1.159999966621399,0.47999998927116394,-11.949999809265137,-0.041259765625,0.05206298828125,0.96722412109375,29.899999618530273,0.0,-55.0,-0.1446075439453125,0.0659942626953125,Waiting,0.0,0.0,0.0,0.0,0.0,0.0,0.0,0.0,
1.0882419999999693,0.0,0.0,false,4547514.502231858,,0.0,0.0,0.0,0.0,0.0,0.0,1.744384587,0.0,0.0,1.0,0.0,0.0,-0.0,0.0,0.0,3.594970335,0.0,0.0012207029999995456,0.0,0.0,0.0,0.0,0.0,0.0,4.111327704,0.0,0.0,0.0,0.0,0.0,-0.0,0.0,0.0,2.4865720110000002,0.0,0.0,1.159999966621399,0.47999998927116394,-11.949999809265137,0.02374267578125,0.02398681640625,1.010009765625,29.899999618530273,0.0,14.0,-0.14581298828125,0.0663299560546875,Waiting,0.0,0.0,0.0,0.0,0.0,0.0,0.0,0.0,
1.1349610000000103,0.0,0.0,false,4547442.058789772,,0.0,0.0,0.0,0.0,0.0,0.0,1.744384587,0.0,0.0,1.0,0.0,0.0,-0.0,0.0,0.0,3.594970335,0.0,0.0,0.0,0.0,0.0,0.0,0.0,0.0,4.112548407,0.0,0.0,0.0,0.0,0.0,-0.0,0.0,0.0,2.4877927140000002,0.0,0.0,1.1699999570846558,0.4699999988079071,-11.949999809265137,0.04034423828125,-0.01910400390625,1.0513916015625,29.899999618530273,0.0,39.0,-0.146575927734375,0.0662994384765625,Waiting,0.0,0.0,0.0,0.0,0.0,0.0,0.0,0.0,
1.1855519999999669,0.0,0.0,false,4547365.069625095,,0.0,0.0,0.0,0.0,0.0,0.0,1.744384587,0.0,0.0,1.0,0.0,0.0,-0.0,0.0,0.0,3.594970335,0.0,0.0,0.0,0.0,0.0,0.0,0.0,0.0,4.112548407,0.0,0.0,0.0,0.0,0.0,-0.0,0.0,0.0,2.4865720110000002,0.0,0.0,1.1699999570846558,0.4699999988079071,-11.949999809265137,0.0291748046875,0.0074462890625,1.00970458984375,29.899999618530273,0.0,23.0,-0.1468505859375,0.0661163330078125,Waiting,0.0,0.0,0.0,0.0,0.0,0.0,0.0,0.0,
1.2320819999999948,0.0,0.0,false,4547283.535607268,,0.0,0.0,0.0,0.0,0.0,0.0,1.744384587,0.0,0.0,1.0,0.0,0.0,-0.0,0.0,0.0,3.593749632,0.0,0.0,0.0,0.0,0.0,0.0,0.0,0.0,4.111327704,0.0,0.0,0.0,0.0,0.0,-0.0,0.0,0.0,2.4865720110000002,0.0,0.0,1.159999966621399,0.4699999988079071,-11.949999809265137,-0.0303955078125,0.03558349609375,0.97796630859375,29.899999618530273,0.0,-40.0,-0.14691162109375,0.0661163330078125,Waiting,0.0,0.0,0.0,0.0,0.0,0.0,0.0,0.0,
1.281012999999977,0.0,0.0,false,4547195.904118322,,0.0,0.0,0.0,0.0,0.0,0.0,1.743163884,0.0,0.0,1.0,0.0,0.0,-0.0,0.0,0.0,3.594970335,0.0,0.0,0.0,0.0,0.0,0.0,0.0,0.0,4.111327704,0.0,0.0,0.0,0.0,0.0,-0.0,0.0,0.0,2.4865720110000002,0.0,0.0,1.149999976158142,0.47999998927116394,-11.949999809265137,-0.03607177734375,0.0540771484375,0.97125244140625,29.899999618530273,0.0,-50.0,-0.147430419921875,0.066253662109375,Waiting,0.0,0.0,0.0,0.0,0.0,0.0,0.0,0.0,
1.3303289999999688,0.0,0.0,false,4547103.729712501,,0.0,0.0,0.0,0.0,0.0,0.0,1.743163884,0.0,0.0,1.0,0.0,0.0,-0.0,0.0,0.0,3.594970335,0.0,0.0,0.0,0.0,0.0,0.0,0.0,0.0,4.112548407,0.0,0.0,0.0,0.0,0.0,-0.0,0.0,0.0,2.4865720110000002,0.0,0.0,1.1699999570846558,0.4699999988079071,-11.949999809265137,0.04376220703125,0.00811767578125,1.03765869140625,29.899999618530273,0.0,37.0,-0.1485748291015625,0.066497802734375,Waiting,0.0,0.0,0.0,0.0,0.0,0.0,0.0,0.0,
1.375761999999988,0.0,0.0,false,4547007.013258542,,0.0,0.0,0.0,0.0,0.0,0.0,1.744384587,0.0,0.0,1.0,0.0,0.0,-0.0,0.0,0.0,3.594970335,0.0,0.0,0.0,0.0,0.0,0.0,0.0,0.0,4.111327704,0.0,0.0,0.0,0.0,0.0,-0.0,0.0,0.0,2.4877927140000002,0.0,0.0,1.1699999570846558,0.46000000834465027,-11.949999809265137,0.04766845703125,-0.0030517578125,1.05303955078125,29.899999618530273,0.0,43.0,-0.1490020751953125,0.066314697265625,Waiting,0.0,0.0,0.0,0.0,0.0,0.0,0.0,0.0,
1.428396000000008,0.0,0.0,false,4546905.75562496,,0.0,0.0,0.0,0.0,0.0,0.0,1.744384587,0.0,0.0,1.0,0.0,0.0,-0.0,0.0,0.0,3.594970335,0.0,0.0,0.0,0.0,0.0,0.0,0.0,0.0,4.111327704,0.0,0.0,0.0,0.0,0.0,-0.0,0.0,0.0,2.4865720110000002,0.0,0.0,1.1699999570846558,0.4699999988079071,-11.949999809265137,-0.003662109375,0.01104736328125,0.9833984375,29.899999618530273,0.0,-9.0,-0.1490478515625,0.066314697265625,Waiting,0.0,0.0,0.0,0.0,0.0,0.0,0.0,0.0,
1.478137999999977,0.0,0.0,false,4546799.957680051,,0.0,0.0,0.0,0.0,0.0,0.0,1.744384587,0.0,0.0,1.0,0.0,0.0,-0.0,0.0,0.0,3.594970335,0.0,0.0,0.0,0.0,0.0,0.0,0.0,0.0,4.112548407,0.0,0.0,0.0,0.0,0.0,-0.0,0.0,0.0,2.4865720110000002,0.0,0.0,1.159999966621399,0.47999998927116394,-11.949999809265137,-0.03912353515625,0.0516357421875,0.95904541015625,29.899999618530273,0.0,-52.0,-0.1495208740234375,0.0663909912109375,Waiting,0.0,0.0,0.0,0.0,0.0,0.0,0.0,0.0,
1.5306169999999693,0.0,0.0,false,4546689.620291887,,0.0,0.0,0.0,0.0,0.0,0.0,1.744384587,0.0,0.0,1.0,0.0,0.0,-0.0,0.0,0.0,3.594970335,0.0,0.0012207029999995456,0.0,0.0,0.0,0.0,0.0,0.0,4.111327704,0.0,0.0,0.0,0.0,0.0,-0.0,0.0,0.0,2.4865720110000002,0.0,0.0,1.159999966621399,0.47999998927116394,-11.949999809265137,0.03497314453125,0.02130126953125,1.01116943359375,29.899999618530273,0.0,25.0,-0.150360107421875,0.0667266845703125,Waiting,0.0,0.0,0.0,0.0,0.0,0.0,0.0,0.0,
1.5777999999999883,0.0,0.0,false,4546574.743308692,,0.0,0.0,0.0,0.0,0.0,0.0,1.744384587,0.0,0.0,1.0,0.0,0.0,-0.0,0.0,0.0,3.594970335,0.0,-0.0012207029999995456,0.0,0.0,0.0,0.0,0.0,0.0,4.111327704,0.0,0.0,0.0,0.0,0.0,-0.0,0.0,0.0,2.4865720110000002,0.0,0.0,1.1699999570846558,0.4699999988079071,-11.949999809265137,0.0477294921875,-0.0050048828125,1.052978515625,29.899999618530273,0.0,43.0,-0.150970458984375,0.0665435791015625,Waiting,0.0,0.0,0.0,0.0,0.0,0.0,0.0,0.0,
1.631472000000009,0.0,0.0,false,4546455.328617855,,0.0,0.0,0.0,0.0,0.0,0.0,1.744384587,0.0,0.0,1.0,0.0,0.0,-0.0,0.0,0.0,3.594970335,0.0,0.0,0.0,0.0,0.0,0.0,0.0,0.0,4.111327704,0.0,0.0,0.0,0.0,0.0,-0.0,0.0,0.0,2.4865720110000002,0.0,0.0,1.1799999475479126,0.47999998927116394,-11.949999809265137,-0.005615234375,0.016357421875,0.99066162109375,29.899999618530273,0.0,-12.0,-0.1509857177734375,0.0665435791015625,Waiting,0.0,0.0,0.0,0.0,0.0,0.0,0.0,0.0,
1.6796979999999748,0.0,0.0,false,4546331.377086785,,0.0,0.0,0.0,0.0,0.0,0.0,1.744384587,0.0,0.0,1.0,0.0,0.0,-0.0,0.0,0.0,3.594970335,0.0,0.0,0.0,0.0,0.0,0.0,0.0,0.0,4.112548407,0.0,0.0,0.0,0.0,0.0,-0.0,0.0,0.0,2.4865720110000002,0.0,0.0,1.159999966621399,0.47999998927116394,-11.949999809265137,-0.00750732421875,0.04266357421875,0.98114013671875,29.899999618530273,0.0,-20.0,-0.1517791748046875,0.0666656494140625,Waiting,0.0,0.0,0.0,0.0,0.0,0.0,0.0,0.0,
1.7494249999999885,0.0,0.0,false,4546339.39929914,,0.0,0.0,0.0,0.0,0.0,0.0,1.743163884,0.0,0.0,1.0,0.0,0.0,-0.0,0.0,0.0,3.594970335,0.0,0.0,0.0,0.0,0.0,0.0,0.0,0.0,4.111327704,0.0,0.0,0.0,0.0,0.0,-0.0,0.0,0.0,2.4865720110000002,0.0,0.0,1.1699999570846558,0.47999998927116394,-11.960000038146973,0.04132080078125,0.0018310546875,1.03765869140625,29.899999618530273,0.0,35.0,-0.1525421142578125,0.0666656494140625,Waiting,0.0,0.0,0.0,0.0,0.0,0.0,0.0,0.0,
1.7953619999999646,0.0,0.0,false,4546343.51529052,,0.0,0.0,0.0,0.0,0.0,0.0,1.744384587,0.0,0.0,1.0,0.0,0.0,-0.0,0.0,0.0,3.594970335,0.0,0.0012207029999995456,0.0,0.0,0.0,0.0,0.0,0.0,4.112548407,0.0,0.0,0.0,0.0,0.0,-0.0,0.0,0.0,2.4877927140000002,0.0,0.0,1.1799999475479126,0.47999998927116394,-11.949999809265137,0.0433349609375,0.006591796875,1.0413818359375,29.899999618530273,0.0,36.0,-0.15289306640625,0.06646728515625,Waiting,0.0,0.0,0.0,0.0,0.0,0.0,0.0,0.0,
1.8473360000000103,0.0,0.0,false,4546342.599477607,,0.0,0.0,0.0,0.0,0.0,0.0,1.744384587,0.0,0.0,1.0,0.0,0.0,-0.0,0.0,0.0,3.594970335,0.0,-0.0012207029999995456,0.0,0.0,0.0,0.0,0.0,0.0,4.110107001,0.0,0.0,0.0,0.0,0.0,-0.0,0.0,0.0,2.4877927140000002,0.0,0.0,1.1699999570846558,0.47999998927116394,-11.949999809265137,-0.02825927734375,0.04107666015625,0.976318359375,29.899999618530273,0.0,-40.0,-0.1530303955078125,0.06646728515625,Waiting,0.0,0.0,0.0,0.0,0.0,0.0,0.0,0.0,
1.8910869999999995,0.0,0.0,false,4546337.910561855,,0.0,0.0,0.0,0.0,0.0,0.0,1.744384587,0.0,0.0,1.0,0.0,0.0,-0.0,0.0,0.0,3.593749632,0.0,0.0012207029999995456,0.0,0.0,0.0,0.0,0.0,0.0,4.111327704,0.0,0.0,0.0,0.0,0.0,-0.0,0.0,0.0,2.4877927140000002,0.0,0.0,1.1699999570846558,0.49000000953674316,-11.949999809265137,-0.02178955078125,0.04705810546875,0.97320556640625,29.899999618530273,0.0,-35.0,-0.1536407470703125,0.066619873046875,Waiting,0.0,0.0,0.0,0.0,0.0,0.0,0.0,0.0,
1.9370239999999759,0.0,0.0,false,4546328.191604561,,0.0,0.0,0.0,0.0,0.0,0.0,1.744384587,0.0,0.0,1.0,0.0,0.0,-0.0,0.0,0.0,3.593749632,0.0,0.0,0.0,0.0,0.0,0.0,0.0,0.0,4.112548407,0.0,0.0,0.0,0.0,0.0,-0.0,0.0,0.0,2.4865720110000002,0.0,0.0,1.1799999475479126,0.47999998927116394,-11.949999809265137,0.0433349609375,0.00927734375,1.0316162109375,29.90999984741211,0.0,36.0,-0.1544342041015625,0.0668182373046875,Waiting,0.0,0.0,0.0,0.0,0.0,0.0,0.0,0.0,
1.989130999999994,0.0,0.0,false,4546313.443566879,,0.0,0.0,0.0,0.0,0.0,0.0,1.743163884,0.0,0.0,1.0,0.0,0.0,-0.0,0.0,0.0,3.594970335,0.0,0.0,0.0,0.0,0.0,0.0,0.0,0.0,4.111327704,0.0,0.0,0.0,0.0,0.0,-0.0,0.0,0.0,2.4877927140000002,0.0,0.0,1.1799999475479126,0.47999998927116394,-11.949999809265137,0.0440673828125,0.00128173828125,1.05255126953125,29.90999984741211,0.0,38.0,-0.1548309326171875,0.066619873046875,Waiting,0.0,0.0,0.0,0.0,0.0,0.0,0.0,0.0,
2.035662000000011,0.0,0.0,false,4546294.9249092415,,0.0,0.0,0.0,0.0,0.0,0.0,1.744384587,0.0,0.0,1.0,0.0,0.0,-0.0,0.0,0.0,3.594970335,0.0,0.0,0.0,0.0,0.0,0.0,0.0,0.0,4.111327704,0.0,0.0,0.0,0.0,0.0,-0.0,0.0,0.0,2.4865720110000002,0.0,0.0,1.1799999475479126,0.47999998927116394,-11.949999809265137,-0.0146484375,0.022216796875,0.98419189453125,29.90999984741211,0.0,-22.0,-0.154937744140625,0.066619873046875,Waiting,0.0,0.0,0.0,0.0,0.0,0.0,0.0,0.0,
2.0860380000000003,0.0,0.0,false,4546271.37893262,,0.0,0.0,0.0,0.0,0.0,0.0,1.744384587,0.0,0.0,1.0,0.0,0.0,-0.0,0.0,0.0,3.594970335,0.0,0.0,0.0,0.0,0.0,0.0,0.0,0.0,4.111327704,0.0,0.0,0.0,0.0,0.0,-0.0,0.0,0.0,2.4865720110000002,0.0,0.0,1.1699999570846558,0.47999998927116394,-11.949999809265137,-0.02142333984375,0.046142578125,0.972900390625,29.90999984741211,0.0,-34.0,-0.1556854248046875,0.0667724609375,Waiting,0.0,0.0,0.0,0.0,0.0,0.0,0.0,0.0,
2.153859999999986,0.0,0.0,false,4546244.062917913,,0.0,0.0,0.0,0.0,0.0,0.0,1.744384587,0.0,0.0,1.0,0.0,0.0,-0.0,0.0,0.0,3.594970335,0.0,0.0,0.0,0.0,0.0,0.0,0.0,0.0,4.112548407,0.0,0.0,0.0,0.0,0.0,-0.0,0.0,0.0,2.4877927140000002,0.0,0.0,1.1799999475479126,0.47999998927116394,-11.949999809265137,0.03411865234375,-0.0140380859375,1.054443359375,29.90999984741211,0.0,32.0,-0.1567230224609375,0.066741943359375,Waiting,0.0,0.0,0.0,0.0,0.0,0.0,0.0,0.0,
2.208820000000007,0.0,0.0,false,4546211.72134488,,0.0,0.0,0.0,0.0,0.0,0.0,1.743163884,0.0,0.0,1.0,0.0,0.0,-0.0,0.0,0.0,3.594970335,0.0,0.0,0.0,0.0,0.0,0.0,0.0,0.0,4.111327704,0.0,0.0,0.0,0.0,0.0,-0.0,0.0,0.0,2.4877927140000002,0.0,0.0,1.1799999475479126,0.47999998927116394,-11.949999809265137,0.00689697265625,0.0250244140625,0.9866943359375,29.90999984741211,0.0,-2.0,-0.1570587158203125,0.0665740966796875,Waiting,0.0,0.0,0.0,0.0,0.0,0.0,0.0,0.0,
2.2556669999999577,0.0,0.0,false,4546174.355173511,,0.0,0.0,0.0,0.0,0.0,0.0,1.744384587,0.0,0.0,1.0,0.0,0.0,-0.0,0.0,0.0,3.594970335,0.0,0.0012207029999995456,0.0,0.0,0.0,0.0,0.0,0.0,4.111327704,0.0,0.0,0.0,0.0,0.0,-0.0,0.0,0.0,2.4865720110000002,0.0,0.0,1.1699999570846558,0.49000000953674316,-11.949999809265137,-0.03271484375,0.05438232421875,0.9599609375,29.90999984741211,0.0,-47.0,-0.1573944091796875,0.06658935546875,Waiting,0.0,0.0,0.0,0.0,0.0,0.0,0.0,0.0,
2.3115289999999806,0.0,0.0,false,4546130.447472303,,0.0,0.0,0.0,0.0,0.0,0.0,1.744384587,0.0,0.0,1.0,0.0,0.0,-0.0,0.0,0.0,3.596191038,0.0,0.0,0.0,0.0,0.0,0.0,0.0,0.0,4.112548407,0.0,0.0,0.0,0.0,0.0,-0.0,0.0,0.0,2.4877927140000002,0.0,0.0,1.1699999570846558,0.47999998927116394,-11.949999809265137,0.03338623046875,0.01129150390625,1.0133056640625,29.90999984741211,0.0,26.0,-0.1584930419921875,0.0667266845703125,Waiting,0.0,0.0,0.0,0.0,0.0,0.0,0.0,0.0,
2.355752999999968,0.0,0.0,false,4546081.517285286,,0.0,0.0,0.0,0.0,0.0,0.0,1.744384587,0.0,0.0,1.0,0.0,0.0,-0.0,0.0,0.0,3.594970335,0.0,0.0,0.0,0.0,0.0,0.0,0.0,0.0,4.112548407,0.0,0.0,0.0,0.0,0.0,-0.0,0.0,0.0,2.4865720110000002,0.0,0.0,1.1799999475479126,0.47999998927116394,-11.949999809265137,0.045166015625,-0.016357421875,1.0635986328125,29.90999984741211,0.0,43.0,-0.1590423583984375,0.0666046142578125,Waiting,0.0,0.0,0.0,0.0,0.0,0.0,0.0,0.0,
2.403679999999993,0.0,0.0,false,4546027.565571683,,0.0,0.0,0.0,0.0,0.0,0.0,1.744384587,0.0,0.0,1.0,0.0,0.0,-0.0,0.0,0.0,3.593749632,0.0,0.0,0.0,0.0,0.0,0.0,0.0,0.0,4.111327704,0.0,0.0,0.0,0.0,0.0,-0.0,0.0,0.0,2.4865720110000002,0.0,0.0,1.1799999475479126,0.47999998927116394,-11.949999809265137,-0.01007080078125,0.02325439453125,0.988525390625,29.90999984741211,0.0,-18.0,-0.1592559814453125,0.066497802734375,Waiting,0.0,0.0,0.0,0.0,0.0,0.0,0.0,0.0,
2.450707999999984,0.0,0.0,false,4545969.850149596,,0.0,0.0,0.0,0.0,0.0,0.0,1.744384587,0.0,0.0,1.0,0.0,0.0,-0.0,0.0,0.0,3.594970335,0.0,-0.0012207029999995456,0.0,0.0,0.0,0.0,0.0,0.0,4.112548407,0.0,0.0,0.0,0.0,0.0,-0.0,0.0,0.0,2.4865720110000002,0.0,0.0,1.1699999570846558,0.47999998927116394,-11.960000038146973,-0.03643798828125,0.04376220703125,0.9561767578125,29.90999984741211,0.0,-48.0,-0.159759521484375,0.0665740966796875,Waiting,0.0,0.0,0.0,0.0,0.0,0.0,0.0,0.0,
2.4941879999999657,0.0,0.0,false,4545907.114958625,,0.0,0.0,0.0,0.0,0.0,0.0,1.744384587,0.0,0.0,1.0,0.0,0.0,-0.0,0.0,0.0,3.594970335,0.0,0.0,0.0,0.0,0.0,0.0,0.0,0.0,4.111327704,0.0,0.0,0.0,0.0,0.0,-0.0,0.0,0.0,2.4865720110000002,0.0,0.0,1.1699999570846558,0.47999998927116394,-11.960000038146973,0.0389404296875,0.0113525390625,1.0079345703125,29.90999984741211,0.0,31.0,-0.1606292724609375,0.0666351318359375,Waiting,0.0,0.0,0.0,0.0,0.0,0.0,0.0,0.0,
2.5427229999999983,0.0,0.0,false,4545840.617656419,,0.0,0.0,0.0,0.0,0.0,0.0,1.744384587,0.0,0.0,1.0,0.0,0.0,-0.0,0.0,0.0,3.594970335,0.0,0.0,0.0,0.0,0.0,0.0,0.0,0.0,4.112548407,0.0,0.0,0.0,0.0,0.0,-0.0,0.0,0.0,2.4865720110000002,0.0,0.0,1.1799999475479126,0.4699999988079071,-11.949999809265137,0.04296875,-0.01312255859375,1.05865478515625,29.90999984741211,0.0,40.0,-0.1611785888671875,0.0665283203125,Waiting,0.0,0.0,0.0,0.0,0.0,0.0,0.0,0.0,
2.587789999999979,0.0,0.0,false,4545769.102342159,,0.0,0.0,0.0,0.0,0.0,0.0,1.744384587,0.0,0.0,1.0,0.0,0.0,-0.0,0.0,0.0,3.594970335,0.0,0.0,0.0,0.0,0.0,0.0,0.0,0.0,4.111327704,0.0,0.0,0.0,0.0,0.0,-0.0,0.0,0.0,2.4865720110000002,0.0,0.0,1.1799999475479126,0.47999998927116394,-11.960000038146973,-0.0107421875,0.02752685546875,0.9906005859375,29.90999984741211,0.0,-20.0,-0.161407470703125,0.0664215087890625,Waiting,0.0,0.0,0.0,0.0,0.0,0.0,0.0,0.0,
2.6338189999999595,0.0,0.0,false,4545692.5699739065,,0.0,0.0,0.0,0.0,0.0,0.0,1.744384587,0.0,0.0,1.0,0.0,0.0,-0.0,0.0,0.0,3.593749632,0.0,0.0,0.0,0.0,0.0,0.0,0.0,0.0,4.111327704,0.0,0.0,0.0,0.0,0.0,-0.0,0.0,0.0,2.4865720110000002,0.0,0.0,1.1699999570846558,0.47999998927116394,-11.960000038146973,-0.0323486328125,0.041748046875,0.95538330078125,29.90999984741211,0.0,-44.0,-0.1619415283203125,0.066497802734375,Waiting,0.0,0.0,0.0,0.0,0.0,0.0,0.0,0.0,
2.6848709999999847,0.0,0.0,false,4545612.277968691,,0.0,0.0,0.0,0.0,0.0,0.0,1.743163884,0.0,0.0,1.0,0.0,0.0,-0.0,0.0,0.0,3.594970335,0.0,0.0,0.0,0.0,0.0,0.0,0.0,0.0,4.112548407,0.0,0.0,0.0,0.0,0.0,-0.0,0.0,0.0,2.4865720110000002,0.0,0.0,1.1699999570846558,0.47999998927116394,-11.960000038146973,0.040283203125,0.0167236328125,1.008056640625,29.90999984741211,0.0,31.0,-0.1627960205078125,0.066558837890625,Waiting,0.0,0.0,0.0,0.0,0.0,0.0,0.0,0.0,
2.7316529999999912,0.0,0.0,false,4545526.97066497,,0.0,0.0,0.0,0.0,0.0,0.0,1.744384587,0.0,0.0,1.0,0.0,0.0,-0.0,0.0,0.0,3.594970335,0.0,0.0,0.0,0.0,0.0,0.0,0.0,0.0,4.112548407,0.0,0.0,0.0,0.0,0.0,-0.0,0.0,0.0,2.4865720110000002,0.0,0.0,1.1799999475479126,0.4699999988079071,-11.960000038146973,0.0445556640625,-0.01025390625,1.06121826171875,29.90999984741211,0.0,41.0,-0.1633758544921875,0.0663299560546875,Waiting,0.0,0.0,0.0,0.0,0.0,0.0,0.0,0.0,
2.7782079999999842,0.0,0.0,false,4545437.90531942,,0.0,0.0,0.0,0.0,0.0,0.0,1.744384587,0.0,0.0,1.0,0.0,0.0,-0.0,0.0,0.0,3.594970335,0.0,0.0,0.0,0.0,0.0,0.0,0.0,0.0,4.112548407,0.0,0.0,0.0,0.0,0.0,-0.0,0.0,0.0,2.4877927140000002,0.0,0.0,1.159999966621399,0.47999998927116394,-11.960000038146973,-0.0291748046875,0.0428466796875,0.96844482421875,29.90999984741211,0.0,-41.0,-0.1636810302734375,0.0663299560546875,Waiting,0.0,0.0,0.0,0.0,0.0,0.0,0.0,0.0,
2.8298549999999816,0.0,0.0,false,4545342.3096010685,,0.0,0.0,0.0,0.0,0.0,0.0,1.744384587,0.0,0.0,1.0,0.0,0.0,-0.0,0.0,0.0,3.594970335,0.0,0.0,0.0,0.0,0.0,0.0,0.0,0.0,4.111327704,0.0,0.0,0.0,0.0,0.0,-0.0,0.0,0.0,2.4865720110000002,0.0,0.0,1.1699999570846558,0.47999998927116394,-11.960000038146973,-0.00360107421875,0.029296875,0.98162841796875,29.90999984741211,0.0,-13.0,-0.1644439697265625,0.06646728515625,Waiting,0.0,0.0,0.0,0.0,0.0,0.0,0.0,0.0,
2.874032999999996,0.0,0.0,false,4545241.701488739,,0.0,0.0,0.0,0.0,0.0,0.0,1.744384587,0.0,0.0,1.0,0.0,0.0,-0.0,0.0,0.0,3.594970335,0.0,0.0,0.0,0.0,0.0,0.0,0.0,0.0,4.112548407,0.0,0.0,0.0,0.0,0.0,-0.0,0.0,0.0,2.4865720110000002,0.0,0.0,1.1799999475479126,0.4699999988079071,-11.960000038146973,0.03936767578125,-0.00897216796875,1.046142578125,29.90999984741211,0.0,36.0,-0.164306640625,0.0664520263671875,Waiting,0.0,0.0,0.0,0.0,0.0,0.0,0.0,0.0,
2.9247149999999675,0.0,0.0,false,4545137.337998601,,0.0,0.0,0.0,0.0,0.0,0.0,1.744384587,0.0,0.0,1.0,0.0,0.0,-0.0,0.0,0.0,3.596191038,0.0,0.0,0.0,0.0,0.0,0.0,0.0,0.0,4.112548407,0.0,0.0,0.0,0.0,0.0,-0.0,0.0,0.0,2.4865720110000002,0.0,0.0,1.1799999475479126,0.47999998927116394,-11.949999809265137,0.0238037109375,0.0299072265625,1.017578125,29.90999984741211,0.0,-12.0,-0.1637725830078125,0.0662994384765625,Waiting,0.0,0.0,0.0,0.0,0.0,0.0,0.0,0.0,
2.9720409999999684,0.0,0.0,false,4545027.963867685,,0.0,0.0,0.0,0.0,0.0,0.0,1.743163884,0.0,0.0,1.0,0.0,0.0,-0.0,0.0,0.0,3.594970335,0.0,0.0,0.0,0.0,0.0,0.0,0.0,0.0,4.112548407,0.0,0.0,0.0,0.0,0.0,-0.0,0.0,0.0,2.4865720110000002,0.0,0.0,1.159999966621399,0.47999998927116394,-11.960000038146973,-0.03033447265625,0.04937744140625,0.9599609375,29.920000076293945,0.0,-43.0,-0.16387939453125,0.066314697265625,Waiting,0.0,0.0,0.0,0.0,0.0,0.0,0.0,0.0,
3.013564000000013,0.0,0.0,false,4544914.835951911,,0.0,0.0,0.0,0.0,0.0,0.0,1.744384587,0.0,0.0,1.0,0.0,0.0,-0.0,0.0,0.0,3.596191038,0.0,0.0,0.0,0.0,0.0,0.0,0.0,0.0,4.111327704,0.0,0.0,0.0,0.0,0.0,-0.0,0.0,0.0,2.4877927140000002,0.0,0.0,1.159999966621399,0.47999998927116394,-11.960000038146973,0.00921630859375,0.02880859375,0.984130859375,29.920000076293945,0.0,0.0,-0.1644439697265625,0.0664215087890625,Waiting,0.0,0.0,0.0,0.0,0.0,0.0,0.0,0.0,
3.05696100000001,0.0,0.0,false,4544796.699147691,,0.0,0.0,0.0,0.0,0.0,0.0,1.744384587,0.0,0.0,1.0,0.0,0.0,-0.0,0.0,0.0,3.594970335,0.0,0.0,0.0,0.0,0.0,0.0,0.0,0.0,4.111327704,0.0,0.0,0.0,0.0,0.0,-0.0,0.0,0.0,2.4865720110000002,0.0,0.0,1.1799999475479126,0.4699999988079071,-11.960000038146973,0.030029296875,-0.0185546875,1.05377197265625,29.920000076293945,0.0,29.0,-0.1649169921875,0.0663909912109375,Waiting,0.0,0.0,0.0,0.0,0.0,0.0,0.0,0.0,
3.109649999999965,0.0,0.0,false,4544674.810150734,,0.0,0.0,0.0,0.0,0.0,0.0,1.743163884,0.0,0.0,1.0,0.0,0.0,-0.0,0.0,0.0,3.594970335,0.0,0.0,0.0,0.0,0.0,0.0,0.0,0.0,4.111327704,0.0,0.0,0.0,0.0,0.0,-0.0,0.0,0.0,2.4865720110000002,0.0,0.0,1.1699999570846558,0.47999998927116394,-11.949999809265137,0.0064697265625,0.03436279296875,1.00286865234375,29.920000076293945,0.0,-4.0,-0.165008544921875,0.06622314453125,Waiting,0.0,0.0,0.0,0.0,0.0,0.0,0.0,0.0,
3.1518609999999754,0.0,0.0,false,4544547.91401679,,0.0,0.0,0.0,0.0,0.0,0.0,1.743163884,0.0,0.0,1.0,0.0,0.0,-0.0,0.0,0.0,3.594970335,0.0,0.0012207029999995456,0.0,0.0,0.0,0.0,0.0,0.0,4.111327704,0.0,0.0,0.0,0.0,0.0,-0.0,0.0,0.0,2.4853513080000003,0.0,0.0,1.149999976158142,0.47999998927116394,-11.960000038146973,-0.028076171875,0.05712890625,0.960693359375,29.920000076293945,0.0,-43.0,-0.1652069091796875,0.066253662109375,Waiting,0.0,0.0,0.0,0.0,0.0,0.0,0.0,0.0,
3.2065139999999666,0.0,0.0,false,4544556.747599364,,0.0,0.0,0.0,0.0,0.0,0.0,1.743163884,0.0,0.0,1.0,0.0,0.0,-0.0,0.0,0.0,3.594970335,0.0,-0.0012207029999995456,0.0,0.0,0.0,0.0,0.0,0.0,4.111327704,0.0,0.0,0.0,0.0,0.0,-0.0,0.0,0.0,2.4865720110000002,0.0,0.0,1.159999966621399,0.4699999988079071,-11.949999809265137,0.039306640625,0.0078125,1.0128173828125,29.920000076293945,0.0,32.0,-0.1659698486328125,0.0663604736328125,Waiting,0.0,0.0,0.0,0.0,0.0,0.0,0.0,0.0,
3.250497999999963,0.0,0.0,false,4544560.20501081,,0.0,0.0,0.0,0.0,0.0,0.0,1.744384587,0.0,0.0,1.0,0.0,0.0,-0.0,0.0,0.0,3.594970335,0.0,0.0,0.0,0.0,0.0,0.0,0.0,0.0,4.112548407,0.0,0.0,0.0,0.0,0.0,-0.0,0.0,0.0,2.4877927140000002,0.0,0.0,1.159999966621399,0.46000000834465027,-11.949999809265137,0.04559326171875,0.001220703125,1.04644775390625,29.920000076293945,0.0,40.0,-0.1661834716796875,0.0661773681640625,Waiting,0.0,0.0,0.0,0.0,0.0,0.0,0.0,0.0,
3.2948549999999814,0.0,0.0,false,4544560.078845298,,0.0,0.0,0.0,0.0,0.0,0.0,1.744384587,0.0,0.0,1.0,0.0,0.0,-0.0,0.0,0.0,3.594970335,0.0,0.0,0.0,0.0,0.0,0.0,0.0,0.0,4.112548407,0.0,0.0,0.0,0.0,0.0,-0.0,0.0,0.0,2.4865720110000002,0.0,0.0,1.159999966621399,0.4699999988079071,-11.949999809265137,-0.0216064453125,0.03564453125,0.98291015625,29.920000076293945,0.0,-32.0,-0.1662139892578125,0.0661773681640625,Waiting,0.0,0.0,0.0,0.0,0.0,0.0,0.0,0.0,
3.3473279999999797,0.0,0.0,false,4544552.786876908,,0.0,0.0,0.0,0.0,0.0,0.0,1.744384587,0.0,0.0,1.0,0.0,0.0,-0.0,0.0,0.0,3.594970335,0.0,0.0,0.0,0.0,0.0,0.0,0.0,0.0,4.111327704,0.0,0.0,0.0,0.0,0.0,-0.0,0.0,0.0,2.4865720110000002,0.0,0.0,1.149999976158142,0.47999998927116394,-11.949999809265137,-0.02105712890625,0.02569580078125,0.96636962890625,29.920000076293945,0.0,-29.0,-0.1666412353515625,0.066314697265625,Waiting,0.0,0.0,0.0,0.0,0.0,0.0,0.0,0.0,
3.3922249999999767,0.0,0.0,false,4544541.913154047,,0.0,0.0,0.0,0.0,0.0,0.0,1.744384587,0.0,0.0,1.0,0.0,0.0,-0.0,0.0,0.0,3.594970335,0.0,0.0,0.0,0.0,0.0,0.0,0.0,0.0,4.112548407,0.0,0.0,0.0,0.0,0.0,-0.0,0.0,0.0,2.4877927140000002,0.0,0.0,1.159999966621399,0.47999998927116394,-11.949999809265137,0.04034423828125,-0.00384521484375,1.03424072265625,29.920000076293945,0.0,36.0,-0.167144775390625,0.066314697265625,Waiting,0.0,0.0,0.0,0.0,0.0,0.0,0.0,0.0,
3.435405999999959,0.0,0.0,false,4544525.6671328675,,0.0,0.0,0.0,0.0,0.0,0.0,1.744384587,0.0,0.0,1.0,0.0,0.0,-0.0,0.0,0.0,3.594970335,0.0,0.0012207029999995456,0.0,0.0,0.0,0.0,0.0,0.0,4.111327704,0.0,0.0,0.0,0.0,0.0,-0.0,0.0,0.0,2.4865720110000002,0.0,0.0,1.159999966621399,0.4699999988079071,-11.949999809265137,0.025390625,0.0225830078125,1.0216064453125,29.920000076293945,0.0,16.0,-0.1672515869140625,0.06610107421875,Waiting,0.0,0.0,0.0,0.0,0.0,0.0,0.0,0.0,
3.4885079999999724,0.0,0.0,false,4544505.840950988,,0.0,0.0,0.0,0.0,0.0,0.0,1.743163884,0.0,0.0,1.0,0.0,0.0,-0.0,0.0,0.0,3.594970335,0.0,-0.0012207029999995456,0.0,0.0,0.0,0.0,0.0,0.0,4.112548407,0.0,0.0,0.0,0.0,0.0,-0.0,0.0,0.0,2.4865720110000002,0.0,0.0,1.149999976158142,0.47999998927116394,-11.949999809265137,-0.03265380859375,0.052001953125,0.95684814453125,29.899999618530273,0.0,-46.0,-0.1675262451171875,0.066131591796875,Waiting,0.0,0.0,0.0,0.0,0.0,0.0,0.0,0.0,
3.534049999999988,0.0,0.0,false,4544480.644291889,,0.0,0.0,0.0,0.0,0.0,0.0,1.7419431810000001,0.0,0.0,1.0,0.0,0.0,-0.0,0.0,0.0,3.594970335,0.0,0.0,0.0,0.0,0.0,0.0,0.0,0.0,4.111327704,0.0,0.0,0.0,0.0,0.0,-0.0,0.0,0.0,2.4865720110000002,0.0,0.0,1.149999976158142,0.47999998927116394,-11.949999809265137,0.03564453125,0.01239013671875,1.00836181640625,29.899999618530273,0.0,28.0,-0.1681365966796875,0.06622314453125,Waiting,0.0,0.0,0.0,0.0,0.0,0.0,0.0,0.0,
3.5851179999999587,0.0,0.0,false,4544450.852094324,,0.0,0.0,0.0,0.0,0.0,0.0,1.744384587,0.0,0.0,1.0,0.0,0.0,-0.0,0.0,0.0,3.594970335,0.0,0.0,0.0,0.0,0.0,0.0,0.0,0.0,4.110107001,0.0,0.0,0.0,0.0,0.0,-0.0,0.0,0.0,2.4865720110000002,0.0,0.0,1.159999966621399,0.46000000834465027,-11.949999809265137,0.04193115234375,-0.01123046875,1.05987548828125,29.899999618530273,0.0,39.0,-0.16845703125,0.06610107421875,Waiting,0.0,0.0,0.0,0.0,0.0,0.0,0.0,0.0,
3.63031799999997,0.0,0.0,false,4544415.69136901,,0.0,0.0,0.0,0.0,0.0,0.0,1.744384587,0.0,0.0,1.0,0.0,0.0,-0.0,0.0,0.0,3.594970335,0.0,0.0,0.0,0.0,0.0,0.0,0.0,0.0,4.112548407,0.0,0.0,0.0,0.0,0.0,-0.0,0.0,0.0,2.4865720110000002,0.0,0.0,1.159999966621399,0.4699999988079071,-11.949999809265137,-0.01837158203125,0.0303955078125,0.98486328125,29.899999618530273,0.0,-28.0,-0.16851806640625,0.066009521484375,Waiting,0.0,0.0,0.0,0.0,0.0,0.0,0.0,0.0,
3.673039999999979,0.0,0.0,false,4544376.953797267,,0.0,0.0,0.0,0.0,0.0,0.0,1.743163884,0.0,0.0,1.0,0.0,0.0,-0.0,0.0,0.0,3.594970335,0.0,0.0,0.0,0.0,0.0,0.0,0.0,0.0,4.111327704,0.0,0.0,0.0,0.0,0.0,-0.0,0.0,0.0,2.4853513080000003,0.0,0.0,1.1699999570846558,0.47999998927116394,-11.949999809265137,-0.02618408203125,0.025146484375,0.96331787109375,29.899999618530273,0.0,-34.0,-0.168975830078125,0.066162109375,Waiting,0.0,0.0,0.0,0.0,0.0,0.0,0.0,0.0,
3.720467000000004,0.0,0.0,false,4544332.849517031,,0.0,0.0,0.0,0.0,0.0,0.0,1.744384587,0.0,0.0,1.0,0.0,0.0,-0.0,0.0,0.0,3.596191038,0.0,0.0,0.0,0.0,0.0,0.0,0.0,0.0,4.111327704,0.0,0.0,0.0,0.0,0.0,-0.0,0.0,0.0,2.4865720110000002,0.0,0.0,1.1699999570846558,0.4699999988079071,-11.949999809265137,0.03900146484375,0.00146484375,1.030029296875,29.899999618530273,0.0,33.0,-0.1696014404296875,0.066162109375,Waiting,0.0,0.0,0.0,0.0,0.0,0.0,0.0,0.0,
3.7672189999999826,0.0,0.0,false,4544285.169981572,,0.0,0.0,0.0,0.0,0.0,0.0,1.743163884,0.0,0.0,1.0,0.0,0.0,-0.0,0.0,0.0,3.594970335,0.0,0.0,0.0,0.0,0.0,0.0,0.0,0.0,4.111327704,0.0,0.0,0.0,0.0,0.0,-0.0,0.0,0.0,2.4865720110000002,0.0,0.0,1.1699999570846558,0.47999998927116394,-11.960000038146973,-0.001708984375,0.038330078125,0.99481201171875,29.899999618530273,0.0,-13.0,-0.16986083984375,0.0659332275390625,Waiting,0.0,0.0,0.0,0.0,0.0,0.0,0.0,0.0,
3.817023999999976,0.0,0.0,false,4544232.125555979,,0.0,0.0,0.0,0.0,0.0,0.0,1.744384587,0.0,0.0,1.0,0.0,0.0,-0.0,0.0,0.0,3.594970335,0.0,0.0012207029999995456,0.0,0.0,0.0,0.0,0.0,0.0,4.111327704,0.0,0.0,0.0,0.0,0.0,-0.0,0.0,0.0,2.4865720110000002,0.0,0.0,1.159999966621399,0.47999998927116394,-11.960000038146973,-0.02984619140625,0.05535888671875,0.95782470703125,29.899999618530273,0.0,-44.0,-0.1701812744140625,0.0659637451171875,Waiting,0.0,0.0,0.0,0.0,0.0,0.0,0.0,0.0,
3.866510000000009,0.0,0.0,false,4544175.507465531,,0.0,0.0,0.0,0.0,0.0,0.0,1.743163884,0.0,0.0,1.0,0.0,0.0,-0.0,0.0,0.0,3.594970335,0.0,-0.0012207029999995456,0.0,0.0,0.0,0.0,0.0,0.0,4.111327704,0.0,0.0,0.0,0.0,0.0,-0.0,0.0,0.0,2.4865720110000002,0.0,0.0,1.159999966621399,0.4699999988079071,-11.960000038146973,0.036865234375,0.0140380859375,1.001220703125,29.899999618530273,0.0,29.0,-0.170867919921875,0.066070556640625,Waiting,0.0,0.0,0.0,0.0,0.0,0.0,0.0,0.0,
3.911055999999982,0.0,0.0,false,4544112.50978399,,0.0,0.0,0.0,0.0,0.0,0.0,1.744384587,0.0,0.0,1.0,0.0,0.0,-0.0,0.0,0.0,3.594970335,0.0,0.0,0.0,0.0,0.0,0.0,0.0,0.0,4.111327704,0.0,0.0,0.0,0.0,0.0,-0.0,0.0,0.0,2.4877927140000002,0.0,0.0,1.1699999570846558,0.46000000834465027,-11.960000038146973,0.040283203125,-0.0146484375,1.06683349609375,29.899999618530273,0.0,38.0,-0.1712493896484375,0.0659637451171875,Waiting,0.0,0.0,0.0,0.0,0.0,0.0,0.0,0.0,
3.9554990000000108,0.0,0.0,false,4544045.94015628,,0.0,0.0,0.0,0.0,0.0,0.0,1.744384587,0.0,0.0,1.0,0.0,0.0,-0.0,0.0,0.0,3.593749632,0.0,0.0,0.0,0.0,0.0,0.0,0.0,0.0,4.111327704,0.0,0.0,0.0,0.0,0.0,-0.0,0.0,0.0,2.4865720110000002,0.0,0.0,1.159999966621399,0.4699999988079071,-11.960000038146973,-0.017333984375,0.0330810546875,0.98272705078125,29.899999618530273,0.0,-27.0,-0.171417236328125,0.0658721923828125,Waiting,0.0,0.0,0.0,0.0,0.0,0.0,0.0,0.0,
4.002614999999991,0.0,0.0,false,4543974.009401601,,0.0,0.0,0.0,0.0,0.0,0.0,1.744384587,0.0,0.0,1.0,0.0,0.0,-0.0,0.0,0.0,3.593749632,0.0,0.0,0.0,0.0,0.0,0.0,0.0,0.0,4.110107001,0.0,0.0,0.0,0.0,0.0,-0.0,0.0,0.0,2.4877927140000002,0.0,0.0,1.1699999570846558,0.47999998927116394,-11.960000038146973,-0.02288818359375,0.02642822265625,0.961181640625,29.920000076293945,0.0,-31.0,-0.17193603515625,0.066009521484375,Waiting,0.0,0.0,0.0,0.0,0.0,0.0,0.0,0.0,
4.050489999999991,0.0,0.0,false,4543898.508289399,,0.0,0.0,0.0,0.0,0.0,0.0,1.743163884,0.0,0.0,1.0,0.0,0.0,-0.0,0.0,0.0,3.594970335,0.0,0.0,0.0,0.0,0.0,0.0,0.0,0.0,4.111327704,0.0,0.0,0.0,0.0,0.0,-0.0,0.0,0.0,2.4865720110000002,0.0,0.0,1.1799999475479126,0.46000000834465027,-11.960000038146973,0.03387451171875,-0.0274658203125,1.05670166015625,29.920000076293945,0.0,34.0,-0.1727142333984375,0.0659637451171875,Waiting,0.0,0.0,0.0,0.0,0.0,0.0,0.0,0.0,
4.100896999999997,0.0,0.0,false,4543817.647865853,,0.0,0.0,0.0,0.0,0.0,0.0,1.744384587,0.0,0.0,1.0,0.0,0.0,-0.0,0.0,0.0,3.594970335,0.0,0.0012207029999995456,0.0,0.0,0.0,0.0,0.0,0.0,4.112548407,0.0,0.0,0.0,0.0,0.0,-0.0,0.0,0.0,2.4865720110000002,0.0,0.0,1.1699999570846558,0.4699999988079071,-11.960000038146973,-0.0087890625,0.03515625,0.99346923828125,29.920000076293945,0.0,-19.0,-0.1728363037109375,0.0657958984375,Waiting,0.0,0.0,0.0,0.0,0.0,0.0,0.0,0.0,
4.14865399999998,0.0,0.0,false,4543733.218672594,,0.0,0.0,0.0,0.0,0.0,0.0,1.744384587,0.0,0.0,1.0,0.0,0.0,-0.0,0.0,0.0,3.593749632,0.0,-0.0012207029999995456,0.0,0.0,0.0,0.0,0.0,0.0,4.111327704,0.0,0.0,0.0,0.0,0.0,-0.0,0.0,0.0,2.4865720110000002,0.0,0.0,1.159999966621399,0.47999998927116394,-11.960000038146973,-0.03143310546875,0.051025390625,0.95648193359375,29.920000076293945,0.0,-45.0,-0.1731109619140625,0.06585693359375,Waiting,0.0,0.0,0.0,0.0,0.0,0.0,0.0,0.0,
4.193296999999962,0.0,0.0,false,4543643.431982726,,0.0,0.0,0.0,0.0,0.0,0.0,1.744384587,0.0,0.0,1.0,0.0,0.0,-0.0,0.0,0.0,3.593749632,0.0,-0.0012207029999995456,0.0,0.0,0.0,0.0,0.0,0.0,4.112548407,0.0,0.0,0.0,0.0,0.0,-0.0,0.0,0.0,2.4865720110000002,0.0,0.0,1.1699999570846558,0.47999998927116394,-11.960000038146973,0.04168701171875,0.00872802734375,1.0108642578125,29.920000076293945,0.0,34.0,-0.1736907958984375,0.0659332275390625,Waiting,0.0,0.0,0.0,0.0,0.0,0.0,0.0,0.0,
4.240320999999996,0.0,0.0,false,4543548.288816918,,0.0,0.0,0.0,0.0,0.0,0.0,1.744384587,0.0,0.0,1.0,0.0,0.0,-0.0,0.0,0.0,3.594970335,0.0,0.0,0.0,0.0,0.0,0.0,0.0,0.0,4.112548407,0.0,0.0,0.0,0.0,0.0,-0.0,0.0,0.0,2.4865720110000002,0.0,0.0,1.1699999570846558,0.4699999988079071,-11.960000038146973,0.04150390625,-0.00140380859375,1.053466796875,29.920000076293945,0.0,36.0,-0.173919677734375,0.0657958984375,Waiting,0.0,0.0,0.0,0.0,0.0,0.0,0.0,0.0,
4.287816999999981,0.0,0.0,false,4543448.563373127,,0.0,0.0,0.0,0.0,0.0,0.0,1.744384587,0.0,0.0,1.0,0.0,0.0,-0.0,0.0,0.0,3.594970335,0.0,0.0,0.0,0.0,0.0,0.0,0.0,0.0,4.111327704,0.0,-0.0012207029999995456,0.0,0.0,0.0,-0.0,0.0,0.0,2.4865720110000002,0.0,0.0,1.1699999570846558,0.47999998927116394,-11.960000038146973,-0.02490234375,0.04083251953125,0.9722900390625,29.920000076293945,0.0,-36.0,-0.1739959716796875,0.065704345703125,Waiting,0.0,0.0,0.0,0.0,0.0,0.0,0.0,0.0,
4.334555999999982,0.0,0.0,false,4543343.483395771,,0.0,0.0,0.0,0.0,0.0,0.0,1.743163884,0.0,0.0,1.0,0.0,0.0,-0.0,0.0,0.0,3.593749632,0.0,0.0,0.0,0.0,0.0,0.0,0.0,0.0,4.111327704,0.0,0.0012207029999995456,0.0,0.0,0.0,-0.0,0.0,0.0,2.4865720110000002,0.0,-0.0012207029999995456,1.1699999570846558,0.47999998927116394,-11.960000038146973,-0.00335693359375,0.01898193359375,0.9798583984375,29.920000076293945,0.0,-11.0,-0.174468994140625,0.06585693359375,Waiting,0.0,0.0,0.0,0.0,0.0,0.0,0.0,0.0,
4.388227000000014,0.0,0.0,false,4543232.983365079,,0.0,0.0,0.0,0.0,0.0,0.0,1.743163884,0.0,0.0,1.0,0.0,0.0,-0.0,0.0,0.0,3.594970335,0.0,0.0,0.0,0.0,0.0,0.0,0.0,0.0,4.112548407,0.0,0.0,0.0,0.0,0.0,-0.0,0.0,0.0,2.4865720110000002,0.0,0.0012207029999995456,1.1799999475479126,0.4699999988079071,-11.960000038146973,0.03558349609375,-0.0157470703125,1.05010986328125,29.920000076293945,0.0,34.0,-0.1749267578125,0.065826416015625,Waiting,0.0,0.0,0.0,0.0,0.0,0.0,0.0,0.0,
4.433440000000003,0.0,0.0,false,4543117.130848835,,0.0,0.0,0.0,0.0,0.0,0.0,1.744384587,0.0,0.0,1.0,0.0,0.0,-0.0,0.0,0.0,3.594970335,0.0,0.0,0.0,0.0,0.0,0.0,0.0,0.0,4.112548407,0.0,0.0,0.0,0.0,0.0,-0.0,0.0,0.0,2.4865720110000002,0.0,0.0,1.1699999570846558,0.47999998927116394,-11.960000038146973,-0.017333984375,0.0341796875,0.98236083984375,29.920000076293945,0.0,-27.0,-0.1750335693359375,0.0656585693359375,Waiting,0.0,0.0,0.0,0.0,0.0,0.0,0.0,0.0,
4.483035999999964,0.0,0.0,false,4542997.715591671,,0.0,0.0,0.0,0.0,0.0,0.0,1.744384587,0.0,0.0,1.0,0.0,0.0,-0.0,0.0,0.0,3.594970335,0.0,0.0,0.0,0.0,0.0,0.0,0.0,0.0,4.111327704,0.0,0.0,0.0,0.0,0.0,-0.0,0.0,0.0,2.4865720110000002,0.0,0.0,1.1699999570846558,0.47999998927116394,-11.960000038146973,-0.01910400390625,0.02398681640625,0.95880126953125,29.920000076293945,0.0,-27.0,-0.175445556640625,0.0657958984375,Waiting,0.0,0.0,0.0,0.0,0.0,0.0,0.0,0.0,
4.530727000000014,0.0,0.0,false,4542872.949660382,,0.0,0.0,0.0,0.0,0.0,0.0,1.743163884,0.0,0.0,1.0,0.0,0.0,-0.0,0.0,0.0,3.594970335,0.0,0.0,0.0,0.0,0.0,0.0,0.0,0.0,4.111327704,0.0,0.0,0.0,0.0,0.0,-0.0,0.0,0.0,2.4865720110000002,0.0,0.0,1.1799999475479126,0.4699999988079071,-11.960000038146973,0.03594970703125,-0.03216552734375,1.0672607421875,29.950000762939453,0.0,37.0,-0.1760101318359375,0.0657196044921875,Waiting,0.0,0.0,0.0,0.0,0.0,0.0,0.0,0.0,
4.588632999999972,0.0,0.0,false,4542884.926748762,,0.0,0.0,0.0,0.0,0.0,0.0,1.743163884,0.0,0.0,1.0,0.0,0.0,-0.0,0.0,0.0,3.593749632,0.0,0.0,0.0,0.0,0.0,0.0,0.0,0.0,4.111327704,0.0,0.0,0.0,0.0,0.0,-0.0,0.0,0.0,2.4865720110000002,0.0,0.0,1.1799999475479126,0.47999998927116394,-11.960000038146973,-0.01373291015625,0.037109375,0.9908447265625,29.950000762939453,0.0,-25.0,-0.1760406494140625,0.06561279296875,Waiting,0.0,0.0,0.0,0.0,0.0,0.0,0.0,0.0,
4.646973999999988,0.0,0.0,false,4542891.390923516,,0.0,0.0,0.0,0.0,0.0,0.0,1.7419431810000001,0.0,0.0,1.0,0.0,0.0,-0.0,0.0,0.0,3.593749632,0.0,0.0,0.0,0.0,0.0,0.0,0.0,0.0,4.112548407,0.0,0.0,0.0,0.0,0.0,-0.0,0.0,0.0,2.4865720110000002,0.0,0.0,1.1799999475479126,0.47999998927116394,-11.960000038146973,-0.00115966796875,0.0159912109375,0.97869873046875,29.950000762939453,0.0,-8.0,-0.1765594482421875,0.065765380859375,Waiting,0.0,0.0,0.0,0.0,0.0,0.0,0.0,0.0,
4.691834999999963,0.0,0.0,false,4542893.420665143,,0.0,0.0,0.0,0.0,0.0,0.0,1.744384587,0.0,0.0,1.0,0.0,0.0,-0.0,0.0,0.0,3.594970335,0.0,0.0,0.0,0.0,0.0,0.0,0.0,0.0,4.111327704,0.0,0.0,0.0,0.0,0.0,-0.0,0.0,0.0,2.4865720110000002,0.0,0.0,1.1799999475479126,0.4699999988079071,-11.960000038146973,0.03338623046875,-0.01873779296875,1.05035400390625,29.950000762939453,0.0,32.0,-0.1769866943359375,0.06573486328125,Waiting,0.0,0.0,0.0,0.0,0.0,0.0,0.0,0.0,
4.734246999999974,0.0,0.0,false,4542891.147807323,,0.0,0.0,0.0,0.0,0.0,0.0,1.744384587,0.0,0.0,1.0,0.0,0.0,-0.0,0.0,0.0,3.594970335,0.0,0.0,0.0,0.0,0.0,0.0,0.0,0.0,4.111327704,0.0,0.0,0.0,0.0,0.0,-0.0,0.0,0.0,2.4865720110000002,0.0,0.0,1.1799999475479126,0.47999998927116394,-11.960000038146973,-0.006103515625,0.03521728515625,1.00042724609375,29.950000762939453,0.0,-17.0,-0.1770477294921875,0.0655517578125,Waiting,0.0,0.0,0.0,0.0,0.0,0.0,0.0,0.0,
4.781956000000005,0.0,0.0,false,4542884.573169184,,0.0,0.0,0.0,0.0,0.0,0.0,1.744384587,0.0,0.0,1.0,0.0,0.0,-0.0,0.0,0.0,3.593749632,0.0,0.0012207029999995456,0.0,0.0,0.0,0.0,0.0,0.0,4.111327704,0.0,0.0,0.0,0.0,0.0,-0.0,0.0,0.0,2.4865720110000002,0.0,0.0,1.1699999570846558,0.47999998927116394,-11.960000038146973,-0.0250244140625,0.05401611328125,0.94873046875,29.950000762939453,0.0,-39.0,-0.17730712890625,0.065643310546875,Waiting,0.0,0.0,0.0,0.0,0.0,0.0,0.0,0.0,
4.831477000000014,0.0,0.0,false,4542873.009201092,,0.0,0.0,0.0,0.0,0.0,0.0,1.744384587,0.0,0.0,1.0,0.0,0.0,-0.0,0.0,0.0,3.593749632,0.0,-0.0012207029999995456,0.0,0.0,0.0,0.0,0.0,0.0,4.112548407,0.0,0.0,0.0,0.0,0.0,-0.0,0.0,0.0,2.4865720110000002,0.0,0.0,1.1799999475479126,0.47999998927116394,-11.960000038146973,0.03924560546875,-0.008544921875,1.043701171875,29.950000762939453,0.0,36.0,-0.1779327392578125,0.065704345703125,Waiting,0.0,0.0,0.0,0.0,0.0,0.0,0.0,0.0,
4.872341000000015,0.0,0.0,false,4542857.145177665,,0.0,0.0,0.0,0.0,0.0,0.0,1.743163884,0.0,0.0,1.0,0.0,0.0,-0.0,0.0,0.0,3.594970335,0.0,0.0,0.0,0.0,0.0,0.0,0.0,0.0,4.112548407,0.0,0.0,0.0,0.0,0.0,-0.0,0.0,0.0,2.4865720110000002,0.0,0.0,1.1799999475479126,0.47999998927116394,-11.960000038146973,0.0068359375,0.03106689453125,1.010498046875,29.950000762939453,0.0,-3.0,-0.1779937744140625,0.0655364990234375,Waiting,0.0,0.0,0.0,0.0,0.0,0.0,0.0,0.0,
4.91594399999996,0.0,0.0,false,4542836.981917391,,0.0,0.0,0.0,0.0,0.0,0.0,1.744384587,0.0,0.0,1.0,0.0,0.0,-0.0,0.0,0.0,3.594970335,0.0,0.0,0.0,0.0,0.0,0.0,0.0,0.0,4.112548407,0.0,0.0,0.0,0.0,0.0,-0.0,0.0,0.0,2.4877927140000002,0.0,0.0,1.1699999570846558,0.47999998927116394,-11.960000038146973,-0.0289306640625,0.0621337890625,0.96142578125,29.950000762939453,0.0,-45.0,-0.178192138671875,0.06561279296875,Waiting,0.0,0.0,0.0,0.0,0.0,0.0,0.0,0.0,
4.966207999999984,0.0,0.0,false,4542812.5202385485,,0.0,0.0,0.0,0.0,0.0,0.0,1.744384587,0.0,0.0,1.0,0.0,0.0,-0.0,0.0,0.0,3.593749632,0.0,0.0,0.0,0.0,0.0,0.0,0.0,0.0,4.111327704,0.0,0.0,0.0,0.0,0.0,-0.0,0.0,0.0,2.4865720110000002,0.0,0.0,1.1799999475479126,0.47999998927116394,-11.960000038146973,0.03887939453125,0.01220703125,1.00732421875,29.950000762939453,0.0,31.0,-0.1787109375,0.065704345703125,Waiting,0.0,0.0,0.0,0.0,0.0,0.0,0.0,0.0,
5.011178000000014,0.0,0.0,false,4542783.760959208,,0.0,0.0,0.0,0.0,0.0,0.0,1.744384587,0.0,0.0,1.0,0.0,0.0,-0.0,0.0,0.0,3.593749632,0.0,0.0012207029999995456,0.0,0.0,0.0,0.0,0.0,0.0,4.112548407,0.0,0.0,0.0,0.0,0.0,-0.0,0.0,0.0,2.4865720110000002,0.0,0.0,1.1799999475479126,0.4699999988079071,-11.960000038146973,0.0379638671875,-0.00439453125,1.0596923828125,29.950000762939453,0.0,33.0,-0.1789398193359375,0.0655670166015625,Waiting,0.0,0.0,0.0,0.0,0.0,0.0,0.0,0.0,
5.054972999999998,0.0,0.0,false,4542750.704897234,,0.0,0.0,0.0,0.0,0.0,0.0,1.744384587,0.0,0.0,1.0,0.0,0.0,-0.0,0.0,0.0,3.594970335,0.0,0.0,0.0,0.0,0.0,0.0,0.0,0.0,4.112548407,0.0,0.0,0.0,0.0,0.0,-0.0,0.0,0.0,2.4853513080000003,0.0,0.0,1.1699999570846558,0.47999998927116394,-11.960000038146973,-0.02557373046875,0.044677734375,0.9754638671875,29.950000762939453,0.0,-38.0,-0.1790008544921875,0.0654754638671875,Waiting,0.0,0.0,0.0,0.0,0.0,0.0,0.0,0.0,
5.106457999999984,0.0,0.0,false,4542710.5146844275,,0.0,0.0,0.0,0.0,0.0,0.0,1.743163884,0.0,0.0,1.0,0.0,0.0,-0.0,0.0,0.0,3.594970335,0.0,-0.0012207029999995456,0.0,0.0,0.0,0.0,0.0,0.0,4.111327704,0.0,0.0,0.0,0.0,0.0,-0.0,0.0,0.0,2.4865720110000002,0.0,0.0,1.1799999475479126,0.47999998927116394,-11.960000038146973,0.00628662109375,0.0155029296875,0.972412109375,29.950000762939453,0.0,0.0,-0.179473876953125,0.0656585693359375,Waiting,0.0,0.0,0.0,0.0,0.0,0.0,0.0,0.0,
5.15285699999996,0.0,0.0,false,4542666.02968413,,0.0,0.0,0.0,0.0,0.0,0.0,1.744384587,0.0,0.0,1.0,0.0,0.0,-0.0,0.0,0.0,3.594970335,0.0,0.0,0.0,0.0,0.0,0.0,0.0,0.0,4.111327704,0.0,0.0,0.0,0.0,0.0,-0.0,0.0,0.0,2.4865720110000002,0.0,0.0,1.1799999475479126,0.4699999988079071,-11.960000038146973,0.0384521484375,-0.0111083984375,1.06097412109375,29.950000762939453,0.0,35.0,-0.17987060546875,0.065521240234375,Waiting,0.0,0.0,0.0,0.0,0.0,0.0,0.0,0.0,
5.206501999999978,0.0,0.0,false,4542617.250713516,,0.0,0.0,0.0,0.0,0.0,0.0,1.744384587,0.0,0.0,1.0,0.0,0.0,-0.0,0.0,0.0,3.594970335,0.0,0.0,0.0,0.0,0.0,0.0,0.0,0.0,4.112548407,0.0,0.0,0.0,0.0,0.0,-0.0,0.0,0.0,2.4877927140000002,0.0,0.0,1.1699999570846558,0.47999998927116394,-11.960000038146973,-0.0242919921875,0.04266357421875,0.9757080078125,29.950000762939453,0.0,-36.0,-0.179931640625,0.0654296875,Waiting,0.0,0.0,0.0,0.0,0.0,0.0,0.0,0.0,
5.251018999999971,0.0,0.0,false,4542564.178589549,,0.0,0.0,0.0,0.0,0.0,0.0,1.744384587,0.0,0.0,1.0,0.0,0.0,-0.0,0.0,0.0,3.594970335,0.0,0.0012207029999995456,0.0,0.0,0.0,0.0,0.0,0.0,4.112548407,0.0,0.0,0.0,0.0,0.0,-0.0,0.0,0.0,2.4865720110000002,0.0,0.0,1.1699999570846558,0.47999998927116394,-11.970000267028809,0.0032958984375,0.0181884765625,0.97222900390625,29.950000762939453,0.0,-4.0,-0.180389404296875,0.06561279296875,Waiting,0.0,0.0,0.0,0.0,0.0,0.0,0.0,0.0,
5.300641000000003,0.0,0.0,false,4542506.8141289875,,0.0,0.0,0.0,0.0,0.0,0.0,1.744384587,0.0,0.0,1.0,0.0,0.0,-0.0,0.0,0.0,3.593749632,0.0,-0.0012207029999995456,0.0,0.0,0.0,0.0,0.0,0.0,4.111327704,0.0,0.0,0.0,0.0,0.0,-0.0,0.0,0.0,2.4865720110000002,0.0,0.0,1.1799999475479126,0.4699999988079071,-11.960000038146973,0.0350341796875,-0.02734375,1.0556640625,29.950000762939453,0.0,35.0,-0.1807861328125,0.0655670166015625,Waiting,0.0,0.0,0.0,0.0,0.0,0.0,0.0,0.0,
5.351391999999993,0.0,0.0,false,4542444.470259988,,0.0,0.0,0.0,0.0,0.0,0.0,1.744384587,0.0,0.0,1.0,0.0,0.0,-0.0,0.0,0.0,3.593749632,0.0,0.0,0.0,0.0,0.0,0.0,0.0,0.0,4.111327704,0.0,0.0,0.0,0.0,0.0,-0.0,0.0,0.0,2.4877927140000002,0.0,0.0,1.1699999570846558,0.47999998927116394,-11.960000038146973,-0.020751953125,0.0457763671875,0.97906494140625,29.950000762939453,0.0,-33.0,-0.180877685546875,0.065399169921875,Waiting,0.0,0.0,0.0,0.0,0.0,0.0,0.0,0.0,
5.40235699999996,0.0,0.0,false,4542375.686513221,,0.0,0.0,0.0,0.0,0.0,0.0,1.744384587,0.0,0.0,1.0,0.0,0.0,-0.0,0.0,0.0,3.594970335,0.0,0.0,0.0,0.0,0.0,0.0,0.0,0.0,4.111327704,0.0,0.0,0.0,0.0,0.0,-0.0,0.0,0.0,2.4865720110000002,0.0,0.0,1.1699999570846558,0.47999998927116394,-11.960000038146973,0.00421142578125,0.01153564453125,0.97222900390625,29.950000762939453,0.0,-2.0,-0.18133544921875,0.0655517578125,Waiting,0.0,0.0,0.0,0.0,0.0,0.0,0.0,0.0,
5.454071999999986,0.0,0.0,false,4542302.61323865,,0.0,0.0,0.0,0.0,0.0,0.0,1.744384587,0.0,0.0,1.0,0.0,0.0,-0.0,0.0,0.0,3.594970335,0.0,0.0,0.0,0.0,0.0,0.0,0.0,0.0,4.111327704,0.0,0.0,0.0,0.0,0.0,-0.0,0.0,0.0,2.4877927140000002,0.0,0.0,1.1699999570846558,0.4699999988079071,-11.960000038146973,0.03924560546875,-0.007080078125,1.06756591796875,29.950000762939453,0.0,35.0,-0.1817474365234375,0.0654296875,Waiting,0.0,0.0,0.0,0.0,0.0,0.0,0.0,0.0,
5.507208999999974,0.0,0.0,false,4542225.25125214,,0.0,0.0,0.0,0.0,0.0,0.0,1.744384587,0.0,0.0,1.0,0.0,0.0,-0.0,0.0,0.0,3.593749632,0.0,0.0,0.0,0.0,0.0,0.0,0.0,0.0,4.111327704,0.0,0.0,0.0,0.0,0.0,-0.0,0.0,0.0,2.4865720110000002,0.0,0.0,1.159999966621399,0.4699999988079071,-11.949999809265137,-0.02227783203125,0.042236328125,0.9769287109375,29.959999084472656,0.0,-34.0,-0.18182373046875,0.0653533935546875,Waiting,0.0,0.0,0.0,0.0,0.0,0.0,0.0,0.0,
5.553838999999978,0.0,0.0,false,4542143.601369342,,0.0,0.0,0.0,0.0,0.0,0.0,1.744384587,0.0,0.0,1.0,0.0,0.0,-0.0,0.0,0.0,3.594970335,0.0,0.0,0.0,0.0,0.0,0.0,0.0,0.0,4.111327704,0.0,0.0,0.0,0.0,0.0,-0.0,0.0,0.0,2.4853513080000003,0.0,0.0,1.159999966621399,0.47999998927116394,-11.960000038146973,0.00537109375,0.01239013671875,0.9730224609375,29.959999084472656,0.0,-1.0,-0.18231201171875,0.0655059814453125,Waiting,0.0,0.0,0.0,0.0,0.0,0.0,0.0,0.0,
5.605665999999968,0.0,0.0,false,4542056.97673534,,0.0,0.0,0.0,0.0,0.0,0.0,1.744384587,0.0,0.0,1.0,0.0,0.0,-0.0,0.0,0.0,3.593749632,0.0,0.0,0.0,0.0,0.0,0.0,0.0,0.0,4.111327704,0.0,0.0,0.0,0.0,0.0,-0.0,0.0,0.0,2.4865720110000002,0.0,0.0,1.1699999570846558,0.46000000834465027,-11.960000038146973,0.041748046875,-0.00421142578125,1.05621337890625,29.959999084472656,0.0,37.0,-0.1827392578125,0.0653839111328125,Waiting,0.0,0.0,0.0,0.0,0.0,0.0,0.0,0.0,
5.653168000000005,0.0,0.0,false,4541966.065922921,,0.0,0.0,0.0,0.0,0.0,0.0,1.744384587,0.0,0.0,1.0,0.0,0.0,-0.0,0.0,0.0,3.594970335,0.0,0.0,0.0,0.0,0.0,0.0,0.0,0.0,4.112548407,0.0,0.0,0.0,0.0,0.0,-0.0,0.0,0.0,2.4865720110000002,0.0,0.0,1.159999966621399,0.47999998927116394,-11.960000038146973,-0.024169921875,0.04730224609375,0.9774169921875,29.959999084472656,0.0,-37.0,-0.182830810546875,0.0653228759765625,Waiting,0.0,0.0,0.0,0.0,0.0,0.0,0.0,0.0,
5.704399999999965,0.0,0.0,false,4541870.8697471,,0.0,0.0,0.0,0.0,0.0,0.0,1.744384587,0.0,0.0,1.0,0.0,0.0,-0.0,0.0,0.0,3.594970335,0.0,0.0,0.0,0.0,0.0,0.0,0.0,0.0,4.111327704,0.0,0.0,0.0,0.0,0.0,-0.0,0.0,0.0,2.4865720110000002,0.0,0.0,1.1699999570846558,0.47999998927116394,-11.960000038146973,0.00689697265625,0.0125732421875,0.97930908203125,29.959999084472656,0.0,0.0,-0.1833343505859375,0.0654754638671875,Waiting,0.0,0.0,0.0,0.0,0.0,0.0,0.0,0.0,
5.751374000000011,0.0,0.0,false,4541771.38902269,,0.0,0.0,0.0,0.0,0.0,0.0,1.744384587,0.0,0.0,1.0,0.0,0.0,-0.0,0.0,0.0,3.594970335,0.0,0.0,0.0,0.0,0.0,0.0,0.0,0.0,4.111327704,0.0,0.0,0.0,0.0,0.0,-0.0,0.0,0.0,2.4865720110000002,0.0,0.0,1.1799999475479126,0.4699999988079071,-11.960000038146973,0.03521728515625,-0.0269775390625,1.0655517578125,29.959999084472656,0.0,35.0,-0.183746337890625,0.0654296875,Waiting,0.0,0.0,0.0,0.0,0.0,0.0,0.0,0.0,
5.795651000000013,0.0,0.0,false,4541665.473350656,,0.0,0.0,0.0,0.0,0.0,0.0,1.743163884,0.0,0.0,1.0,0.0,0.0,-0.0,0.0,0.0,3.594970335,0.0,0.0,0.0,0.0,0.0,0.0,0.0,0.0,4.112548407,0.0,0.0,0.0,0.0,0.0,-0.0,0.0,0.0,2.4865720110000002,0.0,0.0,1.1799999475479126,0.47999998927116394,-11.960000038146973,-0.0169677734375,0.0355224609375,0.99951171875,29.959999084472656,0.0,-27.0,-0.183837890625,0.0652618408203125,Waiting,0.0,0.0,0.0,0.0,0.0,0.0,0.0,0.0,
5.84827899999998,0.0,0.0,false,4541554.587579214,,0.0,0.0,0.0,0.0,0.0,0.0,1.743163884,0.0,0.0,1.0,0.0,0.0,-0.0,0.0,0.0,3.594970335,0.0,0.0,0.0,0.0,0.0,0.0,0.0,0.0,4.111327704,0.0,0.0,0.0,0.0,0.0,-0.0,0.0,0.0,2.4865720110000002,0.0,0.0,1.1699999570846558,0.47999998927116394,-11.960000038146973,-0.02081298828125,0.03338623046875,0.9515380859375,29.959999084472656,0.0,-31.0,-0.1842193603515625,0.0654449462890625,Waiting,0.0,0.0,0.0,0.0,0.0,0.0,0.0,0.0,
5.894671999999963,0.0,0.0,false,4541439.4200621,,0.0,0.0,0.0,0.0,0.0,0.0,1.743163884,0.0,0.0,1.0,0.0,0.0,-0.0,0.0,0.0,3.594970335,0.0,0.0,0.0,0.0,0.0,0.0,0.0,0.0,4.111327704,0.0,0.0,0.0,0.0,0.0,-0.0,0.0,0.0,2.4865720110000002,0.0,0.0,1.1799999475479126,0.4699999988079071,-11.949999809265137,0.03240966796875,-0.02899169921875,1.05908203125,29.959999084472656,0.0,33.0,-0.184814453125,0.06536865234375,Waiting,0.0,0.0,0.0,0.0,0.0,0.0,0.0,0.0,
5.947766000000003,0.0,0.0,false,4541319.97161323,,0.0,0.0,0.0,0.0,0.0,0.0,1.744384587,0.0,0.0,1.0,0.0,0.0,-0.0,0.0,0.0,3.594970335,0.0,0.0,0.0,0.0,0.0,0.0,0.0,0.0,4.111327704,0.0,0.0,0.0,0.0,0.0,-0.0,0.0,0.0,2.4865720110000002,0.0,0.0,1.1799999475479126,0.47999998927116394,-11.960000038146973,-0.01995849609375,0.037353515625,0.98809814453125,29.959999084472656,0.0,-31.0,-0.1848907470703125,0.065277099609375,Waiting,0.0,0.0,0.0,0.0,0.0,0.0,0.0,0.0,
5.996506999999983,0.0,0.0,false,4541196.243046315,,0.0,0.0,0.0,0.0,0.0,0.0,1.744384587,0.0,0.0,1.0,0.0,0.0,-0.0,0.0,0.0,3.593749632,0.0,0.0,0.0,0.0,0.0,0.0,0.0,0.0,4.110107001,0.0,0.0,0.0,0.0,0.0,-0.0,0.0,0.0,2.4865720110000002,0.0,0.0,1.159999966621399,0.47999998927116394,-11.960000038146973,0.0203857421875,0.013916015625,0.98760986328125,29.959999084472656,0.0,13.0,-0.1855010986328125,0.0654296875,Waiting,0.0,0.0,0.0,0.0,0.0,0.0,0.0,0.0,
6.054725999999966,0.0,0.0,false,4541069.283324886,,0.0,0.0,0.0,0.0,0.0,0.0,1.743163884,0.0,0.0,1.0,0.0,0.0,-0.0,0.0,0.0,3.593749632,0.0,0.0,0.0,0.0,0.0,0.0,0.0,0.0,4.111327704,0.0,0.0,0.0,0.0,0.0,-0.0,0.0,0.0,2.4865720110000002,0.0,0.0,1.1699999570846558,0.4699999988079071,-11.949999809265137,0.036376953125,0.00860595703125,1.04791259765625,29.940000534057617,0.0,29.0,-0.1858978271484375,0.06524658203125,Waiting,0.0,0.0,0.0,0.0,0.0,0.0,0.0,0.0,
6.109048000000009,0.0,0.0,false,4541077.611910041,,0.0,0.0,0.0,0.0,0.0,0.0,1.7419431810000001,0.0,0.0,1.0,0.0,0.0,-0.0,0.0,0.0,3.594970335,0.0,0.0,0.0,0.0,0.0,0.0,0.0,0.0,4.111327704,0.0,0.0,0.0,0.0,0.0,-0.0,0.0,0.0,2.4877927140000002,0.0,0.0,1.159999966621399,0.47999998927116394,-11.960000038146973,-0.03228759765625,0.06378173828125,0.95233154296875,29.940000534057617,0.0,-48.0,-0.18621826171875,0.065338134765625,Waiting,0.0,0.0,0.0,0.0,0.0,0.0,0.0,0.0,
6.156532999999996,0.0,0.0,false,4541081.19396934,,0.0,0.0,0.0,0.0,0.0,0.0,1.744384587,0.0,0.0,1.0,0.0,0.0,-0.0,0.0,0.0,3.593749632,0.0,0.0,0.0,0.0,0.0,0.0,0.0,0.0,4.111327704,0.0,0.0,0.0,0.0,0.0,-0.0,0.0,0.0,2.4865720110000002,0.0,0.0,1.1699999570846558,0.47999998927116394,-11.960000038146973,0.037841796875,0.00543212890625,1.01031494140625,29.940000534057617,0.0,31.0,-0.186798095703125,0.0654296875,Waiting,0.0,0.0,0.0,0.0,0.0,0.0,0.0,0.0,
6.208871999999974,0.0,0.0,false,4541080.030404763,,0.0,0.0,0.0,0.0,0.0,0.0,1.744384587,0.0,0.0,1.0,0.0,0.0,-0.0,0.0,0.0,3.594970335,0.0,0.0012207029999995456,0.0,0.0,0.0,0.0,0.0,0.0,4.112548407,0.0,0.0,0.0,0.0,0.0,-0.0,0.0,0.0,2.4865720110000002,0.0,0.0,1.159999966621399,0.4699999988079071,-11.960000038146973,0.0335693359375,0.014892578125,1.03582763671875,29.940000534057617,0.0,25.0,-0.187042236328125,0.0652313232421875,Waiting,0.0,0.0,0.0,0.0,0.0,0.0,0.0,0.0,
6.258468999999983,0.0,0.0,false,4541073.64682037,,0.0,0.0,0.0,0.0,0.0,0.0,1.744384587,0.0,0.0,1.0,0.0,0.0,-0.0,0.0,0.0,3.594970335,0.0,-0.0012207029999995456,0.0,0.0,0.0,0.0,0.0,0.0,4.112548407,0.0,0.0,0.0,0.0,0.0,-0.0,0.0,0.0,2.4865720110000002,0.0,0.0,1.149999976158142,0.47999998927116394,-11.960000038146973,-0.03131103515625,0.05731201171875,0.96563720703125,29.940000534057617,0.0,-46.0,-0.1872406005859375,0.06524658203125,Waiting,0.0,0.0,0.0,0.0,0.0,0.0,0.0,0.0,
6.308070999999996,0.0,0.0,false,4541062.519475584,,0.0,0.0,0.0,0.0,0.0,0.0,1.744384587,0.0,0.0,1.0,0.0,0.0,-0.0,0.0,0.0,3.594970335,0.0,0.0,0.0,0.0,0.0,0.0,0.0,0.0,4.111327704,0.0,0.0,0.0,0.0,0.0,-0.0,0.0,0.0,2.4865720110000002,0.0,0.0,1.149999976158142,0.47999998927116394,-11.960000038146973,0.03271484375,0.01190185546875,0.99554443359375,29.940000534057617,0.0,25.0,-0.1878204345703125,0.065399169921875,Waiting,0.0,0.0,0.0,0.0,0.0,0.0,0.0,0.0,
6.358021999999997,0.0,0.0,false,4541046.649271691,,0.0,0.0,0.0,0.0,0.0,0.0,1.744384587,0.0,0.0,1.0,0.0,0.0,-0.0,0.0,0.0,3.593749632,0.0,0.0,0.0,0.0,0.0,0.0,0.0,0.0,4.110107001,0.0,0.0,0.0,0.0,0.0,-0.0,0.0,0.0,2.4865720110000002,0.0,0.0,1.159999966621399,0.4699999988079071,-11.949999809265137,0.03619384765625,-0.01409912109375,1.06671142578125,29.940000534057617,0.0,34.0,-0.1881561279296875,0.0652923583984375,Waiting,0.0,0.0,0.0,0.0,0.0,0.0,0.0,0.0,
6.409220999999961,0.0,0.0,false,4541025.56190235,,0.0,0.0,0.0,0.0,0.0,0.0,1.744384587,0.0,0.0,1.0,0.0,0.0,-0.0,0.0,0.0,3.594970335,0.0,0.0,0.0,0.0,0.0,0.0,0.0,0.0,4.111327704,0.0,0.0,0.0,0.0,0.0,-0.0,0.0,0.0,2.4865720110000002,0.0,0.0,1.149999976158142,0.47999998927116394,-11.949999809265137,-0.0333251953125,0.06256103515625,0.95849609375,29.940000534057617,0.0,-49.0,-0.188446044921875,0.0652313232421875,Waiting,0.0,0.0,0.0,0.0,0.0,0.0,0.0,0.0,
6.455642999999982,0.0,0.0,false,4540999.733535968,,0.0,0.0,0.0,0.0,0.0,0.0,1.744384587,0.0,0.0,1.0,0.0,0.0,-0.0,0.0,0.0,3.593749632,0.0,0.0,0.0,0.0,0.0,0.0,0.0,0.0,4.111327704,0.0,0.0,0.0,0.0,0.0,-0.0,0.0,0.0,2.4865720110000002,0.0,0.0,1.149999976158142,0.47999998927116394,-11.949999809265137,0.04071044921875,0.01129150390625,1.00079345703125,29.940000534057617,0.0,33.0,-0.189056396484375,0.06536865234375,Waiting,0.0,0.0,0.0,0.0,0.0,0.0,0.0,0.0,
6.505905999999959,0.0,0.0,false,4540969.165073134,,0.0,0.0,0.0,0.0,0.0,0.0,1.744384587,0.0,0.0,1.0,0.0,0.0,-0.0,0.0,0.0,3.593749632,0.0,0.0,0.0,0.0,0.0,0.0,0.0,0.0,4.111327704,0.0,0.0,0.0,0.0,0.0,-0.0,0.0,0.0,2.4865720110000002,0.0,0.0,1.159999966621399,0.4699999988079071,-11.949999809265137,0.0404052734375,0.00347900390625,1.053955078125,29.940000534057617,0.0,34.0,-0.1893310546875,0.065185546875,Waiting,0.0,0.0,0.0,0.0,0.0,0.0,0.0,0.0,
6.552946999999985,0.0,0.0,false,4540933.857414208,,0.0,0.0,0.0,0.0,0.0,0.0,1.744384587,0.0,0.0,1.0,0.0,0.0,-0.0,0.0,0.0,3.594970335,0.0,0.0012207029999995456,0.0,0.0,0.0,0.0,0.0,0.0,4.112548407,0.0,0.0,0.0,0.0,0.0,-0.0,0.0,0.0,2.4865720110000002,0.0,0.0,1.149999976158142,0.47999998927116394,-11.949999809265137,-0.02313232421875,0.0518798828125,0.97393798828125,29.979999542236328,0.0,-37.0,-0.1894683837890625,0.065216064453125,Waiting,0.0,0.0,0.0,0.0,0.0,0.0,0.0,0.0,
