Time,ClimberA1,ClimberA2,CameraExists,HeapSpace,LoopTime,FRpos,FRCurrent,FRspeed,FRsetpoint,FRApos,FRACurrent,FREncpos,FREncSetpoint,FREncSpeed,FLpos,FLCurrent,FLspeed,FLsetpoint,FLApos,FLACurrent,FLEncpos,FLEncSetpoint,FLEncSpeed,BRpos,BRCurrent,BRspeed,BRsetpoint,BRApos,BRACurrent,BREncpos,BREncSetpoint,BREncSpeed,BLpos,BLCurrent,BLspeed,BLsetpoint,BLApos,BLACurrent,BLEncpos,BLEncSetpoint,BLEncSpeed,navx_Pitch,navx_Roll,navx_Yaw,navx_XAcc,navx_YAcc,navx_ZAcc,navx_Temp,navx_Bar,navx_Alt,navx_XDis,navx_YDis,GearPlacerState,ShootOutputV,ShootOutputCurrent,ShootEncPos,ShootEncVelocity,ShootSpeed,ShootSetpoint,CarouselSetpoint,CarouselCurrent,
0.14813099999993573,0.0,0.0,false,2717910.7187342197,,0.0,0.0,0.0,0.0,0.0,0.125,4.940185041,0.0,0.0,-8.0,0.0,0.0,-0.0,0.0,0.0,2.297363046,0.0,-0.3987792970000008,0.0,0.0,0.0,0.0,0.0,0.0,4.941405744,0.0,0.0012207029999995456,3.0,0.0,0.0,-0.0,0.0,0.0,0.01220703,0.0,0.0,1.3300000429153442,0.4000000059604645,78.08000183105469,0.01263427734375,0.0079345703125,0.99761962890625,34.470001220703125,0.0,-13.0,0.0392913818359375,-0.034393310546875,Waiting,0.0,0.0,0.0,0.0,0.0,0.0,0.0,0.0,
0.21472299999999814,0.0,0.0,false,2718008.385104145,,0.0,0.0,0.0,0.0,0.0,0.125,4.940185041,0.0,0.0,-8.0,0.0,0.0,-0.0,0.0,0.375,2.4780270900000003,0.0,0.003662109000000413,0.0,0.0,0.0,0.0,0.0,0.0,4.940185041,0.0,-0.0012207029999995456,3.0,0.0,0.0,-0.0,0.0,0.0,0.010986327,0.0,0.0,1.350000023841858,0.4000000059604645,78.05999755859375,0.02490234375,0.00982666015625,1.019775390625,34.529998779296875,0.0,-10.0,0.0392913818359375,-0.0344085693359375,Waiting,0.0,0.0,0.0,0.0,0.0,0.0,0.0,0.0,
0.29395299999997954,0.0,0.0,false,2718100.99099554,,0.0,0.0,0.0,0.0,0.0,0.125,4.941405744,0.0,0.0,-8.0,0.0,0.0,-0.0,0.0,0.0,2.7380368290000003,0.0,0.2124023219999991,0.0,0.0,0.0,0.0,0.0,0.0,4.942626447,0.0,0.0,3.0,0.0,0.0,-0.0,0.0,0.0,0.01220703,0.0,0.0,1.4199999570846558,0.38999998569488525,78.05999755859375,0.0052490234375,0.03985595703125,0.99456787109375,34.529998779296875,0.0,14.0,0.03961181640625,-0.034393310546875,Waiting,0.0,0.0,0.0,0.0,0.0,0.0,0.0,0.0,
0.36676999999990223,0.0,0.0,false,2718188.6286026845,,0.0,0.0,0.0,0.0,0.0,0.125,4.940185041,0.0,0.0,-8.0,0.0,0.0,-0.0,0.0,0.125,2.8479000990000003,0.0,-4.712183617999999,0.0,0.0,0.0,0.0,0.0,0.0,4.941405744,0.0,0.0,3.0,0.0,0.0,-0.0,0.0,0.0,0.013427733,0.0,-0.001220703,1.440000057220459,0.4099999964237213,78.06999969482422,0.0025634765625,0.02069091796875,1.00238037109375,34.529998779296875,0.0,-5.0,0.039764404296875,-0.0343475341796875,Waiting,0.0,0.0,0.0,0.0,0.0,0.0,0.0,0.0,
0.44056299999996557,0.0,0.0,false,2718271.212386402,,0.0,0.0,0.0,0.0,0.0,0.125,4.942626447,0.0,0.0,-8.0,0.0,0.0,-0.0,0.0,0.0,2.8479000990000003,0.0,0.09643553700000007,0.0,0.0,0.0,0.0,0.0,0.0,4.942626447,0.0,0.0,3.0,0.0,0.0,-0.0,0.0,0.0,0.01220703,0.0,0.001220703,1.409999966621399,0.4099999964237213,78.08000183105469,0.00201416015625,0.01409912109375,1.00299072265625,34.529998779296875,0.0,-11.0,0.039764404296875,-0.0343475341796875,Waiting,0.0,0.0,0.0,0.0,0.0,0.0,0.0,0.0,
0.5141579999999376,0.0,0.0,false,2718350.3625730993,,0.0,0.0,0.0,0.0,0.0,0.125,4.941405744,0.0,0.0,-8.0,0.0,0.0,-0.0,0.0,0.0,2.838134475,0.0,0.0,0.0,0.0,0.0,0.0,0.0,0.0,4.941405744,0.0,0.0,3.0,0.0,0.0,-0.0,0.0,0.0,0.01220703,0.0,0.0,1.3700000047683716,0.3799999952316284,78.08999633789062,-0.00201416015625,0.017333984375,1.0025634765625,34.529998779296875,0.0,-8.0,0.039764404296875,-0.0343475341796875,Waiting,0.0,0.0,0.0,0.0,0.0,0.0,0.0,0.0,
0.589622999999905,0.0,0.0,false,2718424.5408498105,,0.0,0.0,0.0,0.0,0.0,0.125,4.941405744,0.0,0.0,-8.0,0.0,0.0,-0.0,0.0,0.0,2.752685265,0.0,0.0,0.0,0.0,0.0,0.0,0.0,0.0,4.942626447,0.0,0.0,3.0,0.0,0.0,-0.0,0.0,0.0,0.01220703,0.0,0.0,1.3600000143051147,0.38999998569488525,78.08000183105469,0.00921630859375,0.03070068359375,1.00262451171875,34.529998779296875,0.0,7.0,0.039764404296875,-0.0343475341796875,Waiting,0.0,0.0,0.0,0.0,0.0,0.0,0.0,0.0,
0.6675939999999245,0.0,0.0,false,2718493.667073325,,0.0,0.0,0.0,0.0,0.0,0.125,4.938964338,0.0,0.0,-8.0,0.0,0.0,-0.0,0.0,0.0,2.6940915210000003,0.0,-0.08544920999999972,0.0,0.0,0.0,0.0,0.0,0.0,4.938964338,0.0,0.0012207029999995456,3.0,0.0,0.0,-0.0,0.0,0.0,0.01220703,0.0,0.0,1.3799999952316284,0.4000000059604645,78.08000183105469,0.01470947265625,0.02508544921875,0.99566650390625,34.529998779296875,0.0,2.0,0.039764404296875,-0.0343475341796875,Waiting,0.0,0.0,0.0,0.0,0.0,0.0,0.0,0.0,
0.7365199999999023,0.0,0.0,false,2718557.82803298,,0.0,0.0,0.0,0.0,0.0,0.125,4.940185041,0.0,0.0,-8.0,0.0,0.0,-0.0,0.0,0.0,2.6855466000000003,0.0,0.0,0.0,0.0,0.0,0.0,0.0,0.0,4.942626447,0.0,0.0,3.0,0.0,0.0,-0.0,0.0,0.0,0.01220703,0.0,0.0,1.3899999856948853,0.4000000059604645,78.08000183105469,0.00579833984375,0.02227783203125,0.99078369140625,34.52000045776367,0.0,-2.0,0.039764404296875,-0.0343475341796875,Waiting,0.0,0.0,0.0,0.0,0.0,0.0,0.0,0.0,
0.8090429999999469,0.0,0.0,false,2718616.93820721,,0.0,0.0,0.0,0.0,0.0,0.125,4.938964338,0.0,-0.0012207030000004337,-8.0,0.0,0.0,-0.0,0.0,0.0,2.6855466000000003,0.0,-0.004882811999999959,0.0,0.0,0.0,0.0,0.0,0.0,4.941405744,0.0,0.0,3.0,0.0,0.0,-0.0,0.0,0.0,0.01220703,0.0,0.0,1.399999976158142,0.38999998569488525,78.08999633789062,0.00634765625,0.024169921875,0.99334716796875,34.52000045776367,0.0,0.0,0.039764404296875,-0.0343475341796875,Waiting,0.0,0.0,0.0,0.0,0.0,0.0,0.0,0.0,
0.8757679999999236,0.0,0.0,false,2718671.084377892,,0.0,0.0,0.0,0.0,0.0,0.125,4.938964338,0.0,0.0,-8.0,0.0,0.0,-0.0,0.0,0.0,2.6843258970000003,0.0,0.0,0.0,0.0,0.0,0.0,0.0,0.0,4.941405744,0.0,0.0,3.0,0.0,0.0,-0.0,0.0,0.0,0.01220703,0.0,0.0,1.3799999952316284,0.38999998569488525,78.08000183105469,0.00628662109375,0.0177001953125,0.99554443359375,34.52000045776367,0.0,-6.0,0.039764404296875,-0.0343475341796875,Waiting,0.0,0.0,0.0,0.0,0.0,0.0,0.0,0.0,
0.9561739999999991,0.0,0.0,false,2718720.181030494,,0.0,0.0,0.0,0.0,0.0,0.125,4.938964338,0.0,0.0,-8.0,0.0,0.0,-0.0,0.0,0.0,2.6855466000000003,0.0,0.0,0.0,0.0,0.0,0.0,0.0,0.0,4.942626447,0.0,0.0,3.0,0.0,0.0,-0.0,0.0,0.0,0.01220703,0.0,0.001220703,1.3700000047683716,0.38999998569488525,78.08000183105469,0.00506591796875,0.0247802734375,1.0045166015625,34.52000045776367,0.0,0.0,0.039764404296875,-0.0343475341796875,Waiting,0.0,0.0,0.0,0.0,0.0,0.0,0.0,0.0,
1.0307149999999674,0.0,0.0,false,2718764.2288021534,,0.0,0.0,0.0,0.0,0.0,0.125,4.940185041,0.0,0.0,-8.0,0.0,0.0,-0.0,0.0,0.0,2.6843258970000003,0.0,0.0,0.0,0.0,0.0,0.0,0.0,0.0,4.942626447,0.0,0.0,3.0,0.0,0.0,-0.0,0.0,0.0,0.01220703,0.0,0.0,1.3899999856948853,0.38999998569488525,78.08000183105469,0.00177001953125,0.02899169921875,0.994384765625,34.52000045776367,0.0,3.0,0.039764404296875,-0.0343475341796875,Waiting,0.0,0.0,0.0,0.0,0.0,0.0,0.0,0.0,
1.1091579999999377,0.0,0.0,false,2718804.8524204064,,0.0,0.0,0.0,0.0,0.0,0.125,4.942626447,0.0,0.0,-8.0,0.0,0.0,-0.0,0.0,0.0,2.6843258970000003,0.0,0.0,0.0,0.0,0.0,0.0,0.0,0.0,4.940185041,0.0,0.0012207029999995456,3.0,0.0,0.0,-0.0,0.0,0.0,0.01220703,0.0,0.0,1.3899999856948853,0.4000000059604645,78.08000183105469,0.00982666015625,0.0272216796875,1.00421142578125,34.52000045776367,0.0,3.0,0.039764404296875,-0.0343475341796875,Waiting,0.0,0.0,0.0,0.0,0.0,0.0,0.0,0.0,
1.185482999999891,0.0,0.0,false,2718840.514425099,,0.0,0.0,0.0,0.0,0.0,0.125,4.937743635,0.0,0.0,-8.0,0.0,0.0,-0.0,0.0,0.0,2.6843258970000003,0.0,0.0,0.0,0.0,0.0,0.0,0.0,0.0,4.941405744,0.0,0.0,3.0,0.0,0.0,-0.0,0.0,0.0,0.013427733,0.0,0.0,1.3799999952316284,0.38999998569488525,78.08999633789062,0.0025634765625,0.01934814453125,1.00018310546875,34.52000045776367,0.0,-5.0,0.039764404296875,-0.0343475341796875,Waiting,0.0,0.0,0.0,0.0,0.0,0.0,0.0,0.0,
1.25940699999989,0.0,0.0,false,2718869.505361874,,0.0,0.0,0.0,0.0,0.0,0.125,4.938964338,0.0,0.0,-8.0,0.0,0.0,-0.0,0.0,0.0,2.6843258970000003,0.0,0.0,0.0,0.0,0.0,0.0,0.0,0.0,4.941405744,0.0,0.0,3.0,0.0,0.0,-0.0,0.0,0.0,0.01220703,0.0,0.0,1.3700000047683716,0.38999998569488525,78.08000183105469,0.0067138671875,0.02020263671875,0.992919921875,34.52000045776367,0.0,-3.0,0.039764404296875,-0.0343475341796875,Waiting,0.0,0.0,0.0,0.0,0.0,0.0,0.0,0.0,
1.332625,0.0,0.0,false,2718893.4499579477,,0.0,0.0,0.0,0.0,0.0,0.125,4.938964338,0.0,0.0,-8.0,0.0,0.0,-0.0,0.0,0.0,2.6855466000000003,0.0,0.0,0.0,0.0,0.0,0.0,0.0,0.0,4.940185041,0.0,0.0,3.0,0.0,0.0,-0.0,0.0,0.0,0.01220703,0.0,0.0,1.3700000047683716,0.38999998569488525,78.08000183105469,0.00909423828125,0.02685546875,1.00213623046875,34.52000045776367,0.0,3.0,0.039764404296875,-0.0343475341796875,Waiting,0.0,0.0,0.0,0.0,0.0,0.0,0.0,0.0,
1.4133639999999432,0.0,0.0,false,2718994.742020941,,0.0,0.0,0.0,0.0,0.0,0.125,4.942626447,0.0,0.0,-8.0,0.0,0.0,-0.0,0.0,0.0,2.6843258970000003,0.0,0.0,0.0,0.0,0.0,0.0,0.0,0.0,4.941405744,0.0,0.0,3.0,0.0,0.0,-0.0,0.0,0.0,0.013427733,0.0,-0.001220703,1.3899999856948853,0.38999998569488525,78.08000183105469,0.00665283203125,0.0242919921875,0.99652099609375,34.52000045776367,0.0,0.0,0.039764404296875,-0.0343475341796875,Waiting,0.0,0.0,0.0,0.0,0.0,0.0,0.0,0.0,
1.4917869999998947,0.0,0.0,false,2719090.6500714826,,0.0,0.0,0.0,0.0,0.0,0.125,4.941405744,0.0,0.0,-8.0,0.0,0.0,-0.0,0.0,0.0,2.6843258970000003,0.0,0.0,0.0,0.0,0.0,0.0,0.0,0.0,4.94384715,0.0,0.0,3.0,0.0,0.0,-0.0,0.0,0.0,0.01220703,0.0,0.0,1.3899999856948853,0.38999998569488525,78.08000183105469,0.00543212890625,0.02227783203125,0.99951171875,34.52000045776367,0.0,-2.0,0.039764404296875,-0.0343475341796875,Waiting,0.0,0.0,0.0,0.0,0.0,0.0,0.0,0.0,
1.566060999999987,0.0,0.0,false,2719181.432788126,,0.0,0.0,0.0,0.0,0.0,0.125,4.940185041,0.0,0.0,-8.0,0.0,0.0,-0.0,0.0,0.0,2.6843258970000003,0.0,0.0,0.0,0.0,0.0,0.0,0.0,0.0,4.940185041,0.0,0.0,3.0,0.0,0.0,-0.0,0.0,0.0,0.01220703,0.0,0.0,1.3799999952316284,0.38999998569488525,78.08000183105469,0.0081787109375,0.021240234375,0.995849609375,34.52000045776367,0.0,-2.0,0.039764404296875,-0.0343475341796875,Waiting,0.0,0.0,0.0,0.0,0.0,0.0,0.0,0.0,
1.6444269999999088,0.0,0.0,false,2719267.0961991255,,0.0,0.0,0.0,0.0,0.0,0.125,4.940185041,0.0,0.0,-8.0,0.0,0.0,-0.0,0.0,0.0,2.6855466000000003,0.0,0.0,0.0,0.0,0.0,0.0,0.0,0.0,4.941405744,0.0,0.0,3.0,0.0,0.0,-0.0,0.0,0.0,0.010986327,0.0,0.0,1.3700000047683716,0.38999998569488525,78.08000183105469,0.0059814453125,0.02252197265625,0.9989013671875,34.52000045776367,0.0,-1.0,0.039764404296875,-0.0343475341796875,Waiting,0.0,0.0,0.0,0.0,0.0,0.0,0.0,0.0,
1.7139949999999953,0.0,0.0,false,2719347.7270548665,,0.0,0.0,0.0,0.0,0.0,0.125,4.941405744,0.0,0.0,-8.0,0.0,0.0,-0.0,0.0,0.0,2.6855466000000003,0.0,0.0,0.0,0.0,0.0,0.0,0.0,0.0,4.940185041,0.0,0.0,3.0,0.0,0.0,-0.0,0.0,0.0,0.01220703,0.0,-0.001220703,1.3799999952316284,0.4000000059604645,78.08000183105469,0.00390625,0.02984619140625,0.985107421875,34.540000915527344,0.0,5.0,0.039764404296875,-0.0343475341796875,Waiting,0.0,0.0,0.0,0.0,0.0,0.0,0.0,0.0,
1.7894659999998985,0.0,0.0,false,2719424.881190616,,0.0,0.0,0.0,0.0,0.0,0.125,4.942626447,0.0,0.0,-8.0,0.0,0.0,-0.0,0.0,0.0,2.6855466000000003,0.0,0.0,0.0,0.0,0.0,0.0,0.0,0.0,4.942626447,0.0,0.0,3.0,0.0,0.0,-0.0,0.0,0.0,0.01220703,0.0,0.0,1.3700000047683716,0.4099999964237213,78.06999969482422,0.0159912109375,0.0213623046875,0.99688720703125,34.540000915527344,0.0,0.0,0.039764404296875,-0.0343475341796875,Waiting,0.0,0.0,0.0,0.0,0.0,0.0,0.0,0.0,
1.862497999999905,0.0,0.0,false,2719496.91243116,,0.0,0.0,0.0,0.0,0.0,0.125,4.941405744,0.0,0.0,-8.0,0.0,0.0,-0.0,0.0,0.0,2.6855466000000003,0.0,0.0,0.0,0.0,0.0,0.0,0.0,0.0,4.940185041,0.0,0.0,3.0,0.0,0.0,-0.0,0.0,0.0,0.01220703,0.0,0.001220703,1.3600000143051147,0.4000000059604645,78.06999969482422,-0.002685546875,0.02349853515625,1.00537109375,34.540000915527344,0.0,-2.0,0.039764404296875,-0.0343475341796875,Waiting,0.0,0.0,0.0,0.0,0.0,0.0,0.0,0.0,
1.9338419999999459,0.0,0.0,false,2719563.912897259,,0.0,0.0,0.0,0.0,0.0,0.125,4.938964338,0.0,0.0,-8.0,0.0,0.0,-0.0,0.0,0.0,2.6855466000000003,0.0,0.0,0.0,0.0,0.0,0.0,0.0,0.0,4.942626447,0.0,0.0,3.0,0.0,0.0,-0.0,0.0,0.0,0.010986327,0.0,0.0,1.3700000047683716,0.3799999952316284,78.06999969482422,0.0123291015625,0.026611328125,0.97979736328125,34.540000915527344,0.0,4.0,0.039764404296875,-0.0343475341796875,Waiting,0.0,0.0,0.0,0.0,0.0,0.0,0.0,0.0,
2.0104539999999105,0.0,0.0,false,2719625.7971331286,,0.0,0.0,0.0,0.0,0.0,0.125,4.941405744,0.0,0.0012207030000004337,-8.0,0.0,0.0,-0.0,0.0,0.0,2.6843258970000003,0.0,0.0,0.0,0.0,0.0,0.0,0.0,0.0,4.940185041,0.0,0.0,3.0,0.0,0.0,-0.0,0.0,0.0,0.01220703,0.0,0.0,1.3799999952316284,0.4099999964237213,78.05000305175781,0.01348876953125,0.025390625,0.9884033203125,34.540000915527344,0.0,2.0,0.039764404296875,-0.0343475341796875,Waiting,0.0,0.0,0.0,0.0,0.0,0.0,0.0,0.0,
2.0762789999999804,0.0,0.0,false,2719682.651870534,,0.0,0.0,0.0,0.0,0.0,0.125,4.940185041,0.0,0.0,-8.0,0.0,0.0,-0.0,0.0,0.0,2.680663788,0.0,0.0,0.0,0.0,0.0,0.0,0.0,0.0,4.941405744,0.0,0.0,3.0,0.0,0.0,-0.0,0.0,0.0,0.01220703,0.0,0.0,1.399999976158142,0.41999998688697815,78.05999755859375,0.00787353515625,0.0272216796875,1.0015869140625,34.540000915527344,0.0,2.0,0.039764404296875,-0.0343475341796875,Waiting,0.0,0.0,0.0,0.0,0.0,0.0,0.0,0.0,
2.1546059999999123,0.0,0.0,false,2719736.0376613005,,0.0,0.0,0.0,0.0,0.0,0.125,4.941405744,0.0,0.0,-8.0,0.0,0.0,-0.0,0.0,0.0,2.6318356680000004,0.0,-0.009765623999999917,0.0,0.0,0.0,0.0,0.0,0.0,4.941405744,0.0,-0.0012207029999995456,3.0,0.0,0.0,-0.0,0.0,0.0,0.01220703,0.0,-0.001220703,1.399999976158142,0.38999998569488525,78.06999969482422,-0.002197265625,0.01885986328125,1.00531005859375,34.540000915527344,0.0,-7.0,0.039764404296875,-0.0343475341796875,Waiting,0.0,0.0,0.0,0.0,0.0,0.0,0.0,0.0,
2.2307759999999544,0.0,0.0,false,2719784.3950907867,,0.0,0.0,0.0,0.0,0.0,0.125,4.938964338,0.0,0.0,-8.0,0.0,0.0,-0.0,0.0,0.0,2.595214578,0.0,0.0,0.0,0.0,0.0,0.0,0.0,0.0,4.941405744,0.0,0.0,3.0,0.0,0.0,-0.0,0.0,0.0,0.01220703,0.0,0.0,1.3799999952316284,0.3799999952316284,78.05999755859375,0.00225830078125,0.02337646484375,1.00244140625,34.59000015258789,0.0,-1.0,0.039764404296875,-0.0343475341796875,Waiting,0.0,0.0,0.0,0.0,0.0,0.0,0.0,0.0,
2.3104259999999774,0.0,0.0,false,2719825.9928550413,,0.0,0.0,0.0,0.0,0.0,0.125,4.941405744,0.0,0.0,-8.0,0.0,0.0,-0.0,0.0,0.0,2.613525123,0.0,-0.019531247999999835,0.0,0.0,0.0,0.0,0.0,0.0,4.940185041,0.0,0.0,3.0,0.0,0.0,-0.0,0.0,0.0,0.01220703,0.0,-0.001220703,1.3700000047683716,0.4099999964237213,78.05999755859375,0.00506591796875,0.03271484375,1.00640869140625,34.59000015258789,0.0,7.0,0.039764404296875,-0.0343475341796875,Waiting,0.0,0.0,0.0,0.0,0.0,0.0,0.0,0.0,
2.384125999999931,0.0,0.0,false,2719862.477599395,,0.0,0.0,0.0,0.0,0.0,0.125,4.940185041,0.0,0.0,-8.0,0.0,0.0,-0.0,0.0,0.0,2.6464841040000002,0.0,0.0,0.0,0.0,0.0,0.0,0.0,0.0,4.942626447,0.0,0.0,3.0,0.0,0.0,-0.0,0.0,0.0,0.01220703,0.0,0.0,1.409999966621399,0.4000000059604645,78.05999755859375,-0.01043701171875,0.026123046875,0.96502685546875,34.59000015258789,0.0,-1.0,0.039764404296875,-0.0343475341796875,Waiting,0.0,0.0,0.0,0.0,0.0,0.0,0.0,0.0,
2.456830999999889,0.0,0.0,false,2719895.4956923723,,0.0,0.0,0.0,0.0,0.0,0.125,4.940185041,0.0,0.0,-8.0,0.0,0.0,-0.0,0.0,0.0,2.6855466000000003,0.0,0.035400386999999256,0.0,0.0,0.0,0.0,0.0,0.0,4.942626447,0.0,-0.0012207029999995456,3.0,0.0,0.0,-0.0,0.0,0.0,0.013427733,0.0,0.0,1.4299999475479126,0.4099999964237213,78.06999969482422,0.01507568359375,0.01214599609375,0.97540283203125,34.59000015258789,0.0,-10.0,0.0398712158203125,-0.0343475341796875,Waiting,0.0,0.0,0.0,0.0,0.0,0.0,0.0,0.0,
2.5329659999998984,0.0,0.0,false,2719923.487981173,,0.0,0.0,0.0,0.0,0.0,0.125,4.941405744,0.0,0.0,-8.0,0.0,0.0,-0.0,0.0,0.0,2.6953122240000003,0.0,0.0,0.0,0.0,0.0,0.0,0.0,0.0,4.942626447,0.0,0.0,3.0,0.0,0.0,-0.0,0.0,0.0,0.01220703,0.0,0.0,1.4199999570846558,0.4099999964237213,78.08000183105469,0.00970458984375,0.0091552734375,1.00311279296875,34.59000015258789,0.0,-15.0,0.0398712158203125,-0.0343475341796875,Waiting,0.0,0.0,0.0,0.0,0.0,0.0,0.0,0.0,
2.6076939999999014,0.0,0.0,false,2719946.369038114,,0.0,0.0,0.0,0.0,0.0,0.125,4.941405744,0.0,0.0,-8.0,0.0,0.0,-0.0,0.0,0.0,2.6953122240000003,0.0,0.009765623999999917,0.0,0.0,0.0,0.0,0.0,0.0,4.940185041,0.0,0.0012207029999995456,3.0,0.0,0.0,-0.0,0.0,0.0,0.01220703,0.0,0.0,1.3799999952316284,0.4099999964237213,78.08000183105469,0.002197265625,0.01715087890625,0.9954833984375,34.59000015258789,0.0,-7.0,0.0397491455078125,-0.0343475341796875,Waiting,0.0,0.0,0.0,0.0,0.0,0.0,0.0,0.0,
2.6872119999999415,0.0,0.0,false,2720047.5165980333,,0.0,0.0,0.0,0.0,0.0,0.125,4.940185041,0.0,0.0,-8.0,0.0,0.0,-0.0,0.0,0.0,2.6940915210000003,0.0,0.0,0.0,0.0,0.0,0.0,0.0,0.0,4.941405744,0.0,0.0,3.0,0.0,0.0,-0.0,0.0,0.0,0.013427733,0.0,0.0,1.3700000047683716,0.4099999964237213,78.08000183105469,0.00970458984375,0.02667236328125,0.98968505859375,34.59000015258789,0.0,3.0,0.0397491455078125,-0.0343475341796875,Waiting,0.0,0.0,0.0,0.0,0.0,0.0,0.0,0.0,
2.7569409999999914,0.0,0.0,false,2720143.1633261903,,0.0,0.0,0.0,0.0,0.0,0.125,4.941405744,0.0,0.0,-8.0,0.0,0.0,-0.0,0.0,0.0,2.6989743330000002,0.0,0.0,0.0,0.0,0.0,0.0,0.0,0.0,4.941405744,0.0,0.0,3.0,0.0,0.0,-0.0,0.0,0.0,0.013427733,0.0,0.0,1.399999976158142,0.41999998688697815,78.06999969482422,0.00958251953125,0.03338623046875,0.9918212890625,34.54999923706055,0.0,9.0,0.0397491455078125,-0.0343475341796875,Waiting,0.0,0.0,0.0,0.0,0.0,0.0,0.0,0.0,
2.8321109999999172,0.0,0.0,false,2720233.7455462185,,0.0,0.0,0.0,0.0,0.0,0.125,4.941405744,0.0,0.0,-8.0,0.0,0.0,-0.0,0.0,0.0,2.805175494,0.0,0.0,0.0,0.0,0.0,0.0,0.0,0.0,4.941405744,0.0,0.0,3.0,0.0,0.0,-0.0,0.0,0.0,0.010986327,0.0,0.0,1.409999966621399,0.4099999964237213,78.06999969482422,0.00238037109375,0.02337646484375,0.99462890625,34.54999923706055,0.0,-2.0,0.0397491455078125,-0.0343475341796875,Waiting,0.0,0.0,0.0,0.0,0.0,0.0,0.0,0.0,
2.9073559999999126,0.0,0.0,false,2720319.1728078653,,0.0,0.0,0.0,0.0,0.0,0.125,4.940185041,0.0,0.0,-8.0,0.0,0.0,-0.0,0.0,0.0,2.81982393,0.0,-4.8379160269999995,0.0,0.0,0.0,0.0,0.0,0.0,4.942626447,0.0,0.0012207029999995456,3.0,0.0,0.0,-0.0,0.0,0.0,0.01220703,0.0,-0.001220703,1.4199999570846558,0.4099999964237213,78.06999969482422,0.00103759765625,0.01873779296875,1.00726318359375,34.54999923706055,0.0,-7.0,0.0397491455078125,-0.0343475341796875,Waiting,0.0,0.0,0.0,0.0,0.0,0.0,0.0,0.0,
2.9781149999999905,0.0,0.0,false,2720399.536845643,,0.0,0.0,0.0,0.0,0.0,0.125,4.940185041,0.0,0.0,-8.0,0.0,0.0,-0.0,0.0,0.0,2.780761434,0.0,0.008544920999999928,0.0,0.0,0.0,0.0,0.0,0.0,4.942626447,0.0,0.0,3.0,0.0,0.0,-0.0,0.0,0.0,0.01220703,0.0,0.001220703,1.409999966621399,0.41999998688697815,78.08000183105469,0.005859375,0.02142333984375,0.99578857421875,34.54999923706055,0.0,-3.0,0.0397491455078125,-0.0343475341796875,Waiting,0.0,0.0,0.0,0.0,0.0,0.0,0.0,0.0,
3.055012999999919,0.0,0.0,false,2720476.403478553,,0.0,0.0,0.0,0.0,0.0,0.125,4.941405744,0.0,0.0,-8.0,0.0,0.0,-0.0,0.0,0.0,2.713622769,0.0,-0.05126952600000001,0.0,0.0,0.0,0.0,0.0,0.0,4.940185041,0.0,-0.0012207029999995456,3.0,0.0,0.0,-0.0,0.0,0.0,0.013427733,0.0,0.0,1.3899999856948853,0.4099999964237213,78.08000183105469,0.0025634765625,0.01531982421875,0.9998779296875,34.54999923706055,0.0,-9.0,0.0397491455078125,-0.0343475341796875,Waiting,0.0,0.0,0.0,0.0,0.0,0.0,0.0,0.0,
3.1274959999999266,0.0,0.0,false,2720548.2080322634,,0.0,0.0,0.0,0.0,0.0,0.125,4.941405744,0.0,0.0,-8.0,0.0,0.0,-0.0,0.0,0.0,2.6953122240000003,0.0,-0.05371093199999999,0.0,0.0,0.0,0.0,0.0,0.0,4.942626447,0.0,0.0,3.0,0.0,0.0,-0.0,0.0,0.0,0.01220703,0.0,0.0,1.3799999952316284,0.4099999964237213,78.06999969482422,0.00128173828125,0.0264892578125,0.9915771484375,34.54999923706055,0.0,1.0,0.0397491455078125,-0.0343475341796875,Waiting,0.0,0.0,0.0,0.0,0.0,0.0,0.0,0.0,
3.206844999999972,0.0,0.0,false,2720614.8600714137,,0.0,0.0,0.0,0.0,0.0,0.125,4.941405744,0.0,0.0,-8.0,0.0,0.0,-0.0,0.0,0.0,2.6940915210000003,0.0,4.929468752,0.0,0.0,0.0,0.0,0.0,0.0,4.940185041,0.0,-0.0012207029999995456,3.0,0.0,0.0,-0.0,0.0,0.0,0.01220703,0.0,-0.001220703,1.3799999952316284,0.41999998688697815,78.06999969482422,0.01104736328125,0.025146484375,1.001953125,34.54999923706055,0.0,1.0,0.0397491455078125,-0.0343475341796875,Waiting,0.0,0.0,0.0,0.0,0.0,0.0,0.0,0.0,
3.275688999999897,0.0,0.0,false,2720676.3652860625,,0.0,0.0,0.0,0.0,0.0,0.125,4.938964338,0.0,0.0,-8.0,0.0,0.0,-0.0,0.0,0.0,2.6940915210000003,0.0,0.0,0.0,0.0,0.0,0.0,0.0,0.0,4.942626447,0.0,0.0,3.0,0.0,0.0,-0.0,0.0,0.0,0.01220703,0.0,0.0,1.3899999856948853,0.41999998688697815,78.06999969482422,0.00482177734375,0.02593994140625,0.9971923828125,34.58000183105469,0.0,1.0,0.0397491455078125,-0.0343475341796875,Waiting,0.0,0.0,0.0,0.0,0.0,0.0,0.0,0.0,
3.3522559999999357,0.0,0.0,false,2720732.810349897,,0.0,0.0,0.0,0.0,0.0,0.125,4.938964338,0.0,0.0,-8.0,0.0,0.0,-0.0,0.0,0.0,2.6953122240000003,0.0,0.0,0.0,0.0,0.0,0.0,0.0,0.0,4.942626447,0.0,0.0,3.0,0.0,0.0,-0.0,0.0,0.0,0.01220703,0.0,0.001220703,1.3899999856948853,0.4000000059604645,78.05999755859375,0.00396728515625,0.0252685546875,0.9957275390625,34.58000183105469,0.0,0.0,0.0397491455078125,-0.0343475341796875,Waiting,0.0,0.0,0.0,0.0,0.0,0.0,0.0,0.0,
3.428637999999919,0.0,0.0,false,2720784.1098790322,,0.0,0.0,0.0,0.0,0.0,0.125,4.941405744,0.0,0.0,-8.0,0.0,0.0,-0.0,0.0,0.0,2.6940915210000003,0.0,0.0,0.0,0.0,0.0,0.0,0.0,0.0,4.942626447,0.0,0.0,3.0,0.0,0.0,-0.0,0.0,0.0,0.01220703,0.0,0.0,1.3700000047683716,0.4000000059604645,78.05999755859375,0.01336669921875,0.017822265625,0.99798583984375,34.58000183105469,0.0,-4.0,0.0397491455078125,-0.0343475341796875,Waiting,0.0,0.0,0.0,0.0,0.0,0.0,0.0,0.0,
3.511927999999956,0.0,0.0,false,2720830.2645218195,,0.0,0.0,0.0,0.0,0.0,0.125,4.940185041,0.0,0.0,-8.0,0.0,0.0,-0.0,0.0,0.0,2.6904294120000003,0.0,-0.0024414059999999793,0.0,0.0,0.0,0.0,0.0,0.0,4.941405744,0.0,-0.0012207029999995456,3.0,0.0,0.0,-0.0,0.0,0.0,0.013427733,0.0,0.001220703,1.3799999952316284,0.41999998688697815,78.05999755859375,0.00921630859375,0.03021240234375,1.0001220703125,34.58000183105469,0.0,6.0,0.0397491455078125,-0.0343475341796875,Waiting,0.0,0.0,0.0,0.0,0.0,0.0,0.0,0.0,
3.5917770000000018,0.0,0.0,false,2720871.2749265013,,0.0,0.0,0.0,0.0,0.0,0.125,4.938964338,0.0,0.0,-8.0,0.0,0.0,-0.0,0.0,0.0,2.6940915210000003,0.0,0.0,0.0,0.0,0.0,0.0,0.0,0.0,4.941405744,0.0,0.0,3.0,0.0,0.0,-0.0,0.0,0.0,0.01220703,0.0,0.0,1.409999966621399,0.4099999964237213,78.05999755859375,0.00518798828125,0.026611328125,0.99951171875,34.58000183105469,0.0,1.0,0.0397491455078125,-0.0343475341796875,Waiting,0.0,0.0,0.0,0.0,0.0,0.0,0.0,0.0,
3.670101999999955,0.0,0.0,false,2720907.2277518795,,0.0,0.0,0.0,0.0,0.0,0.125,4.938964338,0.0,0.0,-8.0,0.0,0.0,-0.0,0.0,0.0,2.6904294120000003,0.0,0.0,0.0,0.0,0.0,0.0,0.0,0.0,4.941405744,0.0,0.0,3.0,0.0,0.0,-0.0,0.0,0.0,0.01220703,0.0,-0.001220703,1.3899999856948853,0.4000000059604645,78.05999755859375,0.0076904296875,0.01910400390625,0.9981689453125,34.58000183105469,0.0,-5.0,0.0397491455078125,-0.0343475341796875,Waiting,0.0,0.0,0.0,0.0,0.0,0.0,0.0,0.0,
3.751774999999907,0.0,0.0,false,2720939.693599866,,0.0,0.0,0.0,0.0,0.0,0.125,4.941405744,0.0,0.0,-8.0,0.0,0.0,-0.0,0.0,0.0,2.556152082,0.0,0.0,0.0,0.0,0.0,0.0,0.0,0.0,4.940185041,0.0,0.0,3.0,0.0,0.0,-0.0,0.0,0.0,0.01220703,0.0,0.0,1.3600000143051147,0.4000000059604645,78.05999755859375,0.02783203125,-0.01104736328125,1.0059814453125,34.560001373291016,0.0,-29.0,0.03973388671875,-0.0343475341796875,Waiting,0.0,0.0,0.0,0.0,0.0,0.0,0.0,0.0,
3.9314809999999123,0.0,0.0,false,2720966.84500063,,0.0,0.0,0.0,0.0,0.0,0.125,4.942626447,0.0,0.0,-8.0,0.0,0.0,-0.0,0.0,0.0,2.729491908,0.0,0.0,0.0,0.0,0.0,0.0,0.0,0.0,4.941405744,0.0,0.0,3.0,0.0,0.0,-0.0,0.0,0.0,0.01220703,0.0,0.0,1.3899999856948853,0.4099999964237213,78.05999755859375,0.00506591796875,0.02056884765625,1.00225830078125,34.560001373291016,0.0,-4.0,0.0397186279296875,-0.034210205078125,Waiting,0.0,0.0,0.0,0.0,0.0,0.0,0.0,0.0,
4.151393999999971,0.0,0.0,false,2720988.5966238347,,0.0,0.0,0.0,0.0,0.0,0.125,4.940185041,0.0,0.0,-8.0,0.0,0.0,-0.0,0.0,0.0,2.780761434,0.0,0.0,0.0,0.0,0.0,0.0,0.0,0.0,4.942626447,0.0,0.0,3.0,0.0,0.0,-0.0,0.0,0.0,0.01220703,0.0,0.0,1.3700000047683716,0.4000000059604645,78.05999755859375,0.00537109375,0.02069091796875,0.99884033203125,34.560001373291016,0.0,-3.0,0.0397186279296875,-0.034210205078125,Waiting,0.0,0.0,0.0,0.0,0.0,0.0,0.0,0.0,
4.2514119999998945,0.0,0.0,false,2721087.5307159354,,0.0,0.0,0.0,0.0,0.0,0.125,4.941405744,0.0,0.0,-8.0,0.0,0.0,-0.0,0.0,0.0,2.780761434,0.0,0.0,0.0,0.0,0.0,0.0,0.0,0.0,4.941405744,0.0,0.0,3.0,0.0,0.0,-0.0,0.0,0.0,0.01220703,0.0,0.0,1.3700000047683716,0.4000000059604645,78.05000305175781,0.00982666015625,0.02435302734375,0.99517822265625,34.58000183105469,0.0,1.0,0.0397186279296875,-0.034210205078125,Waiting,0.0,0.0,0.0,0.0,0.0,0.0,0.0,0.0,
4.363689999999944,0.0,0.0,false,2721181.0490426603,,0.0,0.0,0.0,0.0,0.0,0.125,4.940185041,0.0,0.0,-8.0,0.0,0.0,-0.0,0.0,0.0,2.762450889,0.0,0.0,0.0,0.0,0.0,0.0,0.0,0.0,4.942626447,0.0,0.0012207029999995456,3.0,0.0,0.0,-0.0,0.0,0.0,0.01220703,0.0,0.0,1.3700000047683716,0.4000000059604645,78.05000305175781,0.00360107421875,0.01959228515625,0.989990234375,34.58000183105469,0.0,-4.0,0.0397186279296875,-0.034210205078125,Waiting,0.0,0.0,0.0,0.0,0.0,0.0,0.0,0.0,
4.448522999999929,0.0,0.0,false,2721269.420665911,,0.0,0.0,0.0,0.0,0.0,0.125,4.940185041,0.0,0.0,-8.0,0.0,0.0,-0.0,0.0,0.0,2.713622769,0.0,0.0,0.0,0.0,0.0,0.0,0.0,0.0,4.941405744,0.0,0.0,3.0,0.0,0.0,-0.0,0.0,0.0,0.010986327,0.0,0.0,1.3600000143051147,0.4000000059604645,78.05000305175781,0.00946044921875,0.0294189453125,1.00091552734375,34.58000183105469,0.0,6.0,0.0397186279296875,-0.034210205078125,Waiting,0.0,0.0,0.0,0.0,0.0,0.0,0.0,0.0,
4.529650999999954,0.0,0.0,false,2721352.73221933,,0.0,0.0,0.0,0.0,0.0,0.125,4.942626447,0.0,0.0,-8.0,0.0,0.0,-0.0,0.0,0.0,2.5891110630000003,0.0,4.880640632,0.0,0.0,0.0,0.0,0.0,0.0,4.942626447,0.0,0.0,3.0,0.0,0.0,-0.0,0.0,0.0,0.01220703,0.0,0.0,1.3600000143051147,0.4099999964237213,78.04000091552734,0.00323486328125,0.04840087890625,0.9866943359375,34.58000183105469,0.0,23.0,0.03973388671875,-0.0341339111328125,Waiting,0.0,0.0,0.0,0.0,0.0,0.0,0.0,0.0,
4.610658999999985,0.0,0.0,false,2721430.8933204585,,0.0,0.0,0.0,0.0,0.0,0.125,4.942626447,0.0,0.0,-8.0,0.0,0.0,-0.0,0.0,0.0,2.5805661420000003,0.0,-0.10864256700000041,0.0,0.0,0.0,0.0,0.0,0.0,4.942626447,0.0,0.0,3.0,0.0,0.0,-0.0,0.0,0.0,0.01220703,0.0,-0.001220703,1.3899999856948853,0.38999998569488525,78.05000305175781,0.006103515625,0.035400390625,1.01031494140625,34.58000183105469,0.0,10.0,0.0397796630859375,-0.0341339111328125,Waiting,0.0,0.0,0.0,0.0,0.0,0.0,0.0,0.0,
4.691515999999945,0.0,0.0,false,2721505.559697733,,0.0,0.0,0.0,0.0,0.0,0.125,4.941405744,0.0,0.0,-8.0,0.0,0.0,-0.0,0.0,0.0,2.6428219950000003,0.0,0.0,0.0,0.0,0.0,0.0,0.0,0.0,4.942626447,0.0,0.0,3.0,0.0,0.0,-0.0,0.0,0.0,0.01220703,0.0,0.0,1.409999966621399,0.38999998569488525,78.04000091552734,0.009765625,0.01171875,1.00396728515625,34.58000183105469,0.0,-12.0,0.0399017333984375,-0.03411865234375,Waiting,0.0,0.0,0.0,0.0,0.0,0.0,0.0,0.0,
4.768498999999952,0.0,0.0,false,2721575.1677931235,,0.0,0.0,0.0,0.0,0.0,0.125,4.942626447,0.0,0.0,-8.0,0.0,0.0,-0.0,0.0,0.0,2.6989743330000002,0.0,0.06347655600000035,0.0,0.0,0.0,0.0,0.0,0.0,4.942626447,0.0,0.0,3.0,0.0,0.0,-0.0,0.0,0.0,0.01220703,0.0,0.0,1.3799999952316284,0.4000000059604645,78.05000305175781,0.0076904296875,0.0142822265625,0.999755859375,34.56999969482422,0.0,-9.0,0.0399017333984375,-0.03411865234375,Waiting,0.0,0.0,0.0,0.0,0.0,0.0,0.0,0.0,
4.8390869999999415,0.0,0.0,false,2721639.632272689,,0.0,0.0,0.0,0.0,0.0,0.125,4.940185041,0.0,0.0,-8.0,0.0,0.0,-0.0,0.0,0.0,2.714843472,0.0,0.0,0.0,0.0,0.0,0.0,0.0,0.0,4.941405744,0.0,0.0,3.0,0.0,0.0,-0.0,0.0,0.0,0.01220703,0.0,0.0,1.3600000143051147,0.38999998569488525,78.04000091552734,0.005126953125,0.01885986328125,0.98748779296875,34.56999969482422,0.0,-4.0,0.0399017333984375,-0.03411865234375,Waiting,0.0,0.0,0.0,0.0,0.0,0.0,0.0,0.0,
4.928375999999931,0.0,0.0,false,2721698.953784158,,0.0,0.0,0.0,0.0,0.0,0.125,4.941405744,0.0,0.0,-8.0,0.0,0.0,-0.0,0.0,0.0,2.713622769,0.0,0.013427732999999886,0.0,0.0,0.0,0.0,0.0,0.0,4.940185041,0.0,-0.0012207029999995456,3.0,0.0,0.0,-0.0,0.0,0.0,0.01220703,0.0,0.0,1.3600000143051147,0.3799999952316284,78.04000091552734,0.0111083984375,0.02752685546875,1.0042724609375,34.56999969482422,0.0,4.0,0.0399017333984375,-0.03411865234375,Waiting,0.0,0.0,0.0,0.0,0.0,0.0,0.0,0.0,
5.010989999999991,0.0,0.0,false,2721753.1329751513,,0.0,0.0,0.0,0.0,0.0,0.125,4.941405744,0.0,0.0,-8.0,0.0,0.0,-0.0,0.0,0.0,2.714843472,0.0,0.0,0.0,0.0,0.0,0.0,0.0,0.0,4.940185041,0.0,0.0,3.0,0.0,0.0,-0.0,0.0,0.0,0.01220703,0.0,0.0,1.3700000047683716,0.4000000059604645,78.02999877929688,0.007568359375,0.02691650390625,0.997802734375,34.56999969482422,0.0,2.0,0.0399017333984375,-0.03411865234375,Waiting,0.0,0.0,0.0,0.0,0.0,0.0,0.0,0.0,
5.0924169999999,0.0,0.0,false,2721802.1704931795,,0.0,0.0,0.0,0.0,0.0,0.125,4.941405744,0.0,0.0,-8.0,0.0,0.0,-0.0,0.0,0.0,2.713622769,0.0,0.0,0.0,0.0,0.0,0.0,0.0,0.0,4.941405744,0.0,0.0,3.0,0.0,0.0,-0.0,0.0,0.0,0.01220703,0.0,0.0,1.3799999952316284,0.38999998569488525,78.04000091552734,0.0025634765625,0.02313232421875,0.99664306640625,34.56999969482422,0.0,-1.0,0.0399017333984375,-0.03411865234375,Waiting,0.0,0.0,0.0,0.0,0.0,0.0,0.0,0.0,
5.169236999999964,0.0,0.0,false,2721847.807940905,,0.0,0.0,0.0,0.0,0.0,0.125,4.940185041,0.0,0.0,-8.0,0.0,0.0,-0.0,0.0,0.0,2.714843472,0.0,0.0,0.0,0.0,0.0,0.0,0.0,0.0,4.941405744,0.0,0.0,3.0,0.0,0.0,-0.0,0.0,0.0,0.01220703,0.0,0.0,1.3600000143051147,0.38999998569488525,78.02999877929688,0.00567626953125,0.01922607421875,1.00274658203125,34.56999969482422,0.0,-4.0,0.0399017333984375,-0.03411865234375,Waiting,0.0,0.0,0.0,0.0,0.0,0.0,0.0,0.0,
5.24238599999994,0.0,0.0,false,2721888.3048642296,,0.0,0.0,0.0,0.0,0.0,0.125,4.938964338,0.0,0.0,-8.0,0.0,0.0,-0.0,0.0,0.0,2.713622769,0.0,0.0,0.0,0.0,0.0,0.0,0.0,0.0,4.942626447,0.0,0.0,3.0,0.0,0.0,-0.0,0.0,0.0,0.01220703,0.0,0.0,1.3600000143051147,0.4000000059604645,78.02999877929688,6.7138671875E-4,0.02996826171875,1.0006103515625,34.560001373291016,0.0,4.0,0.0399017333984375,-0.03411865234375,Waiting,0.0,0.0,0.0,0.0,0.0,0.0,0.0,0.0,
5.316982999999891,0.0,0.0,false,2721923.6619103574,,0.0,0.0,0.0,0.0,0.0,0.125,4.941405744,0.0,0.0,-8.0,0.0,0.0,-0.0,0.0,0.0,2.714843472,0.0,0.0,0.0,0.0,0.0,0.0,0.0,0.0,4.941405744,0.0,0.0,3.0,0.0,0.0,-0.0,0.0,0.0,0.01220703,0.0,-0.001220703,1.3700000047683716,0.38999998569488525,78.02999877929688,0.004150390625,0.0234375,1.00244140625,34.560001373291016,0.0,-1.0,0.0399017333984375,-0.03411865234375,Waiting,0.0,0.0,0.0,0.0,0.0,0.0,0.0,0.0,
5.392870999999927,0.0,0.0,false,2721953.9656720804,,0.0,0.0,0.0,0.0,0.0,0.125,4.940185041,0.0,0.0,-8.0,0.0,0.0,-0.0,0.0,0.0,2.714843472,0.0,0.0,0.0,0.0,0.0,0.0,0.0,0.0,4.941405744,0.0,0.0,3.0,0.0,0.0,-0.0,0.0,0.0,0.013427733,0.0,0.0,1.3799999952316284,0.4000000059604645,78.04000091552734,0.01275634765625,0.02252197265625,0.9964599609375,34.560001373291016,0.0,0.0,0.0399017333984375,-0.03411865234375,Waiting,0.0,0.0,0.0,0.0,0.0,0.0,0.0,0.0,
5.469826000000001,0.0,0.0,false,2721979.1308434745,,0.0,0.0,0.0,0.0,0.0,0.125,4.940185041,0.0,0.0,-8.0,0.0,0.0,-0.0,0.0,0.0,2.714843472,0.0,0.0,0.0,0.0,0.0,0.0,0.0,0.0,4.942626447,0.0,0.0,3.0,0.0,0.0,-0.0,0.0,0.0,0.01220703,0.0,-0.001220703,1.3899999856948853,0.4000000059604645,78.04000091552734,0.00396728515625,0.02880859375,1.0028076171875,34.560001373291016,0.0,3.0,0.0399017333984375,-0.03411865234375,Waiting,0.0,0.0,0.0,0.0,0.0,0.0,0.0,0.0,
5.539408999999985,0.0,0.0,false,2721999.1580714197,,0.0,0.0,0.0,0.0,0.0,0.125,4.941405744,0.0,0.0,-8.0,0.0,0.0,-0.0,0.0,0.0,2.714843472,0.0,0.0,0.0,0.0,0.0,0.0,0.0,0.0,4.942626447,0.0,0.0,3.0,0.0,0.0,-0.0,0.0,0.0,0.01220703,0.0,0.0,1.3899999856948853,0.38999998569488525,78.05000305175781,0.005615234375,0.0240478515625,1.00628662109375,34.560001373291016,0.0,0.0,0.0399017333984375,-0.03411865234375,Waiting,0.0,0.0,0.0,0.0,0.0,0.0,0.0,0.0,
5.622317999999971,0.0,0.0,false,2722096.2809667676,,0.0,0.0,0.0,0.0,0.0,0.125,4.941405744,0.0,0.0,-8.0,0.0,0.0,-0.0,0.0,0.0,2.714843472,0.0,0.0,0.0,0.0,0.0,0.0,0.0,0.0,4.941405744,0.0,-0.0012207029999995456,3.0,0.0,0.0,-0.0,0.0,0.0,0.01220703,0.0,-0.001220703,1.3700000047683716,0.4000000059604645,78.05999755859375,0.0067138671875,0.013916015625,1.000244140625,34.560001373291016,0.0,-9.0,0.0399017333984375,-0.03411865234375,Waiting,0.0,0.0,0.0,0.0,0.0,0.0,0.0,0.0,
5.6899929999999,0.0,0.0,false,2722189.886963454,,0.0,0.0,0.0,0.0,0.0,0.125,4.941405744,0.0,0.0,-8.0,0.0,0.0,-0.0,0.0,0.0,2.713622769,0.0,0.0,0.0,0.0,0.0,0.0,0.0,0.0,4.941405744,0.0,0.0,3.0,0.0,0.0,-0.0,0.0,0.0,0.01220703,0.0,0.0,1.340000033378601,0.4000000059604645,78.05999755859375,0.00689697265625,0.0211181640625,0.99249267578125,34.560001373291016,0.0,-2.0,0.0399017333984375,-0.03411865234375,Waiting,0.0,0.0,0.0,0.0,0.0,0.0,0.0,0.0,
5.7706169999999695,0.0,0.0,false,2722278.310312998,,0.0,0.0,0.0,0.0,0.0,0.125,4.94384715,0.0,0.0,-8.0,0.0,0.0,-0.0,0.0,0.0,2.713622769,0.0,0.0,0.0,0.0,0.0,0.0,0.0,0.0,4.942626447,0.0,0.0,3.0,0.0,0.0,-0.0,0.0,0.0,0.01220703,0.0,0.0,1.350000023841858,0.3799999952316284,78.05999755859375,0.00189208984375,0.02984619140625,1.00054931640625,34.56999969482422,0.0,5.0,0.0399017333984375,-0.03411865234375,Waiting,0.0,0.0,0.0,0.0,0.0,0.0,0.0,0.0,
5.8419189999999945,0.0,0.0,false,2722361.6429620306,,0.0,0.0,0.0,0.0,0.0,0.125,4.938964338,0.0,0.0,-8.0,0.0,0.0,-0.0,0.0,0.0,2.714843472,0.0,0.0,0.0,0.0,0.0,0.0,0.0,0.0,4.940185041,0.0,0.0,3.0,0.0,0.0,-0.0,0.0,0.0,0.013427733,0.0,0.0,1.3799999952316284,0.3700000047683716,78.05999755859375,0.0048828125,0.03546142578125,1.00244140625,34.56999969482422,0.0,10.0,0.0399017333984375,-0.03411865234375,Waiting,0.0,0.0,0.0,0.0,0.0,0.0,0.0,0.0,
5.919037999999942,0.0,0.0,false,2722439.794596409,,0.0,0.0,0.0,0.0,0.0,0.125,4.940185041,0.0,0.0,-8.0,0.0,0.0,-0.0,0.0,0.0,2.713622769,0.0,0.0,0.0,0.0,0.0,0.0,0.0,0.0,4.942626447,0.0,0.0,3.0,0.0,0.0,-0.0,0.0,0.0,0.01220703,0.0,0.0,1.3899999856948853,0.4000000059604645,78.05999755859375,0.01458740234375,0.02325439453125,1.004638671875,34.56999969482422,0.0,0.0,0.0399017333984375,-0.03411865234375,Waiting,0.0,0.0,0.0,0.0,0.0,0.0,0.0,0.0,
5.995237999999896,0.0,0.0,false,2722512.7655325755,,0.0,0.0,0.0,0.0,0.0,0.125,4.941405744,0.0,0.0,-8.0,0.0,0.0,-0.0,0.0,0.0,2.713622769,0.0,0.0,0.0,0.0,0.0,0.0,0.0,0.0,4.941405744,0.0,0.0,3.0,0.0,0.0,-0.0,0.0,0.0,0.010986327,0.0,0.0,1.3300000429153442,0.38999998569488525,78.0199966430664,0.02215576171875,-0.005126953125,0.97515869140625,34.56999969482422,0.0,-24.0,0.0397796630859375,-0.0340118408203125,Waiting,0.0,0.0,0.0,0.0,0.0,0.0,0.0,0.0,
6.0755229999999285,0.0,0.0,false,2722582.3132813154,,0.0,0.0,0.0,0.0,0.0,0.125,4.941405744,0.0,0.0,-8.0,0.0,0.0,-0.0,0.0,0.0,2.714843472,0.0,0.0,0.0,0.0,0.0,0.0,0.0,0.0,4.940185041,0.0,-0.0012207029999995456,3.0,0.0,0.0,-0.0,0.0,0.0,0.01220703,0.0,0.0,1.3200000524520874,0.4399999976158142,78.08000183105469,0.0274658203125,0.0157470703125,0.8355712890625,34.56999969482422,0.0,0.0,0.0394134521484375,-0.0340576171875,Waiting,0.0,0.0,0.0,0.0,0.0,0.0,0.0,0.0,
6.155533999999985,0.0,0.0,false,2722646.68685767,,0.0,0.0,0.0,0.0,0.0,0.125,4.941405744,0.0,0.0,-8.0,0.0,0.0,-0.0,0.0,0.0,2.713622769,0.0,0.0,0.0,0.0,0.0,0.0,0.0,0.0,4.942626447,0.0,0.0,3.0,0.0,0.0,-0.0,0.0,0.0,0.010986327,0.0,0.0,1.3600000143051147,0.41999998688697815,78.05000305175781,-0.01214599609375,0.02276611328125,0.96673583984375,34.56999969482422,0.0,-4.0,0.0394134521484375,-0.034210205078125,Waiting,0.0,0.0,0.0,0.0,0.0,0.0,0.0,0.0,
6.228551999999909,0.0,0.0,false,2722705.8869127515,,0.0,0.0,0.0,0.0,0.0,0.125,4.942626447,0.0,0.0,-8.0,0.0,0.0,-0.0,0.0,0.0,2.714843472,0.0,0.0,0.0,0.0,0.0,0.0,0.0,0.0,4.942626447,0.0,-0.0012207029999995456,3.0,0.0,0.0,-0.0,0.0,0.0,0.01220703,0.0,-0.001220703,1.409999966621399,0.38999998569488525,78.08000183105469,-0.006591796875,0.04144287109375,1.10772705078125,34.56999969482422,0.0,10.0,0.03948974609375,-0.034088134765625,Waiting,0.0,0.0,0.0,0.0,0.0,0.0,0.0,0.0,
6.3077849999999165,0.0,0.0,false,2722760.0,,0.0,0.0,0.0,0.0,0.0,0.125,4.940185041,0.0,0.0,-8.0,0.0,0.0,-0.0,0.0,0.0,2.713622769,0.0,0.0,0.0,0.0,0.0,0.0,0.0,0.0,4.940185041,0.0,0.0,3.0,0.0,0.0,-0.0,0.0,0.0,0.01220703,0.0,0.001220703,1.399999976158142,0.4099999964237213,78.05999755859375,-0.00225830078125,0.02325439453125,1.08233642578125,34.560001373291016,0.0,-5.0,0.0395660400390625,-0.034088134765625,Waiting,0.0,0.0,0.0,0.0,0.0,0.0,0.0,0.0,
6.37519299999997,0.0,0.0,false,2722810.606157202,,0.0,0.0,0.0,0.0,0.0,0.125,4.942626447,0.0,0.0,-8.0,0.0,0.0,-0.0,0.0,0.0,2.713622769,0.0,0.0,0.0,0.0,0.0,0.0,0.0,0.0,4.940185041,0.0,0.0,3.0,0.0,0.0,-0.0,0.0,0.0,0.01220703,0.0,-0.001220703,1.3600000143051147,0.41999998688697815,78.08000183105469,0.0069580078125,0.02349853515625,0.97808837890625,34.560001373291016,0.0,0.0,0.0395660400390625,-0.034088134765625,Waiting,0.0,0.0,0.0,0.0,0.0,0.0,0.0,0.0,
6.452350999999908,0.0,0.0,false,2722856.126494149,,0.0,0.0,0.0,0.0,0.0,0.125,4.940185041,0.0,0.0,-8.0,0.0,0.0,-0.0,0.0,0.0,2.713622769,0.0,0.0,0.0,0.0,0.0,0.0,0.0,0.0,4.941405744,0.0,0.0,3.0,0.0,0.0,-0.0,0.0,0.0,0.01220703,0.0,0.001220703,1.3300000429153442,0.38999998569488525,78.05000305175781,0.004638671875,-3.0517578125E-4,0.96295166015625,34.560001373291016,0.0,-22.0,0.0395355224609375,-0.034088134765625,Waiting,0.0,0.0,0.0,0.0,0.0,0.0,0.0,0.0,
6.528029999999911,0.0,0.0,false,2722894.8106022477,,0.0,0.0,0.0,0.0,0.0,0.125,4.942626447,0.0,0.0,-8.0,0.0,0.0,-0.0,0.0,0.0,2.713622769,0.0,0.0,0.0,0.0,0.0,0.0,0.0,0.0,4.942626447,0.0,0.0,3.0,0.0,0.0,-0.0,0.0,0.0,0.01220703,0.0,-0.001220703,1.2999999523162842,0.4000000059604645,78.04000091552734,0.0194091796875,0.0233154296875,1.00091552734375,34.560001373291016,0.0,3.0,0.039398193359375,-0.034088134765625,Waiting,0.0,0.0,0.0,0.0,0.0,0.0,0.0,0.0,
6.6001669999998995,0.0,0.0,false,2722929.9895156217,,0.0,0.0,0.0,0.0,0.0,0.125,4.940185041,0.0,0.0,-8.0,0.0,0.0,-0.0,0.0,0.0,2.714843472,0.0,0.0,0.0,0.0,0.0,0.0,0.0,0.0,4.940185041,0.0,0.0,3.0,0.0,0.0,-0.0,0.0,0.0,0.01220703,0.0,0.0,1.340000033378601,0.4099999964237213,78.02999877929688,0.0079345703125,0.0244140625,0.99639892578125,34.560001373291016,0.0,1.0,0.039398193359375,-0.034088134765625,Waiting,0.0,0.0,0.0,0.0,0.0,0.0,0.0,0.0,
6.676025999999954,0.0,0.0,false,2722959.998658056,,0.0,0.0,0.0,0.0,0.0,0.125,4.941405744,0.0,0.0,-8.0,0.0,0.0,-0.0,0.0,0.0,2.713622769,0.0,0.0,0.0,0.0,0.0,0.0,0.0,0.0,4.940185041,0.0,0.0,3.0,0.0,0.0,-0.0,0.0,0.0,0.013427733,0.0,0.0,1.3700000047683716,0.4000000059604645,78.04000091552734,0.0054931640625,0.03253173828125,0.99127197265625,34.560001373291016,0.0,8.0,0.039398193359375,-0.034088134765625,Waiting,0.0,0.0,0.0,0.0,0.0,0.0,0.0,0.0,
6.7494279999999565,0.0,0.0,false,2722984.9245607415,,0.0,0.0,0.0,0.0,0.0,0.125,4.938964338,0.0,0.0,-8.0,0.0,0.0,-0.0,0.0,0.0,2.714843472,0.0,0.0,0.0,0.0,0.0,0.0,0.0,0.0,4.941405744,0.0,0.0,3.0,0.0,0.0,-0.0,0.0,0.0,0.01220703,0.0,0.0,1.399999976158142,0.38999998569488525,78.02999877929688,0.01153564453125,0.03509521484375,0.98284912109375,34.560001373291016,0.0,11.0,0.039398193359375,-0.034088134765625,Waiting,0.0,0.0,0.0,0.0,0.0,0.0,0.0,0.0,
6.823711999999941,0.0,0.0,false,2723004.9235155988,,0.0,0.0,0.0,0.0,0.0,0.125,4.941405744,0.0,0.0,-8.0,0.0,0.0,-0.0,0.0,0.0,2.713622769,0.0,0.0,0.0,0.0,0.0,0.0,0.0,0.0,4.940185041,0.0,0.0,3.0,0.0,0.0,-0.0,0.0,0.0,0.01220703,0.0,0.0,1.4199999570846558,0.4300000071525574,78.0,0.01043701171875,0.02740478515625,1.0078125,34.58000183105469,0.0,2.0,0.039398193359375,-0.034088134765625,Waiting,0.0,0.0,0.0,0.0,0.0,0.0,0.0,0.0,
6.897420999999973,0.0,0.0,false,2723101.939033083,,0.0,0.0,0.0,0.0,0.0,0.125,4.942626447,0.0,0.0,-8.0,0.0,0.0,-0.0,0.0,0.0,2.714843472,0.0,0.0,0.0,0.0,0.0,0.0,0.0,0.0,4.942626447,0.0,0.0,3.0,0.0,0.0,-0.0,0.0,0.0,0.01220703,0.0,0.0,1.4199999570846558,0.41999998688697815,78.02999877929688,-0.00164794921875,0.0264892578125,1.007080078125,34.58000183105469,0.0,0.0,0.039398193359375,-0.034088134765625,Waiting,0.0,0.0,0.0,0.0,0.0,0.0,0.0,0.0,
6.976084999999963,0.0,0.0,false,2723195.5310691823,,0.0,0.0,0.0,0.0,0.0,0.125,4.942626447,0.0,0.0,-8.0,0.0,0.0,-0.0,0.0,0.0,2.713622769,0.0,0.0,0.0,0.0,0.0,0.0,0.0,0.0,4.942626447,0.0,0.0012207029999995456,3.0,0.0,0.0,-0.0,0.0,0.0,0.01220703,0.0,0.0,1.409999966621399,0.3799999952316284,77.98999786376953,-0.00811767578125,0.01593017578125,1.01513671875,34.58000183105469,0.0,-10.0,0.039398193359375,-0.034088134765625,Waiting,0.0,0.0,0.0,0.0,0.0,0.0,0.0,0.0,
7.052884999999893,0.0,0.0,false,2723283.944153285,,0.0,0.0,0.0,0.0,0.0,0.125,4.938964338,0.0,0.0,-8.0,0.0,0.0,-0.0,0.0,0.0,2.713622769,0.0,0.0,0.0,0.0,0.0,0.0,0.0,0.0,4.941405744,0.0,0.0,3.0,0.0,0.0,-0.0,0.0,0.0,0.010986327,0.0,0.0,1.3899999856948853,0.41999998688697815,77.9800033569336,0.02569580078125,0.02459716796875,0.9947509765625,34.58000183105469,0.0,4.0,0.039398193359375,-0.034088134765625,Waiting,0.0,0.0,0.0,0.0,0.0,0.0,0.0,0.0,
7.121227999999887,0.0,0.0,false,2723367.2701660236,,0.0,0.0,0.0,0.0,0.0,0.125,4.937743635,0.0,0.0,-8.0,0.0,0.0,-0.0,0.0,0.0,2.713622769,0.0,0.0,0.0,0.0,0.0,0.0,0.0,0.0,4.938964338,0.0,0.0,3.0,0.0,0.0,-0.0,0.0,0.0,0.01220703,0.0,-0.001220703,1.3899999856948853,0.4300000071525574,77.98999786376953,-0.00360107421875,0.0284423828125,0.99847412109375,34.58000183105469,0.0,1.0,0.039398193359375,-0.034088134765625,Waiting,0.0,0.0,0.0,0.0,0.0,0.0,0.0,0.0,
7.195311999999918,0.0,0.0,false,2723445.418857167,,0.0,0.0,0.0,0.0,0.0,0.125,4.940185041,0.0,0.0,-8.0,0.0,0.0,-0.0,0.0,0.0,2.713622769,0.0,0.0,0.0,0.0,0.0,0.0,0.0,0.0,4.94384715,0.0,0.0,3.0,0.0,0.0,-0.0,0.0,0.0,0.01220703,0.0,0.0,1.409999966621399,0.3700000047683716,77.98999786376953,0.0028076171875,0.019775390625,1.00030517578125,34.58000183105469,0.0,-5.0,0.039398193359375,-0.0339202880859375,Waiting,0.0,0.0,0.0,0.0,0.0,0.0,0.0,0.0,
7.273251999999979,0.0,0.0,false,2723518.3905424667,,0.0,0.0,0.0,0.0,0.0,0.125,4.940185041,0.0,0.0,-8.0,0.0,0.0,-0.0,0.0,0.0,2.714843472,0.0,0.0,0.0,0.0,0.0,0.0,0.0,0.0,4.940185041,0.0,0.0,3.0,0.0,0.0,-0.0,0.0,0.0,0.01220703,0.0,0.001220703,1.399999976158142,0.4000000059604645,78.0,0.02471923828125,0.017578125,0.99969482421875,34.58000183105469,0.0,-3.0,0.039398193359375,-0.0339202880859375,Waiting,0.0,0.0,0.0,0.0,0.0,0.0,0.0,0.0,
7.346775999999954,0.0,0.0,false,2723587.9414797737,,0.0,0.0,0.0,0.0,0.0,0.125,4.941405744,0.0,0.0,-8.0,0.0,0.0,-0.0,0.0,0.0,2.713622769,0.0,0.0,0.0,0.0,0.0,0.0,0.0,0.0,4.941405744,0.0,0.0,3.0,0.0,0.0,-0.0,0.0,0.0,0.01220703,0.0,0.0,1.3799999952316284,0.41999998688697815,78.0,0.00799560546875,0.0225830078125,1.000732421875,34.56999969482422,0.0,-1.0,0.039398193359375,-0.0339202880859375,Waiting,0.0,0.0,0.0,0.0,0.0,0.0,0.0,0.0,
7.42227899999998,0.0,0.0,false,2723652.3219315894,,0.0,0.0,0.0,0.0,0.0,0.125,4.941405744,0.0,0.0,-8.0,0.0,0.0,-0.0,0.0,0.0,2.714843472,0.0,0.0,0.0,0.0,0.0,0.0,0.0,0.0,4.940185041,0.0,-0.0012207029999995456,3.0,0.0,0.0,-0.0,0.0,0.0,0.01220703,0.0,0.0,1.3899999856948853,0.3799999952316284,78.0199966430664,-0.00311279296875,0.0257568359375,0.99432373046875,34.56999969482422,0.0,0.0,0.039398193359375,-0.0339202880859375,Waiting,0.0,0.0,0.0,0.0,0.0,0.0,0.0,0.0,
7.501550999999978,0.0,0.0,false,2723711.6183929243,,0.0,0.0,0.0,0.0,0.0,0.125,4.940185041,0.0,0.0,-8.0,0.0,0.0,-0.0,0.0,0.0,2.714843472,0.0,0.0,0.0,0.0,0.0,0.0,0.0,0.0,4.941405744,0.0,0.0,3.0,0.0,0.0,-0.0,0.0,0.0,0.01220703,0.0,0.0,1.3899999856948853,0.38999998569488525,78.0,0.00982666015625,0.0211181640625,0.99798583984375,34.56999969482422,0.0,-2.0,0.039398193359375,-0.0339202880859375,Waiting,0.0,0.0,0.0,0.0,0.0,0.0,0.0,0.0,
7.574593999999925,0.0,0.0,false,2723765.7456618324,,0.0,0.0,0.0,0.0,0.0,0.125,4.940185041,0.0,0.0,-8.0,0.0,0.0,-0.0,0.0,0.0,2.714843472,0.0,0.0,0.0,0.0,0.0,0.0,0.0,0.0,4.941405744,0.0,0.0,3.0,0.0,0.0,-0.0,0.0,0.0,0.010986327,0.0,0.0,1.3700000047683716,0.4099999964237213,78.0199966430664,0.0059814453125,0.02142333984375,0.9984130859375,34.56999969482422,0.0,-2.0,0.039398193359375,-0.0339202880859375,Waiting,0.0,0.0,0.0,0.0,0.0,0.0,0.0,0.0,
7.64625299999991,0.0,0.0,false,2723814.7043882813,,0.0,0.0,0.0,0.0,0.0,0.125,4.942626447,0.0,0.0,-8.0,0.0,0.0,-0.0,0.0,0.0,2.714843472,0.0,0.0,0.0,0.0,0.0,0.0,0.0,0.0,4.941405744,0.0,0.0,3.0,0.0,0.0,-0.0,0.0,0.0,0.010986327,0.0,0.0,1.3700000047683716,0.4000000059604645,78.0199966430664,0.00262451171875,0.01959228515625,0.99920654296875,34.56999969482422,0.0,-5.0,0.039398193359375,-0.0339202880859375,Waiting,0.0,0.0,0.0,0.0,0.0,0.0,0.0,0.0,
7.717411999999895,0.0,0.0,false,2723858.581056161,,0.0,0.0,0.0,0.0,0.0,0.125,4.940185041,0.0,0.0,-8.0,0.0,0.0,-0.0,0.0,0.0,2.714843472,0.0,0.0,0.0,0.0,0.0,0.0,0.0,0.0,4.941405744,0.0,0.0,3.0,0.0,0.0,-0.0,0.0,0.0,0.013427733,0.0,-0.001220703,1.3700000047683716,0.38999998569488525,78.0,0.013671875,0.0218505859375,1.01446533203125,34.56999969482422,0.0,0.0,0.039398193359375,-0.0339202880859375,Waiting,0.0,0.0,0.0,0.0,0.0,0.0,0.0,0.0,
7.78890699999989,0.0,0.0,false,2723897.2904739953,,0.0,0.0,0.0,0.0,0.0,0.125,4.938964338,0.0,0.0,-8.0,0.0,0.0,-0.0,0.0,0.0,2.714843472,0.0,0.0,0.0,0.0,0.0,0.0,0.0,0.0,4.941405744,0.0,-0.0012207029999995456,3.0,0.0,0.0,-0.0,0.0,0.0,0.01220703,0.0,0.0,1.3700000047683716,0.4000000059604645,78.0,0.013916015625,0.0284423828125,1.01068115234375,34.61000061035156,0.0,5.0,0.039398193359375,-0.0339202880859375,Waiting,0.0,0.0,0.0,0.0,0.0,0.0,0.0,0.0,
7.869225999999908,0.0,0.0,false,2723932.4971921886,,0.0,0.0,0.0,0.0,0.0,0.125,4.941405744,0.0,0.0,-8.0,0.0,0.0,-0.0,0.0,0.0,2.714843472,0.0,0.0,0.0,0.0,0.0,0.0,0.0,0.0,4.942626447,0.0,0.0,3.0,0.0,0.0,-0.0,0.0,0.0,0.01220703,0.0,0.0,1.3899999856948853,0.4000000059604645,78.0199966430664,0.00640869140625,0.0206298828125,0.99212646484375,34.61000061035156,0.0,-3.0,0.039398193359375,-0.0339202880859375,Waiting,0.0,0.0,0.0,0.0,0.0,0.0,0.0,0.0,
7.94086699999997,0.0,0.0,false,2723962.6236432972,,0.0,0.0,0.0,0.0,0.0,0.125,4.941405744,0.0,0.0,-8.0,0.0,0.0,-0.0,0.0,0.0,2.714843472,0.0,0.0,0.0,0.0,0.0,0.0,0.0,0.0,4.940185041,0.0,0.0,3.0,0.0,0.0,-0.0,0.0,0.0,0.01220703,0.0,0.0,1.3799999952316284,0.38999998569488525,78.0,1.8310546875E-4,0.020263671875,0.9954833984375,34.61000061035156,0.0,-5.0,0.039398193359375,-0.0339202880859375,Waiting,0.0,0.0,0.0,0.0,0.0,0.0,0.0,0.0,
8.017902999999933,0.0,0.0,false,2723987.5846463293,,0.0,0.0,0.0,0.0,0.0,0.125,4.942626447,0.0,0.0,-8.0,0.0,0.0,-0.0,0.0,0.0,2.714843472,0.0,0.0,0.0,0.0,0.0,0.0,0.0,0.0,4.940185041,0.0,0.0,3.0,0.0,0.0,-0.0,0.0,0.0,0.01220703,0.0,0.0,1.350000023841858,0.4099999964237213,78.01000213623047,0.01092529296875,0.02117919921875,1.00732421875,34.61000061035156,0.0,-1.0,0.039398193359375,-0.0339202880859375,Waiting,0.0,0.0,0.0,0.0,0.0,0.0,0.0,0.0,
8.089573999999907,0.0,0.0,false,2724007.6235491307,,0.0,0.0,0.0,0.0,0.0,0.125,4.938964338,0.0,0.0,-8.0,0.0,0.0,-0.0,0.0,0.0,2.714843472,0.0,0.0,0.0,0.0,0.0,0.0,0.0,0.0,4.940185041,0.0,0.0,3.0,0.0,0.0,-0.0,0.0,0.0,0.01220703,0.0,0.0,1.3799999952316284,0.4000000059604645,78.0,0.00909423828125,0.0323486328125,1.00390625,34.61000061035156,0.0,8.0,0.039398193359375,-0.0339202880859375,Waiting,0.0,0.0,0.0,0.0,0.0,0.0,0.0,0.0,
8.170948999999906,0.0,0.0,false,2724104.528282913,,0.0,0.0,0.0,0.0,0.0,0.125,4.937743635,0.0,0.0,-8.0,0.0,0.0,-0.0,0.0,0.0,2.713622769,0.0,0.0,0.0,0.0,0.0,0.0,0.0,0.0,4.941405744,0.0,-0.0012207029999995456,3.0,0.0,0.0,-0.0,0.0,0.0,0.01220703,0.0,0.001220703,1.3799999952316284,0.38999998569488525,77.98999786376953,0.004638671875,0.02276611328125,1.00823974609375,34.61000061035156,0.0,-2.0,0.039398193359375,-0.0339202880859375,Waiting,0.0,0.0,0.0,0.0,0.0,0.0,0.0,0.0,
8.248786999999895,0.0,0.0,false,2724198.011983073,,0.0,0.0,0.0,0.0,0.0,0.125,4.941405744,0.0,0.0,-8.0,0.0,0.0,-0.0,0.0,0.0,2.714843472,0.0,0.0,0.0,0.0,0.0,0.0,0.0,0.0,4.941405744,0.0,0.0,3.0,0.0,0.0,-0.0,0.0,0.0,0.01220703,0.0,0.0,1.3700000047683716,0.4000000059604645,77.98999786376953,0.00885009765625,0.01617431640625,0.993408203125,34.61000061035156,0.0,-7.0,0.039398193359375,-0.0339202880859375,Waiting,0.0,0.0,0.0,0.0,0.0,0.0,0.0,0.0,
8.323909999999916,0.0,0.0,false,2724286.320429026,,0.0,0.0,0.0,0.0,0.0,0.125,4.940185041,0.0,0.0,-8.0,0.0,0.0,-0.0,0.0,0.0,2.713622769,0.0,0.0,0.0,0.0,0.0,0.0,0.0,0.0,4.938964338,0.0,0.0,3.0,0.0,0.0,-0.0,0.0,0.0,0.01220703,0.0,0.0,1.3600000143051147,0.38999998569488525,77.98999786376953,0.012939453125,0.0167236328125,0.9984130859375,34.59000015258789,0.0,-5.0,0.039398193359375,-0.0339202880859375,Waiting,0.0,0.0,0.0,0.0,0.0,0.0,0.0,0.0,
8.39423199999996,0.0,0.0,false,2724369.545435502,,0.0,0.0,0.0,0.0,0.0,0.125,4.942626447,0.0,0.0,-8.0,0.0,0.0,-0.0,0.0,0.0,2.713622769,0.0,0.0,0.0,0.0,0.0,0.0,0.0,0.0,4.941405744,0.0,0.0,3.0,0.0,0.0,-0.0,0.0,0.0,0.01220703,0.0,0.0,1.3899999856948853,0.38999998569488525,77.9800033569336,0.01080322265625,0.02960205078125,0.9984130859375,34.59000015258789,0.0,6.0,0.039398193359375,-0.0339202880859375,Waiting,0.0,0.0,0.0,0.0,0.0,0.0,0.0,0.0,
8.470503999999957,0.0,0.0,false,2724447.596816087,,0.0,0.0,0.0,0.0,0.0,0.125,4.941405744,0.0,0.0,-8.0,0.0,0.0,-0.0,0.0,0.0,2.714843472,0.0,0.0,0.0,0.0,0.0,0.0,0.0,0.0,4.940185041,0.0,-0.0012207029999995456,3.0,0.0,0.0,-0.0,0.0,0.0,0.013427733,0.0,0.0,1.409999966621399,0.4000000059604645,77.9800033569336,0.00909423828125,0.034423828125,0.99786376953125,34.59000015258789,0.0,9.0,0.039398193359375,-0.0339202880859375,Waiting,0.0,0.0,0.0,0.0,0.0,0.0,0.0,0.0,
8.53970399999991,0.0,0.0,false,2724522.1381592727,,0.0,0.0,0.0,0.0,0.0,0.125,4.940185041,0.0,0.0,-8.0,0.0,0.0,-0.0,0.0,0.0,2.714843472,0.0,0.0,0.0,0.0,0.0,0.0,0.0,0.0,4.938964338,0.0,0.0012207029999995456,3.0,0.0,0.0,-0.0,0.0,0.0,0.01220703,0.0,0.0,1.4299999475479126,0.4000000059604645,77.98999786376953,0.0089111328125,0.02935791015625,0.99945068359375,34.59000015258789,0.0,4.0,0.039398193359375,-0.0339202880859375,Waiting,0.0,0.0,0.0,0.0,0.0,0.0,0.0,0.0,
8.615119999999996,0.0,0.0,false,2724589.9346514745,,0.0,0.0,0.0,0.0,0.0,0.125,4.942626447,0.0,0.0,-8.0,0.0,0.0,-0.0,0.0,0.0,2.713622769,0.0,0.0,0.0,0.0,0.0,0.0,0.0,0.0,4.940185041,0.0,0.0,3.0,0.0,0.0,-0.0,0.0,0.0,0.01220703,0.0,0.0,1.4299999475479126,0.4000000059604645,78.02999877929688,0.00982666015625,0.02459716796875,1.0064697265625,34.59000015258789,0.0,0.0,0.039398193359375,-0.0339202880859375,Waiting,0.0,0.0,0.0,0.0,0.0,0.0,0.0,0.0,
8.692914999999921,0.0,0.0,false,2724652.5644870773,,0.0,0.0,0.0,0.0,0.0,0.125,4.942626447,0.0,0.0,-8.0,0.0,0.0,-0.0,0.0,0.0,2.714843472,0.0,0.0,0.0,0.0,0.0,0.0,0.0,0.0,4.94384715,0.0,0.0,3.0,0.0,0.0,-0.0,0.0,0.0,0.01220703,0.0,0.0,1.409999966621399,0.38999998569488525,78.04000091552734,-0.004638671875,0.018310546875,1.00897216796875,34.59000015258789,0.0,-8.0,0.039398193359375,-0.0339202880859375,Waiting,0.0,0.0,0.0,0.0,0.0,0.0,0.0,0.0,
8.769017999999924,0.0,0.0,false,2724711.7771634413,,0.0,0.0,0.0,0.0,0.0,0.125,4.940185041,0.0,0.0,-8.0,0.0,0.0,-0.0,0.0,0.0,2.714843472,0.0,0.0,0.0,0.0,0.0,0.0,0.0,0.0,4.942626447,0.0,-0.0012207029999995456,3.0,0.0,0.0,-0.0,0.0,0.0,0.01220703,0.0,0.0,1.3799999952316284,0.36000001430511475,78.04000091552734,0.00384521484375,0.017578125,1.004150390625,34.59000015258789,0.0,-7.0,0.039398193359375,-0.0339202880859375,Waiting,0.0,0.0,0.0,0.0,0.0,0.0,0.0,0.0,
8.839187999999966,0.0,0.0,false,2724765.8243350787,,0.0,0.0,0.0,0.0,0.0,0.125,4.941405744,0.0,0.0012207029999995456,-8.0,0.0,0.0,-0.0,0.0,0.0,2.714843472,0.0,0.0,0.0,0.0,0.0,0.0,0.0,0.0,4.942626447,0.0,0.0012207029999995456,3.0,0.0,0.0,-0.0,0.0,0.0,0.01220703,0.0,0.0,1.3700000047683716,0.3799999952316284,78.04000091552734,0.010009765625,0.02227783203125,0.9892578125,34.61000061035156,0.0,0.0,0.039398193359375,-0.0339202880859375,Waiting,0.0,0.0,0.0,0.0,0.0,0.0,0.0,0.0,
8.91522199999995,0.0,0.0,false,2724814.792427542,,0.0,0.0,0.0,0.0,0.0,0.125,4.940185041,0.0,-0.0012207029999995456,-8.0,0.0,0.0,-0.0,0.0,0.0,2.714843472,0.0,0.0,0.0,0.0,0.0,0.0,0.0,0.0,4.942626447,0.0,0.0,3.0,0.0,0.0,-0.0,0.0,0.0,0.01220703,0.0,0.0,1.3600000143051147,0.38999998569488525,78.02999877929688,0.00518798828125,0.02630615234375,0.991455078125,34.61000061035156,0.0,2.0,0.039398193359375,-0.0339202880859375,Waiting,0.0,0.0,0.0,0.0,0.0,0.0,0.0,0.0,
8.988139999999898,0.0,0.0,false,2724858.596306069,,0.0,0.0,0.0,0.0,0.0,0.125,4.942626447,0.0,0.0,-8.0,0.0,0.0,-0.0,0.0,0.0,2.714843472,0.0,0.0,0.0,0.0,0.0,0.0,0.0,0.0,4.941405744,0.0,0.0,3.0,0.0,0.0,-0.0,0.0,0.0,0.013427733,0.0,0.0,1.3799999952316284,0.38999998569488525,78.0199966430664,0.00396728515625,0.0269775390625,1.00079345703125,34.61000061035156,0.0,2.0,0.039398193359375,-0.0339202880859375,Waiting,0.0,0.0,0.0,0.0,0.0,0.0,0.0,0.0,
9.067925999999977,0.0,0.0,false,2724897.2366194823,,0.0,0.0,0.0,0.0,0.0,0.125,4.940185041,0.0,0.0,-8.0,0.0,0.0,-0.0,0.0,0.0,2.713622769,0.0,0.0,0.0,0.0,0.0,0.0,0.0,0.0,4.941405744,0.0,0.0,3.0,0.0,0.0,-0.0,0.0,0.0,0.013427733,0.0,0.0,1.399999976158142,0.4099999964237213,78.01000213623047,0.013671875,0.0296630859375,0.992431640625,34.61000061035156,0.0,6.0,0.039398193359375,-0.0339202880859375,Waiting,0.0,0.0,0.0,0.0,0.0,0.0,0.0,0.0,
9.134476999999956,0.0,0.0,false,2724932.376732694,,0.0,0.0,0.0,0.0,0.0,0.125,4.941405744,0.0,0.0,-8.0,0.0,0.0,-0.0,0.0,0.0,2.714843472,0.0,0.0,0.0,0.0,0.0,0.0,0.0,0.0,4.942626447,0.0,0.0,3.0,0.0,0.0,-0.0,0.0,0.0,0.01220703,0.0,0.0,1.4199999570846558,0.4099999964237213,78.0199966430664,0.0037841796875,0.030029296875,0.9954833984375,34.61000061035156,0.0,4.0,0.039398193359375,-0.0339202880859375,Waiting,0.0,0.0,0.0,0.0,0.0,0.0,0.0,0.0,
9.211402999999933,0.0,0.0,false,2724962.440201005,,0.0,0.0,0.0,0.0,0.0,0.125,4.942626447,0.0,0.0,-8.0,0.0,0.0,-0.0,0.0,0.0,2.714843472,0.0,0.0,0.0,0.0,0.0,0.0,0.0,0.0,4.941405744,0.0,0.0,3.0,0.0,0.0,-0.0,0.0,0.0,0.01220703,0.0,-0.001220703,1.4199999570846558,0.3799999952316284,78.0199966430664,-0.006103515625,0.0181884765625,1.00531005859375,34.61000061035156,0.0,-9.0,0.039398193359375,-0.0339202880859375,Waiting,0.0,0.0,0.0,0.0,0.0,0.0,0.0,0.0,
9.284543999999995,0.0,0.0,false,2724987.3419036055,,0.0,0.0,0.0,0.0,0.0,0.125,4.942626447,0.0,0.0,-8.0,0.0,0.0,-0.0,0.0,0.0,2.713622769,0.0,0.0,0.0,0.0,0.0,0.0,0.0,0.0,4.942626447,0.0,0.0012207029999995456,3.0,0.0,0.0,-0.0,0.0,0.0,0.01220703,0.0,0.0,1.3899999856948853,0.4000000059604645,78.0,0.0172119140625,0.01123046875,1.02716064453125,34.61000061035156,0.0,-11.0,0.039398193359375,-0.03399658203125,Waiting,0.0,0.0,0.0,0.0,0.0,0.0,0.0,0.0,
9.355998999999953,0.0,0.0,false,2725007.3240097146,,0.0,0.0,0.0,0.0,0.0,0.125,4.940185041,0.0,0.0,-8.0,0.0,0.0,-0.0,0.0,0.0,2.714843472,0.0,0.0,0.0,0.0,0.0,0.0,0.0,0.0,4.942626447,0.0,0.0,3.0,0.0,0.0,-0.0,0.0,0.0,0.013427733,0.0,0.001220703,1.3899999856948853,0.4099999964237213,78.02999877929688,-0.00518798828125,0.0281982421875,1.00714111328125,34.58000183105469,0.0,1.0,0.039398193359375,-0.0340728759765625,Waiting,0.0,0.0,0.0,0.0,0.0,0.0,0.0,0.0,
9.434733999999938,0.0,0.0,false,2725104.1326466524,,0.0,0.0,0.0,0.0,0.0,0.125,4.941405744,0.0,0.0,-8.0,0.0,0.0,-0.0,0.0,0.0,2.714843472,0.0,0.0,0.0,0.0,0.0,0.0,0.0,0.0,4.941405744,0.0,0.0012207029999995456,3.0,0.0,0.0,-0.0,0.0,0.0,0.01220703,0.0,0.0,1.399999976158142,0.3700000047683716,78.02999877929688,-5.4931640625E-4,0.032470703125,0.9921875,34.58000183105469,0.0,6.0,0.039398193359375,-0.0340728759765625,Waiting,0.0,0.0,0.0,0.0,0.0,0.0,0.0,0.0,
9.515013999999967,0.0,0.0,false,2725197.522693016,,0.0,0.0,0.0,0.0,0.0,0.125,4.938964338,0.0,0.0,-8.0,0.0,0.0,-0.0,0.0,0.0,2.714843472,0.0,0.0,0.0,0.0,0.0,0.0,0.0,0.0,4.942626447,0.0,0.0,3.0,0.0,0.0,-0.0,0.0,0.0,0.010986327,0.0,0.0,1.409999966621399,0.4000000059604645,78.02999877929688,0.0325927734375,0.0611572265625,0.9945068359375,34.58000183105469,0.0,41.0,0.0394134521484375,-0.0340728759765625,Waiting,0.0,0.0,0.0,0.0,0.0,0.0,0.0,0.0,
9.590658999999985,0.0,0.0,false,2725285.7411764706,,0.0,0.0,0.0,0.0,0.0,0.125,4.940185041,0.0,0.0,-8.0,0.0,0.0,-0.0,0.0,0.0,2.714843472,0.0,0.0,0.0,0.0,0.0,0.0,0.0,0.0,4.940185041,0.0,0.0,3.0,0.0,0.0,-0.0,0.0,0.0,0.01220703,0.0,0.0,1.399999976158142,0.41999998688697815,78.02999877929688,0.00439453125,0.03558349609375,0.9981689453125,34.58000183105469,0.0,10.0,0.0395050048828125,-0.0340728759765625,Waiting,0.0,0.0,0.0,0.0,0.0,0.0,0.0,0.0,
9.666162999999942,0.0,0.0,false,2725368.879845935,,0.0,0.0,0.0,0.0,0.0,0.125,4.941405744,0.0,0.0,-8.0,0.0,0.0,-0.0,0.0,0.0,2.713622769,0.0,0.0,0.0,0.0,0.0,0.0,0.0,0.0,4.941405744,0.0,0.0,3.0,0.0,0.0,-0.0,0.0,0.0,0.01220703,0.0,0.0,1.409999966621399,0.4000000059604645,78.05000305175781,-0.00201416015625,0.03082275390625,0.97943115234375,34.58000183105469,0.0,4.0,0.0395050048828125,-0.0340728759765625,Waiting,0.0,0.0,0.0,0.0,0.0,0.0,0.0,0.0,
9.736304999999934,0.0,0.0,false,2725446.848578725,,0.0,0.0,0.0,0.0,0.0,0.125,4.940185041,0.0,0.0,-8.0,0.0,0.0,-0.0,0.0,0.0,2.714843472,0.0,0.0,0.0,0.0,0.0,0.0,0.0,0.0,4.942626447,0.0,0.0,3.0,0.0,0.0,-0.0,0.0,0.0,0.01220703,0.0,0.0,1.399999976158142,0.3700000047683716,78.04000091552734,6.7138671875E-4,0.01751708984375,0.9971923828125,34.58000183105469,0.0,-7.0,0.0395050048828125,-0.0340728759765625,Waiting,0.0,0.0,0.0,0.0,0.0,0.0,0.0,0.0,
9.811198999999906,0.0,0.0,false,2725519.6476892163,,0.0,0.0,0.0,0.0,0.0,0.125,4.938964338,0.0,0.0,-8.0,0.0,0.0,-0.0,0.0,0.0,2.713622769,0.0,0.0,0.0,0.0,0.0,0.0,0.0,0.0,4.941405744,0.0,0.0,3.0,0.0,0.0,-0.0,0.0,0.0,0.01220703,0.0,0.0,1.3899999856948853,0.4099999964237213,78.04000091552734,0.018310546875,0.02593994140625,0.99261474609375,34.58000183105469,0.0,3.0,0.0395050048828125,-0.0340728759765625,Waiting,0.0,0.0,0.0,0.0,0.0,0.0,0.0,0.0,
9.892894999999902,0.0,0.0,false,2725587.2831847295,,0.0,0.0,0.0,0.0,0.0,0.125,4.940185041,0.0,0.0,-8.0,0.0,0.0,-0.0,0.0,0.0,2.714843472,0.0,0.0,0.0,0.0,0.0,0.0,0.0,0.0,4.941405744,0.0,0.0012207029999995456,3.0,0.0,0.0,-0.0,0.0,0.0,0.01220703,0.0,0.0,1.3899999856948853,0.4000000059604645,78.02999877929688,3.662109375E-4,0.02740478515625,1.004638671875,34.61000061035156,0.0,1.0,0.0395050048828125,-0.0340728759765625,Waiting,0.0,0.0,0.0,0.0,0.0,0.0,0.0,0.0,
9.969008999999962,0.0,0.0,false,2725649.841439933,,0.0,0.0,0.0,0.0,0.0,0.125,4.941405744,0.0,0.0,-8.0,0.0,0.0,-0.0,0.0,0.0,2.714843472,0.0,0.0,0.0,0.0,0.0,0.0,0.0,0.0,4.942626447,0.0,0.0,3.0,0.0,0.0,-0.0,0.0,0.0,0.01220703,0.0,-0.001220703,1.399999976158142,0.3799999952316284,78.04000091552734,0.00482177734375,0.030029296875,1.00506591796875,34.61000061035156,0.0,4.0,0.0395050048828125,-0.0340728759765625,Waiting,0.0,0.0,0.0,0.0,0.0,0.0,0.0,0.0,
10.040046999999904,0.0,0.0,false,2725708.899250764,,0.0,0.0,0.0,0.0,0.0,0.125,4.942626447,0.0,0.0,-8.0,0.0,0.0,-0.0,0.0,0.0,2.713622769,0.0,0.0,0.0,0.0,0.0,0.0,0.0,0.0,4.940185041,0.0,0.0012207029999995456,3.0,0.0,0.0,-0.0,0.0,0.0,0.010986327,0.0,0.0,1.399999976158142,0.4000000059604645,78.02999877929688,0.0162353515625,0.0205078125,0.9970703125,34.61000061035156,0.0,-1.0,0.0395050048828125,-0.0340728759765625,Waiting,0.0,0.0,0.0,0.0,0.0,0.0,0.0,0.0,
10.123519999999901,0.0,0.0,false,2725762.8809643397,,0.0,0.0,0.0,0.0,0.0,0.125,4.940185041,0.0,0.0,-8.0,0.0,0.0,-0.0,0.0,0.0,2.713622769,0.0,0.0,0.0,0.0,0.0,0.0,0.0,0.0,4.941405744,0.0,0.0,3.0,0.0,0.0,-0.0,0.0,0.0,0.01220703,0.0,0.0,1.3899999856948853,0.38999998569488525,78.04000091552734,3.662109375E-4,0.02740478515625,0.99969482421875,34.61000061035156,0.0,1.0,0.0395050048828125,-0.0340728759765625,Waiting,0.0,0.0,0.0,0.0,0.0,0.0,0.0,0.0,
10.192691999999923,0.0,0.0,false,2725811.701502532,,0.0,0.0,0.0,0.0,0.0,0.125,4.941405744,0.0,0.0,-8.0,0.0,0.0,-0.0,0.0,0.0,2.714843472,0.0,0.0,0.0,0.0,0.0,0.0,0.0,0.0,4.941405744,0.0,0.0,3.0,0.0,0.0,-0.0,0.0,0.0,0.01220703,0.0,0.0,1.3899999856948853,0.3799999952316284,78.04000091552734,0.0025634765625,0.0252685546875,1.00164794921875,34.61000061035156,0.0,0.0,0.0395050048828125,-0.0340728759765625,Waiting,0.0,0.0,0.0,0.0,0.0,0.0,0.0,0.0,
10.271206999999936,0.0,0.0,false,2725855.3615133506,,0.0,0.0,0.0,0.0,0.0,0.0,4.942626447,0.0,0.0,-8.0,0.0,0.0,-0.0,0.0,0.0,2.714843472,0.0,0.0,0.0,0.0,0.0,0.0,0.0,0.0,4.942626447,0.0,0.0,3.0,0.0,0.0,-0.0,0.0,0.0,0.010986327,0.0,0.0,1.3899999856948853,0.4000000059604645,78.04000091552734,0.00750732421875,0.02215576171875,1.00006103515625,34.61000061035156,0.0,-2.0,0.0395050048828125,-0.0340728759765625,Waiting,0.0,0.0,0.0,0.0,0.0,0.0,0.0,0.0,
