Time,ClimberA1,ClimberA2,CameraExists,HeapSpace,LoopTime,FRpos,FRCurrent,FRspeed,FRsetpoint,FRApos,FRACurrent,FREncpos,FREncSetpoint,FREncSpeed,FLpos,FLCurrent,FLspeed,FLsetpoint,FLApos,FLACurrent,FLEncpos,FLEncSetpoint,FLEncSpeed,BRpos,BRCurrent,BRspeed,BRsetpoint,BRApos,BRACurrent,BREncpos,BREncSetpoint,BREncSpeed,BLpos,BLCurrent,BLspeed,BLsetpoint,BLApos,BLACurrent,BLEncpos,BLEncSetpoint,BLEncSpeed,navx_Pitch,navx_Roll,navx_Yaw,navx_XAcc,navx_YAcc,navx_ZAcc,navx_Temp,navx_Bar,navx_Alt,navx_XDis,navx_YDis,GearPlacerState,ShootOutputV,ShootOutputCurrent,ShootEncPos,ShootEncVelocity,ShootSpeed,ShootSetpoint,CarouselSetpoint,CarouselCurrent,
0.21894899999990594,0.0,0.0,false,6566432.624036281,,54122.0,0.0,0.0,0.0,0.0,0.125,1.8164060640000002,0.0,0.0,-62613.0,0.0,0.0,-0.0,0.0,0.0,2.647704807,0.0,0.0,41896.0,0.0,0.0,0.0,0.0,0.0,4.073485911000001,0.0,0.0,-55910.0,0.0,0.0,-0.0,0.0,0.0,2.5402829430000002,0.0,0.0012207029999999897,1.2999999523162842,0.3499999940395355,-154.41000366210938,0.0054931640625,0.02239990234375,0.99853515625,35.20000076293945,0.0,0.0,0.60528564453125,1.9025726318359375,Waiting,0.0,0.0,36.0,0.0,0.0,0.0,0.0,0.0,
0.28809499999997207,0.0,0.0,false,6566600.923555325,,54122.0,0.0,0.0,0.0,0.0,0.125,1.8176267670000001,0.0,-0.0012207029999999897,-62613.0,0.0,0.0,-0.0,0.0,0.0,2.647704807,0.0,0.0,41896.0,0.0,0.0,0.0,0.0,0.0,4.073485911000001,0.0,0.0,-55910.0,0.0,0.0,-0.0,0.0,0.0,2.5415036460000002,0.0,-0.0012207029999999897,1.2999999523162842,0.3499999940395355,-154.41000366210938,0.00750732421875,0.01885986328125,0.99932861328125,35.20000076293945,0.0,0.0,0.60528564453125,1.9025726318359375,Waiting,0.0,0.0,36.0,0.0,0.0,0.0,0.0,0.0,
0.34053999999992085,0.0,0.0,false,6566766.244218436,,54122.0,0.0,0.0,0.0,0.0,0.125,1.8164060640000002,0.0,0.0012207029999999897,-62613.0,0.0,0.0,-0.0,0.0,0.0,2.647704807,0.0,0.0,41896.0,0.0,0.0,0.0,0.0,0.0,4.073485911000001,0.0,0.0,-55910.0,0.0,0.0,-0.0,0.0,0.0,2.5402829430000002,0.0,0.0012207029999999897,1.2999999523162842,0.3400000035762787,-154.41000366210938,0.0059814453125,0.021240234375,0.99078369140625,35.20000076293945,0.0,0.0,0.60528564453125,1.9025726318359375,Waiting,0.0,0.0,36.0,0.0,0.0,0.0,0.0,0.0,
0.39314899999997577,0.0,0.0,false,6566925.629744786,,54122.0,0.0,0.0,0.0,0.0,0.125,1.8164060640000002,0.0,0.0,-62613.0,0.0,0.0,-0.0,0.0,0.0,2.647704807,0.0,0.0,41896.0,0.0,0.0,0.0,0.0,0.0,4.073485911000001,0.0,0.0,-55910.0,0.0,0.0,-0.0,0.0,0.0,2.5402829430000002,0.0,0.0,1.309999942779541,0.3499999940395355,-154.41000366210938,0.00579833984375,0.02423095703125,0.99945068359375,35.20000076293945,0.0,0.0,0.60528564453125,1.9025726318359375,Waiting,0.0,0.0,36.0,0.0,0.0,0.0,0.0,0.0,
0.4514399999999441,0.0,0.0,false,6567082.037955826,,54122.0,0.0,0.0,0.0,0.0,0.125,1.8176267670000001,0.0,0.0,-62613.0,0.0,0.0,-0.0,0.0,0.0,2.647704807,0.0,0.0,41896.0,0.0,0.0,0.0,0.0,0.0,4.072265208,0.0,0.0,-55910.0,0.0,0.0,-0.0,0.0,0.0,2.5402829430000002,0.0,-0.0012207029999999897,1.309999942779541,0.3499999940395355,-154.41000366210938,0.0052490234375,0.02301025390625,0.99810791015625,35.20000076293945,0.0,0.0,0.60528564453125,1.9025726318359375,Waiting,0.0,0.0,36.0,0.0,0.0,0.0,0.0,0.0,
0.5023389999999199,0.0,0.0,false,6567232.512953368,,54122.0,0.0,0.0,0.0,0.0,0.125,1.8164060640000002,0.0,0.0,-62613.0,0.0,0.0,-0.0,0.0,0.0,2.647704807,0.0,0.0,41896.0,0.0,0.0,0.0,0.0,0.0,4.072265208,0.0,0.0,-55910.0,0.0,0.0,-0.0,0.0,0.0,2.5415036460000002,0.0,0.0012207029999999897,1.309999942779541,0.3499999940395355,-154.41000366210938,0.00518798828125,0.025146484375,0.9970703125,35.20000076293945,0.0,0.0,0.60528564453125,1.9025726318359375,Waiting,0.0,0.0,36.0,0.0,0.0,0.0,0.0,0.0,
0.5523129999999655,0.0,0.0,false,6567380.012175377,,54122.0,0.0,0.0,0.0,0.0,0.125,1.8164060640000002,0.0,0.0,-62613.0,0.0,0.0,-0.0,0.0,0.0,2.647704807,0.0,0.0,41896.0,0.0,0.0,0.0,0.0,0.0,4.073485911000001,0.0,0.0,-55910.0,0.0,0.0,-0.0,0.0,0.0,2.5402829430000002,0.0,0.0,1.309999942779541,0.3499999940395355,-154.41000366210938,0.00579833984375,0.0225830078125,0.992431640625,35.20000076293945,0.0,0.0,0.60528564453125,1.9025726318359375,Waiting,0.0,0.0,36.0,0.0,0.0,0.0,0.0,0.0,
0.6006159999999218,0.0,0.0,false,6567521.580106203,,54122.0,0.0,0.0,0.0,0.0,0.125,1.8176267670000001,0.0,0.0,-62613.0,0.0,0.0,-0.0,0.0,0.0,2.647704807,0.0,0.0,41896.0,0.0,0.0,0.0,0.0,0.0,4.073485911000001,0.0,0.0,-55910.0,0.0,0.0,-0.0,0.0,0.0,2.5402829430000002,0.0,0.0,1.309999942779541,0.3499999940395355,-154.41000366210938,0.0069580078125,0.02362060546875,0.9969482421875,35.20000076293945,0.0,-1.0,0.60528564453125,1.9025726318359375,Waiting,0.0,0.0,36.0,0.0,0.0,0.0,0.0,0.0,
0.6509169999998994,0.0,0.0,false,6567660.1738004275,,54122.0,0.0,0.0,0.0,0.0,0.125,1.8164060640000002,0.0,0.0,-62613.0,0.0,0.0,-0.0,0.0,0.0,2.647704807,0.0,0.0,41896.0,0.0,0.0,0.0,0.0,0.0,4.073485911000001,0.0,0.0,-55910.0,0.0,0.0,-0.0,0.0,0.0,2.5415036460000002,0.0,0.0,1.309999942779541,0.3499999940395355,-154.41000366210938,0.00372314453125,0.02374267578125,1.0001220703125,35.20000076293945,0.0,1.0,0.60528564453125,1.9025726318359375,Waiting,0.0,0.0,36.0,0.0,0.0,0.0,0.0,0.0,
0.709545999999973,0.0,0.0,false,6567791.55969956,,54122.0,0.0,0.0,0.0,0.0,0.125,1.8164060640000002,0.0,0.0,-62613.0,0.0,0.0,-0.0,0.0,0.0,2.647704807,0.0,0.0,41896.0,0.0,0.0,0.0,0.0,0.0,4.073485911000001,0.0,0.0,-55910.0,0.0,0.0,-0.0,0.0,0.0,2.5402829430000002,0.0,0.0,1.309999942779541,0.3499999940395355,-154.41000366210938,0.00836181640625,0.022216796875,1.0013427734375,35.20000076293945,0.0,-1.0,0.60528564453125,1.9025726318359375,Waiting,0.0,0.0,36.0,0.0,0.0,0.0,0.0,0.0,
0.7652189999999246,0.0,0.0,false,6567917.017546131,,54122.0,0.0,0.0,0.0,0.0,0.125,1.8164060640000002,0.0,0.0,-62613.0,0.0,0.0,-0.0,0.0,0.0,2.647704807,0.0,0.0,41896.0,0.0,0.0,0.0,0.0,0.0,4.073485911000001,0.0,0.0,-55910.0,0.0,0.0,-0.0,0.0,0.0,2.5402829430000002,0.0,0.0,1.309999942779541,0.36000001430511475,-154.41000366210938,0.00494384765625,0.0179443359375,0.9993896484375,35.20000076293945,0.0,3.0,0.60528564453125,1.9025726318359375,Waiting,0.0,0.0,36.0,0.0,0.0,0.0,0.0,0.0,
0.8170509999999777,0.0,0.0,false,6568039.503819759,,54122.0,0.0,0.0,0.0,0.0,0.125,1.8164060640000002,0.0,0.0,-62613.0,0.0,0.0,-0.0,0.0,0.0,2.647704807,0.0,-0.0012207030000004337,41896.0,0.0,0.0,0.0,0.0,0.0,4.073485911000001,0.0,0.0,-55910.0,0.0,0.0,-0.0,0.0,0.0,2.5402829430000002,0.0,0.0,1.309999942779541,0.3499999940395355,-154.41000366210938,0.005615234375,0.02252197265625,0.99713134765625,35.20000076293945,0.0,0.0,0.60528564453125,1.9025726318359375,Waiting,0.0,0.0,36.0,0.0,0.0,0.0,0.0,0.0,
0.8690819999999366,0.0,0.0,false,6568156.06396064,,54122.0,0.0,0.0,0.0,0.0,0.125,1.8176267670000001,0.0,0.0,-62613.0,0.0,0.0,-0.0,0.0,0.0,2.647704807,0.0,0.0,41896.0,0.0,0.0,0.0,0.0,0.0,4.073485911000001,0.0,0.0,-55910.0,0.0,0.0,-0.0,0.0,0.0,2.5402829430000002,0.0,0.0,1.3200000524520874,0.3499999940395355,-154.41000366210938,0.00439453125,0.0235595703125,1.00482177734375,35.20000076293945,0.0,1.0,0.60528564453125,1.9025726318359375,Waiting,0.0,0.0,36.0,0.0,0.0,0.0,0.0,0.0,
0.9139599999999628,0.0,0.0,false,6568269.654065251,,54122.0,0.0,0.0,0.0,0.0,0.125,1.8164060640000002,0.0,0.0,-62613.0,0.0,0.0,-0.0,0.0,0.0,2.647704807,0.0,0.0012207030000004337,41896.0,0.0,0.0,0.0,0.0,0.0,4.073485911000001,0.0,0.0,-55910.0,0.0,0.0,-0.0,0.0,0.0,2.5402829430000002,0.0,0.0,1.3200000524520874,0.3499999940395355,-154.41000366210938,0.00482177734375,0.024658203125,1.000244140625,35.20000076293945,0.0,0.0,0.60528564453125,1.9025726318359375,Waiting,0.0,0.0,36.0,0.0,0.0,0.0,0.0,0.0,
0.9691509999999544,0.0,0.0,false,6568377.319955984,,54122.0,0.0,0.0,0.0,0.0,0.125,1.8164060640000002,0.0,0.0,-62613.0,0.0,0.0,-0.0,0.0,0.0,2.6464841040000002,0.0,-0.0012207030000004337,41896.0,0.0,0.0,0.0,0.0,0.0,4.073485911000001,0.0,0.0,-55910.0,0.0,0.0,-0.0,0.0,0.0,2.5415036460000002,0.0,0.0,1.3200000524520874,0.3499999940395355,-154.41000366210938,0.00732421875,0.02056884765625,0.99267578125,35.20000076293945,0.0,0.0,0.60528564453125,1.9025726318359375,Waiting,0.0,0.0,36.0,0.0,0.0,0.0,0.0,0.0,
1.0201609999999637,0.0,0.0,false,6568482.017346279,,54122.0,0.0,0.0,0.0,0.0,0.125,1.8176267670000001,0.0,0.0,-62613.0,0.0,0.0,-0.0,0.0,0.0,2.647704807,0.0,0.0,41896.0,0.0,0.0,0.0,0.0,0.0,4.073485911000001,0.0,0.0,-55910.0,0.0,0.0,-0.0,0.0,0.0,2.5402829430000002,0.0,0.0,1.3200000524520874,0.3499999940395355,-154.41000366210938,0.0089111328125,0.024169921875,0.9991455078125,35.20000076293945,0.0,-2.0,0.60528564453125,1.9025726318359375,Waiting,0.0,0.0,36.0,0.0,0.0,0.0,0.0,0.0,
1.07048199999996,0.0,0.0,false,6568580.792440618,,54122.0,0.0,0.0,0.0,0.0,0.125,1.8164060640000002,0.0,0.0,-62613.0,0.0,0.0,-0.0,0.0,0.0,2.647704807,0.0,0.0,41896.0,0.0,0.0,0.0,0.0,0.0,4.072265208,0.0,0.0,-55910.0,0.0,0.0,-0.0,0.0,0.0,2.5402829430000002,0.0,0.0,1.3200000524520874,0.3499999940395355,-154.41000366210938,0.00689697265625,0.02197265625,0.99932861328125,35.220001220703125,0.0,0.0,0.60528564453125,1.9025726318359375,Waiting,0.0,0.0,36.0,0.0,0.0,0.0,0.0,0.0,
1.1143899999998976,0.0,0.0,false,6568675.32280611,,54122.0,0.0,0.0,0.0,0.0,0.125,1.8176267670000001,0.0,0.0,-62613.0,0.0,0.0,-0.0,0.0,0.0,2.647704807,0.0,0.0,41896.0,0.0,0.0,0.0,0.0,0.0,4.072265208,0.0,0.0,-55910.0,0.0,0.0,-0.0,0.0,0.0,2.5402829430000002,0.0,0.0,1.3200000524520874,0.3499999940395355,-154.41000366210938,0.00634765625,0.02386474609375,0.9949951171875,35.220001220703125,0.0,0.0,0.60528564453125,1.9025726318359375,Waiting,0.0,0.0,36.0,0.0,0.0,0.0,0.0,0.0,
1.164189999999944,0.0,0.0,false,6568763.932958001,,54122.0,0.0,0.0,0.0,0.0,0.125,1.8164060640000002,0.0,0.0,-62613.0,0.0,0.0,-0.0,0.0,0.0,2.647704807,0.0,0.0,41896.0,0.0,0.0,0.0,0.0,0.0,4.073485911000001,0.0,0.0,-55910.0,0.0,0.0,-0.0,0.0,0.0,2.5402829430000002,0.0,0.0,1.3200000524520874,0.3499999940395355,-154.41000366210938,0.0057373046875,0.0220947265625,0.99053955078125,35.220001220703125,0.0,0.0,0.60528564453125,1.9025726318359375,Waiting,0.0,0.0,36.0,0.0,0.0,0.0,0.0,0.0,
1.2192849999999162,0.0,0.0,false,6568849.577843924,,54122.0,0.0,0.0,0.0,0.0,0.125,1.8164060640000002,0.0,0.0,-62613.0,0.0,0.0,-0.0,0.0,0.0,2.6464841040000002,0.0,0.0,41896.0,0.0,0.0,0.0,0.0,0.0,4.072265208,0.0,0.0,-55910.0,0.0,0.0,-0.0,0.0,0.0,2.5390622400000002,0.0,0.0,1.3200000524520874,0.3499999940395355,-154.41000366210938,0.0069580078125,0.0216064453125,0.99676513671875,35.220001220703125,0.0,0.0,0.60528564453125,1.9025726318359375,Waiting,0.0,0.0,36.0,0.0,0.0,0.0,0.0,0.0,
1.2688059999999823,0.0,0.0,false,6568926.350824975,,54122.0,0.0,0.0,0.0,0.0,0.125,1.8176267670000001,0.0,0.0,-62613.0,0.0,0.0,-0.0,0.0,0.0,2.647704807,0.0,0.0,41896.0,0.0,0.0,0.0,0.0,0.0,4.072265208,0.0,0.0,-55910.0,0.0,0.0,-0.0,0.0,0.0,2.5390622400000002,0.0,0.0,1.3200000524520874,0.3499999940395355,-154.41000366210938,0.00933837890625,0.02374267578125,1.00274658203125,35.220001220703125,0.0,-3.0,0.60528564453125,1.9025726318359375,Waiting,0.0,0.0,36.0,0.0,0.0,0.0,0.0,0.0,
1.3129129999999423,0.0,0.0,false,6569000.160455487,,54122.0,0.0,0.0,0.0,0.0,0.125,1.8151853610000002,0.0,0.0,-62613.0,0.0,0.0,-0.0,0.0,0.0,2.647704807,0.0,0.0,41896.0,0.0,0.0,0.0,0.0,0.0,4.074706614,0.0,0.0,-55910.0,0.0,0.0,-0.0,0.0,0.0,2.5402829430000002,0.0,0.0,1.3200000524520874,0.3499999940395355,-154.41000366210938,0.00732421875,0.02301025390625,0.9954833984375,35.220001220703125,0.0,0.0,0.60528564453125,1.9025726318359375,Waiting,0.0,0.0,36.0,0.0,0.0,0.0,0.0,0.0,
1.3679129999999422,0.0,0.0,false,6569068.054085528,,54122.0,0.0,0.0,0.0,0.0,0.125,1.8176267670000001,0.0,0.0,-62613.0,0.0,0.0,-0.0,0.0,0.0,2.647704807,0.0,0.0,41896.0,0.0,0.0,0.0,0.0,0.0,4.073485911000001,0.0,0.0,-55910.0,0.0,0.0,-0.0,0.0,0.0,2.5402829430000002,0.0,0.0,1.3200000524520874,0.3499999940395355,-154.41000366210938,0.0078125,0.019287109375,0.98907470703125,35.220001220703125,0.0,0.0,0.60528564453125,1.9025726318359375,Waiting,0.0,0.0,36.0,0.0,0.0,0.0,0.0,0.0,
1.4116319999999833,0.0,0.0,false,6569132.98589727,,54122.0,0.0,0.0,0.0,0.0,0.125,1.8164060640000002,0.0,0.0,-62613.0,0.0,0.0,-0.0,0.0,0.0,2.647704807,0.0,0.0,41896.0,0.0,0.0,0.0,0.0,0.0,4.073485911000001,0.0,0.0,-55910.0,0.0,0.0,-0.0,0.0,0.0,2.5402829430000002,0.0,0.0,1.3200000524520874,0.3499999940395355,-154.41000366210938,0.0089111328125,0.02294921875,0.99761962890625,35.220001220703125,0.0,-2.0,0.60528564453125,1.9025726318359375,Waiting,0.0,0.0,36.0,0.0,0.0,0.0,0.0,0.0,
1.4676649999999207,0.0,0.0,false,6569192.003622485,,54122.0,0.0,0.0,0.0,0.0,0.125,1.8164060640000002,0.0,0.0,-62613.0,0.0,0.0,-0.0,0.0,0.0,2.647704807,0.0,0.0,41896.0,0.0,0.0,0.0,0.0,0.0,4.072265208,0.0,0.0,-55910.0,0.0,0.0,-0.0,0.0,0.0,2.5402829430000002,0.0,0.0,1.3200000524520874,0.36000001430511475,-154.41000366210938,0.0107421875,0.02154541015625,0.99566650390625,35.220001220703125,0.0,-3.0,0.60528564453125,1.9025726318359375,Waiting,0.0,0.0,36.0,0.0,0.0,0.0,0.0,0.0,
1.5128919999999926,0.0,0.0,false,6569248.061060802,,54122.0,0.0,0.0,0.0,0.0,0.125,1.8164060640000002,0.0,0.0,-62613.0,0.0,0.0,-0.0,0.0,0.0,2.647704807,0.0,0.0,41896.0,0.0,0.0,0.0,0.0,0.0,4.072265208,0.0,0.0,-55910.0,0.0,0.0,-0.0,0.0,0.0,2.5402829430000002,0.0,0.0,1.3200000524520874,0.3499999940395355,-154.41000366210938,0.00543212890625,0.02313232421875,1.0078125,35.220001220703125,0.0,0.0,0.60528564453125,1.9025726318359375,Waiting,0.0,0.0,36.0,0.0,0.0,0.0,0.0,0.0,
1.5640509999999777,0.0,0.0,false,6569298.206325593,,54122.0,0.0,0.0,0.0,0.0,0.125,1.8164060640000002,0.0,0.0,-62613.0,0.0,0.0,-0.0,0.0,0.0,2.647704807,0.0,0.0,41896.0,0.0,0.0,0.0,0.0,0.0,4.074706614,0.0,0.0,-55910.0,0.0,0.0,-0.0,0.0,0.0,2.5415036460000002,0.0,0.0,1.3200000524520874,0.3499999940395355,-154.41000366210938,0.0078125,0.02215576171875,1.0015869140625,35.220001220703125,0.0,0.0,0.60528564453125,1.9025726318359375,Waiting,0.0,0.0,36.0,0.0,0.0,0.0,0.0,0.0,
1.611545999999973,0.0,0.0,false,6569344.115897038,,54122.0,0.0,0.0,0.0,0.0,0.125,1.8164060640000002,0.0,0.0,-62613.0,0.0,0.0,-0.0,0.0,0.0,2.6464841040000002,0.0,0.0,41896.0,0.0,0.0,0.0,0.0,0.0,4.073485911000001,0.0,0.0,-55910.0,0.0,0.0,-0.0,0.0,0.0,2.5402829430000002,0.0,0.0,1.3200000524520874,0.3499999940395355,-154.41000366210938,0.00592041015625,0.02496337890625,0.99737548828125,35.189998626708984,0.0,0.0,0.60528564453125,1.9025726318359375,Waiting,0.0,0.0,36.0,0.0,0.0,0.0,0.0,0.0,
1.6606669999998993,0.0,0.0,false,6569384.115372179,,54122.0,0.0,0.0,0.0,0.0,0.125,1.8164060640000002,0.0,0.0,-62613.0,0.0,0.0,-0.0,0.0,0.0,2.647704807,0.0,0.0,41896.0,0.0,0.0,0.0,0.0,0.0,4.073485911000001,0.0,0.0,-55910.0,0.0,0.0,-0.0,0.0,0.0,2.5415036460000002,0.0,0.0,1.3200000524520874,0.3499999940395355,-154.41000366210938,0.005615234375,0.021240234375,1.0003662109375,35.189998626708984,0.0,1.0,0.60528564453125,1.9025726318359375,Waiting,0.0,0.0,36.0,0.0,0.0,0.0,0.0,0.0,
1.7081879999999656,0.0,0.0,false,6569421.157785825,,54122.0,0.0,0.0,0.0,0.0,0.125,1.8164060640000002,0.0,0.0,-62613.0,0.0,0.0,-0.0,0.0,0.0,2.647704807,0.0,0.0,41896.0,0.0,0.0,0.0,0.0,0.0,4.074706614,0.0,0.0,-55910.0,0.0,0.0,-0.0,0.0,0.0,2.5402829430000002,0.0,0.0,1.3200000524520874,0.3499999940395355,-154.41000366210938,0.008056640625,0.02496337890625,1.0084228515625,35.189998626708984,0.0,-2.0,0.60528564453125,1.9025726318359375,Waiting,0.0,0.0,36.0,0.0,0.0,0.0,0.0,0.0,
1.7592259999999078,0.0,0.0,false,6569452.292014225,,54122.0,0.0,0.0,0.0,0.0,0.125,1.8176267670000001,0.0,0.0,-62613.0,0.0,0.0,-0.0,0.0,0.0,2.6464841040000002,0.0,0.0,41896.0,0.0,0.0,0.0,0.0,0.0,4.073485911000001,0.0,0.0,-55910.0,0.0,0.0,-0.0,0.0,0.0,2.5402829430000002,0.0,0.0,1.3200000524520874,0.36000001430511475,-154.41000366210938,0.005126953125,0.01934814453125,1.00189208984375,35.189998626708984,0.0,2.0,0.60528564453125,1.9025726318359375,Waiting,0.0,0.0,36.0,0.0,0.0,0.0,0.0,0.0,
1.8074049999999116,0.0,0.0,false,6569480.470709944,,54122.0,0.0,0.0,0.0,0.0,0.125,1.8164060640000002,0.0,0.0,-62613.0,0.0,0.0,-0.0,0.0,0.0,2.647704807,0.0,0.0,41896.0,0.0,0.0,0.0,0.0,0.0,4.072265208,0.0,0.0,-55910.0,0.0,0.0,-0.0,0.0,0.0,2.5402829430000002,0.0,0.0,1.3300000429153442,0.36000001430511475,-154.41000366210938,0.00732421875,0.02392578125,1.001953125,35.189998626708984,0.0,-1.0,0.60528564453125,1.9025726318359375,Waiting,0.0,0.0,36.0,0.0,0.0,0.0,0.0,0.0,
1.8508939999999712,0.0,0.0,false,6569502.743130536,,54122.0,0.0,0.0,0.0,0.0,0.125,1.8164060640000002,0.0,0.0,-62613.0,0.0,0.0,-0.0,0.0,0.0,2.647704807,0.0,0.0,41896.0,0.0,0.0,0.0,0.0,0.0,4.073485911000001,0.0,0.0,-55910.0,0.0,0.0,-0.0,0.0,0.0,2.5402829430000002,0.0,0.0,1.3300000429153442,0.36000001430511475,-154.41000366210938,0.0037841796875,0.0218505859375,1.00091552734375,35.189998626708984,0.0,2.0,0.60528564453125,1.9025726318359375,Waiting,0.0,0.0,36.0,0.0,0.0,0.0,0.0,0.0,
1.9058889999999664,0.0,0.0,false,6569519.110421515,,54122.0,0.0,0.0,0.0,0.0,0.125,1.8164060640000002,0.0,0.0,-62613.0,0.0,0.0,-0.0,0.0,0.0,2.647704807,0.0,0.0,41896.0,0.0,0.0,0.0,0.0,0.0,4.073485911000001,0.0,0.0,-55910.0,0.0,0.0,-0.0,0.0,0.0,2.5402829430000002,0.0,0.0,1.3300000429153442,0.36000001430511475,-154.41000366210938,0.0076904296875,0.02490234375,0.99884033203125,35.189998626708984,0.0,-1.0,0.60528564453125,1.9025726318359375,Waiting,0.0,0.0,36.0,0.0,0.0,0.0,0.0,0.0,
1.9506419999999927,0.0,0.0,false,6569532.524662227,,54122.0,0.0,0.0,0.0,0.0,0.125,1.8164060640000002,0.0,0.0,-62613.0,0.0,0.0,-0.0,0.0,0.0,2.647704807,0.0,0.0,41896.0,0.0,0.0,0.0,0.0,0.0,4.072265208,0.0,0.0,-55910.0,0.0,0.0,-0.0,0.0,0.0,2.5402829430000002,0.0,0.0,1.3300000429153442,0.36000001430511475,-154.41000366210938,0.0057373046875,0.02349853515625,0.99798583984375,35.189998626708984,0.0,0.0,0.60528564453125,1.9025726318359375,Waiting,0.0,0.0,36.0,0.0,0.0,0.0,0.0,0.0,
2.000908999999985,0.0,0.0,false,6569540.035681965,,54122.0,0.0,0.0,0.0,0.0,0.125,1.8164060640000002,0.0,0.0,-62613.0,0.0,0.0,-0.0,0.0,0.0,2.647704807,0.0,0.0,41896.0,0.0,0.0,0.0,0.0,0.0,4.073485911000001,0.0,0.0,-55910.0,0.0,0.0,-0.0,0.0,0.0,2.5402829430000002,0.0,0.0,1.3300000429153442,0.3700000047683716,-154.41000366210938,0.00543212890625,0.0235595703125,0.9990234375,35.189998626708984,0.0,0.0,0.60528564453125,1.9025726318359375,Waiting,0.0,0.0,36.0,0.0,0.0,0.0,0.0,0.0,
2.047643999999971,0.0,0.0,false,6569543.318983905,,54122.0,0.0,0.0,0.0,0.0,0.125,1.8164060640000002,0.0,0.0,-62613.0,0.0,0.0,-0.0,0.0,0.0,2.6464841040000002,0.0,0.0,41896.0,0.0,0.0,0.0,0.0,0.0,4.073485911000001,0.0,0.0,-55910.0,0.0,0.0,-0.0,0.0,0.0,2.5402829430000002,0.0,0.0,1.3300000429153442,0.36000001430511475,-154.41000366210938,0.0064697265625,0.02215576171875,0.9949951171875,35.189998626708984,0.0,0.0,0.60528564453125,1.9025726318359375,Waiting,0.0,0.0,36.0,0.0,0.0,0.0,0.0,0.0,
2.0928199999999486,0.0,0.0,false,6569540.701137539,,54122.0,0.0,0.0,0.0,0.0,0.125,1.8164060640000002,0.0,0.0,-62613.0,0.0,0.0,-0.0,0.0,0.0,2.647704807,0.0,0.0012207030000004337,41896.0,0.0,0.0,0.0,0.0,0.0,4.073485911000001,0.0,0.0,-55910.0,0.0,0.0,-0.0,0.0,0.0,2.5415036460000002,0.0,0.0,1.3300000429153442,0.36000001430511475,-154.41000366210938,0.00140380859375,0.02301025390625,0.9990234375,35.189998626708984,0.0,1.0,0.60528564453125,1.9025726318359375,Waiting,0.0,0.0,36.0,0.0,0.0,0.0,0.0,0.0,
2.149113999999943,0.0,0.0,false,6569535.133458282,,54122.0,0.0,0.0,0.0,0.0,0.125,1.8164060640000002,0.0,0.0,-62613.0,0.0,0.0,-0.0,0.0,0.0,2.647704807,0.0,-0.0012207030000004337,41896.0,0.0,0.0,0.0,0.0,0.0,4.074706614,0.0,0.0,-55910.0,0.0,0.0,-0.0,0.0,0.0,2.5402829430000002,0.0,-0.0012207029999999897,1.3300000429153442,0.36000001430511475,-154.41000366210938,0.00628662109375,0.02325439453125,0.9967041015625,35.189998626708984,0.0,0.0,0.60528564453125,1.9025726318359375,Waiting,0.0,0.0,36.0,0.0,0.0,0.0,0.0,0.0,
2.197082999999984,0.0,0.0,false,6569523.666537418,,54122.0,0.0,0.0,0.0,0.0,0.125,1.8164060640000002,0.0,0.0,-62613.0,0.0,0.0,-0.0,0.0,0.0,2.647704807,0.0,0.0,41896.0,0.0,0.0,0.0,0.0,0.0,4.073485911000001,0.0,0.0,-55910.0,0.0,0.0,-0.0,0.0,0.0,2.5402829430000002,0.0,0.0012207029999999897,1.3300000429153442,0.36000001430511475,-154.41000366210938,0.006103515625,0.02191162109375,1.00067138671875,35.189998626708984,0.0,0.0,0.60528564453125,1.9025726318359375,Waiting,0.0,0.0,36.0,0.0,0.0,0.0,0.0,0.0,
2.248921999999904,0.0,0.0,false,6569509.251308562,,54122.0,0.0,0.0,0.0,0.0,0.125,1.8164060640000002,0.0,0.0,-62613.0,0.0,0.0,-0.0,0.0,0.0,2.647704807,0.0,0.0,41896.0,0.0,0.0,0.0,0.0,0.0,4.072265208,0.0,0.0,-55910.0,0.0,0.0,-0.0,0.0,0.0,2.5402829430000002,0.0,-0.0012207029999999897,1.3300000429153442,0.36000001430511475,-154.41000366210938,0.00653076171875,0.022216796875,0.995849609375,35.189998626708984,0.0,0.0,0.60528564453125,1.9025726318359375,Waiting,0.0,0.0,36.0,0.0,0.0,0.0,0.0,0.0,
2.3040659999999917,0.0,0.0,false,6569488.938743861,,54122.0,0.0,0.0,0.0,0.0,0.125,1.8164060640000002,0.0,0.0,-62613.0,0.0,0.0,-0.0,0.0,0.0,2.647704807,0.0,0.0,41896.0,0.0,0.0,0.0,0.0,0.0,4.072265208,0.0,0.0,-55910.0,0.0,0.0,-0.0,0.0,0.0,2.5402829430000002,0.0,0.0012207029999999897,1.3300000429153442,0.3700000047683716,-154.41000366210938,0.00579833984375,0.024658203125,0.9969482421875,35.189998626708984,0.0,0.0,0.60528564453125,1.9025726318359375,Waiting,0.0,0.0,36.0,0.0,0.0,0.0,0.0,0.0,
2.3506139999999434,0.0,0.0,false,6569462.729986431,,54122.0,0.0,0.0,0.0,0.0,0.125,1.8176267670000001,0.0,0.0,-62613.0,0.0,0.0,-0.0,0.0,0.0,2.6464841040000002,0.0,0.0,41896.0,0.0,0.0,0.0,0.0,0.0,4.073485911000001,0.0,0.0,-55910.0,0.0,0.0,-0.0,0.0,0.0,2.5402829430000002,0.0,0.0,1.3300000429153442,0.3700000047683716,-154.41000366210938,0.00616455078125,0.0228271484375,0.999267578125,35.189998626708984,0.0,0.0,0.60528564453125,1.9025726318359375,Waiting,0.0,0.0,36.0,0.0,0.0,0.0,0.0,0.0,
2.398902000000002,0.0,0.0,false,6569430.626179093,,54122.0,0.0,0.0,0.0,0.0,0.125,1.8164060640000002,0.0,0.0,-62613.0,0.0,0.0,-0.0,0.0,0.0,2.647704807,0.0,0.0,41896.0,0.0,0.0,0.0,0.0,0.0,4.073485911000001,0.0,0.0,-55910.0,0.0,0.0,-0.0,0.0,0.0,2.5390622400000002,0.0,0.0,1.3300000429153442,0.36000001430511475,-154.41000366210938,0.0042724609375,0.02093505859375,1.004150390625,35.189998626708984,0.0,2.0,0.60528564453125,1.9025726318359375,Waiting,0.0,0.0,36.0,0.0,0.0,0.0,0.0,0.0,
2.4683329999999843,0.0,0.0,false,6569600.211899994,,54122.0,0.0,0.0,0.0,0.0,0.125,1.8164060640000002,0.0,0.0,-62613.0,0.0,0.0,-0.0,0.0,0.0,2.6464841040000002,0.0,0.0,41896.0,0.0,0.0,0.0,0.0,0.0,4.072265208,0.0,0.0,-55910.0,0.0,0.0,-0.0,0.0,0.0,2.5402829430000002,0.0,0.0,1.3300000429153442,0.36000001430511475,-154.41000366210938,0.005126953125,0.02117919921875,0.9990234375,35.189998626708984,0.0,2.0,0.60528564453125,1.9025726318359375,Waiting,0.0,0.0,36.0,0.0,0.0,0.0,0.0,0.0,
2.5126659999999683,0.0,0.0,false,6569766.240310078,,54122.0,0.0,0.0,0.0,0.0,0.125,1.8164060640000002,0.0,0.0,-62613.0,0.0,0.0,-0.0,0.0,0.0,2.647704807,0.0,0.0,41896.0,0.0,0.0,0.0,0.0,0.0,4.073485911000001,0.0,0.0,-55910.0,0.0,0.0,-0.0,0.0,0.0,2.5390622400000002,0.0,-0.0012207029999999897,1.3300000429153442,0.36000001430511475,-154.41000366210938,0.004638671875,0.02490234375,1.00274658203125,35.189998626708984,0.0,0.0,0.60528564453125,1.9025726318359375,Waiting,0.0,0.0,36.0,0.0,0.0,0.0,0.0,0.0,
2.5679309999999824,0.0,0.0,false,6569928.844389897,,54122.0,0.0,0.0,0.0,0.0,0.125,1.8164060640000002,0.0,0.0,-62613.0,0.0,0.0,-0.0,0.0,0.0,2.6464841040000002,0.0,0.0,41896.0,0.0,0.0,0.0,0.0,0.0,4.073485911000001,0.0,0.0,-55910.0,0.0,0.0,-0.0,0.0,0.0,2.5402829430000002,0.0,0.0012207029999999897,1.3300000429153442,0.36000001430511475,-154.41000366210938,0.0054931640625,0.02301025390625,1.001708984375,35.189998626708984,0.0,0.0,0.60528564453125,1.9025726318359375,Waiting,0.0,0.0,36.0,0.0,0.0,0.0,0.0,0.0,
2.6122649999998977,0.0,0.0,false,6570084.622141842,,54122.0,0.0,0.0,0.0,0.0,0.125,1.8164060640000002,0.0,0.0,-62613.0,0.0,0.0,-0.0,0.0,0.0,2.647704807,0.0,0.0,41896.0,0.0,0.0,0.0,0.0,0.0,4.072265208,0.0,0.0,-55910.0,0.0,0.0,-0.0,0.0,0.0,2.5415036460000002,0.0,-0.0012207029999999897,1.3300000429153442,0.36000001430511475,-154.41000366210938,0.00689697265625,0.02337646484375,1.00140380859375,35.209999084472656,0.0,0.0,0.60528564453125,1.9025726318359375,Waiting,0.0,0.0,36.0,0.0,0.0,0.0,0.0,0.0,
2.6598159999999917,0.0,0.0,false,6570236.977329975,,54122.0,0.0,0.0,0.0,0.0,0.125,1.8164060640000002,0.0,0.0,-62613.0,0.0,0.0,-0.0,0.0,0.0,2.647704807,0.0,0.0,41896.0,0.0,0.0,0.0,0.0,0.0,4.072265208,0.0,0.0,-55910.0,0.0,0.0,-0.0,0.0,0.0,2.5402829430000002,0.0,0.0012207029999999897,1.3300000429153442,0.36000001430511475,-154.41000366210938,0.0089111328125,0.0247802734375,0.9969482421875,35.209999084472656,0.0,-3.0,0.60528564453125,1.9025726318359375,Waiting,0.0,0.0,36.0,0.0,0.0,0.0,0.0,0.0,
2.7117469999999737,0.0,0.0,false,6570385.910617411,,54122.0,0.0,0.0,0.0,0.0,0.125,1.8164060640000002,0.0,0.0,-62613.0,0.0,0.0,-0.0,0.0,0.0,2.647704807,0.0,0.0,41896.0,0.0,0.0,0.0,0.0,0.0,4.072265208,0.0,0.0,-55910.0,0.0,0.0,-0.0,0.0,0.0,2.5402829430000002,0.0,0.0,1.3300000429153442,0.36000001430511475,-154.41000366210938,0.0076904296875,0.02392578125,0.99774169921875,35.209999084472656,0.0,-1.0,0.60528564453125,1.9025726318359375,Waiting,0.0,0.0,36.0,0.0,0.0,0.0,0.0,0.0,
2.7535239999999757,0.0,0.0,false,6570528.020665159,,54122.0,0.0,0.0,0.0,0.0,0.125,1.8164060640000002,0.0,0.0,-62613.0,0.0,0.0,-0.0,0.0,0.0,2.647704807,0.0,0.0,41896.0,0.0,0.0,0.0,0.0,0.0,4.072265208,0.0,0.0,-55910.0,0.0,0.0,-0.0,0.0,0.0,2.5402829430000002,0.0,0.0,1.3300000429153442,0.36000001430511475,-154.41000366210938,0.00762939453125,0.02032470703125,1.00115966796875,35.209999084472656,0.0,0.0,0.60528564453125,1.9025726318359375,Waiting,0.0,0.0,36.0,0.0,0.0,0.0,0.0,0.0,
2.809012999999919,0.0,0.0,false,6570665.837014077,,54122.0,0.0,0.0,0.0,0.0,0.125,1.8164060640000002,0.0,0.0,-62613.0,0.0,0.0,-0.0,0.0,0.0,2.647704807,0.0,0.0,41896.0,0.0,0.0,0.0,0.0,0.0,4.072265208,0.0,0.0,-55910.0,0.0,0.0,-0.0,0.0,0.0,2.5402829430000002,0.0,-0.0012207029999999897,1.3300000429153442,0.36000001430511475,-154.41000366210938,0.00457763671875,0.02569580078125,0.9991455078125,35.209999084472656,0.0,0.0,0.60528564453125,1.9025726318359375,Waiting,0.0,0.0,36.0,0.0,0.0,0.0,0.0,0.0,
2.852444999999949,0.0,0.0,false,6570800.234002712,,54122.0,0.0,0.0,0.0,0.0,0.125,1.8164060640000002,0.0,0.0,-62613.0,0.0,0.0,-0.0,0.0,0.0,2.647704807,0.0,0.0,41896.0,0.0,0.0,0.0,0.0,0.0,4.072265208,0.0,0.0,-55910.0,0.0,0.0,-0.0,0.0,0.0,2.5402829430000002,0.0,0.0012207029999999897,1.3300000429153442,0.36000001430511475,-154.41000366210938,0.00604248046875,0.0228271484375,0.998046875,35.209999084472656,0.0,0.0,0.60528564453125,1.9025726318359375,Waiting,0.0,0.0,36.0,0.0,0.0,0.0,0.0,0.0,
2.9026809999999825,0.0,0.0,false,6570927.810950413,,54122.0,0.0,0.0,0.0,0.0,0.125,1.8164060640000002,0.0,0.0,-62613.0,0.0,0.0,-0.0,0.0,0.0,2.647704807,0.0,0.0,41896.0,0.0,0.0,0.0,0.0,0.0,4.072265208,0.0,0.0,-55910.0,0.0,0.0,-0.0,0.0,0.0,2.5402829430000002,0.0,0.0,1.3300000429153442,0.36000001430511475,-154.41000366210938,0.00592041015625,0.0205078125,0.9984130859375,35.209999084472656,0.0,1.0,0.60528564453125,1.9025726318359375,Waiting,0.0,0.0,36.0,0.0,0.0,0.0,0.0,0.0,
2.950042999999947,0.0,0.0,false,6571051.970301504,,54122.0,0.0,0.0,0.0,0.0,0.125,1.8164060640000002,0.0,0.0,-62613.0,0.0,0.0,-0.0,0.0,0.0,2.647704807,0.0,0.0,41896.0,0.0,0.0,0.0,0.0,0.0,4.073485911000001,0.0,0.0,-55910.0,0.0,0.0,-0.0,0.0,0.0,2.5402829430000002,0.0,0.0,1.3300000429153442,0.36000001430511475,-154.41000366210938,0.00555419921875,0.0224609375,0.99725341796875,35.209999084472656,0.0,1.0,0.60528564453125,1.9025726318359375,Waiting,0.0,0.0,36.0,0.0,0.0,0.0,0.0,0.0,
2.9956819999999134,0.0,0.0,false,6571172.712717882,,54122.0,0.0,0.0,0.0,0.0,0.125,1.8164060640000002,0.0,0.0,-62613.0,0.0,0.0,-0.0,0.0,0.0,2.647704807,0.0,0.0,41896.0,0.0,0.0,0.0,0.0,0.0,4.073485911000001,0.0,0.0,-55910.0,0.0,0.0,-0.0,0.0,0.0,2.5415036460000002,0.0,0.0,1.3300000429153442,0.36000001430511475,-154.41000366210938,0.00274658203125,0.0216064453125,0.99713134765625,35.209999084472656,0.0,3.0,0.60528564453125,1.9025726318359375,Waiting,0.0,0.0,36.0,0.0,0.0,0.0,0.0,0.0,
3.0470779999999795,0.0,0.0,false,6571286.638177006,,54122.0,0.0,0.0,0.0,0.0,0.125,1.8164060640000002,0.0,0.0,-62613.0,0.0,0.0,-0.0,0.0,0.0,2.647704807,0.0,0.0,41896.0,0.0,0.0,0.0,0.0,0.0,4.072265208,0.0,0.0,-55910.0,0.0,0.0,-0.0,0.0,0.0,2.5402829430000002,0.0,-0.0012207029999999897,1.3300000429153442,0.36000001430511475,-154.41000366210938,0.0067138671875,0.02117919921875,0.99627685546875,35.209999084472656,0.0,0.0,0.60528564453125,1.9025726318359375,Waiting,0.0,0.0,36.0,0.0,0.0,0.0,0.0,0.0,
3.0960789999999108,0.0,0.0,false,6571396.275238833,,54122.0,0.0,0.0,0.0,0.0,0.125,1.8164060640000002,0.0,0.0,-62613.0,0.0,0.0,-0.0,0.0,0.0,2.647704807,0.0,0.0,41896.0,0.0,0.0,0.0,0.0,0.0,4.073485911000001,0.0,0.0,-55910.0,0.0,0.0,-0.0,0.0,0.0,2.5402829430000002,0.0,0.0012207029999999897,1.3200000524520874,0.36000001430511475,-154.41000366210938,0.006591796875,0.02392578125,0.9947509765625,35.20000076293945,0.0,0.0,0.60528564453125,1.9025726318359375,Waiting,0.0,0.0,36.0,0.0,0.0,0.0,0.0,0.0,
3.14728199999989,0.0,0.0,false,6571502.497902279,,54122.0,0.0,0.0,0.0,0.0,0.125,1.8164060640000002,0.0,0.0,-62613.0,0.0,0.0,-0.0,0.0,0.0,2.647704807,0.0,0.0,41896.0,0.0,0.0,0.0,0.0,0.0,4.073485911000001,0.0,0.0,-55910.0,0.0,0.0,-0.0,0.0,0.0,2.5402829430000002,0.0,0.0,1.3200000524520874,0.36000001430511475,-154.41000366210938,0.0081787109375,0.023193359375,0.9970703125,35.20000076293945,0.0,-1.0,0.60528564453125,1.9025726318359375,Waiting,0.0,0.0,36.0,0.0,0.0,0.0,0.0,0.0,
3.1982309999999123,0.0,0.0,false,6571601.906802633,,54122.0,0.0,0.0,0.0,0.0,0.125,1.8164060640000002,0.0,0.0,-62613.0,0.0,0.0,-0.0,0.0,0.0,2.647704807,0.0,0.0,41896.0,0.0,0.0,0.0,0.0,0.0,4.073485911000001,0.0,0.0,-55910.0,0.0,0.0,-0.0,0.0,0.0,2.5402829430000002,0.0,0.0,1.3200000524520874,0.36000001430511475,-154.41000366210938,0.0096435546875,0.0235595703125,0.9976806640625,35.20000076293945,0.0,-3.0,0.60528564453125,1.9025726318359375,Waiting,0.0,0.0,36.0,0.0,0.0,0.0,0.0,0.0,
3.248975999999908,0.0,0.0,false,6571697.903065505,,54122.0,0.0,0.0,0.0,0.0,0.125,1.8176267670000001,0.0,0.0,-62613.0,0.0,0.0,-0.0,0.0,0.0,2.647704807,0.0,0.0,41896.0,0.0,0.0,0.0,0.0,0.0,4.073485911000001,0.0,0.0,-55910.0,0.0,0.0,-0.0,0.0,0.0,2.5402829430000002,0.0,0.0,1.3200000524520874,0.36000001430511475,-154.41000366210938,0.0069580078125,0.02264404296875,1.00091552734375,35.20000076293945,0.0,0.0,0.60528564453125,1.9025726318359375,Waiting,0.0,0.0,36.0,0.0,0.0,0.0,0.0,0.0,
3.2955270000000016,0.0,0.0,false,6571787.087764584,,54122.0,0.0,0.0,0.0,0.0,0.125,1.8164060640000002,0.0,0.0,-62613.0,0.0,0.0,-0.0,0.0,0.0,2.647704807,0.0,0.0,41896.0,0.0,0.0,0.0,0.0,0.0,4.073485911000001,0.0,0.0,-55910.0,0.0,0.0,-0.0,0.0,0.0,2.5402829430000002,0.0,0.0,1.3200000524520874,0.36000001430511475,-154.41000366210938,0.0069580078125,0.02239990234375,0.9974365234375,35.20000076293945,0.0,0.0,0.60528564453125,1.9025726318359375,Waiting,0.0,0.0,36.0,0.0,0.0,0.0,0.0,0.0,
3.346883999999962,0.0,0.0,false,6571872.861586113,,54122.0,0.0,0.0,0.0,0.0,0.125,1.8164060640000002,0.0,0.0,-62613.0,0.0,0.0,-0.0,0.0,0.0,2.647704807,0.0,0.0,41896.0,0.0,0.0,0.0,0.0,0.0,4.073485911000001,0.0,0.0,-55910.0,0.0,0.0,-0.0,0.0,0.0,2.5415036460000002,0.0,-0.0012207029999999897,1.3200000524520874,0.36000001430511475,-154.41000366210938,0.00543212890625,0.0216064453125,1.00262451171875,35.20000076293945,0.0,1.0,0.60528564453125,1.9025726318359375,Waiting,0.0,0.0,36.0,0.0,0.0,0.0,0.0,0.0,
3.393454999999958,0.0,0.0,false,6571950.953155246,,54122.0,0.0,0.0,0.0,0.0,0.125,1.8164060640000002,0.0,0.0,-62613.0,0.0,0.0,-0.0,0.0,0.0,2.6464841040000002,0.0,0.0,41896.0,0.0,0.0,0.0,0.0,0.0,4.073485911000001,0.0,0.0,-55910.0,0.0,0.0,-0.0,0.0,0.0,2.5402829430000002,0.0,0.0012207029999999897,1.3200000524520874,0.36000001430511475,-154.41000366210938,0.0048828125,0.02099609375,0.9981689453125,35.20000076293945,0.0,2.0,0.60528564453125,1.9025726318359375,Waiting,0.0,0.0,36.0,0.0,0.0,0.0,0.0,0.0,
3.4449959999999265,0.0,0.0,false,6572025.635718433,,54122.0,0.0,0.0,0.0,0.0,0.125,1.8164060640000002,0.0,0.0,-62613.0,0.0,0.0,-0.0,0.0,0.0,2.647704807,0.0,0.0,41896.0,0.0,0.0,0.0,0.0,0.0,4.073485911000001,0.0,0.0,-55910.0,0.0,0.0,-0.0,0.0,0.0,2.5402829430000002,0.0,-0.0012207029999999897,1.3200000524520874,0.36000001430511475,-154.41000366210938,0.00396728515625,0.0225830078125,0.99517822265625,35.20000076293945,0.0,1.0,0.60528564453125,1.9025726318359375,Waiting,0.0,0.0,36.0,0.0,0.0,0.0,0.0,0.0,
3.491509999999893,0.0,0.0,false,6572096.909935484,,54122.0,0.0,0.0,0.0,0.0,0.125,1.8164060640000002,0.0,0.0,-62613.0,0.0,0.0,-0.0,0.0,0.0,2.647704807,0.0,0.0,41896.0,0.0,0.0,0.0,0.0,0.0,4.072265208,0.0,0.0,-55910.0,0.0,0.0,-0.0,0.0,0.0,2.5402829430000002,0.0,0.0012207029999999897,1.3200000524520874,0.36000001430511475,-154.41000366210938,0.0087890625,0.0218505859375,0.99969482421875,35.20000076293945,0.0,-1.0,0.60528564453125,1.9025726318359375,Waiting,0.0,0.0,36.0,0.0,0.0,0.0,0.0,0.0,
3.5421059999999125,0.0,0.0,false,6572161.377975615,,54122.0,0.0,0.0,0.0,0.0,0.125,1.8164060640000002,0.0,0.0,-62613.0,0.0,0.0,-0.0,0.0,0.0,2.647704807,0.0,0.0,41896.0,0.0,0.0,0.0,0.0,0.0,4.072265208,0.0,0.0,-55910.0,0.0,0.0,-0.0,0.0,0.0,2.5402829430000002,0.0,0.0,1.3200000524520874,0.3499999940395355,-154.41000366210938,0.00604248046875,0.02215576171875,0.9940185546875,35.20000076293945,0.0,0.0,0.60528564453125,1.9025726318359375,Waiting,0.0,0.0,36.0,0.0,0.0,0.0,0.0,0.0,
3.5896539999999804,0.0,0.0,false,6572222.439427171,,54122.0,0.0,0.0,0.0,0.0,0.125,1.8164060640000002,0.0,0.0,-62613.0,0.0,0.0,-0.0,0.0,0.0,2.647704807,0.0,0.0,41896.0,0.0,0.0,0.0,0.0,0.0,4.072265208,0.0,0.0,-55910.0,0.0,0.0,-0.0,0.0,0.0,2.5402829430000002,0.0,0.0,1.3200000524520874,0.36000001430511475,-154.41000366210938,0.0079345703125,0.0238037109375,1.000732421875,35.20000076293945,0.0,-1.0,0.60528564453125,1.9025726318359375,Waiting,0.0,0.0,36.0,0.0,0.0,0.0,0.0,0.0,
3.6451729999999514,0.0,0.0,false,6572280.094949365,,54122.0,0.0,0.0,0.0,0.0,0.125,1.8164060640000002,0.0,0.0,-62613.0,0.0,0.0,-0.0,0.0,0.0,2.6464841040000002,0.0,0.0,41896.0,0.0,0.0,0.0,0.0,0.0,4.073485911000001,0.0,0.0,-55910.0,0.0,0.0,-0.0,0.0,0.0,2.5402829430000002,0.0,-0.0012207029999999897,1.3200000524520874,0.36000001430511475,-154.41000366210938,0.0068359375,0.0234375,0.9976806640625,35.220001220703125,0.0,0.0,0.60528564453125,1.9025726318359375,Waiting,0.0,0.0,36.0,0.0,0.0,0.0,0.0,0.0,
3.689079999999958,0.0,0.0,false,6572330.947368421,,54122.0,0.0,0.0,0.0,0.0,0.125,1.8164060640000002,0.0,0.0,-62613.0,0.0,0.0,-0.0,0.0,0.0,2.6464841040000002,0.0,0.0,41896.0,0.0,0.0,0.0,0.0,0.0,4.073485911000001,0.0,0.0,-55910.0,0.0,0.0,-0.0,0.0,0.0,2.5402829430000002,0.0,0.0012207029999999897,1.3200000524520874,0.36000001430511475,-154.41000366210938,0.00372314453125,0.02545166015625,1.001953125,35.220001220703125,0.0,1.0,0.60528564453125,1.9025726318359375,Waiting,0.0,0.0,36.0,0.0,0.0,0.0,0.0,0.0,
3.741277999999933,0.0,0.0,false,6572377.523121574,,54122.0,0.0,0.0,0.0,0.0,0.125,1.8176267670000001,0.0,0.0,-62613.0,0.0,0.0,-0.0,0.0,0.0,2.647704807,0.0,0.0,41896.0,0.0,0.0,0.0,0.0,0.0,4.072265208,0.0,0.0,-55910.0,0.0,0.0,-0.0,0.0,0.0,2.5402829430000002,0.0,0.0,1.3200000524520874,0.36000001430511475,-154.41000366210938,0.00750732421875,0.02117919921875,0.9991455078125,35.220001220703125,0.0,0.0,0.60528564453125,1.9025726318359375,Waiting,0.0,0.0,36.0,0.0,0.0,0.0,0.0,0.0,
3.7888679999999004,0.0,0.0,false,6572420.69547272,,54122.0,0.0,0.0,0.0,0.0,0.125,1.8176267670000001,0.0,0.0,-62613.0,0.0,0.0,-0.0,0.0,0.0,2.647704807,0.0,0.0,41896.0,0.0,0.0,0.0,0.0,0.0,4.072265208,0.0,0.0,-55910.0,0.0,0.0,-0.0,0.0,0.0,2.5402829430000002,0.0,0.0,1.3200000524520874,0.36000001430511475,-154.41000366210938,0.00823974609375,0.02154541015625,0.99688720703125,35.220001220703125,0.0,-1.0,0.60528564453125,1.9025726318359375,Waiting,0.0,0.0,36.0,0.0,0.0,0.0,0.0,0.0,
3.8402759999999545,0.0,0.0,false,6572457.067904817,,54122.0,0.0,0.0,0.0,0.0,0.125,1.8164060640000002,0.0,0.0,-62613.0,0.0,0.0,-0.0,0.0,0.0,2.647704807,0.0,0.0,41896.0,0.0,0.0,0.0,0.0,0.0,4.071044505000001,0.0,0.0,-55910.0,0.0,0.0,-0.0,0.0,0.0,2.5402829430000002,0.0,0.0,1.309999942779541,0.36000001430511475,-154.41000366210938,0.00604248046875,0.02044677734375,0.99359130859375,35.220001220703125,0.0,1.0,0.60528564453125,1.9025726318359375,Waiting,0.0,0.0,36.0,0.0,0.0,0.0,0.0,0.0,
3.8879899999999905,0.0,0.0,false,6572490.038689708,,54122.0,0.0,0.0,0.0,0.0,0.125,1.8164060640000002,0.0,0.0,-62613.0,0.0,0.0,-0.0,0.0,0.0,2.647704807,0.0,0.0,41896.0,0.0,0.0,0.0,0.0,0.0,4.073485911000001,0.0,0.0,-55910.0,0.0,0.0,-0.0,0.0,0.0,2.5402829430000002,0.0,0.0,1.309999942779541,0.3700000047683716,-154.41000366210938,0.007080078125,0.02349853515625,0.99493408203125,35.220001220703125,0.0,0.0,0.60528564453125,1.9025726318359375,Waiting,0.0,0.0,36.0,0.0,0.0,0.0,0.0,0.0,
3.9320239999999758,0.0,0.0,false,6572519.608485396,,54122.0,0.0,0.0,0.0,0.0,0.125,1.8164060640000002,0.0,0.0,-62613.0,0.0,0.0,-0.0,0.0,0.0,2.647704807,0.0,0.0,41896.0,0.0,0.0,0.0,0.0,0.0,4.072265208,0.0,0.0,-55910.0,0.0,0.0,-0.0,0.0,0.0,2.5402829430000002,0.0,0.0,1.309999942779541,0.3700000047683716,-154.41000366210938,0.007568359375,0.02325439453125,0.9967041015625,35.220001220703125,0.0,-1.0,0.60528564453125,1.9025726318359375,Waiting,0.0,0.0,36.0,0.0,0.0,0.0,0.0,0.0,
3.9816129999998955,0.0,0.0,false,6572542.381431335,,54122.0,0.0,0.0,0.0,0.0,0.125,1.8164060640000002,0.0,0.0,-62613.0,0.0,0.0,-0.0,0.0,0.0,2.6464841040000002,0.0,0.0,41896.0,0.0,0.0,0.0,0.0,0.0,4.072265208,0.0,0.0,-55910.0,0.0,0.0,-0.0,0.0,0.0,2.5402829430000002,0.0,0.0,1.309999942779541,0.3700000047683716,-154.41000366210938,0.0072021484375,0.02398681640625,0.99871826171875,35.220001220703125,0.0,-1.0,0.60528564453125,1.9025726318359375,Waiting,0.0,0.0,36.0,0.0,0.0,0.0,0.0,0.0,
4.029837999999989,0.0,0.0,false,6572560.882986268,,54122.0,0.0,0.0,0.0,0.0,0.125,1.8164060640000002,0.0,0.0,-62613.0,0.0,0.0,-0.0,0.0,0.0,2.6464841040000002,0.0,0.0,41896.0,0.0,0.0,0.0,0.0,0.0,4.072265208,0.0,0.0,-55910.0,0.0,0.0,-0.0,0.0,0.0,2.5402829430000002,0.0,0.0,1.309999942779541,0.3700000047683716,-154.41000366210938,0.0086669921875,0.01983642578125,0.99847412109375,35.220001220703125,0.0,0.0,0.60528564453125,1.9025726318359375,Waiting,0.0,0.0,36.0,0.0,0.0,0.0,0.0,0.0,
4.074369999999996,0.0,0.0,false,6572575.986075297,,54122.0,0.0,0.0,0.0,0.0,0.125,1.8164060640000002,0.0,0.0,-62613.0,0.0,0.0,-0.0,0.0,0.0,2.647704807,0.0,0.0,41896.0,0.0,0.0,0.0,0.0,0.0,4.073485911000001,0.0,0.0,-55910.0,0.0,0.0,-0.0,0.0,0.0,2.5402829430000002,0.0,0.0,1.309999942779541,0.3700000047683716,-154.41000366210938,0.00494384765625,0.022705078125,1.00006103515625,35.220001220703125,0.0,1.0,0.60528564453125,1.9025726318359375,Waiting,0.0,0.0,36.0,0.0,0.0,0.0,0.0,0.0,
4.129362999999896,0.0,0.0,false,6572584.295494102,,54122.0,0.0,0.0,0.0,0.0,0.125,1.8164060640000002,0.0,0.0,-62613.0,0.0,0.0,-0.0,0.0,0.0,2.647704807,0.0,0.0,41896.0,0.0,0.0,0.0,0.0,0.0,4.072265208,0.0,0.0,-55910.0,0.0,0.0,-0.0,0.0,0.0,2.5402829430000002,0.0,-0.0012207029999999897,1.3200000524520874,0.3799999952316284,-154.41000366210938,0.00921630859375,0.0216064453125,0.99505615234375,35.22999954223633,0.0,-1.0,0.60528564453125,1.9025726318359375,Waiting,0.0,0.0,36.0,0.0,0.0,0.0,0.0,0.0,
4.176380999999936,0.0,0.0,false,6572589.208199046,,54122.0,0.0,0.0,0.0,0.0,0.125,1.8164060640000002,0.0,-0.0012207029999999897,-62613.0,0.0,0.0,-0.0,0.0,0.0,2.647704807,0.0,0.0,41896.0,0.0,0.0,0.0,0.0,0.0,4.072265208,0.0,0.0,-55910.0,0.0,0.0,-0.0,0.0,0.0,2.5402829430000002,0.0,0.0012207029999999897,1.3200000524520874,0.3799999952316284,-154.41000366210938,0.006591796875,0.0224609375,1.00213623046875,35.22999954223633,0.0,0.0,0.60528564453125,1.9025726318359375,Waiting,0.0,0.0,36.0,0.0,0.0,0.0,0.0,0.0,
4.226841999999946,0.0,0.0,false,6572590.724846923,,54122.0,0.0,0.0,0.0,0.0,0.125,1.8164060640000002,0.0,0.0012207029999999897,-62613.0,0.0,0.0,-0.0,0.0,0.0,2.647704807,0.0,0.0,41896.0,0.0,0.0,0.0,0.0,0.0,4.072265208,0.0,0.0,-55910.0,0.0,0.0,-0.0,0.0,0.0,2.5415036460000002,0.0,-0.0012207029999999897,1.3200000524520874,0.3799999952316284,-154.41000366210938,0.01007080078125,0.02099609375,0.99603271484375,35.22999954223633,0.0,-2.0,0.60528564453125,1.9025726318359375,Waiting,0.0,0.0,36.0,0.0,0.0,0.0,0.0,0.0,
4.282057999999961,0.0,0.0,false,6572585.450889405,,54122.0,0.0,0.0,0.0,0.0,0.125,1.8164060640000002,0.0,0.0,-62613.0,0.0,0.0,-0.0,0.0,0.0,2.6464841040000002,0.0,0.0,41896.0,0.0,0.0,0.0,0.0,0.0,4.073485911000001,0.0,0.0,-55910.0,0.0,0.0,-0.0,0.0,0.0,2.5402829430000002,0.0,0.0012207029999999897,1.3200000524520874,0.3799999952316284,-154.41000366210938,0.00445556640625,0.020751953125,0.99432373046875,35.22999954223633,0.0,2.0,0.60528564453125,1.9025726318359375,Waiting,0.0,0.0,36.0,0.0,0.0,0.0,0.0,0.0,
4.328644999999902,0.0,0.0,false,6572572.515821357,,54122.0,0.0,0.0,0.0,0.0,0.125,1.8164060640000002,0.0,0.0,-62613.0,0.0,0.0,-0.0,0.0,0.0,2.6464841040000002,0.0,0.0,41896.0,0.0,0.0,0.0,0.0,0.0,4.073485911000001,0.0,0.0,-55910.0,0.0,0.0,-0.0,0.0,0.0,2.5402829430000002,0.0,0.0,1.3200000524520874,0.3799999952316284,-154.41000366210938,0.00799560546875,0.02117919921875,1.0013427734375,35.22999954223633,0.0,0.0,0.60528564453125,1.9025726318359375,Waiting,0.0,0.0,36.0,0.0,0.0,0.0,0.0,0.0,
4.379143999999971,0.0,0.0,false,6572556.187653048,,54122.0,0.0,0.0,0.0,0.0,0.125,1.8164060640000002,0.0,0.0,-62613.0,0.0,0.0,-0.0,0.0,0.0,2.647704807,0.0,0.0,41896.0,0.0,0.0,0.0,0.0,0.0,4.072265208,0.0,0.0,-55910.0,0.0,0.0,-0.0,0.0,0.0,2.5402829430000002,0.0,0.0,1.3200000524520874,0.3799999952316284,-154.41000366210938,0.00909423828125,0.0233154296875,1.00042724609375,35.22999954223633,0.0,-2.0,0.60528564453125,1.9025726318359375,Waiting,0.0,0.0,36.0,0.0,0.0,0.0,0.0,0.0,
4.430582999999984,0.0,0.0,false,6572536.467040402,,54122.0,0.0,0.0,0.0,0.0,0.125,1.8164060640000002,0.0,0.0,-62613.0,0.0,0.0,-0.0,0.0,0.0,2.647704807,0.0,0.0,41896.0,0.0,0.0,0.0,0.0,0.0,4.072265208,0.0,0.0,-55910.0,0.0,0.0,-0.0,0.0,0.0,2.5402829430000002,0.0,0.0,1.3200000524520874,0.3799999952316284,-154.41000366210938,0.00787353515625,0.02276611328125,0.99884033203125,35.22999954223633,0.0,0.0,0.60528564453125,1.9025726318359375,Waiting,0.0,0.0,36.0,0.0,0.0,0.0,0.0,0.0,
4.478630999999936,0.0,0.0,false,6572509.960309278,,54122.0,0.0,0.0,0.0,0.0,0.125,1.8164060640000002,0.0,0.0,-62613.0,0.0,0.0,-0.0,0.0,0.0,2.647704807,0.0,0.0,41896.0,0.0,0.0,0.0,0.0,0.0,4.073485911000001,0.0,0.0,-55910.0,0.0,0.0,-0.0,0.0,0.0,2.5402829430000002,0.0,0.0,1.3200000524520874,0.3799999952316284,-154.41000366210938,0.00439453125,0.019287109375,0.9964599609375,35.22999954223633,0.0,3.0,0.60528564453125,1.9025726318359375,Waiting,0.0,0.0,36.0,0.0,0.0,0.0,0.0,0.0,
4.52992499999993,0.0,0.0,false,6572480.062882546,,54122.0,0.0,0.0,0.0,0.0,0.125,1.8164060640000002,0.0,0.0,-62613.0,0.0,0.0,-0.0,0.0,0.0,2.6464841040000002,0.0,0.0,41896.0,0.0,0.0,0.0,0.0,0.0,4.072265208,0.0,0.0,-55910.0,0.0,0.0,-0.0,0.0,0.0,2.5390622400000002,0.0,-0.0012207029999999897,1.309999942779541,0.3799999952316284,-154.41000366210938,0.0052490234375,0.02288818359375,0.9949951171875,35.22999954223633,0.0,1.0,0.60528564453125,1.9025726318359375,Waiting,0.0,0.0,36.0,0.0,0.0,0.0,0.0,0.0,
4.578355999999912,0.0,0.0,false,6572446.775415539,,54122.0,0.0,0.0,0.0,0.0,0.125,1.8164060640000002,0.0,0.0,-62613.0,0.0,0.0,-0.0,0.0,0.0,2.647704807,0.0,0.0,41896.0,0.0,0.0,0.0,0.0,0.0,4.072265208,0.0,0.0,-55910.0,0.0,0.0,-0.0,0.0,0.0,2.5402829430000002,0.0,0.0012207029999999897,1.3200000524520874,0.3799999952316284,-154.41000366210938,0.00653076171875,0.02093505859375,1.00335693359375,35.22999954223633,0.0,1.0,0.60528564453125,1.9025726318359375,Waiting,0.0,0.0,36.0,0.0,0.0,0.0,0.0,0.0,
4.633716999999946,0.0,0.0,false,6572616.679250145,,54122.0,0.0,0.0,0.0,0.0,0.125,1.8164060640000002,0.0,0.0,-62613.0,0.0,0.0,-0.0,0.0,0.0,2.647704807,0.0,0.0,41896.0,0.0,0.0,0.0,0.0,0.0,4.072265208,0.0,0.0,-55910.0,0.0,0.0,-0.0,0.0,0.0,2.5402829430000002,0.0,0.0,1.309999942779541,0.3700000047683716,-154.41000366210938,0.0072021484375,0.02386474609375,0.99493408203125,35.220001220703125,0.0,-1.0,0.60528564453125,1.9025726318359375,Waiting,0.0,0.0,36.0,0.0,0.0,0.0,0.0,0.0,
4.686844999999972,0.0,0.0,false,6572781.889719144,,54122.0,0.0,0.0,0.0,0.0,0.125,1.8164060640000002,0.0,0.0,-62613.0,0.0,0.0,-0.0,0.0,0.0,2.647704807,0.0,0.0,41896.0,0.0,0.0,0.0,0.0,0.0,4.072265208,0.0,0.0,-55910.0,0.0,0.0,-0.0,0.0,0.0,2.5402829430000002,0.0,0.0,1.309999942779541,0.3700000047683716,-154.41000366210938,0.008056640625,0.0233154296875,0.99432373046875,35.220001220703125,0.0,-1.0,0.60528564453125,1.9025726318359375,Waiting,0.0,0.0,36.0,0.0,0.0,0.0,0.0,0.0,
4.731470999999903,0.0,0.0,false,6572943.424412238,,54122.0,0.0,0.0,0.0,0.0,0.125,1.8164060640000002,0.0,0.0,-62613.0,0.0,0.0,-0.0,0.0,0.0,2.647704807,0.0,0.0,41896.0,0.0,0.0,0.0,0.0,0.0,4.073485911000001,0.0,0.0,-55910.0,0.0,0.0,-0.0,0.0,0.0,2.5402829430000002,0.0,0.0,1.309999942779541,0.36000001430511475,-154.41000366210938,0.00238037109375,0.0234375,1.0015869140625,35.220001220703125,0.0,3.0,0.60528564453125,1.9025726318359375,Waiting,0.0,0.0,36.0,0.0,0.0,0.0,0.0,0.0,
4.783435999999987,0.0,0.0,false,6573101.284039675,,54122.0,0.0,0.0,0.0,0.0,0.125,1.8164060640000002,0.0,0.0,-62613.0,0.0,0.0,-0.0,0.0,0.0,2.647704807,0.0,0.0,41896.0,0.0,0.0,0.0,0.0,0.0,4.072265208,0.0,0.0,-55910.0,0.0,0.0,-0.0,0.0,0.0,2.5402829430000002,0.0,0.0,1.309999942779541,0.36000001430511475,-154.41000366210938,0.00640869140625,0.02325439453125,0.99658203125,35.220001220703125,0.0,0.0,0.60528564453125,1.9025726318359375,Waiting,0.0,0.0,36.0,0.0,0.0,0.0,0.0,0.0,
4.833255999999936,0.0,0.0,false,6573251.8152894955,,54122.0,0.0,0.0,0.0,0.0,0.125,1.8164060640000002,0.0,0.0,-62613.0,0.0,0.0,-0.0,0.0,0.0,2.647704807,0.0,0.0,41896.0,0.0,0.0,0.0,0.0,0.0,4.072265208,0.0,0.0,-55910.0,0.0,0.0,-0.0,0.0,0.0,2.5402829430000002,0.0,0.0,1.309999942779541,0.36000001430511475,-154.41000366210938,0.0054931640625,0.02001953125,0.99432373046875,35.220001220703125,0.0,2.0,0.60528564453125,1.9025726318359375,Waiting,0.0,0.0,36.0,0.0,0.0,0.0,0.0,0.0,
4.885400999999955,0.0,0.0,false,6573398.052550232,,54122.0,0.0,0.0,0.0,0.0,0.125,1.8164060640000002,0.0,0.0,-62613.0,0.0,0.0,-0.0,0.0,0.0,2.647704807,0.0,0.0,41896.0,0.0,0.0,0.0,0.0,0.0,4.072265208,0.0,0.0,-55910.0,0.0,0.0,-0.0,0.0,0.0,2.5415036460000002,0.0,-0.0012207029999999897,1.309999942779541,0.36000001430511475,-154.41000366210938,0.0057373046875,0.0228271484375,0.99945068359375,35.220001220703125,0.0,0.0,0.60528564453125,1.9025726318359375,Waiting,0.0,0.0,36.0,0.0,0.0,0.0,0.0,0.0,
4.936661999999894,0.0,0.0,false,6573540.617425462,,54122.0,0.0,0.0,0.0,0.0,0.125,1.8164060640000002,0.0,0.0012207029999999897,-62613.0,0.0,0.0,-0.0,0.0,0.0,2.647704807,0.0,0.0,41896.0,0.0,0.0,0.0,0.0,0.0,4.072265208,0.0,0.0,-55910.0,0.0,0.0,-0.0,0.0,0.0,2.5402829430000002,0.0,0.0012207029999999897,1.309999942779541,0.36000001430511475,-154.41000366210938,0.005615234375,0.0220947265625,0.9959716796875,35.220001220703125,0.0,1.0,0.60528564453125,1.9025726318359375,Waiting,0.0,0.0,36.0,0.0,0.0,0.0,0.0,0.0,
4.9854659999998985,0.0,0.0,false,6573679.510624598,,54122.0,0.0,0.0,0.0,0.0,0.125,1.8164060640000002,0.0,0.0012207029999999897,-62613.0,0.0,0.0,-0.0,0.0,0.0,2.6464841040000002,0.0,0.0,41896.0,0.0,0.0,0.0,0.0,0.0,4.073485911000001,0.0,0.0,-55910.0,0.0,0.0,-0.0,0.0,0.0,2.5402829430000002,0.0,0.0,1.309999942779541,0.36000001430511475,-154.41000366210938,0.00567626953125,0.0225830078125,0.99755859375,35.220001220703125,0.0,0.0,0.60528564453125,1.9025726318359375,Waiting,0.0,0.0,36.0,0.0,0.0,0.0,0.0,0.0,
5.03125299999991,0.0,0.0,false,6573811.079775932,,54122.0,0.0,0.0,0.0,0.0,0.125,1.8164060640000002,0.0,0.0,-62613.0,0.0,0.0,-0.0,0.0,0.0,2.647704807,0.0,0.0,41896.0,0.0,0.0,0.0,0.0,0.0,4.073485911000001,0.0,0.0,-55910.0,0.0,0.0,-0.0,0.0,0.0,2.5390622400000002,0.0,0.0,1.309999942779541,0.36000001430511475,-154.41000366210938,0.00848388671875,0.02117919921875,0.993896484375,35.220001220703125,0.0,-1.0,0.60528564453125,1.9025726318359375,Waiting,0.0,0.0,36.0,0.0,0.0,0.0,0.0,0.0,
5.085271999999997,0.0,0.0,false,6573938.358485707,,54122.0,0.0,0.0,0.0,0.0,0.125,1.8164060640000002,0.0,0.0,-62613.0,0.0,0.0,-0.0,0.0,0.0,2.647704807,0.0,0.0,41896.0,0.0,0.0,0.0,0.0,0.0,4.072265208,0.0,0.0,-55910.0,0.0,0.0,-0.0,0.0,0.0,2.5402829430000002,0.0,-0.0012207029999999897,1.309999942779541,0.36000001430511475,-154.4199981689453,0.00701904296875,0.02020263671875,0.99945068359375,35.220001220703125,0.0,0.0,0.60528564453125,1.9025726318359375,Waiting,0.0,0.0,36.0,0.0,0.0,0.0,0.0,0.0,
5.131382999999914,0.0,0.0,false,6574061.968196742,,54122.0,0.0,0.0,0.0,0.0,0.125,1.8164060640000002,0.0,0.0,-62613.0,0.0,0.0,-0.0,0.0,0.0,2.647704807,0.0,0.0,41896.0,0.0,0.0,0.0,0.0,0.0,4.074706614,0.0,0.0,-55910.0,0.0,0.0,-0.0,0.0,0.0,2.5402829430000002,0.0,0.0012207029999999897,1.309999942779541,0.36000001430511475,-154.4199981689453,0.00482177734375,0.025146484375,1.0047607421875,35.220001220703125,0.0,0.0,0.60528564453125,1.9025726318359375,Waiting,0.0,0.0,36.0,0.0,0.0,0.0,0.0,0.0,
5.176579999999958,0.0,0.0,false,6574181.909617613,,54122.0,0.0,0.0,0.0,0.0,0.125,1.8164060640000002,0.0,0.0,-62613.0,0.0,0.0,-0.0,0.0,0.0,2.647704807,0.0,0.0,41896.0,0.0,0.0,0.0,0.0,0.0,4.072265208,0.0,0.0,-55910.0,0.0,0.0,-0.0,0.0,0.0,2.5402829430000002,0.0,0.0,1.309999942779541,0.36000001430511475,-154.4199981689453,0.006591796875,0.02252197265625,0.996826171875,35.22999954223633,0.0,0.0,0.60528564453125,1.9025726318359375,Waiting,0.0,0.0,36.0,0.0,0.0,0.0,0.0,0.0,
5.231038999999989,0.0,0.0,false,6574294.531316383,,54122.0,0.0,0.0,0.0,0.0,0.125,1.8164060640000002,0.0,0.0,-62613.0,0.0,0.0,-0.0,0.0,0.0,2.647704807,0.0,0.0,41896.0,0.0,0.0,0.0,0.0,0.0,4.073485911000001,0.0,0.0,-55910.0,0.0,0.0,-0.0,0.0,0.0,2.5415036460000002,0.0,0.0,1.309999942779541,0.36000001430511475,-154.4199981689453,0.0057373046875,0.0235595703125,0.9967041015625,35.22999954223633,0.0,0.0,0.60528564453125,1.9025726318359375,Waiting,0.0,0.0,36.0,0.0,0.0,0.0,0.0,0.0,
5.281274999999907,0.0,0.0,false,6574403.486611741,,54122.0,0.0,0.0,0.0,0.0,0.125,1.8164060640000002,0.0,0.0,-62613.0,0.0,0.0,-0.0,0.0,0.0,2.647704807,0.0,0.0,41896.0,0.0,0.0,0.0,0.0,0.0,4.072265208,0.0,0.0,-55910.0,0.0,0.0,-0.0,0.0,0.0,2.5415036460000002,0.0,0.0,1.309999942779541,0.36000001430511475,-154.4199981689453,0.00665283203125,0.02288818359375,0.99786376953125,35.22999954223633,0.0,0.0,0.60528564453125,1.9025726318359375,Waiting,0.0,0.0,36.0,0.0,0.0,0.0,0.0,0.0,
5.330209999999963,0.0,0.0,false,6574508.155757225,,54122.0,0.0,0.0,0.0,0.0,0.125,1.8164060640000002,0.0,0.0,-62613.0,0.0,0.0,-0.0,0.0,0.0,2.647704807,0.0,0.0,41896.0,0.0,0.0,0.0,0.0,0.0,4.072265208,0.0,0.0,-55910.0,0.0,0.0,-0.0,0.0,0.0,2.5402829430000002,0.0,0.0,1.309999942779541,0.36000001430511475,-154.4199981689453,0.00775146484375,0.02459716796875,1.00115966796875,35.22999954223633,0.0,-1.0,0.60528564453125,1.9025726318359375,Waiting,0.0,0.0,36.0,0.0,0.0,0.0,0.0,0.0,
5.380158999999985,0.0,0.0,false,6574605.50855966,,54122.0,0.0,0.0,0.0,0.0,0.125,1.8164060640000002,0.0,0.0,-62613.0,0.0,0.0,-0.0,0.0,0.0,2.647704807,0.0,0.0,41896.0,0.0,0.0,0.0,0.0,0.0,4.073485911000001,0.0,0.0,-55910.0,0.0,0.0,-0.0,0.0,0.0,2.5390622400000002,0.0,0.0,1.309999942779541,0.36000001430511475,-154.4199981689453,0.00555419921875,0.02301025390625,0.99969482421875,35.22999954223633,0.0,0.0,0.60528564453125,1.9025726318359375,Waiting,0.0,0.0,36.0,0.0,0.0,0.0,0.0,0.0,
5.428209999999963,0.0,0.0,false,6574699.197631765,,54122.0,0.0,0.0,0.0,0.0,0.125,1.8164060640000002,0.0,0.0,-62613.0,0.0,0.0,-0.0,0.0,0.0,2.6464841040000002,0.0,0.0,41896.0,0.0,0.0,0.0,0.0,0.0,4.073485911000001,0.0,0.0,-55910.0,0.0,0.0,-0.0,0.0,0.0,2.5402829430000002,0.0,0.0,1.309999942779541,0.36000001430511475,-154.4199981689453,0.0067138671875,0.02362060546875,1.0,35.22999954223633,0.0,0.0,0.60528564453125,1.9025726318359375,Waiting,0.0,0.0,36.0,0.0,0.0,0.0,0.0,0.0,
5.480960999999894,0.0,0.0,false,6574789.223680824,,54122.0,0.0,0.0,0.0,0.0,0.125,1.8164060640000002,0.0,0.0,-62613.0,0.0,0.0,-0.0,0.0,0.0,2.647704807,0.0,0.0,41896.0,0.0,0.0,0.0,0.0,0.0,4.073485911000001,0.0,0.0,-55910.0,0.0,0.0,-0.0,0.0,0.0,2.5402829430000002,0.0,0.0,1.309999942779541,0.36000001430511475,-154.4199981689453,0.00714111328125,0.02349853515625,0.99957275390625,35.22999954223633,0.0,0.0,0.60528564453125,1.9025726318359375,Waiting,0.0,0.0,36.0,0.0,0.0,0.0,0.0,0.0,
5.530313999999897,0.0,0.0,false,6574874.967119233,,54122.0,0.0,0.0,0.0,0.0,0.125,1.8164060640000002,0.0,0.0,-62613.0,0.0,0.0,-0.0,0.0,0.0,2.647704807,0.0,0.0,41896.0,0.0,0.0,0.0,0.0,0.0,4.073485911000001,0.0,0.0,-55910.0,0.0,0.0,-0.0,0.0,0.0,2.5402829430000002,0.0,0.0,1.309999942779541,0.36000001430511475,-154.4199981689453,0.006591796875,0.02032470703125,0.99725341796875,35.22999954223633,0.0,0.0,0.60528564453125,1.9025726318359375,Waiting,0.0,0.0,36.0,0.0,0.0,0.0,0.0,0.0,
5.573175999999978,0.0,0.0,false,6574953.398533007,,54122.0,0.0,0.0,0.0,0.0,0.125,1.8164060640000002,0.0,0.0,-62613.0,0.0,0.0,-0.0,0.0,0.0,2.6464841040000002,0.0,0.0,41896.0,0.0,0.0,0.0,0.0,0.0,4.073485911000001,0.0,0.0,-55910.0,0.0,0.0,-0.0,0.0,0.0,2.5402829430000002,0.0,0.0,1.309999942779541,0.36000001430511475,-154.4199981689453,0.0047607421875,0.02203369140625,0.99761962890625,35.22999954223633,0.0,0.0,0.60528564453125,1.9025726318359375,Waiting,0.0,0.0,36.0,0.0,0.0,0.0,0.0,0.0,
5.629110999999917,0.0,0.0,false,6575028.16959403,,54122.0,0.0,0.0,0.0,0.0,0.125,1.8164060640000002,0.0,0.0,-62613.0,0.0,0.0,-0.0,0.0,0.0,2.647704807,0.0,0.0,41896.0,0.0,0.0,0.0,0.0,0.0,4.072265208,0.0,0.0,-55910.0,0.0,0.0,-0.0,0.0,0.0,2.5402829430000002,0.0,-0.0012207029999999897,1.309999942779541,0.36000001430511475,-154.4199981689453,0.0078125,0.0220947265625,0.99212646484375,35.22999954223633,0.0,0.0,0.60528564453125,1.9025726318359375,Waiting,0.0,0.0,36.0,0.0,0.0,0.0,0.0,0.0,
5.672681999999913,0.0,0.0,false,6575099.281008749,,54122.0,0.0,0.0,0.0,0.0,0.125,1.8164060640000002,0.0,0.0,-62613.0,0.0,0.0,-0.0,0.0,0.0,2.647704807,0.0,0.0,41896.0,0.0,0.0,0.0,0.0,0.0,4.073485911000001,0.0,0.0,-55910.0,0.0,0.0,-0.0,0.0,0.0,2.5402829430000002,0.0,-0.0012207029999999897,1.309999942779541,0.36000001430511475,-154.4199981689453,0.0067138671875,0.020751953125,1.00054931640625,35.22999954223633,0.0,0.0,0.60528564453125,1.9025726318359375,Waiting,0.0,0.0,36.0,0.0,0.0,0.0,0.0,0.0,
5.730123999999953,0.0,0.0,false,6575166.733483436,,54122.0,0.0,0.0,0.0,0.0,0.125,1.8176267670000001,0.0,0.0,-62613.0,0.0,0.0,-0.0,0.0,0.0,2.647704807,0.0,0.0012207030000004337,41896.0,0.0,0.0,0.0,0.0,0.0,4.072265208,0.0,0.0,-55910.0,0.0,0.0,-0.0,0.0,0.0,2.5402829430000002,0.0,-0.0012207029999999897,1.309999942779541,0.36000001430511475,-154.4199981689453,0.00750732421875,0.02227783203125,1.00018310546875,35.22999954223633,0.0,0.0,0.60528564453125,1.9025726318359375,Waiting,0.0,0.0,36.0,0.0,0.0,0.0,0.0,0.0,
5.776389999999898,0.0,0.0,false,6575226.258072816,,54122.0,0.0,0.0,0.0,0.0,0.125,1.8164060640000002,0.0,0.0,-62613.0,0.0,0.0,-0.0,0.0,0.0,2.647704807,0.0,-0.0012207030000004337,41896.0,0.0,0.0,0.0,0.0,0.0,4.073485911000001,0.0,0.0,-55910.0,0.0,0.0,-0.0,0.0,0.0,2.5402829430000002,0.0,-0.0012207029999999897,1.309999942779541,0.36000001430511475,-154.4199981689453,0.006591796875,0.02197265625,0.9964599609375,35.22999954223633,0.0,0.0,0.60528564453125,1.9025726318359375,Waiting,0.0,0.0,36.0,0.0,0.0,0.0,0.0,0.0,
5.8280109999999405,0.0,0.0,false,6575282.125683412,,54122.0,0.0,0.0,0.0,0.0,0.125,1.8164060640000002,0.0,0.0,-62613.0,0.0,0.0,-0.0,0.0,0.0,2.647704807,0.0,0.0,41896.0,0.0,0.0,0.0,0.0,0.0,4.072265208,0.0,0.0,-55910.0,0.0,0.0,-0.0,0.0,0.0,2.5402829430000002,0.0,0.0012207029999999897,1.309999942779541,0.36000001430511475,-154.4199981689453,0.00604248046875,0.02349853515625,0.998046875,35.22999954223633,0.0,0.0,0.60528564453125,1.9025726318359375,Waiting,0.0,0.0,36.0,0.0,0.0,0.0,0.0,0.0,
5.873169999999925,0.0,0.0,false,6575334.337020839,,54122.0,0.0,0.0,0.0,0.0,0.125,1.8164060640000002,0.0,0.0,-62613.0,0.0,0.0,-0.0,0.0,0.0,2.647704807,0.0,0.0,41896.0,0.0,0.0,0.0,0.0,0.0,4.073485911000001,0.0,0.0,-55910.0,0.0,0.0,-0.0,0.0,0.0,2.5415036460000002,0.0,0.0,1.309999942779541,0.36000001430511475,-154.4199981689453,0.00799560546875,0.0234375,1.00054931640625,35.22999954223633,0.0,-1.0,0.60528564453125,1.9025726318359375,Waiting,0.0,0.0,36.0,0.0,0.0,0.0,0.0,0.0,
5.927795999999973,0.0,0.0,false,6575382.892790534,,54122.0,0.0,0.0,0.0,0.0,0.125,1.8164060640000002,0.0,0.0,-62613.0,0.0,0.0,-0.0,0.0,0.0,2.647704807,0.0,0.0,41896.0,0.0,0.0,0.0,0.0,0.0,4.072265208,0.0,0.0,-55910.0,0.0,0.0,-0.0,0.0,0.0,2.5402829430000002,0.0,0.0,1.309999942779541,0.36000001430511475,-154.4199981689453,0.00885009765625,0.02276611328125,0.99749755859375,35.22999954223633,0.0,-2.0,0.60528564453125,1.9025726318359375,Waiting,0.0,0.0,36.0,0.0,0.0,0.0,0.0,0.0,
5.996364999999991,0.0,0.0,false,6575423.525144694,,54122.0,0.0,0.0,0.0,0.0,0.125,1.8164060640000002,0.0,0.0,-62613.0,0.0,0.0,-0.0,0.0,0.0,2.647704807,0.0,0.0,41896.0,0.0,0.0,0.0,0.0,0.0,4.073485911000001,0.0,0.0,-55910.0,0.0,0.0,-0.0,0.0,0.0,2.5402829430000002,0.0,0.0012207029999999897,1.309999942779541,0.36000001430511475,-154.4199981689453,0.0050048828125,0.0240478515625,1.0008544921875,35.22999954223633,0.0,0.0,0.60528564453125,1.9025726318359375,Waiting,0.0,0.0,36.0,0.0,0.0,0.0,0.0,0.0,
6.072535999999964,0.0,0.0,false,6575460.503890425,,54122.0,0.0,0.0,0.0,0.0,0.125,1.8164060640000002,0.0,0.0,-62613.0,0.0,0.0,-0.0,0.0,0.0,2.647704807,0.0,0.0,41896.0,0.0,0.0,0.0,0.0,0.0,4.072265208,0.0,0.0,-55910.0,0.0,0.0,-0.0,0.0,0.0,2.5390622400000002,0.0,0.0,1.309999942779541,0.36000001430511475,-154.4199981689453,0.00537109375,0.02606201171875,0.998779296875,35.22999954223633,0.0,0.0,0.60528564453125,1.9025726318359375,Waiting,0.0,0.0,36.0,0.0,0.0,0.0,0.0,0.0,
6.209590999999898,0.0,0.0,false,6575493.209876543,,54122.0,0.0,0.0,0.0,0.0,0.125,1.8164060640000002,0.0,0.0,-62613.0,0.0,0.0,-0.0,0.0,0.0,2.647704807,0.0,0.0,41896.0,0.0,0.0,0.0,0.0,0.0,4.072265208,0.0,0.0,-55910.0,0.0,0.0,-0.0,0.0,0.0,2.5402829430000002,0.0,0.0,1.309999942779541,0.36000001430511475,-154.4199981689453,0.00421142578125,0.022216796875,1.0018310546875,35.220001220703125,0.0,2.0,0.60528564453125,1.9025726318359375,Waiting,0.0,0.0,36.0,0.0,0.0,0.0,0.0,0.0,
6.389005999999935,0.0,0.0,false,6575522.263743329,,54122.0,0.0,0.0,0.0,0.0,0.125,1.8164060640000002,0.0,0.0,-62613.0,0.0,0.0,-0.0,0.0,0.0,2.647704807,0.0,0.0,41896.0,0.0,0.0,0.0,0.0,0.0,4.073485911000001,0.0,0.0,-55910.0,0.0,0.0,-0.0,0.0,0.0,2.5402829430000002,0.0,0.0,1.3200000524520874,0.36000001430511475,-154.4199981689453,0.00860595703125,0.02264404296875,0.99578857421875,35.220001220703125,0.0,-1.0,0.60528564453125,1.9025726318359375,Waiting,0.0,0.0,36.0,0.0,0.0,0.0,0.0,0.0,
6.4580669999999225,0.0,0.0,false,6575543.398739874,,54122.0,0.0,0.0,0.0,0.0,0.125,1.8164060640000002,0.0,0.0,-62613.0,0.0,0.0,-0.0,0.0,0.0,2.6464841040000002,0.0,0.0,41896.0,0.0,0.0,0.0,0.0,0.0,4.073485911000001,0.0,0.0,-55910.0,0.0,0.0,-0.0,0.0,0.0,2.5402829430000002,0.0,0.0,1.3200000524520874,0.36000001430511475,-154.42999267578125,0.0093994140625,0.02276611328125,0.99688720703125,35.220001220703125,0.0,-2.0,0.60528564453125,1.9025726318359375,Waiting,0.0,0.0,36.0,0.0,0.0,0.0,0.0,0.0,
6.508219999999972,0.0,0.0,false,6575560.883574413,,54122.0,0.0,0.0,0.0,0.0,0.125,1.8164060640000002,0.0,0.0,-62613.0,0.0,0.0,-0.0,0.0,0.0,2.647704807,0.0,0.0,41896.0,0.0,0.0,0.0,0.0,0.0,4.072265208,0.0,0.0,-55910.0,0.0,0.0,-0.0,0.0,0.0,2.5402829430000002,0.0,0.0,1.3200000524520874,0.36000001430511475,-154.4199981689453,0.00677490234375,0.02044677734375,0.99615478515625,35.220001220703125,0.0,0.0,0.60528564453125,1.9025726318359375,Waiting,0.0,0.0,36.0,0.0,0.0,0.0,0.0,0.0,
6.56784899999993,0.0,0.0,false,6575574.718950887,,54122.0,0.0,0.0,0.0,0.0,0.125,1.8176267670000001,0.0,0.0,-62613.0,0.0,0.0,-0.0,0.0,0.0,2.647704807,0.0,0.0,41896.0,0.0,0.0,0.0,0.0,0.0,4.072265208,0.0,0.0,-55910.0,0.0,0.0,-0.0,0.0,0.0,2.5402829430000002,0.0,-0.0012207029999999897,1.3200000524520874,0.36000001430511475,-154.42999267578125,0.00439453125,0.025634765625,0.994873046875,35.220001220703125,0.0,0.0,0.60528564453125,1.9025726318359375,Waiting,0.0,0.0,36.0,0.0,0.0,0.0,0.0,0.0,
