Time,ClimberA1,ClimberA2,CameraExists,HeapSpace,LoopTime,FRpos,FRCurrent,FRspeed,FRsetpoint,FRApos,FRACurrent,FREncpos,FREncSetpoint,FREncSpeed,FLpos,FLCurrent,FLspeed,FLsetpoint,FLApos,FLACurrent,FLEncpos,FLEncSetpoint,FLEncSpeed,BRpos,BRCurrent,BRspeed,BRsetpoint,BRApos,BRACurrent,BREncpos,BREncSetpoint,BREncSpeed,BLpos,BLCurrent,BLspeed,BLsetpoint,BLApos,BLACurrent,BLEncpos,BLEncSetpoint,BLEncSpeed,navx_Pitch,navx_Roll,navx_Yaw,navx_XAcc,navx_YAcc,navx_ZAcc,navx_Temp,navx_Bar,navx_Alt,navx_XDis,navx_YDis,GearPlacerState,ShootOutputV,ShootOutputCurrent,ShootEncPos,ShootEncVelocity,ShootSpeed,ShootSetpoint,CarouselSetpoint,CarouselCurrent,
0.1522249999999767,0.0,0.0,false,4633519.621273618,,59020.0,0.0,0.0,0.0,0.0,0.125,1.7626951320000002,0.0,0.0,-56397.0,0.0,0.0,-0.0,0.0,0.0,2.7380368290000003,0.0,0.0,47011.0,0.0,0.0,0.0,0.0,0.0,4.086913644,0.0,0.0,-46703.0,0.0,0.0,-0.0,0.0,0.0,2.525634507,0.0,0.0,1.2799999713897705,0.5400000214576721,-14.949999809265137,0.01007080078125,0.02032470703125,0.9981689453125,33.75,0.0,1.0,-0.12261962890625,0.0522918701171875,Waiting,0.0,0.0,0.0,0.0,0.0,0.0,0.0,0.0,
0.274954000000027,0.0,0.0,false,4633535.520240719,,59020.0,0.0,0.0,0.0,0.0,0.125,1.7639158350000002,0.0,0.0,-56397.0,0.0,0.0,-0.0,0.0,0.0,2.707519254,0.0,0.0,47011.0,0.0,0.0,0.0,0.0,0.0,4.086913644,0.0,0.0,-46703.0,0.0,0.0,-0.0,0.0,0.0,2.5268552100000004,0.0,0.0,1.2699999809265137,0.5400000214576721,-14.949999809265137,0.01318359375,0.02044677734375,1.0013427734375,33.7599983215332,0.0,4.0,-0.12261962890625,0.0522918701171875,Waiting,0.0,0.0,0.0,0.0,0.0,0.0,0.0,0.0,
0.40873300000000745,0.0,0.0,false,4633544.324679868,,59020.0,0.0,0.0,0.0,0.0,0.125,1.7639158350000002,0.0,0.0,-56397.0,0.0,0.0,-0.0,0.0,0.0,2.6904294120000003,0.0,0.0,47011.0,0.0,0.0,0.0,0.0,0.0,4.086913644,0.0,0.0,-46703.0,0.0,0.0,-0.0,0.0,0.0,2.5268552100000004,0.0,0.0,1.2699999809265137,0.5400000214576721,-14.949999809265137,0.0135498046875,0.02490234375,1.0013427734375,33.7599983215332,0.0,3.0,-0.12261962890625,0.0522918701171875,Waiting,0.0,0.0,0.0,0.0,0.0,0.0,0.0,0.0,
0.5286469999999972,0.0,0.0,false,4633547.3508029245,,59020.0,0.0,0.0,0.0,0.0,0.125,1.7626951320000002,0.0,0.0,-56397.0,0.0,0.0,-0.0,0.0,0.0,2.6904294120000003,0.0,0.0,47011.0,0.0,0.0,0.0,0.0,0.0,4.086913644,0.0,0.0,-46703.0,0.0,0.0,-0.0,0.0,0.0,2.5268552100000004,0.0,0.0,1.2699999809265137,0.5299999713897705,-14.949999809265137,0.0081787109375,0.02197265625,1.0015869140625,33.7599983215332,0.0,-1.0,-0.12261962890625,0.0522918701171875,Waiting,0.0,0.0,0.0,0.0,0.0,0.0,0.0,0.0,
0.6537099999999627,0.0,0.0,false,4633543.209347887,,59020.0,0.0,0.0,0.0,0.0,0.125,1.7639158350000002,0.0,0.0,-56397.0,0.0,0.0,-0.0,0.0,0.0,2.6904294120000003,0.0,0.0,47011.0,0.0,0.0,0.0,0.0,0.0,4.0881343470000004,0.0,0.0,-46703.0,0.0,0.0,-0.0,0.0,0.0,2.525634507,0.0,0.0,1.2699999809265137,0.5299999713897705,-14.949999809265137,0.01165771484375,0.02099609375,0.99993896484375,33.7599983215332,0.0,2.0,-0.12261962890625,0.0522918701171875,Waiting,0.0,0.0,0.0,0.0,0.0,0.0,0.0,0.0,
0.7707719999999972,0.0,0.0,false,4633533.366730803,,59020.0,0.0,0.0,0.0,0.0,0.125,1.7626951320000002,0.0,0.0,-56397.0,0.0,0.0,-0.0,0.0,0.0,2.6904294120000003,0.0,0.0,47011.0,0.0,0.0,0.0,0.0,0.0,4.0881343470000004,0.0,0.0,-46703.0,0.0,0.0,-0.0,0.0,0.0,2.525634507,0.0,0.0,1.2699999809265137,0.5299999713897705,-14.949999809265137,0.01104736328125,0.02081298828125,0.99810791015625,33.79999923706055,0.0,-1.0,-0.12261962890625,0.0522918701171875,Waiting,0.0,0.0,0.0,0.0,0.0,0.0,0.0,0.0,
0.8935470000000205,0.0,0.0,false,4633517.751906527,,59020.0,0.0,0.0,0.0,0.0,0.125,1.7626951320000002,0.0,0.0,-56397.0,0.0,0.0,-0.0,0.0,0.0,2.6904294120000003,0.0,0.0,47011.0,0.0,0.0,0.0,0.0,0.0,4.086913644,0.0,0.0,-46703.0,0.0,0.0,-0.0,0.0,0.0,2.525634507,0.0,0.0,1.2599999904632568,0.5199999809265137,-14.949999809265137,0.01007080078125,0.02239990234375,1.002685546875,33.79999923706055,0.0,0.0,-0.12261962890625,0.0522918701171875,Waiting,0.0,0.0,0.0,0.0,0.0,0.0,0.0,0.0,
1.0148950000000185,0.0,0.0,false,4633494.976038059,,59020.0,0.0,0.0,0.0,0.0,0.125,1.7626951320000002,0.0,0.0,-56397.0,0.0,0.0,-0.0,0.0,0.0,2.6904294120000003,0.0,0.0,47011.0,0.0,0.0,0.0,0.0,0.0,4.0881343470000004,0.0,0.0,-46703.0,0.0,0.0,-0.0,0.0,0.0,2.525634507,0.0,0.0,1.2599999904632568,0.5099999904632568,-14.949999809265137,0.007080078125,0.02197265625,0.99737548828125,33.79999923706055,0.0,-1.0,-0.12261962890625,0.0522918701171875,Waiting,0.0,0.0,0.0,0.0,0.0,0.0,0.0,0.0,
1.1414120000000112,0.0,0.0,false,4633466.500909473,,59020.0,0.0,0.0,0.0,0.0,0.125,1.7639158350000002,0.0,0.0,-56397.0,0.0,0.0,-0.0,0.0,0.0,2.6904294120000003,0.0,0.0,47011.0,0.0,0.0,0.0,0.0,0.0,4.086913644,0.0,0.0,-46703.0,0.0,0.0,-0.0,0.0,0.0,2.5268552100000004,0.0,0.0,1.2599999904632568,0.5099999904632568,-14.949999809265137,0.00921630859375,0.02264404296875,0.99603271484375,33.79999923706055,0.0,0.0,-0.12261962890625,0.0522918701171875,Waiting,0.0,0.0,0.0,0.0,0.0,0.0,0.0,0.0,
1.265579000000027,0.0,0.0,false,4633430.866137326,,59020.0,0.0,0.0,0.0,0.0,0.125,1.7639158350000002,0.0,0.0,-56397.0,0.0,0.0,-0.0,0.0,0.0,2.6904294120000003,0.0,0.0,47011.0,0.0,0.0,0.0,0.0,0.0,4.086913644,0.0,0.0,-46703.0,0.0,0.0,-0.0,0.0,0.0,2.525634507,0.0,0.0,1.2699999809265137,0.5199999809265137,-14.949999809265137,0.01165771484375,0.021728515625,0.99652099609375,33.7599983215332,0.0,2.0,-0.12261962890625,0.0522918701171875,Waiting,0.0,0.0,0.0,0.0,0.0,0.0,0.0,0.0,
1.389692000000039,0.0,0.0,false,4633388.072472893,,59020.0,0.0,0.0,0.0,0.0,0.125,1.7626951320000002,0.0,0.0,-56397.0,0.0,0.0,-0.0,0.0,0.0,2.6904294120000003,0.0,0.0,47011.0,0.0,0.0,0.0,0.0,0.0,4.086913644,0.0,0.0,-46703.0,0.0,0.0,-0.0,0.0,0.0,2.525634507,0.0,0.0,1.2699999809265137,0.5199999809265137,-14.949999809265137,0.00714111328125,0.0206298828125,0.9979248046875,33.7599983215332,0.0,-1.0,-0.12261962890625,0.0522918701171875,Waiting,0.0,0.0,0.0,0.0,0.0,0.0,0.0,0.0,
1.5158449999999721,0.0,0.0,false,4633406.957434158,,59020.0,0.0,0.0,0.0,0.0,0.125,1.7639158350000002,0.0,0.0,-56397.0,0.0,0.0,-0.0,0.0,0.0,2.6904294120000003,0.0,0.0,47011.0,0.0,0.0,0.0,0.0,0.0,4.086913644,0.0,0.0,-46703.0,0.0,0.0,-0.0,0.0,0.0,2.5268552100000004,0.0,0.0,1.2699999809265137,0.5199999809265137,-14.949999809265137,0.0067138671875,0.02178955078125,0.9971923828125,33.7599983215332,0.0,-2.0,-0.12261962890625,0.0522918701171875,Waiting,0.0,0.0,0.0,0.0,0.0,0.0,0.0,0.0,
1.6432600000000093,0.0,0.0,false,4633418.7963066595,,59020.0,0.0,0.0,0.0,0.0,0.125,1.7626951320000002,0.0,0.0,-56397.0,0.0,0.0,-0.0,0.0,0.0,2.6904294120000003,0.0,0.0,47011.0,0.0,0.0,0.0,0.0,0.0,4.086913644,0.0,0.0,-46703.0,0.0,0.0,-0.0,0.0,0.0,2.525634507,0.0,0.0,1.2699999809265137,0.5199999809265137,-14.949999809265137,0.01116943359375,0.02667236328125,0.99273681640625,33.7599983215332,0.0,0.0,-0.12261962890625,0.0522918701171875,Waiting,0.0,0.0,0.0,0.0,0.0,0.0,0.0,0.0,
1.7628120000000345,0.0,0.0,false,4633424.902038961,,59020.0,0.0,0.0,0.0,0.0,0.125,1.7639158350000002,0.0,0.0,-56397.0,0.0,0.0,-0.0,0.0,0.0,2.666015352,0.0,0.0,47011.0,0.0,0.0,0.0,0.0,0.0,4.0881343470000004,0.0,0.0,-46703.0,0.0,0.0,-0.0,0.0,0.0,2.5268552100000004,0.0,0.0,1.2599999904632568,0.5400000214576721,-14.949999809265137,0.0101318359375,0.025634765625,1.004638671875,33.779998779296875,0.0,0.0,-0.12261962890625,0.0522918701171875,Waiting,0.0,0.0,0.0,0.0,0.0,0.0,0.0,0.0,
1.8870109999999405,0.0,0.0,false,4633423.963348954,,59020.0,0.0,0.0,0.0,0.0,0.125,1.7626951320000002,0.0,0.0,-56397.0,0.0,0.0,-0.0,0.0,0.0,2.5415036460000002,0.0,0.0,47011.0,0.0,0.0,0.0,0.0,0.0,4.086913644,0.0,0.0,-46703.0,0.0,0.0,-0.0,0.0,0.0,2.525634507,0.0,0.0,1.2599999904632568,0.5400000214576721,-14.949999809265137,-0.00885009765625,0.062744140625,1.04217529296875,33.779998779296875,0.0,-28.0,-0.122467041015625,0.0524139404296875,Waiting,0.0,0.0,0.0,0.0,0.0,0.0,0.0,0.0,
2.0118469999999506,0.0,0.0,false,4633417.288337122,,59020.0,0.0,0.0,0.0,0.0,0.125,1.7626951320000002,0.0,0.0,-56397.0,0.0,0.0,-0.0,0.0,0.125,2.5805661420000003,0.0,0.0,47011.0,0.0,0.0,0.0,0.0,0.0,4.086913644,0.0,0.0,-46703.0,0.0,0.0,-0.0,0.0,0.0,2.525634507,0.0,0.0,1.2599999904632568,0.5400000214576721,-14.949999809265137,0.02447509765625,0.02716064453125,0.961181640625,33.779998779296875,0.0,13.0,-0.12225341796875,0.0525665283203125,Waiting,0.0,0.0,0.0,0.0,0.0,0.0,0.0,0.0,
2.134993999999948,0.0,0.0,false,4633404.8778850185,,59020.0,0.0,0.0,0.0,0.0,0.125,1.7639158350000002,0.0,0.0,-56397.0,0.0,0.0,-0.0,0.0,0.0,2.652587619,0.0,0.0,47011.0,0.0,0.0,0.0,0.0,0.0,4.086913644,0.0,0.0,-46703.0,0.0,0.0,-0.0,0.0,0.0,2.525634507,0.0,0.0,1.2799999713897705,0.5199999809265137,-14.949999809265137,-0.00335693359375,0.0284423828125,1.004150390625,33.779998779296875,0.0,-13.0,-0.12225341796875,0.0525665283203125,Waiting,0.0,0.0,0.0,0.0,0.0,0.0,0.0,0.0,
2.2660540000000036,0.0,0.0,false,4633385.357624926,,59020.0,0.0,0.0,0.0,0.0,0.125,1.7639158350000002,0.0,0.0,-56397.0,0.0,0.0,-0.0,0.0,0.0,2.6953122240000003,0.0,0.0,47011.0,0.0,0.0,0.0,0.0,0.0,4.086913644,0.0,0.0,-46703.0,0.0,0.0,-0.0,0.0,0.0,2.5268552100000004,0.0,0.0,1.2599999904632568,0.5299999713897705,-14.970000267028809,0.010498046875,0.03289794921875,0.996337890625,33.77000045776367,0.0,-1.0,-0.12225341796875,0.0525665283203125,Waiting,0.0,0.0,0.0,0.0,0.0,0.0,0.0,0.0,
2.387643999999971,0.0,0.0,false,4633358.799916078,,59020.0,0.0,0.0,0.0,0.0,0.125,1.7626951320000002,0.0,0.0,-56397.0,0.0,0.0,-0.0,0.0,0.0,2.6953122240000003,0.0,0.0,47011.0,0.0,0.0,0.0,0.0,0.0,4.0881343470000004,0.0,0.0,-46703.0,0.0,0.0,-0.0,0.0,0.0,2.5268552100000004,0.0,0.0,1.2699999809265137,0.5199999809265137,-14.949999809265137,0.00439453125,0.01934814453125,1.0059814453125,33.77000045776367,0.0,-3.0,-0.12225341796875,0.0525665283203125,Waiting,0.0,0.0,0.0,0.0,0.0,0.0,0.0,0.0,
2.510878999999957,0.0,0.0,false,4633326.512954999,,59020.0,0.0,0.0,0.0,0.0,0.125,1.7639158350000002,0.0,0.0,-56397.0,0.0,0.0,-0.0,0.0,0.0,2.6953122240000003,0.0,0.0,47011.0,0.0,0.0,0.0,0.0,0.0,4.0881343470000004,0.0,0.0,-46703.0,0.0,0.0,-0.0,0.0,0.0,2.525634507,0.0,0.0,1.2699999809265137,0.5299999713897705,-14.960000038146973,0.01129150390625,0.0238037109375,1.0029296875,33.77000045776367,0.0,1.0,-0.12225341796875,0.0525665283203125,Waiting,0.0,0.0,0.0,0.0,0.0,0.0,0.0,0.0,
2.6404150000000373,0.0,0.0,false,4633287.118321679,,59020.0,0.0,0.0,0.0,0.0,0.125,1.7639158350000002,0.0,0.0,-56397.0,0.0,0.0,-0.0,0.0,0.0,2.6953122240000003,0.0,0.0,47011.0,0.0,0.0,0.0,0.0,0.0,4.0881343470000004,0.0,0.0,-46703.0,0.0,0.0,-0.0,0.0,0.0,2.525634507,0.0,0.0,1.2699999809265137,0.5099999904632568,-14.960000038146973,0.012939453125,0.0264892578125,0.9947509765625,33.77000045776367,0.0,2.0,-0.12225341796875,0.0525665283203125,Waiting,0.0,0.0,0.0,0.0,0.0,0.0,0.0,0.0,
2.775841000000015,0.0,0.0,false,4633241.995734415,,59020.0,0.0,0.0,0.0,0.0,0.125,1.7639158350000002,0.0,0.0,-56397.0,0.0,0.0,-0.0,0.0,0.0,2.814941118,0.0,0.0,47011.0,0.0,0.0,0.0,0.0,0.0,4.086913644,0.0,0.0,-46703.0,0.0,0.0,-0.0,0.0,0.0,2.5268552100000004,0.0,0.0,1.2699999809265137,0.5299999713897705,-14.970000267028809,0.0072021484375,0.03289794921875,0.99945068359375,33.790000915527344,0.0,-4.0,-0.12225341796875,0.0525665283203125,Waiting,0.0,0.0,0.0,0.0,0.0,0.0,0.0,0.0,
2.9142389999999434,0.0,0.0,false,4633259.431088735,,59020.0,0.0,0.0,0.0,0.0,0.125,1.7626951320000002,0.0,0.0,-56397.0,0.0,0.0,-0.0,0.0,0.0,2.775878622,0.0,0.0,47011.0,0.0,0.0,0.0,0.0,0.0,4.0881343470000004,0.0,0.0,-46703.0,0.0,0.0,-0.0,0.0,0.0,2.525634507,0.0,0.0,1.2699999809265137,0.5299999713897705,-14.970000267028809,0.0067138671875,0.02392578125,1.007568359375,33.790000915527344,0.0,-2.0,-0.12225341796875,0.0525665283203125,Waiting,0.0,0.0,0.0,0.0,0.0,0.0,0.0,0.0,
3.0430810000000057,0.0,0.0,false,4633269.702618606,,59020.0,0.0,0.0,0.0,0.0,0.125,1.7626951320000002,0.0,0.0,-56397.0,0.0,0.0,-0.0,0.0,0.0,2.680663788,0.0,0.0,47011.0,0.0,0.0,0.0,0.0,0.0,4.0881343470000004,0.0,0.0,-46703.0,0.0,0.0,-0.0,0.0,0.0,2.525634507,0.0,0.0,1.2699999809265137,0.5400000214576721,-14.970000267028809,0.00701904296875,0.02459716796875,0.99609375,33.790000915527344,0.0,-2.0,-0.12225341796875,0.0525665283203125,Waiting,0.0,0.0,0.0,0.0,0.0,0.0,0.0,0.0,
3.176447999999975,0.0,0.0,false,4633274.199972032,,59020.0,0.0,0.0,0.0,0.0,0.125,1.7626951320000002,0.0,0.0,-56397.0,0.0,0.0,-0.0,0.0,0.0,2.6464841040000002,0.0,0.0,47011.0,0.0,0.0,0.0,0.0,0.0,4.086913644,0.0,0.0,-46703.0,0.0,0.0,-0.0,0.0,0.0,2.525634507,0.0,0.0,1.2699999809265137,0.5299999713897705,-14.960000038146973,0.0137939453125,0.022705078125,0.9998779296875,33.790000915527344,0.0,4.0,-0.12225341796875,0.0525665283203125,Waiting,0.0,0.0,0.0,0.0,0.0,0.0,0.0,0.0,
3.3094830000000073,0.0,0.0,false,4633272.923474917,,59020.0,0.0,0.0,0.0,0.0,0.125,1.7639158350000002,0.0,0.0,-56397.0,0.0,0.0,-0.0,0.0,0.0,2.647704807,0.0,0.0,47011.0,0.0,0.0,0.0,0.0,0.0,4.086913644,0.0,0.0,-46703.0,0.0,0.0,-0.0,0.0,0.0,2.525634507,0.0,0.0,1.2699999809265137,0.5299999713897705,-14.970000267028809,0.005126953125,0.0242919921875,1.00048828125,33.79999923706055,0.0,-4.0,-0.12225341796875,0.0525665283203125,Waiting,0.0,0.0,0.0,0.0,0.0,0.0,0.0,0.0,
3.4353889999999665,0.0,0.0,false,4633264.558484234,,59020.0,0.0,0.0,0.0,0.0,0.125,1.7626951320000002,0.0,0.0,-56397.0,0.0,0.0,-0.0,0.0,0.0,2.647704807,0.0,0.0,47011.0,0.0,0.0,0.0,0.0,0.0,4.086913644,0.0,0.0,-46703.0,0.0,0.0,-0.0,0.0,0.0,2.5268552100000004,0.0,0.0,1.2699999809265137,0.5199999809265137,-14.970000267028809,0.011474609375,0.02105712890625,1.00189208984375,33.79999923706055,0.0,2.0,-0.12225341796875,0.0525665283203125,Waiting,0.0,0.0,0.0,0.0,0.0,0.0,0.0,0.0,
3.5706230000000216,0.0,0.0,false,4633249.036948998,,59020.0,0.0,0.0,0.0,0.0,0.125,1.7626951320000002,0.0,0.0,-56397.0,0.0,0.0,-0.0,0.0,0.0,2.647704807,0.0,0.0,47011.0,0.0,0.0,0.0,0.0,0.0,4.086913644,0.0,0.0,-46703.0,0.0,0.0,-0.0,0.0,0.0,2.5268552100000004,0.0,0.0,1.2699999809265137,0.5199999809265137,-14.970000267028809,0.00579833984375,0.02325439453125,0.99383544921875,33.79999923706055,0.0,-3.0,-0.12225341796875,0.0525665283203125,Waiting,0.0,0.0,0.0,0.0,0.0,0.0,0.0,0.0,
3.7090579999999607,0.0,0.0,false,4633227.748042505,,59020.0,0.0,0.0,0.0,0.0,0.125,1.7626951320000002,0.0,0.0,-56397.0,0.0,0.0,-0.0,0.0,0.0,2.652587619,0.0,0.0,47011.0,0.0,0.0,0.0,0.0,0.0,4.0856929410000005,0.0,0.0,-46703.0,0.0,0.0,-0.0,0.0,0.0,2.525634507,0.0,0.0,1.2599999904632568,0.5199999809265137,-14.989999771118164,0.01055908203125,0.0140380859375,0.9952392578125,33.79999923706055,0.0,3.0,-0.12225341796875,0.0525665283203125,Waiting,0.0,0.0,0.0,0.0,0.0,0.0,0.0,0.0,
3.835832000000053,0.0,0.0,false,4633199.303995246,,59020.0,0.0,0.0,0.0,0.0,0.125,1.7639158350000002,0.0,0.0,-56397.0,0.0,0.0,-0.0,0.0,0.0,2.5317380220000003,0.0,0.0,47011.0,0.0,0.0,0.0,0.0,0.0,4.0881343470000004,0.0,0.0,-46703.0,0.0,0.0,-0.0,0.0,0.0,2.525634507,0.0,0.0,1.2599999904632568,0.5299999713897705,-14.960000038146973,0.01513671875,0.02655029296875,0.99639892578125,33.810001373291016,0.0,4.0,-0.12225341796875,0.0525665283203125,Waiting,0.0,0.0,0.0,0.0,0.0,0.0,0.0,0.0,
3.97364599999995,0.0,0.0,false,4633165.093883257,,59020.0,0.0,0.0,0.0,0.0,0.125,1.7626951320000002,0.0,0.0,-56397.0,0.0,0.0,-0.0,0.0,0.125,2.5903317660000003,0.0,0.0,47011.0,0.0,0.0,0.0,0.0,0.0,4.0881343470000004,0.0,0.0,-46703.0,0.0,0.0,-0.0,0.0,0.0,2.5268552100000004,0.0,0.0,1.2899999618530273,0.5400000214576721,-14.970000267028809,0.02130126953125,0.0234375,0.99151611328125,33.810001373291016,0.0,11.0,-0.122344970703125,0.05279541015625,Waiting,0.0,0.0,0.0,0.0,0.0,0.0,0.0,0.0,
4.110545000000042,0.0,0.0,false,4633125.118311139,,59020.0,0.0,0.0,0.0,0.0,0.125,1.7639158350000002,0.0,0.0,-56397.0,0.0,0.0,-0.0,0.0,0.0,2.6989743330000002,0.0,0.0,47011.0,0.0,0.0,0.0,0.0,0.0,4.086913644,0.0,0.0,-46703.0,0.0,0.0,-0.0,0.0,0.0,2.5268552100000004,0.0,0.0,1.2799999713897705,0.5299999713897705,-14.970000267028809,0.00299072265625,0.0150146484375,1.00091552734375,33.810001373291016,0.0,-4.0,-0.122222900390625,0.05279541015625,Waiting,0.0,0.0,0.0,0.0,0.0,0.0,0.0,0.0,
4.233052000000026,0.0,0.0,false,4633078.4353418145,,59020.0,0.0,0.0,0.0,0.0,0.125,1.7626951320000002,0.0,0.0,-56397.0,0.0,0.0,-0.0,0.0,0.0,2.719726284,0.0,0.0,47011.0,0.0,0.0,0.0,0.0,0.0,4.086913644,0.0,0.0,-46703.0,0.0,0.0,-0.0,0.0,0.0,2.525634507,0.0,0.0,1.2699999809265137,0.5400000214576721,-14.979999542236328,0.01361083984375,0.02850341796875,1.00164794921875,33.810001373291016,0.0,2.0,-0.122222900390625,0.05279541015625,Waiting,0.0,0.0,0.0,0.0,0.0,0.0,0.0,0.0,
4.370552999999957,0.0,0.0,false,4633093.0312794885,,59020.0,0.0,0.0,0.0,0.0,0.125,1.7626951320000002,0.0,0.0,-56397.0,0.0,0.0,-0.0,0.0,0.0,2.718505581,0.0,0.0,47011.0,0.0,0.0,0.0,0.0,0.0,4.0881343470000004,0.0,0.0,-46703.0,0.0,0.0,-0.0,0.0,0.0,2.525634507,0.0,0.0,1.2699999809265137,0.5199999809265137,-14.970000267028809,0.0032958984375,0.0196533203125,1.00091552734375,33.83000183105469,0.0,-5.0,-0.122222900390625,0.05279541015625,Waiting,0.0,0.0,0.0,0.0,0.0,0.0,0.0,0.0,
4.49465399999998,0.0,0.0,false,4633100.515272245,,59020.0,0.0,0.0,0.0,0.0,0.125,1.7626951320000002,0.0,0.0,-56397.0,0.0,0.0,-0.0,0.0,0.0,2.6892087090000003,0.0,0.0,47011.0,0.0,0.0,0.0,0.0,0.0,4.086913644,0.0,0.0,-46703.0,0.0,0.0,-0.0,0.0,0.0,2.525634507,0.0,0.0,1.2799999713897705,0.5400000214576721,-14.970000267028809,7.9345703125E-4,0.0196533203125,0.991455078125,33.83000183105469,0.0,-7.0,-0.122222900390625,0.05279541015625,Waiting,0.0,0.0,0.0,0.0,0.0,0.0,0.0,0.0,
4.617113000000012,0.0,0.0,false,4633102.338214223,,59020.0,0.0,0.0,0.0,0.0,0.125,1.7639158350000002,0.0,0.0,-56397.0,0.0,0.0,-0.0,0.0,0.0,2.657470431,0.0,0.0,47011.0,0.0,0.0,0.0,0.0,0.0,4.086913644,0.0,0.0,-46703.0,0.0,0.0,-0.0,0.0,0.0,2.525634507,0.0,0.0,1.2799999713897705,0.5299999713897705,-14.970000267028809,0.007080078125,0.02679443359375,0.99542236328125,33.83000183105469,0.0,-3.0,-0.122222900390625,0.05279541015625,Waiting,0.0,0.0,0.0,0.0,0.0,0.0,0.0,0.0,
4.747719000000041,0.0,0.0,false,4633098.428850993,,59020.0,0.0,0.0,0.0,0.0,0.125,1.7639158350000002,0.0,0.0,-56397.0,0.0,0.0,-0.0,0.0,0.0,2.647704807,0.0,0.0,47011.0,0.0,0.0,0.0,0.0,0.0,4.0881343470000004,0.0,0.0,-46703.0,0.0,0.0,-0.0,0.0,0.0,2.525634507,0.0,0.0,1.2899999618530273,0.5299999713897705,-14.970000267028809,0.00347900390625,0.01568603515625,1.00372314453125,33.83000183105469,0.0,-3.0,-0.122222900390625,0.05279541015625,Waiting,0.0,0.0,0.0,0.0,0.0,0.0,0.0,0.0,
4.869574999999953,0.0,0.0,false,4633087.409861271,,59020.0,0.0,0.0,0.0,0.0,0.125,1.7639158350000002,0.0,0.0,-56397.0,0.0,0.0,-0.0,0.0,0.0,2.647704807,0.0,0.0,47011.0,0.0,0.0,0.0,0.0,0.0,4.086913644,0.0,0.0,-46703.0,0.0,0.0,-0.0,0.0,0.0,2.5268552100000004,0.0,0.0,1.2699999809265137,0.5199999809265137,-14.970000267028809,0.00885009765625,0.02020263671875,1.00018310546875,33.81999969482422,0.0,0.0,-0.122222900390625,0.05279541015625,Waiting,0.0,0.0,0.0,0.0,0.0,0.0,0.0,0.0,
4.989505000000005,0.0,0.0,false,4633070.735900482,,59020.0,0.0,0.0,0.0,0.0,0.125,1.7639158350000002,0.0,0.0,-56397.0,0.0,0.0,-0.0,0.0,0.0,2.681884491,0.0,0.0,47011.0,0.0,0.0,0.0,0.0,0.0,4.086913644,0.0,0.0,-46703.0,0.0,0.0,-0.0,0.0,0.0,2.525634507,0.0,0.0,1.2799999713897705,0.5199999809265137,-14.979999542236328,0.0086669921875,0.0262451171875,1.005126953125,33.81999969482422,0.0,-1.0,-0.122222900390625,0.05279541015625,Waiting,0.0,0.0,0.0,0.0,0.0,0.0,0.0,0.0,
5.112979999999982,0.0,0.0,false,4633046.957895105,,59020.0,0.0,0.0,0.0,0.0,0.125,1.7639158350000002,0.0,0.0,-56397.0,0.0,0.0,-0.0,0.0,0.0,2.780761434,0.0,0.0,47011.0,0.0,0.0,0.0,0.0,0.0,4.08935505,0.0,0.0,-46703.0,0.0,0.0,-0.0,0.0,0.0,2.525634507,0.0,0.0,1.2699999809265137,0.5199999809265137,-14.979999542236328,0.01287841796875,0.01922607421875,1.0067138671875,33.81999969482422,0.0,4.0,-0.122222900390625,0.05279541015625,Waiting,0.0,0.0,0.0,0.0,0.0,0.0,0.0,0.0,
5.2345799999999585,0.0,0.0,false,4633017.4546471,,59020.0,0.0,0.0,0.0,0.0,0.125,1.7687986470000001,0.0,0.0,-56397.0,0.0,0.0,-0.0,0.0,0.0,2.752685265,0.0,0.0,47011.0,0.0,0.0,0.0,0.0,0.0,4.086913644,0.0,0.0,-46703.0,0.0,0.0,-0.0,0.0,0.0,2.525634507,0.0,0.0,1.25,0.5199999809265137,-14.970000267028809,0.0076904296875,0.0111083984375,1.004150390625,33.81999969482422,0.0,1.0,-0.122222900390625,0.05279541015625,Waiting,0.0,0.0,0.0,0.0,0.0,0.0,0.0,0.0,
5.353501000000048,0.0,0.0,false,4632982.226756577,,59020.0,0.0,0.0,0.0,0.0,0.125,1.7590330230000002,0.0,0.0,-56397.0,0.0,0.0,-0.0,0.0,0.0,2.680663788,0.0,0.0,47011.0,0.0,0.0,0.0,0.0,0.0,4.086913644,0.0,0.0,-46703.0,0.0,0.0,-0.0,0.0,0.0,2.525634507,0.0,0.0,1.2699999809265137,0.5299999713897705,-14.970000267028809,0.01629638671875,0.0325927734375,1.001708984375,33.83000183105469,0.0,4.0,-0.122222900390625,0.05279541015625,Waiting,0.0,0.0,0.0,0.0,0.0,0.0,0.0,0.0,
5.475684999999939,0.0,0.0,false,4632939.968415904,,59020.0,0.0,0.0,0.0,0.0,0.125,1.7639158350000002,0.0,0.0,-56397.0,0.0,0.0,-0.0,0.0,0.0,2.657470431,0.0,0.0,47011.0,0.0,0.0,0.0,0.0,0.0,4.086913644,0.0,0.0,-46703.0,0.0,0.0,-0.0,0.0,0.0,2.525634507,0.0,0.0,1.2699999809265137,0.5199999809265137,-14.970000267028809,0.00750732421875,0.0133056640625,1.001220703125,33.83000183105469,0.0,0.0,-0.122222900390625,0.05279541015625,Waiting,0.0,0.0,0.0,0.0,0.0,0.0,0.0,0.0,
5.611327000000048,0.0,0.0,false,4632958.96279216,,59020.0,0.0,0.0,0.0,0.0,0.125,1.7639158350000002,0.0,0.0,-56397.0,0.0,0.0,-0.0,0.0,0.0,2.656249728,0.0,0.0,47011.0,0.0,0.0,0.0,0.0,0.0,4.0881343470000004,0.0,0.0,-46703.0,0.0,0.0,-0.0,0.0,0.0,2.524413804,0.0,0.0,1.2699999809265137,0.5299999713897705,-14.970000267028809,0.01092529296875,0.02642822265625,0.99591064453125,33.83000183105469,0.0,0.0,-0.122222900390625,0.05279541015625,Waiting,0.0,0.0,0.0,0.0,0.0,0.0,0.0,0.0,
5.734265999999945,0.0,0.0,false,4632972.111514812,,59020.0,0.0,0.0,0.0,0.0,0.125,1.7639158350000002,0.0,0.0,-56397.0,0.0,0.0,-0.0,0.0,0.0,2.657470431,0.0,0.0,47011.0,0.0,0.0,0.0,0.0,0.0,4.086913644,0.0,0.0,-46703.0,0.0,0.0,-0.0,0.0,0.0,2.525634507,0.0,0.0,1.2599999904632568,0.5199999809265137,-14.970000267028809,0.010986328125,0.0191650390625,1.00146484375,33.83000183105469,0.0,2.0,-0.122222900390625,0.05279541015625,Waiting,0.0,0.0,0.0,0.0,0.0,0.0,0.0,0.0,
5.86839300000004,0.0,0.0,false,4632979.566951965,,59020.0,0.0,0.0,0.0,0.0,0.125,1.7639158350000002,0.0,0.0,-56397.0,0.0,0.0,-0.0,0.0,0.0,2.657470431,0.0,0.0,47011.0,0.0,0.0,0.0,0.0,0.0,4.0881343470000004,0.0,0.0,-46703.0,0.0,0.0,-0.0,0.0,0.0,2.525634507,0.0,0.0,1.2599999904632568,0.5400000214576721,-14.970000267028809,0.0057373046875,0.0264892578125,0.99920654296875,33.849998474121094,0.0,-4.0,-0.122222900390625,0.05279541015625,Waiting,0.0,0.0,0.0,0.0,0.0,0.0,0.0,0.0,
5.9902480000000216,0.0,0.0,false,4632979.866694613,,59020.0,0.0,0.0,0.0,0.0,0.125,1.7639158350000002,0.0,0.0,-56397.0,0.0,0.0,-0.0,0.0,0.0,2.6379391830000003,0.0,0.0,47011.0,0.0,0.0,0.0,0.0,0.0,4.086913644,0.0,0.0,-46703.0,0.0,0.0,-0.0,0.0,0.0,2.525634507,0.0,0.0,1.2599999904632568,0.5299999713897705,-14.970000267028809,0.0164794921875,0.017822265625,1.00079345703125,33.849998474121094,0.0,7.0,-0.122222900390625,0.05279541015625,Waiting,0.0,0.0,0.0,0.0,0.0,0.0,0.0,0.0,
6.113086000000011,0.0,0.0,false,4632974.398435044,,59020.0,0.0,0.0,0.0,0.0,0.125,1.7663572410000001,0.0,0.0,-56397.0,0.0,0.0,-0.0,0.0,0.0,2.517089586,0.0,0.0,47011.0,0.0,0.0,0.0,0.0,0.0,4.0856929410000005,0.0,0.0,-46703.0,0.0,0.0,-0.0,0.0,0.0,2.524413804,0.0,0.0,1.2599999904632568,0.5299999713897705,-14.970000267028809,-0.0052490234375,0.0279541015625,0.98748779296875,33.849998474121094,0.0,-15.0,-0.122314453125,0.05279541015625,Waiting,0.0,0.0,0.0,0.0,0.0,0.0,0.0,0.0,
6.232449000000022,0.0,0.0,false,4632961.851613805,,59020.0,0.0,0.0,0.0,0.0,0.125,1.7626951320000002,0.0,0.0,-56397.0,0.0,0.0,-0.0,0.0,0.0,2.623290747,0.0,0.0,47011.0,0.0,0.0,0.0,0.0,0.0,4.0881343470000004,0.0,0.0,-46703.0,0.0,0.0,-0.0,0.0,0.0,2.525634507,0.0,0.0,1.2799999713897705,0.5299999713897705,-14.979999542236328,-0.002685546875,0.021240234375,1.0093994140625,33.849998474121094,0.0,-11.0,-0.12237548828125,0.05279541015625,Waiting,0.0,0.0,0.0,0.0,0.0,0.0,0.0,0.0,
6.367293999999994,0.0,0.0,false,4632943.542561738,,59020.0,0.0,0.0,0.0,0.0,0.125,1.7663572410000001,0.0,0.0,-56397.0,0.0,0.0,-0.0,0.0,0.125,2.733154017,0.0,0.0,47011.0,0.0,0.0,0.0,0.0,0.0,4.086913644,0.0,0.0,-46703.0,0.0,0.0,-0.0,0.0,0.0,2.5268552100000004,0.0,0.0,1.2599999904632568,0.5299999713897705,-14.979999542236328,0.00677490234375,0.0230712890625,0.9989013671875,33.84000015258789,0.0,-2.0,-0.12237548828125,0.05279541015625,Waiting,0.0,0.0,0.0,0.0,0.0,0.0,0.0,0.0,
6.491697000000044,0.0,0.0,false,4632919.47188264,,59020.0,0.0,0.0,0.0,0.0,0.125,1.7639158350000002,0.0,0.0,-56397.0,0.0,0.0,-0.0,0.0,0.0,2.7380368290000003,0.0,0.0,47011.0,0.0,0.0,0.0,0.0,0.0,4.0881343470000004,0.0,0.0,-46703.0,0.0,0.0,-0.0,0.0,0.0,2.525634507,0.0,0.0,1.2799999713897705,0.5299999713897705,-14.970000267028809,0.0050048828125,0.01824951171875,1.00054931640625,33.84000015258789,0.0,-3.0,-0.12237548828125,0.05279541015625,Waiting,0.0,0.0,0.0,0.0,0.0,0.0,0.0,0.0,
6.614555999999983,0.0,0.0,false,4632888.253152178,,59020.0,0.0,0.0,0.0,0.0,0.125,1.7626951320000002,0.0,0.0,-56397.0,0.0,0.0,-0.0,0.0,0.0,2.7429196410000003,0.0,0.0,47011.0,0.0,0.0,0.0,0.0,0.0,4.086913644,0.0,0.0,-46703.0,0.0,0.0,-0.0,0.0,0.0,2.525634507,0.0,0.0,1.2599999904632568,0.5400000214576721,-14.979999542236328,0.01141357421875,0.02496337890625,0.9908447265625,33.84000015258789,0.0,1.0,-0.12237548828125,0.05279541015625,Waiting,0.0,0.0,0.0,0.0,0.0,0.0,0.0,0.0,
6.7336650000000375,0.0,0.0,false,4632849.887119307,,59020.0,0.0,0.0,0.0,0.0,0.125,1.7639158350000002,0.0,0.0,-56397.0,0.0,0.0,-0.0,0.0,0.0,2.728271205,0.0,0.0,47011.0,0.0,0.0,0.0,0.0,0.0,4.086913644,0.0,0.0,-46703.0,0.0,0.0,-0.0,0.0,0.0,2.525634507,0.0,0.0,1.2799999713897705,0.5299999713897705,-14.979999542236328,0.01190185546875,0.0201416015625,0.9949951171875,33.84000015258789,0.0,3.0,-0.12237548828125,0.05279541015625,Waiting,0.0,0.0,0.0,0.0,0.0,0.0,0.0,0.0,
6.856057999999961,0.0,0.0,false,4632805.832989907,,59020.0,0.0,0.0,0.0,0.0,0.125,1.7626951320000002,0.0,0.0,-56397.0,0.0,0.0,-0.0,0.0,0.0,2.6940915210000003,0.0,0.0,47011.0,0.0,0.0,0.0,0.0,0.0,4.086913644,0.0,0.0,-46703.0,0.0,0.0,-0.0,0.0,0.0,2.5268552100000004,0.0,0.0,1.2699999809265137,0.5400000214576721,-14.979999542236328,0.01129150390625,0.02471923828125,0.998291015625,33.84000015258789,0.0,1.0,-0.12237548828125,0.05279541015625,Waiting,0.0,0.0,0.0,0.0,0.0,0.0,0.0,0.0,
6.987241000000038,0.0,0.0,false,4632823.33310051,,59020.0,0.0,0.0,0.0,0.0,0.125,1.7626951320000002,0.0,0.0,-56397.0,0.0,0.0,-0.0,0.0,0.0,2.6855466000000003,0.0,0.0,47011.0,0.0,0.0,0.0,0.0,0.0,4.086913644,0.0,0.0,-46703.0,0.0,0.0,-0.0,0.0,0.0,2.525634507,0.0,0.0,1.2799999713897705,0.5299999713897705,-14.979999542236328,0.01019287109375,0.02154541015625,0.99951171875,33.84000015258789,0.0,1.0,-0.12237548828125,0.05279541015625,Waiting,0.0,0.0,0.0,0.0,0.0,0.0,0.0,0.0,
7.112081000000005,0.0,0.0,false,4632833.72627903,,59020.0,0.0,0.0,0.0,0.0,0.125,1.7626951320000002,0.0,0.0,-56397.0,0.0,0.0,-0.0,0.0,0.0,2.6855466000000003,0.0,0.0,47011.0,0.0,0.0,0.0,0.0,0.0,4.0881343470000004,0.0,0.0,-46703.0,0.0,0.0,-0.0,0.0,0.0,2.525634507,0.0,0.0,1.2699999809265137,0.5400000214576721,-14.979999542236328,0.0062255859375,0.0338134765625,1.01470947265625,33.84000015258789,0.0,-6.0,-0.12237548828125,0.052703857421875,Waiting,0.0,0.0,0.0,0.0,0.0,0.0,0.0,0.0,
7.2342299999999815,0.0,0.0,false,4632838.466545607,,59020.0,0.0,0.0,0.0,0.0,0.125,1.7626951320000002,0.0,0.0,-56397.0,0.0,0.0,-0.0,0.0,0.0,2.6855466000000003,0.0,0.0,47011.0,0.0,0.0,0.0,0.0,0.0,4.086913644,0.0,0.0,-46703.0,0.0,0.0,-0.0,0.0,0.0,2.525634507,0.0,0.0,1.2699999809265137,0.5299999713897705,-14.979999542236328,0.00372314453125,0.01812744140625,1.001953125,33.84000015258789,0.0,-4.0,-0.12237548828125,0.052703857421875,Waiting,0.0,0.0,0.0,0.0,0.0,0.0,0.0,0.0,
7.354407000000006,0.0,0.0,false,4632837.474316443,,59020.0,0.0,0.0,0.0,0.0,0.125,1.7626951320000002,0.0,0.0,-56397.0,0.0,0.0,-0.0,0.0,0.0,2.6855466000000003,0.0,0.0,47011.0,0.0,0.0,0.0,0.0,0.0,4.086913644,0.0,0.0,-46703.0,0.0,0.0,-0.0,0.0,0.0,2.525634507,0.0,0.0,1.2400000095367432,0.550000011920929,-14.949999809265137,0.01165771484375,0.04107666015625,1.0262451171875,33.84000015258789,0.0,-3.0,-0.12237548828125,0.0525665283203125,Waiting,0.0,0.0,0.0,0.0,0.0,0.0,0.0,0.0,
7.477603000000003,0.0,0.0,false,4632829.381660731,,59020.0,0.0,0.0,0.0,0.0,0.125,1.7626951320000002,0.0,0.0,-56397.0,0.0,0.0,-0.0,0.0,0.0,2.6855466000000003,0.0,0.0,47011.0,0.0,0.0,0.0,0.0,0.0,4.0881343470000004,0.0,0.0,-46703.0,0.0,0.0,-0.0,0.0,0.0,2.5268552100000004,0.0,0.0,1.2799999713897705,0.5,-14.949999809265137,-0.00787353515625,0.0177001953125,0.99871826171875,33.84000015258789,0.0,-14.0,-0.1225128173828125,0.052734375,Waiting,0.0,0.0,0.0,0.0,0.0,0.0,0.0,0.0,
7.609694999999949,0.0,0.0,false,4632815.633786096,,59020.0,0.0,0.0,0.0,0.0,0.125,1.7626951320000002,0.0,0.0,-56397.0,0.0,0.0,-0.0,0.0,0.0,2.652587619,0.0,0.0,47011.0,0.0,0.0,0.0,0.0,0.0,4.0856929410000005,0.0,0.0,-46703.0,0.0,0.0,-0.0,0.0,0.0,2.525634507,0.0,0.0,1.2699999809265137,0.5400000214576721,-14.970000267028809,0.00714111328125,0.0257568359375,1.01202392578125,33.84000015258789,0.0,-6.0,-0.122406005859375,0.052734375,Waiting,0.0,0.0,0.0,0.0,0.0,0.0,0.0,0.0,
7.732300000000047,0.0,0.0,false,4632794.786871509,,59020.0,0.0,0.0,0.0,0.0,0.125,1.7626951320000002,0.0,0.0,-56397.0,0.0,0.0,-0.0,0.0,0.0,2.5854489540000003,0.0,0.0,47011.0,0.0,0.0,0.0,0.0,0.0,4.0881343470000004,0.0,0.0,-46703.0,0.0,0.0,-0.0,0.0,0.0,2.525634507,0.0,0.0,1.2699999809265137,0.5099999904632568,-14.970000267028809,0.0108642578125,0.0123291015625,0.9769287109375,33.84000015258789,0.0,4.0,-0.122406005859375,0.052734375,Waiting,0.0,0.0,0.0,0.0,0.0,0.0,0.0,0.0,
7.855011999999988,0.0,0.0,false,4632766.841660556,,59020.0,0.0,0.0,0.0,0.0,0.125,1.7639158350000002,0.0,0.0,-56397.0,0.0,0.0,-0.0,0.0,0.0,2.6330563710000003,0.0,0.0,47011.0,0.0,0.0,0.0,0.0,0.0,4.086913644,0.0,0.0,-46703.0,0.0,0.0,-0.0,0.0,0.0,2.5268552100000004,0.0,0.0,1.2599999904632568,0.5299999713897705,-14.970000267028809,0.01116943359375,0.02154541015625,0.99017333984375,33.849998474121094,0.0,1.0,-0.122406005859375,0.052734375,Waiting,0.0,0.0,0.0,0.0,0.0,0.0,0.0,0.0,
7.975912000000011,0.0,0.0,false,4632733.175895538,,59020.0,0.0,0.0,0.0,0.0,0.125,1.7639158350000002,0.0,0.0,-56397.0,0.0,0.0,-0.0,0.0,0.0,2.6855466000000003,0.0,0.0,47011.0,0.0,0.0,0.0,0.0,0.0,4.086913644,0.0,0.0,-46703.0,0.0,0.0,-0.0,0.0,0.0,2.525634507,0.0,0.0,1.2799999713897705,0.5199999809265137,-14.960000038146973,0.01031494140625,0.02447509765625,0.9952392578125,33.849998474121094,0.0,0.0,-0.122406005859375,0.052734375,Waiting,0.0,0.0,0.0,0.0,0.0,0.0,0.0,0.0,
8.096542999999947,0.0,0.0,false,4632692.484725762,,59020.0,0.0,0.0,0.0,0.0,0.125,1.7626951320000002,0.0,0.0,-56397.0,0.0,0.0,-0.0,0.0,0.0,2.6904294120000003,0.0,0.0,47011.0,0.0,0.0,0.0,0.0,0.0,4.08935505,0.0,0.0,-46703.0,0.0,0.0,-0.0,0.0,0.0,2.525634507,0.0,0.0,1.2699999809265137,0.5199999809265137,-14.960000038146973,0.0078125,0.0225830078125,1.004638671875,33.849998474121094,0.0,-1.0,-0.122406005859375,0.052734375,Waiting,0.0,0.0,0.0,0.0,0.0,0.0,0.0,0.0,
8.23020299999998,0.0,0.0,false,4632646.0742913,,59020.0,0.0,0.0,0.0,0.0,0.125,1.7626951320000002,0.0,0.0,-56397.0,0.0,0.0,-0.0,0.0,0.0,2.6904294120000003,0.0,0.0,47011.0,0.0,0.0,0.0,0.0,0.0,4.086913644,0.0,0.0,-46703.0,0.0,0.0,-0.0,0.0,0.0,2.5268552100000004,0.0,0.0,1.2799999713897705,0.5199999809265137,-14.960000038146973,0.00616455078125,0.0257568359375,0.9989013671875,33.849998474121094,0.0,-3.0,-0.122406005859375,0.052734375,Waiting,0.0,0.0,0.0,0.0,0.0,0.0,0.0,0.0,
8.360535000000032,0.0,0.0,false,4632662.058439518,,59020.0,0.0,0.0,0.0,0.0,0.125,1.7639158350000002,0.0,0.0,-56397.0,0.0,0.0,-0.0,0.0,0.0,2.6904294120000003,0.0,0.0,47011.0,0.0,0.0,0.0,0.0,0.0,4.0881343470000004,0.0,0.0,-46703.0,0.0,0.0,-0.0,0.0,0.0,2.525634507,0.0,0.0,1.2699999809265137,0.5299999713897705,-14.949999809265137,0.009765625,0.02020263671875,1.0028076171875,33.849998474121094,0.0,0.0,-0.122406005859375,0.052734375,Waiting,0.0,0.0,0.0,0.0,0.0,0.0,0.0,0.0,
8.484638999999966,0.0,0.0,false,4632670.962507854,,59020.0,0.0,0.0,0.0,0.0,0.125,1.7626951320000002,0.0,0.0,-56397.0,0.0,0.0,-0.0,0.0,0.0,2.6904294120000003,0.0,0.0,47011.0,0.0,0.0,0.0,0.0,0.0,4.0881343470000004,0.0,0.0,-46703.0,0.0,0.0,-0.0,0.0,0.0,2.525634507,0.0,0.0,1.2799999713897705,0.5099999904632568,-14.949999809265137,0.00775146484375,0.02691650390625,1.00006103515625,33.849998474121094,0.0,-2.0,-0.122406005859375,0.052734375,Waiting,0.0,0.0,0.0,0.0,0.0,0.0,0.0,0.0,
8.611173999999998,0.0,0.0,false,4632674.102279471,,59020.0,0.0,0.0,0.0,0.0,0.125,1.7639158350000002,0.0,0.0,-56397.0,0.0,0.0,-0.0,0.0,0.0,2.6904294120000003,0.0,0.0,47011.0,0.0,0.0,0.0,0.0,0.0,4.0881343470000004,0.0,0.0,-46703.0,0.0,0.0,-0.0,0.0,0.0,2.525634507,0.0,0.0,1.2699999809265137,0.5099999904632568,-14.949999809265137,0.01043701171875,0.02178955078125,0.9920654296875,33.849998474121094,0.0,1.0,-0.122406005859375,0.052734375,Waiting,0.0,0.0,0.0,0.0,0.0,0.0,0.0,0.0,
8.730878000000025,0.0,0.0,false,4632670.037978218,,59020.0,0.0,0.0,0.0,0.0,0.125,1.7639158350000002,0.0,0.0,-56397.0,0.0,0.0,-0.0,0.0,0.0,2.8015133850000002,0.0,0.0,47011.0,0.0,0.0,0.0,0.0,0.0,4.0856929410000005,0.0,0.0,-46703.0,0.0,0.0,-0.0,0.0,0.0,2.525634507,0.0,0.0,1.2699999809265137,0.5199999809265137,-14.960000038146973,0.0040283203125,0.01849365234375,0.99444580078125,33.849998474121094,0.0,-3.0,-0.122406005859375,0.052734375,Waiting,0.0,0.0,0.0,0.0,0.0,0.0,0.0,0.0,
8.854822999999975,0.0,0.0,false,4632660.286362526,,59020.0,0.0,0.0,0.0,0.0,0.125,1.7639158350000002,0.0,0.0,-56397.0,0.0,0.0,-0.0,0.0,0.0,2.752685265,0.0,0.0,47011.0,0.0,0.0,0.0,0.0,0.0,4.0881343470000004,0.0,0.0,-46703.0,0.0,0.0,-0.0,0.0,0.0,2.525634507,0.0,0.0,1.2699999809265137,0.5099999904632568,-14.960000038146973,0.00823974609375,0.01776123046875,1.00579833984375,33.849998474121094,0.0,0.0,-0.122406005859375,0.052734375,Waiting,0.0,0.0,0.0,0.0,0.0,0.0,0.0,0.0,
8.98147100000002,0.0,0.0,false,4632643.3904363,,59020.0,0.0,0.0,0.0,0.0,0.125,1.7626951320000002,0.0,0.0,-56397.0,0.0,0.0,-0.0,0.0,0.0,2.675780976,0.0,0.0,47011.0,0.0,0.0,0.0,0.0,0.0,4.086913644,0.0,0.0,-46703.0,0.0,0.0,-0.0,0.0,0.0,2.525634507,0.0,0.0,1.2699999809265137,0.5199999809265137,-14.960000038146973,0.01025390625,0.01983642578125,0.9925537109375,33.849998474121094,0.0,1.0,-0.122406005859375,0.052734375,Waiting,0.0,0.0,0.0,0.0,0.0,0.0,0.0,0.0,
9.097123000000021,0.0,0.0,false,4632620.80848836,,59020.0,0.0,0.0,0.0,0.0,0.125,1.7626951320000002,0.0,0.0,-56397.0,0.0,0.0,-0.0,0.0,0.0,2.657470431,0.0,0.0,47011.0,0.0,0.0,0.0,0.0,0.0,4.086913644,0.0,0.0,-46703.0,0.0,0.0,-0.0,0.0,0.0,2.5268552100000004,0.0,0.0,1.2699999809265137,0.5199999809265137,-14.970000267028809,0.008056640625,0.01885986328125,0.99945068359375,33.849998474121094,0.0,0.0,-0.122406005859375,0.052734375,Waiting,0.0,0.0,0.0,0.0,0.0,0.0,0.0,0.0,
9.218697999999975,0.0,0.0,false,4632592.469635627,,59020.0,0.0,0.0,0.0,0.0,0.125,1.7626951320000002,0.0,0.0,-56397.0,0.0,0.0,-0.0,0.0,0.0,2.656249728,0.0,0.0,47011.0,0.0,0.0,0.0,0.0,0.0,4.0881343470000004,0.0,0.0,-46703.0,0.0,0.0,-0.0,0.0,0.0,2.525634507,0.0,0.0,1.2699999809265137,0.5099999904632568,-14.970000267028809,0.011474609375,0.02423095703125,0.99359130859375,33.849998474121094,0.0,1.0,-0.122406005859375,0.052734375,Waiting,0.0,0.0,0.0,0.0,0.0,0.0,0.0,0.0,
9.346550999999979,0.0,0.0,false,4632556.988517782,,59020.0,0.0,0.0,0.0,0.0,0.125,1.7626951320000002,0.0,0.0,-56397.0,0.0,0.0,-0.0,0.0,0.0,2.657470431,0.0,0.0,47011.0,0.0,0.0,0.0,0.0,0.0,4.086913644,0.0,0.0,-46703.0,0.0,0.0,-0.0,0.0,0.0,2.525634507,0.0,0.0,1.2699999809265137,0.5199999809265137,-14.970000267028809,0.01025390625,0.021484375,1.00323486328125,33.849998474121094,0.0,1.0,-0.122406005859375,0.052734375,Waiting,0.0,0.0,0.0,0.0,0.0,0.0,0.0,0.0,
9.471978000000004,0.0,0.0,false,4632515.751797305,,59020.0,0.0,0.0,0.0,0.0,0.125,1.7639158350000002,0.0,0.0,-56397.0,0.0,0.0,-0.0,0.0,0.0,2.657470431,0.0,0.0,47011.0,0.0,0.0,0.0,0.0,0.0,4.0856929410000005,0.0,0.0,-46703.0,0.0,0.0,-0.0,0.0,0.0,2.5268552100000004,0.0,0.0,1.2699999809265137,0.5199999809265137,-14.970000267028809,0.00762939453125,0.0235595703125,0.99603271484375,33.880001068115234,0.0,-1.0,-0.122406005859375,0.052734375,Waiting,0.0,0.0,0.0,0.0,0.0,0.0,0.0,0.0,
9.595562000000035,0.0,0.0,false,4632536.360704938,,59020.0,0.0,0.0,0.0,0.0,0.125,1.7639158350000002,0.0,0.0,-56397.0,0.0,0.0,-0.0,0.0,0.0,2.656249728,0.0,0.0,47011.0,0.0,0.0,0.0,0.0,0.0,4.0881343470000004,0.0,0.0,-46703.0,0.0,0.0,-0.0,0.0,0.0,2.525634507,0.0,0.0,1.2699999809265137,0.5199999809265137,-14.970000267028809,0.01025390625,0.02154541015625,0.9993896484375,33.880001068115234,0.0,1.0,-0.122406005859375,0.052734375,Waiting,0.0,0.0,0.0,0.0,0.0,0.0,0.0,0.0,
9.730349999999977,0.0,0.0,false,4632551.0351758795,,59020.0,0.0,0.0,0.0,0.0,0.125,1.7626951320000002,0.0,0.0,-56397.0,0.0,0.0,-0.0,0.0,0.0,2.656249728,0.0,0.0,47011.0,0.0,0.0,0.0,0.0,0.0,4.086913644,0.0,0.0,-46703.0,0.0,0.0,-0.0,0.0,0.0,2.525634507,0.0,0.0,1.2699999809265137,0.5199999809265137,-14.979999542236328,0.00897216796875,0.019775390625,0.99334716796875,33.880001068115234,0.0,0.0,-0.122406005859375,0.052734375,Waiting,0.0,0.0,0.0,0.0,0.0,0.0,0.0,0.0,
9.86696100000001,0.0,0.0,false,4632558.609763757,,59020.0,0.0,0.0,0.0,0.0,0.125,1.7626951320000002,0.0,0.0,-56397.0,0.0,0.0,-0.0,0.0,0.0,2.657470431,0.0,0.0,47011.0,0.0,0.0,0.0,0.0,0.0,4.0881343470000004,0.0,0.0,-46703.0,0.0,0.0,-0.0,0.0,0.0,2.5268552100000004,0.0,0.0,1.2699999809265137,0.5299999713897705,-14.979999542236328,0.0108642578125,0.02178955078125,0.998779296875,33.81999969482422,0.0,1.0,-0.122406005859375,0.052734375,Waiting,0.0,0.0,0.0,0.0,0.0,0.0,0.0,0.0,
10.013167999999947,0.0,0.0,false,4632559.0854909625,,59020.0,0.0,0.0,0.0,0.0,0.125,1.7626951320000002,0.0,0.0,-56397.0,0.0,0.0,-0.0,0.0,0.0,2.656249728,0.0,0.0,47011.0,0.0,0.0,0.0,0.0,0.0,4.0881343470000004,0.0,0.0,-46703.0,0.0,0.0,-0.0,0.0,0.0,2.525634507,0.0,0.0,1.2599999904632568,0.5400000214576721,-14.979999542236328,0.0120849609375,0.02001953125,0.99835205078125,33.81999969482422,0.0,3.0,-0.122406005859375,0.052734375,Waiting,0.0,0.0,0.0,0.0,0.0,0.0,0.0,0.0,
10.155439999999944,0.0,0.0,false,4632553.83872431,,59020.0,0.0,0.0,0.0,0.0,0.125,1.7626951320000002,0.0,0.0,-56397.0,0.0,0.0,-0.0,0.0,0.0,2.657470431,0.0,0.0,47011.0,0.0,0.0,0.0,0.0,0.0,4.086913644,0.0,0.0,-46703.0,0.0,0.0,-0.0,0.0,0.0,2.525634507,0.0,0.0,1.2599999904632568,0.5400000214576721,-14.979999542236328,0.005859375,0.02362060546875,0.99554443359375,33.81999969482422,0.0,-3.0,-0.122406005859375,0.052734375,Waiting,0.0,0.0,0.0,0.0,0.0,0.0,0.0,0.0,
10.302819000000017,0.0,0.0,false,4632542.798883461,,59020.0,0.0,0.0,0.0,0.0,0.125,1.7626951320000002,0.0,0.0,-56397.0,0.0,0.0,-0.0,0.0,0.0,2.657470431,0.0,0.0,47011.0,0.0,0.0,0.0,0.0,0.0,4.086913644,0.0,0.0,-46703.0,0.0,0.0,-0.0,0.0,0.0,2.525634507,0.0,0.0,1.2599999904632568,0.5400000214576721,-14.970000267028809,0.009765625,0.01934814453125,1.00238037109375,33.81999969482422,0.0,0.0,-0.122406005859375,0.052734375,Waiting,0.0,0.0,0.0,0.0,0.0,0.0,0.0,0.0,
10.440454000000027,0.0,0.0,false,4632524.666410802,,59020.0,0.0,0.0,0.0,0.0,0.125,1.7626951320000002,0.0,0.0,-56397.0,0.0,0.0,-0.0,0.0,0.0,2.675780976,0.0,0.0,47011.0,0.0,0.0,0.0,0.0,0.0,4.0881343470000004,0.0,0.0,-46703.0,0.0,0.0,-0.0,0.0,0.0,2.5268552100000004,0.0,0.0,1.2699999809265137,0.5400000214576721,-14.979999542236328,0.0096435546875,0.0194091796875,0.999267578125,33.86000061035156,0.0,0.0,-0.122406005859375,0.052734375,Waiting,0.0,0.0,0.0,0.0,0.0,0.0,0.0,0.0,
10.576314999999944,0.0,0.0,false,4632500.81780755,,59020.0,0.0,0.0,0.0,0.0,0.125,1.7626951320000002,0.0,0.0,-56397.0,0.0,0.0,-0.0,0.0,0.0,2.714843472,0.0,0.0,47011.0,0.0,0.0,0.0,0.0,0.0,4.0881343470000004,0.0,0.0,-46703.0,0.0,0.0,-0.0,0.0,0.0,2.525634507,0.0,0.0,1.2599999904632568,0.550000011920929,-14.979999542236328,0.020751953125,0.01934814453125,0.99566650390625,33.86000061035156,0.0,11.0,-0.1223297119140625,0.052734375,Waiting,0.0,0.0,0.0,0.0,0.0,0.0,0.0,0.0,
10.71439300000004,0.0,0.0,false,4632469.877961135,,59020.0,0.0,0.0,0.0,0.0,0.125,1.7626951320000002,0.0,0.0,-56397.0,0.0,0.0,-0.0,0.0,0.0,2.766112998,0.0,0.0,47011.0,0.0,0.0,0.0,0.0,0.0,4.086913644,0.0,0.0,-46703.0,0.0,0.0,-0.0,0.0,0.0,2.525634507,0.0,0.0,1.2699999809265137,0.5400000214576721,-14.979999542236328,0.008056640625,0.03118896484375,1.00128173828125,33.86000061035156,0.0,-3.0,-0.1223297119140625,0.052734375,Waiting,0.0,0.0,0.0,0.0,0.0,0.0,0.0,0.0,
10.861645999999949,0.0,0.0,false,4632433.2232765835,,59020.0,0.0,0.0,0.0,0.0,0.125,1.7639158350000002,0.0,0.0,-56397.0,0.0,0.0,-0.0,0.0,0.0,2.757568077,0.0,0.0,47011.0,0.0,0.0,0.0,0.0,0.0,4.0881343470000004,0.0,0.0,-46703.0,0.0,0.0,-0.0,0.0,0.0,2.5268552100000004,0.0,0.0,1.2699999809265137,0.550000011920929,-14.970000267028809,0.006591796875,0.0218505859375,0.99749755859375,33.86000061035156,0.0,-2.0,-0.1223297119140625,0.052734375,Waiting,0.0,0.0,0.0,0.0,0.0,0.0,0.0,0.0,
10.996459000000032,0.0,0.0,false,4632389.478737135,,59020.0,0.0,0.0,0.0,0.0,0.125,1.7639158350000002,0.0,0.0,-56397.0,0.0,0.0,-0.0,0.0,0.0,2.6989743330000002,0.0,0.0,47011.0,0.0,0.0,0.0,0.0,0.0,4.086913644,0.0,0.0,-46703.0,0.0,0.0,-0.0,0.0,0.0,2.525634507,0.0,0.0,1.2699999809265137,0.550000011920929,-14.970000267028809,0.014404296875,0.02593994140625,0.99932861328125,33.849998474121094,0.0,3.0,-0.1223297119140625,0.052734375,Waiting,0.0,0.0,0.0,0.0,0.0,0.0,0.0,0.0,
11.141640000000013,0.0,0.0,false,4632406.871973767,,59020.0,0.0,0.0,0.0,0.0,0.125,1.7639158350000002,0.0,0.0,-56397.0,0.0,0.0,-0.0,0.0,0.0,2.666015352,0.0,0.0,47011.0,0.0,0.0,0.0,0.0,0.0,4.086913644,0.0,0.0,-46703.0,0.0,0.0,-0.0,0.0,0.0,2.5317380220000003,0.0,0.0,1.2699999809265137,0.5400000214576721,-14.960000038146973,0.00537109375,0.0196533203125,1.00262451171875,33.849998474121094,0.0,-3.0,-0.1223297119140625,0.052734375,Waiting,0.0,0.0,0.0,0.0,0.0,0.0,0.0,0.0,
11.275849999999977,0.0,0.0,false,4632417.21338124,,59020.0,0.0,0.0,0.0,0.0,0.125,1.7639158350000002,0.0,0.0,-56397.0,0.0,0.0,-0.0,0.0,0.0,2.666015352,0.0,0.0,47011.0,0.0,0.0,0.0,0.0,0.0,4.086913644,0.0,0.0,-46703.0,0.0,0.0,-0.0,0.0,0.0,2.525634507,0.0,0.0,1.2799999713897705,0.550000011920929,-14.960000038146973,0.0081787109375,0.02081298828125,0.9976806640625,33.849998474121094,0.0,-1.0,-0.1223297119140625,0.052734375,Waiting,0.0,0.0,0.0,0.0,0.0,0.0,0.0,0.0,
11.425241999999969,0.0,0.0,false,4632421.871354821,,59020.0,0.0,0.0,0.0,0.0,0.125,1.7626951320000002,0.0,0.0,-56397.0,0.0,0.0,-0.0,0.0,0.0,2.667236055,0.0,0.0,47011.0,0.0,0.0,0.0,0.0,0.0,4.0881343470000004,0.0,0.0,-46703.0,0.0,0.0,-0.0,0.0,0.0,2.5268552100000004,0.0,0.0,1.2699999809265137,0.5400000214576721,-14.949999809265137,0.0072021484375,0.02191162109375,0.99774169921875,33.849998474121094,0.0,-2.0,-0.1223297119140625,0.052734375,Waiting,0.0,0.0,0.0,0.0,0.0,0.0,0.0,0.0,
11.556695999999997,0.0,0.0,false,4632419.480832956,,59020.0,0.0,0.0,0.0,0.0,0.125,1.7626951320000002,0.0,0.0,-56397.0,0.0,0.0,-0.0,0.0,0.0,2.667236055,0.0,0.0,47011.0,0.0,0.0,0.0,0.0,0.0,4.086913644,0.0,0.0,-46703.0,0.0,0.0,-0.0,0.0,0.0,2.525634507,0.0,0.0,1.2699999809265137,0.5400000214576721,-14.949999809265137,0.01025390625,0.022705078125,0.999755859375,33.849998474121094,0.0,0.0,-0.1223297119140625,0.052734375,Waiting,0.0,0.0,0.0,0.0,0.0,0.0,0.0,0.0,
11.688961999999941,0.0,0.0,false,4632411.412626439,,59020.0,0.0,0.0,0.0,0.0,0.125,1.7626951320000002,0.0,0.0,-56397.0,0.0,0.0,-0.0,0.0,0.0,2.521972398,0.0,0.0,47011.0,0.0,0.0,0.0,0.0,0.0,4.0856929410000005,0.0,0.0,-46703.0,0.0,0.0,-0.0,0.0,0.0,2.5305173190000003,0.0,0.0,1.2699999809265137,0.5299999713897705,-14.949999809265137,0.03948974609375,0.00250244140625,1.0172119140625,33.849998474121094,0.0,34.0,-0.122314453125,0.052734375,Waiting,0.0,0.0,0.0,0.0,0.0,0.0,0.0,0.0,
11.81097100000002,0.0,0.0,false,4632396.301489309,,59020.0,0.0,0.0,0.0,0.0,0.125,1.7639158350000002,0.0,0.0,-56397.0,0.0,0.0,-0.0,0.0,0.125,2.5805661420000003,0.0,0.0,47011.0,0.0,0.0,0.0,0.0,0.0,4.0881343470000004,0.0,0.0,-46703.0,0.0,0.0,-0.0,0.0,0.0,2.525634507,0.0,0.0,1.2699999809265137,0.5299999713897705,-14.9399995803833,0.00811767578125,0.01446533203125,1.00347900390625,33.849998474121094,0.0,0.0,-0.1222381591796875,0.052734375,Waiting,0.0,0.0,0.0,0.0,0.0,0.0,0.0,0.0,
11.93540399999998,0.0,0.0,false,4632375.513950893,,59020.0,0.0,0.0,0.0,0.0,0.125,1.7639158350000002,0.0,0.0,-56397.0,0.0,0.0,-0.0,0.0,0.0,2.6953122240000003,0.0,0.0,47011.0,0.0,0.0,0.0,0.0,0.0,4.086913644,0.0,0.0,-46703.0,0.0,0.0,-0.0,0.0,0.0,2.525634507,0.0,0.0,1.2699999809265137,0.5400000214576721,-14.949999809265137,0.0166015625,0.02069091796875,0.99627685546875,33.849998474121094,0.0,7.0,-0.1222381591796875,0.052734375,Waiting,0.0,0.0,0.0,0.0,0.0,0.0,0.0,0.0,
12.056763999999966,0.0,0.0,false,4632347.756286402,,59020.0,0.0,0.0,0.0,0.0,0.125,1.7639158350000002,0.0,0.0,-56397.0,0.0,0.0,-0.0,0.0,0.0,2.729491908,0.0,0.0,47011.0,0.0,0.0,0.0,0.0,0.0,4.086913644,0.0,0.0,-46703.0,0.0,0.0,-0.0,0.0,0.0,2.525634507,0.0,0.0,1.2599999904632568,0.5299999713897705,-14.949999809265137,0.0052490234375,0.02142333984375,1.0040283203125,33.849998474121094,0.0,-3.0,-0.1222381591796875,0.052734375,Waiting,0.0,0.0,0.0,0.0,0.0,0.0,0.0,0.0,
12.186025000000024,0.0,0.0,false,4632314.32349864,,59020.0,0.0,0.0,0.0,0.0,0.125,1.7639158350000002,0.0,0.0,-56397.0,0.0,0.0,-0.0,0.0,0.0,2.729491908,0.0,0.0,47011.0,0.0,0.0,0.0,0.0,0.0,4.086913644,0.0,0.0,-46703.0,0.0,0.0,-0.0,0.0,0.0,2.5268552100000004,0.0,0.0,1.2699999809265137,0.5400000214576721,-14.949999809265137,0.0133056640625,0.0169677734375,1.002197265625,33.849998474121094,0.0,5.0,-0.1222381591796875,0.052734375,Waiting,0.0,0.0,0.0,0.0,0.0,0.0,0.0,0.0,
12.309618999999948,0.0,0.0,false,4632273.850531822,,59020.0,0.0,0.0,0.0,0.0,0.125,1.7639158350000002,0.0,0.0,-56397.0,0.0,0.0,-0.0,0.0,0.0,2.729491908,0.0,0.0,47011.0,0.0,0.0,0.0,0.0,0.0,4.086913644,0.0,0.0,-46703.0,0.0,0.0,-0.0,0.0,0.0,2.525634507,0.0,0.0,1.2699999809265137,0.5299999713897705,-14.949999809265137,0.00653076171875,0.0203857421875,0.992919921875,33.849998474121094,0.0,-2.0,-0.1222381591796875,0.052734375,Waiting,0.0,0.0,0.0,0.0,0.0,0.0,0.0,0.0,
12.434380000000004,0.0,0.0,false,4632227.7037243685,,59020.0,0.0,0.0,0.0,0.0,0.125,1.7639158350000002,0.0,0.0,-56397.0,0.0,0.0,-0.0,0.0,0.0,2.729491908,0.0,0.0,47011.0,0.0,0.0,0.0,0.0,0.0,4.086913644,0.0,0.0,-46703.0,0.0,0.0,-0.0,0.0,0.0,2.525634507,0.0,0.0,1.2699999809265137,0.5299999713897705,-14.949999809265137,0.011962890625,0.023681640625,0.99664306640625,33.84000015258789,0.0,2.0,-0.1222381591796875,0.052734375,Waiting,0.0,0.0,0.0,0.0,0.0,0.0,0.0,0.0,
12.557280999999959,0.0,0.0,false,4632243.737071521,,59020.0,0.0,0.0,0.0,0.0,0.125,1.7626951320000002,0.0,0.0,-56397.0,0.0,0.0,-0.0,0.0,0.0,2.713622769,0.0,0.0,47011.0,0.0,0.0,0.0,0.0,0.0,4.086913644,0.0,0.0,-46703.0,0.0,0.0,-0.0,0.0,0.0,2.525634507,0.0,0.0,1.2699999809265137,0.5199999809265137,-14.949999809265137,0.00396728515625,0.0240478515625,0.99810791015625,33.84000015258789,0.0,-5.0,-0.1222381591796875,0.052734375,Waiting,0.0,0.0,0.0,0.0,0.0,0.0,0.0,0.0,
12.680229999999982,0.0,0.0,false,4632252.675639863,,59020.0,0.0,0.0,0.0,0.0,0.125,1.7639158350000002,0.0,0.0,-56397.0,0.0,0.0,-0.0,0.0,0.0,2.667236055,0.0,0.0,47011.0,0.0,0.0,0.0,0.0,0.0,4.0881343470000004,0.0,0.0,-46703.0,0.0,0.0,-0.0,0.0,0.0,2.5268552100000004,0.0,0.0,1.2699999809265137,0.5299999713897705,-14.949999809265137,0.0068359375,0.01971435546875,1.00042724609375,33.84000015258789,0.0,-1.0,-0.1222381591796875,0.052734375,Waiting,0.0,0.0,0.0,0.0,0.0,0.0,0.0,0.0,
12.796849000000046,0.0,0.0,false,4632255.895393842,,59020.0,0.0,0.0,0.0,0.0,0.125,1.7626951320000002,0.0,0.0,-56397.0,0.0,0.0,-0.0,0.0,0.0,2.667236055,0.0,0.0,47011.0,0.0,0.0,0.0,0.0,0.0,4.086913644,0.0,0.0,-46703.0,0.0,0.0,-0.0,0.0,0.0,2.525634507,0.0,0.0,1.2699999809265137,0.5199999809265137,-14.949999809265137,0.00714111328125,0.02325439453125,0.99761962890625,33.84000015258789,0.0,-2.0,-0.1222381591796875,0.052734375,Waiting,0.0,0.0,0.0,0.0,0.0,0.0,0.0,0.0,
12.928400999999955,0.0,0.0,false,4632252.0931659695,,59020.0,0.0,0.0,0.0,0.0,0.125,1.7639158350000002,0.0,0.0,-56397.0,0.0,0.0,-0.0,0.0,0.0,2.666015352,0.0,0.0,47011.0,0.0,0.0,0.0,0.0,0.0,4.086913644,0.0,0.0,-46703.0,0.0,0.0,-0.0,0.0,0.0,2.525634507,0.0,0.0,1.2699999809265137,0.5299999713897705,-14.949999809265137,0.00830078125,0.02166748046875,0.99658203125,33.849998474121094,0.0,0.0,-0.1222381591796875,0.052734375,Waiting,0.0,0.0,0.0,0.0,0.0,0.0,0.0,0.0,
13.054537999999942,0.0,0.0,false,4632242.577594924,,59020.0,0.0,0.0,0.0,0.0,0.125,1.7639158350000002,0.0,0.0,-56397.0,0.0,0.0,-0.0,0.0,0.0,2.680663788,0.0,0.0,47011.0,0.0,0.0,0.0,0.0,0.0,4.086913644,0.0,0.0,-46703.0,0.0,0.0,-0.0,0.0,0.0,2.525634507,0.0,0.0,1.2699999809265137,0.5299999713897705,-14.960000038146973,0.01287841796875,0.0234375,1.0023193359375,33.849998474121094,0.0,3.0,-0.1222381591796875,0.052734375,Waiting,0.0,0.0,0.0,0.0,0.0,0.0,0.0,0.0,
13.188888000000036,0.0,0.0,false,4632225.974478767,,59020.0,0.0,0.0,0.0,0.0,0.125,1.7626951320000002,0.0,0.0,-56397.0,0.0,0.0,-0.0,0.0,0.0,2.7429196410000003,0.0,0.0,47011.0,0.0,0.0,0.0,0.0,0.0,4.086913644,0.0,0.0,-46703.0,0.0,0.0,-0.0,0.0,0.0,2.525634507,0.0,0.0,1.2699999809265137,0.5299999713897705,-14.970000267028809,0.00537109375,0.02154541015625,1.00115966796875,33.849998474121094,0.0,-3.0,-0.1222381591796875,0.052734375,Waiting,0.0,0.0,0.0,0.0,0.0,0.0,0.0,0.0,
13.31073999999999,0.0,0.0,false,4632203.659310393,,59020.0,0.0,0.0,0.0,0.0,0.125,1.7626951320000002,0.0,0.0,-56397.0,0.0,0.0,-0.0,0.0,0.0,2.7478024530000003,0.0,0.0,47011.0,0.0,0.0,0.0,0.0,0.0,4.0881343470000004,0.0,0.0,-46703.0,0.0,0.0,-0.0,0.0,0.0,2.525634507,0.0,0.0,1.2699999809265137,0.5299999713897705,-14.970000267028809,0.0113525390625,0.021484375,0.99786376953125,33.849998474121094,0.0,2.0,-0.1222381591796875,0.052734375,Waiting,0.0,0.0,0.0,0.0,0.0,0.0,0.0,0.0,
13.436172999999952,0.0,0.0,false,4632174.257983545,,59020.0,0.0,0.0,0.0,0.0,0.125,1.7626951320000002,0.0,0.0,-56397.0,0.0,0.0,-0.0,0.0,0.0,2.7478024530000003,0.0,0.0,47011.0,0.0,0.0,0.0,0.0,0.0,4.086913644,0.0,0.0,-46703.0,0.0,0.0,-0.0,0.0,0.0,2.525634507,0.0,0.0,1.2699999809265137,0.5299999713897705,-14.970000267028809,0.0108642578125,0.0205078125,1.00054931640625,33.849998474121094,0.0,1.0,-0.1222381591796875,0.052734375,Waiting,0.0,0.0,0.0,0.0,0.0,0.0,0.0,0.0,
13.556633999999962,0.0,0.0,false,4632139.217291268,,59020.0,0.0,0.0,0.0,0.0,0.125,1.7626951320000002,0.0,0.0,-56397.0,0.0,0.0,-0.0,0.0,0.0,2.70996066,0.0,0.0,47011.0,0.0,0.0,0.0,0.0,0.0,4.086913644,0.0,0.0,-46703.0,0.0,0.0,-0.0,0.0,0.0,2.5268552100000004,0.0,0.0,1.2599999904632568,0.5400000214576721,-14.960000038146973,0.00830078125,0.02294921875,0.99847412109375,33.849998474121094,0.0,-1.0,-0.1222381591796875,0.052734375,Waiting,0.0,0.0,0.0,0.0,0.0,0.0,0.0,0.0,
13.68790300000005,0.0,0.0,false,4632097.091821794,,59020.0,0.0,0.0,0.0,0.0,0.125,1.7639158350000002,0.0,0.0,-56397.0,0.0,0.0,-0.0,0.0,0.0,2.675780976,0.0,0.0,47011.0,0.0,0.0,0.0,0.0,0.0,4.086913644,0.0,0.0,-46703.0,0.0,0.0,-0.0,0.0,0.0,2.525634507,0.0,0.0,1.2599999904632568,0.5299999713897705,-14.970000267028809,0.01226806640625,0.02392578125,1.001953125,33.849998474121094,0.0,2.0,-0.1222381591796875,0.052734375,Waiting,0.0,0.0,0.0,0.0,0.0,0.0,0.0,0.0,
13.819268999999972,0.0,0.0,false,4632117.720779447,,59020.0,0.0,0.0,0.0,0.0,0.125,1.7639158350000002,0.0,0.0,-56397.0,0.0,0.0,-0.0,0.0,0.0,2.675780976,0.0,0.0,47011.0,0.0,0.0,0.0,0.0,0.0,4.086913644,0.0,0.0,-46703.0,0.0,0.0,-0.0,0.0,0.0,2.525634507,0.0,0.0,1.2699999809265137,0.5299999713897705,-14.970000267028809,0.00341796875,0.022216796875,1.00714111328125,33.849998474121094,0.0,-5.0,-0.1222381591796875,0.052734375,Waiting,0.0,0.0,0.0,0.0,0.0,0.0,0.0,0.0,
13.93660600000003,0.0,0.0,false,4632132.307306191,,59020.0,0.0,0.0,0.0,0.0,0.125,1.7639158350000002,0.0,0.0,-56397.0,0.0,0.0,-0.0,0.0,0.0,2.521972398,0.0,0.0,47011.0,0.0,0.0,0.0,0.0,0.0,4.0881343470000004,0.0,0.0,-46703.0,0.0,0.0,-0.0,0.0,0.0,2.5268552100000004,0.0,0.0,1.2699999809265137,0.5199999809265137,-14.979999542236328,0.013427734375,0.0115966796875,0.9984130859375,33.849998474121094,0.0,6.0,-0.1222381591796875,0.052734375,Waiting,0.0,0.0,0.0,0.0,0.0,0.0,0.0,0.0,
14.069501999999979,0.0,0.0,false,4632139.753076092,,59020.0,0.0,0.0,0.0,0.0,0.125,1.7626951320000002,0.0,0.0,-56396.0,0.0,7.5,-0.0,0.0,0.5,2.507323962,0.0,0.0,47011.0,0.0,0.0,0.0,0.0,0.0,4.086913644,0.0,0.0,-46703.0,0.0,0.0,-0.0,0.0,0.0,2.525634507,0.0,0.0,1.2599999904632568,0.5299999713897705,-14.949999809265137,0.0108642578125,0.0201416015625,0.9803466796875,33.83000183105469,0.0,2.0,-0.1222381591796875,0.05279541015625,Waiting,0.0,0.0,0.0,0.0,0.0,0.0,0.0,0.0,
14.192405000000027,0.0,0.0,false,4632140.059114674,,59020.0,0.0,0.0,0.0,0.0,0.125,1.7626951320000002,0.0,0.0,-56396.0,0.0,0.0,-0.0,0.0,0.0,2.657470431,0.0,0.0,47011.0,0.0,0.0,0.0,0.0,0.0,4.086913644,0.0,0.0,-46703.0,0.0,0.0,-0.0,0.0,0.0,2.525634507,0.0,0.0,1.2799999713897705,0.5099999904632568,-14.989999771118164,0.00848388671875,0.0299072265625,1.00067138671875,33.83000183105469,0.0,-2.0,-0.1223297119140625,0.05279541015625,Waiting,0.0,0.0,0.0,0.0,0.0,0.0,0.0,0.0,
14.31351000000001,0.0,0.0,false,4632134.681398348,,59020.0,0.0,0.0,0.0,0.0,0.125,1.7626951320000002,0.0,0.0,-56396.0,0.0,0.0,-0.0,0.0,0.0,2.77099581,0.0,0.0,47011.0,0.0,0.0,0.0,0.0,0.0,4.0881343470000004,0.0,0.0,-46703.0,0.0,0.0,-0.0,0.0,0.0,2.5268552100000004,0.0,0.0,1.25,0.5299999713897705,-14.989999771118164,-0.00732421875,0.0284423828125,1.0423583984375,33.83000183105469,0.0,-17.0,-0.1223297119140625,0.05279541015625,Waiting,0.0,0.0,0.0,0.0,0.0,0.0,0.0,0.0,
14.443079999999958,0.0,0.0,false,4632123.553603792,,59020.0,0.0,0.0,0.0,0.0,0.125,1.7639158350000002,0.0,0.0,-56396.0,0.0,0.0,-0.0,0.0,0.0,2.774657919,0.0,0.0,47011.0,0.0,0.0,0.0,0.0,0.0,4.0881343470000004,0.0,0.0,-46703.0,0.0,0.0,-0.0,0.0,0.0,2.525634507,0.0,0.0,1.2799999713897705,0.5199999809265137,-14.989999771118164,0.01226806640625,0.027099609375,1.02130126953125,33.83000183105469,0.0,1.0,-0.1223297119140625,0.05279541015625,Waiting,0.0,0.0,0.0,0.0,0.0,0.0,0.0,0.0,
14.55668200000003,0.0,0.0,false,4632105.363677552,,59020.0,0.0,0.0,0.0,0.0,0.125,1.7626951320000002,0.0,0.0,-56396.0,0.0,0.0,-0.0,0.0,0.0,2.777099325,0.0,0.0,47011.0,0.0,0.0,0.0,0.0,0.0,4.086913644,0.0,0.0,-46703.0,0.0,0.0,-0.0,0.0,0.0,2.5268552100000004,0.0,0.0,1.2599999904632568,0.5299999713897705,-14.989999771118164,0.00872802734375,0.01580810546875,0.99273681640625,33.869998931884766,0.0,1.0,-0.1223297119140625,0.05279541015625,Waiting,0.0,0.0,0.0,0.0,0.0,0.0,0.0,0.0,
14.678478000000002,0.0,0.0,false,4632081.424966892,,59020.0,0.0,0.0,0.0,0.0,0.125,1.7626951320000002,0.0,0.0,-56396.0,0.0,0.0,-0.0,0.0,0.0,2.700195036,0.0,0.0,47011.0,0.0,0.0,0.0,0.0,0.0,4.086913644,0.0,0.0,-46703.0,0.0,0.0,-0.0,0.0,0.0,2.525634507,0.0,0.0,1.2699999809265137,0.5199999809265137,-15.0,0.00677490234375,0.02410888671875,0.99505615234375,33.869998931884766,0.0,-2.0,-0.1223297119140625,0.05279541015625,Waiting,0.0,0.0,0.0,0.0,0.0,0.0,0.0,0.0,
14.80172900000005,0.0,0.0,false,4632050.354138352,,59020.0,0.0,0.0,0.0,0.0,0.125,1.7639158350000002,0.0,0.0,-56396.0,0.0,0.0,-0.0,0.0,0.0,2.652587619,0.0,0.0,47011.0,0.0,0.0,0.0,0.0,0.0,4.086913644,0.0,0.0,-46703.0,0.0,0.0,-0.0,0.0,0.0,2.525634507,0.0,0.0,1.2699999809265137,0.5299999713897705,-15.0,0.005859375,0.02105712890625,0.99273681640625,33.869998931884766,0.0,-3.0,-0.1223297119140625,0.05279541015625,Waiting,0.0,0.0,0.0,0.0,0.0,0.0,0.0,0.0,
14.930101000000024,0.0,0.0,false,4632013.535823808,,59020.0,0.0,0.0,0.0,0.0,0.125,1.7626951320000002,0.0,0.0,-56396.0,0.0,0.0,-0.0,0.0,0.0,2.652587619,0.0,0.0,47011.0,0.0,0.0,0.0,0.0,0.0,4.0881343470000004,0.0,0.0,-46703.0,0.0,0.0,-0.0,0.0,0.0,2.525634507,0.0,0.0,1.2799999713897705,0.5299999713897705,-15.0,0.00872802734375,0.025634765625,1.0013427734375,33.869998931884766,0.0,-1.0,-0.1223297119140625,0.05279541015625,Waiting,0.0,0.0,0.0,0.0,0.0,0.0,0.0,0.0,
15.054202000000048,0.0,0.0,false,4631970.970624107,,59020.0,0.0,0.0,0.0,0.0,0.125,1.7639158350000002,0.0,0.0,-56396.0,0.0,0.0,-0.0,0.0,0.0,2.651366916,0.0,0.0,47011.0,0.0,0.0,0.0,0.0,0.0,4.0881343470000004,0.0,0.0,-46703.0,0.0,0.0,-0.0,0.0,0.0,2.525634507,0.0,0.0,1.2699999809265137,0.5299999713897705,-15.0,0.010009765625,0.02191162109375,1.00274658203125,33.869998931884766,0.0,0.0,-0.1223297119140625,0.05279541015625,Waiting,0.0,0.0,0.0,0.0,0.0,0.0,0.0,0.0,
15.190706000000006,0.0,0.0,false,4631989.907589379,,59020.0,0.0,0.0,0.0,0.0,0.125,1.7639158350000002,0.0,0.0,-56396.0,0.0,0.0,-0.0,0.0,0.0,2.651366916,0.0,0.0,47011.0,0.0,0.0,0.0,0.0,0.0,4.0856929410000005,0.0,0.0,-46703.0,0.0,0.0,-0.0,0.0,0.0,2.525634507,0.0,0.0,1.2699999809265137,0.5299999713897705,-15.0,0.00689697265625,0.02435302734375,0.99560546875,33.869998931884766,0.0,-2.0,-0.1223297119140625,0.05279541015625,Waiting,0.0,0.0,0.0,0.0,0.0,0.0,0.0,0.0,
15.311657999999937,0.0,0.0,false,4632001.754764974,,59020.0,0.0,0.0,0.0,0.0,0.125,1.7626951320000002,0.0,0.0,-56396.0,0.0,0.0,-0.0,0.0,0.0,2.651366916,0.0,0.0,47011.0,0.0,0.0,0.0,0.0,0.0,4.086913644,0.0,0.0,-46703.0,0.0,0.0,-0.0,0.0,0.0,2.5268552100000004,0.0,0.0,1.2699999809265137,0.5299999713897705,-15.0,0.00860595703125,0.0245361328125,0.99725341796875,33.869998931884766,0.0,-1.0,-0.1223297119140625,0.05279541015625,Waiting,0.0,0.0,0.0,0.0,0.0,0.0,0.0,0.0,
15.433569999999948,0.0,0.0,false,4632006.517351916,,59020.0,0.0,0.0,0.0,0.0,0.125,1.7614744290000002,0.0,0.0,-56396.0,0.0,0.0,-0.0,0.0,0.0,2.651366916,0.0,0.0,47011.0,0.0,0.0,0.0,0.0,0.0,4.086913644,0.0,0.0,-46703.0,0.0,0.0,-0.0,0.0,0.0,2.5268552100000004,0.0,0.0,1.2699999809265137,0.5299999713897705,-15.0,0.00823974609375,0.0223388671875,0.99737548828125,33.869998931884766,0.0,-1.0,-0.1223297119140625,0.05279541015625,Waiting,0.0,0.0,0.0,0.0,0.0,0.0,0.0,0.0,
15.555015000000013,0.0,0.0,false,4632005.6371555,,58877.0,3.375,-615.0,-1521.259868144989,0.0,1.875,2.0056150290000003,0.5533560492066895,0.0,-56535.0,3.625,-600.0,-1521.259868144989,0.0,1.125,2.346191166,4.397316058113635,0.0,46848.0,2.875,-735.0,-1521.259868144989,0.0,0.125,3.699950793,4.401758689006861,0.0,-46835.0,4.0,-540.0,-1521.259868144989,0.0,0.25,2.939452824,0.5515167311543325,0.0,1.2599999904632568,0.5099999904632568,-15.0,0.10498046875,-0.072021484375,1.02667236328125,33.83000183105469,0.0,117.0,-0.12225341796875,0.0528411865234375,Waiting,0.0,0.0,0.0,0.0,0.0,0.0,0.0,0.0,
15.690248999999952,0.0,0.0,false,4631997.669291339,,58598.0,0.375,-1740.0,-2100.0,0.0,0.25,2.39257788,0.5533560492066895,0.0,-56810.0,0.5,-1702.5,-2100.0,0.0,0.0,1.8920896500000002,4.397316058113635,0.0,46589.0,0.125,-1620.0,-2100.0,0.0,0.0,3.249511386,4.401758689006861,0.0,-47105.0,0.75,-1680.0,-2100.0,0.0,0.0,3.330077784,0.5515167311543325,0.0,1.2699999809265137,0.5199999809265137,-15.0,0.01031494140625,0.0069580078125,0.975341796875,33.83000183105469,0.0,5.0,-0.121917724609375,0.0533905029296875,Waiting,0.0,0.0,0.0,0.0,0.0,0.0,0.0,0.0,
15.811344999999973,0.0,0.0,false,4631983.988572623,,58322.0,1.0,-1717.5,-2100.0,0.0,0.125,2.518310289,0.5533560492066895,0.0,-57086.0,1.0,-1717.5,-2100.0,0.0,0.25,1.8652341840000002,4.397316058113635,0.0,46308.0,0.625,-1740.0,-2100.0,0.0,0.125,3.38134731,4.401758689006861,0.0,-47377.0,1.75,-1687.5,-2100.0,0.0,0.0,3.2067867810000004,0.5515167311543325,0.0,1.2699999809265137,0.5199999809265137,-15.0,-0.03021240234375,6.7138671875E-4,1.02325439453125,33.83000183105469,0.0,-32.0,-0.121826171875,0.05364990234375,Waiting,0.0,0.0,0.0,0.0,0.0,0.0,0.0,0.0,
15.932074999999953,0.0,0.0,false,4631964.671125975,,58014.0,0.75,-1920.0,-2100.0,0.0,0.125,2.349853275,0.5533560492066895,0.0,-57393.0,0.75,-1912.5,-2100.0,0.0,0.0,2.133788844,4.397316058113635,0.0,46000.0,0.375,-1920.0,-2100.0,0.0,0.125,3.6767574360000004,4.401758689006861,0.0,-47685.0,1.125,-1920.0,-2100.0,0.0,0.0,2.973632508,0.5515167311543325,0.0,1.2400000095367432,0.5199999809265137,-15.0,0.04107666015625,0.049560546875,0.99798583984375,33.83000183105469,0.0,23.0,-0.1216583251953125,0.0543365478515625,Waiting,0.0,0.0,0.0,0.0,0.0,0.0,0.0,0.0,
