Time,ClimberA1,ClimberA2,CameraExists,HeapSpace,LoopTime,FRpos,FRCurrent,FRspeed,FRsetpoint,FRApos,FRACurrent,FREncpos,FREncSetpoint,FREncSpeed,FLpos,FLCurrent,FLspeed,FLsetpoint,FLApos,FLACurrent,FLEncpos,FLEncSetpoint,FLEncSpeed,BRpos,BRCurrent,BRspeed,BRsetpoint,BRApos,BRACurrent,BREncpos,BREncSetpoint,BREncSpeed,BLpos,BLCurrent,BLspeed,BLsetpoint,BLApos,BLACurrent,BLEncpos,BLEncSetpoint,BLEncSpeed,navx_Pitch,navx_Roll,navx_Yaw,navx_XAcc,navx_YAcc,navx_ZAcc,navx_Temp,navx_Bar,navx_Alt,navx_XDis,navx_YDis,GearPlacerState,ShootOutputV,ShootOutputCurrent,ShootEncPos,ShootEncVelocity,ShootSpeed,ShootSetpoint,CarouselSetpoint,CarouselCurrent,
0.16015700000000652,0.0,0.0,false,4747977.131426406,,-192.0,0.0,0.0,0.0,0.0,0.125,2.409667722,0.5533560492066917,0.0,799.0,0.0,0.0,0.0,0.0,0.0,2.186279073,4.397316058113637,0.0,-5367.0,0.0,0.0,0.0,0.0,0.0,3.50341761,4.40175868900686,0.004882811999999959,2590.0,0.0,0.0,0.0,0.0,0.0,3.032226252,0.5515167311543303,0.0,1.3300000429153442,0.5099999904632568,53.459999084472656,0.00927734375,0.023681640625,0.99749755859375,34.13999938964844,0.0,0.0,-1.049957275390625,1.760101318359375,Waiting,0.0,0.0,-47468.0,0.0,0.0,0.0,0.0,0.0,
0.24459399999992457,0.0,0.0,false,4748109.667828459,,-192.0,0.0,0.0,0.0,0.0,0.125,2.409667722,0.5533560492066917,0.0,799.0,0.0,0.0,0.0,0.0,0.0,2.188720479,4.397316058113637,0.0,-5367.0,0.0,0.0,0.0,0.0,0.0,3.502196907,4.40175868900686,0.0,2590.0,0.0,0.0,0.0,0.0,0.0,3.032226252,0.5515167311543303,0.0,1.3300000429153442,0.5099999904632568,53.459999084472656,0.0091552734375,0.02178955078125,1.00177001953125,34.13999938964844,0.0,-1.0,-1.049957275390625,1.760101318359375,Waiting,0.0,0.0,-47468.0,0.0,0.0,0.0,0.0,0.0,
0.3278959999999497,0.0,0.0,false,4748237.76641285,,-192.0,0.0,0.0,0.0,0.0,0.125,2.408447019,0.5533560492066917,0.0,799.0,0.0,0.0,0.0,0.0,0.0,2.186279073,4.397316058113637,-0.0012207030000004337,-5367.0,0.0,0.0,0.0,0.0,0.0,3.50341761,4.40175868900686,0.0,2590.0,0.0,0.0,0.0,0.0,0.0,3.031005549,0.5515167311543303,0.0,1.3300000429153442,0.5099999904632568,53.459999084472656,0.00567626953125,0.02496337890625,0.9989013671875,34.13999938964844,0.0,0.0,-1.049957275390625,1.760101318359375,Waiting,0.0,0.0,-47468.0,0.0,0.0,0.0,0.0,0.0,
0.40988300000003075,0.0,0.0,false,4748361.354951133,,-192.0,0.0,0.0,0.0,0.0,0.125,2.409667722,0.5533560492066917,0.0,799.0,0.0,0.0,0.0,0.0,0.0,2.186279073,4.397316058113637,0.0012207030000004337,-5367.0,0.0,0.0,0.0,0.0,0.0,3.50341761,4.40175868900686,0.0,2590.0,0.0,0.0,0.0,0.0,0.0,3.031005549,0.5515167311543303,0.0,1.3300000429153442,0.5099999904632568,53.459999084472656,0.00927734375,0.02288818359375,1.001953125,34.13999938964844,0.0,0.0,-1.049957275390625,1.760101318359375,Waiting,0.0,0.0,-47468.0,0.0,0.0,0.0,0.0,0.0,
0.4916829999999609,0.0,0.0,false,4748480.429410205,,-192.0,0.0,0.0,0.0,0.0,0.125,2.408447019,0.5533560492066917,0.0,799.0,0.0,0.0,0.0,0.0,0.0,2.186279073,4.397316058113637,0.0,-5367.0,0.0,0.0,0.0,0.0,0.0,3.50341761,4.40175868900686,0.0,2590.0,0.0,0.0,0.0,0.0,0.0,3.032226252,0.5515167311543303,0.0,1.3300000429153442,0.5099999904632568,53.459999084472656,0.008056640625,0.02484130859375,0.997314453125,34.13999938964844,0.0,0.0,-1.049957275390625,1.760101318359375,Waiting,0.0,0.0,-47468.0,0.0,0.0,0.0,0.0,0.0,
0.5755270000000019,0.0,0.0,false,4748592.817575757,,-192.0,0.0,0.0,0.0,0.0,0.125,2.408447019,0.5533560492066917,0.0,799.0,0.0,0.0,0.0,0.0,0.0,2.186279073,4.397316058113637,0.0,-5367.0,0.0,0.0,0.0,0.0,0.0,3.50341761,4.40175868900686,0.0,2590.0,0.0,0.0,0.0,0.0,0.0,3.031005549,0.5515167311543303,0.0,1.3300000429153442,0.5099999904632568,53.459999084472656,0.00970458984375,0.0228271484375,0.99786376953125,34.13999938964844,0.0,0.0,-1.049957275390625,1.760101318359375,Waiting,0.0,0.0,-47468.0,0.0,0.0,0.0,0.0,0.0,
0.6571600000000326,0.0,0.0,false,4748700.697397826,,-192.0,0.0,0.0,0.0,0.0,0.125,2.408447019,0.5533560492066917,0.0,799.0,0.0,0.0,0.0,0.0,0.0,2.187499776,4.397316058113637,0.0,-5367.0,0.0,0.0,0.0,0.0,0.0,3.50341761,4.40175868900686,0.0,2590.0,0.0,0.0,0.0,0.0,0.0,3.031005549,0.5515167311543303,0.0,1.3300000429153442,0.5099999904632568,53.459999084472656,0.00933837890625,0.0211181640625,0.99896240234375,34.119998931884766,0.0,-1.0,-1.049957275390625,1.760101318359375,Waiting,0.0,0.0,-47468.0,0.0,0.0,0.0,0.0,0.0,
0.7398649999999907,0.0,0.0,false,4748804.1469585635,,-192.0,0.0,0.0,0.0,0.0,0.125,2.409667722,0.5533560492066917,0.0,799.0,0.0,0.0,0.0,0.0,0.0,2.187499776,4.397316058113637,0.0,-5367.0,0.0,0.0,0.0,0.0,0.0,3.50341761,4.40175868900686,0.0,2590.0,0.0,0.0,0.0,0.0,0.0,3.031005549,0.5515167311543303,0.0,1.3300000429153442,0.5099999904632568,53.459999084472656,0.00775146484375,0.02716064453125,1.00030517578125,34.119998931884766,0.0,2.0,-1.049957275390625,1.760101318359375,Waiting,0.0,0.0,-47468.0,0.0,0.0,0.0,0.0,0.0,
0.8228079999999609,0.0,0.0,false,4748903.08919441,,-192.0,0.0,0.0,0.0,0.0,0.125,2.409667722,0.5533560492066917,0.0,799.0,0.0,0.0,0.0,0.0,0.0,2.187499776,4.397316058113637,0.0,-5367.0,0.0,0.0,0.0,0.0,0.0,3.502196907,4.40175868900686,0.0,2590.0,0.0,0.0,0.0,0.0,0.0,3.031005549,0.5515167311543303,0.0,1.3300000429153442,0.5099999904632568,53.459999084472656,0.00933837890625,0.023681640625,0.9971923828125,34.119998931884766,0.0,0.0,-1.049957275390625,1.760101318359375,Waiting,0.0,0.0,-47468.0,0.0,0.0,0.0,0.0,0.0,
0.9087069999999366,0.0,0.0,false,4748997.524617482,,-192.0,0.0,0.0,0.0,0.0,0.125,2.408447019,0.5533560492066917,0.0,799.0,0.0,0.0,0.0,0.0,0.0,2.186279073,4.397316058113637,-0.0012207030000004337,-5367.0,0.0,0.0,0.0,0.0,0.0,3.50341761,4.40175868900686,0.0,2590.0,0.0,0.0,0.0,0.0,0.0,3.031005549,0.5515167311543303,0.0,1.3300000429153442,0.5099999904632568,53.459999084472656,0.00897216796875,0.0228271484375,0.99859619140625,34.119998931884766,0.0,0.0,-1.049957275390625,1.760101318359375,Waiting,0.0,0.0,-47468.0,0.0,0.0,0.0,0.0,0.0,
0.9888219999999274,0.0,0.0,false,4749087.453739822,,-192.0,0.0,0.0,0.0,0.0,0.125,2.409667722,0.5533560492066917,0.0,799.0,0.0,0.0,0.0,0.0,0.0,2.186279073,4.397316058113637,0.0,-5367.0,0.0,0.0,0.0,0.0,0.0,3.50341761,4.40175868900686,0.0,2590.0,0.0,0.0,0.0,0.0,0.0,3.033446955,0.5515167311543303,0.0,1.3200000524520874,0.5099999904632568,53.470001220703125,0.0059814453125,0.0191650390625,0.997802734375,34.119998931884766,0.0,-4.0,-1.049957275390625,1.760101318359375,Waiting,0.0,0.0,-47468.0,0.0,0.0,0.0,0.0,0.0,
1.0695119999999878,0.0,0.0,false,4749172.954631523,,-192.0,0.0,0.0,0.0,0.0,0.125,2.408447019,0.5533560492066917,0.0,799.0,0.0,0.0,0.0,0.0,0.0,2.186279073,4.397316058113637,0.0,-5367.0,0.0,0.0,0.0,0.0,0.0,3.502196907,4.40175868900686,0.0,2590.0,0.0,0.0,0.0,0.0,0.0,3.032226252,0.5515167311543303,0.0,1.3200000524520874,0.5099999904632568,53.470001220703125,0.008544921875,0.02288818359375,0.9998779296875,34.119998931884766,0.0,0.0,-1.049957275390625,1.760101318359375,Waiting,0.0,0.0,-47468.0,0.0,0.0,0.0,0.0,0.0,
1.1520109999999404,0.0,0.0,false,4749253.950240467,,-192.0,0.0,0.0,0.0,0.0,0.125,2.414550534,0.5533560492066917,0.0,799.0,0.0,0.0,0.0,0.0,0.0,2.186279073,4.397316058113637,0.0,-5367.0,0.0,0.0,0.0,0.0,0.0,3.50341761,4.40175868900686,0.0,2590.0,0.0,0.0,0.0,0.0,0.0,3.033446955,0.5515167311543303,0.0,1.3300000429153442,0.5099999904632568,53.459999084472656,0.00909423828125,0.02410888671875,0.9964599609375,34.119998931884766,0.0,0.0,-1.049957275390625,1.760101318359375,Waiting,0.0,0.0,-47468.0,0.0,0.0,0.0,0.0,0.0,
1.2328869999999879,0.0,0.0,false,4749330.441078461,,-192.0,0.0,0.0,0.0,0.0,2.0,2.348632572,0.0,0.0,799.0,0.0,0.0,-0.0,0.0,1.75,2.198486103,0.0,0.0,-5367.0,0.0,0.0,0.0,0.0,2.0,3.6242672070000004,0.0,0.0,2590.0,0.0,0.0,-0.0,0.0,3.0,2.9016110310000003,0.0,0.0,1.3300000429153442,0.5099999904632568,53.459999084472656,0.03497314453125,0.0020751953125,1.00006103515625,34.13999938964844,0.0,-1.0,-1.049957275390625,1.7600860595703125,Waiting,0.0,0.0,-47468.0,0.0,0.0,0.0,0.0,0.0,
1.3159199999999256,0.0,0.0,false,4749400.255064561,,-192.0,0.0,0.0,0.0,0.0,0.375,1.958007612,0.0,-0.10620116099999954,796.0,0.0,0.0,-0.0,0.0,0.5,2.565917706,0.0,0.058593743999999504,-5372.0,0.0,-30.0,0.0,0.0,0.375,3.9367671750000004,0.0,0.14282225100000012,2590.0,0.0,0.0,-0.0,0.0,0.375,2.569579815,0.0,-0.1281738149999998,1.3200000524520874,0.46000000834465027,53.5099983215332,0.0245361328125,0.03271484375,0.96240234375,34.13999938964844,0.0,18.0,-1.049957275390625,1.760223388671875,Waiting,0.0,0.0,-47468.0,0.0,0.0,0.0,0.0,0.0,
1.4053800000000047,0.0,0.0,false,4749465.565467626,,-192.0,0.0,0.0,0.0,0.0,0.125,1.849365045,0.0,0.0,796.0,0.0,-30.0,-0.0,0.0,0.125,2.680663788,0.0,0.0,-5372.0,0.0,-60.0,0.0,0.0,0.125,4.029540603,0.0,0.0,2590.0,0.0,0.0,-0.0,0.0,0.0,2.470702872,0.0,0.0,1.3300000429153442,0.46000000834465027,53.86000061035156,0.0240478515625,0.0213623046875,0.978271484375,34.13999938964844,0.0,8.0,-1.049957275390625,1.76025390625,Waiting,0.0,0.0,-47468.0,0.0,0.0,0.0,0.0,0.0,
1.4868659999999219,0.0,0.0,false,4749526.372799212,,-195.0,0.0,-15.0,0.0,0.0,0.125,1.850585748,0.0,0.0,792.0,0.0,-15.0,-0.0,0.0,0.0,2.6904294120000003,0.0,0.0,-5380.0,0.0,-7.5,0.0,0.0,0.0,4.024657791,0.0,0.0,2590.0,0.0,0.0,-0.0,0.0,0.0,2.4865720110000002,0.0,0.0,1.3300000429153442,0.49000000953674316,53.84000015258789,0.00653076171875,0.018310546875,1.057373046875,34.13999938964844,0.0,-6.0,-1.049957275390625,1.760162353515625,Waiting,0.0,0.0,-47468.0,0.0,0.0,0.0,0.0,0.0,
1.5708360000000103,0.0,0.0,false,4749582.677570801,,-195.0,0.0,0.0,0.0,0.0,0.125,1.850585748,0.0,-0.0012207030000004337,792.0,0.0,0.0,-0.0,0.0,0.0,2.666015352,0.0,0.0,-5380.0,0.0,0.0,0.0,0.0,0.0,4.013671464000001,0.0,4.944234376,2590.0,0.0,0.0,-0.0,0.0,0.0,2.50244115,0.0,0.01586913900000031,1.3300000429153442,0.5,53.880001068115234,0.01910400390625,0.032470703125,1.02178955078125,34.13999938964844,0.0,12.0,-1.049957275390625,1.760162353515625,Waiting,0.0,0.0,-47468.0,0.0,0.0,0.0,0.0,0.0,
1.6551239999999525,0.0,0.0,false,4749634.480293795,,-195.0,0.0,0.0,0.0,0.0,0.125,1.850585748,0.0,0.0,792.0,0.0,0.0,-0.0,0.0,0.0,2.66113254,0.0,-0.01831054500000029,-5380.0,0.0,0.0,0.0,0.0,0.0,4.010009355,0.0,0.0,2590.0,0.0,0.0,-0.0,0.0,0.0,2.507323962,0.0,0.014648435999999876,1.3200000524520874,0.47999998927116394,53.849998474121094,0.001953125,0.02288818359375,1.0081787109375,34.13999938964844,0.0,-4.0,-1.049957275390625,1.760162353515625,Waiting,0.0,0.0,-47468.0,0.0,0.0,0.0,0.0,0.0,
1.7338159999999916,0.0,0.0,false,4749679.687741349,,-195.0,0.0,0.0,0.0,0.0,0.125,1.849365045,0.0,0.0,792.0,0.0,0.0,-0.0,0.0,0.0,2.66113254,0.0,0.0,-5380.0,0.0,0.0,0.0,0.0,0.0,4.010009355,0.0,0.0,2590.0,0.0,0.0,-0.0,0.0,0.0,2.506103259,0.0,0.0,1.3200000524520874,0.5099999904632568,53.869998931884766,0.0106201171875,0.020263671875,0.9866943359375,34.150001525878906,0.0,-1.0,-1.049957275390625,1.760162353515625,Waiting,0.0,0.0,-47468.0,0.0,0.0,0.0,0.0,0.0,
1.8171689999999945,0.0,0.0,false,4749720.394321408,,-195.0,0.0,0.0,0.0,0.0,0.125,1.849365045,0.0,0.0,792.0,0.0,0.0,-0.0,0.0,0.0,2.66113254,0.0,0.0,-5380.0,0.0,0.0,0.0,0.0,0.0,4.008788652,0.0,0.0012207030000004337,2590.0,0.0,0.0,-0.0,0.0,0.0,2.507323962,0.0,0.0,1.3200000524520874,0.5,53.869998931884766,0.00567626953125,0.02459716796875,0.9920654296875,34.150001525878906,0.0,0.0,-1.049957275390625,1.760162353515625,Waiting,0.0,0.0,-47468.0,0.0,0.0,0.0,0.0,0.0,
1.8954510000000009,0.0,0.0,false,4749756.600545124,,-195.0,0.0,0.0,0.0,0.0,0.125,1.851806451,0.0,0.0,792.0,0.0,0.0,-0.0,0.0,0.0,2.662353243,0.0,0.0,-5380.0,0.0,0.0,0.0,0.0,0.0,4.010009355,0.0,0.0,2590.0,0.0,0.0,-0.0,0.0,0.0,2.506103259,0.0,0.0,1.3300000429153442,0.5,53.86000061035156,0.0064697265625,0.0206298828125,0.99725341796875,34.150001525878906,0.0,-3.0,-1.049957275390625,1.760162353515625,Waiting,0.0,0.0,-47468.0,0.0,0.0,0.0,0.0,0.0,
1.9876890000000131,0.0,0.0,false,4749788.306923572,,-195.0,0.0,0.0,0.0,0.0,0.125,1.850585748,0.0,0.0,792.0,0.0,0.0,-0.0,0.0,0.0,2.66113254,0.0,0.0,-5380.0,0.0,0.0,0.0,0.0,0.0,4.010009355,0.0,0.0,2590.0,0.0,0.0,-0.0,0.0,0.0,2.509765368,0.0,0.0,1.3300000429153442,0.5,53.869998931884766,0.0076904296875,0.02587890625,1.001708984375,34.150001525878906,0.0,1.0,-1.049957275390625,1.760162353515625,Waiting,0.0,0.0,-47468.0,0.0,0.0,0.0,0.0,0.0,
2.078369999999995,0.0,0.0,false,4749923.12605042,,-195.0,0.0,0.0,0.0,0.0,0.125,1.850585748,0.0,0.0,792.0,0.0,0.0,-0.0,0.0,0.0,2.66113254,0.0,0.0,-5380.0,0.0,0.0,0.0,0.0,0.0,4.007567949,0.0,0.0,2590.0,0.0,0.0,-0.0,0.0,0.0,2.507323962,0.0,0.0,1.2799999713897705,0.5099999904632568,53.869998931884766,-0.0015869140625,0.04608154296875,0.99835205078125,34.150001525878906,0.0,12.0,-1.050048828125,1.7600250244140625,Waiting,-12.9,70.625,-47468.0,0.0,-22.5,-1620.0,0.0,0.0,
2.1697459999999262,0.0,0.0,false,4750053.403383928,,-195.0,0.0,0.0,0.0,0.0,0.125,1.850585748,0.0,0.0,792.0,0.0,0.0,-0.0,0.0,0.0,2.662353243,0.0,0.0,-5380.0,0.0,0.0,0.0,0.0,0.0,4.011230058000001,0.0,0.0,2590.0,0.0,0.0,-0.0,0.0,0.0,2.507323962,0.0,0.0,1.2799999713897705,0.5,53.86000061035156,0.02252197265625,-0.00250244140625,1.02081298828125,34.150001525878906,0.0,-12.0,-1.0499725341796875,1.75994873046875,Waiting,-10.45,71.875,-47505.0,-21.0,-315.0,-1620.0,0.0,0.0,
2.2646010000000243,0.0,0.0,false,4750179.139137018,,-195.0,0.0,0.0,0.0,0.0,0.125,1.851806451,0.0,0.0,792.0,0.0,0.0,-0.0,0.0,0.0,2.66113254,0.0,0.0,-5380.0,0.0,0.0,0.0,0.0,0.0,4.008788652,0.0,0.0,2590.0,0.0,0.0,-0.0,0.0,0.0,2.507323962,0.0,0.0,1.2699999809265137,0.5099999904632568,53.86000061035156,-0.0545654296875,0.06756591796875,0.9803466796875,34.150001525878906,0.0,0.0,-1.05023193359375,1.759552001953125,Waiting,-10.600000000000001,67.375,-47612.0,-78.0,-615.0,-1620.0,0.0,0.0,
2.348581999999937,0.0,0.0,false,4750298.152832974,,-195.0,0.0,0.0,0.0,0.0,0.125,1.850585748,0.0,0.0,792.0,0.0,0.0,-0.0,0.0,0.0,2.66113254,0.0,0.0,-5380.0,0.0,0.0,0.0,0.0,0.0,4.011230058000001,0.0,0.0,2590.0,0.0,0.0,-0.0,0.0,0.0,2.507323962,0.0,0.0,1.2899999618530273,0.5,53.86000061035156,-0.0169677734375,-0.01153564453125,0.9698486328125,34.150001525878906,0.0,-42.0,-1.050140380859375,1.75933837890625,Waiting,-10.600000000000001,63.375,-47612.0,-78.0,-900.0,-1620.0,0.0,0.0,
2.434814000000013,0.0,0.0,false,4750412.626447657,,-195.0,0.0,0.0,0.0,0.0,0.125,1.850585748,0.0,0.0,792.0,0.0,0.0,-0.0,0.0,0.0,2.66113254,0.0,0.0,-5380.0,0.0,0.0,0.0,0.0,0.0,4.008788652,0.0,0.0,2590.0,0.0,0.0,-0.0,0.0,0.0,2.506103259,0.0,0.0,1.2699999809265137,0.5099999904632568,53.86000061035156,-0.0709228515625,0.00775146484375,0.9393310546875,34.150001525878906,0.0,-57.0,-1.048919677734375,1.759246826171875,Waiting,-10.7,59.625,-47781.0,-132.0,-1162.5,-1620.0,0.0,0.0,
2.5296539999999803,0.0,0.0,false,4750522.560193771,,-195.0,0.0,0.0,0.0,0.0,0.125,1.850585748,0.0,0.0,792.0,0.0,0.0,-0.0,0.0,0.0,2.66113254,0.0,0.0,-5380.0,0.0,0.0,0.0,0.0,0.0,4.010009355,0.0,-0.0012207030000004337,2590.0,0.0,0.0,-0.0,0.0,0.0,2.507323962,0.0,0.0,1.2699999809265137,0.5,53.86000061035156,-0.03277587890625,0.0390625,0.9921875,34.150001525878906,0.0,-10.0,-1.0469818115234375,1.759521484375,Waiting,-9.15175953079179,40.0,-48006.0,-179.0,-1455.0,-1620.0,0.0,0.0,
2.6161089999999385,0.0,0.0,false,4750627.95943082,,-195.0,0.0,0.0,0.0,0.0,0.125,1.849365045,0.0,0.0012207030000004337,792.0,0.0,0.0,-0.0,0.0,0.0,2.655029025,0.0,0.0,-5380.0,0.0,0.0,0.0,0.0,0.0,4.011230058000001,0.0,0.0012207030000004337,2590.0,0.0,0.0,-0.0,0.0,0.0,2.507323962,0.0,0.0,1.2699999809265137,0.5199999809265137,53.86000061035156,-0.056396484375,0.02166748046875,0.98480224609375,34.150001525878906,0.0,-38.0,-1.046295166015625,1.7598114013671875,Waiting,-4.750733137829912,15.0,-48272.0,-217.0,-1635.0,-1620.0,0.0,0.0,
2.6984549999999583,0.0,0.0,false,4750728.902175969,,-195.0,0.0,0.0,0.0,0.0,0.125,1.850585748,0.0,0.0,792.0,0.0,0.0,-0.0,0.0,0.0,2.66113254,0.0,0.0,-5380.0,0.0,0.0,0.0,0.0,0.0,4.010009355,0.0,0.0,2590.0,0.0,0.0,-0.0,0.0,0.0,2.506103259,0.0,0.0,1.2100000381469727,0.5400000214576721,53.86000061035156,0.01055908203125,0.048583984375,1.01971435546875,34.150001525878906,0.0,22.0,-1.045745849609375,1.7604217529296875,Waiting,-5.18475073313783,6.125,-48272.0,-217.0,-1717.5,-1620.0,0.0,0.0,
2.7909610000000105,0.0,0.0,false,4750825.233936274,,-195.0,0.0,0.0,0.0,0.0,0.125,1.850585748,0.0,0.0,792.0,0.0,0.0,-0.0,0.0,0.0,2.66113254,0.0,0.0,-5380.0,0.0,0.0,0.0,0.0,0.0,4.006347246,0.0,0.0,2590.0,0.0,0.0,-0.0,0.0,0.0,2.507323962,0.0,0.0,1.2699999809265137,0.5699999928474426,53.86000061035156,0.023193359375,0.06097412109375,1.00994873046875,34.150001525878906,0.0,38.0,-1.04486083984375,1.762054443359375,Waiting,-4.893548387096774,3.75,-48551.0,-231.0,-1740.0,-1620.0,0.0,0.0,
2.8790129999999188,0.0,0.0,false,4750914.8473909255,,-195.0,0.0,0.0,0.0,0.0,0.125,1.850585748,0.0,-0.0012207030000004337,792.0,0.0,0.0,-0.0,0.0,0.0,2.664794649,0.0,0.0,-5380.0,0.0,0.0,0.0,0.0,0.0,4.010009355,0.0,0.0,2590.0,0.0,0.0,-0.0,0.0,0.0,2.506103259,0.0,0.0,1.3300000429153442,0.5099999904632568,53.86000061035156,0.00189208984375,0.0482177734375,0.9722900390625,34.150001525878906,0.0,16.0,-1.042877197265625,1.762542724609375,Waiting,-4.768572825024438,3.5,-48830.0,-232.0,-1740.0,-1620.0,0.0,0.0,
2.968535999999964,0.0,0.0,false,4751000.006054185,,-195.0,0.0,0.0,0.0,0.0,0.125,1.850585748,0.0,0.0,792.0,0.0,0.0,-0.0,0.0,0.0,2.662353243,0.0,0.0,-5380.0,0.0,0.0,0.0,0.0,0.0,4.008788652,0.0,0.0,2590.0,0.0,0.0,-0.0,0.0,0.0,2.507323962,0.0,0.0,1.3300000429153442,0.5,53.86000061035156,-0.01092529296875,-0.008544921875,1.01812744140625,34.150001525878906,0.0,-37.0,-1.0436553955078125,1.7635650634765625,Waiting,-4.901368523949168,3.5,-49106.0,-230.0,-1732.5,-1620.0,0.0,0.0,
3.055503000000026,0.0,0.0,false,4751080.632941088,,-195.0,0.0,0.0,0.0,0.0,0.125,1.850585748,0.0,0.0,792.0,0.0,0.0,-0.0,0.0,0.0,2.659911837,0.0,0.0,-5380.0,0.0,0.0,0.0,0.0,0.0,4.008788652,0.0,0.0,2590.0,0.0,0.0,-0.0,0.0,0.0,2.518310289,0.0,0.0,1.2300000190734863,0.49000000953674316,53.86000061035156,0.04779052734375,0.0352783203125,0.9967041015625,34.150001525878906,0.0,34.0,-1.0445404052734375,1.763641357421875,Waiting,-4.921212121212122,3.625,-49106.0,-230.0,-1717.5,-1620.0,0.0,0.0,
3.14780700000003,0.0,0.0,false,4751156.7285660235,,-195.0,0.0,0.0,0.0,0.0,0.125,1.850585748,0.0,0.0,792.0,0.0,0.0,-0.0,0.0,0.0,2.663573946,0.0,0.0,-5380.0,0.0,0.0,0.0,0.0,0.0,4.010009355,0.0,0.0,2590.0,0.0,0.0,-0.0,0.0,0.0,2.507323962,0.0,0.0,1.190000057220459,0.5099999904632568,53.86000061035156,-0.03076171875,-0.002197265625,0.9822998046875,34.150001525878906,0.0,-41.0,-1.045013427734375,1.7631988525390625,Waiting,-4.913440860215053,3.625,-49384.0,-229.0,-1710.0,-1620.0,0.0,0.0,
3.2336419999999926,0.0,0.0,false,4751228.293443305,,-195.0,0.0,0.0,0.0,0.0,0.125,1.850585748,0.0,0.0,792.0,0.0,0.0,-0.0,0.0,0.0,2.66113254,0.0,0.0,-5380.0,0.0,0.0,0.0,0.0,0.0,4.008788652,0.0,0.0,2590.0,0.0,0.0,-0.0,0.0,0.0,2.507323962,0.0,0.0,1.1200000047683716,0.49000000953674316,53.86000061035156,0.04541015625,0.02960205078125,0.98211669921875,34.13999938964844,0.0,30.0,-1.04541015625,1.76220703125,Waiting,-4.925513196480939,3.625,-49655.0,-228.0,-1710.0,-1620.0,0.0,0.0,
3.331125,0.0,0.0,false,4751295.328087167,,-195.0,0.0,0.0,0.0,0.0,0.125,1.850585748,0.0,0.0,792.0,0.0,0.0,-0.0,0.0,0.0,2.66113254,0.0,0.0,-5380.0,0.0,0.0,0.0,0.0,0.0,4.010009355,0.0,-0.0012207030000004337,2590.0,0.0,0.0,-0.0,0.0,0.0,2.507323962,0.0,0.0,1.1299999952316284,0.47999998927116394,53.86000061035156,-0.02447509765625,0.01373291015625,0.95184326171875,34.13999938964844,0.0,-23.0,-1.044921875,1.7610931396484375,Waiting,-4.824242424242424,3.625,-49930.0,-227.0,-1702.5,-1620.0,0.0,0.0,
3.4176429999999236,0.0,0.0,false,4751357.755532857,,-195.0,0.0,0.0,0.0,0.0,0.125,1.849365045,0.0,0.0,792.0,0.0,0.0,-0.0,0.0,0.0,2.66113254,0.0,0.0,-5380.0,0.0,0.0,0.0,0.0,0.0,4.008788652,0.0,0.0,2590.0,0.0,0.0,-0.0,0.0,0.0,2.506103259,0.0,0.0,1.1399999856948853,0.44999998807907104,53.86000061035156,0.0755615234375,0.04779052734375,0.98388671875,34.13999938964844,0.0,62.0,-1.0437164306640625,1.760162353515625,Waiting,-4.884848484848485,3.75,-49930.0,-227.0,-1695.0,-1620.0,0.0,0.0,
3.503478000000003,0.0,0.0,false,4751413.546493153,,-195.0,0.0,0.0,0.0,0.0,0.125,1.8469236390000001,0.0,0.0,792.0,0.0,0.0,-0.0,0.0,0.0,2.662353243,0.0,0.0,-5380.0,0.0,0.0,0.0,0.0,0.0,4.010009355,0.0,0.0,2590.0,0.0,0.0,-0.0,0.0,0.0,2.507323962,0.0,0.0,1.1699999570846558,0.4699999988079071,53.86000061035156,0.00421142578125,0.00689697265625,1.0262451171875,34.13999938964844,0.0,-14.0,-1.040557861328125,1.7593994140625,Waiting,-4.861681329423265,3.625,-50199.0,-226.0,-1687.5,-1620.0,0.9,4.5,
3.5943789999999574,0.0,0.0,false,4751464.731454511,,-195.0,0.0,0.0,0.0,0.0,0.125,1.850585748,0.0,0.0,792.0,0.0,0.0,-0.0,0.0,0.0,2.66113254,0.0,0.0,-5380.0,0.0,0.0,0.0,0.0,0.0,4.006347246,0.0,0.0,2590.0,0.0,0.0,-0.0,0.0,0.0,2.507323962,0.0,0.0,1.149999976158142,0.4699999988079071,53.86000061035156,-0.0224609375,0.073974609375,0.96240234375,34.13999938964844,0.0,26.0,-1.0370330810546875,1.7582244873046875,Waiting,-4.804789833822092,3.5,-50469.0,-225.0,-1687.5,-1620.0,0.9,0.625,
3.6883360000000103,0.0,0.0,false,4751511.388409744,,-195.0,0.0,0.0,0.0,0.0,0.125,1.853027154,0.0,0.0,792.0,0.0,0.0,-0.0,0.0,0.0,2.66113254,0.0,0.0,-5380.0,0.0,0.0,0.0,0.0,0.0,4.008788652,0.0,0.0,2590.0,0.0,0.0,-0.0,0.0,0.0,2.506103259,0.0,0.0,1.090000033378601,0.5,53.880001068115234,6.103515625E-4,-0.030029296875,0.99554443359375,34.13999938964844,0.0,-44.0,-1.0348358154296875,1.7577972412109375,Waiting,-5.408406647116324,6.125,-50469.0,-225.0,-1642.5,-1620.0,0.9,0.5,
3.7736729999999516,0.0,0.0,false,4751553.5953398645,,-195.0,0.0,0.0,0.0,0.0,0.125,1.850585748,0.0,0.0,792.0,0.0,0.0,-0.0,0.0,0.0,2.66113254,0.0,0.0,-5380.0,0.0,0.0,0.0,0.0,0.0,4.010009355,0.0,0.0012207030000004337,2590.0,0.0,0.0,-0.0,0.0,0.0,2.508544665,0.0,0.0,1.159999966621399,0.5,53.880001068115234,-0.07000732421875,-0.02618408203125,1.04718017578125,34.15999984741211,0.0,-85.0,-1.03192138671875,1.757965087890625,Waiting,-8.336070381231673,19.625,-50724.0,-219.0,-1485.0,-1620.0,0.9,0.5,
3.8533090000000083,0.0,0.0,false,4751591.275285574,,-195.0,0.0,0.0,0.0,0.0,0.125,1.850585748,0.0,0.0,792.0,0.0,0.0,-0.0,0.0,0.0,2.66113254,0.0,0.0,-5380.0,0.0,0.0,0.0,0.0,0.0,4.008788652,0.0,0.0,2590.0,0.0,0.0,-0.0,0.0,0.0,2.504882556,0.0,0.0,1.149999976158142,0.49000000953674316,53.880001068115234,0.07061767578125,-0.0269775390625,1.00146484375,34.15999984741211,0.0,-1.0,-1.0296478271484375,1.75848388671875,Waiting,-7.144183773216032,18.125,-50967.0,-198.0,-1537.5,-1620.0,0.0,0.0,
3.9436199999999952,0.0,0.0,false,4751624.428760543,,-195.0,0.0,0.0,0.0,0.0,0.125,1.850585748,0.0,0.0,792.0,0.0,0.0,-0.0,0.0,0.0,2.662353243,0.0,0.0,-5380.0,0.0,0.0,0.0,0.0,0.0,4.011230058000001,0.0,0.0,2590.0,0.0,0.0,-0.0,0.0,0.0,2.506103259,0.0,0.0,1.1299999952316284,0.5199999809265137,53.880001068115234,-0.03790283203125,0.0323486328125,0.95257568359375,34.15999984741211,0.0,-16.0,-1.02783203125,1.758270263671875,Waiting,-5.843401759530792,8.625,-51231.0,-217.0,-1635.0,-1620.0,0.0,0.0,
4.0279249999999305,0.0,0.0,false,4751653.056278366,,-195.0,0.0,0.0,0.0,0.0,0.125,1.850585748,0.0,0.0,792.0,0.0,0.0,-0.0,0.0,0.0,2.659911837,0.0,0.0,-5380.0,0.0,0.0,0.0,0.0,0.0,4.008788652,0.0,0.0,2590.0,0.0,0.0,-0.0,0.0,0.0,2.508544665,0.0,0.0,1.159999966621399,0.49000000953674316,53.880001068115234,0.02447509765625,0.05059814453125,0.96197509765625,34.15999984741211,0.0,34.0,-1.02459716796875,1.7582244873046875,Waiting,-4.988269794721408,4.625,-51231.0,-217.0,-1680.0,-1620.0,0.0,0.0,
4.11948199999996,0.0,0.0,false,4751785.270148633,,-195.0,0.0,0.0,0.0,0.0,0.125,1.850585748,0.0,0.0,792.0,0.0,0.0,-0.0,0.0,0.0,2.659911837,0.0,0.0,-5380.0,0.0,0.0,0.0,0.0,0.0,4.010009355,0.0,0.0,2590.0,0.0,0.0,-0.0,0.0,0.0,2.50244115,0.0,0.0,1.2000000476837158,0.5199999809265137,53.880001068115234,0.05810546875,0.04345703125,0.9969482421875,34.15999984741211,0.0,46.0,-1.0200653076171875,1.75927734375,Waiting,-4.833431085043989,3.75,-51502.0,-225.0,-1687.5,-1620.0,0.0,0.0,
4.2019379999999655,0.0,0.0,false,4751912.998109069,,-195.0,0.0,0.0,0.0,0.0,0.125,1.848144342,0.0,0.0,792.0,0.0,0.0,-0.0,0.0,0.0,2.66113254,0.0,0.0,-5380.0,0.0,0.0,0.0,0.0,0.0,4.010009355,0.0,0.0,2590.0,0.0,0.0,-0.0,0.0,0.0,2.506103259,0.0,0.0,1.1699999570846558,0.5299999713897705,53.880001068115234,-0.0499267578125,0.02032470703125,1.03350830078125,34.15999984741211,0.0,-35.0,-1.0141754150390625,1.7601470947265625,Waiting,-4.780645161290322,3.5,-51775.0,-225.0,-1687.5,-1620.0,0.0,0.0,
4.286939000000013,0.0,0.0,false,4752036.158378399,,-195.0,0.0,0.0,0.0,0.0,0.125,1.851806451,0.0,0.0,792.0,0.0,0.0,-0.0,0.0,0.0,2.66113254,0.0,0.0,-5380.0,0.0,0.0,0.0,0.0,0.0,4.010009355,0.0,0.0,2590.0,0.0,0.0,-0.0,0.0,0.0,2.507323962,0.0,0.0,1.2000000476837158,0.5099999904632568,53.880001068115234,0.0068359375,0.06207275390625,1.03741455078125,34.150001525878906,0.0,31.0,-1.00970458984375,1.7622222900390625,Waiting,-4.828934506353861,3.625,-51775.0,-225.0,-1680.0,-1620.0,0.0,0.0,
4.3737069999999365,0.0,0.0,false,4752154.756315232,,-195.0,0.0,0.0,0.0,0.0,0.125,1.849365045,0.0,0.0012207030000004337,792.0,0.0,0.0,-0.0,0.0,0.0,2.662353243,0.0,0.0,-5380.0,0.0,0.0,0.0,0.0,0.0,4.010009355,0.0,0.0012207030000004337,2590.0,0.0,0.0,-0.0,0.0,0.0,2.507323962,0.0,0.0,1.2300000190734863,0.5099999904632568,53.880001068115234,-0.0166015625,0.02996826171875,0.9754638671875,34.150001525878906,0.0,-7.0,-1.002655029296875,1.7638397216796875,Waiting,-4.8772238514174,3.5,-52041.0,-224.0,-1680.0,-1620.0,0.0,0.0,
4.4540799999999585,0.0,0.0,false,4752266.5889204005,,-195.0,0.0,0.0,0.0,0.0,0.125,1.850585748,0.0,0.0,792.0,0.0,0.0,-0.0,0.0,0.0,2.662353243,0.0,0.0,-5380.0,0.0,0.0,0.0,0.0,0.0,4.010009355,0.0,0.0,2590.0,0.0,0.0,-0.0,0.0,0.0,2.507323962,0.0,0.0,1.2100000381469727,0.5099999904632568,53.880001068115234,0.0574951171875,0.02001953125,1.0445556640625,34.150001525878906,0.0,26.0,-0.99615478515625,1.76416015625,Waiting,-4.797360703812317,3.75,-52312.0,-223.0,-1672.5,-1620.0,0.0,0.0,
4.535827999999979,0.0,0.0,false,4752373.855554716,,-195.0,0.0,0.0,0.0,0.0,0.125,1.850585748,0.0,0.0,792.0,0.0,0.0,-0.0,0.0,0.0,2.662353243,0.0,0.0,-5380.0,0.0,0.0,0.0,0.0,0.0,4.010009355,0.0,-0.0012207030000004337,2590.0,0.0,0.0,-0.0,0.0,0.0,2.507323962,0.0,0.0,1.2400000095367432,0.49000000953674316,53.880001068115234,-0.0257568359375,0.01043701171875,0.97369384765625,34.150001525878906,0.0,-28.0,-0.9907073974609375,1.7627716064453125,Waiting,-4.889296187683285,3.75,-52577.0,-222.0,-1665.0,-1620.0,0.0,0.0,
4.61989599999995,0.0,0.0,false,4752476.639013877,,-195.0,0.0,0.0,0.0,0.0,0.125,1.850585748,0.0,0.0,792.0,0.0,0.0,-0.0,0.0,0.0,2.66113254,0.0,0.0,-5380.0,0.0,0.0,0.0,0.0,0.0,4.010009355,0.0,0.0,2590.0,0.0,0.0,-0.0,0.0,0.0,2.507323962,0.0,0.0,1.25,0.5099999904632568,53.880001068115234,0.0584716796875,0.02020263671875,1.00909423828125,34.150001525878906,0.0,27.0,-0.985992431640625,1.7612762451171875,Waiting,-4.841006842619746,3.75,-52577.0,-222.0,-1665.0,-1620.0,0.0,0.0,
4.69550800000003,0.0,0.0,false,4752574.862371446,,-195.0,0.0,0.0,0.0,0.0,0.125,1.850585748,0.0,0.0,792.0,0.0,0.0,-0.0,0.0,0.0,2.66113254,0.0,0.0,-5380.0,0.0,0.0,0.0,0.0,0.0,4.010009355,0.0,0.0,2590.0,0.0,0.0,-0.0,0.0,0.0,2.507323962,0.0,0.0,1.25,0.5,53.880001068115234,-0.00567626953125,0.07958984375,0.97344970703125,34.150001525878906,0.0,38.0,-0.9814453125,1.7594757080078125,Waiting,-4.780645161290322,3.625,-52844.0,-222.0,-1665.0,-1620.0,0.0,0.0,
4.778597999999998,0.0,0.0,false,4752668.526144655,,-195.0,0.0,0.0,0.0,0.0,0.125,1.850585748,0.0,0.0,792.0,0.0,0.0,-0.0,0.0,0.0,2.662353243,0.0,0.0,-5380.0,0.0,0.0,0.0,0.0,0.0,4.010009355,0.0,0.0,2590.0,0.0,0.0,-0.0,0.0,0.0,2.506103259,0.0,0.0,1.2599999904632568,0.5099999904632568,53.880001068115234,0.04107666015625,0.02923583984375,1.017333984375,34.11000061035156,0.0,24.0,-0.9756622314453125,1.758544921875,Waiting,-4.889296187683285,4.0,-53110.0,-221.0,-1657.5,-1620.0,0.0,0.0,
4.8659969999999735,0.0,0.0,false,4752757.630850662,,-195.0,0.0,0.0,0.0,0.0,0.125,1.8444822330000001,0.0,0.0,792.0,0.0,0.0,-0.0,0.0,0.0,2.64892551,0.0,0.0,-5380.0,0.0,0.0,0.0,0.0,0.0,4.008788652,0.0,0.0,2590.0,0.0,0.0,-0.0,0.0,0.0,2.506103259,0.0,0.0,1.2400000095367432,0.5,53.88999938964844,0.0032958984375,0.0433349609375,1.00262451171875,34.11000061035156,0.0,14.0,-0.9699859619140625,1.7577056884765625,Waiting,-4.841006842619746,3.625,-53110.0,-221.0,-1657.5,-1620.0,0.9,5.875,
4.94852099999995,0.0,0.0,false,4752842.177006541,,-195.0,0.0,0.0,0.0,0.0,0.125,1.849365045,0.0,0.0,792.0,0.0,0.0,-0.0,0.0,0.0,2.66113254,0.0,0.0,-5380.0,0.0,0.0,0.0,0.0,0.0,4.010009355,0.0,0.0,2590.0,0.0,0.0,-0.0,0.0,0.0,2.508544665,0.0,0.0,1.2400000095367432,0.5099999904632568,53.88999938964844,0.0870361328125,0.039306640625,1.03741455078125,34.11000061035156,0.0,59.0,-0.963409423828125,1.757415771484375,Waiting,-4.7733137829912025,3.625,-53375.0,-221.0,-1657.5,-1620.0,0.9,1.375,
5.031890999999945,0.0,0.0,false,4752922.165129291,,-195.0,0.0,0.0,0.0,0.0,0.125,1.8444822330000001,0.0,0.0,792.0,0.0,0.0,-0.0,0.0,0.0,2.66113254,0.0,0.0,-5380.0,0.0,0.0,0.0,0.0,0.0,4.006347246,0.0,0.0,2590.0,0.0,0.0,-0.0,0.0,0.0,2.518310289,0.0,0.0,1.2400000095367432,0.5299999713897705,53.90999984741211,-0.01031494140625,0.01861572265625,0.98187255859375,34.11000061035156,0.0,-13.0,-0.95770263671875,1.757171630859375,Waiting,-6.293157380254155,7.375,-53625.0,-211.0,-1590.0,-1620.0,0.9,3.375,
5.112256999999984,0.0,0.0,false,4752997.673156164,,-195.0,0.0,0.0,0.0,0.0,0.125,1.850585748,0.0,0.0,792.0,0.0,0.0,-0.0,0.0,0.0,2.66113254,0.0,0.0,-5380.0,0.0,0.0,0.0,0.0,0.0,4.010009355,0.0,0.0,2590.0,0.0,0.0,-0.0,0.0,0.0,2.507323962,0.0,0.0,1.2400000095367432,0.5600000023841858,53.91999816894531,0.10345458984375,0.0706787109375,0.8243408203125,34.11000061035156,0.0,98.0,-0.952423095703125,1.7574005126953125,Waiting,-8.014760508308896,21.0,-53625.0,-211.0,-1470.0,-1620.0,0.0,0.0,
5.194386999999988,0.0,0.0,false,4753068.624177818,,-195.0,0.0,0.0,0.0,0.0,0.125,1.850585748,0.0,0.0,792.0,0.0,0.0,-0.0,0.0,0.0,2.66113254,0.0,0.0,-5380.0,0.0,0.0,0.0,0.0,0.0,4.010009355,0.0,0.0,2590.0,0.0,0.0,-0.0,0.0,0.0,2.507323962,0.0,0.0,1.2799999713897705,0.5299999713897705,53.91999816894531,0.01568603515625,0.00823974609375,0.94769287109375,34.11000061035156,0.0,-6.0,-0.945220947265625,1.7574310302734375,Waiting,-6.5447214076246345,15.0,-53865.0,-198.0,-1545.0,-1620.0,0.0,0.0,
5.276672000000021,0.0,0.0,false,4753135.018711018,,-195.0,0.0,0.0,0.0,0.0,0.125,1.850585748,0.0,0.0,792.0,0.0,0.0,-0.0,0.0,0.0,2.66113254,0.0,0.0,-5380.0,0.0,0.0,0.0,0.0,0.0,4.010009355,0.0,0.0,2590.0,0.0,0.0,-0.0,0.0,0.0,2.507323962,0.0,0.0,1.25,0.5299999713897705,53.91999816894531,-0.03704833984375,0.00830078125,1.00830078125,34.16999816894531,0.0,-38.0,-0.939361572265625,1.75689697265625,Waiting,-5.4261974584555235,7.25,-54127.0,-216.0,-1627.5,-1620.0,0.0,0.0,
5.355547000000021,0.0,0.0,false,4753196.857272453,,-195.0,0.0,0.0,0.0,0.0,0.125,1.849365045,0.0,0.0,792.0,0.0,0.0,-0.0,0.0,0.0,2.662353243,0.0,0.0,-5380.0,0.0,0.0,0.0,0.0,0.0,4.007567949,0.0,0.0,2590.0,0.0,0.0,-0.0,0.0,0.0,2.506103259,0.0,0.0,1.2999999523162842,0.5,53.90999984741211,0.0863037109375,0.02386474609375,1.01031494140625,34.16999816894531,0.0,46.0,-0.933807373046875,1.7563018798828125,Waiting,-4.853763440860216,4.25,-54127.0,-216.0,-1665.0,-1620.0,0.0,0.0,
5.445189000000013,0.0,0.0,false,4753254.140378728,,-195.0,0.0,0.0,0.0,0.0,0.125,1.849365045,0.0,0.0,792.0,0.0,0.0,-0.0,0.0,0.0,2.66113254,0.0,0.0,-5380.0,0.0,0.0,0.0,0.0,0.0,4.010009355,0.0,0.0,2590.0,0.0,0.0,-0.0,0.0,0.0,2.507323962,0.0,0.0,1.2599999904632568,0.550000011920929,53.90999984741211,-0.05389404296875,-0.02777099609375,0.9493408203125,34.16999816894531,0.0,-76.0,-0.9280853271484375,1.7547607421875,Waiting,-4.7082111436950145,3.375,-54395.0,-223.0,-1672.5,-1620.0,0.0,0.0,
5.53025,0.0,0.0,false,4753304.6706478195,,-195.0,0.0,0.0,0.0,0.0,0.125,1.850585748,0.0,0.0,792.0,0.0,0.0,-0.0,0.0,0.0,2.662353243,0.0,0.0,-5380.0,0.0,0.0,0.0,0.0,0.0,4.006347246,0.0,0.0012207030000004337,2590.0,0.0,0.0,-0.0,0.0,0.0,2.506103259,0.0,0.0,1.2899999618530273,0.49000000953674316,53.90999984741211,0.09149169921875,0.10980224609375,1.0352783203125,34.16999816894531,0.0,118.0,-0.924163818359375,1.7552490234375,Waiting,-4.7927174975562075,3.5,-54663.0,-223.0,-1665.0,-1620.0,0.0,0.0,
5.610686999999918,0.0,0.0,false,4753350.646660872,,-195.0,0.0,0.0,0.0,0.0,0.125,1.850585748,0.0,0.0,792.0,0.0,0.0,-0.0,0.0,0.0,2.663573946,0.0,0.0,-5380.0,0.0,0.0,0.0,0.0,0.0,4.010009355,0.0,0.0,2590.0,0.0,0.0,-0.0,0.0,0.0,2.507323962,0.0,0.0,1.2799999713897705,0.5400000214576721,53.90999984741211,-0.06976318359375,0.014404296875,0.973388671875,34.16999816894531,0.0,-52.0,-0.91705322265625,1.7553558349609375,Waiting,-4.732355816226784,3.5,-54929.0,-222.0,-1665.0,-1620.0,0.0,0.0,
5.69493200000003,0.0,0.0,false,4753392.146334089,,-195.0,0.0,0.0,0.0,0.0,0.125,1.851806451,0.0,0.0,792.0,0.0,0.0,-0.0,0.0,0.0,2.662353243,0.0,0.0,-5380.0,0.0,0.0,0.0,0.0,0.0,4.010009355,0.0,-0.0012207030000004337,2590.0,0.0,0.0,-0.0,0.0,0.0,2.507323962,0.0,0.0,1.2799999713897705,0.5,53.90999984741211,0.0938720703125,0.085205078125,1.02386474609375,34.16999816894531,0.0,100.0,-0.911712646484375,1.7566680908203125,Waiting,-4.828934506353861,3.75,-54929.0,-222.0,-1657.5,-1620.0,0.0,0.0,
5.776917999999947,0.0,0.0,false,4753429.09277805,,-195.0,0.0,0.0,0.0,0.0,0.125,1.853027154,0.0,0.0,792.0,0.0,0.0,-0.0,0.0,0.0,2.662353243,0.0,0.0,-5380.0,0.0,0.0,0.0,0.0,0.0,4.008788652,0.0,0.0012207030000004337,2590.0,0.0,0.0,-0.0,0.0,0.0,2.506103259,0.0,0.0,1.2699999809265137,0.5400000214576721,53.90999984741211,-0.06964111328125,-0.04718017578125,0.95770263671875,34.16999816894531,0.0,-101.0,-0.9034576416015625,1.75836181640625,Waiting,-4.780645161290322,3.625,-55197.0,-221.0,-1657.5,-1620.0,0.0,0.0,
5.857569999999948,0.0,0.0,false,4753461.486508956,,-195.0,0.0,0.0,0.0,0.0,0.125,1.849365045,0.0,0.0,792.0,0.0,0.0,-0.0,0.0,0.0,2.66113254,0.0,0.0,-5380.0,0.0,0.0,0.0,0.0,0.0,4.010009355,0.0,0.0,2590.0,0.0,0.0,-0.0,0.0,0.0,2.507323962,0.0,0.0,1.309999942779541,0.5099999904632568,53.90999984741211,0.08056640625,0.004638671875,1.02459716796875,34.16999816894531,0.0,26.0,-0.89727783203125,1.7599639892578125,Waiting,-4.744428152492668,3.5,-55465.0,-221.0,-1657.5,-1620.0,0.0,0.0,
5.947638999999967,0.0,0.0,false,4753489.4223633,,-195.0,0.0,0.0,0.0,0.0,0.125,1.850585748,0.0,0.0,792.0,0.0,0.0,-0.0,0.0,0.0,2.662353243,0.0,0.0,-5380.0,0.0,0.0,0.0,0.0,0.0,4.010009355,0.0,0.0,2590.0,0.0,0.0,-0.0,0.0,0.0,2.507323962,0.0,0.0,1.2999999523162842,0.5099999904632568,53.90999984741211,-0.07012939453125,0.0269775390625,0.98150634765625,34.16999816894531,0.0,-42.0,-0.8917236328125,1.7598114013671875,Waiting,-4.828934506353861,3.75,-55465.0,-221.0,-1650.0,-1620.0,0.0,0.0,
6.034356000000029,0.0,0.0,false,4753621.575272067,,-195.0,0.0,0.0,0.0,0.0,0.125,1.850585748,0.0,0.0,792.0,0.0,0.0,-0.0,0.0,0.0,2.66113254,0.0,0.0,-5380.0,0.0,0.0,0.0,0.0,0.0,4.008788652,0.0,0.0,2590.0,0.0,0.0,-0.0,0.0,0.0,2.507323962,0.0,0.0,1.2699999809265137,0.5099999904632568,53.90999984741211,0.0164794921875,0.072998046875,1.03607177734375,34.16999816894531,0.0,44.0,-0.886383056640625,1.7597808837890625,Waiting,-4.7927174975562075,3.75,-55725.0,-220.0,-1650.0,-1620.0,0.0,0.0,
6.128329999999958,0.0,0.0,false,4753749.16395239,,-195.0,0.0,0.0,0.0,0.0,0.125,1.8469236390000001,0.0,0.0,792.0,0.0,0.0,-0.0,0.0,0.0,2.66113254,0.0,0.0,-5380.0,0.0,0.0,0.0,0.0,0.0,4.010009355,0.0,0.0012207030000004337,2590.0,0.0,0.0,-0.0,0.0,0.0,2.507323962,0.0,0.0,1.3300000429153442,0.5199999809265137,53.90999984741211,-0.0233154296875,0.00494384765625,0.98382568359375,34.16999816894531,0.0,-33.0,-0.8808135986328125,1.7602996826171875,Waiting,-4.756500488758553,3.625,-55988.0,-220.0,-1650.0,-1620.0,0.0,0.0,
6.209337999999989,0.0,0.0,false,4753872.1937580295,,-195.0,0.0,0.0,0.0,0.0,0.125,1.850585748,0.0,0.0,792.0,0.0,0.0,-0.0,0.0,0.0,2.66113254,0.0,0.0,-5380.0,0.0,0.0,0.0,0.0,0.0,4.010009355,0.0,0.0,2590.0,0.0,0.0,-0.0,0.0,0.0,2.506103259,0.0,0.0,1.2799999713897705,0.5199999809265137,53.90999984741211,0.0037841796875,0.04595947265625,1.0126953125,34.16999816894531,0.0,15.0,-0.8743743896484375,1.7592620849609375,Waiting,-4.85307917888563,3.75,-56252.0,-219.0,-1642.5,-1620.0,0.9,6.375,
6.292704999999958,0.0,0.0,false,4753990.66067178,,-195.0,0.0,0.0,0.0,0.0,0.125,1.857909966,0.0,-0.0012207030000004337,792.0,0.0,0.0,-0.0,0.0,0.0,2.662353243,0.0,0.0,-5380.0,0.0,0.0,0.0,0.0,0.0,4.010009355,0.0,-0.0012207030000004337,2590.0,0.0,0.0,-0.0,0.0,0.0,2.507323962,0.0,0.0,1.309999942779541,0.5099999904632568,53.90999984741211,0.0908203125,0.0469970703125,1.01104736328125,34.16999816894531,0.0,67.0,-0.868682861328125,1.757598876953125,Waiting,-4.7702834799608995,3.75,-56252.0,-219.0,-1642.5,-1620.0,0.9,2.375,
6.378113999999943,0.0,0.0,false,4754102.450052894,,-195.0,0.0,0.0,0.0,0.0,0.125,1.850585748,0.0,0.0,792.0,0.0,0.0,-0.0,0.0,0.0,2.662353243,0.0,0.0,-5380.0,0.0,0.0,0.0,0.0,0.0,4.010009355,0.0,0.0,2590.0,0.0,0.0,-0.0,0.0,0.0,2.507323962,0.0,0.0,1.340000033378601,0.5299999713897705,53.88999938964844,-0.02655029296875,0.02642822265625,0.98272705078125,34.16999816894531,0.0,-18.0,-0.863189697265625,1.755218505859375,Waiting,-4.765884652981427,3.625,-56516.0,-219.0,-1642.5,-1620.0,0.9,1.75,
6.460785999999963,0.0,0.0,false,4754209.67743398,,-195.0,0.0,0.0,0.0,0.0,0.125,1.850585748,0.0,0.0,792.0,0.0,0.0,-0.0,0.0,0.0,2.66113254,0.0,0.0,-5380.0,0.0,0.0,0.0,0.0,0.0,4.010009355,0.0,0.0,2590.0,0.0,0.0,-0.0,0.0,0.0,2.506103259,0.0,0.0,1.350000023841858,0.49000000953674316,53.88999938964844,0.0428466796875,0.054443359375,1.0767822265625,34.16999816894531,0.0,43.0,-0.858123779296875,1.75390625,Waiting,-4.780645161290322,3.625,-56778.0,-219.0,-1642.5,-1620.0,0.9,0.375,
6.540870999999926,0.0,0.0,false,4754312.348167737,,-195.0,0.0,0.0,0.0,0.0,0.125,1.850585748,0.0,0.0,792.0,0.0,0.0,-0.0,0.0,0.0,2.66113254,0.0,0.0,-5380.0,0.0,0.0,0.0,0.0,0.0,4.010009355,0.0,0.0,2590.0,0.0,0.0,-0.0,0.0,0.0,2.512206774,0.0,0.0,1.3799999952316284,0.49000000953674316,53.88999938964844,-0.045654296875,0.02789306640625,1.041259765625,34.16999816894531,0.0,-30.0,-0.8522796630859375,1.7527618408203125,Waiting,-4.889296187683285,3.75,-56778.0,-219.0,-1635.0,-1620.0,0.0,0.0,
6.622054999999935,0.0,0.0,false,4754410.462770579,,-195.0,0.0,0.0,0.0,0.0,0.125,1.850585748,0.0,0.0,792.0,0.0,0.0,-0.0,0.0,0.0,2.66113254,0.0,0.0,-5380.0,0.0,0.0,0.0,0.0,0.0,4.010009355,0.0,0.0,2590.0,0.0,0.0,-0.0,0.0,0.0,2.507323962,0.0,0.0,1.3799999952316284,0.5,53.88999938964844,0.05615234375,-0.04766845703125,1.01263427734375,34.16999816894531,0.0,-30.0,-0.8463134765625,1.7525177001953125,Waiting,-4.943939393939394,4.0,-57041.0,-218.0,-1635.0,-1620.0,0.0,0.0,
6.705873000000022,0.0,0.0,false,4754504.099123603,,-195.0,0.0,0.0,0.0,0.0,0.125,1.8457029360000001,0.0,0.0,792.0,0.0,0.0,-0.0,0.0,0.0,2.662353243,0.0,0.0,-5380.0,0.0,0.0,0.0,0.0,0.0,4.010009355,0.0,0.0,2590.0,0.0,0.0,-0.0,0.0,0.0,2.507323962,0.0,0.0,1.3300000429153442,0.5199999809265137,53.88999938964844,0.02227783203125,0.028564453125,0.91412353515625,34.16999816894531,0.0,14.0,-0.8430938720703125,1.7518768310546875,Waiting,-4.784457478005865,3.5,-57306.0,-219.0,-1642.5,-1620.0,0.0,0.0,
6.791628999999957,0.0,0.0,false,4754593.180372455,,-195.0,0.0,0.0,0.0,0.0,0.125,1.849365045,0.0,-0.0012207030000004337,792.0,0.0,0.0,-0.0,0.0,0.0,2.66113254,0.0,0.0,-5380.0,0.0,0.0,0.0,0.0,0.0,4.010009355,0.0,0.0012207030000004337,2590.0,0.0,0.0,-0.0,0.0,0.0,2.506103259,0.0,0.0,1.3300000429153442,0.5099999904632568,53.88999938964844,-0.01885986328125,0.01007080078125,1.0501708984375,34.150001525878906,0.0,-28.0,-0.8427581787109375,1.7518768310546875,Waiting,-4.759921798631477,3.5,-57306.0,-219.0,-1642.5,-1620.0,0.0,0.0,
6.87902099999995,0.0,0.0,false,4754677.707033316,,-195.0,0.0,0.0,0.0,0.0,0.125,1.851806451,0.0,0.0,792.0,0.0,0.0,-0.0,0.0,0.0,2.66113254,0.0,0.0,-5380.0,0.0,0.0,0.0,0.0,0.0,4.010009355,0.0,-0.0012207030000004337,2590.0,0.0,0.0,-0.0,0.0,0.0,2.507323962,0.0,0.0,1.3300000429153442,0.5199999809265137,53.88999938964844,-0.031982421875,0.009765625,1.00836181640625,34.150001525878906,0.0,-35.0,-0.8418121337890625,1.75201416015625,Waiting,-4.889736070381232,3.875,-57567.0,-218.0,-1635.0,-1620.0,0.9,5.5,
6.955750999999931,0.0,0.0,false,4754757.679622285,,-195.0,0.0,0.0,0.0,0.0,0.125,1.850585748,0.0,0.0,792.0,0.0,0.0,-0.0,0.0,0.0,2.659911837,0.0,0.0,-5380.0,0.0,0.0,0.0,0.0,0.0,4.008788652,0.0,0.0,2590.0,0.0,0.0,-0.0,0.0,0.0,2.507323962,0.0,0.0,1.340000033378601,0.5199999809265137,53.88999938964844,0.01812744140625,-0.02545166015625,1.01922607421875,34.150001525878906,0.0,-34.0,-0.8411407470703125,1.7520904541015625,Waiting,-4.858064516129033,3.75,-57829.0,-218.0,-1635.0,-1620.0,0.9,0.375,
7.040566999999923,0.0,0.0,false,4754830.9022510955,,-195.0,0.0,0.0,0.0,0.0,0.125,1.850585748,0.0,-0.0012207030000004337,792.0,0.0,0.0,-0.0,0.0,0.0,2.66113254,0.0,0.0,-5380.0,0.0,0.0,0.0,0.0,0.0,4.008788652,0.0,0.0,2590.0,0.0,0.0,-0.0,0.0,0.0,2.507323962,0.0,0.0,1.3300000429153442,0.5199999809265137,53.88999938964844,-0.01995849609375,-0.02532958984375,0.9974365234375,34.150001525878906,0.0,-56.0,-0.8411712646484375,1.75201416015625,Waiting,-7.422043010752688,3.75,-57829.0,-218.0,-1635.0,-1620.0,0.0,0.0,
7.129543999999995,0.0,0.0,false,4754899.572005892,,-195.0,0.0,0.0,0.0,0.0,0.125,1.8469236390000001,0.0,0.0012207030000004337,792.0,0.0,0.0,-0.0,0.0,0.0,2.662353243,0.0,0.0,-5380.0,0.0,0.0,0.0,0.0,0.0,4.010009355,0.0,0.0,2590.0,0.0,0.0,-0.0,0.0,0.0,2.507323962,0.0,0.0,1.3200000524520874,0.5,53.88999938964844,0.0443115234375,0.05987548828125,0.8466796875,34.150001525878906,0.0,54.0,-0.8408355712890625,1.75225830078125,Waiting,-7.495650048875856,10.375,-58086.0,-216.0,-1522.5,-1620.0,0.0,0.0,
7.209343999999924,0.0,0.0,false,4754963.6894025225,,-195.0,0.0,0.0,0.0,0.0,0.125,1.850585748,0.0,0.0,792.0,0.0,0.0,-0.0,0.0,0.0,2.662353243,0.0,0.0,-5380.0,0.0,0.0,0.0,0.0,0.0,4.010009355,0.0,0.0,2590.0,0.0,0.0,-0.0,0.0,0.0,2.515868883,0.0,0.0,1.3300000429153442,0.5199999809265137,53.90999984741211,0.0120849609375,0.08740234375,0.9600830078125,34.150001525878906,0.0,54.0,-0.8397369384765625,1.7515716552734375,Waiting,-7.730205278592376,21.0,-58318.0,-193.0,-1462.5,-1620.0,0.0,0.0,
7.293294999999926,0.0,0.0,false,4755023.254956759,,-195.0,0.0,0.0,0.0,0.0,0.125,1.849365045,0.0,0.0,792.0,0.0,0.0,-0.0,0.0,0.0,2.66113254,0.0,0.0,-5380.0,0.0,0.0,0.0,0.0,0.0,4.008788652,0.0,0.0,2590.0,0.0,0.0,-0.0,0.0,0.0,2.507323962,0.0,0.0,1.3600000143051147,0.47999998927116394,53.88999938964844,0.0272216796875,0.01641845703125,1.04425048828125,34.16999816894531,0.0,4.0,-0.839324951171875,1.7510986328125,Waiting,-6.134897360703812,11.75,-58575.0,-210.0,-1567.5,-1620.0,0.0,0.0,
7.380386999999988,0.0,0.0,false,4755078.26918429,,-195.0,0.0,0.0,0.0,0.0,0.125,1.850585748,0.0,0.0,792.0,0.0,0.0,-0.0,0.0,0.0,2.662353243,0.0,0.0,-5380.0,0.0,0.0,0.0,0.0,0.0,4.010009355,0.0,0.0,2590.0,0.0,0.0,-0.0,0.0,0.0,2.506103259,0.0,0.0,1.340000033378601,0.5099999904632568,53.88999938964844,-0.0020751953125,0.06396484375,1.04522705078125,34.16999816894531,0.0,25.0,-0.8392486572265625,1.7511138916015625,Waiting,-5.118670576735092,5.5,-58575.0,-210.0,-1635.0,-1620.0,0.0,0.0,
7.465331999999937,0.0,0.0,false,4755128.809939202,,-195.0,0.0,0.0,0.0,0.0,0.125,1.849365045,0.0,0.0,792.0,0.0,0.0,-0.0,0.0,0.0,2.64892551,0.0,0.0,-5380.0,0.0,0.0,0.0,0.0,0.0,4.010009355,0.0,0.0,2590.0,0.0,0.0,-0.0,0.0,0.0,2.507323962,0.0,0.0,1.309999942779541,0.49000000953674316,53.88999938964844,0.00396728515625,0.05908203125,0.97821044921875,34.16999816894531,0.0,26.0,-0.839141845703125,1.7516326904296875,Waiting,-4.759921798631477,3.625,-58841.0,-220.0,-1657.5,-1620.0,0.0,0.0,
7.550532000000007,0.0,0.0,false,4755174.723057171,,-195.0,0.0,0.0,0.0,0.0,0.125,1.849365045,0.0,0.0,792.0,0.0,0.0,-0.0,0.0,0.0,2.66113254,0.0,0.0,-5380.0,0.0,0.0,0.0,0.0,0.0,4.010009355,0.0,0.0,2590.0,0.0,0.0,-0.0,0.0,0.0,2.507323962,0.0,0.0,1.340000033378601,0.5099999904632568,53.900001525878906,0.009033203125,0.0263671875,0.98846435546875,34.16999816894531,0.0,2.0,-0.8386688232421875,1.7523956298828125,Waiting,-4.729618768328446,3.375,-59109.0,-221.0,-1657.5,-1620.0,0.0,0.0,
7.633591000000015,0.0,0.0,false,4755216.163727675,,-195.0,0.0,0.0,0.0,0.0,0.125,1.850585748,0.0,0.0,792.0,0.0,0.0,-0.0,0.0,0.0,2.662353243,0.0,0.0,-5380.0,0.0,0.0,0.0,0.0,0.0,4.010009355,0.0,0.0,2590.0,0.0,0.0,-0.0,0.0,0.0,2.492675526,0.0,0.0,1.3300000429153442,0.49000000953674316,53.88999938964844,0.024169921875,0.00347900390625,1.00665283203125,34.16999816894531,0.0,-7.0,-0.839019775390625,1.7523193359375,Waiting,-4.6926686217008795,3.375,-59109.0,-221.0,-1657.5,-1620.0,0.0,0.0,
7.713800999999978,0.0,0.0,false,4755250.8593868,,-195.0,0.0,0.0,0.0,0.0,0.125,1.850585748,0.0,0.0,792.0,0.0,0.0,-0.0,0.0,0.0,2.66113254,0.0,0.0,-5380.0,0.0,0.0,0.0,0.0,0.0,4.010009355,0.0,0.0,2590.0,0.0,0.0,-0.0,0.0,0.0,2.507323962,0.0,0.0,1.340000033378601,0.5099999904632568,53.900001525878906,-0.00146484375,0.03204345703125,1.005615234375,34.16999816894531,0.0,0.0,-0.8391571044921875,1.7514190673828125,Waiting,-4.778885630498534,3.625,-59371.0,-221.0,-1650.0,-1620.0,0.0,0.0,
7.802240999999921,0.0,0.0,false,4755281.006456485,,-195.0,0.0,0.0,0.0,0.0,0.125,1.850585748,0.0,0.0,792.0,0.0,0.0,-0.0,0.0,0.0,2.66113254,0.0,0.0,-5380.0,0.0,0.0,0.0,0.0,0.0,4.010009355,0.0,0.0,2590.0,0.0,0.0,-0.0,0.0,0.0,2.509765368,0.0,0.0,1.340000033378601,0.5099999904632568,53.88999938964844,0.01568603515625,0.0391845703125,0.97332763671875,34.189998626708984,0.0,17.0,-0.8388519287109375,1.75079345703125,Waiting,-4.723118279569892,3.375,-59636.0,-220.0,-1650.0,-1620.0,0.0,0.0,
7.890532999999937,0.0,0.0,false,4755415.262704825,,-195.0,0.0,0.0,0.0,0.0,0.125,1.849365045,0.0,0.0,792.0,0.0,0.0,-0.0,0.0,0.0,2.66113254,0.0,0.0,-5380.0,0.0,0.0,0.0,0.0,0.0,4.010009355,0.0,0.0,2590.0,0.0,0.0,-0.0,0.0,0.0,2.515868883,0.0,0.0,1.3200000524520874,0.5099999904632568,53.88999938964844,0.00946044921875,0.0401611328125,1.000244140625,34.189998626708984,0.0,14.0,-0.8386993408203125,1.750885009765625,Waiting,-4.833528836754644,3.75,-59636.0,-220.0,-1642.5,-1620.0,0.0,0.0,
7.971843999999924,0.0,0.0,false,4755544.993997055,,-195.0,0.0,0.0,0.0,0.0,0.125,1.849365045,0.0,0.0,792.0,0.0,0.0,-0.0,0.0,0.0,2.66113254,0.0,0.0,-5380.0,0.0,0.0,0.0,0.0,0.0,4.010009355,0.0,0.0,2590.0,0.0,0.0,-0.0,0.0,0.0,2.507323962,0.0,0.0,1.3300000429153442,0.5199999809265137,53.88999938964844,0.004638671875,0.004150390625,1.0126953125,34.189998626708984,0.0,-18.0,-0.83856201171875,1.7511444091796875,Waiting,-4.79672531769306,3.625,-59900.0,-219.0,-1642.5,-1620.0,0.0,0.0,
8.053113000000012,0.0,0.0,false,4755670.196013289,,-195.0,0.0,0.0,0.0,0.0,0.125,1.850585748,0.0,-0.0012207030000004337,792.0,0.0,0.0,-0.0,0.0,0.0,2.662353243,0.0,0.0,-5380.0,0.0,0.0,0.0,0.0,0.0,4.010009355,0.0,0.0,2590.0,0.0,0.0,-0.0,0.0,0.0,2.507323962,0.0,0.0,1.350000023841858,0.5099999904632568,53.88999938964844,0.01715087890625,0.00762939453125,1.040771484375,34.189998626708984,0.0,-9.0,-0.8390655517578125,1.7510986328125,Waiting,-4.7912023460410555,3.625,-60163.0,-219.0,-1642.5,-1620.0,0.0,0.0,
8.135319000000017,0.0,0.0,false,4755790.951413794,,-195.0,0.0,0.0,0.0,0.0,0.125,1.8444822330000001,0.0,0.0,792.0,0.0,0.0,-0.0,0.0,0.0,2.664794649,0.0,0.0,-5380.0,0.0,0.0,0.0,0.0,0.0,4.010009355,0.0,0.0,2590.0,0.0,0.0,-0.0,0.0,0.0,2.507323962,0.0,0.0,1.3300000429153442,0.5099999904632568,53.88999938964844,0.017333984375,0.02099609375,0.99700927734375,34.189998626708984,0.0,3.0,-0.8392333984375,1.7509307861328125,Waiting,-4.766568914956012,3.5,-60426.0,-219.0,-1642.5,-1620.0,0.0,0.0,
8.217910999999964,0.0,0.0,false,4755904.999018498,,-195.0,0.0,0.0,0.0,0.0,0.125,1.850585748,0.0,0.0,792.0,0.0,0.0,-0.0,0.0,0.0,2.662353243,0.0,0.0,-5380.0,0.0,0.0,0.0,0.0,0.0,4.011230058000001,0.0,0.0,2590.0,0.0,0.0,-0.0,0.0,0.0,2.507323962,0.0,0.0,1.3300000429153442,0.5199999809265137,53.88999938964844,6.103515625E-4,0.0230712890625,1.00909423828125,34.189998626708984,0.0,-5.0,-0.8390655517578125,1.7509918212890625,Waiting,-4.729618768328446,3.375,-60426.0,-219.0,-1642.5,-1620.0,0.9,5.5,
8.30617200000002,0.0,0.0,false,4756014.519044204,,-195.0,0.0,0.0,0.0,0.0,0.125,1.849365045,0.0,0.0,792.0,0.0,0.0,-0.0,0.0,0.0,2.664794649,0.0,0.0,-5380.0,0.0,0.0,0.0,0.0,0.0,4.010009355,0.0,0.0,2590.0,0.0,0.0,-0.0,0.0,0.0,2.506103259,0.0,0.0,1.3300000429153442,0.5199999809265137,53.88999938964844,-0.01171875,0.02752685546875,1.0120849609375,34.16999816894531,0.0,-9.0,-0.8388824462890625,1.751373291015625,Waiting,-4.833528836754644,3.625,-60689.0,-218.0,-1635.0,-1620.0,0.9,0.25,
8.38888300000003,0.0,0.0,false,4756119.516835271,,-195.0,0.0,0.0,0.0,0.0,0.125,1.849365045,0.0,0.0,792.0,0.0,0.0,-0.0,0.0,0.0,2.66113254,0.0,0.0,-5380.0,0.0,0.0,0.0,0.0,0.0,4.010009355,0.0,0.0,2590.0,0.0,0.0,-0.0,0.0,0.0,2.506103259,0.0,0.0,1.3300000429153442,0.5199999809265137,53.88999938964844,6.103515625E-4,0.0091552734375,1.0001220703125,34.16999816894531,0.0,-16.0,-0.8388824462890625,1.7513885498046875,Waiting,-4.808993157380255,3.625,-60956.0,-218.0,-1635.0,-1620.0,0.9,0.625,
8.470300999999978,0.0,0.0,false,4756220.070207224,,-195.0,0.0,0.0,0.0,0.0,0.125,1.850585748,0.0,0.0,792.0,0.0,0.0,-0.0,0.0,0.0,2.662353243,0.0,0.0,-5380.0,0.0,0.0,0.0,0.0,0.0,4.014892167,0.0,0.0,2590.0,0.0,0.0,-0.0,0.0,0.0,2.506103259,0.0,0.0,1.3300000429153442,0.5299999713897705,53.88999938964844,0.00750732421875,0.00946044921875,0.99615478515625,34.16999816894531,0.0,-12.0,-0.839263916015625,1.7510528564453125,Waiting,-4.79672531769306,3.625,-60956.0,-218.0,-1635.0,-1620.0,0.9,0.25,
8.551662000000011,0.0,0.0,false,4756316.097833471,,-195.0,0.0,0.0,0.0,0.0,0.125,1.850585748,0.0,0.0,792.0,0.0,0.0,-0.0,0.0,0.0,2.66113254,0.0,0.0,-5380.0,0.0,0.0,0.0,0.0,0.0,4.010009355,0.0,0.0,2590.0,0.0,0.0,-0.0,0.0,0.0,2.506103259,0.0,0.0,1.3300000429153442,0.5299999713897705,53.88999938964844,0.01092529296875,0.0106201171875,0.9765625,34.16999816894531,0.0,-8.0,-0.8393096923828125,1.7512054443359375,Waiting,-4.772189638318672,3.625,-61214.0,-218.0,-1635.0,-1620.0,0.9,0.25,
8.634505999999936,0.0,0.0,false,4756407.604755614,,-195.0,0.0,0.0,0.0,0.0,0.125,1.850585748,0.0,0.0,792.0,0.0,0.0,-0.0,0.0,0.0,2.6452634010000002,0.0,0.0,-5380.0,0.0,0.0,0.0,0.0,0.0,4.010009355,0.0,0.0,2590.0,0.0,0.0,-0.0,0.0,0.0,2.506103259,0.0,0.0,1.2999999523162842,0.5,53.88999938964844,-0.121826171875,-0.020263671875,1.03863525390625,34.16999816894531,0.0,-112.0,-0.8390045166015625,1.7516937255859375,Waiting,-8.464809384164223,5.625,-61465.0,-214.0,-1590.0,-1620.0,0.0,0.0,
8.716780000000028,0.0,0.0,false,4756494.591485507,,-195.0,0.0,0.0,0.0,0.0,0.125,1.850585748,0.0,0.0,792.0,0.0,0.0,-0.0,0.0,0.0,2.66113254,0.0,0.0,-5380.0,0.0,0.0,0.0,0.0,0.0,4.008788652,0.0,0.0,2590.0,0.0,0.0,-0.0,0.0,0.0,2.506103259,0.0,0.0,1.3300000429153442,0.5,53.88999938964844,-0.00238037109375,0.0361328125,0.96649169921875,34.16999816894531,0.0,4.0,-0.837982177734375,1.75384521484375,Waiting,-8.342130987292277,18.625,-61465.0,-214.0,-1447.5,-1620.0,0.0,0.0,
8.804097999999998,0.0,0.0,false,4756577.058534929,,-195.0,0.0,0.0,0.0,0.0,0.125,1.849365045,0.0,0.0,792.0,0.0,0.0,-0.0,0.0,0.0,2.66113254,0.0,0.0,-5380.0,0.0,0.0,0.0,0.0,0.0,4.008788652,0.0,0.0,2590.0,0.0,0.0,-0.0,0.0,0.0,2.507323962,0.0,0.0,1.3200000524520874,0.5,53.88999938964844,0.0125732421875,0.026123046875,0.97149658203125,34.18000030517578,0.0,5.0,-0.8371429443359375,1.756134033203125,Waiting,-6.709677419354839,16.375,-61701.0,-193.0,-1545.0,-1620.0,0.0,0.0,
8.892074000000022,0.0,0.0,false,4756652.8272322435,,-195.0,0.0,0.0,0.0,0.0,0.125,1.849365045,0.0,0.0,792.0,0.0,0.0,-0.0,0.0,0.0,2.650146213,0.0,0.0,-5380.0,0.0,0.0,0.0,0.0,0.0,4.010009355,0.0,0.0,2590.0,0.0,0.0,-0.0,0.0,0.0,2.506103259,0.0,0.0,1.3300000429153442,0.5299999713897705,53.88999938964844,0.0050048828125,-0.00323486328125,0.98828125,34.18000030517578,0.0,-23.0,-0.8369140625,1.7590789794921875,Waiting,-5.357575757575757,7.5,-61958.0,-212.0,-1612.5,-1620.0,0.0,0.0,
8.972255999999936,0.0,0.0,false,4756724.077436885,,-195.0,0.0,0.0,0.0,0.0,0.125,1.849365045,0.0,0.0,792.0,0.0,0.0,-0.0,0.0,0.0,2.662353243,0.0,0.0,-5380.0,0.0,0.0,0.0,0.0,0.0,4.007567949,0.0,0.0,2590.0,0.0,0.0,-0.0,0.0,0.0,2.507323962,0.0,0.0,1.2999999523162842,0.5199999809265137,53.88999938964844,0.00457763671875,-0.01971435546875,0.9932861328125,34.18000030517578,0.0,-36.0,-0.8369903564453125,1.7595062255859375,Waiting,-4.889736070381232,4.125,-62224.0,-220.0,-1650.0,-1620.0,0.0,0.0,
9.055226999999956,0.0,0.0,false,4756790.809660377,,-195.0,0.0,0.0,0.0,0.0,0.125,1.850585748,0.0,0.0,792.0,0.0,0.0,-0.0,0.0,0.0,2.662353243,0.0,0.0,-5380.0,0.0,0.0,0.0,0.0,0.0,4.010009355,0.0,0.0,2590.0,0.0,0.0,-0.0,0.0,0.0,2.506103259,0.0,0.0,1.340000033378601,0.5099999904632568,53.88999938964844,0.00823974609375,0.00848388671875,1.0050048828125,34.18000030517578,0.0,-12.0,-0.8372344970703125,1.758575439453125,Waiting,-4.704985337243402,3.375,-62224.0,-220.0,-1657.5,-1620.0,0.0,0.0,
9.139396999999997,0.0,0.0,false,4756853.101694276,,-195.0,0.0,0.0,0.0,0.0,0.125,1.850585748,0.0,0.0,792.0,0.0,0.0,-0.0,0.0,0.0,2.662353243,0.0,0.0,-5380.0,0.0,0.0,0.0,0.0,0.0,4.010009355,0.0,0.0,2590.0,0.0,0.0,-0.0,0.0,0.0,2.506103259,0.0,0.0,1.309999942779541,0.5,53.88999938964844,-0.01348876953125,0.0277099609375,1.0054931640625,34.18000030517578,0.0,-9.0,-0.8373870849609375,1.7577972412109375,Waiting,-4.655718475073314,3.25,-62489.0,-221.0,-1657.5,-1620.0,0.0,0.0,
9.216626999999978,0.0,0.0,false,4756910.876764018,,-195.0,0.0,0.0,0.0,0.0,0.125,1.850585748,0.0,0.0,792.0,0.0,0.0,-0.0,0.0,0.0,2.66113254,0.0,0.0,-5380.0,0.0,0.0,0.0,0.0,0.0,4.006347246,0.0,0.0,2590.0,0.0,0.0,-0.0,0.0,0.0,2.509765368,0.0,0.0,1.340000033378601,0.5099999904632568,53.88999938964844,0.0169677734375,0.02117919921875,0.9600830078125,34.18000030517578,0.0,3.0,-0.837005615234375,1.7580108642578125,Waiting,-4.754252199413489,3.5,-62756.0,-220.0,-1650.0,-1620.0,0.0,0.0,
9.30396399999992,0.0,0.0,false,4756964.1353809,,-195.0,0.0,0.0,0.0,0.0,0.125,1.850585748,0.0,0.0,792.0,0.0,0.0,-0.0,0.0,0.0,2.66113254,0.0,0.0,-5380.0,0.0,0.0,0.0,0.0,0.0,4.010009355,0.0,0.0,2590.0,0.0,0.0,-0.0,0.0,0.0,2.506103259,0.0,0.0,1.309999942779541,0.49000000953674316,53.88999938964844,0.00225830078125,0.05419921875,0.97357177734375,34.18000030517578,0.0,22.0,-0.836822509765625,1.75823974609375,Waiting,-4.717302052785924,3.375,-62756.0,-220.0,-1650.0,-1620.0,0.0,0.0,
9.388493999999948,0.0,0.0,false,4757012.8780561425,,-195.0,0.0,0.0,0.0,0.0,0.125,1.848144342,0.0,0.0,792.0,0.0,0.0,-0.0,0.0,0.0,2.66113254,0.0,0.0,-5380.0,0.0,0.0,0.0,0.0,0.0,4.011230058000001,0.0,0.0,2590.0,0.0,0.0,-0.0,0.0,0.0,2.507323962,0.0,0.0,1.3200000524520874,0.5099999904632568,53.88999938964844,0.012939453125,-0.02410888671875,1.0341796875,34.16999816894531,0.0,-36.0,-0.8366241455078125,1.75848388671875,Waiting,-4.680351906158358,3.375,-63018.0,-220.0,-1650.0,-1620.0,0.0,0.0,
9.472824999999954,0.0,0.0,false,4757057.105300887,,-195.0,0.0,0.0,0.0,0.0,0.125,1.849365045,0.0,0.0,792.0,0.0,0.0,-0.0,0.0,0.0,2.66113254,0.0,0.0,-5380.0,0.0,0.0,0.0,0.0,0.0,4.010009355,0.0,0.0,2590.0,0.0,0.0,-0.0,0.0,0.0,2.506103259,0.0,0.0,1.350000023841858,0.49000000953674316,53.88999938964844,0.0185546875,-0.014404296875,0.998291015625,34.16999816894531,0.0,-24.0,-0.83697509765625,1.7581787109375,Waiting,-4.7912023460410555,3.625,-63282.0,-219.0,-1642.5,-1620.0,0.0,0.0,
9.565446999999928,0.0,0.0,false,4757094.639100581,,-195.0,0.0,0.0,0.0,0.0,0.125,1.851806451,0.0,0.0,792.0,0.0,0.0,-0.0,0.0,0.0,2.662353243,0.0,0.0,-5380.0,0.0,0.0,0.0,0.0,0.0,4.007567949,0.0,0.0,2590.0,0.0,0.0,-0.0,0.0,0.0,2.506103259,0.0,0.0,1.340000033378601,0.5,53.88999938964844,0.00946044921875,0.04296875,0.968505859375,34.16999816894531,0.0,16.0,-0.8372802734375,1.7579193115234375,Waiting,-4.754252199413489,3.5,-63546.0,-219.0,-1642.5,-1620.0,0.0,0.0,
9.65732799999998,0.0,0.0,false,4757127.658656204,,-195.0,0.0,0.0,0.0,0.0,0.125,1.850585748,0.0,0.0,792.0,0.0,0.0,-0.0,0.0,0.0,2.66113254,0.0,0.0,-5380.0,0.0,0.0,0.0,0.0,0.0,4.008788652,0.0,0.0,2590.0,0.0,0.0,-0.0,0.0,0.0,2.506103259,0.0,0.0,1.2999999523162842,0.5,53.88999938964844,0.01019287109375,0.0302734375,1.02044677734375,34.16999816894531,0.0,6.0,-0.837249755859375,1.7580108642578125,Waiting,-4.729618768328446,3.375,-63546.0,-219.0,-1642.5,-1620.0,0.0,0.0,
9.746197999999975,0.0,0.0,false,4757156.1644786475,,-195.0,0.0,0.0,0.0,0.0,0.125,1.850585748,0.0,0.0,792.0,0.0,0.0,-0.0,0.0,0.0,2.662353243,0.0,0.0,-5380.0,0.0,0.0,0.0,0.0,0.0,4.010009355,0.0,0.0,2590.0,0.0,0.0,-0.0,0.0,0.0,2.506103259,0.0,0.0,1.309999942779541,0.5099999904632568,53.88999938964844,0.017578125,-0.0167236328125,0.9732666015625,34.16999816894531,0.0,-26.0,-0.8372344970703125,1.7581634521484375,Waiting,-4.6926686217008795,3.375,-63811.0,-219.0,-1642.5,-1620.0,0.0,0.0,
9.836223999999929,0.0,0.0,false,4757288.001508921,,-195.0,0.0,0.0,0.0,0.0,0.125,1.8469236390000001,0.0,0.0,792.0,0.0,0.0,-0.0,0.0,0.0,2.66113254,0.0,0.0,-5380.0,0.0,0.0,0.0,0.0,0.0,4.010009355,0.0,0.0,2590.0,0.0,0.0,-0.0,0.0,0.0,2.507323962,0.0,0.0,1.340000033378601,0.5099999904632568,53.88999938964844,0.02410888671875,0.00750732421875,0.98828125,34.18000030517578,0.0,-3.0,-0.837432861328125,1.7579193115234375,Waiting,-4.803519061583578,3.625,-64071.0,-218.0,-1635.0,-1620.0,0.0,0.0,
9.931814999999943,0.0,0.0,false,4757415.282384006,,-195.0,0.0,0.0,0.0,0.0,0.125,1.850585748,0.0,0.0,792.0,0.0,0.0,-0.0,0.0,0.0,2.662353243,0.0,0.0,-5380.0,0.0,0.0,0.0,0.0,0.0,4.010009355,0.0,0.0,2590.0,0.0,0.0,-0.0,0.0,0.0,2.501220447,0.0,0.0,1.3300000429153442,0.5,53.88999938964844,0.018798828125,0.04443359375,1.01361083984375,34.18000030517578,0.0,22.0,-0.837493896484375,1.75775146484375,Waiting,-4.778885630498534,3.625,-64334.0,-218.0,-1635.0,-1620.0,0.0,0.0,
10.01370299999998,0.0,0.0,false,4757538.007317717,,-195.0,0.0,0.0,0.0,0.0,0.125,1.850585748,0.0,0.0,792.0,0.0,0.0,-0.0,0.0,0.0,2.66113254,0.0,0.0,-5380.0,0.0,0.0,0.0,0.0,0.0,4.010009355,0.0,0.0,2590.0,0.0,0.0,-0.0,0.0,0.0,2.507323962,0.0,0.0,1.3200000524520874,0.5,53.88999938964844,-0.00262451171875,0.05230712890625,1.05303955078125,34.18000030517578,0.0,15.0,-0.83734130859375,1.757904052734375,Waiting,-4.766568914956012,3.5,-64334.0,-218.0,-1635.0,-1620.0,0.0,0.0,
10.108344999999971,0.0,0.0,false,4757656.181653591,,-195.0,0.0,0.0,0.0,0.0,0.125,1.850585748,0.0,0.0,792.0,0.0,0.0,-0.0,0.0,0.0,2.662353243,0.0,0.0,-5380.0,0.0,0.0,0.0,0.0,0.0,4.010009355,0.0,0.0,2590.0,0.0,0.0,-0.0,0.0,0.0,2.507323962,0.0,0.0,1.309999942779541,0.5,53.88999938964844,0.01593017578125,0.00469970703125,0.96356201171875,34.18000030517578,0.0,-9.0,-0.837615966796875,1.7579345703125,Waiting,-4.741935483870968,3.5,-64598.0,-218.0,-1635.0,-1620.0,0.0,0.0,
10.193822999999975,0.0,0.0,false,4757769.801380455,,-195.0,0.0,0.0,0.0,0.0,0.125,1.850585748,0.0,0.0,792.0,0.0,0.0,-0.0,0.0,0.0,2.66113254,0.0,0.0,-5380.0,0.0,0.0,0.0,0.0,0.0,4.008788652,0.0,0.0,2590.0,0.0,0.0,-0.0,0.0,0.0,2.510986071,0.0,0.0,1.3300000429153442,0.5,53.88999938964844,0.01861572265625,-0.02099609375,0.94183349609375,34.18000030517578,0.0,-28.0,-0.8377685546875,1.757904052734375,Waiting,-4.729618768328446,3.5,-64858.0,-218.0,-1635.0,-1620.0,0.0,0.0,
10.279410999999964,0.0,0.0,false,4757878.866711926,,-195.0,0.0,0.0,0.0,0.0,0.125,1.849365045,0.0,0.0,792.0,0.0,0.0,-0.0,0.0,0.0,2.662353243,0.0,0.0,-5380.0,0.0,0.0,0.0,0.0,0.0,4.010009355,0.0,0.0,2590.0,0.0,0.0,-0.0,0.0,0.0,2.506103259,0.0,0.0,1.3200000524520874,0.5099999904632568,53.88999938964844,-0.00390625,0.05914306640625,1.01177978515625,34.18000030517578,0.0,21.0,-0.837890625,1.7577362060546875,Waiting,0.0,0.0,-64858.0,-218.0,-1620.0,0.0,0.0,0.0,
10.369988999999944,0.0,0.0,false,4757983.38299076,,-195.0,0.0,0.0,0.0,0.0,0.125,1.850585748,0.0,0.0,792.0,0.0,0.0,-0.0,0.0,0.0,2.6867673030000003,0.0,0.0,-5380.0,0.0,0.0,0.0,0.0,0.0,4.008788652,0.0,0.0,2590.0,0.0,0.0,-0.0,0.0,0.0,2.507323962,0.0,0.0,1.3200000524520874,0.5,53.88999938964844,0.00323486328125,0.00567626953125,1.01116943359375,34.16999816894531,0.0,-17.0,-0.837738037109375,1.7580413818359375,Waiting,0.0,0.0,-65116.0,-216.0,-1597.5,0.0,0.0,0.0,
