Time,ClimberA1,ClimberA2,CameraExists,HeapSpace,LoopTime,FRpos,FRCurrent,FRspeed,FRsetpoint,FRApos,FRACurrent,FREncpos,FREncSetpoint,FREncSpeed,FLpos,FLCurrent,FLspeed,FLsetpoint,FLApos,FLACurrent,FLEncpos,FLEncSetpoint,FLEncSpeed,BRpos,BRCurrent,BRspeed,BRsetpoint,BRApos,BRACurrent,BREncpos,BREncSetpoint,BREncSpeed,BLpos,BLCurrent,BLspeed,BLsetpoint,BLApos,BLACurrent,BLEncpos,BLEncSetpoint,BLEncSpeed,navx_Pitch,navx_Roll,navx_Yaw,navx_XAcc,navx_YAcc,navx_ZAcc,navx_Temp,navx_Bar,navx_Alt,navx_XDis,navx_YDis,GearPlacerState,ShootOutputV,ShootOutputCurrent,ShootEncPos,ShootEncVelocity,ShootSpeed,ShootSetpoint,CarouselSetpoint,CarouselCurrent,
0.14847699999995528,0.0,0.0,false,2936609.621218603,,3423.0,0.0,0.0,0.0,0.0,0.0,1.8457029360000001,0.0,0.0,-3663.0,0.0,0.0,-0.0,0.0,0.0,2.761230186,0.0,0.0,4027.0,0.0,0.0,0.0,0.0,0.0,4.000243731,0.0,0.0,-3614.0,0.0,0.0,-0.0,0.0,0.0,2.598876687,0.0,0.0,1.8200000524520874,0.9700000286102295,-150.97999572753906,-0.01800537109375,0.03271484375,1.0274658203125,32.83000183105469,0.0,31.0,0.1673736572265625,0.0746917724609375,Waiting,0.0,0.0,-27081.0,0.0,0.0,0.0,0.0,0.0,
0.17540799999999582,0.0,0.0,false,2936924.627230506,,3423.0,0.0,0.0,0.0,0.0,0.0,1.8457029360000001,0.0,0.0,-3663.0,0.0,0.0,-0.0,0.0,0.0,2.75878878,0.0,-0.004882811999999959,4027.0,0.0,0.0,0.0,0.0,0.0,4.000243731,0.0,0.0,-3614.0,0.0,0.0,-0.0,0.0,0.0,2.598876687,0.0,-0.009765623999999917,1.809999942779541,0.9300000071525574,-150.99000549316406,0.00390625,0.03179931640625,0.998779296875,32.83000183105469,0.0,10.0,0.1676483154296875,0.0746917724609375,Waiting,0.0,0.0,-27081.0,0.0,0.0,0.0,0.0,0.0,
0.21468899999995483,0.0,0.0,false,2937236.295997556,,3423.0,0.0,0.0,0.0,0.0,0.0,1.8457029360000001,0.0,0.0,-3663.0,0.0,0.0,-0.0,0.0,0.0,2.757568077,0.0,0.0,4027.0,0.0,0.0,0.0,0.0,0.0,4.000243731,0.0,-0.0012207030000004337,-3614.0,0.0,0.0,-0.0,0.0,0.0,2.598876687,0.0,0.0,1.8200000524520874,0.9300000071525574,-150.97000122070312,0.0234375,0.0302734375,1.02764892578125,32.83000183105469,0.0,-4.0,0.1676483154296875,0.0746917724609375,Waiting,0.0,0.0,-27081.0,0.0,0.0,0.0,0.0,0.0,
0.25300599999999396,0.0,0.0,false,2937544.796284981,,3423.0,0.0,0.0,0.0,0.0,0.0,1.8457029360000001,0.0,0.0,-3663.0,0.0,0.0,-0.0,0.0,0.0,2.75878878,0.0,0.0,4027.0,0.0,0.0,0.0,0.0,0.0,4.000243731,0.0,-0.0012207030000004337,-3614.0,0.0,0.0,-0.0,0.0,0.0,2.598876687,0.0,0.0,1.7999999523162842,0.949999988079071,-150.97000122070312,0.02166748046875,0.0096435546875,0.9840087890625,32.869998931884766,0.0,5.0,0.1676483154296875,0.07470703125,Waiting,0.0,0.0,-27081.0,0.0,0.0,0.0,0.0,0.0,
0.29233399999997345,0.0,0.0,false,2937849.9605303355,,3423.0,0.0,0.0,0.0,0.0,0.0,1.8457029360000001,0.0,0.0,-3663.0,0.0,0.0,-0.0,0.0,0.0,2.757568077,0.0,0.0,4027.0,0.0,0.0,0.0,0.0,0.0,4.000243731,0.0,0.0,-3614.0,0.0,0.0,-0.0,0.0,0.0,2.5939938750000002,0.0,-0.0024414059999999793,1.7699999809265137,0.9399999976158142,-150.97999572753906,0.00860595703125,0.01068115234375,1.00299072265625,32.869998931884766,0.0,16.0,0.1676483154296875,0.0748291015625,Waiting,0.0,0.0,-27081.0,0.0,0.0,0.0,0.0,0.0,
0.32722499999997673,0.0,0.0,false,2938151.7893450637,,3423.0,0.0,0.0,0.0,0.0,0.0,1.8457029360000001,0.0,0.0,-3663.0,0.0,0.0,-0.0,0.0,0.0,2.75878878,0.0,0.0,4027.0,0.0,0.0,0.0,0.0,0.0,4.000243731,0.0,0.0012207030000004337,-3614.0,0.0,0.0,-0.0,0.0,0.0,2.5939938750000002,0.0,-0.0024414059999999793,1.75,0.9300000071525574,-150.97000122070312,0.005126953125,0.0362548828125,0.99810791015625,32.869998931884766,0.0,6.0,0.1676483154296875,0.0748291015625,Waiting,0.0,0.0,-27081.0,0.0,0.0,0.0,0.0,0.0,
0.3649739999999874,0.0,0.0,false,2938450.4514631317,,3423.0,0.0,0.0,0.0,0.0,0.0,1.8457029360000001,0.0,0.0,-3663.0,0.0,0.0,-0.0,0.0,0.0,2.757568077,0.0,0.0,4027.0,0.0,0.0,0.0,0.0,0.0,4.000243731,0.0,0.0,-3614.0,0.0,0.0,-0.0,0.0,0.0,2.5915524690000002,0.0,0.0012207029999999897,1.75,0.9100000262260437,-150.97999572753906,0.0208740234375,0.021240234375,0.99920654296875,32.869998931884766,0.0,0.0,0.1676483154296875,0.0748291015625,Waiting,0.0,0.0,-27081.0,0.0,0.0,0.0,0.0,0.0,
0.4012239999999874,0.0,0.0,false,2938745.779352474,,3423.0,0.0,0.0,0.0,0.0,0.0,1.8457029360000001,0.0,0.0,-3663.0,0.0,0.0,-0.0,0.0,0.0,2.75878878,0.0,0.0,4027.0,0.0,0.0,0.0,0.0,0.0,4.000243731,0.0,0.0,-3614.0,0.0,0.0,-0.0,0.0,0.0,2.5939938750000002,0.0,0.0012207029999999897,1.7300000190734863,0.9300000071525574,-150.97000122070312,0.0181884765625,0.02020263671875,0.9990234375,32.869998931884766,0.0,3.0,0.1676483154296875,0.0748291015625,Waiting,0.0,0.0,-27081.0,0.0,0.0,0.0,0.0,0.0,
0.4418759999999893,0.0,0.0,false,2939037.941726223,,3423.0,0.0,0.0,0.0,0.0,0.0,1.8457029360000001,0.0,0.0,-3663.0,0.0,0.0,-0.0,0.0,0.0,2.75878878,0.0,0.0,4027.0,0.0,0.0,0.0,0.0,0.0,4.000243731,0.0,0.0,-3614.0,0.0,0.0,-0.0,0.0,0.0,2.5939938750000002,0.0,-0.0012207029999999897,1.7000000476837158,0.8999999761581421,-150.97000122070312,0.0064697265625,0.01678466796875,0.98974609375,32.869998931884766,0.0,14.0,0.1676483154296875,0.0748291015625,Waiting,0.0,0.0,-27081.0,0.0,0.0,0.0,0.0,0.0,
0.4721259999999893,0.0,0.0,false,2939326.771072563,,3423.0,0.0,0.0,0.0,0.0,0.0,1.8457029360000001,0.0,0.0,-3663.0,0.0,0.0,-0.0,0.0,0.0,2.75878878,0.0,0.0,4027.0,0.0,0.0,0.0,0.0,0.0,4.000243731,0.0,-0.0012207030000004337,-3614.0,0.0,0.0,-0.0,0.0,0.0,2.5939938750000002,0.0,0.0,1.7000000476837158,0.8999999761581421,-150.97999572753906,0.01190185546875,0.03057861328125,1.019287109375,32.869998931884766,0.0,3.0,0.1676483154296875,0.0748291015625,Waiting,0.0,0.0,-27081.0,0.0,0.0,0.0,0.0,0.0,
0.5095380000000005,0.0,0.0,false,2939615.397056129,,3423.0,0.0,0.0,0.0,0.0,0.0,1.8457029360000001,0.0,0.0,-3663.0,0.0,0.0,-0.0,0.0,0.0,2.75878878,0.0,0.0,4027.0,0.0,0.0,0.0,0.0,0.0,4.000243731,0.0,-0.0012207030000004337,-3614.0,0.0,0.0,-0.0,0.0,0.0,2.5939938750000002,0.0,0.0,1.7000000476837158,0.8999999761581421,-150.97999572753906,0.01947021484375,0.0224609375,0.9920654296875,32.869998931884766,0.0,0.0,0.1676483154296875,0.0748291015625,Waiting,0.0,0.0,-27081.0,0.0,0.0,0.0,0.0,0.0,
0.5467069999999948,0.0,0.0,false,2939900.8589226822,,3423.0,0.0,0.0,0.0,0.0,0.0,1.8457029360000001,0.0,0.0,-3663.0,0.0,0.0,-0.0,0.0,0.0,2.75878878,0.0,0.0,4027.0,0.0,0.0,0.0,0.0,0.0,4.000243731,0.0,0.0,-3614.0,0.0,0.0,-0.0,0.0,0.0,2.5927731720000002,0.0,0.0,1.690000057220459,0.8899999856948853,-150.97000122070312,0.00885009765625,0.01849365234375,1.00836181640625,32.869998931884766,0.0,11.0,0.1676483154296875,0.0748291015625,Waiting,0.0,0.0,-27081.0,0.0,0.0,0.0,0.0,0.0,
0.5753979999999865,0.0,0.0,false,2940182.9891908397,,3423.0,0.0,0.0,0.0,0.0,0.0,1.8457029360000001,0.0,0.0,-3663.0,0.0,0.0,-0.0,0.0,0.0,2.757568077,0.0,0.0,4027.0,0.0,0.0,0.0,0.0,0.0,4.000243731,0.0,0.0,-3614.0,0.0,0.0,-0.0,0.0,0.0,2.5939938750000002,0.0,0.0,1.6699999570846558,0.8799999952316284,-150.97000122070312,0.01202392578125,0.0184326171875,0.9918212890625,32.869998931884766,0.0,8.0,0.1676483154296875,0.0748291015625,Waiting,0.0,0.0,-27081.0,0.0,0.0,0.0,0.0,0.0,
0.6129349999999977,0.0,0.0,false,2940461.9565217393,,3423.0,0.25,0.0,-1190.5512392520905,0.0,0.0,1.8457029360000001,0.5533560492066895,0.0,-3663.0,0.0,0.0,-1190.5512392520905,0.0,0.0,2.75878878,4.397316058113635,-0.0012207029999999897,4027.0,0.0,0.0,-1190.5512392520905,0.0,0.0,3.9990230280000003,4.401758689006861,0.0,-3614.0,1.75,0.0,-1190.5512392520905,0.0,0.0,2.5939938750000002,0.5515167311543325,0.0,1.659999966621399,0.8700000047683716,-150.97999572753906,0.02203369140625,0.03155517578125,1.01068115234375,32.869998931884766,0.0,-6.0,0.1676483154296875,0.0748291015625,Waiting,0.0,0.0,-27081.0,0.0,0.0,0.0,0.0,0.0,
0.6515179999999818,0.0,0.0,false,2940737.593454235,,3423.0,4.5,-52.5,-2100.0,0.0,1.375,1.9226072250000001,0.5533560492066895,0.004882811999999959,-3663.0,5.5,-7.5,-2100.0,0.0,1.5,2.701415739,4.397316058113635,0.0012207029999999897,4027.0,5.75,-37.5,-2100.0,0.0,1.125,3.9904781070000004,4.401758689006861,0.0,-3614.0,5.125,-15.0,-2100.0,0.0,1.125,2.60009739,0.5515167311543325,0.0,1.6699999570846558,1.0499999523162842,-150.91000366210938,-0.01202392578125,-0.07647705078125,0.8984375,32.869998931884766,0.0,74.0,0.167572021484375,0.075225830078125,Waiting,0.0,0.0,-27081.0,0.0,0.0,0.0,0.0,0.0,
0.6905,0.0,0.0,false,2941010.0686286483,,3423.0,17.25,-232.5,-2100.0,0.0,2.0,2.0581052580000003,0.5533560492066895,0.0,-3663.0,21.375,-97.5,-2100.0,0.0,2.75,2.5634763,4.397316058113635,0.0,4027.0,12.75,-315.0,-2100.0,0.0,1.25,3.8452144500000003,4.401758689006861,0.0,-3614.0,23.0,-75.0,-2100.0,0.0,1.375,2.713622769,0.5515167311543325,0.0,1.7000000476837158,0.8799999952316284,-150.47000122070312,0.1995849609375,0.1287841796875,1.134765625,32.869998931884766,0.0,-205.0,0.1675872802734375,0.0758514404296875,Waiting,0.0,0.0,-27081.0,0.0,0.0,0.0,0.0,0.0,
0.7251319999999832,0.0,0.0,false,2941279.214604066,,3369.0,26.875,-322.5,-2100.0,0.0,0.5,2.1691892310000003,0.5533560492066895,0.0,-3737.0,28.375,-345.0,-2100.0,0.0,0.75,2.4304196730000003,4.397316058113635,0.0,3874.0,12.25,-832.5,-2100.0,0.0,0.125,3.720702744,4.401758689006861,0.0,-3653.0,35.0,-187.5,-2100.0,0.0,0.25,2.829589554,0.5515167311543325,0.0,1.7400000095367432,1.0800000429153442,-149.1999969482422,-0.04620361328125,-0.05767822265625,1.24432373046875,32.869998931884766,0.0,108.0,0.166717529296875,0.0771942138671875,Waiting,0.0,0.0,-27081.0,0.0,0.0,0.0,0.0,0.0,
0.7629899999999907,0.0,0.0,false,2941545.2,,3369.0,28.125,-330.0,-2100.0,0.0,0.375,2.236327896,0.5533560492066895,0.11108397300000039,-3737.0,26.375,-540.0,-2100.0,0.0,0.375,2.347411869,4.397316058113635,-0.12817381500000025,3874.0,12.375,-1057.5,-2100.0,0.0,0.125,3.6328121280000003,4.401758689006861,0.0,-3653.0,39.625,-345.0,-2100.0,0.0,0.25,2.910155952,0.5515167311543325,0.0,1.6399999856948853,1.0800000429153442,-147.10000610351562,0.07696533203125,-0.037353515625,0.411376953125,32.900001525878906,0.0,-31.0,0.1661224365234375,0.0789794921875,Waiting,0.0,0.0,-27081.0,0.0,0.0,0.0,0.0,0.0,
0.8025019999999786,0.0,0.0,false,2941807.8573957635,,3369.0,33.25,-360.0,-2100.0,0.0,0.375,2.293700937,0.5533560492066895,0.07568358599999936,-3737.0,22.5,-967.5,-2100.0,0.0,0.125,2.2741696890000003,4.397316058113635,-0.0952148339999992,3874.0,12.25,-1222.5,-2100.0,0.0,0.0,3.5729976810000004,4.401758689006861,-0.08789061599999926,-3653.0,41.875,-547.5,-2100.0,0.0,0.25,2.993163756,0.5515167311543325,0.08544921000000016,1.9199999570846558,0.9100000262260437,-145.1699981689453,-0.065185546875,0.2760009765625,1.398681640625,32.900001525878906,0.0,-58.0,0.1653900146484375,0.0801544189453125,Waiting,0.0,0.0,-27081.0,0.0,0.0,0.0,0.0,0.0,
0.8386149999999907,0.0,0.0,false,2942067.1874008058,,3369.0,35.625,-562.5,-2100.0,0.0,0.25,2.3181149970000003,0.5533560492066895,0.0,-3737.0,21.75,-1170.0,-2100.0,0.0,0.0,2.241210708,4.397316058113635,0.0,3874.0,15.125,-1102.5,-2100.0,0.0,0.0,3.55224573,4.401758689006861,0.0,-3784.0,41.5,-660.0,-2100.0,0.0,0.0,3.037109064,0.5515167311543325,0.0,2.0199999809265137,0.8700000047683716,-142.7100067138672,0.011474609375,0.0533447265625,0.87890625,32.900001525878906,0.0,-11.0,0.164581298828125,0.0805206298828125,Waiting,0.0,0.0,-27081.0,0.0,0.0,0.0,0.0,0.0,
0.8756019999999552,0.0,0.0,false,2942323.3586034304,,3250.0,35.5,-817.5,-2100.0,0.0,0.25,2.348632572,0.5533560492066895,0.0,-3931.0,21.875,-1177.5,-2100.0,0.0,0.0,2.230224381,4.397316058113635,0.0,3707.0,17.75,-1050.0,-2100.0,0.0,0.0,3.546142215,4.401758689006861,0.0,-3784.0,39.875,-900.0,-2100.0,0.0,0.0,3.066405936,0.5515167311543325,0.0,2.2200000286102295,0.5899999737739563,-138.0,0.08099365234375,0.17242431640625,0.8602294921875,32.900001525878906,0.0,-146.0,0.16290283203125,0.0803985595703125,Waiting,0.0,0.0,-27081.0,0.0,0.0,0.0,0.0,0.0,
0.9125079999999726,0.0,0.0,false,2942576.2036132812,,3250.0,33.875,-960.0,-2100.0,0.0,0.125,2.3828122560000002,0.5533560492066895,0.012207030000000785,-3931.0,23.0,-1170.0,-2100.0,0.0,0.0,2.231445084,4.397316058113635,-0.004882811999999959,3707.0,18.875,-1200.0,-2100.0,0.0,0.0,3.5339351850000003,4.401758689006861,-0.0012207029999995456,-3784.0,36.375,-1140.0,-2100.0,0.0,0.0,3.093261402,0.5515167311543325,0.0,2.309999942779541,0.3499999940395355,-134.1699981689453,0.01763916015625,0.1265869140625,0.89239501953125,32.900001525878906,0.0,94.0,0.16070556640625,0.079620361328125,Waiting,0.0,0.0,-27081.0,0.0,0.0,0.0,0.0,0.0,
0.9523009999999776,0.0,0.0,false,2942825.7230393654,,3250.0,29.625,-1252.5,-2100.0,0.0,0.125,2.396239989,0.5533560492066895,0.026855465999999772,-3931.0,24.75,-1252.5,-2100.0,0.0,0.0,2.230224381,4.397316058113635,0.0,3707.0,18.125,-1492.5,-2100.0,0.0,0.0,3.542480106,4.401758689006861,-0.003662109000000413,-4024.0,32.125,-1372.5,-2100.0,0.0,0.0,3.1079098380000003,0.5515167311543325,0.034179684000000154,2.309999942779541,0.12999999523162842,-127.45999908447266,0.14495849609375,0.1123046875,0.92449951171875,32.900001525878906,0.0,-146.0,0.158966064453125,0.0789642333984375,Waiting,0.0,0.0,-27081.0,0.0,0.0,0.0,0.0,0.0,
0.993030999999959,0.0,0.0,false,2943072.0854387893,,3005.0,25.75,-1515.0,-2100.0,0.0,0.125,2.396239989,0.5533560492066895,0.004882811999999959,-4160.0,25.0,-1425.0,-2100.0,0.0,0.0,2.230224381,4.397316058113635,0.0,3447.0,14.125,-1620.0,-2100.0,0.0,0.0,3.544921512,4.401758689006861,0.0,-4024.0,29.625,-1500.0,-2100.0,0.0,0.0,3.1091305410000003,0.5515167311543325,0.009765623999999917,2.109999895095825,0.23000000417232513,-119.66999816894531,-0.01220703125,-0.079833984375,0.03399658203125,32.900001525878906,0.0,76.0,0.15570068359375,0.0785675048828125,Waiting,0.0,0.0,-27081.0,0.0,0.0,0.0,0.0,0.0,
1.0264159999999682,0.0,0.0,false,2943315.1234515165,,3005.0,21.625,-1747.5,-2100.0,0.0,0.0,2.395019286,0.5533560492066895,0.0,-4160.0,23.875,-1627.5,-2100.0,0.0,0.0,2.231445084,4.397316058113635,0.0,3447.0,10.5,-1815.0,-2100.0,0.0,0.0,3.5302730760000003,4.401758689006861,0.0,-4024.0,25.375,-1732.5,-2100.0,0.0,0.0,3.1115719470000003,0.5515167311543325,0.0,2.359999895095825,-0.30000001192092896,-114.0,-0.01519775390625,0.06787109375,1.99993896484375,32.900001525878906,0.0,15.0,0.1533355712890625,0.0787811279296875,Waiting,0.0,0.0,-27081.0,0.0,0.0,0.0,0.0,0.0,
1.0604389999999548,0.0,0.0,false,2943555.005613864,,3005.0,18.25,-1927.5,-2100.0,0.0,0.0,2.396239989,0.5533560492066895,0.0,-4160.0,21.75,-1770.0,-2100.0,0.0,0.0,2.2229001630000003,4.397316058113635,0.0,3447.0,8.0,-1957.5,-2100.0,0.0,0.0,3.542480106,4.401758689006861,0.0,-4024.0,21.125,-1942.5,-2100.0,0.0,0.0,3.1103512440000003,0.5515167311543325,0.0,1.9700000286102295,-0.2199999988079071,-104.83999633789062,-0.04229736328125,0.09625244140625,0.86767578125,32.900001525878906,0.0,-54.0,0.150299072265625,0.0800933837890625,Waiting,0.0,0.0,-27081.0,0.0,0.0,0.0,0.0,0.0,
1.1074799999999814,0.0,0.0,false,2943791.564586003,,2679.0,16.875,-2002.5,-2100.0,0.0,0.0,2.395019286,0.5533560492066895,0.0,-4460.0,19.75,-1890.0,-2100.0,0.0,0.0,2.2265622720000002,4.397316058113635,0.0,3116.0,6.25,-2077.5,-2100.0,0.0,0.0,3.541259403,4.401758689006861,0.0,-4357.0,17.25,-2100.0,-2100.0,0.0,0.0,3.1103512440000003,0.5515167311543325,0.0,2.069999933242798,-0.38999998569488525,-98.41999816894531,0.13287353515625,0.09234619140625,1.2994384765625,32.900001525878906,0.0,-65.0,0.14837646484375,0.081207275390625,Waiting,0.0,0.0,-27081.0,0.0,0.0,0.0,0.0,0.0,
1.1444519999999903,0.0,0.0,false,2944024.800976205,,2679.0,14.125,-2130.0,-2100.0,0.0,0.0,2.399902098,0.5533560492066895,0.0,-4460.0,18.625,-1942.5,-2100.0,0.0,0.0,2.2253415690000002,4.397316058113635,0.0,3116.0,5.625,-2167.5,-2100.0,0.0,0.0,3.541259403,4.401758689006861,0.0,-4357.0,14.5,-2205.0,-2100.0,0.0,0.0,3.1066891350000003,0.5515167311543325,0.0,1.7799999713897705,-0.7400000095367432,-88.41999816894531,0.1104736328125,0.1331787109375,0.93017578125,32.900001525878906,0.0,-100.0,0.1457366943359375,0.0830078125,Waiting,0.0,0.0,-27081.0,0.0,0.0,0.0,0.0,0.0,
1.1751989999999641,0.0,0.0,false,2944254.88328961,,2679.0,12.25,-2220.0,-2100.0,0.0,0.125,2.401122801,0.5533560492066895,0.0,-4460.0,16.125,-2055.0,-2100.0,0.0,0.0,2.2241208660000003,4.397316058113635,0.0,3116.0,4.375,-2205.0,-2100.0,0.0,0.0,3.541259403,4.401758689006861,0.0,-4357.0,13.25,-2242.5,-2100.0,0.0,0.0,3.118896165,0.5515167311543325,0.0,1.659999966621399,-0.5400000214576721,-81.58000183105469,-0.19482421875,0.09564208984375,0.583740234375,32.900001525878906,0.0,-105.0,0.1437835693359375,0.0843353271484375,Waiting,0.0,0.0,-27081.0,0.0,0.0,0.0,0.0,0.0,
1.2145939999999829,0.0,0.0,false,2944481.644216691,,2308.0,10.5,-2295.0,-2100.0,0.0,0.125,2.399902098,0.5533560492066895,-0.0012207030000004337,-4808.0,14.5,-2152.5,-2100.0,0.0,0.0,2.2155759450000003,4.397316058113635,0.0,2749.0,2.375,-2280.0,-2100.0,0.0,0.0,3.5278316700000003,4.401758689006861,0.0,-4728.0,11.25,-2302.5,-2100.0,0.0,0.0,3.118896165,0.5515167311543325,0.0,1.5099999904632568,-0.8899999856948853,-71.0999984741211,0.06683349609375,0.15594482421875,0.75750732421875,32.900001525878906,0.0,-102.0,0.1403350830078125,0.0866851806640625,Waiting,0.0,0.0,-27081.0,0.0,0.0,0.0,0.0,0.0,
1.2555239999999759,0.0,0.0,false,2944705.084365278,,2308.0,7.125,-2347.5,-711.0235959291458,0.0,0.125,2.399902098,0.5533560492066895,0.0,-4808.0,10.375,-2205.0,-711.0235959291458,0.0,0.0,2.211913836,4.397316058113635,-0.009765623999999917,2749.0,1.25,-2310.0,-711.0235959291458,0.0,0.0,3.5241695610000003,4.401758689006861,-0.008544921000000372,-4728.0,8.125,-2340.0,-711.0235959291458,0.0,0.0,3.118896165,0.5515167311543325,0.0,1.3200000524520874,-1.0099999904632568,-64.01000213623047,0.15185546875,0.10797119140625,1.24298095703125,32.880001068115234,0.0,4.0,0.138153076171875,0.089263916015625,Waiting,0.0,0.0,-27081.0,0.0,0.0,0.0,0.0,0.0,
1.2905679999999702,0.0,0.0,false,2944925.372209345,,2308.0,4.75,-2355.0,-1899.7391582172288,0.0,0.125,2.39257788,0.3324184836667367,0.0,-4808.0,10.75,-2070.0,2061.2843245345744,0.0,0.0,2.191161885,0.3039989725181816,0.0,2749.0,0.625,-2227.5,-1964.8590232193105,0.0,0.0,3.513183234,0.3860157365440461,0.0,-4728.0,7.0,-2280.0,2121.4511963357522,0.0,0.0,3.1176754620000002,0.3548487023721424,0.0,1.090000033378601,-0.7799999713897705,-53.43000030517578,-0.4361572265625,0.4576416015625,0.67498779296875,32.880001068115234,0.0,-611.0,0.1340484619140625,0.0940093994140625,Waiting,0.0,0.0,-27081.0,0.0,0.0,0.0,0.0,0.0,
1.328463999999978,0.0,0.0,false,2945142.3404696556,,1956.0,2.125,-2272.5,-2842.8092126518213,0.0,0.125,2.399902098,0.06015950942497175,0.0,-5017.0,20.0,-1807.5,3017.9438000673626,0.0,0.0,2.192382588,0.0564909836304926,0.0,2421.0,0.125,-2137.5,-2857.8858571194496,0.0,0.0,3.49121058,0.10078065110022541,0.0,-5001.0,17.5,-2107.5,3032.1497544069844,0.0,0.0,3.123778977,0.09483494312274318,0.0,1.100000023841858,-1.7899999618530273,-47.060001373291016,0.0289306640625,0.26318359375,1.775146484375,32.880001068115234,0.0,-109.0,0.1301422119140625,0.0959014892578125,Waiting,0.0,0.0,-27081.0,0.0,0.0,0.0,0.0,0.0,
1.3617579999999725,0.0,0.0,false,2945356.1575994147,,1956.0,9.25,-2175.0,-3479.5836434652388,0.0,0.875,2.403564207,4.91808118889858,0.0,-5017.0,58.25,-960.0,3654.9152470804925,0.0,1.375,2.187499776,4.905418380896705,-0.0012207029999995456,2421.0,6.625,-2010.0,-3474.129057834016,0.0,1.625,3.551025027,4.941724962453496,-0.003662109000000413,-5001.0,44.625,-1305.0,3649.722707543314,0.0,0.75,3.084716481,4.93583090809738,0.0012207029999999897,0.47999998927116394,-1.600000023841858,-41.4900016784668,-0.434814453125,-0.06341552734375,-0.2457275390625,32.880001068115234,0.0,-290.0,0.126708984375,0.0959625244140625,Waiting,0.0,0.0,-27081.0,0.0,0.0,0.0,0.0,0.0,
1.395222999999998,0.0,0.0,false,2945566.656339574,,1956.0,15.25,-2167.5,-3469.3418921532193,0.0,1.125,2.357177493,0.06820050323453022,-0.0024414059999999793,-5017.0,72.625,-532.5,3644.3333241546106,0.0,1.5,2.231445084,0.06472194697224577,0.006103514999999504,2421.0,9.375,-2040.0,-3485.2277968999847,0.0,1.25,3.6816402480000003,0.10143925650734723,0.09033202200000012,-5001.0,56.875,-187.5,3659.4596608213674,0.0,0.75,2.988280944,0.09645794696995788,-0.05859374399999995,0.7099999785423279,-2.859999895095825,-34.439998626708984,-0.31280517578125,-9.1552734375E-4,1.94891357421875,32.880001068115234,0.0,-162.0,0.1198272705078125,0.0929412841796875,Waiting,0.0,0.0,-27081.0,0.0,0.0,0.0,0.0,0.0,
1.4295409999999684,0.0,0.0,false,2945774.005122576,,1956.0,23.5,-2175.0,-3464.3966082145125,0.0,1.125,2.254638441,0.13268558252364507,0.0,-5017.0,77.375,-37.5,3637.658085280001,0.0,0.625,2.293700937,0.1259282918069611,0.0,2421.0,17.125,-2272.5,-3492.1944144656604,0.0,0.125,3.804931251,0.16538168780411838,0.0,-5001.0,57.125,247.5,3664.141688693261,0.0,0.75,2.886962595,0.15730651861309458,0.0,-0.05000000074505806,-2.8499999046325684,-30.40999984741211,-0.25360107421875,-0.6046142578125,0.29876708984375,32.880001068115234,0.0,99.0,0.1138458251953125,0.089935302734375,Waiting,0.0,0.0,-27081.0,0.0,0.0,0.0,0.0,0.0,
1.4662799999999698,0.0,0.0,false,2945978.0367095554,,1621.0,24.375,-2055.0,-3449.402703956335,0.0,0.75,2.192382588,0.6227327906286381,-0.09155272499999967,-5012.0,78.625,22.5,3575.398314782252,0.0,2.0,2.3767087410000003,0.5934120089522431,0.0,2044.0,21.125,-2370.0,-3555.9112846751896,0.0,0.0,3.91845663,0.6446268228082502,0.0,-4885.0,56.625,690.0,3678.2603442071427,0.0,0.0,2.8442379900000003,0.6163505915597557,0.0,-0.33000001311302185,-3.3499999046325684,-25.309999465942383,-0.3525390625,-0.11529541015625,0.83489990234375,32.880001068115234,0.0,-226.0,0.1028594970703125,0.0817108154296875,Waiting,0.0,0.0,-27081.0,0.0,0.0,0.0,0.0,0.0,
1.5011609999999638,0.0,0.0,false,2946178.919512195,,1621.0,24.5,-1905.0,-3449.402703956335,0.0,0.375,2.154540795,0.6227327906286381,-0.06591796200000033,-5012.0,69.0,120.0,3575.398314782252,0.0,4.125,2.523193101,0.5934120089522431,0.09399413099999965,2044.0,22.25,-2295.0,-3555.9112846751896,0.0,1.0,4.0832515350000005,0.6446268228082502,0.1171874879999999,-4885.0,64.25,645.0,3678.2603442071427,0.0,0.25,2.8442379900000003,0.6163505915597557,-0.04028319899999966,-0.6499999761581421,-3.8299999237060547,-22.600000381469727,-0.32305908203125,-0.092529296875,1.50506591796875,32.880001068115234,0.0,-175.0,0.0941009521484375,0.0745086669921875,Waiting,0.0,0.0,-27081.0,0.0,0.0,0.0,0.0,0.0,
1.545350999999966,0.0,0.0,false,2946376.360465825,,1621.0,25.125,-1867.5,-3449.402703956335,0.0,0.375,2.1679685280000003,0.6227327906286381,0.0,-5012.0,61.125,360.0,3575.398314782252,0.0,4.25,2.6904294120000003,0.5934120089522431,0.0,2044.0,22.25,-2250.0,-3555.9112846751896,0.0,1.0,4.2956538570000005,0.6446268228082502,0.0,-4885.0,63.625,502.5,3678.2603442071427,0.0,0.0,2.8527829110000003,0.6163505915597557,0.0,-1.0700000524520874,-4.039999961853027,-19.579999923706055,-0.2301025390625,0.09112548828125,1.04632568359375,32.880001068115234,0.0,-183.0,0.079376220703125,0.06195068359375,Waiting,0.0,0.0,-27081.0,0.0,0.0,0.0,0.0,0.0,
1.5771969999999855,0.0,0.0,false,2946570.486038288,,1335.0,27.625,-1807.5,-2858.755374655086,0.0,0.25,2.1716306370000003,0.8111615242868622,0.0,-4915.0,59.75,517.5,2953.4814433313795,0.0,3.0,2.821044633,0.7686213572678006,0.0,1669.0,21.0,-2287.5,-2986.4039148344327,0.0,0.0,4.432372593,0.8297608370875375,0.0,-4803.0,57.0,547.5,3077.2030622826783,0.0,0.875,2.886962595,0.7896229843236918,0.0,-1.1699999570846558,-4.139999866485596,-18.360000610351562,-0.533203125,-0.15997314453125,0.9935302734375,32.880001068115234,0.0,-392.0,0.0681304931640625,0.0529327392578125,Waiting,0.0,0.0,-27081.0,0.0,0.0,0.0,0.0,0.0,
1.613838999999978,0.0,0.0,false,2946761.4646101324,,1335.0,26.625,-1725.0,-353.74351815497874,0.0,0.375,2.250976332,1.4391784516223751,0.024414059999999793,-4915.0,52.5,847.5,353.74351815497874,0.0,2.625,2.934570012,1.039670395431276,0.13061522100000023,1669.0,22.75,-2347.5,-498.50741929169095,0.0,0.125,4.542235863,1.3781063235261215,0.14160154800000058,-4803.0,50.625,675.0,498.50741929169095,0.0,1.125,2.9455563390000004,1.0974518498898873,0.0,-1.3799999952316284,-4.550000190734863,-17.700000762939453,-0.4619140625,-0.37445068359375,1.25933837890625,32.880001068115234,0.0,-239.0,0.0551605224609375,0.042327880859375,Waiting,0.0,0.0,-27081.0,0.0,0.0,0.0,0.0,0.0,
1.6505729999999748,0.0,0.0,false,2946949.1289929287,,1335.0,22.5,-1672.5,114.84375,0.0,0.5,2.3754880380000003,0.5533560492066917,0.11108397300000039,-4915.0,33.625,1147.5,114.84375,0.0,3.125,3.145751631,4.397316058113637,0.157470687,1669.0,9.5,-2212.5,114.84375,0.0,1.375,4.729003422,4.40175868900686,0.13793943899999928,-4803.0,30.75,1005.0,114.84375,0.0,3.5,3.070068045,0.5515167311543303,0.07202147700000028,-1.8799999952316284,-4.53000020980835,-17.479999542236328,0.16015625,-0.220947265625,0.94683837890625,32.880001068115234,0.0,280.0,0.0350341796875,0.024932861328125,Waiting,0.0,0.0,-27081.0,0.0,0.0,0.0,0.0,0.0,
1.6835650000000024,0.0,0.0,false,2947133.64754648,,1090.0,12.0,-1575.0,114.84375,0.0,3.0,2.6330563710000003,0.5533560492066917,0.0,-4690.0,22.375,1275.0,114.84375,0.0,3.0,3.353271141,4.397316058113637,0.0,1424.0,1.25,-1995.0,-114.84375,0.0,1.875,0.052490229,1.9247586890068593,0.0,-4600.0,20.625,1155.0,114.84375,0.0,3.75,3.2641598220000003,0.5515167311543303,0.0,-2.0399999618530273,-4.389999866485596,-17.530000686645508,0.24639892578125,-0.48211669921875,1.35565185546875,32.880001068115234,0.0,464.0,0.029022216796875,0.0186767578125,Waiting,0.0,0.0,-27081.0,0.0,0.0,0.0,0.0,0.0,
1.7160639999999547,0.0,0.0,false,2947314.8531025234,,1090.0,8.875,-1537.5,-396.8503922224045,0.0,0.625,2.836913772,0.5533560492066895,0.26977536299999993,-4690.0,16.125,1425.0,-396.8503922224045,0.0,10.5,3.2958981,4.397316058113635,0.18676755899999975,1424.0,2.0,-1327.5,396.8503922224045,0.0,1.0,0.260009739,1.9247586890068615,0.2860317279999989,-4600.0,9.0,1290.0,-396.8503922224045,0.0,0.25,3.339843408,0.5515167311543325,0.0,-2.4700000286102295,-3.75,-17.719999313354492,0.72930908203125,-0.17279052734375,0.86322021484375,32.880001068115234,0.0,788.0,0.0191192626953125,0.00531005859375,Waiting,0.0,0.0,-27081.0,0.0,0.0,0.0,0.0,0.0,
1.7530559999999824,0.0,0.0,false,2947492.914000122,,1090.0,8.625,-1470.0,-1703.1495451927185,0.0,0.625,3.020019222,0.5533560492066895,0.2441405999999997,-4690.0,6.5,1417.5,-1703.1495451927185,0.0,10.5,3.0480953910000004,4.397316058113635,-0.10864256699999997,1424.0,1.25,-795.0,1703.1495451927185,0.0,1.0,0.513915963,1.924758689006862,0.2697753630000004,-4600.0,3.625,1155.0,-1703.1495451927185,0.0,0.0,3.342284814,0.5515167311543325,0.07446288299999981,-2.7100000381469727,-2.380000114440918,-18.020000457763672,0.63934326171875,-0.15643310546875,1.27099609375,32.880001068115234,0.0,687.0,0.0115203857421875,-0.014678955078125,Waiting,0.0,0.0,-27081.0,0.0,0.0,0.0,0.0,0.0,
1.7897099999999628,0.0,0.0,false,2947667.6630911753,,1090.0,25.125,-1485.0,-2050.3937244415283,0.0,1.875,3.023681331,0.5533560492066895,0.0,-4690.0,2.25,1222.5,-2050.3937244415283,0.0,0.875,2.785644246,4.397316058113635,0.0,1424.0,1.0,-622.5,2050.3937244415283,0.0,1.375,0.74462883,1.9247586890068615,0.0,-4600.0,3.125,1035.0,-2050.3937244415283,0.0,0.0,3.331298487,0.5515167311543325,0.0,-2.609999895095825,-1.2400000095367432,-18.25,0.78045654296875,-0.10394287109375,0.6083984375,32.88999938964844,0.0,777.0,0.0113677978515625,-0.0268707275390625,Waiting,0.0,0.0,-27081.0,0.0,0.0,0.0,0.0,0.0,
1.8194780000000028,0.0,0.0,false,2947839.268694009,,803.0,31.75,-1582.5,-2100.0,0.0,2.625,2.9504391510000003,0.5533560492066895,-0.004882811999999959,-4574.0,3.75,1012.5,-2100.0,0.0,0.25,2.603759499,4.397316058113635,0.0,1367.0,3.375,-345.0,2100.0,0.0,0.75,0.836181555,1.924758689006862,0.0,-4470.0,8.625,795.0,-2100.0,0.0,0.0,3.328857081,0.5515167311543325,0.0,-2.0799999237060547,-0.5400000214576721,-18.440000534057617,0.59381103515625,0.3150634765625,1.0926513671875,32.88999938964844,0.0,460.0,0.0151214599609375,-0.03692626953125,Waiting,0.0,0.0,-27081.0,0.0,0.0,0.0,0.0,0.0,
1.853079999999958,0.0,0.0,false,2948007.5636806823,,803.0,36.625,-1860.0,-1401.3835598729477,0.0,2.0,2.830810257,1.4480856983868267,-0.13793943900000016,-4574.0,7.5,487.5,-3822.0514443316724,0.0,0.25,2.4304196730000003,4.663877786024551,4.719507836,1367.0,4.875,-210.0,1401.3835598729477,0.0,0.375,0.859374912,1.031831476670359,0.09033202200000012,-4470.0,12.125,690.0,-3822.0514443316724,0.0,0.0,3.306884427,0.28503579584633976,-0.010986326999999907,-1.5399999618530273,0.20000000298023224,-18.489999771118164,0.19769287109375,0.48553466796875,0.944580078125,32.88999938964844,0.0,22.0,0.0214080810546875,-0.043853759765625,Waiting,0.0,0.0,-27081.0,0.0,0.0,0.0,0.0,0.0,
1.8845089999999618,0.0,0.0,false,2948172.548656389,,803.0,33.5,-1785.0,-1580.0273237738393,0.0,1.25,2.677001679,1.7103950738995457,0.0,-4574.0,28.25,15.0,-4200.0,0.0,0.125,2.293700937,4.699303045063599,0.0,1367.0,3.875,-15.0,1580.0273237738393,0.0,1.25,0.850829991,0.7700505245571422,0.0,-4470.0,43.75,397.5,-4200.0,0.0,1.125,3.278808258,0.24962127390338334,0.0,-0.3799999952316284,0.9399999976158142,-18.18000030517578,0.120849609375,0.08636474609375,1.109375,32.88999938964844,0.0,68.0,0.0329132080078125,-0.047821044921875,Waiting,0.0,0.0,-27081.0,0.0,0.0,0.0,0.0,0.0,
1.9203150000000024,0.0,0.0,false,2948334.3919083597,,803.0,33.0,-1500.0,-1580.0273237738393,0.0,5.125,2.714843472,1.7103950738995457,-0.10742186400000087,-4677.0,40.75,-202.5,-4200.0,0.0,0.0,2.293700937,4.699303045063599,0.0,1369.0,3.375,7.5,1580.0273237738393,0.0,5.0,0.7104491460000001,0.7700505245571422,0.0,-4516.0,60.25,-105.0,-4200.0,0.0,2.25,3.2116695930000003,0.24962127390338334,0.0,0.1599999964237213,1.4800000190734863,-17.5,0.285400390625,0.6241455078125,0.46978759765625,32.88999938964844,0.0,73.0,0.041259765625,-0.046478271484375,Waiting,0.0,0.0,-27081.0,0.0,0.0,0.0,0.0,0.0,
1.9547669999999926,0.0,0.0,false,2948494.9364528116,,666.0,44.75,-772.5,-1580.0273237738393,0.0,5.375,2.8503415050000003,1.7103950738995457,0.05615233800000041,-4677.0,48.625,-720.0,-4200.0,0.0,0.0,2.292480234,4.699303045063599,0.0012207029999995456,1369.0,4.125,15.0,1580.0273237738393,0.0,5.25,0.523681587,0.7700505245571422,-0.157470687,-4516.0,53.75,-600.0,-4200.0,0.0,1.5,3.148193037,0.24962127390338334,-0.06835936799999986,0.8899999856948853,1.5399999618530273,-14.319999694824219,0.0123291015625,0.3162841796875,0.74566650390625,32.88999938964844,0.0,-82.0,0.0576324462890625,-0.0370635986328125,Waiting,0.0,0.0,-27081.0,0.0,0.0,0.0,0.0,0.0,
1.995536999999953,0.0,0.0,false,2948807.997075667,,666.0,47.75,-510.0,-1580.0273237738393,0.0,1.0,3.0493160940000004,1.7103950738995457,0.1928710739999997,-4677.0,50.25,-1117.5,-4200.0,0.0,0.0,2.298583749,4.699303045063599,0.004882811999999959,1369.0,4.5,142.5,1580.0273237738393,0.0,1.25,0.328369107,0.7700505245571422,-0.21972653999999991,-4516.0,50.75,-795.0,-4200.0,0.0,1.5,3.0993649170000004,0.24962127390338334,-0.06713866500000032,1.090000033378601,1.6799999475479126,-11.829999923706055,0.1640625,-0.0634765625,1.08563232421875,32.88999938964844,0.0,146.0,0.06640625,-0.03167724609375,Waiting,0.0,0.0,-27081.0,0.0,0.0,0.0,0.0,0.0,
2.029323999999964,0.0,0.0,false,2949117.710386841,,666.0,45.0,-720.0,-1580.0273237738393,0.0,0.5,3.291015288,1.7103950738995457,0.0,-4677.0,46.125,-1297.5,-4200.0,0.0,0.0,2.298583749,4.699303045063599,0.0,1369.0,5.25,397.5,1580.0273237738393,0.0,0.875,0.133056627,0.7700505245571422,0.0,-4516.0,44.875,-1125.0,-4200.0,0.0,1.125,3.046874688,0.24962127390338334,0.0,1.159999966621399,2.059999942779541,-8.979999542236328,0.3193359375,0.18994140625,1.1044921875,32.88999938964844,0.0,249.0,0.076690673828125,-0.0266876220703125,Waiting,0.0,0.0,-27081.0,0.0,0.0,0.0,0.0,0.0,
2.0664349999999976,0.0,0.0,false,2949424.221247563,,506.0,41.125,-892.5,-1934.2547255042814,0.0,0.25,3.406982073,2.2478741565202527,0.20507810400000004,-4907.0,44.125,-1387.5,-3239.6813670243823,0.0,0.0,2.303466561,4.810962722700455,0.0012207029999995456,1456.0,5.875,592.5,1934.2547255042814,0.0,0.375,0.025634763,0.23365419593043335,0.0,-4734.0,42.0,-1447.5,-3239.6813670243823,0.0,0.75,3.0078121920000003,0.13799543936946812,0.0,1.190000057220459,2.490000009536743,-5.989999771118164,0.46630859375,0.00274658203125,0.83355712890625,32.88999938964844,0.0,428.0,0.0886688232421875,-0.0213623046875,Waiting,0.0,0.0,-27081.0,0.0,0.0,0.0,0.0,0.0,
2.1034289999999456,0.0,0.0,false,2949727.3860023147,,506.0,33.75,-1312.5,-2520.0,0.0,0.5,3.5375972940000002,2.482,0.13305662699999976,-4907.0,40.75,-1635.0,-2520.0,0.0,0.0,2.30712867,-0.0,0.007324218000000826,1456.0,9.875,637.5,2520.0,0.0,1.5,4.848632316000001,0.0,-0.10253905200000002,-4734.0,40.25,-1590.0,-2520.0,0.0,0.375,2.969970399,0.0,-0.03906249599999967,1.190000057220459,3.0899999141693115,-1.4500000476837158,0.35089111328125,-0.24322509765625,1.37408447265625,32.88999938964844,0.0,283.0,0.1103515625,-0.0142669677734375,Waiting,0.0,0.0,-27081.0,0.0,0.0,0.0,0.0,0.0,
2.132639999999956,0.0,0.0,false,2950027.2052625166,,506.0,31.625,-1740.0,-2520.0,0.0,1.125,3.717040635,2.482,0.0,-4907.0,32.625,-1860.0,-2520.0,0.0,0.25,2.360839602,-0.0,0.0,1456.0,21.25,705.0,2520.0,0.0,2.875,4.686278817,0.0,0.0,-4734.0,36.375,-1837.5,-2520.0,0.0,0.75,2.924804388,0.0,0.0,1.149999976158142,3.319999933242798,0.07000000029802322,0.26904296875,0.12115478515625,0.90631103515625,32.88999938964844,0.0,216.0,0.11834716796875,-0.012237548828125,Waiting,0.0,0.0,-27081.0,0.0,0.0,0.0,0.0,0.0,
2.1684869999999647,0.0,0.0,false,2950323.8238625983,,193.0,31.0,-1875.0,-2520.0,0.0,0.875,3.909911709,2.482,0.19409177700000013,-5227.0,29.375,-1935.0,-2520.0,0.0,0.375,2.443847406,-0.0,0.0,1591.0,26.875,765.0,2520.0,0.0,1.5,4.472655792,0.0,0.0,-5059.0,34.0,-2017.5,-2520.0,0.0,0.75,2.8527829110000003,0.0,0.0,1.2999999523162842,3.7799999713897705,4.690000057220459,0.0203857421875,0.03076171875,1.232177734375,32.88999938964844,0.0,-60.0,0.14508056640625,-0.0057220458984375,Waiting,0.0,0.0,-27081.0,0.0,0.0,0.0,0.0,0.0,
2.2078059999999824,0.0,0.0,false,2950617.09817296,,193.0,29.125,-2017.5,-2520.0,0.0,0.25,4.072265208,2.482,0.1940917769999997,-5227.0,27.75,-2032.5,-2520.0,0.0,0.375,2.513427477,-0.0,0.07812499200000023,1591.0,30.0,915.0,2520.0,0.0,0.375,4.305419481,0.0,-0.1940917769999997,-5059.0,32.875,-2092.5,-2520.0,0.0,0.75,2.781982137,0.0,-0.07202147699999983,1.2100000381469727,3.950000047683716,7.900000095367432,0.17803955078125,-0.07293701171875,1.05621337890625,32.88999938964844,0.0,90.0,0.163177490234375,-0.0020599365234375,Waiting,0.0,0.0,-27081.0,0.0,0.0,0.0,0.0,0.0,
2.235771999999997,0.0,0.0,false,2950907.17301017,,193.0,27.5,-2077.5,-2520.0,0.0,0.25,4.215087459,2.482,0.0,-5227.0,26.5,-2085.0,-2520.0,0.0,0.0,2.5817868450000003,-0.0,0.0,1591.0,26.25,1170.0,2520.0,0.0,0.0,4.112548407,0.0,0.0,-5059.0,32.625,-2220.0,-2520.0,0.0,0.375,2.707519254,0.0,0.0,1.1299999952316284,4.190000057220459,11.170000076293945,-0.0084228515625,-0.15234375,1.0643310546875,32.88999938964844,0.0,-118.0,0.1819305419921875,0.00115966796875,Waiting,0.0,0.0,-27081.0,0.0,0.0,0.0,0.0,0.0,
2.2712189999999826,0.0,0.0,false,2951193.904761905,,193.0,26.625,-2265.0,-2520.0,0.0,0.25,4.299315966,2.482,0.13671873599999973,-5227.0,24.0,-2220.0,-2520.0,0.0,0.0,2.628173559,-0.0,0.0,1861.0,25.0,1350.0,2520.0,0.0,0.0,4.0283199000000005,0.0,0.0,-5435.0,32.875,-2272.5,-2520.0,0.0,0.0,2.680663788,0.0,0.0,1.2599999904632568,4.019999980926514,16.209999084472656,0.30059814453125,-0.09326171875,0.95458984375,32.869998931884766,0.0,191.0,0.210296630859375,0.00531005859375,Waiting,0.0,0.0,-27081.0,0.0,0.0,0.0,0.0,0.0,
2.3101319999999834,0.0,0.0,false,2951477.294038848,,-195.0,26.0,-2430.0,-2520.0,0.0,0.25,4.339599165,2.482,0.06835936800000031,-5602.0,22.375,-2362.5,-2520.0,0.0,0.0,2.651366916,-0.0,0.03906249600000056,1861.0,21.375,1717.5,2520.0,0.0,0.0,3.9904781070000004,0.0,4.874654305,-5435.0,32.25,-2355.0,-2520.0,0.0,0.0,2.666015352,0.0,-0.028076169000000206,1.2699999809265137,4.159999847412109,19.610000610351562,0.02362060546875,-0.203857421875,0.64727783203125,32.869998931884766,0.0,-95.0,0.228759765625,0.006683349609375,Waiting,0.0,0.0,-27081.0,0.0,0.0,0.0,0.0,0.0,
2.3451019999999554,0.0,0.0,false,2951757.485630784,,-195.0,26.875,-2467.5,-2520.0,0.0,0.25,4.3408198680000005,2.482,0.0,-5602.0,21.625,-2415.0,-2520.0,0.0,0.0,2.662353243,-0.0,0.0,1861.0,15.75,1980.0,2520.0,0.0,0.0,3.975829671,0.0,0.0,-5435.0,32.875,-2392.5,-2520.0,0.0,0.0,2.66113254,0.0,0.0,1.159999966621399,4.090000152587891,22.889999389648438,0.83624267578125,-0.20196533203125,1.11578369140625,32.869998931884766,0.0,607.0,0.2479095458984375,0.007171630859375,Waiting,0.0,0.0,-27081.0,0.0,0.0,0.0,0.0,0.0,
2.373858999999997,0.0,0.0,false,2952034.335951294,,-195.0,32.375,-2407.5,-2520.0,0.0,0.125,4.331054244000001,2.482,0.0,-5602.0,21.875,-2415.0,-2520.0,0.0,0.0,2.672118867,-0.0,0.0,1861.0,14.5,2062.5,2520.0,0.0,0.0,3.975829671,0.0,0.0,-5435.0,32.625,-2415.0,-2520.0,0.0,0.0,2.662353243,0.0,0.0,1.0099999904632568,4.190000057220459,25.850000381469727,0.23553466796875,-0.29119873046875,1.135986328125,32.869998931884766,0.0,1.0,0.2683868408203125,0.0054931640625,Waiting,0.0,0.0,-27081.0,0.0,0.0,0.0,0.0,0.0,
2.4097229999999983,0.0,0.0,false,2952307.845610617,,-546.0,34.0,-2317.5,-2520.0,0.0,0.125,4.351806195,2.482,0.0,-5981.0,21.875,-2385.0,-2520.0,0.0,0.0,2.670898164,-0.0,0.0,2205.0,14.375,2107.5,2520.0,0.0,0.0,3.980712483,0.0,0.004882811999999959,-5823.0,33.125,-2422.5,-2520.0,0.0,0.0,2.657470431,0.0,-0.0012207029999999897,0.7300000190734863,4.25,29.8700008392334,0.2220458984375,0.19427490234375,1.74688720703125,32.869998931884766,0.0,164.0,0.3000946044921875,8.392333984375E-4,Waiting,0.0,0.0,-27081.0,0.0,0.0,0.0,0.0,0.0,
2.446286999999953,0.0,0.0,false,2952578.159371766,,-546.0,34.375,-2115.0,-2520.0,0.0,0.125,4.350585492,2.482,0.0,-5981.0,22.75,-2340.0,-2520.0,0.0,0.0,2.677001679,-0.0,0.0,2205.0,14.5,2145.0,2520.0,0.0,0.0,3.980712483,0.0,0.0,-5823.0,32.875,-2415.0,-2520.0,0.0,0.0,2.655029025,0.0,0.0,0.4099999964237213,4.670000076293945,32.29999923706055,-0.0032958984375,0.45245361328125,0.42242431640625,32.869998931884766,0.0,207.0,0.3217010498046875,-0.0023651123046875,Waiting,0.0,0.0,-27081.0,0.0,0.0,0.0,0.0,0.0,
2.475755999999994,0.0,0.0,false,2952845.1336742146,,-546.0,36.0,-1972.5,-2520.0,0.0,0.125,4.350585492,2.482,0.0,-5981.0,23.625,-2340.0,-2520.0,0.0,0.0,2.67333957,-0.0,0.0,2205.0,17.0,2107.5,2520.0,0.0,0.0,3.975829671,0.0,0.0,-5823.0,32.75,-2400.0,-2520.0,0.0,0.0,2.652587619,0.0,0.0,0.4399999976158142,4.809999942779541,35.470001220703125,0.15447998046875,-0.28179931640625,0.99078369140625,32.869998931884766,0.0,-109.0,0.3552398681640625,-0.0079803466796875,Waiting,0.0,0.0,-27081.0,0.0,0.0,0.0,0.0,0.0,
2.5110739999999643,0.0,0.0,false,2953108.769127762,,-546.0,34.75,-1942.5,-2520.0,0.0,0.125,4.359130413,2.482,0.006103514999999504,-5981.0,23.75,-2347.5,-2520.0,0.0,0.0,2.677001679,-0.0,0.0,2205.0,21.25,2010.0,2520.0,0.0,0.0,3.975829671,0.0,0.0,-5823.0,32.75,-2362.5,-2520.0,0.0,0.0,2.6464841040000002,0.0,-0.003662108999999969,0.4099999964237213,4.860000133514404,36.400001525878906,0.35040283203125,-0.6082763671875,0.6912841796875,32.869998931884766,0.0,-129.0,0.3661041259765625,-0.01080322265625,Waiting,0.0,0.0,-27081.0,0.0,0.0,0.0,0.0,0.0,
2.544714999999967,0.0,0.0,false,2953369.210468655,,-853.0,33.375,-1912.5,-2520.0,0.0,0.125,4.35790971,2.482,0.0,-6363.0,23.625,-2370.0,-2520.0,0.0,0.0,2.675780976,-0.0,0.0,2520.0,22.625,1957.5,2520.0,0.0,0.0,3.974608968,0.0,0.0,-6202.0,32.625,-2347.5,-2520.0,0.0,0.0,2.6428219950000003,0.0,0.0,0.14000000059604645,5.260000228881836,38.939998626708984,0.72540283203125,0.29400634765625,0.93585205078125,32.869998931884766,0.0,678.0,0.397613525390625,-0.0205078125,Waiting,0.0,0.0,-27081.0,0.0,0.0,0.0,0.0,0.0,
2.575241999999969,0.0,0.0,false,2953626.3141622543,,-853.0,33.125,-1950.0,-3506.8025397140386,0.0,0.125,4.368896037,2.6549016190604533,0.0,-6363.0,20.875,-2407.5,-1787.1315207491489,0.0,0.0,2.677001679,0.3466392309209638,0.0,2520.0,26.125,1942.5,3506.8025397140386,0.0,0.0,3.977050374,4.781446692017429,0.0,-6202.0,30.125,-2340.0,-1787.1315207491489,0.0,0.0,2.6391598860000003,4.600965832495157,0.0,0.28999999165534973,5.019999980926514,40.380001068115234,0.138916015625,0.08868408203125,1.50115966796875,32.869998931884766,0.0,57.0,0.4181671142578125,-0.02655029296875,Waiting,0.0,0.0,-27081.0,0.0,0.0,0.0,0.0,0.0,
2.611292999999947,0.0,0.0,false,2953880.0808179164,,-853.0,33.375,-1980.0,-4006.7745618270824,0.0,0.125,4.361571819,2.7542384891230727,0.004882811999999959,-6363.0,16.875,-2415.0,-1464.7938052659129,0.0,0.375,2.73437472,0.928251882459064,0.004882811999999959,2520.0,26.0,2025.0,4006.7745618270824,0.0,0.0,3.970946859,4.682309936519802,-0.003662109000000413,-6202.0,26.375,-2355.0,-1464.7938052659129,0.0,0.375,2.5793454390000004,4.019529462827598,-0.004882811999999959,-0.1599999964237213,5.369999885559082,41.720001220703125,-0.26611328125,-0.0980224609375,0.08905029296875,32.869998931884766,0.0,-269.0,0.43792724609375,-0.0316619873046875,Waiting,0.0,0.0,-27081.0,0.0,0.0,0.0,0.0,0.0,
2.649023999999976,0.0,0.0,false,2954130.655145135,,-1200.0,33.5,-2047.5,-3693.4923530286114,0.0,0.25,4.385985879000001,2.7784259751659848,0.0,-6734.0,8.0,-2355.0,-1372.1437592073482,0.0,2.5,2.8967282190000003,1.1073174094285396,-4.876978522999999,2941.0,23.125,2377.5,3693.4923530286114,0.0,0.0,3.9550777200000002,4.65817117627472,0.0,-6576.0,16.625,-2347.5,-1372.1437592073482,0.0,2.625,2.4304196730000003,3.8405182091033137,-0.06347655600000035,0.20000000298023224,5.190000057220459,43.29999923706055,0.1737060546875,-0.33642578125,1.39434814453125,32.869998931884766,0.0,-199.0,0.4688568115234375,-0.03936767578125,Waiting,0.0,0.0,-27081.0,0.0,0.0,0.0,0.0,0.0,
2.682435999999987,0.0,0.0,false,2954381.0548862116,,-1200.0,33.0,-2160.0,-2766.516390555017,0.0,0.25,4.420165563,2.885893964871033,0.0,-6734.0,5.5,-2175.0,1571.4612248168714,0.0,5.0,3.093261402,4.131533965842696,0.0,2941.0,19.75,2842.5,2766.516390555017,0.0,0.0,3.8928218670000003,4.550919681311222,0.0,-6576.0,9.625,-2280.0,1571.4612248168714,0.0,4.5,2.208251727,0.8172182671233098,0.0,-0.11999999731779099,4.96999979019165,44.029998779296875,0.11859130859375,-0.51934814453125,1.19476318359375,32.869998931884766,0.0,-348.0,0.4893035888671875,-0.045440673828125,Waiting,0.0,0.0,-27081.0,0.0,0.0,0.0,0.0,0.0,
2.7148819999999834,0.0,0.0,false,2954628.1190142985,,-1200.0,32.5,-2212.5,-2100.0,0.0,0.375,4.473876495,3.035356049206692,0.05004882300000002,-6734.0,7.0,-1957.5,2100.0,0.0,10.0,3.0639645300000002,4.397316058113637,0.16479490499999994,2941.0,17.375,3030.0,2100.0,0.0,0.0,3.819579687,4.40175868900686,-0.053710931999999545,-6576.0,7.25,-2175.0,2100.0,0.0,9.625,2.2180173510000003,0.5515167311543303,-0.2136230250000004,-0.07999999821186066,4.690000057220459,44.150001525878906,-0.47003173828125,-0.06390380859375,0.8262939453125,32.869998931884766,0.0,-428.0,0.5087738037109375,-0.0513458251953125,Waiting,0.0,0.0,-27081.0,0.0,0.0,0.0,0.0,0.0,
2.7510719999999855,0.0,0.0,false,2954871.9922122173,,-1200.0,29.75,-2287.5,-2100.0,0.0,0.5,4.571532735,3.035356049206692,0.07812499200000023,-6734.0,18.0,-1297.5,2100.0,0.0,9.375,2.9003903280000003,4.397316058113637,-0.052490229,2941.0,13.5,3015.0,2100.0,0.0,0.125,3.762206646,4.40175868900686,-0.07080077400000029,-6576.0,10.25,-1590.0,2100.0,0.0,9.375,2.462157951,0.5515167311543303,0.08544921000000016,-0.07999999821186066,3.7100000381469727,42.689998626708984,-0.8858642578125,0.14251708984375,0.86114501953125,32.869998931884766,0.0,-594.0,0.53668212890625,-0.055328369140625,Waiting,0.0,0.0,-27081.0,0.0,0.0,0.0,0.0,0.0,
2.7839619999999994,0.0,0.0,false,2955112.530997141,,-1565.0,30.0,-2317.5,-410.15625000000006,0.0,0.5,4.637450697,3.035356049206692,0.0,-6860.0,18.375,-690.0,410.15625000000006,0.0,2.125,2.656249728,4.397316058113637,0.0,3362.0,7.375,2580.0,410.15625000000006,0.0,0.125,3.653564079,4.40175868900686,0.0,-6718.0,12.5,-757.5,410.15625000000006,0.0,1.375,2.6953122240000003,0.5515167311543303,0.0,-0.3199999928474426,3.059999942779541,40.84000015258789,-0.53192138671875,0.44537353515625,1.06842041015625,32.849998474121094,0.0,-150.0,0.5535430908203125,-0.054779052734375,Waiting,0.0,0.0,-27081.0,0.0,0.0,0.0,0.0,0.0,
2.8165569999999716,0.0,0.0,false,2955349.880034067,,-1565.0,32.75,-2377.5,-649.6875,0.0,0.375,4.754638185,2.482,0.10742186399999998,-6860.0,11.625,-570.0,-649.6875,0.0,1.625,2.50244115,-0.0,4.706080103,3362.0,4.5,2310.0,649.6875,0.0,0.0,3.5852047110000003,0.0,-0.11230467599999994,-6718.0,8.0,-457.5,-649.6875,0.0,0.875,2.8491208020000003,0.0,0.0,-0.3199999928474426,2.7300000190734863,38.54999923706055,-0.0045166015625,-0.2987060546875,0.83050537109375,32.849998474121094,0.0,-217.0,0.5691986083984375,-0.0532684326171875,Waiting,0.0,0.0,-27081.0,0.0,0.0,0.0,0.0,0.0,
2.852789999999979,0.0,0.0,false,2955583.8958574124,,-1565.0,35.375,-2407.5,-2165.625,0.0,1.25,4.82177685,2.482,0.10864256699999952,-6860.0,2.875,-667.5,-2165.625,0.0,0.625,2.4255368610000003,-0.0,-0.19287107400000014,3362.0,6.75,1837.5,2165.625,0.0,1.25,3.563232057,0.0,-0.08178710100000064,-6718.0,7.625,-435.0,-2165.625,0.0,1.125,2.939452824,0.0,0.17456052899999985,-0.23999999463558197,2.2300000190734863,35.36000061035156,-0.18017578125,0.53985595703125,0.81671142578125,32.849998474121094,0.0,141.0,0.588348388671875,-0.0494384765625,Waiting,0.0,0.0,-27081.0,0.0,0.0,0.0,0.0,0.0,
2.885871999999974,0.0,0.0,false,2955814.579075426,,-1922.0,35.5,-2370.0,-2460.9375,0.0,1.25,4.819335444,2.482,0.0,-6993.0,10.5,-742.5,-2460.9375,0.0,0.25,2.4291989700000003,-0.0,0.0,3643.0,17.75,1680.0,2460.9375,0.0,1.375,3.6328121280000003,0.0,0.0,-6844.0,33.75,-772.5,-2460.9375,0.0,0.75,2.9492184480000003,0.0,0.0,-0.18000000715255737,1.840000033378601,33.619998931884766,0.685791015625,0.41168212890625,1.1785888671875,32.849998474121094,0.0,769.0,0.5993499755859375,-0.0460205078125,Waiting,0.0,0.0,-27081.0,0.0,0.0,0.0,0.0,0.0,
2.919454999999958,0.0,0.0,false,2956042.074326379,,-1922.0,35.375,-2152.5,-2520.0,0.0,0.625,4.776610839,2.482,0.0012207030000004337,-6993.0,25.75,-862.5,-2520.0,0.0,0.125,2.4291989700000003,-0.0,0.004882811999999959,3643.0,22.5,1740.0,2520.0,0.0,0.375,3.71093712,0.0,0.0744628830000007,-6844.0,45.25,-877.5,-2520.0,0.0,0.0,2.938232121,0.0,0.0,0.25,1.9500000476837158,32.209999084472656,-0.45849609375,0.2344970703125,0.7994384765625,32.849998474121094,0.0,-287.0,0.61187744140625,-0.0400390625,Waiting,0.0,0.0,-27081.0,0.0,0.0,0.0,0.0,0.0,
2.9545909999999567,0.0,0.0,false,2956266.238170539,,-1922.0,34.75,-1860.0,-2520.0,0.0,0.875,4.68749952,2.482,-0.08178710100000064,-6993.0,32.875,-967.5,-2520.0,0.0,0.0,2.4340817820000002,-0.0,0.0,3643.0,22.5,2070.0,2520.0,0.0,0.375,3.809814063,0.0,0.10131834899999959,-6844.0,51.0,-930.0,-2520.0,0.0,0.375,2.875976268,0.0,-0.010986327000000351,0.25999999046325684,1.659999966621399,31.190000534057617,0.6319580078125,-0.5489501953125,1.4246826171875,32.849998474121094,0.0,217.0,0.6246490478515625,-0.0331268310546875,Waiting,0.0,0.0,-27081.0,0.0,0.0,0.0,0.0,0.0,
2.990431999999972,0.0,0.0,false,2956487.071215715,,-1922.0,35.375,-1747.5,-2520.0,0.0,1.125,4.60205031,2.482,0.0,-6993.0,35.125,-1035.0,-2520.0,0.0,0.0,2.462157951,-0.0,0.0,3643.0,20.5,2227.5,2520.0,0.0,0.125,3.86962851,0.0,0.0,-6844.0,52.125,-975.0,-2520.0,0.0,1.125,2.857665723,0.0,0.0,0.5899999737739563,2.109999895095825,30.290000915527344,-0.13739013671875,0.61785888671875,0.6217041015625,32.849998474121094,0.0,169.0,0.6449432373046875,-0.024658203125,Waiting,0.0,0.0,-27081.0,0.0,0.0,0.0,0.0,0.0,
3.0230419999999576,0.0,0.0,false,2956704.7180734617,,-2187.0,34.75,-1642.5,-2520.0,0.0,0.75,4.560546408,2.482,-0.06958007099999985,-7192.0,35.75,-1215.0,-2520.0,0.0,0.0,2.506103259,-0.0,0.0,4008.0,20.5,2317.5,2520.0,0.0,0.125,3.9001460850000003,0.0,0.0,-7011.0,51.125,-1035.0,-2520.0,0.0,1.125,2.833251663,0.0,0.0,0.6200000047683716,2.0399999618530273,30.06999969482422,0.2584228515625,0.3984375,1.06219482421875,32.849998474121094,0.0,384.0,0.6598052978515625,-0.01776123046875,Waiting,0.0,0.0,-27081.0,0.0,0.0,0.0,0.0,0.0,
3.056158999999985,0.0,0.0,false,2956919.0353298876,,-2187.0,35.0,-1635.0,-2520.0,0.0,0.375,4.4958491490000005,2.482,-0.052490229,-7192.0,36.75,-1305.0,-2520.0,0.0,0.125,2.547607161,-0.0,0.053710931999999545,4008.0,19.25,2302.5,2520.0,0.0,0.0,3.931884363,0.0,0.04150390199999965,-7011.0,48.125,-1170.0,-2520.0,0.0,1.125,2.816161821,0.0,-0.024414060000000237,0.8199999928474426,2.3499999046325684,30.1299991607666,-0.131103515625,-0.14141845703125,1.22174072265625,32.849998474121094,0.0,-236.0,0.6753387451171875,-0.0102081298828125,Waiting,0.0,0.0,-27081.0,0.0,0.0,0.0,0.0,0.0,
3.090630999999994,0.0,0.0,false,2957130.023592363,,-2187.0,36.375,-1612.5,-2520.0,0.0,0.375,4.482421416,2.482,0.0,-7192.0,37.125,-1485.0,-2520.0,0.0,0.125,2.5854489540000003,-0.0,0.0,4008.0,17.75,2280.0,2520.0,0.0,0.0,3.9416499870000004,0.0,0.0,-7011.0,46.25,-1245.0,-2520.0,0.0,0.75,2.7868649490000004,0.0,0.0,0.8600000143051147,2.369999885559082,30.770000457763672,-0.00335693359375,0.03704833984375,0.626708984375,32.849998474121094,0.0,-11.0,0.6981353759765625,0.003021240234375,Waiting,0.0,0.0,-27081.0,0.0,0.0,0.0,0.0,0.0,
3.1225,0.0,0.0,false,2957337.8274457348,,-2187.0,35.125,-1627.5,-2520.0,0.0,0.25,4.478759307,2.482,-0.01831054500000029,-7464.0,35.75,-1582.5,-2520.0,0.0,0.0,2.60009739,-0.0,0.025634763000000227,4403.0,17.25,2385.0,2520.0,0.0,0.0,3.9514156110000003,0.0,0.0,-7255.0,43.0,-1432.5,-2520.0,0.0,0.375,2.761230186,0.0,0.0,0.9100000262260437,2.6600000858306885,31.479999542236328,0.33380126953125,0.1632080078125,0.95025634765625,32.849998474121094,0.0,323.0,0.7132415771484375,0.0103912353515625,Waiting,0.0,0.0,-27081.0,0.0,0.0,0.0,0.0,0.0,
3.153960999999952,0.0,0.0,false,2957542.3035019455,,-2443.0,37.0,-1627.5,-2520.0,0.0,0.25,4.468993683,2.482,-0.007324217999999938,-7464.0,35.875,-1717.5,-2520.0,0.0,0.0,2.61230442,-0.0,0.02319335699999936,4403.0,16.75,2452.5,2520.0,0.0,0.0,3.9562984230000002,0.0,0.009765623999999917,-7255.0,41.25,-1530.0,-2520.0,0.0,0.375,2.7368161260000003,0.0,-0.03173827799999973,1.0199999809265137,2.8499999046325684,32.29999923706055,0.0489501953125,-0.24102783203125,1.39141845703125,32.849998474121094,0.0,-159.0,0.729736328125,0.0171356201171875,Waiting,0.0,0.0,-27081.0,0.0,0.0,0.0,0.0,0.0,
3.186697999999975,0.0,0.0,false,2957743.5963280443,,-2443.0,35.5,-1665.0,-2027.8125,0.0,0.25,4.465331574,2.482,0.0,-7464.0,31.75,-1875.0,-2027.8125,0.0,0.0,2.6428219950000003,-0.0,0.0,4403.0,15.75,2512.5,2027.8125,0.0,0.0,3.964843344,0.0,0.0,-7255.0,39.5,-1717.5,-2027.8125,0.0,0.375,2.712402066,0.0,0.0,0.9300000071525574,2.990000009536743,33.290000915527344,0.43035888671875,0.36260986328125,0.56195068359375,32.849998474121094,0.0,528.0,0.7465972900390625,0.0228424072265625,Waiting,0.0,0.0,-27081.0,0.0,0.0,0.0,0.0,0.0,
3.2192139999999783,0.0,0.0,false,2957941.5625531916,,-2443.0,36.25,-1687.5,-1771.875,0.0,0.25,4.462890168,2.482,-0.004882811999999959,-7464.0,27.0,-1942.5,-1771.875,0.0,0.0,2.6464841040000002,-0.0,0.01342773300000033,4403.0,13.625,2505.0,1771.875,0.0,0.0,3.964843344,0.0,0.006103514999999504,-7255.0,39.0,-1800.0,-1771.875,0.0,0.0,2.6953122240000003,0.0,0.0,1.0,3.240000009536743,34.869998931884766,0.01849365234375,0.37017822265625,1.187744140625,32.849998474121094,0.0,159.0,0.7754058837890625,0.032073974609375,Waiting,0.0,0.0,-27081.0,0.0,0.0,0.0,0.0,0.0,
3.254478000000003,0.0,0.0,false,2958136.202784025,,-2730.0,37.125,-1747.5,-1712.8124999999998,0.0,0.25,4.462890168,2.482,0.0012207029999995456,-7790.0,16.875,-2025.0,-1712.8124999999998,0.0,0.0,2.66113254,-0.0,0.013427732999999442,4760.0,11.25,2347.5,1712.8124999999998,0.0,0.0,3.96728475,0.0,0.004882811999999959,-7571.0,37.75,-1942.5,-1712.8124999999998,0.0,0.0,2.675780976,0.0,-0.018310544999999845,0.8799999952316284,3.3499999046325684,35.93000030517578,0.4755859375,0.37457275390625,0.5975341796875,32.849998474121094,0.0,570.0,0.7965850830078125,0.0389862060546875,Waiting,0.0,0.0,-27081.0,0.0,0.0,0.0,0.0,0.0,
3.2881339999999617,0.0,0.0,false,2958327.6615609042,,-2730.0,37.0,-1822.5,-1657.8230473309734,0.0,0.125,4.459228059,2.5223316510135296,0.0,-7790.0,11.625,-2032.5,-1457.4188876403189,0.0,0.0,2.667236055,0.045744720464856836,0.0,4760.0,14.875,2010.0,1657.8230473309734,0.0,0.0,3.96728475,4.913749597276183,0.0,-7571.0,32.375,-2047.5,-1457.4188876403189,0.0,0.0,2.655029025,4.901769144372625,0.0,0.7699999809265137,3.5299999713897705,36.849998474121094,0.2337646484375,-0.09381103515625,1.3150634765625,32.849998474121094,0.0,55.0,0.818603515625,0.044464111328125,Waiting,0.0,0.0,-27081.0,0.0,0.0,0.0,0.0,0.0,
3.324870999999985,0.0,0.0,false,2958515.7955388073,,-2730.0,37.625,-1837.5,-1847.5047096387707,0.0,0.125,4.454345247,2.899023745190227,0.0012207029999995456,-7790.0,9.75,-2017.5,1113.5760158943176,0.0,0.0,2.681884491,4.1697802359618406,0.012207030000000785,4760.0,16.875,1830.0,1847.5047096387707,0.0,0.0,3.966064047,4.537816350992671,0.0,-7571.0,18.125,-2062.5,1113.5760158943176,0.0,0.0,2.603759499,0.7789835891248316,0.0,0.8500000238418579,3.4600000381469727,37.75,0.37847900390625,-0.88848876953125,1.246826171875,32.849998474121094,0.0,-315.0,0.8397979736328125,0.04937744140625,Waiting,0.0,0.0,-27081.0,0.0,0.0,0.0,0.0,0.0,
3.3576819999999716,0.0,0.0,false,2958700.6053239335,,-2730.0,36.625,-1927.5,-2100.0,0.0,0.25,4.460448762,3.035356049206692,-0.006103514999999504,-7790.0,6.625,-1882.5,2100.0,0.0,2.375,2.6843258970000003,4.397316058113637,0.017089841999999855,5031.0,24.25,1642.5,2100.0,0.0,0.125,3.963622641,4.40175868900686,-0.006103514999999504,-7843.0,9.625,-1980.0,2100.0,0.0,3.5,2.608642311,0.5515167311543303,-0.05493163499999998,0.6100000143051147,3.6500000953674316,38.4900016784668,0.04986572265625,-0.32110595703125,0.1724853515625,32.849998474121094,0.0,-170.0,0.8594207763671875,0.052703857421875,Waiting,0.0,0.0,-27081.0,0.0,0.0,0.0,0.0,0.0,
3.3922459999999846,0.0,0.0,false,2958882.2354299603,,-3041.0,37.375,-1950.0,-2100.0,0.0,0.375,4.459228059,3.035356049206692,0.0,-8040.0,13.75,-1695.0,2100.0,0.0,3.375,2.614745826,4.397316058113637,0.0,5031.0,25.5,1785.0,2100.0,0.0,0.375,3.822021093,4.40175868900686,0.0,-7843.0,9.375,-1560.0,2100.0,0.0,4.125,2.723388393,0.5515167311543303,0.0,0.8600000143051147,2.490000009536743,38.619998931884766,-0.233154296875,-0.19464111328125,1.74554443359375,32.849998474121094,0.0,-379.0,0.877349853515625,0.057525634765625,Waiting,0.0,0.0,-27081.0,0.0,0.0,0.0,0.0,0.0,
3.4253799999999464,0.0,0.0,false,2959060.542537676,,-3041.0,35.75,-1950.0,-2100.0,0.0,0.375,4.47998001,3.035356049206692,0.004882811999999959,-8040.0,31.5,-1200.0,2100.0,0.0,1.125,2.518310289,4.397316058113637,0.0,5031.0,23.0,1935.0,2100.0,0.0,0.125,3.748778913,4.40175868900686,0.0,-7843.0,12.875,-1260.0,2100.0,0.0,0.5,2.835693069,0.5515167311543303,0.0,0.14000000059604645,2.0999999046325684,37.650001525878906,-0.6275634765625,-0.62957763671875,0.08807373046875,32.849998474121094,0.0,-883.0,0.9019622802734375,0.063690185546875,Waiting,0.0,0.0,-27081.0,0.0,0.0,0.0,0.0,0.0,
3.4584029999999912,0.0,0.0,false,2959235.527252841,,-3041.0,35.0,-1950.0,-2100.0,0.0,0.375,4.593505389000001,3.035356049206692,0.08422850699999973,-8040.0,35.5,-765.0,2100.0,0.0,1.25,2.443847406,4.397316058113637,-0.0988769429999996,5031.0,18.25,2227.5,2100.0,0.0,0.0,3.616942989,4.40175868900686,-0.0830078039999993,-7843.0,13.625,-660.0,2100.0,0.0,0.25,2.8906247040000004,0.5515167311543303,0.11352537899999993,0.3199999928474426,1.0399999618530273,36.279998779296875,-1.067138671875,-0.17974853515625,1.99993896484375,32.849998474121094,0.0,-1002.0,0.915802001953125,0.067901611328125,Waiting,0.0,0.0,-27081.0,0.0,0.0,0.0,0.0,0.0,
3.4924229999999516,0.0,0.0,false,2959407.334062462,,-3377.0,31.75,-1980.0,-1050.0,0.0,0.25,4.694823738,3.035356049206692,0.0,-8118.0,36.375,-607.5,1050.0,0.0,1.375,2.386474365,4.397316058113637,0.0,5393.0,17.125,2287.5,1050.0,0.0,0.0,3.542480106,4.40175868900686,0.0,-7887.0,13.625,-255.0,1050.0,0.0,0.25,2.967528993,0.5515167311543303,0.0,-0.09000000357627869,0.7900000214576721,34.47999954223633,-0.08984375,-0.469970703125,0.263427734375,32.849998474121094,0.0,-342.0,0.926116943359375,0.0728912353515625,Waiting,0.0,0.0,-27081.0,0.0,0.0,0.0,0.0,0.0,
3.528063999999955,0.0,0.0,false,2959578.9761224864,,-3377.0,32.0,-2062.5,-525.0,0.0,0.25,4.769286621,3.035356049206692,0.06591796199999944,-8118.0,25.25,-300.0,525.0,0.0,1.0,2.358398196,4.397316058113637,0.0,5393.0,9.625,2115.0,525.0,0.0,0.0,3.50341761,4.40175868900686,0.0,-7887.0,6.375,-97.5,525.0,0.0,0.25,2.994384459,0.5515167311543303,0.0,-0.03999999910593033,-0.20999999344348907,32.36000061035156,-0.273193359375,-0.10015869140625,1.615966796875,32.849998474121094,0.0,-278.0,0.9342193603515625,0.0770263671875,Waiting,0.0,0.0,-27081.0,0.0,0.0,0.0,0.0,0.0,
3.56674099999998,0.0,0.0,false,2959747.441069259,,-3377.0,40.0,-2122.5,0.0,0.0,0.25,4.8107905230000005,3.035356049206692,0.0,-8118.0,6.5,-67.5,0.0,0.0,0.75,2.347411869,4.397316058113637,0.0,5393.0,1.375,1725.0,0.0,0.0,0.0,3.498534798,4.40175868900686,0.0,-7887.0,0.25,97.5,0.0,0.0,0.0,3.013915707,0.5515167311543303,0.0,-0.07000000029802322,-0.6899999976158142,28.700000762939453,0.2249755859375,-0.13555908203125,1.00653076171875,32.849998474121094,0.0,143.0,0.9429931640625,0.0843505859375,Waiting,0.0,0.0,-27081.0,0.0,0.0,0.0,0.0,0.0,
3.600658999999985,0.0,0.0,false,2959912.5856266324,,-3377.0,17.375,-1912.5,0.0,0.0,0.25,4.83398388,3.035356049206692,0.07324218000000027,-8116.0,2.125,-7.5,0.0,0.0,0.875,2.34374976,4.397316058113637,-0.025634763000000227,5587.0,0.25,1537.5,0.0,0.0,0.0,3.489989877,4.40175868900686,-0.02929687200000064,-7839.0,0.0,210.0,0.0,0.0,0.0,3.0078121920000003,0.5515167311543303,0.015869138999999866,0.07000000029802322,-1.1299999952316284,26.31999969482422,-0.274169921875,0.2254638671875,0.98626708984375,32.849998474121094,0.0,-128.0,0.94720458984375,0.0903778076171875,Waiting,0.0,0.0,-27081.0,0.0,0.0,0.0,0.0,0.0,
3.632728000000003,0.0,0.0,false,2960074.4103997084,,-3582.0,0.25,-1260.0,-885.9375,0.0,0.25,4.832763177,3.035356049206692,0.0,-8116.0,0.125,15.0,885.9375,0.0,1.0,2.3217771060000003,4.397316058113637,0.0,5587.0,0.125,1192.5,885.9375,0.0,0.0,3.4790035500000003,4.40175868900686,0.0,-7839.0,0.0,292.5,885.9375,0.0,0.25,3.0065914890000003,0.5515167311543303,0.0,0.20999999344348907,-1.6399999856948853,24.309999465942383,-0.52166748046875,-0.0875244140625,0.8648681640625,32.849998474121094,0.0,-489.0,0.94915771484375,0.0975189208984375,Waiting,0.0,0.0,-27081.0,0.0,0.0,0.0,0.0,0.0,
3.6674539999999687,0.0,0.0,false,2960233.0598311364,,-3582.0,0.375,-915.0,-1410.9375,0.0,0.125,4.831542474,3.035356049206692,-0.0012207030000004337,-8116.0,1.375,30.0,1410.9375,0.0,0.375,2.288818125,4.397316058113637,-0.024414059999999793,5587.0,0.5,862.5,1410.9375,0.0,0.0,3.4802242530000003,4.40175868900686,-0.006103514999999504,-7839.0,0.75,495.0,1410.9375,0.0,0.0,3.0078121920000003,0.5515167311543303,0.0,0.49000000953674316,-2.1600000858306885,22.729999542236328,-0.47747802734375,0.54632568359375,1.26202392578125,32.849998474121094,0.0,-189.0,0.9493560791015625,0.110748291015625,Waiting,0.0,0.0,-27081.0,0.0,0.0,0.0,0.0,0.0,
3.6995380000000004,0.0,0.0,false,2960389.032069971,,-3582.0,1.625,-420.0,-2100.0,0.0,0.125,4.831542474,3.035356049206692,0.0024414059999999793,-8116.0,6.75,232.5,2100.0,0.0,0.0,2.211913836,4.397316058113637,-0.048828119999999586,5587.0,3.5,652.5,2100.0,0.0,0.0,3.489989877,4.40175868900686,0.002441405999999091,-7839.0,3.625,690.0,2100.0,0.0,0.0,3.022460628,0.5515167311543303,0.0,1.4800000190734863,-2.7899999618530273,20.34000015258789,-0.0257568359375,0.246826171875,1.0479736328125,32.849998474121094,0.0,100.0,0.9478302001953125,0.1295013427734375,Waiting,0.0,0.0,-27081.0,0.0,0.0,0.0,0.0,0.0,
3.7357179999999937,0.0,0.0,false,2960701.193076222,,-3665.0,7.875,-427.5,-1132.03125,0.0,0.125,4.843749504,3.035356049206692,0.0,-8019.0,16.75,585.0,1132.03125,0.0,0.0,2.1679685280000003,4.397316058113637,0.0,5687.0,6.125,615.0,1132.03125,0.0,0.0,3.4851070650000002,4.40175868900686,0.0,-7711.0,5.625,765.0,1132.03125,0.0,0.0,3.018798519,0.5515167311543303,0.0,1.6399999856948853,-2.8399999141693115,19.700000762939453,0.1182861328125,0.22412109375,1.146240234375,32.849998474121094,0.0,229.0,0.9477081298828125,0.136566162109375,Waiting,0.0,0.0,-27081.0,0.0,0.0,0.0,0.0,0.0,
