Time,ClimberA1,ClimberA2,CameraExists,HeapSpace,LoopTime,FRpos,FRCurrent,FRspeed,FRsetpoint,FRApos,FRACurrent,FREncpos,FREncSetpoint,FREncSpeed,FLpos,FLCurrent,FLspeed,FLsetpoint,FLApos,FLACurrent,FLEncpos,FLEncSetpoint,FLEncSpeed,BRpos,BRCurrent,BRspeed,BRsetpoint,BRApos,BRACurrent,BREncpos,BREncSetpoint,BREncSpeed,BLpos,BLCurrent,BLspeed,BLsetpoint,BLApos,BLACurrent,BLEncpos,BLEncSetpoint,BLEncSpeed,navx_Pitch,navx_Roll,navx_Yaw,navx_XAcc,navx_YAcc,navx_ZAcc,navx_Temp,navx_Bar,navx_Alt,navx_XDis,navx_YDis,GearPlacerState,ShootOutputV,ShootOutputCurrent,ShootEncPos,ShootEncVelocity,ShootSpeed,ShootSetpoint,CarouselSetpoint,CarouselCurrent,
0.7764300000000512,0.0,0.0,false,2832881.005562304,,-84.0,0.0,0.0,0.0,0.0,0.125,1.8176267670000001,0.0,0.0,85.0,0.0,0.0,0.0,0.0,0.0,2.681884491,0.0,0.0,0.0,0.0,0.0,0.0,0.0,0.0,4.039306227,0.0,0.0,73.0,0.0,0.0,0.0,0.0,0.0,2.5305173190000003,0.0,0.0,1.3600000143051147,0.4300000071525574,-142.7899932861328,0.00628662109375,0.02618408203125,0.9979248046875,32.90999984741211,0.0,0.0,-0.1483306884765625,-0.126220703125,Waiting,0.0,0.0,0.0,0.0,0.0,0.0,0.0,0.0,
1.0302410000000382,0.0,0.0,false,2833110.4845927632,,-84.0,0.0,0.0,0.0,0.0,0.125,1.8164060640000002,0.0,0.0,85.0,0.0,0.0,-0.0,0.0,0.0,2.681884491,0.0,0.0,0.0,0.0,0.0,0.0,0.0,0.0,4.039306227,0.0,0.0,73.0,0.0,0.0,-0.0,0.0,0.0,2.5305173190000003,0.0,0.0,1.3600000143051147,0.4300000071525574,-142.8000030517578,0.00946044921875,0.02227783203125,0.99090576171875,32.90999984741211,0.0,0.0,-0.1483306884765625,-0.126220703125,Waiting,-12.700000000000001,0.0,0.0,0.0,0.0,-1640.0,0.0,0.0,
1.0499770000000135,0.0,0.0,false,2833338.072748194,,-84.0,0.0,0.0,0.0,0.0,0.125,1.8164060640000002,0.0,0.0,85.0,0.0,0.0,-0.0,0.0,0.0,2.681884491,0.0,0.0,0.0,0.0,0.0,0.0,0.0,0.0,4.039306227,0.0,0.0,73.0,0.0,0.0,-0.0,0.0,0.0,2.5317380220000003,0.0,0.0,1.3600000143051147,0.4300000071525574,-142.8000030517578,-0.02056884765625,0.03021240234375,1.00714111328125,32.90999984741211,0.0,18.0,-0.1483306884765625,-0.1262359619140625,Waiting,-12.700000000000001,20.75,0.0,0.0,0.0,-1640.0,0.0,0.0,
1.0769860000000335,0.0,0.0,false,2833563.463564306,,-84.0,0.0,0.0,0.0,0.0,0.125,1.8176267670000001,0.0,0.0,85.0,0.0,0.0,-0.0,0.0,0.0,2.680663788,0.0,0.0,0.0,0.0,0.0,0.0,0.0,0.0,4.039306227,0.0,0.0,73.0,0.0,0.0,-0.0,0.0,0.0,2.5305173190000003,0.0,0.0,1.399999976158142,0.41999998688697815,-142.8000030517578,0.0223388671875,0.07891845703125,0.96978759765625,32.90999984741211,0.0,13.0,-0.1483917236328125,-0.1263580322265625,Waiting,-12.700000000000001,45.625,0.0,0.0,-7.5,-1640.0,0.0,0.0,
1.0966469999999973,0.0,0.0,false,2833786.9683604985,,-84.0,0.0,0.0,0.0,0.0,0.125,1.8164060640000002,0.0,0.0,85.0,0.0,0.0,-0.0,0.0,0.0,2.681884491,0.0,0.0,0.0,0.0,0.0,0.0,0.0,0.0,4.04052693,0.0,0.0,73.0,0.0,0.0,-0.0,0.0,0.0,2.5305173190000003,0.0,0.0,1.4199999570846558,0.41999998688697815,-142.8000030517578,0.00250244140625,0.0328369140625,1.0067138671875,32.90999984741211,0.0,0.0,-0.1484222412109375,-0.1263580322265625,Waiting,-10.5,70.75,-9.0,-2.0,-22.5,-1640.0,0.0,0.0,
1.115131000000052,0.0,0.0,false,2834008.275597597,,-84.0,0.0,0.0,0.0,0.0,0.125,1.8164060640000002,0.0,0.0,85.0,0.0,0.0,-0.0,0.0,0.0,2.680663788,0.0,0.0,0.0,0.0,0.0,0.0,0.0,0.0,4.039306227,0.0,0.0,73.0,0.0,0.0,-0.0,0.0,0.0,2.5305173190000003,0.0,0.0,1.4199999570846558,0.41999998688697815,-142.8000030517578,0.02716064453125,0.00640869140625,0.98870849609375,32.90999984741211,0.0,-4.0,-0.1484222412109375,-0.1263427734375,Waiting,-10.5,77.0,-9.0,-2.0,-165.0,-1640.0,0.0,0.0,
1.1647280000000029,0.0,0.0,false,2834227.69553269,,-84.0,0.0,0.0,0.0,0.0,0.125,1.8176267670000001,0.0,0.0,85.0,0.0,0.0,-0.0,0.0,0.0,2.681884491,0.0,0.0,0.0,0.0,0.0,0.0,0.0,0.0,4.039306227,0.0,0.0,73.0,0.0,0.0,-0.0,0.0,0.0,2.5305173190000003,0.0,0.0,1.409999966621399,0.41999998688697815,-142.8000030517578,0.01629638671875,0.0118408203125,1.04364013671875,32.90999984741211,0.0,1.0,-0.1484222412109375,-0.1262969970703125,Waiting,-10.5,74.25,-9.0,-2.0,-240.0,-1640.0,0.0,0.0,
1.1885860000000101,0.0,0.0,false,2834444.9207566464,,-84.0,0.0,0.0,0.0,0.0,0.125,1.8164060640000002,0.0,0.0,85.0,0.0,0.0,-0.0,0.0,0.0,2.681884491,0.0,0.0,0.0,0.0,0.0,0.0,0.0,0.0,4.039306227,0.0,0.0,73.0,0.0,0.0,-0.0,0.0,0.0,2.5292966160000003,0.0,0.0,1.3700000047683716,0.4300000071525574,-142.8000030517578,-0.00732421875,0.05389404296875,1.01947021484375,32.90999984741211,0.0,-5.0,-0.1483612060546875,-0.126129150390625,Waiting,-10.5,73.25,-9.0,-2.0,-315.0,-1640.0,0.0,0.0,
1.2074610000000103,0.0,0.0,false,2834660.261486357,,-84.0,0.0,0.0,0.0,0.0,0.125,1.8176267670000001,0.0,0.0,85.0,0.0,0.0,-0.0,0.0,0.0,2.681884491,0.0,0.0,0.0,0.0,0.0,0.0,0.0,0.0,4.039306227,0.0,0.0,73.0,0.0,0.0,-0.0,0.0,0.0,2.5317380220000003,0.0,0.0,1.3700000047683716,0.4300000071525574,-142.8000030517578,0.012939453125,0.0523681640625,0.9508056640625,32.90999984741211,0.0,-22.0,-0.1483306884765625,-0.1260833740234375,Waiting,-10.600000000000001,71.875,-80.0,-48.0,-390.0,-1640.0,0.0,0.0,
1.2290470000000204,0.0,0.0,false,2834873.4088178915,,-84.0,0.0,0.0,0.0,0.0,0.125,1.8164060640000002,0.0,0.0,85.0,0.0,0.0,-0.0,0.0,0.0,2.680663788,0.0,0.0,0.0,0.0,0.0,0.0,0.0,0.0,4.039306227,0.0,0.0,73.0,0.0,0.0,-0.0,0.0,0.0,2.5305173190000003,0.0,0.0,1.3799999952316284,0.4399999976158142,-142.7899932861328,0.020263671875,0.067626953125,1.0030517578125,32.90999984741211,0.0,-36.0,-0.148345947265625,-0.126068115234375,Waiting,-10.600000000000001,71.125,-80.0,-48.0,-472.5,-1640.0,0.0,0.0,
1.2486810000000406,0.0,0.0,false,2835084.673439397,,-84.0,0.0,0.0,0.0,0.0,0.125,1.8176267670000001,0.0,0.0,85.0,0.0,0.0,-0.0,0.0,0.0,2.681884491,0.0,0.0,0.0,0.0,0.0,0.0,0.0,0.0,4.039306227,0.0,0.0,73.0,0.0,0.0,-0.0,0.0,0.0,2.5305173190000003,0.0,0.0,1.3700000047683716,0.4300000071525574,-142.8000030517578,0.0242919921875,0.05828857421875,1.01873779296875,32.90999984741211,0.0,-33.0,-0.1484222412109375,-0.1259613037109375,Waiting,-10.600000000000001,69.875,-80.0,-48.0,-547.5,-1640.0,0.0,0.0,
1.2671370000000461,0.0,0.0,false,2835293.746486072,,-84.0,0.0,0.0,0.0,0.0,0.125,1.8164060640000002,0.0,0.0,85.0,0.0,0.0,-0.0,0.0,0.0,2.680663788,0.0,0.0,0.0,0.0,0.0,0.0,0.0,0.0,4.039306227,0.0,0.0,73.0,0.0,0.0,-0.0,0.0,0.0,2.5317380220000003,0.0,0.0,1.3700000047683716,0.44999998807907104,-142.8000030517578,0.01922607421875,-0.0445556640625,0.99114990234375,32.90999984741211,0.0,32.0,-0.148468017578125,-0.1258544921875,Waiting,-10.600000000000001,68.75,-80.0,-48.0,-615.0,-1640.0,0.0,0.0,
1.2909610000000102,0.0,0.0,false,2835500.934517345,,-84.0,0.0,0.0,0.0,0.0,0.125,1.8176267670000001,0.0,0.0,85.0,0.0,0.0,-0.0,0.0,0.0,2.681884491,0.0,0.0,0.0,0.0,0.0,0.0,0.0,0.0,4.039306227,0.0,0.0,73.0,0.0,0.0,-0.0,0.0,0.0,2.5317380220000003,0.0,0.0,1.3200000524520874,0.4399999976158142,-142.8000030517578,0.0230712890625,0.01629638671875,1.01922607421875,32.90999984741211,0.0,-7.0,-0.1484375,-0.125518798828125,Waiting,-10.600000000000001,67.75,-80.0,-48.0,-690.0,-1640.0,0.0,0.0,
1.3126160000000382,0.0,0.0,false,2835705.9307525232,,-84.0,0.0,0.0,0.0,0.0,0.125,1.8164060640000002,0.0,0.0,85.0,0.0,0.0,-0.0,0.0,0.0,2.681884491,0.0,0.0,0.0,0.0,0.0,0.0,0.0,0.0,4.039306227,0.0,0.0,73.0,0.0,0.0,-0.0,0.0,0.0,2.5317380220000003,0.0,0.0,1.2999999523162842,0.4399999976158142,-142.8000030517578,0.02459716796875,-0.02264404296875,1.0185546875,32.90999984741211,0.0,14.0,-0.148406982421875,-0.1252899169921875,Waiting,-10.600000000000001,66.25,-217.0,-105.0,-765.0,-1640.0,0.0,0.0,
1.3368220000000437,0.0,0.0,false,2835909.0406898754,,-84.0,0.0,0.0,0.0,0.0,0.125,1.8164060640000002,0.0,0.0,85.0,0.0,0.0,-0.0,0.0,0.0,2.680663788,0.0,0.0,0.0,0.0,0.0,0.0,0.0,0.0,4.039306227,0.0,0.0,73.0,0.0,0.0,-0.0,0.0,0.0,2.5317380220000003,0.0,0.0,1.309999942779541,0.44999998807907104,-142.8000030517578,-0.02362060546875,0.06414794921875,0.99041748046875,32.90999984741211,0.0,0.0,-0.1483917236328125,-0.12481689453125,Waiting,-10.75,65.125,-217.0,-105.0,-832.5,-1640.0,0.0,0.0,
1.35525900000002,0.0,0.0,false,2836109.957077159,,-84.0,0.0,0.0,0.0,0.0,0.125,1.8164060640000002,0.0,0.0,85.0,0.0,0.0,-0.0,0.0,0.0,2.681884491,0.0,0.0,0.0,0.0,0.0,0.0,0.0,0.0,4.039306227,0.0,0.0,73.0,0.0,0.0,-0.0,0.0,0.0,2.5305173190000003,0.0,0.0,1.2899999618530273,0.46000000834465027,-142.8000030517578,0.00848388671875,0.00689697265625,0.9786376953125,32.90999984741211,0.0,8.0,-0.1483917236328125,-0.1246185302734375,Waiting,-10.75,63.75,-217.0,-105.0,-900.0,-1640.0,0.0,0.0,
1.381107000000018,0.0,0.0,false,2836308.9889506293,,-84.0,0.0,0.0,0.0,0.0,0.125,1.8176267670000001,0.0,0.0,85.0,0.0,0.0,-0.0,0.0,0.0,2.681884491,0.0,0.0,0.0,0.0,0.0,0.0,0.0,0.0,4.039306227,0.0,0.0,73.0,0.0,0.0,-0.0,0.0,0.0,2.5305173190000003,0.0,0.0,1.2999999523162842,0.44999998807907104,-142.8000030517578,-0.01666259765625,0.08599853515625,0.94110107421875,32.90999984741211,0.0,-19.0,-0.1483917236328125,-0.1244659423828125,Waiting,-10.75,63.0,-217.0,-105.0,-967.5,-1640.0,0.0,0.0,
1.4003310000000055,0.0,0.0,false,2836505.8290969473,,-84.0,0.0,0.0,0.0,0.0,0.125,1.8176267670000001,0.0,0.0,85.0,0.0,0.0,-0.0,0.0,0.0,2.681884491,0.0,0.0,0.0,0.0,0.0,0.0,0.0,0.0,4.04052693,0.0,0.0,73.0,0.0,0.0,-0.0,0.0,0.0,2.5305173190000003,0.0,0.0,1.3300000429153442,0.4399999976158142,-142.8000030517578,0.041259765625,0.0811767578125,0.9573974609375,32.90999984741211,0.0,-62.0,-0.148651123046875,-0.1243438720703125,Waiting,-10.75,62.375,-217.0,-105.0,-1035.0,-1640.0,0.0,0.0,
1.4190489999999991,0.0,0.0,false,2836700.7885561017,,-84.0,0.0,0.0,0.0,0.0,0.125,1.8176267670000001,0.0,0.0,85.0,0.0,0.0,-0.0,0.0,0.0,2.681884491,0.0,0.0,0.0,0.0,0.0,0.0,0.0,0.0,4.04052693,0.0,0.0,73.0,0.0,0.0,-0.0,0.0,0.0,2.5305173190000003,0.0,0.0,1.350000023841858,0.4399999976158142,-142.8000030517578,0.01031494140625,0.0472412109375,1.0032958984375,32.90999984741211,0.0,-16.0,-0.1488800048828125,-0.1243438720703125,Waiting,-10.75,61.5,-217.0,-105.0,-1102.5,-1640.0,0.0,0.0,
1.4443150000000022,0.0,0.0,false,2836893.559642401,,-84.0,0.0,0.0,0.0,0.0,0.125,1.8176267670000001,0.0,0.0,85.0,0.0,0.0,-0.0,0.0,0.0,2.681884491,0.0,0.0,0.0,0.0,0.0,0.0,0.0,0.0,4.039306227,0.0,0.0,73.0,0.0,0.0,-0.0,0.0,0.0,2.5305173190000003,0.0,0.0,1.340000033378601,0.44999998807907104,-142.8000030517578,0.025146484375,-0.0166015625,0.99212646484375,32.90999984741211,0.0,10.0,-0.1492919921875,-0.12432861328125,Waiting,-10.75,60.625,-414.0,-155.0,-1162.5,-1640.0,0.0,0.0,
1.4639459999999962,0.0,0.0,false,2837084.450801354,,-84.0,0.0,0.0,0.0,0.0,0.125,1.8164060640000002,0.0,0.0,85.0,0.0,0.0,-0.0,0.0,0.0,2.681884491,0.0,0.0,0.0,0.0,0.0,0.0,0.0,0.0,4.039306227,0.0,0.0,73.0,0.0,0.0,-0.0,0.0,0.0,2.5305173190000003,0.0,0.0,1.340000033378601,0.44999998807907104,-142.8000030517578,-0.02593994140625,0.05133056640625,0.9306640625,32.90999984741211,0.0,8.0,-0.1494598388671875,-0.124298095703125,Waiting,-10.330303030303032,59.25,-414.0,-155.0,-1230.0,-1640.0,0.0,0.0,
1.4875120000000461,0.0,0.0,false,2837273.1528540417,,-84.0,0.0,0.0,0.0,0.0,0.125,1.8164060640000002,0.0,0.0,85.0,0.0,0.0,-0.0,0.0,0.0,2.681884491,0.0,0.0,0.0,0.0,0.0,0.0,0.0,0.0,4.039306227,0.0,0.0,73.0,0.0,0.0,-0.0,0.0,0.0,2.5317380220000003,0.0,0.0,1.3300000429153442,0.4399999976158142,-142.8000030517578,0.01727294921875,0.06121826171875,0.9832763671875,32.90999984741211,0.0,-6.0,-0.14984130859375,-0.1243743896484375,Waiting,-10.850000000000001,57.375,-414.0,-155.0,-1290.0,-1640.0,0.0,0.0,
1.5055480000000099,0.0,0.0,false,2837459.9736959715,,-84.0,0.0,0.0,0.0,0.0,0.125,1.8164060640000002,0.0,0.0,85.0,0.0,0.0,-0.0,0.0,0.0,2.681884491,0.0,0.0,0.0,0.0,0.0,0.0,0.0,0.0,4.039306227,0.0,0.0,73.0,0.0,0.0,-0.0,0.0,0.0,2.5305173190000003,0.0,0.0,1.340000033378601,0.44999998807907104,-142.8000030517578,0.03289794921875,-0.00665283203125,1.041259765625,32.90999984741211,0.0,0.0,-0.150054931640625,-0.1243896484375,Waiting,-10.733333333333334,54.0,-414.0,-155.0,-1350.0,-1640.0,0.0,0.0,
1.5300010000000475,0.0,0.0,false,2837644.606230848,,-84.0,0.0,0.0,0.0,0.0,0.125,1.8164060640000002,0.0,0.0,85.0,0.0,0.0,-0.0,0.0,0.0,2.680663788,0.0,0.0,0.0,0.0,0.0,0.0,0.0,0.0,4.039306227,0.0,0.0,73.0,0.0,0.0,-0.0,0.0,0.0,2.5305173190000003,0.0,0.0,1.340000033378601,0.4399999976158142,-142.8000030517578,0.00634765625,0.042236328125,0.9781494140625,32.90999984741211,0.0,-10.0,-0.150054931640625,-0.124420166015625,Waiting,-9.863636363636365,49.375,-414.0,-155.0,-1402.5,-1640.0,0.0,0.0,
1.55313400000002,0.0,0.0,false,2837827.36137887,,-84.0,0.0,0.0,0.0,0.0,0.125,1.8176267670000001,0.0,0.0,85.0,0.0,0.0,-0.0,0.0,0.0,2.680663788,0.0,0.0,0.0,0.0,0.0,0.0,0.0,0.0,4.039306227,0.0,0.0,73.0,0.0,0.0,-0.0,0.0,0.0,2.5305173190000003,0.0,0.0,1.340000033378601,0.44999998807907104,-142.8000030517578,0.0074462890625,-0.024658203125,1.0087890625,32.90999984741211,0.0,29.0,-0.1500396728515625,-0.1244354248046875,Waiting,-8.951515151515153,42.75,-663.0,-200.0,-1462.5,-1640.0,0.0,0.0,
1.5835650000000023,0.0,0.0,false,2838007.9305502363,,-84.0,0.0,0.0,0.0,0.0,0.125,1.8176267670000001,0.0,0.0,85.0,0.0,0.0,-0.0,0.0,0.0,2.680663788,0.0,0.0,0.0,0.0,0.0,0.0,0.0,0.0,4.04052693,0.0,0.0,73.0,0.0,0.0,-0.0,0.0,0.0,2.5305173190000003,0.0,0.0,1.3300000429153442,0.46000000834465027,-142.8000030517578,-0.00567626953125,-0.00927734375,0.974609375,32.88999938964844,0.0,34.0,-0.1497802734375,-0.1243743896484375,Waiting,-5.9901270772238515,27.625,-663.0,-200.0,-1560.0,-1640.0,0.0,0.0,
1.6082270000000134,0.0,0.0,false,2838186.623093126,,-84.0,0.0,0.0,0.0,0.0,0.125,1.8164060640000002,0.0,0.0,85.0,0.0,0.0,-0.0,0.0,0.0,2.679443085,0.0,0.0,0.0,0.0,0.0,0.0,0.0,0.0,4.039306227,0.0,0.0,73.0,0.0,0.0,-0.0,0.0,0.0,2.5305173190000003,0.0,0.0,1.3200000524520874,0.46000000834465027,-142.8000030517578,-0.022216796875,0.005126953125,0.974609375,32.88999938964844,0.0,12.0,-0.149627685546875,-0.1243743896484375,Waiting,-7.903323558162268,27.625,-663.0,-200.0,-1605.0,-1640.0,0.0,0.0,
1.6289430000000285,0.0,0.0,false,2838363.130456982,,-84.0,0.0,0.0,0.0,0.0,0.125,1.8164060640000002,0.0,0.0,85.0,0.0,0.0,-0.0,0.0,0.0,2.681884491,0.0,0.0,0.0,0.0,0.0,0.0,0.0,0.0,4.039306227,0.0,0.0,73.0,0.0,0.0,-0.0,0.0,0.0,2.5305173190000003,0.0,0.0,1.3200000524520874,0.4399999976158142,-142.8000030517578,-0.0018310546875,0.0263671875,1.02239990234375,32.88999938964844,0.0,6.0,-0.149627685546875,-0.1243743896484375,Waiting,-6.901173020527859,16.5,-663.0,-200.0,-1642.5,-1640.0,0.0,0.0,
1.646594000000041,0.0,0.0,false,2838537.761950348,,-84.0,0.0,0.0,0.0,0.0,0.125,1.8188474700000001,0.0,0.0,85.0,0.0,0.0,-0.0,0.0,0.0,2.681884491,0.0,0.0,0.0,0.0,0.0,0.0,0.0,0.0,4.039306227,0.0,0.0,73.0,0.0,0.0,-0.0,0.0,0.0,2.5305173190000003,0.0,0.0,1.3300000429153442,0.4399999976158142,-142.8000030517578,0.005126953125,0.005859375,0.995849609375,32.88999938964844,0.0,12.0,-0.149627685546875,-0.1243743896484375,Waiting,-4.236363636363636,16.5,-663.0,-200.0,-1642.5,-1640.0,0.0,0.0,
1.6646400000000139,0.0,0.0,false,2838710.2090619016,,-84.0,0.0,0.0,0.0,0.0,0.125,1.8164060640000002,0.0,0.0,85.0,0.0,0.0,-0.0,0.0,0.0,2.681884491,0.0,0.0,0.0,0.0,0.0,0.0,0.0,0.0,4.039306227,0.0,0.0,73.0,0.0,0.0,-0.0,0.0,0.0,2.5305173190000003,0.0,0.0,1.309999942779541,0.4399999976158142,-142.8000030517578,-0.01300048828125,0.0030517578125,0.98321533203125,32.88999938964844,0.0,28.0,-0.14959716796875,-0.1243743896484375,Waiting,-6.115395894428152,12.75,-663.0,-200.0,-1680.0,-1640.0,0.0,0.0,
1.6850550000000513,0.0,0.0,false,2838880.781060558,,-84.0,0.0,0.0,0.0,0.0,0.125,1.8176267670000001,0.0,0.0,85.0,0.0,0.0,-0.0,0.0,0.0,2.680663788,0.0,0.0,0.0,0.0,0.0,0.0,0.0,0.0,4.039306227,0.0,0.0,73.0,0.0,0.0,-0.0,0.0,0.0,2.5305173190000003,0.0,0.0,1.2899999618530273,0.4399999976158142,-142.8000030517578,0.0164794921875,-0.0286865234375,0.989501953125,32.88999938964844,0.0,23.0,-0.1494598388671875,-0.1242828369140625,Waiting,-6.129814271749756,10.125,-940.0,-228.0,-1702.5,-1640.0,0.0,0.0,
1.7022600000000092,0.0,0.0,false,2839049.1694742218,,-84.0,0.0,0.0,0.0,0.0,0.125,1.8164060640000002,0.0,0.0,85.0,0.0,0.0,-0.0,0.0,0.0,2.681884491,0.0,0.0,0.0,0.0,0.0,0.0,0.0,0.0,4.038085524,0.0,0.0,73.0,0.0,0.0,-0.0,0.0,0.0,2.5305173190000003,0.0,0.0,1.2699999809265137,0.4399999976158142,-142.8000030517578,0.0177001953125,-0.0335693359375,1.04296875,32.88999938964844,0.0,26.0,-0.1493377685546875,-0.1241607666015625,Waiting,-5.700488758553275,8.375,-940.0,-228.0,-1717.5,-1640.0,0.0,0.0,
1.7276990000000223,0.0,0.0,false,2839215.683532189,,-84.0,0.0,0.0,0.0,0.0,0.125,1.8176267670000001,0.0,0.0,85.0,0.0,0.0,-0.0,0.0,0.0,2.681884491,0.0,0.0,0.0,0.0,0.0,0.0,0.0,0.0,4.04052693,0.0,0.0,73.0,0.0,0.0,-0.0,0.0,0.0,2.5305173190000003,0.0,0.0,1.2400000095367432,0.46000000834465027,-142.8000030517578,0.005126953125,-0.03179931640625,1.01507568359375,32.88999938964844,0.0,35.0,-0.1490325927734375,-0.12371826171875,Waiting,-3.029130009775171,7.0,-940.0,-228.0,-1732.5,-1640.0,0.0,0.0,
1.7439980000000215,0.0,0.0,false,2839380.0148015823,,-84.0,0.0,0.0,0.0,0.0,0.125,1.8176267670000001,0.0,0.0,85.0,0.0,0.0,-0.0,0.0,0.0,2.681884491,0.0,0.0,0.0,0.0,0.0,0.0,0.0,0.0,4.039306227,0.0,0.0,73.0,0.0,0.0,-0.0,0.0,0.0,2.5317380220000003,0.0,0.0,1.2400000095367432,0.47999998927116394,-142.8000030517578,-3.662109375E-4,-0.0068359375,1.013916015625,32.88999938964844,0.0,24.0,-0.1488037109375,-0.1234283447265625,Waiting,-5.24731182795699,5.625,-940.0,-228.0,-1747.5,-1640.0,0.0,0.0,
1.7608369999999995,0.0,0.0,false,2839539.752727273,,-84.0,0.0,0.0,0.0,0.0,0.125,1.8164060640000002,0.0,0.0,85.0,0.0,0.0,-0.0,0.0,0.0,2.681884491,0.0,0.0,0.0,0.0,0.0,0.0,0.0,0.0,4.038085524,0.0,0.0,73.0,0.0,0.0,-0.0,0.0,0.0,2.5305173190000003,0.0,0.0,1.2400000095367432,0.47999998927116394,-142.8000030517578,-0.03155517578125,-0.01031494140625,0.99066162109375,32.88999938964844,0.0,51.0,-0.1485443115234375,-0.1231231689453125,Waiting,-5.235386119257087,4.875,-940.0,-228.0,-1755.0,-1640.0,0.0,0.0,
1.7825109999999986,0.0,0.0,false,2839697.3090073997,,-84.0,0.0,0.0,0.0,0.0,0.125,1.8164060640000002,0.0,0.0,85.0,0.0,0.0,-0.0,0.0,0.0,2.681884491,0.0,0.0,0.0,0.0,0.0,0.0,0.0,0.0,4.038085524,0.0,0.0,73.0,0.0,0.0,-0.0,0.0,0.0,2.5317380220000003,0.0,0.0,1.2599999904632568,0.47999998927116394,-142.8000030517578,-0.0211181640625,0.00347900390625,0.98065185546875,32.88999938964844,0.0,34.0,-0.148223876953125,-0.1231231689453125,Waiting,-5.044574780058651,4.375,-940.0,-228.0,-1755.0,-1640.0,0.0,0.0,
1.8002690000000294,0.0,0.0,false,2839852.6830388466,,-84.0,0.0,0.0,0.0,0.0,0.125,1.8164060640000002,0.0,0.0,85.0,0.0,0.0,-0.0,0.0,0.0,2.681884491,0.0,0.0,0.0,0.0,0.0,0.0,0.0,0.0,4.039306227,0.0,0.0,73.0,0.0,0.0,-0.0,0.0,0.0,2.5305173190000003,0.0,0.0,1.2699999809265137,0.4699999988079071,-142.8000030517578,-0.02117919921875,-0.00439453125,0.98846435546875,32.88999938964844,0.0,39.0,-0.1478424072265625,-0.1231231689453125,Waiting,-4.87761485826002,4.375,-940.0,-228.0,-1762.5,-1640.0,0.0,0.0,
1.820076000000001,0.0,0.0,false,2840006.184972573,,-84.0,0.0,0.0,0.0,0.0,0.125,1.8176267670000001,0.0,0.0,85.0,0.0,0.0,-0.0,0.0,0.0,2.681884491,0.0,0.0,0.0,0.0,0.0,0.0,0.0,0.0,4.038085524,0.0,0.0,73.0,0.0,0.0,-0.0,0.0,0.0,2.5317380220000003,0.0,0.0,1.2999999523162842,0.46000000834465027,-142.8000030517578,-0.01593017578125,0.004150390625,0.969970703125,32.88999938964844,0.0,29.0,-0.146942138671875,-0.1231689453125,Waiting,-4.921212121212122,3.625,-1222.0,-235.0,-1762.5,-1640.0,0.0,0.0,
1.8393330000000423,0.0,0.0,false,2840157.506473627,,-84.0,0.0,0.0,0.0,0.0,0.125,1.8164060640000002,0.0,0.0,85.0,0.0,0.0,-0.0,0.0,0.0,2.681884491,0.0,0.0,0.0,0.0,0.0,0.0,0.0,0.0,4.039306227,0.0,0.0,73.0,0.0,0.0,-0.0,0.0,0.0,2.5317380220000003,0.0,0.0,1.2999999523162842,0.4399999976158142,-142.8000030517578,-0.0274658203125,-0.0255126953125,1.00732421875,32.88999938964844,0.0,57.0,-0.1464080810546875,-0.1231842041015625,Waiting,-4.896969696969697,3.625,-1222.0,-235.0,-1762.5,-1640.0,0.0,0.0,
1.8601530000000495,0.0,0.0,false,2840306.9566326533,,-84.0,0.0,0.0,0.0,0.0,0.125,1.8176267670000001,0.0,0.0,85.0,0.0,0.0,-0.0,0.0,0.0,2.681884491,0.0,0.0,0.0,0.0,0.0,0.0,0.0,0.0,4.039306227,0.0,0.0,73.0,0.0,0.0,-0.0,0.0,0.0,2.5305173190000003,0.0,0.0,1.2999999523162842,0.4399999976158142,-142.8000030517578,-0.011962890625,0.00555419921875,0.988525390625,32.88999938964844,0.0,25.0,-0.1458282470703125,-0.1231842041015625,Waiting,-4.993939393939394,3.625,-1222.0,-235.0,-1762.5,-1640.0,0.0,0.0,
1.8798280000000378,0.0,0.0,false,2840454.2271538805,,-84.0,0.0,0.0,0.0,0.0,0.125,1.8176267670000001,0.0,0.0,85.0,0.0,0.0,-0.0,0.0,0.0,2.681884491,0.0,0.0,0.0,0.0,0.0,0.0,0.0,0.0,4.039306227,0.0,0.0,73.0,0.0,0.0,-0.0,0.0,0.0,2.5305173190000003,0.0,0.0,1.2699999809265137,0.4399999976158142,-142.8000030517578,0.02032470703125,0.00262451171875,1.04620361328125,32.88999938964844,0.0,2.0,-0.144561767578125,-0.12310791015625,Waiting,-4.957575757575758,3.625,-1222.0,-235.0,-1755.0,-1640.0,0.0,0.0,
1.9000720000000437,0.0,0.0,false,2840599.6270883814,,-84.0,0.0,0.0,0.0,0.0,0.125,1.8164060640000002,0.0,0.0,85.0,0.0,0.0,-0.0,0.0,0.0,2.680663788,0.0,0.0,0.0,0.0,0.0,0.0,0.0,0.0,4.039306227,0.0,0.0,73.0,0.0,0.0,-0.0,0.0,0.0,2.5317380220000003,0.0,0.0,1.25,0.4399999976158142,-142.8000030517578,0.01043701171875,7.32421875E-4,1.02655029296875,32.88999938964844,0.0,11.0,-0.144561767578125,-0.1230316162109375,Waiting,-4.921212121212122,3.625,-1222.0,-235.0,-1755.0,-1640.0,0.0,0.0,
1.9190590000000083,0.0,0.0,false,2840742.8481795574,,-84.0,0.0,0.0,0.0,0.0,0.125,1.8164060640000002,0.0,0.0,85.0,0.0,0.0,-0.0,0.0,0.0,2.681884491,0.0,0.0,0.0,0.0,0.0,0.0,0.0,0.0,4.039306227,0.0,0.0,73.0,0.0,0.0,-0.0,0.0,0.0,2.5317380220000003,0.0,0.0,1.2300000190734863,0.46000000834465027,-142.8000030517578,0.03369140625,0.02069091796875,1.03521728515625,32.88999938964844,0.0,-19.0,-0.144622802734375,-0.1230316162109375,Waiting,-4.884848484848485,3.75,-1222.0,-235.0,-1755.0,-1640.0,0.0,0.0,
1.9396750000000467,0.0,0.0,false,2840884.199438919,,-84.0,0.0,0.0,0.0,0.0,0.125,1.8176267670000001,0.0,0.0,85.0,0.0,0.0,-0.0,0.0,0.0,2.681884491,0.0,0.0,0.0,0.0,0.0,0.0,0.0,0.0,4.039306227,0.0,0.0,73.0,0.0,0.0,-0.0,0.0,0.0,2.5317380220000003,0.0,0.0,1.2200000286102295,0.4699999988079071,-142.8000030517578,0.01904296875,0.0504150390625,1.0382080078125,32.88999938964844,0.0,-25.0,-0.1446990966796875,-0.1230316162109375,Waiting,-5.0181818181818185,3.75,-1502.0,-233.0,-1747.5,-1640.0,0.0,0.0,
1.9597210000000196,0.0,0.0,false,2841023.372649028,,-84.0,0.0,0.0,0.0,0.0,0.125,1.8164060640000002,0.0,0.0,85.0,0.0,0.0,-0.0,0.0,0.0,2.680663788,0.0,0.0,0.0,0.0,0.0,0.0,0.0,0.0,4.04052693,0.0,0.0,73.0,0.0,0.0,-0.0,0.0,0.0,2.5305173190000003,0.0,0.0,1.2200000286102295,0.47999998927116394,-142.8000030517578,0.03924560546875,0.0638427734375,1.02056884765625,32.88999938964844,0.0,-49.0,-0.1448211669921875,-0.1230316162109375,Waiting,-4.981818181818182,3.875,-1502.0,-233.0,-1747.5,-1640.0,0.0,0.0,
1.9797090000000317,0.0,0.0,false,2841160.676781844,,-84.0,0.0,0.0,0.0,0.0,0.125,1.8164060640000002,0.0,0.0,85.0,0.0,0.0,-0.0,0.0,0.0,2.680663788,0.0,0.0,0.0,0.0,0.0,0.0,0.0,0.0,4.039306227,0.0,0.0,73.0,0.0,0.0,-0.0,0.0,0.0,2.5317380220000003,0.0,0.0,1.2200000286102295,0.47999998927116394,-142.8000030517578,0.01873779296875,0.06695556640625,1.0384521484375,32.88999938964844,0.0,-34.0,-0.1450042724609375,-0.1230621337890625,Waiting,-4.945454545454545,3.875,-1502.0,-233.0,-1747.5,-1640.0,0.0,0.0,
1.9998250000000117,0.0,0.0,false,2841295.803659081,,-84.0,0.0,0.0,0.0,0.0,0.125,1.8176267670000001,0.0,0.0,85.0,0.0,0.0,-0.0,0.0,0.0,2.681884491,0.0,0.0,0.0,0.0,0.0,0.0,0.0,0.0,4.039306227,0.0,0.0,73.0,0.0,0.0,-0.0,0.0,0.0,2.5305173190000003,0.0,0.0,1.2300000190734863,0.5,-142.8000030517578,0.01519775390625,0.0872802734375,1.00274658203125,32.88999938964844,0.0,-44.0,-0.14556884765625,-0.123260498046875,Waiting,-5.042424242424243,3.875,-1502.0,-233.0,-1747.5,-1640.0,0.0,0.0,
2.0198720000000323,0.0,0.0,false,2841429.0611932687,,-84.0,0.0,0.0,0.0,0.0,0.125,1.8176267670000001,0.0,0.0,85.0,0.0,0.0,-0.0,0.0,0.0,2.681884491,0.0,0.0,0.0,0.0,0.0,0.0,0.0,0.0,4.047851148,0.0,0.0,73.0,0.0,0.0,-0.0,0.0,0.0,2.5305173190000003,0.0,0.0,1.2400000095367432,0.49000000953674316,-142.80999755859375,0.01611328125,0.09814453125,0.994873046875,32.88999938964844,0.0,-52.0,-0.1459503173828125,-0.12347412109375,Waiting,-5.006060606060606,3.875,-1502.0,-233.0,-1740.0,-1640.0,0.0,0.0,
2.0401100000000443,0.0,0.0,false,2841560.1422652816,,-84.0,0.0,0.0,0.0,0.0,0.125,1.8164060640000002,0.0,0.0,85.0,0.0,0.0,-0.0,0.0,0.0,2.681884491,0.0,0.0,0.0,0.0,0.0,0.0,0.0,0.0,4.039306227,0.0,0.0,73.0,0.0,0.0,-0.0,0.0,0.0,2.5317380220000003,0.0,0.0,1.25,0.49000000953674316,-142.80999755859375,0.00848388671875,0.0943603515625,0.9945068359375,32.88999938964844,0.0,-28.0,-0.1468963623046875,-0.1241302490234375,Waiting,-4.993939393939394,3.875,-1502.0,-233.0,-1740.0,-1640.0,0.0,0.0,
2.0593280000000376,0.0,0.0,false,2841689.355768005,,-84.0,0.0,0.0,0.0,0.0,0.125,1.8164060640000002,0.0,0.0,85.0,0.0,0.0,-0.0,0.0,0.0,2.681884491,0.0,0.0,0.0,0.0,0.0,0.0,0.0,0.0,4.038085524,0.0,0.0,73.0,0.0,0.0,-0.0,0.0,0.0,2.5305173190000003,0.0,0.0,1.2899999618530273,0.4699999988079071,-142.80999755859375,0.0062255859375,0.084228515625,0.9736328125,32.88999938964844,0.0,-36.0,-0.1474456787109375,-0.124603271484375,Waiting,-4.977565982404692,3.875,-1781.0,-232.0,-1740.0,-1640.0,0.0,0.0,
2.0810610000000453,0.0,0.0,false,2841816.393601428,,-84.0,0.0,0.0,0.0,0.0,0.125,1.8176267670000001,0.0,0.0,85.0,0.0,0.0,-0.0,0.0,0.0,2.681884491,0.0,0.0,0.0,0.0,0.0,0.0,0.0,0.0,4.039306227,0.0,0.0,73.0,0.0,0.0,-0.0,0.0,0.0,2.5305173190000003,0.0,0.0,1.309999942779541,0.44999998807907104,-142.80999755859375,-0.0244140625,0.0927734375,1.00421142578125,32.88999938964844,0.0,-16.0,-0.1480255126953125,-0.125152587890625,Waiting,-4.941055718475074,3.75,-1781.0,-232.0,-1740.0,-1640.0,0.0,0.0,
2.099467000000004,0.0,0.0,false,2841941.564618914,,-84.0,0.0,0.0,0.0,0.0,0.125,1.8164060640000002,0.0,0.0,85.0,0.0,0.0,-0.0,0.0,0.0,2.681884491,0.0,0.0,0.0,0.0,0.0,0.0,0.0,0.0,4.039306227,0.0,0.0,73.0,0.0,0.0,-0.0,0.0,0.0,2.5317380220000003,0.0,0.0,1.3300000429153442,0.4399999976158142,-142.80999755859375,0.0072021484375,0.07843017578125,0.98480224609375,32.91999816894531,0.0,-33.0,-0.1486358642578125,-0.12579345703125,Waiting,-5.038416422287391,3.875,-1781.0,-232.0,-1732.5,-1640.0,0.0,0.0,
2.120404000000039,0.0,0.0,false,2842064.560759574,,-84.0,0.0,0.0,0.0,0.0,0.125,1.8176267670000001,0.0,0.0,85.0,0.0,0.0,-0.0,0.0,0.0,2.681884491,0.0,0.0,0.0,0.0,0.0,0.0,0.0,0.0,4.039306227,0.0,0.0,73.0,0.0,0.0,-0.0,0.0,0.0,2.5317380220000003,0.0,0.0,1.340000033378601,0.41999998688697815,-142.80999755859375,0.00640869140625,0.07574462890625,0.98193359375,32.91999816894531,0.0,-31.0,-0.149993896484375,-0.1273040771484375,Waiting,-5.014076246334311,3.875,-1781.0,-232.0,-1732.5,-1640.0,0.0,0.0,
2.141831999999995,0.0,0.0,false,2842185.1622276027,,-84.0,0.0,0.0,0.0,0.0,0.125,1.8164060640000002,0.0,0.0,85.0,0.0,0.0,-0.0,0.0,0.0,2.680663788,0.0,0.0,0.0,0.0,0.0,0.0,0.0,0.0,4.039306227,0.0,0.0,73.0,0.0,0.0,-0.0,0.0,0.0,2.5317380220000003,0.0,0.0,1.350000023841858,0.4099999964237213,-142.80999755859375,-0.01226806640625,0.0672607421875,1.000732421875,32.91999816894531,0.0,-10.0,-0.1507110595703125,-0.128173828125,Waiting,-4.977565982404692,4.0,-1781.0,-232.0,-1732.5,-1640.0,0.0,0.0,
2.159112000000023,0.0,0.0,false,2842303.898056706,,-84.0,0.0,0.0,0.0,0.0,0.125,1.8164060640000002,0.0,0.0,85.0,0.0,0.0,-0.0,0.0,0.0,2.681884491,0.0,0.0,0.0,0.0,0.0,0.0,0.0,0.0,4.04052693,0.0,0.0,73.0,0.0,0.0,-0.0,0.0,0.0,2.5329587250000003,0.0,0.0,1.3600000143051147,0.38999998569488525,-142.80999755859375,-0.00115966796875,0.0693359375,1.0281982421875,32.91999816894531,0.0,-20.0,-0.151458740234375,-0.12908935546875,Waiting,-4.965395894428153,3.875,-1781.0,-232.0,-1732.5,-1640.0,0.0,0.0,
2.1793319999999947,0.0,0.0,false,2842420.460244648,,-84.0,0.0,0.0,0.0,0.0,0.125,1.8164060640000002,0.0,0.0,85.0,0.0,0.0,-0.0,0.0,0.0,2.681884491,0.0,0.0,0.0,0.0,0.0,0.0,0.0,0.0,4.039306227,0.0,0.0,73.0,0.0,0.0,-0.0,0.0,0.0,2.5317380220000003,0.0,0.0,1.3700000047683716,0.3799999952316284,-142.80999755859375,-0.01776123046875,0.0595703125,1.02471923828125,32.91999816894531,0.0,-1.0,-0.1530303955078125,-0.1310577392578125,Waiting,-4.909090909090909,3.875,-2058.0,-231.0,-1725.0,-1640.0,0.0,0.0,
2.2000080000000306,0.0,0.0,false,2842535.157546028,,-84.0,0.0,0.0,0.0,0.0,0.125,1.822509579,0.0,0.0,85.0,0.0,0.0,-0.0,0.0,0.0,2.681884491,0.0,0.0,0.0,0.0,0.0,0.0,0.0,0.0,4.039306227,0.0,0.0,73.0,0.0,0.0,-0.0,0.0,0.0,2.5317380220000003,0.0,0.0,1.3700000047683716,0.3799999952316284,-142.80999755859375,0.020751953125,0.04864501953125,0.98968505859375,32.91999816894531,0.0,-26.0,-0.153839111328125,-0.1320953369140625,Waiting,-5.0181818181818185,3.875,-2058.0,-231.0,-1725.0,-1640.0,0.0,0.0,
2.2190160000000034,0.0,0.0,false,2842647.6819977066,,-84.0,0.0,0.0,0.0,0.0,0.125,1.8164060640000002,0.0,0.0,85.0,0.0,0.0,-0.0,0.0,0.0,2.681884491,0.0,0.0,0.0,0.0,0.0,0.0,0.0,0.0,4.039306227,0.0,0.0,73.0,0.0,0.0,-0.0,0.0,0.0,2.5317380220000003,0.0,0.0,1.3600000143051147,0.3799999952316284,-142.80999755859375,0.0181884765625,0.05059814453125,1.00848388671875,32.91999816894531,0.0,-25.0,-0.155517578125,-0.13427734375,Waiting,-4.993939393939394,3.875,-2058.0,-231.0,-1725.0,-1640.0,0.0,0.0,
2.2391140000000016,0.0,0.0,false,2842758.341295624,,-84.0,0.0,0.0,0.0,0.0,0.125,1.8164060640000002,0.0,0.0,85.0,0.0,0.0,-0.0,0.0,0.0,2.680663788,0.0,0.0,0.0,0.0,0.0,0.0,0.0,0.0,4.04052693,0.0,0.0,73.0,0.0,0.0,-0.0,0.0,0.0,2.5317380220000003,0.0,0.0,1.3600000143051147,0.3799999952316284,-142.80999755859375,0.005126953125,0.02197265625,1.0079345703125,32.91999816894531,0.0,2.0,-0.1563873291015625,-0.1353912353515625,Waiting,-4.957575757575758,3.875,-2058.0,-231.0,-1725.0,-1640.0,0.0,0.0,
2.2603470000000088,0.0,0.0,false,2842866.828535032,,-84.0,0.0,0.0,0.0,0.0,0.125,1.8176267670000001,0.0,0.0,85.0,0.0,0.0,-0.0,0.0,0.0,2.680663788,0.0,0.0,0.0,0.0,0.0,0.0,0.0,0.0,4.039306227,0.0,0.0,73.0,0.0,0.0,-0.0,0.0,0.0,2.5305173190000003,0.0,0.0,1.350000023841858,0.3799999952316284,-142.80999755859375,0.0025634765625,0.0318603515625,1.01788330078125,32.91999816894531,0.0,-1.0,-0.157257080078125,-0.1353912353515625,Waiting,-4.945454545454545,3.875,-2058.0,-231.0,-1725.0,-1640.0,0.0,0.0,
2.2799450000000068,0.0,0.0,false,2842973.4493344375,,-84.0,0.0,0.0,0.0,0.0,0.125,1.8164060640000002,0.0,0.0,85.0,0.0,0.0,-0.0,0.0,0.0,2.681884491,0.0,0.0,0.0,0.0,0.0,0.0,0.0,0.0,4.04052693,0.0,0.0,73.0,0.0,0.0,-0.0,0.0,0.0,2.5305173190000003,0.0,0.0,1.340000033378601,0.3799999952316284,-142.80999755859375,0.0172119140625,0.017333984375,1.02178955078125,32.91999816894531,0.0,-4.0,-0.157257080078125,-0.1353912353515625,Waiting,-5.054545454545455,3.875,-2058.0,-231.0,-1725.0,-1640.0,0.0,0.0,
2.2989000000000233,0.0,0.0,false,2843077.8988663866,,-84.0,0.0,0.0,0.0,0.0,0.125,1.8151853610000002,0.0,0.0,85.0,0.0,0.0,-0.0,0.0,0.0,2.681884491,0.0,0.0,0.0,0.0,0.0,0.0,0.0,0.0,4.039306227,0.0,0.0,73.0,0.0,0.0,-0.0,0.0,0.0,2.5305173190000003,0.0,0.0,1.309999942779541,0.38999998569488525,-142.80999755859375,0.01788330078125,0.0198974609375,0.9815673828125,32.91999816894531,0.0,-7.0,-0.157257080078125,-0.1353912353515625,Waiting,-5.03030303030303,4.0,-2336.0,-229.0,-1717.5,-1640.0,0.0,0.0,
2.319438000000024,0.0,0.0,false,2843180.485767051,,-84.0,0.0,0.0,0.0,0.0,0.125,1.8176267670000001,0.0,0.0,85.0,0.0,0.0,-0.0,0.0,0.0,2.681884491,0.0,0.0,0.0,0.0,0.0,0.0,0.0,0.0,4.039306227,0.0,0.0,73.0,0.0,0.0,-0.0,0.0,0.0,2.5305173190000003,0.0,0.0,1.2999999523162842,0.3799999952316284,-142.80999755859375,0.01434326171875,0.006103515625,1.01690673828125,32.91999816894531,0.0,4.0,-0.157257080078125,-0.1353912353515625,Waiting,-4.993939393939394,4.0,-2336.0,-229.0,-1717.5,-1640.0,0.0,0.0,
2.3403810000000522,0.0,0.0,false,2843280.9021905246,,-84.0,0.0,0.0,0.0,0.0,0.125,1.8164060640000002,0.0,0.0,85.0,0.0,0.0,-0.0,0.0,0.0,2.680663788,0.0,0.0,0.0,0.0,0.0,0.0,0.0,0.0,4.039306227,0.0,0.0,73.0,0.0,0.0,-0.0,0.0,0.0,2.5305173190000003,0.0,0.0,1.2699999809265137,0.4000000059604645,-142.80999755859375,0.00946044921875,0.01446533203125,1.01763916015625,32.91999816894531,0.0,3.0,-0.157257080078125,-0.1353912353515625,Waiting,-4.96969696969697,4.0,-2336.0,-229.0,-1717.5,-1640.0,0.0,0.0,
2.3593400000000257,0.0,0.0,false,2843379.4567335243,,-84.0,0.0,0.0,0.0,0.0,0.125,1.8164060640000002,0.0,0.0,85.0,0.0,0.0,-0.0,0.0,0.0,2.680663788,0.0,0.0,0.0,0.0,0.0,0.0,0.0,0.0,4.04052693,0.0,0.0,73.0,0.0,0.0,-0.0,0.0,0.0,2.5305173190000003,0.0,0.0,1.2599999904632568,0.4000000059604645,-142.80999755859375,0.02508544921875,0.0177001953125,1.015869140625,32.91999816894531,0.0,-11.0,-0.157257080078125,-0.1353912353515625,Waiting,-4.957575757575758,3.875,-2336.0,-229.0,-1717.5,-1640.0,0.0,0.0,
2.380497000000032,0.0,0.0,false,2843475.8415892017,,-84.0,0.0,0.0,0.0,0.0,0.125,1.8164060640000002,0.0,0.0,85.0,0.0,0.0,-0.0,0.0,0.0,2.6831051940000004,0.0,0.0,0.0,0.0,0.0,0.0,0.0,0.0,4.039306227,0.0,0.0,73.0,0.0,0.0,-0.0,0.0,0.0,2.5317380220000003,0.0,0.0,1.25,0.4099999964237213,-142.80999755859375,0.01727294921875,0.009765625,0.99114990234375,32.91999816894531,0.0,0.0,-0.157257080078125,-0.1353912353515625,Waiting,-4.933333333333334,3.875,-2336.0,-229.0,-1717.5,-1640.0,0.0,0.0,
2.39926800000004,0.0,0.0,false,2843570.3653148278,,-84.0,0.0,0.0,0.0,0.0,0.125,1.8164060640000002,0.0,0.0,85.0,0.0,0.0,-0.0,0.0,0.0,2.681884491,0.0,0.0,0.0,0.0,0.0,0.0,0.0,0.0,4.039306227,0.0,0.0,73.0,0.0,0.0,-0.0,0.0,0.0,2.5305173190000003,0.0,0.0,1.2300000190734863,0.4099999964237213,-142.80999755859375,0.01739501953125,0.002197265625,0.9986572265625,32.91999816894531,0.0,-10.0,-0.157257080078125,-0.1352996826171875,Waiting,-4.909090909090909,3.75,-2336.0,-229.0,-1717.5,-1640.0,0.0,0.0,
2.420385999999999,0.0,0.0,false,2843662.7201426025,,-84.0,0.0,0.0,0.0,0.0,0.125,1.8176267670000001,0.0,0.0,85.0,0.0,0.0,-0.0,0.0,0.0,2.681884491,0.0,0.0,0.0,0.0,0.0,0.0,0.0,0.0,4.038085524,0.0,0.0,73.0,0.0,0.0,-0.0,0.0,0.0,2.5317380220000003,0.0,0.0,1.2100000381469727,0.41999998688697815,-142.80999755859375,0.0120849609375,0.00677490234375,1.028076171875,32.91999816894531,0.0,5.0,-0.157257080078125,-0.135223388671875,Waiting,-5.03030303030303,3.875,-2608.0,-228.0,-1710.0,-1640.0,0.0,0.0,
2.4400730000000332,0.0,0.0,false,2843753.2145903623,,-84.0,0.0,0.0,0.0,0.0,0.125,1.8176267670000001,0.0,0.0,85.0,0.0,0.0,-0.0,0.0,0.0,2.681884491,0.0,0.0,0.0,0.0,0.0,0.0,0.0,0.0,4.04052693,0.0,0.0,73.0,0.0,0.0,-0.0,0.0,0.0,2.5317380220000003,0.0,0.0,1.2000000476837158,0.4300000071525574,-142.80999755859375,0.02325439453125,0.02191162109375,0.98248291015625,32.91999816894531,0.0,-13.0,-0.157257080078125,-0.135223388671875,Waiting,-5.006060606060606,4.0,-2608.0,-228.0,-1710.0,-1640.0,0.0,0.0,
2.4593110000000453,0.0,0.0,false,2843841.5409293445,,-84.0,0.0,0.0,0.0,0.0,0.125,1.8176267670000001,0.0,0.0,85.0,0.0,0.0,-0.0,0.0,0.0,2.681884491,0.0,0.0,0.0,0.0,0.0,0.0,0.0,0.0,4.039306227,0.0,0.0,73.0,0.0,0.0,-0.0,0.0,0.0,2.5305173190000003,0.0,0.0,1.1799999475479126,0.4300000071525574,-142.80999755859375,0.02178955078125,0.025390625,1.01007080078125,32.91999816894531,0.0,-13.0,-0.157257080078125,-0.135223388671875,Waiting,-4.981818181818182,4.125,-2608.0,-228.0,-1710.0,-1640.0,0.0,0.0,
2.480640000000014,0.0,0.0,false,2843927.699573547,,-84.0,0.0,0.0,0.0,0.0,0.125,1.8176267670000001,0.0,0.0,85.0,0.0,0.0,-0.0,0.0,0.0,2.681884491,0.0,0.0,0.0,0.0,0.0,0.0,0.0,0.0,4.04052693,0.0,0.0,73.0,0.0,0.0,-0.0,0.0,0.0,2.5305173190000003,0.0,0.0,1.1699999570846558,0.4399999976158142,-142.80999755859375,0.02294921875,0.0130615234375,1.008544921875,32.91999816894531,0.0,-7.0,-0.157257080078125,-0.135223388671875,Waiting,-4.96969696969697,4.0,-2608.0,-228.0,-1710.0,-1640.0,0.0,0.0,
2.4996359999999984,0.0,0.0,false,2844011.99898167,,-84.0,0.0,0.0,0.0,0.0,0.125,1.8176267670000001,0.0,0.0,85.0,0.0,0.0,-0.0,0.0,0.0,2.681884491,0.0,0.0,0.0,0.0,0.0,0.0,0.0,0.0,4.039306227,0.0,0.0,73.0,0.0,0.0,-0.0,0.0,0.0,2.5317380220000003,0.0,0.0,1.159999966621399,0.4399999976158142,-142.80999755859375,0.00408935546875,-0.00311279296875,1.02655029296875,32.91999816894531,0.0,17.0,-0.157257080078125,-0.135223388671875,Waiting,-4.945454545454545,3.875,-2608.0,-228.0,-1710.0,-1640.0,0.0,0.0,
2.519960000000021,0.0,0.0,false,2844094.131483485,,-84.0,0.0,0.0,0.0,0.0,0.125,1.8164060640000002,0.0,0.0,85.0,0.0,0.0,-0.0,0.0,0.0,2.681884491,0.0,0.0,0.0,0.0,0.0,0.0,0.0,0.0,4.039306227,0.0,0.0,73.0,0.0,0.0,-0.0,0.0,0.0,2.5280759130000003,0.0,0.0,1.1399999856948853,0.4399999976158142,-142.80999755859375,0.0010986328125,0.02386474609375,1.00592041015625,32.91999816894531,0.0,3.0,-0.157257080078125,-0.135223388671875,Waiting,-4.921212121212122,3.75,-2608.0,-228.0,-1710.0,-1640.0,0.0,0.0,
2.5402060000000057,0.0,0.0,false,2844174.4044800815,,-84.0,0.0,0.0,0.0,0.0,0.125,1.8164060640000002,0.0,0.0,85.0,0.0,0.0,-0.0,0.0,0.0,2.681884491,0.0,0.0,0.0,0.0,0.0,0.0,0.0,0.0,4.04052693,0.0,0.0,73.0,0.0,0.0,-0.0,0.0,0.0,2.5317380220000003,0.0,0.0,1.1299999952316284,0.4399999976158142,-142.80999755859375,0.02630615234375,0.0303955078125,1.01141357421875,32.91999816894531,0.0,-20.0,-0.1572723388671875,-0.135223388671875,Waiting,-4.916715542521994,3.75,-2882.0,-228.0,-1710.0,-1640.0,0.0,0.0,
2.5598560000000288,0.0,0.0,false,2844252.5113585745,,-84.0,0.0,0.0,0.0,0.0,0.125,1.8164060640000002,0.0,0.0,85.0,0.0,0.0,-0.0,0.0,0.0,2.681884491,0.0,0.0,0.0,0.0,0.0,0.0,0.0,0.0,4.039306227,0.0,0.0,73.0,0.0,0.0,-0.0,0.0,0.0,2.5317380220000003,0.0,0.0,1.1299999952316284,0.4399999976158142,-142.80999755859375,-0.0035400390625,0.0245361328125,1.004638671875,32.91999816894531,0.0,6.0,-0.15728759765625,-0.135223388671875,Waiting,-5.0262463343108505,3.875,-2882.0,-228.0,-1702.5,-1640.0,0.0,0.0,
2.5805599999999975,0.0,0.0,false,2844328.760498855,,-84.0,0.0,0.0,0.0,0.0,0.125,1.8176267670000001,0.0,0.0,85.0,0.0,0.0,-0.0,0.0,0.0,2.681884491,0.0,0.0,0.0,0.0,0.0,0.0,0.0,0.0,4.04052693,0.0,0.0,73.0,0.0,0.0,-0.0,0.0,0.0,2.5317380220000003,0.0,0.0,1.1299999952316284,0.44999998807907104,-142.80999755859375,0.02056884765625,0.0379638671875,0.9964599609375,32.91999816894531,0.0,-21.0,-0.157379150390625,-0.135223388671875,Waiting,-5.014076246334311,3.875,-2882.0,-228.0,-1702.5,-1640.0,0.0,0.0,
2.5994300000000514,0.0,0.0,false,2844402.8417636952,,-84.0,0.0,0.0,0.0,0.0,0.125,1.8164060640000002,0.0,0.0,85.0,0.0,0.0,-0.0,0.0,0.0,2.6831051940000004,0.0,0.0,0.0,0.0,0.0,0.0,0.0,0.0,4.04052693,0.0,0.0,73.0,0.0,0.0,-0.0,0.0,0.0,2.5317380220000003,0.0,0.0,1.1299999952316284,0.4300000071525574,-142.80999755859375,-0.00933837890625,0.04193115234375,1.04486083984375,32.93000030517578,0.0,0.0,-0.1574554443359375,-0.1352386474609375,Waiting,-4.989736070381231,4.0,-2882.0,-228.0,-1702.5,-1640.0,0.0,0.0,
2.6198330000000425,0.0,0.0,false,2844475.0660389364,,-84.0,0.0,0.0,0.0,0.0,0.125,1.8164060640000002,0.0,0.0,85.0,0.0,0.0,-0.0,0.0,0.0,2.681884491,0.0,0.0,0.0,0.0,0.0,0.0,0.0,0.0,4.04052693,0.0,0.0,73.0,0.0,0.0,-0.0,0.0,0.0,2.5317380220000003,0.0,0.0,1.1399999856948853,0.4399999976158142,-142.80999755859375,0.00555419921875,0.05364990234375,1.00567626953125,32.93000030517578,0.0,-18.0,-0.1574554443359375,-0.1352996826171875,Waiting,-4.965395894428153,3.875,-2882.0,-228.0,-1702.5,-1640.0,0.0,0.0,
2.639078000000038,0.0,0.0,false,2844545.1257713595,,-84.0,0.0,0.0,0.0,0.0,0.125,1.8164060640000002,0.0,0.0,85.0,0.0,0.0,-0.0,0.0,0.0,2.681884491,0.0,0.0,0.0,0.0,0.0,0.0,0.0,0.0,4.039306227,0.0,0.0,73.0,0.0,0.0,-0.0,0.0,0.0,2.5305173190000003,0.0,0.0,1.1399999856948853,0.4300000071525574,-142.80999755859375,-0.00665283203125,0.03924560546875,1.03302001953125,32.93000030517578,0.0,0.0,-0.1574554443359375,-0.1353912353515625,Waiting,-4.953225806451614,3.875,-2882.0,-228.0,-1702.5,-1640.0,0.0,0.0,
2.6591469999999973,0.0,0.0,false,2844613.3292620867,,-84.0,0.0,0.0,0.0,0.0,0.125,1.8176267670000001,0.0,0.0,85.0,0.0,0.0,-0.0,0.0,0.0,2.681884491,0.0,0.0,0.0,0.0,0.0,0.0,0.0,0.0,4.04052693,0.0,0.0,73.0,0.0,0.0,-0.0,0.0,0.0,2.5317380220000003,0.0,0.0,1.159999966621399,0.4099999964237213,-142.80999755859375,-0.004150390625,0.04791259765625,0.9923095703125,32.93000030517578,0.0,-7.0,-0.1574554443359375,-0.135711669921875,Waiting,-4.909090909090909,3.875,-3154.0,-227.0,-1702.5,-1640.0,0.0,0.0,
2.6802330000000074,0.0,0.0,false,2844679.3689968833,,-84.0,0.0,0.0,0.0,0.0,0.125,1.8164060640000002,0.0,0.0,85.0,0.0,0.0,-0.0,0.0,0.0,2.681884491,0.0,0.0,0.0,0.0,0.0,0.0,0.0,0.0,4.039306227,0.0,0.0,73.0,0.0,0.0,-0.0,0.0,0.0,2.5305173190000003,0.0,0.0,1.1699999570846558,0.4000000059604645,-142.8000030517578,-0.00628662109375,0.09234619140625,0.99273681640625,32.93000030517578,0.0,-32.0,-0.1574859619140625,-0.1359710693359375,Waiting,-5.0181818181818185,3.75,-3154.0,-227.0,-1702.5,-1640.0,0.0,0.0,
2.6990800000000164,0.0,0.0,false,2844743.2453886275,,-84.0,0.0,0.0,0.0,0.0,0.125,1.8164060640000002,0.0,0.0,85.0,0.0,0.0,-0.0,0.0,0.0,2.680663788,0.0,0.0,0.0,0.0,0.0,0.0,0.0,0.0,4.04052693,0.0,0.0,73.0,0.0,0.0,-0.0,0.0,0.0,2.5317380220000003,0.0,0.0,1.2200000286102295,0.3799999952316284,-142.8000030517578,-0.02587890625,0.08807373046875,1.01312255859375,32.93000030517578,0.0,-14.0,-0.15765380859375,-0.136688232421875,Waiting,-5.006060606060606,4.0,-3154.0,-227.0,-1695.0,-1640.0,0.0,0.0,
2.7235869999999993,0.0,0.0,false,2844805.266679387,,-84.0,0.0,0.0,0.0,0.0,0.125,1.8164060640000002,0.0,0.0,85.0,0.0,0.0,-0.0,0.0,0.0,2.681884491,0.0,0.0,0.0,0.0,0.0,0.0,0.0,0.0,4.039306227,0.0,0.0,73.0,0.0,0.0,-0.0,0.0,0.0,2.5305173190000003,0.0,0.0,1.2400000095367432,0.3700000047683716,-142.8000030517578,-0.006103515625,0.0933837890625,0.997802734375,32.93000030517578,0.0,-33.0,-0.15777587890625,-0.137176513671875,Waiting,-4.981818181818182,4.0,-3154.0,-227.0,-1695.0,-1640.0,0.0,0.0,
2.757313000000024,0.0,0.0,false,2845035.2622742304,,-84.0,0.0,0.0,0.0,0.0,0.125,1.8164060640000002,0.0,0.0,85.0,0.0,0.0,-0.0,0.0,0.0,2.681884491,0.0,0.0,0.0,0.0,0.0,0.0,0.0,0.0,4.04052693,0.0,0.0,73.0,0.0,0.0,-0.0,0.0,0.0,2.5305173190000003,0.0,0.0,1.25,0.36000001430511475,-142.8000030517578,-0.023193359375,0.112548828125,1.02362060546875,32.93000030517578,0.0,-30.0,-0.1579437255859375,-0.1377716064453125,Waiting,-4.957575757575758,4.0,-3154.0,-227.0,-1695.0,-1640.0,0.0,0.0,
2.7798190000000176,0.0,0.0,false,2845262.0164069952,,-84.0,0.0,0.0,0.0,0.0,0.125,1.8164060640000002,0.0,0.0,85.0,0.0,0.0,-0.0,0.0,0.0,2.681884491,0.0,0.0,0.0,0.0,0.0,0.0,0.0,0.0,4.04052693,0.0,0.0,73.0,0.0,0.0,-0.0,0.0,0.0,2.5317380220000003,0.0,0.0,1.309999942779541,0.33000001311302185,-142.8000030517578,-0.01983642578125,0.09771728515625,0.9892578125,32.93000030517578,0.0,-24.0,-0.1586761474609375,-0.1400909423828125,Waiting,-4.953225806451614,3.875,-3426.0,-226.0,-1695.0,-1640.0,0.0,0.0,
2.79951800000004,0.0,0.0,false,2845485.4727203357,,-84.0,0.0,0.0,0.0,0.0,0.125,1.8164060640000002,0.0,0.0,85.0,0.0,0.0,-0.0,0.0,0.0,2.680663788,0.0,0.0,0.0,0.0,0.0,0.0,0.0,0.0,4.039306227,0.0,0.0,73.0,0.0,0.0,-0.0,0.0,0.0,2.5317380220000003,0.0,0.0,1.3300000429153442,0.33000001311302185,-142.8000030517578,0.030517578125,0.06854248046875,0.9859619140625,32.93000030517578,0.0,-47.0,-0.15899658203125,-0.1410064697265625,Waiting,-4.941055718475074,3.75,-3426.0,-226.0,-1695.0,-1640.0,0.0,0.0,
2.8195630000000236,0.0,0.0,false,2845707.526673873,,-84.0,0.0,0.0,0.0,0.0,0.125,1.8176267670000001,0.0,0.0,85.0,0.0,0.0,-0.0,0.0,0.0,2.681884491,0.0,0.0,0.0,0.0,0.0,0.0,0.0,0.0,4.039306227,0.0,0.0,73.0,0.0,0.0,-0.0,0.0,0.0,2.5317380220000003,0.0,0.0,1.3300000429153442,0.3499999940395355,-142.80999755859375,0.02996826171875,0.07464599609375,1.01287841796875,32.93000030517578,0.0,-49.0,-0.159820556640625,-0.1429901123046875,Waiting,-4.916715542521994,3.75,-3426.0,-226.0,-1695.0,-1640.0,0.0,0.0,
2.840319000000018,0.0,0.0,false,2845926.8046795526,,-84.0,0.0,0.0,0.0,0.0,0.125,1.8164060640000002,0.0,0.0,85.0,0.0,0.0,-0.0,0.0,0.0,2.681884491,0.0,0.0,0.0,0.0,0.0,0.0,0.0,0.0,4.04052693,0.0,0.0,73.0,0.0,0.0,-0.0,0.0,0.0,2.5305173190000003,0.0,0.0,1.3300000429153442,0.36000001430511475,-142.80999755859375,0.02392578125,0.064697265625,1.0526123046875,32.93000030517578,0.0,-38.0,-0.160308837890625,-0.1440277099609375,Waiting,-4.904545454545455,3.75,-3426.0,-226.0,-1695.0,-1640.0,0.0,0.0,
2.8605350000000325,0.0,0.0,false,2846144.6810350306,,-84.0,0.0,0.0,0.0,0.0,0.125,1.8176267670000001,0.0,0.0,85.0,0.0,0.0,-0.0,0.0,0.0,2.681884491,0.0,0.0,0.0,0.0,0.0,0.0,0.0,0.0,4.039306227,0.0,0.0,73.0,0.0,0.0,-0.0,0.0,0.0,2.5305173190000003,0.0,0.0,1.3200000524520874,0.3700000047683716,-142.80999755859375,0.04058837890625,0.0625,1.0223388671875,32.93000030517578,0.0,-50.0,-0.160858154296875,-0.1450958251953125,Waiting,-5.0262463343108505,4.0,-3426.0,-226.0,-1687.5,-1640.0,0.0,0.0,
2.8821230000000213,0.0,0.0,false,2846359.782326764,,-84.0,0.0,0.0,0.0,0.0,0.125,1.8164060640000002,0.0,0.0,85.0,0.0,0.0,-0.0,0.0,0.0,2.6831051940000004,0.0,0.0,0.0,0.0,0.0,0.0,0.0,0.0,4.039306227,0.0,0.0,73.0,0.0,0.0,-0.0,0.0,0.0,2.5317380220000003,0.0,0.0,1.2899999618530273,0.38999998569488525,-142.80999755859375,0.0133056640625,0.049560546875,1.0279541015625,32.93000030517578,0.0,-20.0,-0.162109375,-0.14617919921875,Waiting,-5.001906158357772,4.0,-3426.0,-226.0,-1687.5,-1640.0,0.0,0.0,
2.9003800000000046,0.0,0.0,false,2846573.4826775156,,-84.0,0.0,0.0,0.0,0.0,0.125,1.8176267670000001,0.0,0.0,85.0,0.0,0.0,-0.0,0.0,0.0,2.681884491,0.0,0.0,0.0,0.0,0.0,0.0,0.0,0.0,4.038085524,0.0,0.0,73.0,0.0,0.0,-0.0,0.0,0.0,2.5305173190000003,0.0,0.0,1.2799999713897705,0.4099999964237213,-142.80999755859375,0.0313720703125,0.03277587890625,1.024169921875,32.93000030517578,0.0,-24.0,-0.16278076171875,-0.14617919921875,Waiting,-4.96969696969697,4.125,-3696.0,-225.0,-1687.5,-1640.0,0.0,0.0,
2.919439000000013,0.0,0.0,false,2846784.4088482074,,-84.0,0.0,0.0,0.0,0.0,0.125,1.8200681730000001,0.0,0.0,85.0,0.0,0.0,-0.0,0.0,0.0,2.681884491,0.0,0.0,0.0,0.0,0.0,0.0,0.0,0.0,4.04052693,0.0,0.0,73.0,0.0,0.0,-0.0,0.0,0.0,2.5292966160000003,0.0,0.0,1.25,0.41999998688697815,-142.80999755859375,0.025146484375,0.02899169921875,0.9859619140625,32.93000030517578,0.0,-18.0,-0.1641845703125,-0.14617919921875,Waiting,-4.957575757575758,3.875,-3696.0,-225.0,-1687.5,-1640.0,0.0,0.0,
2.939008000000031,0.0,0.0,false,2846993.9347867537,,-84.0,0.0,0.0,0.0,0.0,0.125,1.8188474700000001,0.0,0.0,85.0,0.0,0.0,-0.0,0.0,0.0,2.681884491,0.0,0.0,0.0,0.0,0.0,0.0,0.0,0.0,4.04052693,0.0,0.0,73.0,0.0,0.0,-0.0,0.0,0.0,2.5317380220000003,0.0,0.0,1.2300000190734863,0.41999998688697815,-142.80999755859375,0.00238037109375,0.0181884765625,1.012451171875,32.93000030517578,0.0,6.0,-0.1641845703125,-0.14617919921875,Waiting,-4.945454545454545,3.875,-3696.0,-225.0,-1687.5,-1640.0,0.0,0.0,
2.959338000000047,0.0,0.0,false,2847202.060760137,,-84.0,0.0,0.0,0.0,0.0,0.125,1.8176267670000001,0.0,0.0,85.0,0.0,0.0,-0.0,0.0,0.0,2.681884491,0.0,0.0,0.0,0.0,0.0,0.0,0.0,0.0,4.039306227,0.0,0.0,73.0,0.0,0.0,-0.0,0.0,0.0,2.5305173190000003,0.0,0.0,1.2200000286102295,0.41999998688697815,-142.80999755859375,0.02423095703125,0.025390625,1.01202392578125,32.93000030517578,0.0,-15.0,-0.1641845703125,-0.14617919921875,Waiting,-4.921212121212122,3.875,-3696.0,-225.0,-1687.5,-1640.0,0.0,0.0,
2.979579000000027,0.0,0.0,false,2847407.413790912,,-84.0,0.0,0.0,0.0,0.0,0.125,1.8164060640000002,0.0,0.0,85.0,0.0,0.0,-0.0,0.0,0.0,2.681884491,0.0,0.0,0.0,0.0,0.0,0.0,0.0,0.0,4.039306227,0.0,0.0,73.0,0.0,0.0,-0.0,0.0,0.0,2.5317380220000003,0.0,0.0,1.2100000381469727,0.41999998688697815,-142.80999755859375,0.004638671875,0.02587890625,1.0130615234375,32.93000030517578,0.0,0.0,-0.1641845703125,-0.14617919921875,Waiting,-4.909090909090909,3.75,-3696.0,-225.0,-1687.5,-1640.0,0.0,0.0,
3.0004170000000157,0.0,0.0,false,2847611.3675648198,,-84.0,0.0,0.0,0.0,0.0,0.125,1.8176267670000001,0.0,0.0,85.0,0.0,0.0,-0.0,0.0,0.0,2.681884491,0.0,0.0,0.0,0.0,0.0,0.0,0.0,0.0,4.039306227,0.0,0.0,73.0,0.0,0.0,-0.0,0.0,0.0,2.5305173190000003,0.0,0.0,1.2200000286102295,0.41999998688697815,-142.80999755859375,-0.00677490234375,0.03839111328125,0.9681396484375,32.93000030517578,0.0,0.0,-0.1641845703125,-0.1461944580078125,Waiting,-4.896969696969697,3.75,-3696.0,-225.0,-1687.5,-1640.0,0.0,0.0,
3.01942300000001,0.0,0.0,false,2847812.5492787696,,-84.0,0.0,0.0,0.0,0.0,0.125,1.8164060640000002,0.0,0.0,85.0,0.0,0.0,-0.0,0.0,0.0,2.681884491,0.0,0.0,0.0,0.0,0.0,0.0,0.0,0.0,4.04052693,0.0,0.0,73.0,0.0,0.0,-0.0,0.0,0.0,2.5317380220000003,0.0,0.0,1.2300000190734863,0.4099999964237213,-142.80999755859375,-0.00604248046875,0.02032470703125,0.97821044921875,32.93000030517578,0.0,10.0,-0.1641845703125,-0.1462249755859375,Waiting,-5.038416422287391,3.125,-3966.0,-225.0,-1687.5,-1640.0,0.0,0.0,
3.03934500000003,0.0,0.0,false,2848012.3324437668,,-84.0,0.0,0.0,0.0,0.0,0.125,1.8164060640000002,0.0,0.0,85.0,0.0,0.0,-0.0,0.0,0.0,2.681884491,0.0,0.0,0.0,0.0,0.0,0.0,0.0,0.0,4.039306227,0.0,0.0,73.0,0.0,0.0,-0.0,0.0,0.0,2.5317380220000003,0.0,0.0,1.25,0.4099999964237213,-142.80999755859375,-0.00885009765625,0.033935546875,0.98065185546875,32.93000030517578,0.0,30.0,-0.164154052734375,-0.1463775634765625,Waiting,-5.0262463343108505,4.125,-3966.0,-225.0,-1680.0,-1640.0,0.0,0.0,
3.0610010000000476,0.0,0.0,false,2848209.344431031,,-84.0,0.0,0.0,0.0,0.0,0.125,1.8164060640000002,0.0,0.0,85.0,0.0,0.0,-0.0,0.0,0.0,2.681884491,0.0,0.0,0.0,0.0,0.0,0.0,0.0,0.0,4.039306227,0.0,0.0,73.0,0.0,0.0,-0.0,0.0,0.0,2.5305173190000003,0.0,0.0,1.2799999713897705,0.3799999952316284,-142.80999755859375,-0.01849365234375,0.02960205078125,0.98785400390625,32.93000030517578,0.0,15.0,-0.164093017578125,-0.1464996337890625,Waiting,-5.014076246334311,4.125,-3966.0,-225.0,-1680.0,-1640.0,0.0,0.0,
3.079887000000046,0.0,0.0,false,2848404.9585768743,,-84.0,0.0,0.0,0.0,0.0,0.125,1.8164060640000002,0.0,0.0,85.0,0.0,0.0,-0.0,0.0,0.0,2.681884491,0.0,0.0,0.0,0.0,0.0,0.0,0.0,0.0,4.039306227,0.0,0.0,73.0,0.0,0.0,-0.0,0.0,0.0,2.5317380220000003,0.0,0.0,1.2999999523162842,0.3700000047683716,-142.80999755859375,-0.005859375,0.0084228515625,0.9781494140625,32.93000030517578,0.0,18.0,-0.1640167236328125,-0.1466522216796875,Waiting,-4.989736070381231,4.125,-3966.0,-225.0,-1680.0,-1640.0,0.0,0.0,
3.1005380000000007,0.0,0.0,false,2848597.8024267834,,-84.0,0.0,0.0,0.0,0.0,0.125,1.8164060640000002,0.0,0.0,85.0,0.0,0.0,-0.0,0.0,0.0,2.681884491,0.0,0.0,0.0,0.0,0.0,0.0,0.0,0.0,4.039306227,0.0,0.0,73.0,0.0,0.0,-0.0,0.0,0.0,2.5305173190000003,0.0,0.0,1.3300000429153442,0.36000001430511475,-142.80999755859375,0.01031494140625,0.011962890625,0.99560546875,32.95000076293945,0.0,3.0,-0.1637725830078125,-0.1466522216796875,Waiting,-4.977565982404692,4.0,-3966.0,-225.0,-1680.0,-1640.0,0.0,0.0,
3.119662000000011,0.0,0.0,false,2848789.2491424214,,-84.0,0.0,0.0,0.0,0.0,0.125,1.8176267670000001,0.0,0.0,85.0,0.0,0.0,-0.0,0.0,0.0,2.681884491,0.0,0.0,0.0,0.0,0.0,0.0,0.0,0.0,4.038085524,0.0,0.0,73.0,0.0,0.0,-0.0,0.0,0.0,2.5305173190000003,0.0,0.0,1.3300000429153442,0.3700000047683716,-142.80999755859375,0.00811767578125,-0.01025390625,1.00146484375,32.95000076293945,0.0,19.0,-0.1636199951171875,-0.1466217041015625,Waiting,-4.965395894428153,4.0,-3966.0,-225.0,-1680.0,-1640.0,0.0,0.0,
3.139756000000052,0.0,0.0,false,2848977.9264434986,,-84.0,0.0,0.0,0.0,0.0,0.125,1.8176267670000001,0.0,0.0,85.0,0.0,0.0,-0.0,0.0,0.0,2.679443085,0.0,0.0,0.0,0.0,0.0,0.0,0.0,0.0,4.039306227,0.0,0.0,73.0,0.0,0.0,-0.0,0.0,0.0,2.5305173190000003,0.0,0.0,1.340000033378601,0.3799999952316284,-142.80999755859375,0.0150146484375,-0.01849365234375,1.01702880859375,32.95000076293945,0.0,19.0,-0.1636199951171875,-0.14654541015625,Waiting,-4.933333333333334,3.875,-4236.0,-224.0,-1680.0,-1640.0,0.0,0.0,
3.1595690000000176,0.0,0.0,false,2849165.2073170734,,-84.0,0.0,0.0,0.0,0.0,0.125,1.8164060640000002,0.0,0.0,85.0,0.0,0.0,-0.0,0.0,0.0,2.681884491,0.0,0.0,0.0,0.0,0.0,0.0,0.0,0.0,4.039306227,0.0,0.0,73.0,0.0,0.0,-0.0,0.0,0.0,2.5305173190000003,0.0,0.0,1.309999942779541,0.4099999964237213,-142.80999755859375,-0.0067138671875,-0.02703857421875,1.0189208984375,32.95000076293945,0.0,41.0,-0.1634674072265625,-0.1462249755859375,Waiting,-4.921212121212122,3.875,-4236.0,-224.0,-1680.0,-1640.0,0.0,0.0,
3.1819790000000503,0.0,0.0,false,2849351.092029216,,-84.0,0.0,0.0,0.0,0.0,0.125,1.8164060640000002,0.0,0.0,85.0,0.0,0.0,-0.0,0.0,0.0,2.681884491,0.0,0.0,0.0,0.0,0.0,0.0,0.0,0.0,4.039306227,0.0,0.0,73.0,0.0,0.0,-0.0,0.0,0.0,2.5305173190000003,0.0,0.0,1.2999999523162842,0.41999998688697815,-142.80999755859375,0.01055908203125,-0.044921875,0.98040771484375,32.95000076293945,0.0,37.0,-0.1633148193359375,-0.1459808349609375,Waiting,-4.909090909090909,3.75,-4236.0,-224.0,-1680.0,-1640.0,0.0,0.0,
3.1995020000000367,0.0,0.0,false,2849534.2085609045,,-84.0,0.0,0.0,0.0,0.0,0.125,1.8164060640000002,0.0,0.0,85.0,0.0,0.0,-0.0,0.0,0.0,2.681884491,0.0,0.0,0.0,0.0,0.0,0.0,0.0,0.0,4.039306227,0.0,0.0,73.0,0.0,0.0,-0.0,0.0,0.0,2.5292966160000003,0.0,0.0,1.2799999713897705,0.41999998688697815,-142.80999755859375,5.4931640625E-4,-0.031982421875,1.0069580078125,32.95000076293945,0.0,38.0,-0.1631011962890625,-0.145660400390625,Waiting,-4.896969696969697,3.75,-4236.0,-224.0,-1680.0,-1640.0,0.0,0.0,
3.219070000000007,0.0,0.0,false,2849715.929637391,,-84.0,0.0,0.0,0.0,0.0,0.125,1.8176267670000001,0.0,0.0,85.0,0.0,0.0,-0.0,0.0,0.0,2.680663788,0.0,0.0,0.0,0.0,0.0,0.0,0.0,0.0,4.039306227,0.0,0.0,73.0,0.0,0.0,-0.0,0.0,0.0,2.5317380220000003,0.0,0.0,1.2599999904632568,0.41999998688697815,-142.80999755859375,-0.0133056640625,-0.005126953125,1.00152587890625,32.95000076293945,0.0,33.0,-0.162567138671875,-0.1449127197265625,Waiting,-4.884848484848485,3.75,-4236.0,-224.0,-1680.0,-1640.0,0.0,0.0,
3.2399710000000197,0.0,0.0,false,2849894.883413767,,-84.0,0.0,0.0,0.0,0.0,0.125,1.8164060640000002,0.0,0.0,85.0,0.0,0.0,-0.0,0.0,0.0,2.681884491,0.0,0.0,0.0,0.0,0.0,0.0,0.0,0.0,4.039306227,0.0,0.0,73.0,0.0,0.0,-0.0,0.0,0.0,2.5317380220000003,0.0,0.0,1.2599999904632568,0.41999998688697815,-142.80999755859375,-0.0133056640625,-0.005126953125,1.00152587890625,32.95000076293945,0.0,33.0,-0.162567138671875,-0.1449127197265625,Waiting,-4.872727272727273,3.75,-4236.0,-224.0,-1680.0,-1640.0,0.0,0.0,
3.25944100000005,0.0,0.0,false,2850072.44244079,,-84.0,0.0,0.0,0.0,0.0,0.125,1.8176267670000001,0.0,0.0,85.0,0.0,0.0,-0.0,0.0,0.0,2.680663788,0.0,0.0,0.0,0.0,0.0,0.0,0.0,0.0,4.039306227,0.0,0.0,73.0,0.0,0.0,-0.0,0.0,0.0,2.5305173190000003,0.0,0.0,1.25,0.4300000071525574,-142.8000030517578,0.0048828125,0.00640869140625,1.01031494140625,32.95000076293945,0.0,11.0,-0.1622467041015625,-0.1445159912109375,Waiting,-5.006060606060606,3.875,-4504.0,-223.0,-1672.5,-1640.0,0.0,0.0,
3.28164300000004,0.0,0.0,false,2850247.235047619,,-84.0,0.0,0.0,0.0,0.0,0.125,1.8188474700000001,0.0,0.0,85.0,0.0,0.0,-0.0,0.0,0.0,2.681884491,0.0,0.0,0.0,0.0,0.0,0.0,0.0,0.0,4.039306227,0.0,0.0,73.0,0.0,0.0,-0.0,0.0,0.0,2.5317380220000003,0.0,0.0,1.2699999809265137,0.41999998688697815,-142.80999755859375,-0.00848388671875,0.03155517578125,0.98675537109375,32.95000076293945,0.0,6.0,-0.1622467041015625,-0.1445159912109375,Waiting,-4.993939393939394,4.0,-4504.0,-223.0,-1672.5,-1640.0,0.0,0.0,
3.2993640000000015,0.0,0.0,false,2850420.6336105643,,-84.0,0.0,0.0,0.0,0.0,0.125,1.8164060640000002,0.0,0.0,85.0,0.0,0.0,-0.0,0.0,0.0,2.681884491,0.0,0.0,0.0,0.0,0.0,0.0,0.0,0.0,4.039306227,0.0,0.0,73.0,0.0,0.0,-0.0,0.0,0.0,2.5317380220000003,0.0,0.0,1.2899999618530273,0.41999998688697815,-142.8000030517578,-0.00250244140625,0.03765869140625,0.96612548828125,32.95000076293945,0.0,-1.0,-0.1622467041015625,-0.1445159912109375,Waiting,-4.981818181818182,4.125,-4504.0,-223.0,-1672.5,-1640.0,0.0,0.0,
3.3190440000000527,0.0,0.0,false,2850591.2666328084,,-84.0,0.0,0.0,0.0,0.0,0.125,1.8164060640000002,0.0,0.0,85.0,0.0,0.0,-0.0,0.0,0.0,2.681884491,0.0,0.0,0.0,0.0,0.0,0.0,0.0,0.0,4.039306227,0.0,0.0,73.0,0.0,0.0,-0.0,0.0,0.0,2.5305173190000003,0.0,0.0,1.3200000524520874,0.3799999952316284,-142.8000030517578,0.0225830078125,0.03411865234375,0.96075439453125,32.95000076293945,0.0,-19.0,-0.1622467041015625,-0.144622802734375,Waiting,-4.96969696969697,4.0,-4504.0,-223.0,-1672.5,-1640.0,0.0,0.0,
3.340021000000008,0.0,0.0,false,2850760.506316257,,-84.0,0.0,0.0,0.0,0.0,0.125,1.8164060640000002,0.0,0.0,85.0,0.0,0.0,-0.0,0.0,0.0,2.681884491,0.0,0.0,0.0,0.0,0.0,0.0,0.0,0.0,4.039306227,0.0,0.0,73.0,0.0,0.0,-0.0,0.0,0.0,2.5305173190000003,0.0,0.0,1.3300000429153442,0.3799999952316284,-142.8000030517578,0.0191650390625,0.0252685546875,1.016845703125,32.95000076293945,0.0,-10.0,-0.1622467041015625,-0.144683837890625,Waiting,-4.96969696969697,4.0,-4504.0,-223.0,-1672.5,-1640.0,0.0,0.0,
3.359451000000001,0.0,0.0,false,2850926.981338073,,-84.0,0.0,0.0,0.0,0.0,0.125,1.8176267670000001,0.0,0.0,85.0,0.0,0.0,-0.0,0.0,0.0,2.6867673030000003,0.0,0.0,0.0,0.0,0.0,0.0,0.0,0.0,4.04052693,0.0,0.0,73.0,0.0,0.0,-0.0,0.0,0.0,2.5317380220000003,0.0,0.0,1.340000033378601,0.3799999952316284,-142.8000030517578,0.03460693359375,0.02813720703125,0.9879150390625,32.95000076293945,0.0,-25.0,-0.162261962890625,-0.144683837890625,Waiting,-4.957575757575758,4.0,-4504.0,-223.0,-1672.5,-1640.0,0.0,0.0,
3.380649000000034,0.0,0.0,false,2851092.063725801,,-84.0,0.0,0.0,0.0,0.0,0.125,1.8176267670000001,0.0,0.0,85.0,0.0,0.0,-0.0,0.0,0.0,2.681884491,0.0,0.0,0.0,0.0,0.0,0.0,0.0,0.0,4.039306227,0.0,0.0,73.0,0.0,0.0,-0.0,0.0,0.0,2.5366208340000003,0.0,0.0,1.3300000429153442,0.4000000059604645,-142.8000030517578,0.0374755859375,-0.0042724609375,1.02679443359375,32.95000076293945,0.0,-6.0,-0.16241455078125,-0.1445465087890625,Waiting,-4.965395894428153,3.875,-4772.0,-223.0,-1672.5,-1640.0,0.0,0.0,
3.4007160000000147,0.0,0.0,false,2851255.753744605,,-84.0,0.0,0.0,0.0,0.0,0.125,1.8176267670000001,0.0,0.0,85.0,0.0,0.0,-0.0,0.0,0.0,2.681884491,0.0,0.0,0.0,0.0,0.0,0.0,0.0,0.0,4.039306227,0.0,0.0,73.0,0.0,0.0,-0.0,0.0,0.0,2.5305173190000003,0.0,0.0,1.3300000429153442,0.41999998688697815,-142.80999755859375,0.0384521484375,-0.0078125,0.998779296875,32.95000076293945,0.0,-6.0,-0.16241455078125,-0.1443939208984375,Waiting,-4.953225806451614,3.875,-4772.0,-223.0,-1672.5,-1640.0,0.9,0.0,
3.4215219999999973,0.0,0.0,false,2851416.680332551,,-84.0,0.0,0.0,0.0,0.0,0.125,1.8164060640000002,0.0,0.0,85.0,0.0,0.0,-0.0,0.0,0.0,2.681884491,0.0,0.0,0.0,0.0,0.0,0.0,0.0,0.0,4.039306227,0.0,0.0,73.0,0.0,0.0,-0.0,0.0,0.0,2.5305173190000003,0.0,0.0,1.309999942779541,0.41999998688697815,-142.80999755859375,0.02685546875,0.00299072265625,1.031005859375,32.95000076293945,0.0,-2.0,-0.16241455078125,-0.144195556640625,Waiting,-4.941055718475074,3.75,-4772.0,-223.0,-1672.5,-1640.0,0.9,4.375,
3.440184999999998,0.0,0.0,false,2851574.381012819,,-84.0,0.0,0.0,0.0,0.0,0.125,1.8151853610000002,0.0,0.0,85.0,0.0,0.0,-0.0,0.0,0.0,2.681884491,0.0,0.0,0.0,0.0,0.0,0.0,0.0,0.0,4.04052693,0.0,0.0,73.0,0.0,0.0,-0.0,0.0,0.0,2.5317380220000003,0.0,0.0,1.2899999618530273,0.4399999976158142,-142.80999755859375,0.01312255859375,0.00830078125,1.0089111328125,32.95000076293945,0.0,4.0,-0.16241455078125,-0.1436920166015625,Waiting,-4.928885630498534,3.75,-4772.0,-223.0,-1672.5,-1640.0,0.9,5.0,
3.461394000000029,0.0,0.0,false,2851729.3193730568,,-84.0,0.0,0.0,0.0,0.0,0.125,1.8176267670000001,0.0,0.0,85.0,0.0,0.0,-0.0,0.0,0.0,2.681884491,0.0,0.0,0.0,0.0,0.0,0.0,0.0,0.0,4.04052693,0.0,0.0,73.0,0.0,0.0,-0.0,0.0,0.0,2.5305173190000003,0.0,0.0,1.2899999618530273,0.4300000071525574,-142.80999755859375,0.01556396484375,0.00335693359375,1.01507568359375,32.95000076293945,0.0,5.0,-0.16241455078125,-0.143402099609375,Waiting,-4.916715542521994,3.75,-4772.0,-223.0,-1672.5,-1640.0,0.9,5.375,
3.484271000000008,0.0,0.0,false,2851882.8670050763,,-84.0,0.0,0.0,0.0,0.0,0.125,1.8151853610000002,0.0,0.0,85.0,0.0,0.0,-0.0,0.0,0.0,2.681884491,0.0,0.0,0.0,0.0,0.0,0.0,0.0,0.0,4.039306227,0.0,0.0,73.0,0.0,0.0,-0.0,0.0,0.0,2.5305173190000003,0.0,0.0,1.2799999713897705,0.41999998688697815,-142.80999755859375,-0.0113525390625,0.06683349609375,1.0020751953125,32.95000076293945,0.0,-11.0,-0.16241455078125,-0.142852783203125,Waiting,-4.904545454545455,3.75,-4772.0,-223.0,-1672.5,-1640.0,0.9,1.25,
