Time,ClimberA1,ClimberA2,CameraExists,HeapSpace,LoopTime,FRpos,FRCurrent,FRspeed,FRsetpoint,FRApos,FRACurrent,FREncpos,FREncSetpoint,FREncSpeed,FLpos,FLCurrent,FLspeed,FLsetpoint,FLApos,FLACurrent,FLEncpos,FLEncSetpoint,FLEncSpeed,BRpos,BRCurrent,BRspeed,BRsetpoint,BRApos,BRACurrent,BREncpos,BREncSetpoint,BREncSpeed,BLpos,BLCurrent,BLspeed,BLsetpoint,BLApos,BLACurrent,BLEncpos,BLEncSetpoint,BLEncSpeed,navx_Pitch,navx_Roll,navx_Yaw,navx_XAcc,navx_YAcc,navx_ZAcc,navx_Temp,navx_Bar,navx_Alt,navx_XDis,navx_YDis,GearPlacerState,ShootOutputV,ShootOutputCurrent,ShootEncPos,ShootEncVelocity,ShootSpeed,ShootSetpoint,CarouselSetpoint,CarouselCurrent,
0.14559899999992923,0.0,0.0,false,6570288.57608045,,54122.0,0.0,0.0,0.0,0.0,0.125,1.8164060640000002,0.0,-0.0012207029999999897,-62613.0,0.0,0.0,-0.0,0.0,0.0,2.647704807,0.0,0.0,41896.0,0.0,0.0,0.0,0.0,0.0,4.073485911000001,0.0,0.0,-55910.0,0.0,0.0,-0.0,0.0,0.0,2.5402829430000002,0.0,-0.0012207029999999897,1.2999999523162842,0.36000001430511475,-154.5800018310547,0.00555419921875,0.02362060546875,0.998291015625,35.43000030517578,0.0,0.0,0.6053314208984375,1.9025115966796875,Waiting,0.0,0.0,36.0,0.0,0.0,0.0,0.0,0.0,
0.21458499999996275,0.0,0.0,false,6570193.7257437,,54122.0,0.0,0.0,0.0,0.0,0.125,1.8164060640000002,0.0,0.0012207029999999897,-62613.0,0.0,0.0,-0.0,0.0,0.0,2.6464841040000002,0.0,0.0,41896.0,0.0,0.0,0.0,0.0,0.0,4.072265208,0.0,0.0,-55910.0,0.0,0.0,-0.0,0.0,0.0,2.5402829430000002,0.0,0.0012207029999999897,1.2999999523162842,0.36000001430511475,-154.5800018310547,0.00762939453125,0.02325439453125,0.99822998046875,35.43000030517578,0.0,-1.0,0.6053314208984375,1.9025115966796875,Waiting,0.0,0.0,36.0,0.0,0.0,0.0,0.0,0.0,
0.28871299999998884,0.0,0.0,false,6570091.573856835,,54122.0,0.0,0.0,0.0,0.0,0.125,1.8164060640000002,0.0,0.0,-62613.0,0.0,0.0,-0.0,0.0,0.0,2.647704807,0.0,0.0,41896.0,0.0,0.0,0.0,0.0,0.0,4.072265208,0.0,0.0,-55910.0,0.0,0.0,-0.0,0.0,0.0,2.5402829430000002,0.0,0.0,1.2999999523162842,0.36000001430511475,-154.5800018310547,0.00457763671875,0.02386474609375,0.994140625,35.43000030517578,0.0,1.0,0.6053314208984375,1.9025115966796875,Waiting,0.0,0.0,36.0,0.0,0.0,0.0,0.0,0.0,
0.35163199999998324,0.0,0.0,false,6569984.605182836,,54122.0,0.0,0.0,0.0,0.0,0.125,1.8164060640000002,0.0,0.0,-62613.0,0.0,0.0,-0.0,0.0,0.0,2.647704807,0.0,0.0,41896.0,0.0,0.0,0.0,0.0,0.0,4.073485911000001,0.0,0.0,-55910.0,0.0,0.0,-0.0,0.0,0.0,2.5402829430000002,0.0,0.0,1.2999999523162842,0.36000001430511475,-154.5800018310547,0.0072021484375,0.0225830078125,0.9991455078125,35.43000030517578,0.0,0.0,0.6053314208984375,1.9025115966796875,Waiting,0.0,0.0,36.0,0.0,0.0,0.0,0.0,0.0,
0.41465200000000185,0.0,0.0,false,6569872.820586476,,54122.0,0.0,0.0,0.0,0.0,0.125,1.8164060640000002,0.0,0.0,-62613.0,0.0,0.0,-0.0,0.0,0.0,2.647704807,0.0,0.0,41896.0,0.0,0.0,0.0,0.0,0.0,4.073485911000001,0.0,0.0,-55910.0,0.0,0.0,-0.0,0.0,0.0,2.5402829430000002,0.0,0.0,1.2999999523162842,0.36000001430511475,-154.5800018310547,0.01055908203125,0.024169921875,0.99737548828125,35.43000030517578,0.0,-4.0,0.6053314208984375,1.9025115966796875,Waiting,0.0,0.0,36.0,0.0,0.0,0.0,0.0,0.0,
0.47946899999992454,0.0,0.0,false,6569756.091197415,,54122.0,0.0,0.0,0.0,0.0,0.125,1.8164060640000002,0.0,0.0,-62613.0,0.0,0.0,-0.0,0.0,0.0,2.6464841040000002,0.0,0.0,41896.0,0.0,0.0,0.0,0.0,0.0,4.073485911000001,0.0,0.0,-55910.0,0.0,0.0,-0.0,0.0,0.0,2.5415036460000002,0.0,0.0,1.2999999523162842,0.36000001430511475,-154.5800018310547,0.005126953125,0.0198974609375,0.99444580078125,35.43000030517578,0.0,2.0,0.6053314208984375,1.9025115966796875,Waiting,0.0,0.0,36.0,0.0,0.0,0.0,0.0,0.0,
0.5506849999999395,0.0,0.0,false,6569632.194830062,,54122.0,0.0,0.0,0.0,0.0,0.125,1.8164060640000002,0.0,-0.0012207029999999897,-62613.0,0.0,0.0,-0.0,0.0,0.0,2.6464841040000002,0.0,0.0,41896.0,0.0,0.0,0.0,0.0,0.0,4.072265208,0.0,0.0,-55910.0,0.0,0.0,-0.0,0.0,0.0,2.5402829430000002,0.0,-0.0012207029999999897,1.2999999523162842,0.36000001430511475,-154.5800018310547,0.0057373046875,0.02154541015625,1.0,35.43000030517578,0.0,1.0,0.6053314208984375,1.9025115966796875,Waiting,0.0,0.0,36.0,0.0,0.0,0.0,0.0,0.0,
0.6140069999999832,0.0,0.0,false,6569503.355232454,,54122.0,0.0,0.0,0.0,0.0,0.125,1.8176267670000001,0.0,0.0012207029999999897,-62613.0,0.0,0.0,-0.0,0.0,0.0,2.64892551,0.0,0.0,41896.0,0.0,0.0,0.0,0.0,0.0,4.073485911000001,0.0,0.0,-55910.0,0.0,0.0,-0.0,0.0,0.0,2.5402829430000002,0.0,0.0012207029999999897,1.2999999523162842,0.36000001430511475,-154.5800018310547,0.00714111328125,0.02349853515625,1.001220703125,35.43000030517578,0.0,0.0,0.6053314208984375,1.9025115966796875,Waiting,0.0,0.0,36.0,0.0,0.0,0.0,0.0,0.0,
0.6813610000000335,0.0,0.0,false,6569369.703482111,,54122.0,0.0,0.0,0.0,0.0,0.125,1.8176267670000001,0.0,0.0,-62613.0,0.0,0.0,-0.0,0.0,0.0,2.647704807,0.0,0.0,41896.0,0.0,0.0,0.0,0.0,0.0,4.073485911000001,0.0,0.0,-55910.0,0.0,0.0,-0.0,0.0,0.0,2.5402829430000002,0.0,0.0,1.2999999523162842,0.36000001430511475,-154.5800018310547,0.0062255859375,0.02374267578125,0.9957275390625,35.43000030517578,0.0,0.0,0.6053314208984375,1.9025115966796875,Waiting,0.0,0.0,36.0,0.0,0.0,0.0,0.0,0.0,
0.7492679999999237,0.0,0.0,false,6569231.2404427165,,54122.0,0.0,0.0,0.0,0.0,0.125,1.8176267670000001,0.0,0.0,-62613.0,0.0,0.0,-0.0,0.0,0.0,2.647704807,0.0,0.0,41896.0,0.0,0.0,0.0,0.0,0.0,4.073485911000001,0.0,0.0,-55910.0,0.0,0.0,-0.0,0.0,0.0,2.5402829430000002,0.0,0.0,1.2999999523162842,0.36000001430511475,-154.58999633789062,0.0042724609375,0.02130126953125,0.99609375,35.43000030517578,0.0,2.0,0.6053314208984375,1.9025115966796875,Waiting,0.0,0.0,36.0,0.0,0.0,0.0,0.0,0.0,
0.8148329999999842,0.0,0.0,false,6569085.49222302,,54122.0,0.0,0.0,0.0,0.0,0.125,1.8164060640000002,0.0,0.0,-62613.0,0.0,0.0,-0.0,0.0,0.0,2.647704807,0.0,0.0,41896.0,0.0,0.0,0.0,0.0,0.0,4.073485911000001,0.0,0.0,-55910.0,0.0,0.0,-0.0,0.0,0.0,2.5402829430000002,0.0,0.0,1.2999999523162842,0.36000001430511475,-154.5800018310547,0.00543212890625,0.02166748046875,1.00225830078125,35.43000030517578,0.0,1.0,0.6053314208984375,1.9025115966796875,Waiting,0.0,0.0,36.0,0.0,0.0,0.0,0.0,0.0,
0.8838869999999879,0.0,0.0,false,6568934.934737094,,54122.0,0.0,0.0,0.0,0.0,0.125,1.8164060640000002,0.0,0.0,-62613.0,0.0,0.0,-0.0,0.0,0.0,2.647704807,0.0,0.0012207030000004337,41896.0,0.0,0.0,0.0,0.0,0.0,4.072265208,0.0,0.0,-55910.0,0.0,0.0,-0.0,0.0,0.0,2.5402829430000002,0.0,0.0,1.309999942779541,0.36000001430511475,-154.58999633789062,0.0057373046875,0.02191162109375,0.999755859375,35.43000030517578,0.0,0.0,0.6053314208984375,1.9025115966796875,Waiting,0.0,0.0,36.0,0.0,0.0,0.0,0.0,0.0,
0.9505549999999348,0.0,0.0,false,6568779.446345257,,54122.0,0.0,0.0,0.0,0.0,0.125,1.8164060640000002,0.0,0.0,-62613.0,0.0,0.0,-0.0,0.0,0.0,2.647704807,0.0,-0.0012207030000004337,41896.0,0.0,0.0,0.0,0.0,0.0,4.073485911000001,0.0,0.0,-55910.0,0.0,0.0,-0.0,0.0,0.0,2.5402829430000002,0.0,0.0,1.309999942779541,0.36000001430511475,-154.58999633789062,0.00714111328125,0.02496337890625,0.9967041015625,35.43000030517578,0.0,-1.0,0.6053314208984375,1.9025115966796875,Waiting,0.0,0.0,36.0,0.0,0.0,0.0,0.0,0.0,
1.010143999999971,0.0,0.0,false,6568619.150427657,,54122.0,0.0,0.0,0.0,0.0,0.125,1.8164060640000002,0.0,0.0,-62613.0,0.0,0.0,-0.0,0.0,0.0,2.647704807,0.0,0.0,41896.0,0.0,0.0,0.0,0.0,0.0,4.073485911000001,0.0,0.0,-55910.0,0.0,0.0,-0.0,0.0,0.0,2.5415036460000002,0.0,0.0,1.2999999523162842,0.3499999940395355,-154.58999633789062,0.00390625,0.02313232421875,0.99884033203125,35.43000030517578,0.0,1.0,0.6053314208984375,1.9025115966796875,Waiting,0.0,0.0,36.0,0.0,0.0,0.0,0.0,0.0,
1.0715420000000158,0.0,0.0,false,6568451.573684211,,54122.0,0.0,0.0,0.0,0.0,0.125,1.8164060640000002,0.0,0.0,-62613.0,0.0,0.0,-0.0,0.0,0.0,2.647704807,0.0,0.0,41896.0,0.0,0.0,0.0,0.0,0.0,4.072265208,0.0,0.0,-55910.0,0.0,0.0,-0.0,0.0,0.0,2.5402829430000002,0.0,0.0,1.2999999523162842,0.3499999940395355,-154.58999633789062,0.00628662109375,0.0235595703125,0.998779296875,35.43000030517578,0.0,0.0,0.6053314208984375,1.9025115966796875,Waiting,0.0,0.0,36.0,0.0,0.0,0.0,0.0,0.0,
1.1316330000000308,0.0,0.0,false,6568279.191435919,,54122.0,0.0,0.0,0.0,0.0,0.125,1.8164060640000002,0.0,0.0,-62613.0,0.0,0.0,-0.0,0.0,0.0,2.647704807,0.0,0.0,41896.0,0.0,0.0,0.0,0.0,0.0,4.073485911000001,0.0,0.0,-55910.0,0.0,0.0,-0.0,0.0,0.0,2.5402829430000002,0.0,0.0,1.2999999523162842,0.3499999940395355,-154.58999633789062,0.00579833984375,0.0230712890625,0.99725341796875,35.43000030517578,0.0,0.0,0.6053314208984375,1.9025115966796875,Waiting,0.0,0.0,36.0,0.0,0.0,0.0,0.0,0.0,
1.2054020000000019,0.0,0.0,false,6568102.004544911,,54122.0,0.0,0.0,0.0,0.0,0.125,1.8164060640000002,0.0,0.0,-62613.0,0.0,0.0,-0.0,0.0,0.0,2.647704807,0.0,0.0,41896.0,0.0,0.0,0.0,0.0,0.0,4.073485911000001,0.0,0.0,-55910.0,0.0,0.0,-0.0,0.0,0.0,2.5415036460000002,0.0,0.0,1.309999942779541,0.3499999940395355,-154.58999633789062,0.00494384765625,0.02154541015625,0.99725341796875,35.43000030517578,0.0,1.0,0.6053314208984375,1.9025115966796875,Waiting,0.0,0.0,36.0,0.0,0.0,0.0,0.0,0.0,
1.2671169999999692,0.0,0.0,false,6567917.539197512,,54122.0,0.0,0.0,0.0,0.0,0.125,1.8164060640000002,0.0,0.0,-62613.0,0.0,0.0,-0.0,0.0,0.0,2.647704807,0.0,0.0,41896.0,0.0,0.0,0.0,0.0,0.0,4.072265208,0.0,0.0,-55910.0,0.0,0.0,-0.0,0.0,0.0,2.5402829430000002,0.0,0.0,1.309999942779541,0.3499999940395355,-154.58999633789062,0.0057373046875,0.02362060546875,0.9986572265625,35.43000030517578,0.0,0.0,0.6053314208984375,1.9025115966796875,Waiting,0.0,0.0,36.0,0.0,0.0,0.0,0.0,0.0,
1.3285150000000139,0.0,0.0,false,6567728.271226979,,54122.0,0.0,0.0,0.0,0.0,0.125,1.8164060640000002,0.0,0.0,-62613.0,0.0,0.0,-0.0,0.0,0.0,2.647704807,0.0,0.0,41896.0,0.0,0.0,0.0,0.0,0.0,4.073485911000001,0.0,0.0,-55910.0,0.0,0.0,-0.0,0.0,0.0,2.5402829430000002,0.0,-0.0012207029999999897,1.309999942779541,0.3499999940395355,-154.58999633789062,0.00433349609375,0.0203857421875,0.998291015625,35.43000030517578,0.0,2.0,0.6053314208984375,1.9025115966796875,Waiting,0.0,0.0,36.0,0.0,0.0,0.0,0.0,0.0,
1.3936049999999813,0.0,0.0,false,6567534.079043348,,54122.0,0.0,0.0,0.0,0.0,0.125,1.8164060640000002,0.0,0.0,-62613.0,0.0,0.0,-0.0,0.0,0.0,2.647704807,0.0,0.0,41896.0,0.0,0.0,0.0,0.0,0.0,4.072265208,0.0,0.0,-55910.0,0.0,0.0,-0.0,0.0,0.0,2.5402829430000002,0.0,0.0012207029999999897,1.3200000524520874,0.3499999940395355,-154.58999633789062,0.00384521484375,0.02093505859375,1.00079345703125,35.43000030517578,0.0,3.0,0.6053314208984375,1.9025115966796875,Waiting,0.0,0.0,36.0,0.0,0.0,0.0,0.0,0.0,
1.4569679999999934,0.0,0.0,false,6567332.735142891,,54122.0,0.0,0.0,0.0,0.0,0.125,1.8164060640000002,0.0,0.0,-62613.0,0.0,0.0,-0.0,0.0,0.0,2.647704807,0.0,0.0,41896.0,0.0,0.0,0.0,0.0,0.0,4.073485911000001,0.0,0.0,-55910.0,0.0,0.0,-0.0,0.0,0.0,2.5402829430000002,0.0,0.0,1.309999942779541,0.3499999940395355,-154.58999633789062,0.0047607421875,0.0245361328125,0.996337890625,35.43000030517578,0.0,0.0,0.6053314208984375,1.9025115966796875,Waiting,0.0,0.0,36.0,0.0,0.0,0.0,0.0,0.0,
1.5269320000000297,0.0,0.0,false,6567241.204280505,,54122.0,0.0,0.0,0.0,0.0,0.125,1.8164060640000002,0.0,-0.0012207029999999897,-62613.0,0.0,0.0,-0.0,0.0,0.0,2.647704807,0.0,0.0,41896.0,0.0,0.0,0.0,0.0,0.0,4.073485911000001,0.0,0.0,-55910.0,0.0,0.0,-0.0,0.0,0.0,2.5402829430000002,0.0,0.0,1.309999942779541,0.3499999940395355,-154.58999633789062,0.00823974609375,0.02471923828125,0.99749755859375,35.43000030517578,0.0,-2.0,0.6053314208984375,1.9025115966796875,Waiting,0.0,0.0,36.0,0.0,0.0,0.0,0.0,0.0,
1.5917949999999255,0.0,0.0,false,6567144.208990914,,54122.0,0.0,0.0,0.0,0.0,0.125,1.8164060640000002,0.0,0.0012207029999999897,-62613.0,0.0,0.0,-0.0,0.0,0.0,2.647704807,0.0,0.0,41896.0,0.0,0.0,0.0,0.0,0.0,4.073485911000001,0.0,0.0,-55910.0,0.0,0.0,-0.0,0.0,0.0,2.5402829430000002,0.0,-0.0012207029999999897,1.309999942779541,0.3499999940395355,-154.58999633789062,0.00653076171875,0.02294921875,0.99884033203125,35.43000030517578,0.0,0.0,0.6053314208984375,1.9025115966796875,Waiting,0.0,0.0,36.0,0.0,0.0,0.0,0.0,0.0,
1.651246999999974,0.0,0.0,false,6567042.369537928,,54122.0,0.0,0.0,0.0,0.0,0.125,1.8164060640000002,0.0,0.0,-62613.0,0.0,0.0,-0.0,0.0,0.0,2.647704807,0.0,0.0,41896.0,0.0,0.0,0.0,0.0,0.0,4.072265208,0.0,0.0,-55910.0,0.0,0.0,-0.0,0.0,0.0,2.5402829430000002,0.0,0.0,1.309999942779541,0.3499999940395355,-154.58999633789062,0.00531005859375,0.02490234375,1.00018310546875,35.439998626708984,0.0,0.0,0.6053314208984375,1.9025115966796875,Waiting,0.0,0.0,36.0,0.0,0.0,0.0,0.0,0.0,
1.7113399999999674,0.0,0.0,false,6566935.556724447,,54122.0,0.0,0.0,0.0,0.0,0.125,1.8164060640000002,0.0,0.0,-62613.0,0.0,0.0,-0.0,0.0,0.0,2.647704807,0.0,0.0,41896.0,0.0,0.0,0.0,0.0,0.0,4.072265208,0.0,0.0,-55910.0,0.0,0.0,-0.0,0.0,0.0,2.5415036460000002,0.0,0.0012207029999999897,1.309999942779541,0.3499999940395355,-154.58999633789062,0.005859375,0.02276611328125,0.99993896484375,35.439998626708984,0.0,0.0,0.6053314208984375,1.9025115966796875,Waiting,0.0,0.0,36.0,0.0,0.0,0.0,0.0,0.0,
1.7714499999999533,0.0,0.0,false,6566821.535114458,,54122.0,0.0,0.0,0.0,0.0,0.125,1.8164060640000002,0.0,0.0,-62613.0,0.0,0.0,-0.0,0.0,0.0,2.647704807,0.0,0.0,41896.0,0.0,0.0,0.0,0.0,0.0,4.073485911000001,0.0,0.0,-55910.0,0.0,0.0,-0.0,0.0,0.0,2.5402829430000002,0.0,0.0,1.309999942779541,0.3499999940395355,-154.58999633789062,0.0042724609375,0.02215576171875,1.00079345703125,35.439998626708984,0.0,2.0,0.6053314208984375,1.9025115966796875,Waiting,0.0,0.0,36.0,0.0,0.0,0.0,0.0,0.0,
1.8304279999999562,0.0,0.0,false,6566702.6722448,,54122.0,0.0,0.0,0.0,0.0,0.125,1.8176267670000001,0.0,0.0,-62613.0,0.0,0.0,-0.0,0.0,0.0,2.647704807,0.0,0.0,41896.0,0.0,0.0,0.0,0.0,0.0,4.072265208,0.0,0.0,-55910.0,0.0,0.0,-0.0,0.0,0.0,2.5415036460000002,0.0,0.0,1.309999942779541,0.3499999940395355,-154.58999633789062,0.0048828125,0.02105712890625,0.99920654296875,35.439998626708984,0.0,1.0,0.6053314208984375,1.9025115966796875,Waiting,0.0,0.0,36.0,0.0,0.0,0.0,0.0,0.0,
1.895390999999945,0.0,0.0,false,6566578.961811989,,54122.0,0.0,0.0,0.0,0.0,0.125,1.8164060640000002,0.0,0.0,-62613.0,0.0,0.0,-0.0,0.0,0.0,2.647704807,0.0,0.0,41896.0,0.0,0.0,0.0,0.0,0.0,4.072265208,0.0,0.0,-55910.0,0.0,0.0,-0.0,0.0,0.0,2.5402829430000002,0.0,0.0,1.309999942779541,0.3499999940395355,-154.58999633789062,0.00543212890625,0.02093505859375,1.00079345703125,35.439998626708984,0.0,1.0,0.6053314208984375,1.9025115966796875,Waiting,0.0,0.0,36.0,0.0,0.0,0.0,0.0,0.0,
1.959613000000012,0.0,0.0,false,6566450.281821442,,54122.0,0.0,0.0,0.0,0.0,0.125,1.8164060640000002,0.0,0.0,-62613.0,0.0,0.0,-0.0,0.0,0.0,2.647704807,0.0,0.0,41896.0,0.0,0.0,0.0,0.0,0.0,4.072265208,0.0,0.0,-55910.0,0.0,0.0,-0.0,0.0,0.0,2.5390622400000002,0.0,0.0,1.2999999523162842,0.36000001430511475,-154.58999633789062,0.00469970703125,0.023681640625,0.99664306640625,35.439998626708984,0.0,1.0,0.6053314208984375,1.9025115966796875,Waiting,0.0,0.0,36.0,0.0,0.0,0.0,0.0,0.0,
2.0163689999999477,0.0,0.0,false,6566316.763190918,,54122.0,0.0,0.0,0.0,0.0,0.125,1.8164060640000002,0.0,0.0,-62613.0,0.0,0.0,-0.0,0.0,0.0,2.647704807,0.0,0.0,41896.0,0.0,0.0,0.0,0.0,0.0,4.072265208,0.0,0.0,-55910.0,0.0,0.0,-0.0,0.0,0.0,2.5402829430000002,0.0,0.0,1.309999942779541,0.36000001430511475,-154.58999633789062,0.00616455078125,0.02386474609375,1.004638671875,35.439998626708984,0.0,0.0,0.6053314208984375,1.9025115966796875,Waiting,0.0,0.0,36.0,0.0,0.0,0.0,0.0,0.0,
2.077576000000001,0.0,0.0,false,6566176.041108986,,54122.0,0.0,0.0,0.0,0.0,0.125,1.8164060640000002,0.0,0.0,-62613.0,0.0,0.0,-0.0,0.0,0.0,2.647704807,0.0,0.0,41896.0,0.0,0.0,0.0,0.0,0.0,4.072265208,0.0,0.0,-55910.0,0.0,0.0,-0.0,0.0,0.0,2.5402829430000002,0.0,0.0,1.309999942779541,0.36000001430511475,-154.58999633789062,0.00579833984375,0.0263671875,0.99774169921875,35.439998626708984,0.0,-1.0,0.6053314208984375,1.9025115966796875,Waiting,0.0,0.0,36.0,0.0,0.0,0.0,0.0,0.0,
2.1373569999999598,0.0,0.0,false,6566030.360040628,,54122.0,0.0,0.0,0.0,0.0,0.125,1.8164060640000002,0.0,0.0,-62613.0,0.0,0.0,-0.0,0.0,0.0,2.647704807,0.0,0.0,41896.0,0.0,0.0,0.0,0.0,0.0,4.073485911000001,0.0,0.0,-55910.0,0.0,0.0,-0.0,0.0,0.0,2.5415036460000002,0.0,0.0,1.309999942779541,0.36000001430511475,-154.5800018310547,0.00469970703125,0.0247802734375,1.001708984375,35.439998626708984,0.0,0.0,0.6053314208984375,1.9025115966796875,Waiting,0.0,0.0,36.0,0.0,0.0,0.0,0.0,0.0,
2.2085740000000222,0.0,0.0,false,6565879.843230971,,54122.0,0.0,0.0,0.0,0.0,0.125,1.8176267670000001,0.0,-0.0012207029999999897,-62613.0,0.0,0.0,-0.0,0.0,0.0,2.647704807,0.0,0.0,41896.0,0.0,0.0,0.0,0.0,0.0,4.073485911000001,0.0,0.0,-55910.0,0.0,0.0,-0.0,0.0,0.0,2.5402829430000002,0.0,-0.0012207029999999897,1.2999999523162842,0.36000001430511475,-154.5800018310547,0.00592041015625,0.02197265625,0.99554443359375,35.439998626708984,0.0,0.0,0.6053314208984375,1.9025115966796875,Waiting,0.0,0.0,36.0,0.0,0.0,0.0,0.0,0.0,
2.271490999999922,0.0,0.0,false,6565722.003942888,,54122.0,0.0,0.0,0.0,0.0,0.125,1.8164060640000002,0.0,0.0012207029999999897,-62613.0,0.0,0.0,-0.0,0.0,0.0,2.6464841040000002,0.0,0.0,41896.0,0.0,0.0,0.0,0.0,0.0,4.073485911000001,0.0,0.0,-55910.0,0.0,0.0,-0.0,0.0,0.0,2.5402829430000002,0.0,0.0012207029999999897,1.2999999523162842,0.36000001430511475,-154.5800018310547,0.00677490234375,0.0208740234375,0.9964599609375,35.439998626708984,0.0,0.0,0.6053314208984375,1.9025115966796875,Waiting,0.0,0.0,36.0,0.0,0.0,0.0,0.0,0.0,
2.331667999999947,0.0,0.0,false,6565559.330943847,,54122.0,0.0,0.0,0.0,0.0,0.125,1.8164060640000002,0.0,0.0,-62613.0,0.0,0.0,-0.0,0.0,0.0,2.647704807,0.0,0.0,41896.0,0.0,0.0,0.0,0.0,0.0,4.073485911000001,0.0,0.0,-55910.0,0.0,0.0,-0.0,0.0,0.0,2.5415036460000002,0.0,0.0,1.2999999523162842,0.36000001430511475,-154.5800018310547,0.007568359375,0.02081298828125,0.99688720703125,35.439998626708984,0.0,0.0,0.6053314208984375,1.9025115966796875,Waiting,0.0,0.0,36.0,0.0,0.0,0.0,0.0,0.0,
2.401314999999944,0.0,0.0,false,6565391.825100054,,54122.0,0.0,0.0,0.0,0.0,0.125,1.8164060640000002,0.0,0.0,-62613.0,0.0,0.0,-0.0,0.0,0.0,2.647704807,0.0,0.0,41896.0,0.0,0.0,0.0,0.0,0.0,4.073485911000001,0.0,0.0,-55910.0,0.0,0.0,-0.0,0.0,0.0,2.5402829430000002,0.0,0.0,1.2999999523162842,0.36000001430511475,-154.5800018310547,0.0072021484375,0.02191162109375,0.9967041015625,35.439998626708984,0.0,0.0,0.6053314208984375,1.9025115966796875,Waiting,0.0,0.0,36.0,0.0,0.0,0.0,0.0,0.0,
2.461628999999957,0.0,0.0,false,6565217.00011946,,54122.0,0.0,0.0,0.0,0.0,0.125,1.8164060640000002,0.0,0.0,-62613.0,0.0,0.0,-0.0,0.0,0.0,2.647704807,0.0,0.0,41896.0,0.0,0.0,0.0,0.0,0.0,4.072265208,0.0,0.0,-55910.0,0.0,0.0,-0.0,0.0,0.0,2.5402829430000002,0.0,0.0,1.2999999523162842,0.36000001430511475,-154.58999633789062,0.0069580078125,0.020263671875,0.9986572265625,35.439998626708984,0.0,0.0,0.6053314208984375,1.9025115966796875,Waiting,0.0,0.0,36.0,0.0,0.0,0.0,0.0,0.0,
2.525628000000026,0.0,0.0,false,6565037.344323001,,54122.0,0.0,0.0,0.0,0.0,0.125,1.8164060640000002,0.0,0.0,-62613.0,0.0,0.0,-0.0,0.0,0.0,2.647704807,0.0,0.0,41896.0,0.0,0.0,0.0,0.0,0.0,4.072265208,0.0,0.0,-55910.0,0.0,0.0,-0.0,0.0,0.0,2.5402829430000002,0.0,0.0,1.2999999523162842,0.36000001430511475,-154.5800018310547,0.00714111328125,0.0220947265625,0.99383544921875,35.439998626708984,0.0,0.0,0.6053314208984375,1.9025115966796875,Waiting,0.0,0.0,36.0,0.0,0.0,0.0,0.0,0.0,
2.588405000000028,0.0,0.0,false,6564852.736263736,,54122.0,0.0,0.0,0.0,0.0,0.125,1.8164060640000002,0.0,0.0,-62613.0,0.0,0.0,-0.0,0.0,0.0,2.6464841040000002,0.0,0.0,41896.0,0.0,0.0,0.0,0.0,0.0,4.073485911000001,0.0,0.0,-55910.0,0.0,0.0,-0.0,0.0,0.0,2.5402829430000002,0.0,-0.0012207029999999897,1.2999999523162842,0.36000001430511475,-154.5800018310547,0.005859375,0.0242919921875,1.00091552734375,35.439998626708984,0.0,0.0,0.6053314208984375,1.9025115966796875,Waiting,0.0,0.0,36.0,0.0,0.0,0.0,0.0,0.0,
2.654420999999973,0.0,0.0,false,6564663.29913407,,54122.0,0.0,0.0,0.0,0.0,0.125,1.8164060640000002,0.0,0.0,-62613.0,0.0,0.0,-0.0,0.0,0.0,2.647704807,0.0,0.0,41896.0,0.0,0.0,0.0,0.0,0.0,4.072265208,0.0,0.0,-55910.0,0.0,0.0,-0.0,0.0,0.0,2.5402829430000002,0.0,0.0012207029999999897,1.2999999523162842,0.36000001430511475,-154.5800018310547,0.00482177734375,0.01971435546875,0.9984130859375,35.43000030517578,0.0,2.0,0.6053314208984375,1.9025115966796875,Waiting,0.0,0.0,36.0,0.0,0.0,0.0,0.0,0.0,
2.7151359999999403,0.0,0.0,false,6564468.911501254,,54122.0,0.0,0.0,0.0,0.0,0.125,1.8164060640000002,0.0,0.0,-62613.0,0.0,0.0,-0.0,0.0,0.0,2.647704807,0.0,0.0,41896.0,0.0,0.0,0.0,0.0,0.0,4.073485911000001,0.0,0.0,-55910.0,0.0,0.0,-0.0,0.0,0.0,2.5402829430000002,0.0,0.0,1.2999999523162842,0.36000001430511475,-154.5800018310547,0.00634765625,0.01934814453125,0.994140625,35.43000030517578,0.0,1.0,0.6053314208984375,1.9025115966796875,Waiting,0.0,0.0,36.0,0.0,0.0,0.0,0.0,0.0,
2.7746759999999777,0.0,0.0,false,6564267.332417746,,54122.0,0.0,0.0,0.0,0.0,0.125,1.8164060640000002,0.0,0.0,-62613.0,0.0,0.0,-0.0,0.0,0.0,2.6464841040000002,0.0,0.0,41896.0,0.0,0.0,0.0,0.0,0.0,4.073485911000001,0.0,0.0,-55910.0,0.0,0.0,-0.0,0.0,0.0,2.5402829430000002,0.0,0.0,1.2999999523162842,0.36000001430511475,-154.5800018310547,0.00640869140625,0.02099609375,1.0006103515625,35.43000030517578,0.0,0.0,0.6053314208984375,1.9025115966796875,Waiting,0.0,0.0,36.0,0.0,0.0,0.0,0.0,0.0,
2.8344599999999627,0.0,0.0,false,6564061.074277526,,54122.0,0.0,0.0,0.0,0.0,0.125,1.8164060640000002,0.0,0.0,-62613.0,0.0,0.0,-0.0,0.0,0.0,2.647704807,0.0,0.0,41896.0,0.0,0.0,0.0,0.0,0.0,4.072265208,0.0,0.0,-55910.0,0.0,0.0,-0.0,0.0,0.0,2.5415036460000002,0.0,0.0,1.2999999523162842,0.36000001430511475,-154.5800018310547,0.00531005859375,0.02008056640625,1.001708984375,35.43000030517578,0.0,2.0,0.6053314208984375,1.9025115966796875,Waiting,0.0,0.0,36.0,0.0,0.0,0.0,0.0,0.0,
2.90744299999997,0.0,0.0,false,6563966.883276613,,54122.0,0.0,0.0,0.0,0.0,0.125,1.8164060640000002,0.0,0.0,-62613.0,0.0,0.0,-0.0,0.0,0.0,2.647704807,0.0,0.0,41896.0,0.0,0.0,0.0,0.0,0.0,4.073485911000001,0.0,0.0,-55910.0,0.0,0.0,-0.0,0.0,0.0,2.5402829430000002,0.0,-0.0012207029999999897,1.2999999523162842,0.36000001430511475,-154.5800018310547,0.006591796875,0.02349853515625,0.998046875,35.43000030517578,0.0,0.0,0.6053314208984375,1.9025115966796875,Waiting,0.0,0.0,36.0,0.0,0.0,0.0,0.0,0.0,
2.9694710000000195,0.0,0.0,false,6563865.540298508,,54122.0,0.0,0.0,0.0,0.0,0.125,1.8164060640000002,0.0,0.0,-62613.0,0.0,0.0,-0.0,0.0,0.0,2.6464841040000002,0.0,0.0,41896.0,0.0,0.0,0.0,0.0,0.0,4.073485911000001,0.0,0.0,-55910.0,0.0,0.0,-0.0,0.0,0.0,2.5402829430000002,0.0,0.0012207029999999897,1.2999999523162842,0.36000001430511475,-154.5800018310547,0.00543212890625,0.02117919921875,0.99981689453125,35.43000030517578,0.0,1.0,0.6053314208984375,1.9025115966796875,Waiting,0.0,0.0,36.0,0.0,0.0,0.0,0.0,0.0,
3.031064000000013,0.0,0.0,false,6563759.385827712,,54122.0,0.0,0.0,0.0,0.0,0.125,1.8151853610000002,0.0,0.0,-62613.0,0.0,0.0,-0.0,0.0,0.0,2.647704807,0.0,0.0,41896.0,0.0,0.0,0.0,0.0,0.0,4.073485911000001,0.0,0.0,-55910.0,0.0,0.0,-0.0,0.0,0.0,2.5402829430000002,0.0,0.0,1.2899999618530273,0.36000001430511475,-154.5800018310547,0.007568359375,0.02471923828125,0.99859619140625,35.43000030517578,0.0,-2.0,0.6053314208984375,1.9025115966796875,Waiting,0.0,0.0,36.0,0.0,0.0,0.0,0.0,0.0,
3.0937899999999208,0.0,0.0,false,6563648.306112703,,54122.0,0.0,0.0,0.0,0.0,0.125,1.8164060640000002,0.0,0.0,-62613.0,0.0,0.0,-0.0,0.0,0.0,2.647704807,0.0,0.0,41896.0,0.0,0.0,0.0,0.0,0.0,4.072265208,0.0,0.0,-55910.0,0.0,0.0,-0.0,0.0,0.0,2.5402829430000002,0.0,0.0,1.2999999523162842,0.36000001430511475,-154.5800018310547,0.00628662109375,0.02166748046875,0.99725341796875,35.43000030517578,0.0,0.0,0.6053314208984375,1.9025115966796875,Waiting,0.0,0.0,36.0,0.0,0.0,0.0,0.0,0.0,
3.161158999999985,0.0,0.0,false,6563532.424282218,,54122.0,0.0,0.0,0.0,0.0,0.125,1.8164060640000002,0.0,0.0,-62613.0,0.0,0.0,-0.0,0.0,0.0,2.647704807,0.0,0.0,41896.0,0.0,0.0,0.0,0.0,0.0,4.073485911000001,0.0,0.0,-55910.0,0.0,0.0,-0.0,0.0,0.0,2.5402829430000002,0.0,0.0,1.2899999618530273,0.36000001430511475,-154.5800018310547,0.00732421875,0.0208740234375,0.99615478515625,35.45000076293945,0.0,0.0,0.6053314208984375,1.9025115966796875,Waiting,0.0,0.0,36.0,0.0,0.0,0.0,0.0,0.0,
3.2279379999999653,0.0,0.0,false,6563409.38760893,,54122.0,0.0,0.0,0.0,0.0,0.125,1.8164060640000002,0.0,0.0,-62613.0,0.0,0.0,-0.0,0.0,0.0,2.647704807,0.0,0.0,41896.0,0.0,0.0,0.0,0.0,0.0,4.072265208,0.0,0.0,-55910.0,0.0,0.0,-0.0,0.0,0.0,2.5402829430000002,0.0,-0.0012207029999999897,1.2899999618530273,0.36000001430511475,-154.5800018310547,0.00531005859375,0.02056884765625,0.99688720703125,35.45000076293945,0.0,1.0,0.6053314208984375,1.9025115966796875,Waiting,0.0,0.0,36.0,0.0,0.0,0.0,0.0,0.0,
3.287456999999937,0.0,0.0,false,6563279.074664279,,54122.0,0.0,0.0,0.0,0.0,0.125,1.8164060640000002,0.0,0.0,-62613.0,0.0,0.0,-0.0,0.0,0.0,2.6464841040000002,0.0,0.0,41896.0,0.0,0.0,0.0,0.0,0.0,4.072265208,0.0,0.0,-55910.0,0.0,0.0,-0.0,0.0,0.0,2.5402829430000002,0.0,0.0012207029999999897,1.2899999618530273,0.36000001430511475,-154.5800018310547,0.006103515625,0.020263671875,0.99481201171875,35.45000076293945,0.0,1.0,0.6053314208984375,1.9025115966796875,Waiting,0.0,0.0,36.0,0.0,0.0,0.0,0.0,0.0,
3.3556699999999253,0.0,0.0,false,6563143.962759608,,54122.0,0.0,0.0,0.0,0.0,0.125,1.8164060640000002,0.0,0.0,-62613.0,0.0,0.0,-0.0,0.0,0.0,2.647704807,0.0,0.0,41896.0,0.0,0.0,0.0,0.0,0.0,4.073485911000001,0.0,0.0,-55910.0,0.0,0.0,-0.0,0.0,0.0,2.5402829430000002,0.0,0.0,1.2899999618530273,0.36000001430511475,-154.5800018310547,0.0057373046875,0.0242919921875,0.99725341796875,35.45000076293945,0.0,0.0,0.6053314208984375,1.9025115966796875,Waiting,0.0,0.0,36.0,0.0,0.0,0.0,0.0,0.0,
3.413944999999949,0.0,0.0,false,6563004.0527540725,,54122.0,0.0,0.0,0.0,0.0,0.125,1.8164060640000002,0.0,0.0,-62613.0,0.0,0.0,-0.0,0.0,0.0,2.647704807,0.0,0.0,41896.0,0.0,0.0,0.0,0.0,0.0,4.073485911000001,0.0,0.0,-55910.0,0.0,0.0,-0.0,0.0,0.0,2.5415036460000002,0.0,0.0,1.2999999523162842,0.36000001430511475,-154.5800018310547,0.00860595703125,0.0224609375,0.99810791015625,35.45000076293945,0.0,-1.0,0.6053314208984375,1.9025115966796875,Waiting,0.0,0.0,36.0,0.0,0.0,0.0,0.0,0.0,
3.4776629999999424,0.0,0.0,false,6562859.216135577,,54122.0,0.0,0.0,0.0,0.0,0.125,1.8164060640000002,0.0,0.0,-62613.0,0.0,0.0,-0.0,0.0,0.0,2.6464841040000002,0.0,0.0012207030000004337,41896.0,0.0,0.0,0.0,0.0,0.0,4.072265208,0.0,0.0,-55910.0,0.0,0.0,-0.0,0.0,0.0,2.5402829430000002,0.0,0.0,1.2899999618530273,0.3499999940395355,-154.58999633789062,0.00830078125,0.02276611328125,0.99853515625,35.45000076293945,0.0,-1.0,0.6053314208984375,1.9025115966796875,Waiting,0.0,0.0,36.0,0.0,0.0,0.0,0.0,0.0,
3.539890999999945,0.0,0.0,false,6562709.583149353,,54122.0,0.0,0.0,0.0,0.0,0.125,1.8164060640000002,0.0,0.0,-62613.0,0.0,0.0,-0.0,0.0,0.0,2.647704807,0.0,-0.0012207030000004337,41896.0,0.0,0.0,0.0,0.0,0.0,4.072265208,0.0,0.0,-55910.0,0.0,0.0,-0.0,0.0,0.0,2.5402829430000002,0.0,0.0,1.2899999618530273,0.3499999940395355,-154.58999633789062,0.00836181640625,0.023681640625,0.9971923828125,35.45000076293945,0.0,-2.0,0.6053314208984375,1.9025115966796875,Waiting,0.0,0.0,36.0,0.0,0.0,0.0,0.0,0.0,
3.61096399999992,0.0,0.0,false,6562552.686873509,,54122.0,0.0,0.0,0.0,0.0,0.125,1.8164060640000002,0.0,0.0,-62613.0,0.0,0.0,-0.0,0.0,0.0,2.6464841040000002,0.0,0.0,41896.0,0.0,0.0,0.0,0.0,0.0,4.072265208,0.0,0.0,-55910.0,0.0,0.0,-0.0,0.0,0.0,2.5402829430000002,0.0,-0.0012207029999999897,1.2899999618530273,0.3499999940395355,-154.58999633789062,0.0074462890625,0.02294921875,0.99530029296875,35.45000076293945,0.0,-1.0,0.6053314208984375,1.9025115966796875,Waiting,0.0,0.0,36.0,0.0,0.0,0.0,0.0,0.0,
3.6706959999999964,0.0,0.0,false,6562390.996241274,,54122.0,0.0,0.0,0.0,0.0,0.125,1.8151853610000002,0.0,0.0,-62613.0,0.0,0.0,-0.0,0.0,0.0,2.6464841040000002,0.0,0.0,41896.0,0.0,0.0,0.0,0.0,0.0,4.073485911000001,0.0,0.0,-55910.0,0.0,0.0,-0.0,0.0,0.0,2.5402829430000002,0.0,0.0012207029999999897,1.2899999618530273,0.3499999940395355,-154.58999633789062,0.00592041015625,0.02239990234375,1.00128173828125,35.439998626708984,0.0,0.0,0.6053314208984375,1.9025115966796875,Waiting,0.0,0.0,36.0,0.0,0.0,0.0,0.0,0.0,
3.7324270000000253,0.0,0.0,false,6562224.389929603,,54122.0,0.0,0.0,0.0,0.0,0.125,1.8164060640000002,0.0,0.0,-62613.0,0.0,0.0,-0.0,0.0,0.0,2.647704807,0.0,0.0,41896.0,0.0,0.0,0.0,0.0,0.0,4.074706614,0.0,0.0,-55910.0,0.0,0.0,-0.0,0.0,0.0,2.5402829430000002,0.0,0.0,1.2999999523162842,0.3499999940395355,-154.58999633789062,0.00689697265625,0.02197265625,0.997802734375,35.439998626708984,0.0,0.0,0.6053314208984375,1.9025115966796875,Waiting,0.0,0.0,36.0,0.0,0.0,0.0,0.0,0.0,
3.7922879999999424,0.0,0.0,false,6562052.9909920655,,54122.0,0.0,0.0,0.0,0.0,0.125,1.8164060640000002,0.0,0.0,-62613.0,0.0,0.0,-0.0,0.0,0.0,2.6464841040000002,0.0,0.0012207030000004337,41896.0,0.0,0.0,0.0,0.0,0.0,4.072265208,0.0,0.0,-55910.0,0.0,0.0,-0.0,0.0,0.0,2.5402829430000002,0.0,0.0,1.2999999523162842,0.3499999940395355,-154.58999633789062,0.00787353515625,0.023193359375,0.999755859375,35.439998626708984,0.0,-1.0,0.6053314208984375,1.9025115966796875,Waiting,0.0,0.0,36.0,0.0,0.0,0.0,0.0,0.0,
3.8653560000000287,0.0,0.0,false,6561874.455261274,,54122.0,0.0,0.0,0.0,0.0,0.125,1.8151853610000002,0.0,0.0,-62613.0,0.0,0.0,-0.0,0.0,0.0,2.647704807,0.0,-0.0012207030000004337,41896.0,0.0,0.0,0.0,0.0,0.0,4.072265208,0.0,0.0,-55910.0,0.0,0.0,-0.0,0.0,0.0,2.5402829430000002,0.0,-0.0012207029999999897,1.309999942779541,0.3400000035762787,-154.58999633789062,0.00775146484375,0.02557373046875,0.9990234375,35.439998626708984,0.0,-2.0,0.6053314208984375,1.9025115966796875,Waiting,0.0,0.0,36.0,0.0,0.0,0.0,0.0,0.0,
3.9250749999999535,0.0,0.0,false,6561691.006740233,,54122.0,0.0,0.0,0.0,0.0,0.125,1.8164060640000002,0.0,0.0,-62613.0,0.0,0.0,-0.0,0.0,0.0,2.647704807,0.0,0.0,41896.0,0.0,0.0,0.0,0.0,0.0,4.073485911000001,0.0,0.0,-55910.0,0.0,0.0,-0.0,0.0,0.0,2.5402829430000002,0.0,0.0,1.309999942779541,0.3400000035762787,-154.58999633789062,0.006103515625,0.02301025390625,0.99945068359375,35.439998626708984,0.0,0.0,0.6053314208984375,1.9025115966796875,Waiting,0.0,0.0,36.0,0.0,0.0,0.0,0.0,0.0,
3.9887820000000067,0.0,0.0,false,6561502.7684599785,,54122.0,0.0,0.0,0.0,0.0,0.125,1.8164060640000002,0.0,0.0,-62613.0,0.0,0.0,-0.0,0.0,0.0,2.647704807,0.0,0.0,41896.0,0.0,0.0,0.0,0.0,0.0,4.072265208,0.0,0.0,-55910.0,0.0,0.0,-0.0,0.0,0.0,2.5402829430000002,0.0,0.0,1.309999942779541,0.3400000035762787,-154.58999633789062,0.00372314453125,0.0262451171875,0.998046875,35.439998626708984,0.0,0.0,0.6053314208984375,1.9025115966796875,Waiting,0.0,0.0,36.0,0.0,0.0,0.0,0.0,0.0,
4.051359999999986,0.0,0.0,false,6561309.6191328205,,54122.0,0.0,0.0,0.0,0.0,0.125,1.8164060640000002,0.0,0.0,-62613.0,0.0,0.0,-0.0,0.0,0.0,2.647704807,0.0,0.0,41896.0,0.0,0.0,0.0,0.0,0.0,4.073485911000001,0.0,0.0,-55910.0,0.0,0.0,-0.0,0.0,0.0,2.5402829430000002,0.0,0.0,1.309999942779541,0.3400000035762787,-154.58999633789062,0.0076904296875,0.02325439453125,0.99407958984375,35.439998626708984,0.0,-1.0,0.6053314208984375,1.9025115966796875,Waiting,0.0,0.0,36.0,0.0,0.0,0.0,0.0,0.0,
4.114505000000005,0.0,0.0,false,6561109.33730916,,54122.0,0.0,0.0,0.0,0.0,0.125,1.8164060640000002,0.0,0.0,-62613.0,0.0,0.0,-0.0,0.0,0.0,2.647704807,0.0,0.0,41896.0,0.0,0.0,0.0,0.0,0.0,4.073485911000001,0.0,0.0,-55910.0,0.0,0.0,-0.0,0.0,0.0,2.5402829430000002,0.0,0.0,1.309999942779541,0.3400000035762787,-154.58999633789062,0.00787353515625,0.02349853515625,0.9970703125,35.439998626708984,0.0,-1.0,0.6053314208984375,1.9025115966796875,Waiting,0.0,0.0,36.0,0.0,0.0,0.0,0.0,0.0,
4.174868999999948,0.0,0.0,false,6560904.268590853,,54122.0,0.0,0.0,0.0,0.0,0.125,1.8164060640000002,0.0,0.0,-62613.0,0.0,0.0,-0.0,0.0,0.0,2.647704807,0.0,0.0,41896.0,0.0,0.0,0.0,0.0,0.0,4.072265208,0.0,0.0,-55910.0,0.0,0.0,-0.0,0.0,0.0,2.5402829430000002,0.0,-0.0012207029999999897,1.2999999523162842,0.3499999940395355,-154.58999633789062,0.00518798828125,0.025390625,0.9981689453125,35.43000030517578,0.0,0.0,0.6053314208984375,1.9025115966796875,Waiting,0.0,0.0,36.0,0.0,0.0,0.0,0.0,0.0,
4.2514810000000285,0.0,0.0,false,6560810.43864043,,54122.0,0.0,0.0,0.0,0.0,0.125,1.8176267670000001,0.0,0.0,-62613.0,0.0,0.0,-0.0,0.0,0.0,2.647704807,0.0,0.0,41896.0,0.0,0.0,0.0,0.0,0.0,4.072265208,0.0,0.0,-55910.0,0.0,0.0,-0.0,0.0,0.0,2.5402829430000002,0.0,0.0,1.309999942779541,0.3400000035762787,-154.58999633789062,0.00689697265625,0.02105712890625,0.99371337890625,35.43000030517578,0.0,0.0,0.6053314208984375,1.9025115966796875,Waiting,0.0,0.0,36.0,0.0,0.0,0.0,0.0,0.0,
4.311897999999928,0.0,0.0,false,6560709.175123725,,54122.0,0.0,0.0,0.0,0.0,0.125,1.8164060640000002,0.0,0.0,-62613.0,0.0,0.0,-0.0,0.0,0.0,2.647704807,0.0,0.0,41896.0,0.0,0.0,0.0,0.0,0.0,4.072265208,0.0,0.0,-55910.0,0.0,0.0,-0.0,0.0,0.0,2.5415036460000002,0.0,0.0012207029999999897,1.309999942779541,0.3400000035762787,-154.58999633789062,0.00628662109375,0.0238037109375,0.9993896484375,35.43000030517578,0.0,0.0,0.6053314208984375,1.9025115966796875,Waiting,0.0,0.0,36.0,0.0,0.0,0.0,0.0,0.0,
4.372468999999924,0.0,0.0,false,6560603.072740281,,54122.0,0.0,0.0,0.0,0.0,0.125,1.8164060640000002,0.0,0.0,-62613.0,0.0,0.0,-0.0,0.0,0.0,2.647704807,0.0,0.0,41896.0,0.0,0.0,0.0,0.0,0.0,4.073485911000001,0.0,0.0,-55910.0,0.0,0.0,-0.0,0.0,0.0,2.5402829430000002,0.0,0.0,1.309999942779541,0.3400000035762787,-154.58999633789062,0.008056640625,0.0286865234375,0.9949951171875,35.43000030517578,0.0,-4.0,0.6053314208984375,1.9025115966796875,Waiting,0.0,0.0,36.0,0.0,0.0,0.0,0.0,0.0,
4.435772999999928,0.0,0.0,false,6560492.017885888,,54122.0,0.0,0.0,0.0,0.0,0.125,1.8176267670000001,0.0,0.0,-62613.0,0.0,0.0,-0.0,0.0,0.0,2.647704807,0.0,0.0,41896.0,0.0,0.0,0.0,0.0,0.0,4.072265208,0.0,0.0,-55910.0,0.0,0.0,-0.0,0.0,0.0,2.5402829430000002,0.0,0.0,1.309999942779541,0.3400000035762787,-154.58999633789062,0.00592041015625,0.02056884765625,0.993896484375,35.43000030517578,0.0,1.0,0.6053314208984375,1.9025115966796875,Waiting,0.0,0.0,36.0,0.0,0.0,0.0,0.0,0.0,
4.503150999999955,0.0,0.0,false,6560376.133540003,,54122.0,0.0,0.0,0.0,0.0,0.125,1.8164060640000002,0.0,0.0,-62613.0,0.0,0.0,-0.0,0.0,0.0,2.647704807,0.0,0.0,41896.0,0.0,0.0,0.0,0.0,0.0,4.072265208,0.0,0.0,-55910.0,0.0,0.0,-0.0,0.0,0.0,2.5402829430000002,0.0,0.0,1.309999942779541,0.3400000035762787,-154.58999633789062,0.0048828125,0.01995849609375,0.9942626953125,35.43000030517578,0.0,2.0,0.6053314208984375,1.9025115966796875,Waiting,0.0,0.0,36.0,0.0,0.0,0.0,0.0,0.0,
4.5702239999999295,0.0,0.0,false,6560253.053233979,,54122.0,0.0,0.0,0.0,0.0,0.125,1.8164060640000002,0.0,0.0,-62613.0,0.0,0.0,-0.0,0.0,0.0,2.6464841040000002,0.0,0.0,41896.0,0.0,0.0,0.0,0.0,0.0,4.072265208,0.0,0.0,-55910.0,0.0,0.0,-0.0,0.0,0.0,2.5415036460000002,0.0,0.0,1.2999999523162842,0.3499999940395355,-154.58999633789062,0.0059814453125,0.0201416015625,0.99920654296875,35.43000030517578,0.0,1.0,0.6053314208984375,1.9025115966796875,Waiting,0.0,0.0,36.0,0.0,0.0,0.0,0.0,0.0,
4.629273999999976,0.0,0.0,false,6560125.015736767,,54122.0,0.0,0.0,0.0,0.0,0.125,1.8164060640000002,0.0,0.0,-62613.0,0.0,0.0,-0.0,0.0,0.0,2.6464841040000002,0.0,0.0,41896.0,0.0,0.0,0.0,0.0,0.0,4.072265208,0.0,0.0,-55910.0,0.0,0.0,-0.0,0.0,0.0,2.5402829430000002,0.0,0.0,1.309999942779541,0.3400000035762787,-154.58999633789062,0.007080078125,0.019287109375,0.99627685546875,35.43000030517578,0.0,0.0,0.6053314208984375,1.9025115966796875,Waiting,0.0,0.0,36.0,0.0,0.0,0.0,0.0,0.0,
4.690408999999985,0.0,0.0,false,6559992.151636168,,54122.0,0.0,0.0,0.0,0.0,0.125,1.8164060640000002,0.0,0.0,-62613.0,0.0,0.0,-0.0,0.0,0.0,2.647704807,0.0,0.0,41896.0,0.0,0.0,0.0,0.0,0.0,4.072265208,0.0,0.0,-55910.0,0.0,0.0,-0.0,0.0,0.0,2.5402829430000002,0.0,0.0,1.309999942779541,0.3400000035762787,-154.58999633789062,0.0040283203125,0.02423095703125,0.99420166015625,35.41999816894531,0.0,1.0,0.6053314208984375,1.9025115966796875,Waiting,0.0,0.0,36.0,0.0,0.0,0.0,0.0,0.0,
4.7532789999999805,0.0,0.0,false,6559854.461795208,,54122.0,0.0,0.0,0.0,0.0,0.125,1.8164060640000002,0.0,0.0,-62613.0,0.0,0.0,-0.0,0.0,0.0,2.647704807,0.0,0.0,41896.0,0.0,0.0,0.0,0.0,0.0,4.071044505000001,0.0,0.0,-55910.0,0.0,0.0,-0.0,0.0,0.0,2.5390622400000002,0.0,0.0,1.309999942779541,0.3499999940395355,-154.58999633789062,0.00689697265625,0.0234375,1.000732421875,35.41999816894531,0.0,0.0,0.6053314208984375,1.9025115966796875,Waiting,0.0,0.0,36.0,0.0,0.0,0.0,0.0,0.0,
4.8152709999999495,0.0,0.0,false,6559711.82501937,,54122.0,0.0,0.0,0.0,0.0,0.125,1.8164060640000002,0.0,0.0,-62613.0,0.0,0.0,-0.0,0.0,0.0,2.647704807,0.0,0.0,41896.0,0.0,0.0,0.0,0.0,0.0,4.072265208,0.0,0.0,-55910.0,0.0,0.0,-0.0,0.0,0.0,2.5402829430000002,0.0,0.0012207029999999897,1.309999942779541,0.3499999940395355,-154.58999633789062,0.00469970703125,0.020263671875,0.99566650390625,35.41999816894531,0.0,2.0,0.6053314208984375,1.9025115966796875,Waiting,0.0,0.0,36.0,0.0,0.0,0.0,0.0,0.0,
4.879263999999966,0.0,0.0,false,6559562.004767581,,54122.0,0.0,0.0,0.0,0.0,0.125,1.8164060640000002,0.0,0.0,-62613.0,0.0,0.0,-0.0,0.0,0.0,2.647704807,0.0,0.0,41896.0,0.0,0.0,0.0,0.0,0.0,4.073485911000001,0.0,0.0,-55910.0,0.0,0.0,-0.0,0.0,0.0,2.5402829430000002,0.0,-0.0012207029999999897,1.309999942779541,0.3400000035762787,-154.58999633789062,0.00634765625,0.024658203125,0.9996337890625,35.41999816894531,0.0,0.0,0.6053314208984375,1.9025115966796875,Waiting,0.0,0.0,36.0,0.0,0.0,0.0,0.0,0.0,
4.941611999999965,0.0,0.0,false,6559407.361659019,,54122.0,0.0,0.0,0.0,0.0,0.125,1.8164060640000002,0.0,0.0,-62613.0,0.0,0.0,-0.0,0.0,0.0,2.647704807,0.0,0.0,41896.0,0.0,0.0,0.0,0.0,0.0,4.073485911000001,0.0,0.0,-55910.0,0.0,0.0,-0.0,0.0,0.0,2.5402829430000002,0.0,0.0,1.309999942779541,0.3499999940395355,-154.58999633789062,0.0069580078125,0.021484375,0.99700927734375,35.41999816894531,0.0,0.0,0.6053314208984375,1.9025115966796875,Waiting,0.0,0.0,36.0,0.0,0.0,0.0,0.0,0.0,
4.997039999999921,0.0,0.0,false,6559247.774520319,,54122.0,0.0,0.0,0.0,0.0,0.125,1.8164060640000002,0.0,0.0,-62613.0,0.0,0.0,-0.0,0.0,0.0,2.647704807,0.0,0.0,41896.0,0.0,0.0,0.0,0.0,0.0,4.072265208,0.0,0.0,-55910.0,0.0,0.0,-0.0,0.0,0.0,2.5402829430000002,0.0,0.0012207029999999897,1.309999942779541,0.3400000035762787,-154.58999633789062,0.0047607421875,0.02362060546875,0.99951171875,35.41999816894531,0.0,0.0,0.6053314208984375,1.9025115966796875,Waiting,0.0,0.0,36.0,0.0,0.0,0.0,0.0,0.0,
5.067770000000019,0.0,0.0,false,6559083.366263481,,54122.0,0.0,0.0,0.0,0.0,0.125,1.8164060640000002,0.0,0.0,-62613.0,0.0,0.0,-0.0,0.0,0.0,2.647704807,0.0,0.0,41896.0,0.0,0.0,0.0,0.0,0.0,4.073485911000001,0.0,0.0,-55910.0,0.0,0.0,-0.0,0.0,0.0,2.5402829430000002,0.0,-0.0012207029999999897,1.309999942779541,0.3400000035762787,-154.58999633789062,0.006103515625,0.02593994140625,0.99932861328125,35.41999816894531,0.0,-1.0,0.6053314208984375,1.9025115966796875,Waiting,0.0,0.0,36.0,0.0,0.0,0.0,0.0,0.0,
5.129062999999966,0.0,0.0,false,6558914.137750238,,54122.0,0.0,0.0,0.0,0.0,0.125,1.8164060640000002,0.0,0.0,-62613.0,0.0,0.0,-0.0,0.0,0.0,2.6464841040000002,0.0,0.0,41896.0,0.0,0.0,0.0,0.0,0.0,4.072265208,0.0,0.0,-55910.0,0.0,0.0,-0.0,0.0,0.0,2.5402829430000002,0.0,0.0012207029999999897,1.309999942779541,0.3400000035762787,-154.58999633789062,0.00555419921875,0.0225830078125,0.99530029296875,35.41999816894531,0.0,0.0,0.6053314208984375,1.9025115966796875,Waiting,0.0,0.0,36.0,0.0,0.0,0.0,0.0,0.0,
5.193070999999996,0.0,0.0,false,6558737.609055704,,54122.0,0.0,0.0,0.0,0.0,0.125,1.8164060640000002,0.0,0.0,-62613.0,0.0,0.0,-0.0,0.0,0.0,2.6464841040000002,0.0,0.0,41896.0,0.0,0.0,0.0,0.0,0.0,4.072265208,0.0,0.0,-55910.0,0.0,0.0,-0.0,0.0,0.0,2.5402829430000002,0.0,0.0,1.309999942779541,0.3400000035762787,-154.58999633789062,0.00634765625,0.025146484375,0.9970703125,35.439998626708984,0.0,-1.0,0.6053314208984375,1.9025115966796875,Waiting,0.0,0.0,36.0,0.0,0.0,0.0,0.0,0.0,
5.25776099999994,0.0,0.0,false,6558556.262123198,,54122.0,0.0,0.0,0.0,0.0,0.125,1.8164060640000002,0.0,0.0,-62613.0,0.0,0.0,-0.0,0.0,0.0,2.6464841040000002,0.0,0.0,41896.0,0.0,0.0,0.0,0.0,0.0,4.072265208,0.0,0.0,-55910.0,0.0,0.0,-0.0,0.0,0.0,2.5402829430000002,0.0,0.0,1.309999942779541,0.3400000035762787,-154.58999633789062,0.00439453125,0.02484130859375,1.00311279296875,35.439998626708984,0.0,0.0,0.6053314208984375,1.9025115966796875,Waiting,0.0,0.0,36.0,0.0,0.0,0.0,0.0,0.0,
5.324668999999995,0.0,0.0,false,6558367.388097933,,54122.0,0.0,0.0,0.0,0.0,0.125,1.8164060640000002,0.0,0.0,-62613.0,0.0,0.0,-0.0,0.0,0.0,2.6464841040000002,0.0,0.0,41896.0,0.0,0.0,0.0,0.0,0.0,4.073485911000001,0.0,0.0,-55910.0,0.0,0.0,-0.0,0.0,0.0,2.5402829430000002,0.0,-0.0012207029999999897,1.309999942779541,0.3400000035762787,-154.58999633789062,0.00616455078125,0.0257568359375,0.99896240234375,35.439998626708984,0.0,-1.0,0.6053314208984375,1.9025115966796875,Waiting,0.0,0.0,36.0,0.0,0.0,0.0,0.0,0.0,
5.381836999999941,0.0,0.0,false,6558173.697879437,,54122.0,0.0,0.0,0.0,0.0,0.125,1.8164060640000002,0.0,0.0,-62613.0,0.0,0.0,-0.0,0.0,0.0,2.647704807,0.0,0.0,41896.0,0.0,0.0,0.0,0.0,0.0,4.073485911000001,0.0,0.0,-55910.0,0.0,0.0,-0.0,0.0,0.0,2.5402829430000002,0.0,0.0,1.309999942779541,0.3400000035762787,-154.58999633789062,0.00445556640625,0.02288818359375,0.99798583984375,35.439998626708984,0.0,1.0,0.6053314208984375,1.9025115966796875,Waiting,0.0,0.0,36.0,0.0,0.0,0.0,0.0,0.0,
5.439263999999967,0.0,0.0,false,6557975.192328311,,54122.0,0.0,0.0,0.0,0.0,0.125,1.8164060640000002,0.0,0.0,-62613.0,0.0,0.0,-0.0,0.0,0.0,2.647704807,0.0,0.0,41896.0,0.0,0.0,0.0,0.0,0.0,4.072265208,0.0,0.0,-55910.0,0.0,0.0,-0.0,0.0,0.0,2.5402829430000002,0.0,0.0,1.309999942779541,0.3400000035762787,-154.58999633789062,0.00921630859375,0.02166748046875,1.00006103515625,35.439998626708984,0.0,-2.0,0.6053314208984375,1.9025115966796875,Waiting,0.0,0.0,36.0,0.0,0.0,0.0,0.0,0.0,
5.509790999999968,0.0,0.0,false,6557771.750327576,,54122.0,0.0,0.0,0.0,0.0,0.125,1.8164060640000002,0.0,0.0,-62613.0,0.0,0.0,-0.0,0.0,0.0,2.647704807,0.0,0.0,41896.0,0.0,0.0,0.0,0.0,0.0,4.072265208,0.0,0.0,-55910.0,0.0,0.0,-0.0,0.0,0.0,2.5402829430000002,0.0,0.0,1.309999942779541,0.3400000035762787,-154.58999633789062,0.00616455078125,0.02276611328125,0.99224853515625,35.439998626708984,0.0,0.0,0.6053314208984375,1.9025115966796875,Waiting,0.0,0.0,36.0,0.0,0.0,0.0,0.0,0.0,
5.574775000000023,0.0,0.0,false,6557678.290036329,,54122.0,0.0,0.0,0.0,0.0,0.125,1.8164060640000002,0.0,0.0,-62613.0,0.0,0.0,-0.0,0.0,0.0,2.6464841040000002,0.0,0.0,41896.0,0.0,0.0,0.0,0.0,0.0,4.072265208,0.0,0.0,-55910.0,0.0,0.0,-0.0,0.0,0.0,2.5415036460000002,0.0,0.0,1.309999942779541,0.3400000035762787,-154.58999633789062,0.00665283203125,0.0216064453125,0.99456787109375,35.439998626708984,0.0,0.0,0.6053314208984375,1.9025115966796875,Waiting,0.0,0.0,36.0,0.0,0.0,0.0,0.0,0.0,
5.634236000000033,0.0,0.0,false,6557579.914721296,,54122.0,0.0,0.0,0.0,0.0,0.125,1.8164060640000002,0.0,0.0,-62613.0,0.0,0.0,-0.0,0.0,0.0,2.647704807,0.0,0.0,41896.0,0.0,0.0,0.0,0.0,0.0,4.073485911000001,0.0,0.0,-55910.0,0.0,0.0,-0.0,0.0,0.0,2.5402829430000002,0.0,0.0,1.309999942779541,0.3400000035762787,-154.58999633789062,0.00286865234375,0.0264892578125,0.9959716796875,35.439998626708984,0.0,1.0,0.6053314208984375,1.9025115966796875,Waiting,0.0,0.0,36.0,0.0,0.0,0.0,0.0,0.0,
5.693603999999934,0.0,0.0,false,6557474.398618472,,54122.0,0.0,0.0,0.0,0.0,0.125,1.8164060640000002,0.0,0.0,-62613.0,0.0,0.0,-0.0,0.0,0.0,2.647704807,0.0,0.0,41896.0,0.0,0.0,0.0,0.0,0.0,4.073485911000001,0.0,0.0,-55910.0,0.0,0.0,-0.0,0.0,0.0,2.5402829430000002,0.0,0.0,1.309999942779541,0.3400000035762787,-154.58999633789062,0.0062255859375,0.0224609375,0.99835205078125,35.439998626708984,0.0,0.0,0.6053314208984375,1.9025115966796875,Waiting,0.0,0.0,36.0,0.0,0.0,0.0,0.0,0.0,
5.766025000000023,0.0,0.0,false,6557364.091461237,,54122.0,0.0,0.0,0.0,0.0,0.125,1.8164060640000002,0.0,0.0,-62613.0,0.0,0.0,-0.0,0.0,0.0,2.647704807,0.0,0.0,41896.0,0.0,0.0,0.0,0.0,0.0,4.072265208,0.0,0.0,-55910.0,0.0,0.0,-0.0,0.0,0.0,2.5402829430000002,0.0,-0.0012207029999999897,1.309999942779541,0.3400000035762787,-154.58999633789062,0.0028076171875,0.0218505859375,0.993896484375,35.439998626708984,0.0,3.0,0.6053314208984375,1.9025115966796875,Waiting,0.0,0.0,36.0,0.0,0.0,0.0,0.0,0.0,
5.829910999999964,0.0,0.0,false,6557248.872164334,,54122.0,0.0,0.0,0.0,0.0,0.125,1.8164060640000002,0.0,0.0,-62613.0,0.0,0.0,-0.0,0.0,0.0,2.6464841040000002,0.0,0.0,41896.0,0.0,0.0,0.0,0.0,0.0,4.072265208,0.0,0.0,-55910.0,0.0,0.0,-0.0,0.0,0.0,2.5402829430000002,0.0,0.0012207029999999897,1.309999942779541,0.3400000035762787,-154.58999633789062,0.008544921875,0.02398681640625,1.0001220703125,35.439998626708984,0.0,-2.0,0.6053314208984375,1.9025115966796875,Waiting,0.0,0.0,36.0,0.0,0.0,0.0,0.0,0.0,
5.890660000000032,0.0,0.0,false,6557128.856394379,,54122.0,0.0,0.0,0.0,0.0,0.125,1.8164060640000002,0.0,0.0,-62613.0,0.0,0.0,-0.0,0.0,0.0,2.647704807,0.0,0.0,41896.0,0.0,0.0,0.0,0.0,0.0,4.073485911000001,0.0,0.0,-55910.0,0.0,0.0,-0.0,0.0,0.0,2.5402829430000002,0.0,0.0,1.309999942779541,0.3400000035762787,-154.58999633789062,0.0069580078125,0.0234375,0.9986572265625,35.439998626708984,0.0,0.0,0.6053314208984375,1.9025115966796875,Waiting,0.0,0.0,36.0,0.0,0.0,0.0,0.0,0.0,
5.953064000000013,0.0,0.0,false,6557001.711734238,,54122.0,0.0,0.0,0.0,0.0,0.125,1.8164060640000002,0.0,0.0,-62613.0,0.0,0.0,-0.0,0.0,0.0,2.647704807,0.0,0.0,41896.0,0.0,0.0,0.0,0.0,0.0,4.073485911000001,0.0,0.0,-55910.0,0.0,0.0,-0.0,0.0,0.0,2.5402829430000002,0.0,0.0,1.309999942779541,0.3400000035762787,-154.58999633789062,0.007568359375,0.0218505859375,1.00048828125,35.439998626708984,0.0,0.0,0.6053314208984375,1.9025115966796875,Waiting,0.0,0.0,36.0,0.0,0.0,0.0,0.0,0.0,
6.019231000000029,0.0,0.0,false,6556869.650196452,,54122.0,0.0,0.0,0.0,0.0,0.125,1.8164060640000002,0.0,0.0,-62613.0,0.0,0.0,-0.0,0.0,0.0,2.647704807,0.0,0.0,41896.0,0.0,0.0,0.0,0.0,0.0,4.072265208,0.0,0.0,-55910.0,0.0,0.0,-0.0,0.0,0.0,2.5402829430000002,0.0,-0.0012207029999999897,1.309999942779541,0.3400000035762787,-154.58999633789062,0.0067138671875,0.02313232421875,0.99615478515625,35.439998626708984,0.0,0.0,0.6053314208984375,1.9025115966796875,Waiting,0.0,0.0,36.0,0.0,0.0,0.0,0.0,0.0,
6.076441999999923,0.0,0.0,false,6556732.8021906065,,54122.0,0.0,0.0,0.0,0.0,0.125,1.8164060640000002,0.0,0.0,-62613.0,0.0,0.0,-0.0,0.0,0.0,2.647704807,0.0,0.0,41896.0,0.0,0.0,0.0,0.0,0.0,4.073485911000001,0.0,0.0,-55910.0,0.0,0.0,-0.0,0.0,0.0,2.5402829430000002,0.0,0.0,1.309999942779541,0.3400000035762787,-154.58999633789062,0.0087890625,0.02374267578125,0.9986572265625,35.439998626708984,0.0,-2.0,0.6053314208984375,1.9025115966796875,Waiting,0.0,0.0,36.0,0.0,0.0,0.0,0.0,0.0,
6.141888999999966,0.0,0.0,false,6556591.168571428,,54122.0,0.0,0.0,0.0,0.0,0.125,1.8164060640000002,0.0,0.0,-62613.0,0.0,0.0,-0.0,0.0,0.0,2.647704807,0.0,0.0,41896.0,0.0,0.0,0.0,0.0,0.0,4.073485911000001,0.0,0.0,-55910.0,0.0,0.0,-0.0,0.0,0.0,2.5402829430000002,0.0,0.0,1.3200000524520874,0.3499999940395355,-154.58999633789062,0.008056640625,0.02392578125,1.0020751953125,35.439998626708984,0.0,-2.0,0.6053314208984375,1.9025115966796875,Waiting,0.0,0.0,36.0,0.0,0.0,0.0,0.0,0.0,
6.202397999999929,0.0,0.0,false,6556444.621153503,,54122.0,0.0,0.0,0.0,0.0,0.125,1.8164060640000002,0.0,0.0,-62613.0,0.0,0.0,-0.0,0.0,0.0,2.647704807,0.0,0.0,41896.0,0.0,0.0,0.0,0.0,0.0,4.072265208,0.0,0.0,-55910.0,0.0,0.0,-0.0,0.0,0.0,2.5390622400000002,0.0,0.0,1.3200000524520874,0.3499999940395355,-154.58999633789062,0.005615234375,0.02142333984375,0.9964599609375,35.47999954223633,0.0,1.0,0.6053314208984375,1.9025115966796875,Waiting,0.0,0.0,36.0,0.0,0.0,0.0,0.0,0.0,
6.270341999999946,0.0,0.0,false,6556290.950124986,,54122.0,0.0,0.0,0.0,0.0,0.125,1.8164060640000002,0.0,0.0,-62613.0,0.0,0.0,-0.0,0.0,0.0,2.647704807,0.0,0.0,41896.0,0.0,0.0,0.0,0.0,0.0,4.072265208,0.0,0.0,-55910.0,0.0,0.0,-0.0,0.0,0.0,2.5402829430000002,0.0,0.0012207029999999897,1.309999942779541,0.3499999940395355,-154.58999633789062,0.0074462890625,0.025634765625,1.0008544921875,35.47999954223633,0.0,-2.0,0.6053314208984375,1.9025115966796875,Waiting,0.0,0.0,36.0,0.0,0.0,0.0,0.0,0.0,
6.328902999999933,0.0,0.0,false,6556130.034874725,,54122.0,0.0,0.0,0.0,0.0,0.125,1.8164060640000002,0.0,0.0,-62613.0,0.0,0.0,-0.0,0.0,0.0,2.647704807,0.0,0.0,41896.0,0.0,0.0,0.0,0.0,0.0,4.072265208,0.0,0.0,-55910.0,0.0,0.0,-0.0,0.0,0.0,2.5402829430000002,0.0,0.0,1.3200000524520874,0.3499999940395355,-154.58999633789062,0.00537109375,0.02276611328125,0.99749755859375,35.47999954223633,0.0,0.0,0.6053314208984375,1.9025115966796875,Waiting,0.0,0.0,36.0,0.0,0.0,0.0,0.0,0.0,
6.392699999999953,0.0,0.0,false,6555964.338014758,,54122.0,0.0,0.0,0.0,0.0,0.125,1.8176267670000001,0.0,0.0,-62613.0,0.0,0.0,-0.0,0.0,0.0,2.6464841040000002,0.0,0.0,41896.0,0.0,0.0,0.0,0.0,0.0,4.073485911000001,0.0,0.0,-55910.0,0.0,0.0,-0.0,0.0,0.0,2.5402829430000002,0.0,0.0,1.3200000524520874,0.3499999940395355,-154.58999633789062,0.01019287109375,0.02197265625,0.99853515625,35.47999954223633,0.0,-3.0,0.6053314208984375,1.9025115966796875,Waiting,0.0,0.0,36.0,0.0,0.0,0.0,0.0,0.0,
6.452726000000024,0.0,0.0,false,6555793.860398691,,54122.0,0.0,0.0,0.0,0.0,0.125,1.8164060640000002,0.0,0.0,-62613.0,0.0,0.0,-0.0,0.0,0.0,2.647704807,0.0,0.0,41896.0,0.0,0.0,0.0,0.0,0.0,4.072265208,0.0,0.0,-55910.0,0.0,0.0,-0.0,0.0,0.0,2.5415036460000002,0.0,0.0,1.3200000524520874,0.3499999940395355,-154.58999633789062,0.00482177734375,0.02490234375,0.99969482421875,35.47999954223633,0.0,0.0,0.6053314208984375,1.9025115966796875,Waiting,0.0,0.0,36.0,0.0,0.0,0.0,0.0,0.0,
6.5206380000000355,0.0,0.0,false,6555618.481018684,,54122.0,0.0,0.0,0.0,0.0,0.125,1.8176267670000001,0.0,0.0,-62613.0,0.0,0.0,-0.0,0.0,0.0,2.647704807,0.0,0.0,41896.0,0.0,0.0,0.0,0.0,0.0,4.073485911000001,0.0,0.0,-55910.0,0.0,0.0,-0.0,0.0,0.0,2.5402829430000002,0.0,0.0,1.3200000524520874,0.3499999940395355,-154.58999633789062,0.0054931640625,0.022705078125,1.0018310546875,35.47999954223633,0.0,0.0,0.6053314208984375,1.9025115966796875,Waiting,0.0,0.0,36.0,0.0,0.0,0.0,0.0,0.0,
6.585777000000002,0.0,0.0,false,6555438.322603677,,54122.0,0.0,0.0,0.0,0.0,0.125,1.8164060640000002,0.0,0.0,-62613.0,0.0,0.0,-0.0,0.0,0.0,2.647704807,0.0,0.0,41896.0,0.0,0.0,0.0,0.0,0.0,4.073485911000001,0.0,0.0,-55910.0,0.0,0.0,-0.0,0.0,0.0,2.5402829430000002,0.0,0.0,1.3200000524520874,0.36000001430511475,-154.58999633789062,0.00897216796875,0.02178955078125,0.9981689453125,35.47999954223633,0.0,-1.0,0.6053314208984375,1.9025115966796875,Waiting,0.0,0.0,36.0,0.0,0.0,0.0,0.0,0.0,
6.652959000000032,0.0,0.0,false,6555250.925273679,,54122.0,0.0,0.0,0.0,0.0,0.125,1.8164060640000002,0.0,0.0,-62613.0,0.0,0.0,-0.0,0.0,0.0,2.647704807,0.0,0.0,41896.0,0.0,0.0,0.0,0.0,0.0,4.072265208,0.0,0.0,-55910.0,0.0,0.0,-0.0,0.0,0.0,2.5402829430000002,0.0,0.0,1.3200000524520874,0.36000001430511475,-154.58999633789062,0.0040283203125,0.02349853515625,0.9990234375,35.47999954223633,0.0,1.0,0.6053314208984375,1.9025115966796875,Waiting,0.0,0.0,36.0,0.0,0.0,0.0,0.0,0.0,
6.722804999999934,0.0,0.0,false,6555058.750907252,,54122.0,0.0,0.0,0.0,0.0,0.125,1.8164060640000002,0.0,0.0,-62613.0,0.0,0.0,-0.0,0.0,0.0,2.6464841040000002,0.0,0.0,41896.0,0.0,0.0,0.0,0.0,0.0,4.072265208,0.0,0.0,-55910.0,0.0,0.0,-0.0,0.0,0.0,2.5402829430000002,0.0,-0.0012207029999999897,1.3200000524520874,0.36000001430511475,-154.60000610351562,0.0067138671875,0.02130126953125,0.997314453125,35.45000076293945,0.0,0.0,0.6053314208984375,1.9025115966796875,Waiting,0.0,0.0,36.0,0.0,0.0,0.0,0.0,0.0,
6.787981000000029,0.0,0.0,false,6554861.678524688,,54122.0,0.0,0.0,0.0,0.0,0.125,1.8176267670000001,0.0,0.0,-62613.0,0.0,0.0,-0.0,0.0,0.0,2.647704807,0.0,0.0,41896.0,0.0,0.0,0.0,0.0,0.0,4.072265208,0.0,0.0,-55910.0,0.0,0.0,-0.0,0.0,0.0,2.5402829430000002,0.0,0.0012207029999999897,1.3200000524520874,0.3499999940395355,-154.60000610351562,0.0069580078125,0.02197265625,0.99639892578125,35.45000076293945,0.0,0.0,0.6053314208984375,1.9025115966796875,Waiting,0.0,0.0,36.0,0.0,0.0,0.0,0.0,0.0,
6.849932999999961,0.0,0.0,false,6554659.830825055,,54122.0,0.0,0.0,0.0,0.0,0.125,1.8164060640000002,0.0,0.0,-62613.0,0.0,0.0,-0.0,0.0,0.0,2.647704807,0.0,0.0,41896.0,0.0,0.0,0.0,0.0,0.0,4.073485911000001,0.0,0.0,-55910.0,0.0,0.0,-0.0,0.0,0.0,2.5402829430000002,0.0,0.0,1.3200000524520874,0.3499999940395355,-154.60000610351562,0.0057373046875,0.02001953125,0.9998779296875,35.45000076293945,0.0,1.0,0.6053314208984375,1.9025115966796875,Waiting,0.0,0.0,36.0,0.0,0.0,0.0,0.0,0.0,
6.929530999999959,0.0,0.0,false,6554568.93076374,,54122.0,0.0,0.0,0.0,0.0,0.125,1.8164060640000002,0.0,0.0,-62613.0,0.0,0.0,-0.0,0.0,0.0,2.647704807,0.0,0.0,41896.0,0.0,0.0,0.0,0.0,0.0,4.073485911000001,0.0,0.0,-55910.0,0.0,0.0,-0.0,0.0,0.0,2.5415036460000002,0.0,0.0,1.3200000524520874,0.3499999940395355,-154.60000610351562,0.00433349609375,0.0211181640625,1.00213623046875,35.45000076293945,0.0,2.0,0.6053314208984375,1.9025115966796875,Waiting,0.0,0.0,36.0,0.0,0.0,0.0,0.0,0.0,
6.9918549999999815,0.0,0.0,false,6554470.727651223,,54122.0,0.0,0.0,0.0,0.0,0.125,1.8164060640000002,0.0,0.0,-62613.0,0.0,0.0,-0.0,0.0,0.0,2.647704807,0.0,0.0,41896.0,0.0,0.0,0.0,0.0,0.0,4.073485911000001,0.0,0.0,-55910.0,0.0,0.0,-0.0,0.0,0.0,2.5402829430000002,0.0,0.0,1.3200000524520874,0.3499999940395355,-154.60000610351562,0.0078125,0.02392578125,0.99639892578125,35.45000076293945,0.0,-1.0,0.6053314208984375,1.9025115966796875,Waiting,0.0,0.0,36.0,0.0,0.0,0.0,0.0,0.0,
7.058398999999976,0.0,0.0,false,6554367.698346616,,54122.0,0.0,0.0,0.0,0.0,0.125,1.8164060640000002,0.0,0.0,-62613.0,0.0,0.0,-0.0,0.0,0.0,2.647704807,0.0,0.0,41896.0,0.0,0.0,0.0,0.0,0.0,4.072265208,0.0,0.0,-55910.0,0.0,0.0,-0.0,0.0,0.0,2.5402829430000002,0.0,0.0,1.3200000524520874,0.3499999940395355,-154.60000610351562,0.0069580078125,0.021728515625,0.9912109375,35.45000076293945,0.0,0.0,0.6053314208984375,1.9025115966796875,Waiting,0.0,0.0,36.0,0.0,0.0,0.0,0.0,0.0,
7.1281999999999535,0.0,0.0,false,6554259.851323224,,54122.0,0.0,0.0,0.0,0.0,0.125,1.8164060640000002,0.0,0.0,-62613.0,0.0,0.0,-0.0,0.0,0.0,2.647704807,0.0,0.0,41896.0,0.0,0.0,0.0,0.0,0.0,4.072265208,0.0,0.0,-55910.0,0.0,0.0,-0.0,0.0,0.0,2.5415036460000002,0.0,0.0,1.3200000524520874,0.36000001430511475,-154.60000610351562,0.0042724609375,0.021484375,0.99591064453125,35.45000076293945,0.0,2.0,0.6053314208984375,1.9025115966796875,Waiting,0.0,0.0,36.0,0.0,0.0,0.0,0.0,0.0,
7.19315399999998,0.0,0.0,false,6554147.06565176,,54122.0,0.0,0.0,0.0,0.0,0.125,1.8176267670000001,0.0,0.0,-62613.0,0.0,0.0,-0.0,0.0,0.0,2.647704807,0.0,0.0012207030000004337,41896.0,0.0,0.0,0.0,0.0,0.0,4.073485911000001,0.0,0.0,-55910.0,0.0,0.0,-0.0,0.0,0.0,2.5415036460000002,0.0,0.0,1.3200000524520874,0.36000001430511475,-154.61000061035156,0.009033203125,0.02349853515625,0.9979248046875,35.45000076293945,0.0,-2.0,0.6053314208984375,1.9025115966796875,Waiting,0.0,0.0,36.0,0.0,0.0,0.0,0.0,0.0,
7.254733000000008,0.0,0.0,false,6554029.45685913,,54122.0,0.0,0.0,0.0,0.0,0.125,1.8164060640000002,0.0,0.0,-62613.0,0.0,0.0,-0.0,0.0,0.0,2.647704807,0.0,-0.0012207030000004337,41896.0,0.0,0.0,0.0,0.0,0.0,4.072265208,0.0,0.0,-55910.0,0.0,0.0,-0.0,0.0,0.0,2.5402829430000002,0.0,0.0,1.3200000524520874,0.36000001430511475,-154.61000061035156,0.00531005859375,0.02227783203125,0.99432373046875,35.439998626708984,0.0,1.0,0.6053314208984375,1.9025115966796875,Waiting,0.0,0.0,36.0,0.0,0.0,0.0,0.0,0.0,
7.329956999999936,0.0,0.0,false,6553904.549887026,,54122.0,0.0,0.0,0.0,0.0,0.125,1.8164060640000002,0.0,0.0,-62613.0,0.0,0.0,-0.0,0.0,0.0,2.6452634010000002,0.0,0.0,41896.0,0.0,0.0,0.0,0.0,0.0,4.073485911000001,0.0,0.0,-55910.0,0.0,0.0,-0.0,0.0,0.0,2.5402829430000002,0.0,0.0,1.309999942779541,0.36000001430511475,-154.61000061035156,0.00469970703125,0.02349853515625,0.99462890625,35.439998626708984,0.0,1.0,0.6053314208984375,1.9025115966796875,Waiting,0.0,0.0,36.0,0.0,0.0,0.0,0.0,0.0,
7.391743999999948,0.0,0.0,false,6553774.8289434565,,54122.0,0.0,0.0,0.0,0.0,0.125,1.8164060640000002,0.0,0.0,-62613.0,0.0,0.0,-0.0,0.0,0.0,2.647704807,0.0,0.0,41896.0,0.0,0.0,0.0,0.0,0.0,4.073485911000001,0.0,0.0,-55910.0,0.0,0.0,-0.0,0.0,0.0,2.5402829430000002,0.0,0.0,1.309999942779541,0.36000001430511475,-154.61000061035156,0.0059814453125,0.0233154296875,0.99725341796875,35.439998626708984,0.0,0.0,0.6053314208984375,1.9025115966796875,Waiting,0.0,0.0,36.0,0.0,0.0,0.0,0.0,0.0,
7.4591030000000025,0.0,0.0,false,6553637.941498216,,54122.0,0.0,0.0,0.0,0.0,0.125,1.8164060640000002,0.0,0.0,-62613.0,0.0,0.0,-0.0,0.0,0.0,2.647704807,0.0,0.0,41896.0,0.0,0.0,0.0,0.0,0.0,4.073485911000001,0.0,0.0,-55910.0,0.0,0.0,-0.0,0.0,0.0,2.5402829430000002,0.0,0.0,1.3200000524520874,0.36000001430511475,-154.61000061035156,0.00885009765625,0.02227783203125,1.00225830078125,35.439998626708984,0.0,-1.0,0.6053314208984375,1.9025115966796875,Waiting,0.0,0.0,36.0,0.0,0.0,0.0,0.0,0.0,
7.529015000000014,0.0,0.0,false,6553496.120325783,,54122.0,0.0,0.0,0.0,0.0,0.125,1.8176267670000001,0.0,0.0,-62613.0,0.0,0.0,-0.0,0.0,0.0,2.6464841040000002,0.0,0.0,41896.0,0.0,0.0,0.0,0.0,0.0,4.073485911000001,0.0,0.0,-55910.0,0.0,0.0,-0.0,0.0,0.0,2.5390622400000002,0.0,0.0,1.3200000524520874,0.36000001430511475,-154.61000061035156,0.0081787109375,0.0216064453125,0.9990234375,35.439998626708984,0.0,0.0,0.6053314208984375,1.9025115966796875,Waiting,0.0,0.0,36.0,0.0,0.0,0.0,0.0,0.0,
7.594964999999967,0.0,0.0,false,6553349.488051361,,54122.0,0.0,0.0,0.0,0.0,0.125,1.8164060640000002,0.0,0.0,-62613.0,0.0,0.0,-0.0,0.0,0.0,2.647704807,0.0,0.0,41896.0,0.0,0.0,0.0,0.0,0.0,4.072265208,0.0,0.0,-55910.0,0.0,0.0,-0.0,0.0,0.0,2.5402829430000002,0.0,-0.0012207029999999897,1.3200000524520874,0.36000001430511475,-154.61000061035156,0.00396728515625,0.02191162109375,0.99310302734375,35.439998626708984,0.0,2.0,0.6053314208984375,1.9025115966796875,Waiting,0.0,0.0,36.0,0.0,0.0,0.0,0.0,0.0,
7.659353000000003,0.0,0.0,false,6553197.923794805,,54122.0,0.0,0.0,0.0,0.0,0.125,1.8164060640000002,0.0,0.0,-62613.0,0.0,0.0,-0.0,0.0,0.0,2.647704807,0.0,0.0,41896.0,0.0,0.0,0.0,0.0,0.0,4.072265208,0.0,0.0,-55910.0,0.0,0.0,-0.0,0.0,0.0,2.5402829430000002,0.0,0.0,1.3200000524520874,0.36000001430511475,-154.61000061035156,0.00726318359375,0.024658203125,0.9981689453125,35.439998626708984,0.0,-1.0,0.6053314208984375,1.9025115966796875,Waiting,0.0,0.0,36.0,0.0,0.0,0.0,0.0,0.0,
7.730035000000033,0.0,0.0,false,6553039.197337138,,54122.0,0.0,0.0,0.0,0.0,0.125,1.8164060640000002,0.0,0.0,-62613.0,0.0,0.0,-0.0,0.0,0.0,2.6464841040000002,0.0,0.0,41896.0,0.0,0.0,0.0,0.0,0.0,4.072265208,0.0,0.0,-55910.0,0.0,0.0,-0.0,0.0,0.0,2.5402829430000002,0.0,0.0,1.3200000524520874,0.36000001430511475,-154.61000061035156,0.00579833984375,0.022705078125,0.9952392578125,35.439998626708984,0.0,0.0,0.6053314208984375,1.9025115966796875,Waiting,0.0,0.0,36.0,0.0,0.0,0.0,0.0,0.0,
7.789429999999935,0.0,0.0,false,6552875.5409212485,,54122.0,0.0,0.0,0.0,0.0,0.125,1.8164060640000002,0.0,0.0,-62613.0,0.0,0.0,-0.0,0.0,0.0,2.647704807,0.0,0.0,41896.0,0.0,0.0,0.0,0.0,0.0,4.073485911000001,0.0,0.0,-55910.0,0.0,0.0,-0.0,0.0,0.0,2.5402829430000002,0.0,-0.0012207029999999897,1.3200000524520874,0.36000001430511475,-154.61000061035156,0.00592041015625,0.020263671875,0.99517822265625,35.439998626708984,0.0,1.0,0.6053314208984375,1.9025115966796875,Waiting,0.0,0.0,36.0,0.0,0.0,0.0,0.0,0.0,
7.860052000000025,0.0,0.0,false,6552707.077142517,,54122.0,0.0,0.0,0.0,0.0,0.125,1.8164060640000002,0.0,0.0,-62613.0,0.0,0.0,-0.0,0.0,0.0,2.647704807,0.0,0.0,41896.0,0.0,0.0,0.0,0.0,0.0,4.072265208,0.0,0.0,-55910.0,0.0,0.0,-0.0,0.0,0.0,2.5402829430000002,0.0,0.0,1.3200000524520874,0.36000001430511475,-154.61000061035156,0.00677490234375,0.0224609375,0.99981689453125,35.439998626708984,0.0,0.0,0.6053314208984375,1.9025115966796875,Waiting,0.0,0.0,36.0,0.0,0.0,0.0,0.0,0.0,
