Time,ClimberA1,ClimberA2,CameraExists,HeapSpace,LoopTime,FRpos,FRCurrent,FRspeed,FRsetpoint,FRApos,FRACurrent,FREncpos,FREncSetpoint,FREncSpeed,FLpos,FLCurrent,FLspeed,FLsetpoint,FLApos,FLACurrent,FLEncpos,FLEncSetpoint,FLEncSpeed,BRpos,BRCurrent,BRspeed,BRsetpoint,BRApos,BRACurrent,BREncpos,BREncSetpoint,BREncSpeed,BLpos,BLCurrent,BLspeed,BLsetpoint,BLApos,BLACurrent,BLEncpos,BLEncSetpoint,BLEncSpeed,navx_Pitch,navx_Roll,navx_Yaw,navx_XAcc,navx_YAcc,navx_ZAcc,navx_Temp,navx_Bar,navx_Alt,navx_XDis,navx_YDis,GearPlacerState,ShootOutputV,ShootOutputCurrent,ShootEncPos,ShootEncVelocity,ShootSpeed,ShootSetpoint,CarouselSetpoint,CarouselCurrent,
0.4608909999999996,0.0,0.0,false,3665080.9411764704,,0.0,0.0,0.0,0.0,0.0,0.0,3.1115719470000003,0.0,0.0,0.0,0.0,0.0,-0.0,0.0,0.0,1.2438963570000001,0.0,0.0,0.0,0.0,0.0,0.0,0.0,0.0,3.928222254,0.0,0.0,0.0,0.0,0.0,-0.0,0.0,0.0,2.462157951,0.0,0.0,1.25,0.18000000715255737,-0.07999999821186066,0.079345703125,-0.02532958984375,1.009765625,29.709999084472656,0.0,76.0,-1.52587890625E-5,0.001953125,Waiting,0.0,0.0,0.0,0.0,0.0,0.0,0.0,0.0,
0.5036460000000006,0.0,0.0,false,3665862.9420916163,,0.0,0.0,0.0,0.0,0.0,0.0,3.1103512440000003,0.0,1.2743512440000009,0.0,0.0,0.0,-0.0,0.0,0.0,1.253661981,0.0,3.491675654,0.0,0.0,0.0,0.0,0.0,0.0,3.928222254,0.0,4.8510015509999995,0.0,0.0,0.0,-0.0,0.0,0.0,2.462157951,0.0,4.938437248,1.2599999904632568,0.18000000715255737,-0.07999999821186066,0.08624267578125,-0.0015869140625,1.0009765625,29.729999542236328,0.0,83.0,9.1552734375E-5,0.002044677734375,Waiting,0.0,0.0,0.0,0.0,0.0,0.0,0.0,0.0,
0.5297250000000022,0.0,0.0,false,3666600.835924007,,0.0,0.0,0.0,0.0,0.0,6.5,3.018798519,0.0,1.2743512440000009,0.0,0.0,0.0,-0.0,0.0,5.75,1.459960788,0.0,0.08666991299999971,0.0,0.0,0.0,0.0,0.0,0.0,3.9416499870000004,0.0,0.004882811999999959,0.0,0.0,0.0,-0.0,0.0,0.0,2.462157951,0.0,0.0012207029999995456,1.25,0.17000000178813934,-0.07999999821186066,0.0274658203125,-0.002685546875,1.01751708984375,29.729999542236328,0.0,24.0,9.918212890625E-4,0.0020599365234375,Waiting,0.0,0.0,0.0,0.0,0.0,0.0,0.0,0.0,
0.5648070000000007,0.0,0.0,false,3667294.736842105,,0.0,0.0,0.0,0.0,0.0,7.25,2.719726284,0.0,-0.004882811999999959,0.0,0.0,0.0,-0.0,0.0,6.375,1.6857908430000001,0.0,0.08666991299999971,0.0,0.0,0.0,0.0,0.0,0.0,3.9562984230000002,0.0,0.004882811999999959,0.0,0.0,0.0,-0.0,0.0,0.0,2.462157951,0.0,0.0012207029999995456,1.2699999809265137,0.18000000715255737,-0.07000000029802322,-0.04736328125,0.0748291015625,1.0211181640625,29.729999542236328,0.0,-50.0,0.0013427734375,0.0020751953125,Waiting,0.0,0.0,0.0,0.0,0.0,0.0,0.0,0.0,
0.5952839999999997,0.0,0.0,false,3667958.9655172415,,0.0,0.0,0.0,0.0,0.0,1.125,2.4804684960000003,0.0,-0.4858397940000003,0.0,0.0,-7.5,-0.0,0.0,1.0,1.9750974540000001,0.0,0.4516601100000006,0.0,0.0,0.0,0.0,0.0,0.0,3.981933186,0.0,0.03417968399999971,0.0,0.0,0.0,-0.0,0.0,0.0,2.462157951,0.0,0.0,1.2599999904632568,0.20000000298023224,-0.07999999821186066,-0.0408935546875,-0.03106689453125,0.9775390625,29.729999542236328,0.0,-44.0,0.0018768310546875,0.0023651123046875,Waiting,0.0,0.0,0.0,0.0,0.0,0.0,0.0,0.0,
0.6489249999999993,0.0,0.0,false,3668579.3626184324,,0.0,0.0,0.0,0.0,0.0,0.125,2.077636506,0.0,0.0,-1.0,0.0,0.0,-0.0,0.0,0.5,2.4279782670000003,0.0,0.0,0.0,0.0,0.0,0.0,0.0,0.0,4.010009355,0.0,0.0,0.0,0.0,0.0,-0.0,0.0,0.0,2.462157951,0.0,0.0,1.2599999904632568,0.1899999976158142,-0.07999999821186066,0.09149169921875,0.00146484375,0.99896240234375,29.729999542236328,0.0,88.0,0.002288818359375,0.00250244140625,Waiting,0.0,0.0,0.0,0.0,0.0,0.0,0.0,0.0,
0.6778810000000012,0.0,0.0,false,3669162.788296041,,0.0,0.0,0.0,0.0,0.0,0.125,1.850585748,0.0,0.0,-1.0,0.0,0.0,-0.0,0.0,0.375,2.675780976,0.0,0.0,0.0,0.0,0.0,0.0,0.0,0.0,4.020995682000001,0.0,0.043945308000000516,0.0,0.0,0.0,-0.0,0.0,0.0,2.460937248,0.0,-0.0012207029999995456,1.25,0.1899999976158142,-0.07999999821186066,0.02899169921875,0.03045654296875,1.022216796875,29.729999542236328,0.0,25.0,0.0030059814453125,0.0024261474609375,Waiting,0.0,0.0,0.0,0.0,0.0,0.0,0.0,0.0,
0.7088430000000008,0.0,0.0,false,3669702.596732588,,0.0,0.0,0.0,0.0,0.0,0.25,1.652831862,0.0,-0.6567382139999998,-1.0,0.0,0.0,-0.0,0.0,0.375,2.8979489220000003,0.0,0.7446288299999999,0.0,0.0,0.0,0.0,0.0,0.0,4.024657791,0.0,0.043945308000000516,0.0,0.0,0.0,-0.0,0.0,0.0,2.462157951,0.0,-0.0012207029999995456,1.25,0.17000000178813934,-0.07999999821186066,0.00335693359375,0.09051513671875,1.0335693359375,29.729999542236328,0.0,0.0,0.0034332275390625,0.00238037109375,Waiting,0.0,0.0,0.0,0.0,0.0,0.0,0.0,0.0,
0.742921000000002,0.0,0.0,false,3670198.9003436426,,0.0,0.0,0.0,0.0,0.0,0.125,1.470947115,0.0,-0.41259761400000006,-1.0,0.0,0.0,-0.0,0.0,0.0,3.0541989060000003,0.0,-4.488794969000001,0.0,0.0,0.0,0.0,0.0,0.0,4.0234370880000005,0.0,0.01831054500000029,0.0,0.0,0.0,-0.0,0.0,0.0,2.462157951,0.0,0.0,1.25,0.1899999976158142,-0.07999999821186066,-0.07171630859375,0.0443115234375,1.00396728515625,29.729999542236328,0.0,-75.0,0.0032806396484375,0.0025787353515625,Waiting,0.0,0.0,0.0,0.0,0.0,0.0,0.0,0.0,
0.7688220000000001,0.0,0.0,false,3670666.005150215,,0.0,0.0,0.0,0.0,0.0,0.375,1.4807127390000001,0.0,-0.41259761400000006,-1.0,0.0,0.0,-0.0,0.0,0.5,3.035888361,0.0,-4.488794969000001,0.0,0.0,0.0,0.0,0.0,0.0,4.024657791,0.0,0.01831054500000029,0.0,0.0,0.0,-0.0,0.0,0.0,2.462157951,0.0,0.0,1.25,0.20000000298023224,-0.07999999821186066,-0.07244873046875,0.0244140625,0.993408203125,29.729999542236328,0.0,-75.0,0.002655029296875,0.002899169921875,Waiting,0.0,0.0,0.0,0.0,0.0,0.0,0.0,0.0,
0.8033220000000001,0.0,0.0,false,3671089.783876501,,0.0,0.0,0.0,0.0,0.0,0.875,1.5588377310000001,0.0,-0.08422850699999973,-1.0,0.0,0.0,-0.0,0.0,0.75,2.9602047750000002,0.0,0.06713866500000032,0.0,0.0,0.0,0.0,0.0,0.0,4.031982009,0.0,-0.0024414059999999793,0.0,0.0,0.0,-0.0,0.0,0.0,2.463378654,0.0,0.0012207029999995456,1.2699999809265137,0.18000000715255737,-0.07999999821186066,-0.013427734375,-0.01971435546875,0.988525390625,29.729999542236328,0.0,-16.0,0.002227783203125,0.0030364990234375,Waiting,0.0,0.0,0.0,0.0,0.0,0.0,0.0,0.0,
0.8265240000000013,0.0,0.0,false,3671470.409597258,,0.0,0.0,0.0,0.0,0.0,0.5,1.6357420200000001,0.0,-0.08422850699999973,-1.0,0.0,0.0,-0.0,0.0,0.25,2.8930661100000004,0.0,0.06713866500000032,0.0,0.0,0.0,0.0,0.0,0.0,4.022216385,0.0,-0.0024414059999999793,0.0,0.0,0.0,-0.0,0.0,0.0,2.462157951,0.0,-0.0012207029999995456,1.25,0.17000000178813934,-0.07000000029802322,0.073486328125,-0.017333984375,1.0050048828125,29.729999542236328,0.0,70.0,0.001434326171875,0.003143310546875,Waiting,0.0,0.0,0.0,0.0,0.0,0.0,0.0,0.0,
0.8682720000000008,0.0,0.0,false,3671814.664383562,,0.0,0.0,0.0,0.0,0.0,0.25,1.7675779440000001,0.0,0.13671873599999973,-1.0,0.0,0.0,-0.0,0.0,0.0,2.767333701,0.0,-0.12451170600000028,0.0,0.0,0.0,0.0,0.0,0.0,4.024657791,0.0,-0.0012207030000004337,0.0,0.0,0.0,-0.0,0.0,0.0,2.462157951,0.0,-0.0012207029999995456,1.25,0.17000000178813934,-0.07000000029802322,0.0728759765625,-0.0015869140625,1.015869140625,29.729999542236328,0.0,69.0,9.46044921875E-4,0.0030059814453125,Waiting,0.0,0.0,0.0,0.0,0.0,0.0,0.0,0.0,
0.9230750000000008,0.0,0.0,false,3672115.976047904,,0.0,0.0,0.0,0.0,0.0,0.25,1.8737791050000001,0.0,0.1416015479999997,-1.0,0.0,0.0,-0.0,0.0,0.0,2.675780976,0.0,-0.13061522099999978,0.0,0.0,0.0,0.0,0.0,0.0,4.024657791,0.0,0.0024414059999999793,0.0,0.0,0.0,-0.0,0.0,0.0,2.463378654,0.0,0.0,1.2400000095367432,0.1899999976158142,-0.07999999821186066,-0.07354736328125,0.04412841796875,1.0015869140625,29.729999542236328,0.0,-77.0,8.392333984375E-4,0.0031585693359375,Waiting,0.0,0.0,0.0,0.0,0.0,0.0,0.0,0.0,
0.9520800000000017,0.0,0.0,false,3672388.560683761,,0.0,0.0,0.0,0.0,0.0,0.25,1.8884275410000002,0.0,0.09521483400000008,-1.0,0.0,0.0,-0.0,0.0,0.0,2.652587619,0.0,-0.09155272500000011,0.0,0.0,0.0,0.0,0.0,0.0,4.0307613060000005,0.0,-0.0012207029999995456,0.0,0.0,0.0,-0.0,0.0,0.0,2.462157951,0.0,0.0,1.2400000095367432,0.20000000298023224,-0.09000000357627869,-0.08428955078125,0.0389404296875,1.017333984375,29.729999542236328,0.0,-26.0,-4.57763671875E-5,0.0036163330078125,Waiting,0.0,0.0,0.0,0.0,0.0,0.0,0.0,0.0,
0.9801860000000016,0.0,0.0,false,3672618.3979504695,,0.0,0.0,0.0,0.0,0.0,0.0,1.8945310560000002,0.0,0.09521483400000008,-1.0,0.0,0.0,-0.0,0.0,0.0,2.6428219950000003,0.0,-0.09155272500000011,0.0,0.0,0.0,0.0,0.0,0.0,4.0234370880000005,0.0,-0.0012207030000004337,0.0,0.0,0.0,-0.0,0.0,0.0,2.462157951,0.0,0.0,1.2599999904632568,0.18000000715255737,-0.09000000357627869,0.02386474609375,-0.0035400390625,1.0106201171875,29.729999542236328,0.0,20.0,-4.2724609375E-4,0.0037384033203125,Waiting,0.0,0.0,0.0,0.0,0.0,0.0,0.0,0.0,
1.0113590000000003,0.0,0.0,false,3672805.5836177473,,0.0,0.0,0.0,0.0,0.0,0.125,1.903075977,0.0,0.051269526000000454,-1.0,0.0,0.0,-0.0,0.0,0.0,2.6379391830000003,0.0,4.889185552999999,0.0,0.0,0.0,0.0,0.0,0.0,4.0307613060000005,0.0,-0.0012207030000004337,0.0,0.0,0.0,-0.0,0.0,0.0,2.4816891990000003,0.0,0.0,1.2599999904632568,0.18000000715255737,-0.07999999821186066,0.0675048828125,-0.013427734375,0.96844482421875,29.75,0.0,64.0,-0.001007080078125,0.0038604736328125,Waiting,0.0,0.0,0.0,0.0,0.0,0.0,0.0,0.0,
1.0430920000000006,0.0,0.0,false,3672964.3103154306,,0.0,0.0,0.0,0.0,0.0,0.125,1.90429668,0.0,0.012207029999999897,-1.0,0.0,0.0,-0.0,0.0,0.0,2.6379391830000003,0.0,-0.008544920999999484,0.0,0.0,0.0,0.0,0.0,0.0,4.024657791,0.0,0.003662109000000413,0.0,0.0,0.0,-0.0,0.0,0.0,2.460937248,0.0,0.0,1.2699999809265137,0.18000000715255737,-0.07999999821186066,0.070068359375,-0.0030517578125,1.02679443359375,29.75,0.0,66.0,-0.001190185546875,0.00384521484375,Waiting,0.0,0.0,0.0,0.0,0.0,0.0,0.0,0.0,
1.081512999999999,0.0,0.0,false,3673073.172061329,,0.0,0.0,0.0,0.0,0.0,0.125,1.903075977,0.0,0.012207029999999897,-1.0,0.0,0.0,-0.0,0.0,0.0,2.6379391830000003,0.0,0.0,0.0,0.0,0.0,0.0,0.0,0.0,4.0258784940000005,0.0,-0.003662109000000413,0.0,0.0,0.0,-0.0,0.0,0.0,2.462157951,0.0,0.0,1.2599999904632568,0.20000000298023224,-0.09000000357627869,-0.0174560546875,0.0745849609375,1.009521484375,29.75,0.0,-21.0,-0.0013427734375,0.0038909912109375,Waiting,0.0,0.0,0.0,0.0,0.0,0.0,0.0,0.0,
1.1088220000000002,0.0,0.0,false,3673139.7106382977,,0.0,0.0,0.0,0.0,0.0,0.125,1.8957517590000001,0.0,0.0,-1.0,0.0,0.0,-0.0,0.0,0.0,2.6367184800000003,0.0,0.0,0.0,0.0,0.0,0.0,0.0,0.0,4.0258784940000005,0.0,-0.003662109000000413,0.0,0.0,0.0,-0.0,0.0,0.0,2.462157951,0.0,0.0,1.2599999904632568,0.20000000298023224,-0.09000000357627869,-0.08721923828125,0.03924560546875,0.987060546875,29.75,0.0,-90.0,-0.00164794921875,0.0041351318359375,Waiting,0.0,0.0,0.0,0.0,0.0,0.0,0.0,0.0,
1.145416000000001,0.0,0.0,false,3673178.0476190476,,0.0,0.0,0.0,0.0,0.0,0.125,1.883544729,0.0,-0.009765623999999917,-1.0,0.0,0.0,-0.0,0.0,0.0,2.6367184800000003,0.0,-0.0012207030000004337,0.0,0.0,0.0,0.0,0.0,0.0,4.0307613060000005,0.0,0.0012207030000004337,0.0,0.0,0.0,-0.0,0.0,0.0,2.462157951,0.0,0.0,1.2699999809265137,0.1899999976158142,-0.09000000357627869,-0.0264892578125,0.00537109375,0.995361328125,29.75,0.0,-29.0,-0.002349853515625,0.004302978515625,Waiting,0.0,0.0,0.0,0.0,0.0,0.0,0.0,0.0,
1.1673430000000007,0.0,0.0,false,3673174.253186066,,0.0,0.0,0.0,0.0,0.0,0.125,1.8737791050000001,0.0,-0.009765623999999917,-1.0,0.0,0.0,-0.0,0.0,0.0,2.6379391830000003,0.0,-0.0012207030000004337,0.0,0.0,0.0,0.0,0.0,0.0,4.0307613060000005,0.0,0.0012207030000004337,0.0,0.0,0.0,-0.0,0.0,0.0,2.460937248,0.0,0.0,1.2599999904632568,0.1899999976158142,-0.09000000357627869,0.04931640625,-0.01092529296875,0.99749755859375,29.75,0.0,45.0,-0.00311279296875,0.00421142578125,Waiting,0.0,0.0,0.0,0.0,0.0,0.0,0.0,0.0,
1.1951800000000004,0.0,0.0,false,3673142.4448217317,,0.0,0.0,0.0,0.0,0.0,0.125,1.8652341840000002,0.0,-0.021972653999999814,-1.0,0.0,0.0,-0.0,0.0,0.0,2.6428219950000003,0.0,0.006103515000000392,0.0,0.0,0.0,0.0,0.0,0.0,4.0258784940000005,0.0,0.0,0.0,0.0,0.0,-0.0,0.0,0.0,2.460937248,0.0,0.0012207029999995456,1.2699999809265137,0.1899999976158142,-0.09000000357627869,0.06109619140625,-0.0191650390625,1.00115966796875,29.75,0.0,57.0,-0.00360107421875,0.003936767578125,Waiting,0.0,0.0,0.0,0.0,0.0,0.0,0.0,0.0,
1.228385000000002,0.0,0.0,false,3673068.695504665,,0.0,0.0,0.0,0.0,0.0,0.125,1.853027154,0.0,-0.021972653999999814,-1.0,0.0,0.0,-0.0,0.0,0.0,2.6428219950000003,0.0,0.0,0.0,0.0,0.0,0.0,0.0,0.0,4.024657791,0.0,0.0,0.0,0.0,0.0,-0.0,0.0,0.0,2.462157951,0.0,-0.0012207029999995456,1.25,0.18000000715255737,-0.09000000357627869,0.03094482421875,0.05126953125,1.02947998046875,29.75,0.0,27.0,-0.003814697265625,0.0035247802734375,Waiting,0.0,0.0,0.0,0.0,0.0,0.0,0.0,0.0,
1.2655600000000014,0.0,0.0,false,3672945.7288135593,,0.0,0.0,0.0,0.0,0.0,0.0,1.85546856,0.0,-0.012207030000000785,-1.0,0.0,0.0,-0.0,0.0,0.0,2.6428219950000003,0.0,0.0,0.0,0.0,0.0,0.0,0.0,0.0,4.024657791,0.0,0.0,0.0,0.0,0.0,-0.0,0.0,0.0,2.463378654,0.0,-0.0012207029999995456,1.2599999904632568,0.20000000298023224,-0.09000000357627869,-0.07440185546875,0.044677734375,0.99188232421875,29.75,0.0,-77.0,-0.0041351318359375,0.003326416015625,Waiting,0.0,0.0,0.0,0.0,0.0,0.0,0.0,0.0,
1.307260000000002,0.0,0.0,false,3672795.021168501,,0.0,0.0,0.0,0.0,0.0,0.0,1.8469236390000001,0.0,-0.004882811999999959,-1.0,0.0,0.0,-0.0,0.0,0.0,2.6428219950000003,0.0,0.0,0.0,0.0,0.0,0.0,0.0,0.0,4.0307613060000005,0.0,0.0012207029999995456,0.0,0.0,0.0,-0.0,0.0,0.0,2.462157951,0.0,0.0,1.2699999809265137,0.20000000298023224,-0.09000000357627869,-9.765625E-4,-0.00506591796875,1.001953125,29.75,0.0,-4.0,-0.00518798828125,0.003326416015625,Waiting,0.0,0.0,0.0,0.0,0.0,0.0,0.0,0.0,
1.3334989999999998,0.0,0.0,false,3672588.703891709,,0.0,0.0,0.0,0.0,0.0,0.125,1.850585748,0.0,-0.004882811999999959,-1.0,0.0,0.0,-0.0,0.0,0.0,2.652587619,0.0,0.004882811999999959,0.0,0.0,0.0,0.0,0.0,0.0,4.024657791,0.0,0.0,0.0,0.0,0.0,-0.0,0.0,0.0,2.462157951,0.0,0.0012207029999995456,1.2699999809265137,0.20000000298023224,-0.09000000357627869,0.0396728515625,-0.012451171875,0.98541259765625,29.75,0.0,36.0,-0.0055694580078125,0.0032501220703125,Waiting,0.0,0.0,0.0,0.0,0.0,0.0,0.0,0.0,
1.3636739999999992,0.0,0.0,false,3672340.8825021135,,0.0,0.0,0.0,0.0,0.0,0.125,1.850585748,0.0,-0.004882811999999959,-1.0,0.0,0.0,-0.0,0.0,0.0,2.657470431,0.0,0.004882811999999959,0.0,0.0,0.0,0.0,0.0,0.0,4.0258784940000005,0.0,0.0,0.0,0.0,0.0,-0.0,0.0,0.0,2.462157951,0.0,0.0012207029999995456,1.2699999809265137,0.1899999976158142,-0.09000000357627869,0.06341552734375,-0.013916015625,1.0103759765625,29.75,0.0,60.0,-0.0061187744140625,0.0029754638671875,Waiting,0.0,0.0,0.0,0.0,0.0,0.0,0.0,0.0,
1.3854730000000017,0.0,0.0,false,3672065.6013513515,,0.0,0.0,0.0,0.0,0.0,0.125,1.850585748,0.0,-0.004882811999999959,-1.0,0.0,0.0,-0.0,0.0,0.0,2.662353243,0.0,0.004882811999999959,0.0,0.0,0.0,0.0,0.0,0.0,4.029540603,0.0,0.0,0.0,0.0,0.0,-0.0,0.0,0.0,2.462157951,0.0,-0.0012207029999995456,1.2699999809265137,0.18000000715255737,-0.09000000357627869,0.06195068359375,-0.00750732421875,1.02716064453125,29.75,0.0,58.0,-0.0062713623046875,0.00274658203125,Waiting,0.0,0.0,0.0,0.0,0.0,0.0,0.0,0.0,
1.4105390000000007,0.0,0.0,false,3671749.0025316454,,0.0,0.0,0.0,0.0,0.0,0.125,1.849365045,0.0,0.0012207030000004337,-1.0,0.0,0.0,-0.0,0.0,0.0,2.667236055,0.0,0.009765623999999917,0.0,0.0,0.0,0.0,0.0,0.0,4.0258784940000005,0.0,0.0,0.0,0.0,0.0,-0.0,0.0,0.0,2.462157951,0.0,-0.0012207029999995456,1.2599999904632568,0.1899999976158142,-0.09000000357627869,0.00897216796875,0.08245849609375,1.01715087890625,29.75,0.0,5.0,-0.0064239501953125,0.0023651123046875,Waiting,0.0,0.0,0.0,0.0,0.0,0.0,0.0,0.0,
1.4321369999999989,0.0,0.0,false,3671391.190556492,,0.0,0.0,0.0,0.0,0.0,0.125,1.850585748,0.0,0.0012207030000004337,-1.0,0.0,0.0,-0.0,0.0,0.0,2.667236055,0.0,0.008544920999999484,0.0,0.0,0.0,0.0,0.0,0.0,4.024657791,0.0,-0.0012207029999995456,0.0,0.0,0.0,-0.0,0.0,0.0,2.462157951,0.0,0.0012207029999995456,1.2599999904632568,0.20000000298023224,-0.09000000357627869,-0.06536865234375,0.0443115234375,1.00360107421875,29.75,0.0,-69.0,-0.0066680908203125,0.0022125244140625,Waiting,0.0,0.0,0.0,0.0,0.0,0.0,0.0,0.0,
1.4632580000000017,0.0,0.0,false,3670998.8340353835,,0.0,0.0,0.0,0.0,0.0,0.125,1.850585748,0.0,-0.0012207030000004337,-1.0,0.0,0.0,-0.0,0.0,0.0,2.670898164,0.0,0.008544920999999484,0.0,0.0,0.0,0.0,0.0,0.0,4.024657791,0.0,-0.0012207029999995456,0.0,0.0,0.0,-0.0,0.0,0.0,2.462157951,0.0,0.0012207029999995456,1.2599999904632568,0.20000000298023224,-0.09000000357627869,-0.078857421875,0.03302001953125,0.98199462890625,29.75,0.0,-82.0,-0.0069427490234375,0.0021820068359375,Waiting,0.0,0.0,0.0,0.0,0.0,0.0,0.0,0.0,
1.4865250000000014,0.0,0.0,false,3670565.461279461,,0.0,0.0,0.0,0.0,0.0,0.125,1.850585748,0.0,0.0012207030000004337,-1.0,0.0,0.0,-0.0,0.0,0.0,2.672118867,0.0,0.004882811999999959,0.0,0.0,0.0,0.0,0.0,0.0,4.0307613060000005,0.0,-0.0012207030000004337,0.0,0.0,0.0,-0.0,0.0,0.0,2.463378654,0.0,-0.0012207029999995456,1.2699999809265137,0.20000000298023224,-0.09000000357627869,-0.00897216796875,-0.00732421875,0.99188232421875,29.75,0.0,31.0,-0.0080718994140625,0.002044677734375,Waiting,0.0,0.0,0.0,0.0,0.0,0.0,0.0,0.0,
1.5120590000000012,0.0,0.0,false,3670091.1757779648,,0.0,0.0,0.0,0.0,0.0,0.125,1.850585748,0.0,0.0012207030000004337,-1.0,0.0,0.0,-0.0,0.0,0.0,2.670898164,0.0,0.004882811999999959,0.0,0.0,0.0,0.0,0.0,0.0,4.0307613060000005,0.0,-0.0012207030000004337,0.0,0.0,0.0,-0.0,0.0,0.0,2.463378654,0.0,-0.0012207029999995456,1.2699999809265137,0.20000000298023224,-0.09000000357627869,0.06134033203125,-0.01898193359375,1.00140380859375,29.75,0.0,57.0,-0.008392333984375,0.001922607421875,Waiting,0.0,0.0,0.0,0.0,0.0,0.0,0.0,0.0,
1.5440430000000014,0.0,0.0,false,3669589.949579832,,0.0,0.0,0.0,0.0,0.0,0.125,1.850585748,0.0,-0.0012207030000004337,-1.0,0.0,0.0,-0.0,0.0,0.0,2.670898164,0.0,0.0,0.0,0.0,0.0,0.0,0.0,0.0,4.024657791,0.0,0.0,0.0,0.0,0.0,-0.0,0.0,0.0,2.462157951,0.0,0.0,1.2699999809265137,0.1899999976158142,-0.09000000357627869,0.06121826171875,-0.00531005859375,1.02740478515625,29.770000457763672,0.0,57.0,-0.0087890625,0.00152587890625,Waiting,0.0,0.0,0.0,0.0,0.0,0.0,0.0,0.0,
1.568643,0.0,0.0,false,3669047.9932829556,,0.0,0.0,0.0,0.0,0.0,0.125,1.850585748,0.0,-0.0012207030000004337,-1.0,0.0,0.0,-0.0,0.0,0.0,2.672118867,0.0,0.0,0.0,0.0,0.0,0.0,0.0,0.0,4.024657791,0.0,0.0,0.0,0.0,0.0,-0.0,0.0,0.0,2.463378654,0.0,0.0,1.2699999809265137,0.1899999976158142,-0.09000000357627869,0.00933837890625,0.086181640625,1.02032470703125,29.770000457763672,0.0,5.0,-0.0089569091796875,0.0010986328125,Waiting,0.0,0.0,0.0,0.0,0.0,0.0,0.0,0.0,
1.590332000000002,0.0,0.0,false,3668479.255033557,,0.0,0.0,0.0,0.0,0.0,0.125,1.850585748,0.0,0.0,-1.0,0.0,0.0,-0.0,0.0,0.0,2.670898164,0.0,0.0,0.0,0.0,0.0,0.0,0.0,0.0,4.024657791,0.0,0.0,0.0,0.0,0.0,-0.0,0.0,0.0,2.462157951,0.0,0.0,1.2599999904632568,0.20000000298023224,-0.09000000357627869,-0.035400390625,0.07452392578125,1.016845703125,29.770000457763672,0.0,-39.0,-0.0090484619140625,9.918212890625E-4,Waiting,0.0,0.0,0.0,0.0,0.0,0.0,0.0,0.0,
1.618679,0.0,0.0,false,3667869.921207041,,0.0,0.0,0.0,0.0,0.0,0.125,1.851806451,0.0,0.0,-1.0,0.0,0.0,-0.0,0.0,0.0,2.672118867,0.0,0.0,0.0,0.0,0.0,0.0,0.0,0.0,4.0258784940000005,0.0,0.0,0.0,0.0,0.0,-0.0,0.0,0.0,2.462157951,0.0,0.0,1.2699999809265137,0.20000000298023224,-0.09000000357627869,-0.04541015625,0.01678466796875,0.98541259765625,29.770000457763672,0.0,-48.0,-0.0098419189453125,9.1552734375E-4,Waiting,0.0,0.0,0.0,0.0,0.0,0.0,0.0,0.0,
1.6434330000000008,0.0,0.0,false,3667220.1407035175,,0.0,0.0,0.0,0.0,0.0,0.125,1.850585748,0.0,0.0,-1.0,0.0,0.0,-0.0,0.0,0.0,2.672118867,0.0,0.0,0.0,0.0,0.0,0.0,0.0,0.0,4.0234370880000005,0.0,0.0,0.0,0.0,0.0,-0.0,0.0,0.0,2.462157951,0.0,0.0,1.2699999809265137,0.20000000298023224,-0.09000000357627869,-0.00775146484375,-0.00213623046875,0.99517822265625,29.770000457763672,0.0,-11.0,-0.0102386474609375,8.85009765625E-4,Waiting,0.0,0.0,0.0,0.0,0.0,0.0,0.0,0.0,
1.6672580000000017,0.0,0.0,false,3666536.5355648533,,0.0,0.0,0.0,0.0,0.0,0.125,1.850585748,0.0,0.0,-1.0,0.0,0.0,-0.0,0.0,0.0,2.672118867,0.0,0.0,0.0,0.0,0.0,0.0,0.0,0.0,4.024657791,0.0,0.0,0.0,0.0,0.0,-0.0,0.0,0.0,2.462157951,0.0,0.0,1.2799999713897705,0.1899999976158142,-0.09000000357627869,0.06280517578125,-0.02032470703125,0.994140625,29.770000457763672,0.0,59.0,-0.01092529296875,7.01904296875E-4,Waiting,0.0,0.0,0.0,0.0,0.0,0.0,0.0,0.0,
1.6875260000000016,0.0,0.0,false,3665812.6755852844,,0.0,0.0,0.0,0.0,0.0,0.125,1.849365045,0.0,0.0012207030000004337,-1.0,0.0,0.0,-0.0,0.0,0.0,2.670898164,0.0,0.0,0.0,0.0,0.0,0.0,0.0,0.0,4.0234370880000005,0.0,0.0012207030000004337,0.0,0.0,0.0,-0.0,0.0,0.0,2.462157951,0.0,0.0012207029999995456,1.2699999809265137,0.1899999976158142,-0.09000000357627869,0.06048583984375,-0.0010986328125,1.029541015625,29.770000457763672,0.0,57.0,-0.011322021484375,2.74658203125E-4,Waiting,0.0,0.0,0.0,0.0,0.0,0.0,0.0,0.0,
1.7290319999999992,0.0,0.0,false,3665062.449456976,,0.0,0.0,0.0,0.0,0.0,0.125,1.850585748,0.0,0.0012207030000004337,-1.0,0.0,0.0,-0.0,0.0,0.0,2.670898164,0.0,0.0,0.0,0.0,0.0,0.0,0.0,0.0,4.024657791,0.0,0.0012207030000004337,0.0,0.0,0.0,-0.0,0.0,0.0,2.460937248,0.0,-0.0012207029999995456,1.2699999809265137,0.1899999976158142,-0.09000000357627869,0.00506591796875,0.0897216796875,1.0169677734375,29.770000457763672,0.0,1.0,-0.0114898681640625,-1.068115234375E-4,Waiting,0.0,0.0,0.0,0.0,0.0,0.0,0.0,0.0,
1.754245999999999,0.0,0.0,false,3665855.8196994993,,0.0,0.0,0.0,0.0,0.0,0.125,1.850585748,0.0,-0.0012207030000004337,-1.0,0.0,0.0,-0.0,0.0,0.0,2.670898164,0.0,0.0,0.0,0.0,0.0,0.0,0.0,0.0,4.0258784940000005,0.0,-0.0012207030000004337,0.0,0.0,0.0,-0.0,0.0,0.0,2.460937248,0.0,-0.0012207029999995456,1.2699999809265137,0.20000000298023224,-0.10000000149011612,-0.0693359375,0.04510498046875,1.00250244140625,29.770000457763672,0.0,-73.0,-0.01177978515625,-2.288818359375E-4,Waiting,0.0,0.0,0.0,0.0,0.0,0.0,0.0,0.0,
1.7781450000000005,0.0,0.0,false,3666608.193494579,,0.0,0.0,0.0,0.0,0.0,0.125,1.850585748,0.0,-0.0012207030000004337,-1.0,0.0,0.0,-0.0,0.0,0.0,2.672118867,0.0,0.0,0.0,0.0,0.0,0.0,0.0,0.0,4.024657791,0.0,-0.0012207030000004337,0.0,0.0,0.0,-0.0,0.0,0.0,2.462157951,0.0,0.0,1.2699999809265137,0.20000000298023224,-0.10000000149011612,-0.07269287109375,0.0450439453125,0.9959716796875,29.770000457763672,0.0,-76.0,-0.0120697021484375,-2.288818359375E-4,Waiting,0.0,0.0,0.0,0.0,0.0,0.0,0.0,0.0,
1.808286,0.0,0.0,false,3667319.6733333333,,0.0,0.0,0.0,0.0,0.0,0.125,1.850585748,0.0,0.0,-1.0,0.0,0.0,-0.0,0.0,0.0,2.670898164,0.0,0.0,0.0,0.0,0.0,0.0,0.0,0.0,4.0258784940000005,0.0,-0.0012207029999995456,0.0,0.0,0.0,-0.0,0.0,0.0,2.462157951,0.0,0.0,1.2799999713897705,0.20000000298023224,-0.09000000357627869,0.0067138671875,0.00103759765625,0.9930419921875,29.770000457763672,0.0,3.0,-0.0128326416015625,-2.288818359375E-4,Waiting,0.0,0.0,0.0,0.0,0.0,0.0,0.0,0.0,
1.8272740000000012,0.0,0.0,false,3667990.361365529,,0.0,0.0,0.0,0.0,0.0,0.125,1.850585748,0.0,0.0,-1.0,0.0,0.0,-0.0,0.0,0.0,2.670898164,0.0,0.0,0.0,0.0,0.0,0.0,0.0,0.0,4.024657791,0.0,-0.0012207029999995456,0.0,0.0,0.0,-0.0,0.0,0.0,2.462157951,0.0,0.0,1.2799999713897705,0.20000000298023224,-0.09000000357627869,0.04345703125,-0.01556396484375,0.98944091796875,29.770000457763672,0.0,40.0,-0.0131988525390625,-2.899169921875E-4,Waiting,0.0,0.0,0.0,0.0,0.0,0.0,0.0,0.0,
1.852227999999999,0.0,0.0,false,3668640.146422629,,0.0,0.0,0.0,0.0,0.0,0.125,1.850585748,0.0,0.0,-1.0,0.0,0.0,-0.0,0.0,0.0,2.672118867,0.0,0.0,0.0,0.0,0.0,0.0,0.0,0.0,4.024657791,0.0,0.0012207029999995456,0.0,0.0,0.0,-0.0,0.0,0.0,2.462157951,0.0,0.0,1.2899999618530273,0.1899999976158142,-0.09000000357627869,0.05926513671875,-0.0263671875,1.01361083984375,29.770000457763672,0.0,55.0,-0.0137176513671875,-5.79833984375E-4,Waiting,0.0,0.0,0.0,0.0,0.0,0.0,0.0,0.0,
1.8737819999999992,0.0,0.0,false,3669244.1961762263,,0.0,0.0,0.0,0.0,0.0,0.125,1.850585748,0.0,0.0,-1.0,0.0,0.0,-0.0,0.0,0.0,2.672118867,0.0,0.0,0.0,0.0,0.0,0.0,0.0,0.0,4.0234370880000005,0.0,0.0012207029999995456,0.0,0.0,0.0,-0.0,0.0,0.0,2.462157951,0.0,0.0,1.2699999809265137,0.18000000715255737,-0.09000000357627869,0.05462646484375,0.0,1.02813720703125,29.770000457763672,0.0,51.0,-0.01385498046875,-7.9345703125E-4,Waiting,0.0,0.0,0.0,0.0,0.0,0.0,0.0,0.0,
1.906298999999999,0.0,0.0,false,3669807.734219269,,0.0,0.0,0.0,0.0,0.0,0.125,1.850585748,0.0,0.0,-1.0,0.0,0.0,-0.0,0.0,0.0,2.670898164,0.0,0.0,0.0,0.0,0.0,0.0,0.0,0.0,4.024657791,0.0,0.0,0.0,0.0,0.0,-0.0,0.0,0.0,2.462157951,0.0,0.0,1.2699999809265137,0.1899999976158142,-0.09000000357627869,-0.00518798828125,0.08428955078125,1.01885986328125,29.770000457763672,0.0,-8.0,-0.0140380859375,-0.00115966796875,Waiting,0.0,0.0,0.0,0.0,0.0,0.0,0.0,0.0,
1.9292750000000014,0.0,0.0,false,3670330.8614107883,,0.0,0.0,0.0,0.0,0.0,0.125,1.850585748,0.0,0.0,-1.0,0.0,0.0,-0.0,0.0,0.0,2.670898164,0.0,0.0,0.0,0.0,0.0,0.0,0.0,0.0,4.0258784940000005,0.0,0.0,0.0,0.0,0.0,-0.0,0.0,0.0,2.462157951,0.0,0.0,1.2699999809265137,0.20000000298023224,-0.10000000149011612,-0.07244873046875,0.05206298828125,0.9970703125,29.770000457763672,0.0,-76.0,-0.0143890380859375,-0.0012664794921875,Waiting,0.0,0.0,0.0,0.0,0.0,0.0,0.0,0.0,
1.9521949999999997,0.0,0.0,false,3670813.6782752904,,0.0,0.0,0.0,0.0,0.0,0.125,1.850585748,0.0,0.0012207030000004337,-1.0,0.0,0.0,-0.0,0.0,0.0,2.672118867,0.0,0.0,0.0,0.0,0.0,0.0,0.0,0.0,4.024657791,0.0,0.0,0.0,0.0,0.0,-0.0,0.0,0.0,2.462157951,0.0,0.0,1.2899999618530273,0.20000000298023224,-0.10000000149011612,-0.02447509765625,0.008544921875,0.991943359375,29.770000457763672,0.0,-27.0,-0.01507568359375,-0.001251220703125,Waiting,0.0,0.0,0.0,0.0,0.0,0.0,0.0,0.0,
1.975209999999999,0.0,0.0,false,3671275.990057995,,0.0,0.0,0.0,0.0,0.0,0.125,1.850585748,0.0,0.0012207030000004337,-1.0,0.0,0.0,-0.0,0.0,0.0,2.670898164,0.0,0.0,0.0,0.0,0.0,0.0,0.0,0.0,4.024657791,0.0,0.0,0.0,0.0,0.0,-0.0,0.0,0.0,2.462157951,0.0,0.0,1.2799999713897705,0.20000000298023224,-0.09000000357627869,0.01953125,-1.8310546875E-4,0.99468994140625,29.770000457763672,0.0,16.0,-0.0154571533203125,-0.00128173828125,Waiting,0.0,0.0,0.0,0.0,0.0,0.0,0.0,0.0,
2.008880000000001,0.0,0.0,false,3671698.158940397,,0.0,0.0,0.0,0.0,0.0,0.125,1.850585748,0.0,-0.0012207030000004337,-1.0,0.0,0.0,-0.0,0.0,0.0,2.672118867,0.0,0.0,0.0,0.0,0.0,0.0,0.0,0.0,4.0283199000000005,0.0,0.0012207030000004337,0.0,0.0,0.0,-0.0,0.0,0.0,2.462157951,0.0,0.0,1.2899999618530273,0.18000000715255737,-0.09000000357627869,0.06378173828125,-0.0267333984375,0.9923095703125,29.770000457763672,0.0,60.0,-0.0160675048828125,-0.00146484375,Waiting,0.0,0.0,0.0,0.0,0.0,0.0,0.0,0.0,
2.0323460000000013,0.0,0.0,false,3672075.1960297767,,0.0,0.0,0.0,0.0,0.0,0.125,1.850585748,0.0,-0.0012207030000004337,-1.0,0.0,0.0,-0.0,0.0,0.0,2.670898164,0.0,0.0,0.0,0.0,0.0,0.0,0.0,0.0,4.024657791,0.0,0.0,0.0,0.0,0.0,-0.0,0.0,0.0,2.462157951,0.0,0.0,1.2699999809265137,0.18000000715255737,-0.10000000149011612,0.04168701171875,0.0169677734375,1.02386474609375,29.75,0.0,38.0,-0.0164031982421875,-0.00189208984375,Waiting,0.0,0.0,0.0,0.0,0.0,0.0,0.0,0.0,
2.0649310000000005,0.0,0.0,false,3672409.1834710743,,0.0,0.0,0.0,0.0,0.0,0.125,1.850585748,0.0,0.0012207030000004337,-1.0,0.0,0.0,-0.0,0.0,0.0,2.670898164,0.0,0.0,0.0,0.0,0.0,0.0,0.0,0.0,4.024657791,0.0,0.0,0.0,0.0,0.0,-0.0,0.0,0.0,2.460937248,0.0,0.0,1.2699999809265137,0.1899999976158142,-0.10000000149011612,-0.020263671875,0.07684326171875,1.0233154296875,29.75,0.0,-23.0,-0.0166015625,-0.0022125244140625,Waiting,0.0,0.0,0.0,0.0,0.0,0.0,0.0,0.0,
2.087938000000002,0.0,0.0,false,3672703.339388935,,0.0,0.0,0.0,0.0,0.0,0.125,1.850585748,0.0,0.0,-1.0,0.0,0.0,-0.0,0.0,0.0,2.672118867,0.0,0.0,0.0,0.0,0.0,0.0,0.0,0.0,4.024657791,0.0,0.0012207029999995456,0.0,0.0,0.0,-0.0,0.0,0.0,2.462157951,0.0,0.0012207029999995456,1.2599999904632568,0.20000000298023224,-0.10000000149011612,-0.07635498046875,0.05352783203125,0.99261474609375,29.75,0.0,-79.0,-0.01702880859375,-0.002288818359375,Waiting,0.0,0.0,0.0,0.0,0.0,0.0,0.0,0.0,
2.1095910000000004,0.0,0.0,false,3672977.386138614,,0.0,0.0,0.0,0.0,0.0,0.125,1.850585748,0.0,0.0,-1.0,0.0,0.0,-0.0,0.0,0.0,2.672118867,0.0,0.0,0.0,0.0,0.0,0.0,0.0,0.0,4.0258784940000005,0.0,0.0012207029999995456,0.0,0.0,0.0,-0.0,0.0,0.0,2.462157951,0.0,0.0012207029999995456,1.2699999809265137,0.20000000298023224,-0.10000000149011612,-0.04815673828125,0.03326416015625,0.98590087890625,29.75,0.0,-51.0,-0.0173797607421875,-0.0022735595703125,Waiting,0.0,0.0,0.0,0.0,0.0,0.0,0.0,0.0,
2.130655999999999,0.0,0.0,false,3673211.7262984337,,0.0,0.0,0.0,0.0,0.0,0.125,1.850585748,0.0,0.0,-1.0,0.0,0.0,-0.0,0.0,0.0,2.672118867,0.0,0.0,0.0,0.0,0.0,0.0,0.0,0.0,4.0258784940000005,0.0,0.0012207029999995456,0.0,0.0,0.0,-0.0,0.0,0.0,2.462157951,0.0,0.0,1.2699999809265137,0.1899999976158142,-0.09000000357627869,0.031494140625,-0.00347900390625,0.99664306640625,29.75,0.0,28.0,-0.018157958984375,-0.0023040771484375,Waiting,0.0,0.0,0.0,0.0,0.0,0.0,0.0,0.0,
2.157831000000002,0.0,0.0,false,3673401.4299835255,,0.0,0.0,0.0,0.0,0.0,0.125,1.850585748,0.0,0.0,-1.0,0.0,0.0,-0.0,0.0,0.0,2.670898164,0.0,0.0,0.0,0.0,0.0,0.0,0.0,0.0,4.024657791,0.0,-0.0012207029999995456,0.0,0.0,0.0,-0.0,0.0,0.0,2.462157951,0.0,0.0,1.2899999618530273,0.18000000715255737,-0.09000000357627869,0.0579833984375,-0.02239990234375,0.99188232421875,29.75,0.0,54.0,-0.01849365234375,-0.00238037109375,Waiting,0.0,0.0,0.0,0.0,0.0,0.0,0.0,0.0,
2.180792000000001,0.0,0.0,false,3673551.670781893,,0.0,0.0,0.0,0.0,0.0,0.125,1.850585748,0.0,0.0,-1.0,0.0,0.0,-0.0,0.0,0.0,2.670898164,0.0,0.0,0.0,0.0,0.0,0.0,0.0,0.0,4.029540603,0.0,-0.0012207029999995456,0.0,0.0,0.0,-0.0,0.0,0.0,2.462157951,0.0,0.0,1.2799999713897705,0.18000000715255737,-0.09000000357627869,0.0640869140625,-0.01312255859375,1.0257568359375,29.75,0.0,60.0,-0.0189056396484375,-0.0027313232421875,Waiting,0.0,0.0,0.0,0.0,0.0,0.0,0.0,0.0,
2.209366000000002,0.0,0.0,false,3673662.5460526315,,0.0,0.0,0.0,0.0,0.0,0.125,1.850585748,0.0,0.0,-1.0,0.0,0.0,-0.0,0.0,0.0,2.672118867,0.0,0.0,0.0,0.0,0.0,0.0,0.0,0.0,4.0258784940000005,0.0,-0.0012207030000004337,0.0,0.0,0.0,-0.0,0.0,0.0,2.462157951,0.0,0.0,1.2699999809265137,0.18000000715255737,-0.09000000357627869,0.00445556640625,0.08380126953125,1.02142333984375,29.75,0.0,0.0,-0.0191192626953125,-0.00311279296875,Waiting,0.0,0.0,0.0,0.0,0.0,0.0,0.0,0.0,
2.2307940000000017,0.0,0.0,false,3673753.695973706,,0.0,0.0,0.0,0.0,0.0,0.125,1.850585748,0.0,0.0,-1.0,0.0,0.0,-0.0,0.0,0.0,2.672118867,0.0,0.0,0.0,0.0,0.0,0.0,0.0,0.0,4.024657791,0.0,-0.0012207030000004337,0.0,0.0,0.0,-0.0,0.0,0.0,2.462157951,0.0,-0.0012207029999995456,1.2599999904632568,0.20000000298023224,-0.09000000357627869,-0.06671142578125,0.05340576171875,0.999267578125,29.75,0.0,-70.0,-0.019439697265625,-0.0032501220703125,Waiting,0.0,0.0,0.0,0.0,0.0,0.0,0.0,0.0,
2.2584360000000014,0.0,0.0,false,3673805.6420361246,,0.0,0.0,0.0,0.0,0.0,0.125,1.850585748,0.0,-0.0012207030000004337,-1.0,0.0,0.0,-0.0,0.0,0.0,2.670898164,0.0,0.0,0.0,0.0,0.0,0.0,0.0,0.0,4.029540603,0.0,0.0,0.0,0.0,0.0,-0.0,0.0,0.0,2.462157951,0.0,-0.0012207029999995456,1.2599999904632568,0.20000000298023224,-0.09000000357627869,-0.07196044921875,0.04473876953125,0.992431640625,29.75,0.0,-75.0,-0.019744873046875,-0.003265380859375,Waiting,0.0,0.0,0.0,0.0,0.0,0.0,0.0,0.0,
2.2807799999999987,0.0,0.0,false,3673818.480721903,,0.0,0.0,0.0,0.0,0.0,0.125,1.850585748,0.0,-0.0012207030000004337,-1.0,0.0,0.0,-0.0,0.0,0.0,2.672118867,0.0,0.0,0.0,0.0,0.0,0.0,0.0,0.0,4.024657791,0.0,0.0,0.0,0.0,0.0,-0.0,0.0,0.0,2.462157951,0.0,-0.0012207029999995456,1.2799999713897705,0.20000000298023224,-0.09000000357627869,0.0087890625,-6.7138671875E-4,0.99029541015625,29.75,0.0,5.0,-0.0205230712890625,-0.0032806396484375,Waiting,0.0,0.0,0.0,0.0,0.0,0.0,0.0,0.0,
2.3122780000000023,0.0,0.0,false,3673787.2655737703,,0.0,0.0,0.0,0.0,0.0,0.125,1.850585748,0.0,0.0,-1.0,0.0,0.0,-0.0,0.0,0.0,2.670898164,0.0,0.0,0.0,0.0,0.0,0.0,0.0,0.0,4.024657791,0.0,0.0024414059999999793,0.0,0.0,0.0,-0.0,0.0,0.0,2.462157951,0.0,0.0,1.2899999618530273,0.18000000715255737,-0.09000000357627869,0.06683349609375,-0.0289306640625,0.99920654296875,29.75,0.0,63.0,-0.0211944580078125,-0.003448486328125,Waiting,0.0,0.0,0.0,0.0,0.0,0.0,0.0,0.0,
2.33941,0.0,0.0,false,3673696.0786240785,,0.0,0.0,0.0,0.0,0.0,0.125,1.850585748,0.0,0.0,-1.0,0.0,0.0,-0.0,0.0,0.0,2.672118867,0.0,0.0,0.0,0.0,0.0,0.0,0.0,0.0,4.029540603,0.0,0.0,0.0,0.0,0.0,-0.0,0.0,0.0,2.462157951,0.0,0.0,1.2699999809265137,0.18000000715255737,-0.09000000357627869,0.0509033203125,0.005615234375,1.019287109375,29.75,0.0,47.0,-0.02154541015625,-0.0038604736328125,Waiting,0.0,0.0,0.0,0.0,0.0,0.0,0.0,0.0,
2.364763999999999,0.0,0.0,false,3673585.5777414073,,0.0,0.0,0.0,0.0,0.0,0.125,1.850585748,0.0,0.0,-1.0,0.0,0.0,-0.0,0.0,0.0,2.672118867,0.0,0.0,0.0,0.0,0.0,0.0,0.0,0.0,4.024657791,0.0,0.0,0.0,0.0,0.0,-0.0,0.0,0.0,2.462157951,0.0,0.0,1.2699999809265137,0.18000000715255737,-0.09000000357627869,0.02130126953125,0.06915283203125,1.02056884765625,29.75,0.0,17.0,-0.021636962890625,-0.0040740966796875,Waiting,0.0,0.0,0.0,0.0,0.0,0.0,0.0,0.0,
2.3867760000000016,0.0,0.0,false,3673436.363041701,,0.0,0.0,0.0,0.0,0.0,0.125,1.850585748,0.0,0.0,-1.0,0.0,0.0,-0.0,0.0,0.0,2.670898164,0.0,0.0,0.0,0.0,0.0,0.0,0.0,0.0,4.024657791,0.0,-0.0024414059999999793,0.0,0.0,0.0,-0.0,0.0,0.0,2.462157951,0.0,0.0012207029999995456,1.2699999809265137,0.20000000298023224,-0.09000000357627869,-0.05224609375,0.060791015625,1.01629638671875,29.75,0.0,-55.0,-0.0218963623046875,-0.0042877197265625,Waiting,0.0,0.0,0.0,0.0,0.0,0.0,0.0,0.0,
2.4110910000000003,0.0,0.0,false,3673248.529411765,,0.0,0.0,0.0,0.0,0.0,0.125,1.850585748,0.0,0.0012207030000004337,-1.0,0.0,0.0,-0.0,0.0,0.0,2.670898164,0.0,0.0,0.0,0.0,0.0,0.0,0.0,0.0,4.0307613060000005,0.0,-0.0024414059999999793,0.0,0.0,0.0,-0.0,0.0,0.0,2.462157951,0.0,0.0012207029999995456,1.2599999904632568,0.20000000298023224,-0.09000000357627869,-0.078125,0.05255126953125,0.99078369140625,29.75,0.0,-81.0,-0.0221405029296875,-0.004302978515625,Waiting,0.0,0.0,0.0,0.0,0.0,0.0,0.0,0.0,
2.4310519999999998,0.0,0.0,false,3673017.149387755,,0.0,0.0,0.0,0.0,0.0,0.125,1.850585748,0.0,0.0012207030000004337,-1.0,0.0,0.0,-0.0,0.0,0.0,2.670898164,0.0,0.0,0.0,0.0,0.0,0.0,0.0,0.0,4.024657791,0.0,-0.0024414059999999793,0.0,0.0,0.0,-0.0,0.0,0.0,2.462157951,0.0,-0.0012207029999995456,1.2799999713897705,0.20000000298023224,-0.09000000357627869,-0.0145263671875,0.0084228515625,0.9954833984375,29.75,0.0,-18.0,-0.0228729248046875,-0.004302978515625,Waiting,0.0,0.0,0.0,0.0,0.0,0.0,0.0,0.0,
2.460827000000001,0.0,0.0,false,3672747.347471452,,0.0,0.0,0.0,0.0,0.0,0.125,1.850585748,0.0,0.0,-1.0,0.0,0.0,-0.0,0.0,0.0,2.672118867,0.0,0.0,0.0,0.0,0.0,0.0,0.0,0.0,4.024657791,0.0,0.0012207030000004337,0.0,0.0,0.0,-0.0,0.0,0.0,2.462157951,0.0,-0.0012207029999995456,1.2699999809265137,0.1899999976158142,-0.09000000357627869,0.03338623046875,-0.00927734375,0.9910888671875,29.75,0.0,30.0,-0.02325439453125,-0.00433349609375,Waiting,0.0,0.0,0.0,0.0,0.0,0.0,0.0,0.0,
2.485333999999999,0.0,0.0,false,3672458.601466993,,0.0,0.0,0.0,0.0,0.0,0.125,1.850585748,0.0,0.0,-1.0,0.0,0.0,-0.0,0.0,0.0,2.672118867,0.0,0.0,0.0,0.0,0.0,0.0,0.0,0.0,4.024657791,0.0,0.0012207030000004337,0.0,0.0,0.0,-0.0,0.0,0.0,2.462157951,0.0,0.0,1.2799999713897705,0.18000000715255737,-0.09000000357627869,0.06256103515625,-0.0321044921875,1.0067138671875,29.75,0.0,59.0,-0.023834228515625,-0.00457763671875,Waiting,0.0,0.0,0.0,0.0,0.0,0.0,0.0,0.0,
2.5089979999999996,0.0,0.0,false,3672131.589576547,,0.0,0.0,0.0,0.0,0.0,0.125,1.850585748,0.0,0.0,-1.0,0.0,0.0,-0.0,0.0,0.0,2.670898164,0.0,0.0,0.0,0.0,0.0,0.0,0.0,0.0,4.024657791,0.0,-0.0012207030000004337,0.0,0.0,0.0,-0.0,0.0,0.0,2.462157951,0.0,0.0,1.2699999809265137,0.18000000715255737,-0.09000000357627869,0.0301513671875,0.04119873046875,1.01788330078125,29.75,0.0,26.0,-0.0241241455078125,-0.0050201416015625,Waiting,0.0,0.0,0.0,0.0,0.0,0.0,0.0,0.0,
2.529933000000001,0.0,0.0,false,3671766.405207486,,0.0,0.0,0.0,0.0,0.0,0.125,1.850585748,0.0,0.0,-1.0,0.0,0.0,-0.0,0.0,0.0,2.670898164,0.0,0.0,0.0,0.0,0.0,0.0,0.0,0.0,4.0258784940000005,0.0,-0.0012207030000004337,0.0,0.0,0.0,-0.0,0.0,0.0,2.462157951,0.0,0.0,1.2699999809265137,0.18000000715255737,-0.09000000357627869,7.9345703125E-4,0.0787353515625,1.0205078125,29.75,0.0,-2.0,-0.0242156982421875,-0.0052032470703125,Waiting,0.0,0.0,0.0,0.0,0.0,0.0,0.0,0.0,
2.553053,0.0,0.0,false,3671363.1414634148,,0.0,0.0,0.0,0.0,0.0,0.125,1.850585748,0.0,0.0,-1.0,0.0,0.0,-0.0,0.0,0.0,2.672118867,0.0,0.0,0.0,0.0,0.0,0.0,0.0,0.0,4.0258784940000005,0.0,0.0024414059999999793,0.0,0.0,0.0,-0.0,0.0,0.0,2.462157951,0.0,0.0012207029999995456,1.2599999904632568,0.20000000298023224,-0.09000000357627869,-0.06903076171875,0.0538330078125,1.00445556640625,29.770000457763672,0.0,-72.0,-0.024566650390625,-0.0053863525390625,Waiting,0.0,0.0,0.0,0.0,0.0,0.0,0.0,0.0,
2.583305,0.0,0.0,false,3670916.8805848905,,0.0,0.0,0.0,0.0,0.0,0.125,1.850585748,0.0,0.0,-1.0,0.0,0.0,-0.0,0.0,0.0,2.670898164,0.0,0.0,0.0,0.0,0.0,0.0,0.0,0.0,4.024657791,0.0,0.0024414059999999793,0.0,0.0,0.0,-0.0,0.0,0.0,2.462157951,0.0,-0.0012207029999995456,1.2699999809265137,0.20000000298023224,-0.09000000357627869,-0.03167724609375,0.01702880859375,0.9871826171875,29.770000457763672,0.0,-35.0,-0.0252532958984375,-0.0054168701171875,Waiting,0.0,0.0,0.0,0.0,0.0,0.0,0.0,0.0,
2.608477999999999,0.0,0.0,false,3670452.025974026,,0.0,0.0,0.0,0.0,0.0,0.125,1.851806451,0.0,-0.0012207030000004337,-1.0,0.0,0.0,-0.0,0.0,0.0,2.670898164,0.0,0.0,0.0,0.0,0.0,0.0,0.0,0.0,4.0234370880000005,0.0,-0.0024414059999999793,0.0,0.0,0.0,-0.0,0.0,0.0,2.462157951,0.0,-0.0012207029999995456,1.2699999809265137,0.1899999976158142,-0.09000000357627869,0.04840087890625,-0.0167236328125,0.99102783203125,29.770000457763672,0.0,45.0,-0.0260162353515625,-0.0055084228515625,Waiting,0.0,0.0,0.0,0.0,0.0,0.0,0.0,0.0,
2.6289969999999996,0.0,0.0,false,3669949.3463098137,,0.0,0.0,0.0,0.0,0.0,0.125,1.850585748,0.0,-0.0012207030000004337,-1.0,0.0,0.0,-0.0,0.0,0.0,2.672118867,0.0,0.0,0.0,0.0,0.0,0.0,0.0,0.0,4.024657791,0.0,-0.0024414059999999793,0.0,0.0,0.0,-0.0,0.0,0.0,2.462157951,0.0,-0.0012207029999995456,1.2799999713897705,0.18000000715255737,-0.09000000357627869,0.066650390625,-0.03302001953125,0.9962158203125,29.770000457763672,0.0,63.0,-0.02630615234375,-0.005645751953125,Waiting,0.0,0.0,0.0,0.0,0.0,0.0,0.0,0.0,
2.652613000000001,0.0,0.0,false,3669408.9335494325,,0.0,0.0,0.0,0.0,0.0,0.125,1.850585748,0.0,0.0,-1.0,0.0,0.0,-0.0,0.0,0.0,2.670898164,0.0,0.0,0.0,0.0,0.0,0.0,0.0,0.0,4.024657791,0.0,0.0012207030000004337,0.0,0.0,0.0,-0.0,0.0,0.0,2.462157951,0.0,0.0,1.2799999713897705,0.1899999976158142,-0.09000000357627869,0.0438232421875,0.01922607421875,1.0152587890625,29.770000457763672,0.0,40.0,-0.0266265869140625,-0.006072998046875,Waiting,0.0,0.0,0.0,0.0,0.0,0.0,0.0,0.0,
2.672362000000001,0.0,0.0,false,3668830.879352227,,0.0,0.0,0.0,0.0,0.0,0.125,1.850585748,0.0,0.0,-1.0,0.0,0.0,-0.0,0.0,0.0,2.672118867,0.0,0.0,0.0,0.0,0.0,0.0,0.0,0.0,4.029540603,0.0,0.0012207030000004337,0.0,0.0,0.0,-0.0,0.0,0.0,2.462157951,0.0,0.0,1.2699999809265137,0.1899999976158142,-0.09000000357627869,0.0111083984375,0.0745849609375,1.01177978515625,29.770000457763672,0.0,7.0,-0.0267333984375,-0.00628662109375,Waiting,0.0,0.0,0.0,0.0,0.0,0.0,0.0,0.0,
2.693815999999999,0.0,0.0,false,3668215.275080906,,0.0,0.0,0.0,0.0,0.0,0.125,1.850585748,0.0,0.0012207030000004337,-1.0,0.0,0.0,-0.0,0.0,0.0,2.670898164,0.0,0.0,0.0,0.0,0.0,0.0,0.0,0.0,4.0283199000000005,0.0,-0.0012207030000004337,0.0,0.0,0.0,-0.0,0.0,0.0,2.462157951,0.0,0.0012207029999995456,1.2599999904632568,0.20000000298023224,-0.10000000149011612,-0.02899169921875,0.0728759765625,1.020751953125,29.770000457763672,0.0,-32.0,-0.0268402099609375,-0.00640869140625,Waiting,0.0,0.0,0.0,0.0,0.0,0.0,0.0,0.0,
2.7236630000000006,0.0,0.0,false,3667576.465642684,,0.0,0.0,0.0,0.0,0.0,0.125,1.850585748,0.0,0.0012207030000004337,-1.0,0.0,0.0,-0.0,0.0,0.0,2.672118867,0.0,0.0,0.0,0.0,0.0,0.0,0.0,0.0,4.024657791,0.0,-0.0012207030000004337,0.0,0.0,0.0,-0.0,0.0,0.0,2.462157951,0.0,0.0012207029999995456,1.2599999904632568,0.20000000298023224,-0.10000000149011612,-0.07275390625,0.05352783203125,0.99725341796875,29.770000457763672,0.0,-76.0,-0.0272979736328125,-0.0065155029296875,Waiting,0.0,0.0,0.0,0.0,0.0,0.0,0.0,0.0,
2.7480220000000006,0.0,0.0,false,3666900.264943457,,0.0,0.0,0.0,0.0,0.0,0.125,1.850585748,0.0,0.0,-1.0,0.0,0.0,-0.0,0.0,0.0,2.670898164,0.0,0.0,0.0,0.0,0.0,0.0,0.0,0.0,4.024657791,0.0,0.0,0.0,0.0,0.0,-0.0,0.0,0.0,2.462157951,0.0,0.0,1.2699999809265137,0.20000000298023224,-0.10000000149011612,-0.0032958984375,0.00762939453125,0.99365234375,29.770000457763672,0.0,-6.0,-0.0280609130859375,-0.0065155029296875,Waiting,0.0,0.0,0.0,0.0,0.0,0.0,0.0,0.0,
2.769009000000002,0.0,0.0,false,3666186.7635189667,,0.0,0.0,0.0,0.0,0.0,0.125,1.850585748,0.0,0.0,-1.0,0.0,0.0,-0.0,0.0,0.0,2.670898164,0.0,0.0,0.0,0.0,0.0,0.0,0.0,0.0,4.0258784940000005,0.0,0.0,0.0,0.0,0.0,-0.0,0.0,0.0,2.462157951,0.0,0.0,1.2699999809265137,0.20000000298023224,-0.09000000357627869,0.0374755859375,-0.0106201171875,0.99078369140625,29.770000457763672,0.0,34.0,-0.0284271240234375,-0.0065460205078125,Waiting,0.0,0.0,0.0,0.0,0.0,0.0,0.0,0.0,
2.7892309999999996,0.0,0.0,false,3665436.0516129034,,0.0,0.0,0.0,0.0,0.0,0.125,1.850585748,0.0,0.0,-1.0,0.0,0.0,-0.0,0.0,0.0,2.670898164,0.0,0.0,0.0,0.0,0.0,0.0,0.0,0.0,4.0283199000000005,0.0,0.0012207030000004337,0.0,0.0,0.0,-0.0,0.0,0.0,2.462157951,0.0,-0.0012207029999995456,1.2799999713897705,0.1899999976158142,-0.10000000149011612,0.06280517578125,-0.03948974609375,1.014404296875,29.770000457763672,0.0,59.0,-0.0289764404296875,-0.0067901611328125,Waiting,0.0,0.0,0.0,0.0,0.0,0.0,0.0,0.0,
2.825630000000001,0.0,0.0,false,3666238.58178888,,0.0,0.0,0.0,0.0,0.0,0.125,1.850585748,0.0,-0.0012207030000004337,-1.0,0.0,0.0,-0.0,0.0,0.0,2.672118867,0.0,0.0,0.0,0.0,0.0,0.0,0.0,0.0,4.029540603,0.0,0.0012207030000004337,0.0,0.0,0.0,-0.0,0.0,0.0,2.462157951,0.0,-0.0012207029999995456,1.2699999809265137,0.1899999976158142,-0.10000000149011612,0.0198974609375,0.05804443359375,1.0159912109375,29.770000457763672,0.0,16.0,-0.0292205810546875,-0.007232666015625,Waiting,0.0,0.0,0.0,0.0,0.0,0.0,0.0,0.0,
2.8491630000000003,0.0,0.0,false,3667016.380032206,,0.0,0.0,0.0,0.0,0.0,0.125,1.850585748,0.0,0.0012207030000004337,-1.0,0.0,0.0,-0.0,0.0,0.0,2.672118867,0.0,0.0,0.0,0.0,0.0,0.0,0.0,0.0,4.024657791,0.0,0.0,0.0,0.0,0.0,-0.0,0.0,0.0,2.462157951,0.0,0.0,1.2599999904632568,0.20000000298023224,-0.10000000149011612,-0.047119140625,0.06317138671875,1.02001953125,29.770000457763672,0.0,-50.0,-0.029266357421875,-0.007476806640625,Waiting,0.0,0.0,0.0,0.0,0.0,0.0,0.0,0.0,
2.8701690000000015,0.0,0.0,false,3667739.494770716,,0.0,0.0,0.0,0.0,0.0,0.125,1.850585748,0.0,0.0012207030000004337,-1.0,0.0,0.0,-0.0,0.0,0.0,2.670898164,0.0,0.0,0.0,0.0,0.0,0.0,0.0,0.0,4.024657791,0.0,0.0,0.0,0.0,0.0,-0.0,0.0,0.0,2.462157951,0.0,0.0,1.2599999904632568,0.20000000298023224,-0.10000000149011612,-0.074951171875,0.05157470703125,0.99658203125,29.770000457763672,0.0,-78.0,-0.0294036865234375,-0.0075225830078125,Waiting,0.0,0.0,0.0,0.0,0.0,0.0,0.0,0.0,
2.8900820000000023,0.0,0.0,false,3668438.0450160773,,0.0,0.0,0.0,0.0,0.0,0.125,1.850585748,0.0,0.0012207030000004337,-1.0,0.0,0.0,-0.0,0.0,0.0,2.672118867,0.0,0.0,0.0,0.0,0.0,0.0,0.0,0.0,4.029540603,0.0,-0.0012207030000004337,0.0,0.0,0.0,-0.0,0.0,0.0,2.462157951,0.0,0.0012207029999995456,1.2699999809265137,0.20000000298023224,-0.10000000149011612,-0.01751708984375,0.009521484375,0.991455078125,29.770000457763672,0.0,-20.0,-0.0299072265625,-0.0075225830078125,Waiting,0.0,0.0,0.0,0.0,0.0,0.0,0.0,0.0,
2.914493000000002,0.0,0.0,false,3669085.217670683,,0.0,0.0,0.0,0.0,0.0,0.125,1.850585748,0.0,0.0,-1.0,0.0,0.0,-0.0,0.0,0.0,2.672118867,0.0,0.0,0.0,0.0,0.0,0.0,0.0,0.0,4.024657791,0.0,-0.0012207030000004337,0.0,0.0,0.0,-0.0,0.0,0.0,2.462157951,0.0,0.0012207029999995456,1.2699999809265137,0.20000000298023224,-0.10000000149011612,0.03106689453125,-0.00408935546875,0.9842529296875,29.770000457763672,0.0,27.0,-0.030181884765625,-0.0075531005859375,Waiting,0.0,0.0,0.0,0.0,0.0,0.0,0.0,0.0,
2.9368250000000007,0.0,0.0,false,3669707.9678972713,,0.0,0.0,0.0,0.0,0.0,0.125,1.850585748,0.0,0.0,-1.0,0.0,0.0,-0.0,0.0,0.0,2.670898164,0.0,0.0,0.0,0.0,0.0,0.0,0.0,0.0,4.0258784940000005,0.0,0.0,0.0,0.0,0.0,-0.0,0.0,0.0,2.462157951,0.0,-0.0012207029999995456,1.2899999618530273,0.1899999976158142,-0.09000000357627869,0.06494140625,-0.03399658203125,1.00640869140625,29.770000457763672,0.0,61.0,-0.030548095703125,-0.007781982421875,Waiting,0.0,0.0,0.0,0.0,0.0,0.0,0.0,0.0,
2.966255000000001,0.0,0.0,false,3670283.0280673616,,0.0,0.0,0.0,0.0,0.0,0.125,1.850585748,0.0,-0.0012207030000004337,-1.0,0.0,0.0,-0.0,0.0,0.0,2.672118867,0.0,0.0,0.0,0.0,0.0,0.0,0.0,0.0,4.024657791,0.0,0.0,0.0,0.0,0.0,-0.0,0.0,0.0,2.462157951,0.0,-0.0012207029999995456,1.2699999809265137,0.1899999976158142,-0.09000000357627869,0.05841064453125,-0.01727294921875,1.0281982421875,29.770000457763672,0.0,54.0,-0.0306243896484375,-0.0079803466796875,Waiting,0.0,0.0,0.0,0.0,0.0,0.0,0.0,0.0,
2.9900580000000008,0.0,0.0,false,3670833.8397435895,,0.0,0.0,0.0,0.0,0.0,0.125,1.850585748,0.0,0.0012207030000004337,-1.0,0.0,0.0,-0.0,0.0,0.0,2.670898164,0.0,0.0,0.0,0.0,0.0,0.0,0.0,0.0,4.024657791,0.0,0.0,0.0,0.0,0.0,-0.0,0.0,0.0,2.460937248,0.0,0.0012207029999995456,1.2699999809265137,0.1899999976158142,-0.09000000357627869,-4.2724609375E-4,0.080810546875,1.01824951171875,29.770000457763672,0.0,-3.0,-0.0306396484375,-0.0083770751953125,Waiting,0.0,0.0,0.0,0.0,0.0,0.0,0.0,0.0,
3.0156900000000024,0.0,0.0,false,3671333.674939952,,0.0,0.0,0.0,0.0,0.0,0.125,1.850585748,0.0,0.0012207030000004337,-1.0,0.0,0.0,-0.0,0.0,0.0,2.670898164,0.0,0.0,0.0,0.0,0.0,0.0,0.0,0.0,4.024657791,0.0,0.0,0.0,0.0,0.0,-0.0,0.0,0.0,2.462157951,0.0,0.0012207029999995456,1.2599999904632568,0.20000000298023224,-0.10000000149011612,-0.06689453125,0.05706787109375,1.00445556640625,29.770000457763672,0.0,-70.0,-0.0307769775390625,-0.0085296630859375,Waiting,0.0,0.0,0.0,0.0,0.0,0.0,0.0,0.0,
3.037804,0.0,0.0,false,3671809.4208,,0.0,0.0,0.0,0.0,0.0,0.125,1.850585748,0.0,0.0012207030000004337,-1.0,0.0,0.0,-0.0,0.0,0.0,2.672118867,0.0,0.0,0.0,0.0,0.0,0.0,0.0,0.0,4.024657791,0.0,0.0,0.0,0.0,0.0,-0.0,0.0,0.0,2.462157951,0.0,-0.0012207029999995456,1.2699999809265137,0.20000000298023224,-0.09000000357627869,-0.06072998046875,0.0498046875,0.99114990234375,29.770000457763672,0.0,-64.0,-0.030975341796875,-0.0085296630859375,Waiting,0.0,0.0,0.0,0.0,0.0,0.0,0.0,0.0,
3.064940000000002,0.0,0.0,false,3672237.864108713,,0.0,0.0,0.0,0.0,0.0,0.125,1.849365045,0.0,-0.0012207030000004337,-1.0,0.0,0.0,-0.0,0.0,0.0,2.672118867,0.0,0.0,0.0,0.0,0.0,0.0,0.0,0.0,4.029540603,0.0,0.0,0.0,0.0,0.0,-0.0,0.0,0.0,2.462157951,0.0,-0.0012207029999995456,1.2799999713897705,0.20000000298023224,-0.09000000357627869,0.0225830078125,0.001953125,0.989501953125,29.790000915527344,0.0,18.0,-0.031524658203125,-0.0085296630859375,Waiting,0.0,0.0,0.0,0.0,0.0,0.0,0.0,0.0,
3.085268,0.0,0.0,false,3672642.3706070287,,0.0,0.0,0.0,0.0,0.0,0.125,1.850585748,0.0,-0.0012207030000004337,-1.0,0.0,0.0,-0.0,0.0,0.0,2.672118867,0.0,0.0,0.0,0.0,0.0,0.0,0.0,0.0,4.024657791,0.0,0.0,0.0,0.0,0.0,-0.0,0.0,0.0,2.462157951,0.0,-0.0012207029999995456,1.2799999713897705,0.20000000298023224,-0.09000000357627869,0.05133056640625,-0.02056884765625,0.98834228515625,29.790000915527344,0.0,47.0,-0.0317535400390625,-0.008575439453125,Waiting,0.0,0.0,0.0,0.0,0.0,0.0,0.0,0.0,
3.1088060000000004,0.0,0.0,false,3673019.530726257,,0.0,0.0,0.0,0.0,0.0,0.125,1.850585748,0.0,0.0,-1.0,0.0,0.0,-0.0,0.0,0.0,2.670898164,0.0,0.0,0.0,0.0,0.0,0.0,0.0,0.0,4.024657791,0.0,0.0,0.0,0.0,0.0,-0.0,0.0,0.0,2.460937248,0.0,0.0,1.2799999713897705,0.1899999976158142,-0.09000000357627869,0.0618896484375,-0.02801513671875,1.03131103515625,29.790000915527344,0.0,58.0,-0.031982421875,-0.0088958740234375,Waiting,0.0,0.0,0.0,0.0,0.0,0.0,0.0,0.0,
3.132327000000001,0.0,0.0,false,3673349.658692185,,0.0,0.0,0.0,0.0,0.0,0.125,1.850585748,0.0,0.0,-1.0,0.0,0.0,-0.0,0.0,0.0,2.672118867,0.0,0.0,0.0,0.0,0.0,0.0,0.0,0.0,4.0258784940000005,0.0,0.0,0.0,0.0,0.0,-0.0,0.0,0.0,2.462157951,0.0,0.0,1.2699999809265137,0.20000000298023224,-0.09000000357627869,0.00640869140625,0.0787353515625,1.0145263671875,29.790000915527344,0.0,2.0,-0.0319976806640625,-0.009307861328125,Waiting,0.0,0.0,0.0,0.0,0.0,0.0,0.0,0.0,
3.1599130000000004,0.0,0.0,false,3673656.06374502,,0.0,0.0,0.0,0.0,0.0,0.125,1.850585748,0.0,0.0,-1.0,0.0,0.0,-0.0,0.0,0.0,2.670898164,0.0,0.0,0.0,0.0,0.0,0.0,0.0,0.0,4.024657791,0.0,0.0,0.0,0.0,0.0,-0.0,0.0,0.0,2.462157951,0.0,0.0,1.2699999809265137,0.20000000298023224,-0.09000000357627869,-0.03558349609375,0.06500244140625,1.0191650390625,29.790000915527344,0.0,-39.0,-0.032012939453125,-0.0094146728515625,Waiting,0.0,0.0,0.0,0.0,0.0,0.0,0.0,0.0,
3.182786,0.0,0.0,false,3673915.6242038216,,0.0,0.0,0.0,0.0,0.0,0.125,1.850585748,0.0,0.0,-1.0,0.0,0.0,-0.0,0.0,0.0,2.672118867,0.0,0.0,0.0,0.0,0.0,0.0,0.0,0.0,4.024657791,0.0,0.0,0.0,0.0,0.0,-0.0,0.0,0.0,2.462157951,0.0,0.0,1.2599999904632568,0.20000000298023224,-0.10000000149011612,-0.067138671875,0.05322265625,0.99114990234375,29.790000915527344,0.0,-70.0,-0.0322723388671875,-0.0095062255859375,Waiting,0.0,0.0,0.0,0.0,0.0,0.0,0.0,0.0,
3.2073600000000004,0.0,0.0,false,3674151.611774065,,0.0,0.0,0.0,0.0,0.0,0.125,1.850585748,0.0,0.0,-1.0,0.0,0.0,-0.0,0.0,0.0,2.670898164,0.0,0.0,0.0,0.0,0.0,0.0,0.0,0.0,4.024657791,0.0,-0.0012207029999995456,0.0,0.0,0.0,-0.0,0.0,0.0,2.462157951,0.0,0.0,1.2699999809265137,0.20000000298023224,-0.09000000357627869,-0.03314208984375,0.024658203125,0.98492431640625,29.790000915527344,0.0,-36.0,-0.03253173828125,-0.009490966796875,Waiting,0.0,0.0,0.0,0.0,0.0,0.0,0.0,0.0,
3.227209999999999,0.0,0.0,false,3674337.386327504,,0.0,0.0,0.0,0.0,0.0,0.125,1.850585748,0.0,0.0,-1.0,0.0,0.0,-0.0,0.0,0.0,2.670898164,0.0,0.0,0.0,0.0,0.0,0.0,0.0,0.0,4.024657791,0.0,-0.0012207029999995456,0.0,0.0,0.0,-0.0,0.0,0.0,2.462157951,0.0,0.0,1.2799999713897705,0.20000000298023224,-0.09000000357627869,0.04559326171875,-0.01605224609375,0.9876708984375,29.790000915527344,0.0,42.0,-0.033050537109375,-0.0095367431640625,Waiting,0.0,0.0,0.0,0.0,0.0,0.0,0.0,0.0,
3.2517890000000005,0.0,0.0,false,3674499.742652899,,0.0,0.0,0.0,0.0,0.0,0.125,1.850585748,0.0,0.0,-1.0,0.0,0.0,-0.0,0.0,0.0,2.67333957,0.0,0.0,0.0,0.0,0.0,0.0,0.0,0.0,4.024657791,0.0,0.0024414059999999793,0.0,0.0,0.0,-0.0,0.0,0.0,2.462157951,0.0,0.0,1.2899999618530273,0.1899999976158142,-0.09000000357627869,0.06231689453125,-0.02862548828125,1.02056884765625,29.790000915527344,0.0,58.0,-0.033294677734375,-0.009796142578125,Waiting,0.0,0.0,0.0,0.0,0.0,0.0,0.0,0.0,
3.2769150000000007,0.0,0.0,false,3674615.631746032,,0.0,0.0,0.0,0.0,0.0,0.125,1.850585748,0.0,0.0,-1.0,0.0,0.0,-0.0,0.0,0.0,2.670898164,0.0,0.0,0.0,0.0,0.0,0.0,0.0,0.0,4.0234370880000005,0.0,0.0024414059999999793,0.0,0.0,0.0,-0.0,0.0,0.0,2.460937248,0.0,0.0,1.2799999713897705,0.1899999976158142,-0.09000000357627869,0.03955078125,0.01861572265625,1.022705078125,29.790000915527344,0.0,36.0,-0.0333251953125,-0.010009765625,Waiting,0.0,0.0,0.0,0.0,0.0,0.0,0.0,0.0,
3.3061830000000008,0.0,0.0,false,3674708.250594766,,0.0,0.0,0.0,0.0,0.0,0.125,1.850585748,0.0,0.0,-1.0,0.0,0.0,-0.0,0.0,0.0,2.670898164,0.0,0.0,0.0,0.0,0.0,0.0,0.0,0.0,4.0234370880000005,0.0,-0.0012207030000004337,0.0,0.0,0.0,-0.0,0.0,0.0,2.462157951,0.0,0.0,1.2699999809265137,0.20000000298023224,-0.10000000149011612,-0.03314208984375,0.068115234375,1.02490234375,29.790000915527344,0.0,-36.0,-0.0333251953125,-0.0102996826171875,Waiting,0.0,0.0,0.0,0.0,0.0,0.0,0.0,0.0,
3.326637999999999,0.0,0.0,false,3674751.030110935,,0.0,0.0,0.0,0.0,0.0,0.125,1.850585748,0.0,0.0,-1.0,0.0,0.0,-0.0,0.0,0.0,2.670898164,0.0,0.0,0.0,0.0,0.0,0.0,0.0,0.0,4.024657791,0.0,-0.0012207030000004337,0.0,0.0,0.0,-0.0,0.0,0.0,2.462157951,0.0,0.0,1.2699999809265137,0.20000000298023224,-0.10000000149011612,-0.06109619140625,0.05419921875,1.00439453125,29.790000915527344,0.0,-64.0,-0.033416748046875,-0.010345458984375,Waiting,0.0,0.0,0.0,0.0,0.0,0.0,0.0,0.0,
3.3502639999999992,0.0,0.0,false,3674747.642121932,,0.0,0.0,0.0,0.0,0.0,0.125,1.850585748,0.0,0.0,-1.0,0.0,0.0,-0.0,0.0,0.0,2.670898164,0.0,0.0,0.0,0.0,0.0,0.0,0.0,0.0,4.024657791,0.0,0.0012207030000004337,0.0,0.0,0.0,-0.0,0.0,0.0,2.462157951,0.0,0.0,1.2799999713897705,0.20000000298023224,-0.10000000149011612,-0.03515625,0.02655029296875,0.98944091796875,29.790000915527344,0.0,-38.0,-0.033843994140625,-0.010345458984375,Waiting,0.0,0.0,0.0,0.0,0.0,0.0,0.0,0.0,
3.370313000000002,0.0,0.0,false,3674721.2278481014,,0.0,0.0,0.0,0.0,0.0,0.125,1.850585748,0.0,0.0,-1.0,0.0,0.0,-0.0,0.0,0.0,2.670898164,0.0,0.0,0.0,0.0,0.0,0.0,0.0,0.0,4.029540603,0.0,0.0012207030000004337,0.0,0.0,0.0,-0.0,0.0,0.0,2.462157951,0.0,0.0,1.2799999713897705,0.1899999976158142,-0.10000000149011612,0.0482177734375,-0.01519775390625,0.989501953125,29.790000915527344,0.0,44.0,-0.03436279296875,-0.0103912353515625,Waiting,0.0,0.0,0.0,0.0,0.0,0.0,0.0,0.0,
3.3921150000000018,0.0,0.0,false,3674648.828458498,,0.0,0.0,0.0,0.0,0.0,0.125,1.850585748,0.0,0.0,-1.0,0.0,0.0,-0.0,0.0,0.0,2.672118867,0.0,0.0,0.0,0.0,0.0,0.0,0.0,0.0,4.029540603,0.0,0.0,0.0,0.0,0.0,-0.0,0.0,0.0,2.462157951,0.0,0.0,1.2899999618530273,0.18000000715255737,-0.09000000357627869,0.06829833984375,-0.0330810546875,0.9912109375,29.790000915527344,0.0,65.0,-0.034515380859375,-0.0104827880859375,Waiting,0.0,0.0,0.0,0.0,0.0,0.0,0.0,0.0,
3.418593000000001,0.0,0.0,false,3674550.1169036333,,0.0,0.0,0.0,0.0,0.0,0.125,1.850585748,0.0,0.0,-1.0,0.0,0.0,-0.0,0.0,0.0,2.670898164,0.0,0.0,0.0,0.0,0.0,0.0,0.0,0.0,4.024657791,0.0,0.0,0.0,0.0,0.0,-0.0,0.0,0.0,2.460937248,0.0,0.0,1.2799999713897705,0.18000000715255737,-0.10000000149011612,0.04150390625,0.023193359375,1.02105712890625,29.790000915527344,0.0,38.0,-0.03460693359375,-0.0108795166015625,Waiting,0.0,0.0,0.0,0.0,0.0,0.0,0.0,0.0,
3.4421549999999987,0.0,0.0,false,3674405.6069455408,,0.0,0.0,0.0,0.0,0.0,0.125,1.850585748,0.0,0.0,-1.0,0.0,0.0,-0.0,0.0,0.0,2.670898164,0.0,0.0,0.0,0.0,0.0,0.0,0.0,0.0,4.0258784940000005,0.0,-0.0012207030000004337,0.0,0.0,0.0,-0.0,0.0,0.0,2.462157951,0.0,0.0,1.2699999809265137,0.1899999976158142,-0.10000000149011612,0.007568359375,0.0777587890625,1.01318359375,29.790000915527344,0.0,4.0,-0.0345916748046875,-0.01104736328125,Waiting,0.0,0.0,0.0,0.0,0.0,0.0,0.0,0.0,
3.466191999999999,0.0,0.0,false,3674238.365930599,,0.0,0.0,0.0,0.0,0.0,0.125,1.850585748,0.0,0.0,-1.0,0.0,0.0,-0.0,0.0,0.0,2.672118867,0.0,0.0,0.0,0.0,0.0,0.0,0.0,0.0,4.024657791,0.0,-0.0012207030000004337,0.0,0.0,0.0,-0.0,0.0,0.0,2.462157951,0.0,0.0,1.2699999809265137,0.20000000298023224,-0.10000000149011612,-0.0633544921875,0.05780029296875,0.99755859375,29.790000915527344,0.0,-66.0,-0.0346832275390625,-0.011199951171875,Waiting,0.0,0.0,0.0,0.0,0.0,0.0,0.0,0.0,
3.4875,0.0,0.0,false,3674025.5066981874,,0.0,0.0,0.0,0.0,0.0,0.125,1.850585748,0.0,0.0,-1.0,0.0,0.0,-0.0,0.0,0.0,2.672118867,0.0,0.0,0.0,0.0,0.0,0.0,0.0,0.0,4.024657791,0.0,-0.0012207030000004337,0.0,0.0,0.0,-0.0,0.0,0.0,2.462157951,0.0,0.0012207029999995456,1.2799999713897705,0.20000000298023224,-0.10000000149011612,-0.03692626953125,0.025146484375,0.98687744140625,29.790000915527344,0.0,-40.0,-0.0351104736328125,-0.011199951171875,Waiting,0.0,0.0,0.0,0.0,0.0,0.0,0.0,0.0,
3.513179,0.0,0.0,false,3673786.5826771655,,0.0,0.0,0.0,0.0,0.0,0.125,1.850585748,0.0,0.0012207030000004337,-1.0,0.0,0.0,-0.0,0.0,0.0,2.672118867,0.0,0.0,0.0,0.0,0.0,0.0,0.0,0.0,4.0258784940000005,0.0,0.0024414059999999793,0.0,0.0,0.0,-0.0,0.0,0.0,2.460937248,0.0,0.0012207029999995456,1.2799999713897705,0.1899999976158142,-0.10000000149011612,0.01318359375,0.005859375,0.9952392578125,29.790000915527344,0.0,9.0,-0.0353851318359375,-0.011199951171875,Waiting,0.0,0.0,0.0,0.0,0.0,0.0,0.0,0.0,
3.540762999999999,0.0,0.0,false,3673502.2250196696,,0.0,0.0,0.0,0.0,0.0,0.125,1.850585748,0.0,-0.0012207030000004337,-1.0,0.0,0.0,-0.0,0.0,0.0,2.670898164,0.0,0.0,0.0,0.0,0.0,0.0,0.0,0.0,4.024657791,0.0,-0.0024414059999999793,0.0,0.0,0.0,-0.0,0.0,0.0,2.462157951,0.0,-0.0012207029999995456,1.2899999618530273,0.18000000715255737,-0.10000000149011612,0.06610107421875,-0.03466796875,0.99310302734375,29.790000915527344,0.0,62.0,-0.035797119140625,-0.011322021484375,Waiting,0.0,0.0,0.0,0.0,0.0,0.0,0.0,0.0,
3.5693189999999997,0.0,0.0,false,3673195.427672956,,0.0,0.0,0.0,0.0,0.0,0.125,1.850585748,0.0,-0.0012207030000004337,-1.0,0.0,0.0,-0.0,0.0,0.0,2.669677461,0.0,0.0,0.0,0.0,0.0,0.0,0.0,0.0,4.0307613060000005,0.0,-0.0024414059999999793,0.0,0.0,0.0,-0.0,0.0,0.0,2.462157951,0.0,-0.0012207029999995456,1.2799999713897705,0.18000000715255737,-0.10000000149011612,0.06317138671875,-0.033203125,1.0252685546875,29.770000457763672,0.0,59.0,-0.0358734130859375,-0.011505126953125,Waiting,0.0,0.0,0.0,0.0,0.0,0.0,0.0,0.0,
3.591994999999999,0.0,0.0,false,3672843.3747054203,,0.0,0.0,0.0,0.0,0.0,0.125,1.850585748,0.0,0.0012207030000004337,-1.0,0.0,0.0,-0.0,0.0,0.0,2.670898164,0.0,0.0,0.0,0.0,0.0,0.0,0.0,0.0,4.0234370880000005,0.0,0.0024414059999999793,0.0,0.0,0.0,-0.0,0.0,0.0,2.462157951,0.0,0.0012207029999995456,1.2699999809265137,0.1899999976158142,-0.10000000149011612,-0.032958984375,0.0682373046875,1.03070068359375,29.770000457763672,0.0,-36.0,-0.0359039306640625,-0.01202392578125,Waiting,0.0,0.0,0.0,0.0,0.0,0.0,0.0,0.0,
3.6252129999999996,0.0,0.0,false,3672465.6138147567,,0.0,0.0,0.0,0.0,0.0,0.125,1.850585748,0.0,0.0012207030000004337,-1.0,0.0,0.0,-0.0,0.0,0.0,2.670898164,0.0,0.0,0.0,0.0,0.0,0.0,0.0,0.0,4.0258784940000005,0.0,0.0024414059999999793,0.0,0.0,0.0,-0.0,0.0,0.0,2.462157951,0.0,0.0012207029999995456,1.2699999809265137,0.20000000298023224,-0.10000000149011612,-0.06365966796875,0.05877685546875,1.00347900390625,29.770000457763672,0.0,-67.0,-0.0359954833984375,-0.0120849609375,Waiting,0.0,0.0,0.0,0.0,0.0,0.0,0.0,0.0,
3.650667000000001,0.0,0.0,false,3672042.779607843,,0.0,0.0,0.0,0.0,0.0,0.125,1.850585748,0.0,0.0,-1.0,0.0,0.0,-0.0,0.0,0.0,2.672118867,0.0,0.0,0.0,0.0,0.0,0.0,0.0,0.0,4.024657791,0.0,-0.0024414059999999793,0.0,0.0,0.0,-0.0,0.0,0.0,2.462157951,0.0,0.0,1.2899999618530273,0.1899999976158142,-0.10000000149011612,0.01361083984375,0.012451171875,0.993408203125,29.770000457763672,0.0,10.0,-0.0366973876953125,-0.0120849609375,Waiting,0.0,0.0,0.0,0.0,0.0,0.0,0.0,0.0,
3.6751810000000007,0.0,0.0,false,3671597.793103448,,0.0,0.0,0.0,0.0,0.0,0.125,1.850585748,0.0,0.0,-1.0,0.0,0.0,-0.0,0.0,0.0,2.670898164,0.0,0.0,0.0,0.0,0.0,0.0,0.0,0.0,4.024657791,0.0,-0.0024414059999999793,0.0,0.0,0.0,-0.0,0.0,0.0,2.462157951,0.0,0.0,1.2899999618530273,0.18000000715255737,-0.10000000149011612,0.050537109375,-0.01318359375,0.992431640625,29.770000457763672,0.0,47.0,-0.03692626953125,-0.012115478515625,Waiting,0.0,0.0,0.0,0.0,0.0,0.0,0.0,0.0,
3.7016980000000004,0.0,0.0,false,3671130.7063429914,,0.0,0.0,0.0,0.0,0.0,0.125,1.850585748,0.0,0.0,-1.0,0.0,0.0,-0.0,0.0,0.0,2.672118867,0.0,0.0,0.0,0.0,0.0,0.0,0.0,0.0,4.0234370880000005,0.0,0.0012207030000004337,0.0,0.0,0.0,-0.0,0.0,0.0,2.462157951,0.0,-0.0012207029999995456,1.2899999618530273,0.18000000715255737,-0.10000000149011612,0.06329345703125,-0.03082275390625,1.02752685546875,29.770000457763672,0.0,60.0,-0.03717041015625,-0.0123748779296875,Waiting,0.0,0.0,0.0,0.0,0.0,0.0,0.0,0.0,
3.7252340000000004,0.0,0.0,false,3670615.3928012517,,0.0,0.0,0.0,0.0,0.0,0.125,1.850585748,0.0,0.0,-1.0,0.0,0.0,-0.0,0.0,0.0,2.670898164,0.0,0.0,0.0,0.0,0.0,0.0,0.0,0.0,4.029540603,0.0,0.0012207030000004337,0.0,0.0,0.0,-0.0,0.0,0.0,2.462157951,0.0,-0.0012207029999995456,1.2799999713897705,0.18000000715255737,-0.10000000149011612,0.03717041015625,0.0185546875,1.020751953125,29.770000457763672,0.0,33.0,-0.03717041015625,-0.0125885009765625,Waiting,0.0,0.0,0.0,0.0,0.0,0.0,0.0,0.0,
