Time,ClimberA1,ClimberA2,CameraExists,HeapSpace,LoopTime,FRpos,FRCurrent,FRspeed,FRsetpoint,FRApos,FRACurrent,FREncpos,FREncSetpoint,FREncSpeed,FLpos,FLCurrent,FLspeed,FLsetpoint,FLApos,FLACurrent,FLEncpos,FLEncSetpoint,FLEncSpeed,BRpos,BRCurrent,BRspeed,BRsetpoint,BRApos,BRACurrent,BREncpos,BREncSetpoint,BREncSpeed,BLpos,BLCurrent,BLspeed,BLsetpoint,BLApos,BLACurrent,BLEncpos,BLEncSetpoint,BLEncSpeed,navx_Pitch,navx_Roll,navx_Yaw,navx_XAcc,navx_YAcc,navx_ZAcc,navx_Temp,navx_Bar,navx_Alt,navx_XDis,navx_YDis,GearPlacerState,ShootOutputV,ShootOutputCurrent,ShootEncPos,ShootEncVelocity,ShootSpeed,ShootSetpoint,CarouselSetpoint,CarouselCurrent,
0.40915200000000185,0.0,0.0,false,4547645.656050956,,-1.0,0.0,0.0,0.0,0.0,0.0,4.822997553,0.0,0.0,0.0,0.0,0.0,-0.0,0.0,0.0,2.205810321,0.0,0.0,0.0,0.0,0.0,0.0,0.0,0.0,3.4741207380000003,0.0,0.0,0.0,0.0,0.0,-0.0,0.0,0.0,3.017577816,0.0,0.0,1.2999999523162842,0.25,0.10999999940395355,-0.0048828125,0.04632568359375,1.02069091796875,27.860000610351562,0.0,-9.0,-0.0059051513671875,6.866455078125E-4,Waiting,0.0,0.0,0.0,0.0,0.0,0.0,0.0,0.0,
0.4420010000000002,0.0,0.0,false,4549114.082539682,,-1.0,0.0,0.0,0.0,0.0,0.0,4.827880365,0.0,2.9882182560000006,0.0,0.0,0.0,-0.0,0.0,0.0,2.205810321,0.0,4.454810321,0.0,0.0,0.0,0.0,0.0,0.0,3.488769174,0.0,4.398120737999999,0.0,0.0,0.0,-0.0,0.0,1.5,3.017577816,0.0,0.547577816,1.2999999523162842,0.23999999463558197,0.10999999940395355,0.0355224609375,0.0455322265625,1.01416015625,27.860000610351562,0.0,31.0,-0.006866455078125,8.544921875E-4,Waiting,0.0,0.0,0.0,0.0,0.0,0.0,0.0,0.0,
0.46583100000000194,0.0,0.0,false,4550479.3670886075,,-1.0,0.0,0.0,0.0,0.0,5.75,0.057373041,0.0,2.9882182560000006,0.0,0.0,0.0,-0.0,0.0,1.5,2.283935313,0.0,4.454810321,0.0,0.0,0.0,0.0,0.0,2.0,3.5900875230000002,0.0,4.398120737999999,0.0,0.0,0.0,-0.0,0.0,2.25,2.937011418,0.0,-0.0012207029999999897,1.2799999713897705,0.23999999463558197,0.11999999731779099,-0.00933837890625,0.048095703125,0.98553466796875,27.8700008392334,0.0,-13.0,-0.0076751708984375,0.001129150390625,Waiting,0.0,0.0,0.0,0.0,0.0,0.0,0.0,0.0,
0.49819300000000294,0.0,0.0,false,4551631.394321767,,-1.0,0.0,0.0,0.0,0.0,7.625,0.285644502,0.0,0.10009764600000004,0.0,0.0,0.0,-0.0,0.0,1.75,2.395019286,0.0,0.014648435999999876,0.0,0.0,0.0,0.0,0.0,2.25,3.71093712,0.0,0.04150390200000054,0.0,0.0,0.0,-0.0,0.0,2.625,2.833251663,0.0,-0.0012207029999999897,1.2799999713897705,0.23000000417232513,0.15000000596046448,0.06512451171875,0.0150146484375,1.03466796875,27.8700008392334,0.0,60.0,-0.0076446533203125,0.00146484375,Waiting,0.0,0.0,0.0,0.0,0.0,0.0,0.0,0.0,
0.522461000000003,0.0,0.0,false,4552682.918238994,,-5.0,0.0,-7.5,0.0,0.0,2.75,0.47485346700000003,0.0,0.10009764600000004,0.0,0.0,0.0,-0.0,0.0,1.0,2.512206774,0.0,0.21850583700000037,0.0,0.0,0.0,0.0,0.0,0.375,3.8403316380000003,0.0,0.2343749759999998,0.0,0.0,0.0,-0.0,0.0,0.75,2.70996066,0.0,-0.211181619,1.3200000524520874,0.23999999463558197,0.20000000298023224,0.083984375,0.04132080078125,1.029296875,27.8700008392334,0.0,79.0,-0.007293701171875,0.001983642578125,Waiting,0.0,0.0,0.0,0.0,0.0,0.0,0.0,0.0,
0.5598250000000007,0.0,0.0,false,4553634.833855799,,-5.0,0.0,-37.5,0.0,0.0,1.875,0.766601484,0.0,-4.521483912,0.0,0.0,0.0,-0.0,0.0,0.375,2.613525123,0.0,0.21850583700000037,0.0,0.0,0.0,0.0,0.0,0.125,3.9367671750000004,0.0,0.2343749759999998,0.0,0.0,0.0,-0.0,0.0,0.375,2.5903317660000003,0.0,-0.13793943900000016,1.3300000429153442,0.25,0.25,0.0274658203125,0.0408935546875,0.99700927734375,27.8700008392334,0.0,23.0,-0.0060272216796875,0.0030670166015625,Waiting,0.0,0.0,0.0,0.0,0.0,0.0,0.0,0.0,
0.6028919999999999,0.0,0.0,false,4554488.075,,-5.0,0.0,-45.0,0.0,0.0,1.875,1.096191294,0.0,0.2770995809999999,0.0,0.0,0.0,-0.0,0.0,0.125,2.66113254,0.0,0.13305662699999932,0.0,0.0,0.0,0.0,0.0,0.125,3.970946859,0.0,0.1330566270000002,0.0,0.0,0.0,-0.0,0.0,0.0,2.550048567,0.0,-0.13793943900000016,1.309999942779541,0.23999999463558197,0.25,0.03045654296875,-0.0084228515625,1.00799560546875,27.8700008392334,0.0,25.0,-0.004852294921875,0.0037384033203125,Waiting,0.0,0.0,0.0,0.0,0.0,0.0,0.0,0.0,
0.6275220000000008,0.0,0.0,false,4555226.2679127725,,-11.0,0.0,-45.0,0.0,0.0,1.875,1.3476561120000001,0.0,0.5419921319999998,0.0,0.0,0.0,-0.0,0.0,0.0,2.672118867,0.0,0.09399413099999965,-2.0,0.0,-7.5,0.0,0.0,0.125,3.970946859,0.0,0.09277342799999921,0.0,0.0,0.0,-0.0,0.0,0.0,2.5305173190000003,0.0,-0.12207029999999985,1.2799999713897705,0.23000000417232513,0.27000001072883606,0.0123291015625,0.01031494140625,1.0313720703125,27.8700008392334,0.0,7.0,-0.0034942626953125,0.004150390625,Waiting,0.0,0.0,0.0,0.0,0.0,0.0,0.0,0.0,
0.6595010000000002,0.0,0.0,false,4555775.552795031,,-11.0,0.0,-37.5,0.0,0.0,1.125,1.53808578,0.0,0.5419921319999998,0.0,0.0,0.0,-0.0,0.0,0.0,2.670898164,0.0,0.09399413099999965,-2.0,0.0,-7.5,0.0,0.0,0.0,3.981933186,0.0,0.09277342799999921,0.0,0.0,0.0,-0.0,0.0,0.0,2.525634507,0.0,-0.12207029999999985,1.25,0.23000000417232513,0.30000001192092896,0.044189453125,-0.02166748046875,1.0108642578125,27.8700008392334,0.0,39.0,-0.0020599365234375,0.0043792724609375,Waiting,0.0,0.0,0.0,0.0,0.0,0.0,0.0,0.0,
0.6845730000000003,0.0,0.0,false,4556229.47368421,,-11.0,0.0,-30.0,0.0,0.0,0.625,1.676025219,0.0,0.38452144499999985,0.0,0.0,0.0,-0.0,0.0,0.0,2.662353243,0.0,0.0,-2.0,0.0,-7.5,0.0,0.0,0.0,3.980712483,0.0,0.004882811999999959,0.0,0.0,0.0,-0.0,0.0,0.0,2.5268552100000004,0.0,-0.01953124800000028,1.2599999904632568,0.23000000417232513,0.3199999928474426,0.017333984375,0.0172119140625,1.0242919921875,27.8700008392334,0.0,13.0,-4.8828125E-4,0.004425048828125,Waiting,0.0,0.0,0.0,0.0,0.0,0.0,0.0,0.0,
0.714456000000002,0.0,0.0,false,4556589.012345679,,-11.0,0.0,-22.5,0.0,0.0,0.25,1.7871091920000002,0.0,0.38452144499999985,0.0,0.0,0.0,-0.0,0.0,0.0,2.652587619,0.0,0.0,-2.0,0.0,-7.5,0.0,0.0,0.0,3.981933186,0.0,0.004882811999999959,0.0,0.0,0.0,-0.0,0.0,0.0,2.5268552100000004,0.0,-0.01953124800000028,1.2799999713897705,0.25,0.33000001311302185,0.01104736328125,0.02154541015625,1.000244140625,27.8700008392334,0.0,6.0,-4.8828125E-4,0.004425048828125,Waiting,0.0,0.0,0.0,0.0,0.0,0.0,0.0,0.0,
0.7424910000000018,0.0,0.0,false,4556855.089230769,,-11.0,0.0,-22.5,0.0,0.0,0.25,1.826171688,0.0,0.14038084500000014,0.0,0.0,0.0,-0.0,0.0,0.0,2.64892551,0.0,-0.009765623999999917,-2.0,0.0,0.0,0.0,0.0,0.0,3.980712483,0.0,0.0,0.0,0.0,0.0,-0.0,0.0,0.0,2.525634507,0.0,0.0,1.3200000524520874,0.25999999046325684,0.3199999928474426,-0.02154541015625,0.02313232421875,0.99981689453125,27.8700008392334,0.0,-26.0,-5.4931640625E-4,0.004425048828125,Waiting,0.0,0.0,0.0,0.0,0.0,0.0,0.0,0.0,
0.7728209999999999,0.0,0.0,false,4557011.509202454,,-13.0,0.0,-7.5,0.0,0.0,0.125,1.8408201240000002,0.0,0.14038084500000014,0.0,0.0,0.0,-0.0,0.0,0.0,2.64892551,0.0,-0.009765623999999917,-2.0,0.0,0.0,0.0,0.0,0.0,3.981933186,0.0,0.0,0.0,0.0,0.0,-0.0,0.0,0.0,2.525634507,0.0,0.0,1.3200000524520874,0.25999999046325684,0.30000001192092896,-0.04302978515625,0.02947998046875,0.99853515625,27.8700008392334,0.0,-47.0,-8.23974609375E-4,0.004425048828125,Waiting,0.0,0.0,0.0,0.0,0.0,0.0,0.0,0.0,
0.8031080000000002,0.0,0.0,false,4557076.281345566,,-13.0,0.0,-7.5,0.0,0.0,0.125,1.8408201240000002,0.0,0.09399413100000054,0.0,0.0,0.0,-0.0,0.0,0.0,2.64892551,0.0,-0.009765623999999917,-2.0,0.0,0.0,0.0,0.0,0.0,3.980712483,0.0,0.0,0.0,0.0,0.0,-0.0,0.0,0.0,2.515868883,0.0,0.0,1.2899999618530273,0.25999999046325684,0.30000001192092896,-0.04913330078125,0.0196533203125,1.0191650390625,27.8700008392334,0.0,-53.0,-0.0013885498046875,0.004364013671875,Waiting,0.0,0.0,0.0,0.0,0.0,0.0,0.0,0.0,
0.8497630000000026,0.0,0.0,false,4556959.8292682925,,-13.0,0.0,0.0,0.0,0.0,0.0,1.835937312,0.0,0.0,0.0,0.0,0.0,-0.0,0.0,0.0,2.647704807,0.0,0.0,-2.0,0.0,0.0,0.0,0.0,0.0,3.980712483,0.0,0.0,0.0,0.0,0.0,-0.0,0.0,0.0,2.5268552100000004,0.0,0.0,1.2699999809265137,0.23000000417232513,0.30000001192092896,-0.03143310546875,0.05645751953125,1.01812744140625,27.8700008392334,0.0,-35.0,-0.0027618408203125,0.0043487548828125,Waiting,0.0,0.0,0.0,0.0,0.0,0.0,0.0,0.0,
0.8736270000000004,0.0,0.0,false,4556753.945288754,,-13.0,0.0,0.0,0.0,0.0,0.0,1.8310545,0.0,0.0,0.0,0.0,0.0,-0.0,0.0,0.0,2.647704807,0.0,0.0,-2.0,0.0,0.0,0.0,0.0,0.0,3.980712483,0.0,0.0,0.0,0.0,0.0,-0.0,0.0,0.0,2.5268552100000004,0.0,0.0,1.2799999713897705,0.23000000417232513,0.3100000023841858,0.0103759765625,0.0604248046875,1.0263671875,27.8700008392334,0.0,6.0,-0.0038604736328125,0.0045623779296875,Waiting,0.0,0.0,0.0,0.0,0.0,0.0,0.0,0.0,
0.901550000000003,0.0,0.0,false,4556442.569696969,,-13.0,0.0,0.0,0.0,0.0,0.0,1.8310545,0.0,-0.004882812000000847,0.0,0.0,0.0,-0.0,0.0,0.0,2.647704807,0.0,0.0012207030000004337,-2.0,0.0,0.0,0.0,0.0,0.0,3.981933186,0.0,0.0,0.0,0.0,0.0,-0.0,0.0,0.0,2.5268552100000004,0.0,0.0,1.2999999523162842,0.23999999463558197,0.3100000023841858,0.01947021484375,0.042236328125,1.01568603515625,27.8700008392334,0.0,15.0,-0.0038604736328125,0.0049591064453125,Waiting,0.0,0.0,0.0,0.0,0.0,0.0,0.0,0.0,
0.9243830000000016,0.0,0.0,false,4556043.480362537,,-13.0,0.0,0.0,0.0,0.0,0.0,1.8310545,0.0,-0.004882812000000847,0.0,0.0,0.0,-0.0,0.0,0.0,2.647704807,0.0,0.0,-2.0,0.0,0.0,0.0,0.0,0.0,3.981933186,0.0,0.0,0.0,0.0,0.0,-0.0,0.0,0.0,2.5268552100000004,0.0,0.0,1.2899999618530273,0.23999999463558197,0.3100000023841858,0.02899169921875,0.02764892578125,1.00506591796875,27.8700008392334,0.0,24.0,-0.0037689208984375,0.0049591064453125,Waiting,0.0,0.0,0.0,0.0,0.0,0.0,0.0,0.0,
0.9572000000000007,0.0,0.0,false,4555557.421686747,,-13.0,0.0,0.0,0.0,0.0,0.0,1.8310545,0.0,-0.006103514999999504,0.0,0.0,0.0,-0.0,0.0,0.0,2.647704807,0.0,0.0,-2.0,0.0,0.0,0.0,0.0,0.0,3.983153889,0.0,0.0,0.0,0.0,0.0,-0.0,0.0,0.0,2.525634507,0.0,0.0,1.2799999713897705,0.23999999463558197,0.3100000023841858,0.0333251953125,0.0145263671875,1.00518798828125,27.8700008392334,0.0,28.0,-0.003662109375,0.0049591064453125,Waiting,0.0,0.0,0.0,0.0,0.0,0.0,0.0,0.0,
0.9941900000000023,0.0,0.0,false,4554985.225225225,,-13.0,0.0,0.0,0.0,0.0,0.0,1.8310545,0.0,0.0,0.0,0.0,0.0,-0.0,0.0,0.0,2.658691134,0.0,-0.0012207030000004337,-2.0,0.0,0.0,0.0,0.0,0.0,3.981933186,0.0,0.0,0.0,0.0,0.0,-0.0,0.0,0.0,2.5292966160000003,0.0,0.0,1.2799999713897705,0.23000000417232513,0.3100000023841858,0.05609130859375,0.03424072265625,0.9930419921875,27.889999389648438,0.0,52.0,-0.0030364990234375,0.0049591064453125,Waiting,0.0,0.0,0.0,0.0,0.0,0.0,0.0,0.0,
1.020242000000002,0.0,0.0,false,4554222.22754491,,-13.0,0.0,0.0,0.0,0.0,0.0,1.8310545,0.0,0.0,0.0,0.0,0.0,-0.0,0.0,0.0,2.647704807,0.0,-0.0012207030000004337,-2.0,0.0,0.0,0.0,0.0,0.0,3.980712483,0.0,0.0,0.0,0.0,0.0,-0.0,0.0,0.0,2.5268552100000004,0.0,0.0,1.309999942779541,0.2199999988079071,0.3100000023841858,0.06109619140625,0.02655029296875,1.0191650390625,27.889999389648438,0.0,57.0,-0.00225830078125,0.0049591064453125,Waiting,0.0,0.0,0.0,0.0,0.0,0.0,0.0,0.0,
1.0445650000000024,0.0,0.0,false,4553375.211940299,,-13.0,0.0,0.0,0.0,0.0,0.0,1.8310545,0.0,0.0012207029999995456,0.0,0.0,0.0,-0.0,0.0,0.0,2.647704807,0.0,0.0,-2.0,0.0,0.0,0.0,0.0,0.0,3.97949178,0.0,0.0,0.0,0.0,0.0,-0.0,0.0,0.0,2.5268552100000004,0.0,0.0,1.309999942779541,0.23000000417232513,0.3100000023841858,0.058837890625,0.00897216796875,1.0118408203125,27.889999389648438,0.0,54.0,-0.0017547607421875,0.0049591064453125,Waiting,0.0,0.0,0.0,0.0,0.0,0.0,0.0,0.0,
1.070247000000003,0.0,0.0,false,4552444.976190476,,-13.0,0.0,0.0,0.0,0.0,0.0,1.8310545,0.0,0.0012207029999995456,0.0,0.0,0.0,-0.0,0.0,0.0,2.647704807,0.0,0.0,-2.0,0.0,0.0,0.0,0.0,0.0,3.981933186,0.0,0.0,0.0,0.0,0.0,-0.0,0.0,0.0,2.5329587250000003,0.0,0.0,1.2999999523162842,0.23999999463558197,0.3100000023841858,0.0546875,-0.01141357421875,1.00653076171875,27.889999389648438,0.0,50.0,1.983642578125E-4,0.0047760009765625,Waiting,0.0,0.0,0.0,0.0,0.0,0.0,0.0,0.0,
1.120581000000002,0.0,0.0,false,4551432.261127597,,-13.0,0.0,0.0,0.0,0.0,0.0,1.832275203,0.0,0.0,0.0,0.0,0.0,-0.0,0.0,0.0,2.6318356680000004,0.0,0.0,-2.0,0.0,0.0,0.0,0.0,0.0,3.980712483,0.0,0.0,0.0,0.0,0.0,-0.0,0.0,0.0,2.5280759130000003,0.0,0.0,1.2899999618530273,0.23999999463558197,0.3100000023841858,0.029296875,-0.00732421875,1.00164794921875,27.889999389648438,0.0,14.0,0.002685546875,0.0041961669921875,Waiting,0.0,0.0,0.0,0.0,0.0,0.0,0.0,0.0,
1.148482,0.0,0.0,false,4550321.325443787,,-13.0,0.0,0.0,0.0,0.0,0.0,1.8310545,0.0,0.0,0.0,0.0,0.0,-0.0,0.0,0.0,2.64892551,0.0,0.0012207030000004337,-2.0,0.0,0.0,0.0,0.0,0.0,3.980712483,0.0,0.0,0.0,0.0,0.0,-0.0,0.0,0.0,2.5268552100000004,0.0,0.0,1.2899999618530273,0.23999999463558197,0.3100000023841858,0.01251220703125,0.00384521484375,0.98834228515625,27.889999389648438,0.0,8.0,0.002685546875,0.003936767578125,Waiting,0.0,0.0,0.0,0.0,0.0,0.0,0.0,0.0,
1.1802080000000024,0.0,0.0,false,4549129.463126844,,-13.0,0.0,0.0,0.0,0.0,0.0,1.8310545,0.0,0.0,0.0,0.0,0.0,-0.0,0.0,0.0,2.6464841040000002,0.0,-0.0012207030000004337,-2.0,0.0,0.0,0.0,0.0,0.0,3.980712483,0.0,0.0,0.0,0.0,0.0,-0.0,0.0,0.0,2.525634507,0.0,0.0,1.2999999523162842,0.23999999463558197,0.3100000023841858,-0.005859375,0.0074462890625,0.9967041015625,27.889999389648438,0.0,-10.0,0.002685546875,0.003936767578125,Waiting,0.0,0.0,0.0,0.0,0.0,0.0,0.0,0.0,
1.2117990000000027,0.0,0.0,false,4547770.164705883,,-13.0,0.0,0.0,0.0,0.0,0.0,1.827392391,0.0,0.0,0.0,0.0,0.0,-0.0,0.0,0.0,2.6464841040000002,0.0,-0.0012207030000004337,-2.0,0.0,0.0,0.0,0.0,0.0,3.980712483,0.0,0.0,0.0,0.0,0.0,-0.0,0.0,0.0,2.5268552100000004,0.0,0.0,1.2999999523162842,0.23999999463558197,0.3100000023841858,-0.00970458984375,0.00189208984375,0.98553466796875,27.889999389648438,0.0,-23.0,0.0026702880859375,0.0038604736328125,Waiting,0.0,0.0,0.0,0.0,0.0,0.0,0.0,0.0,
1.2430920000000005,0.0,0.0,false,4546331.870967742,,-13.0,0.0,0.0,0.0,0.0,0.0,1.8310545,0.0,0.0,0.0,0.0,0.0,-0.0,0.0,0.0,2.647704807,0.0,0.0012207030000004337,-2.0,0.0,0.0,0.0,0.0,0.0,3.980712483,0.0,0.0,0.0,0.0,0.0,-0.0,0.0,0.0,2.525634507,0.0,0.0,1.2999999523162842,0.25,0.3100000023841858,-0.0372314453125,0.0157470703125,1.0078125,27.889999389648438,0.0,-41.0,0.0024871826171875,0.0037841796875,Waiting,0.0,0.0,0.0,0.0,0.0,0.0,0.0,0.0,
1.2636270000000005,0.0,0.0,false,4544799.01754386,,-13.0,0.0,0.0,0.0,0.0,0.0,1.8371580150000002,0.0,0.0,0.0,0.0,0.0,-0.0,0.0,0.0,2.647704807,0.0,0.0012207030000004337,-2.0,0.0,0.0,0.0,0.0,0.0,3.980712483,0.0,0.0,0.0,0.0,0.0,-0.0,0.0,0.0,2.525634507,0.0,0.0,1.2999999523162842,0.25,0.3100000023841858,-0.04302978515625,0.0208740234375,0.98974609375,27.889999389648438,0.0,-47.0,0.0023040771484375,0.0037841796875,Waiting,0.0,0.0,0.0,0.0,0.0,0.0,0.0,0.0,
1.2916010000000024,0.0,0.0,false,4543188.641399417,,-13.0,0.0,0.0,0.0,0.0,0.0,1.8310545,0.0,-0.0012207029999995456,0.0,0.0,0.0,-0.0,0.0,0.0,2.647704807,0.0,0.0,-2.0,0.0,0.0,0.0,0.0,0.0,3.980712483,0.0,0.0,0.0,0.0,0.0,-0.0,0.0,0.0,2.5268552100000004,0.0,0.0,1.309999942779541,0.23999999463558197,0.3100000023841858,-0.05096435546875,0.02685546875,1.0142822265625,27.889999389648438,0.0,-55.0,0.001739501953125,0.0037841796875,Waiting,0.0,0.0,0.0,0.0,0.0,0.0,0.0,0.0,
1.3143990000000012,0.0,0.0,false,4541501.372093023,,-13.0,0.0,0.0,0.0,0.0,0.0,1.8310545,0.0,-0.0012207029999995456,0.0,0.0,0.0,-0.0,0.0,0.0,2.6440426980000002,0.0,0.0,-2.0,0.0,0.0,0.0,0.0,0.0,3.978271077,0.0,0.0,0.0,0.0,0.0,-0.0,0.0,0.0,2.5268552100000004,0.0,0.0,1.309999942779541,0.23999999463558197,0.3100000023841858,-0.05169677734375,0.02227783203125,1.00689697265625,27.889999389648438,0.0,-56.0,0.0013427734375,0.0037841796875,Waiting,0.0,0.0,0.0,0.0,0.0,0.0,0.0,0.0,
1.3414890000000015,0.0,0.0,false,4539737.924637681,,-13.0,0.0,0.0,0.0,0.0,0.0,1.8310545,0.0,0.0012207029999995456,0.0,0.0,0.0,-0.0,0.0,0.0,2.647704807,0.0,-0.0012207030000004337,-2.0,0.0,0.0,0.0,0.0,0.0,3.981933186,0.0,0.0,0.0,0.0,0.0,-0.0,0.0,0.0,2.5268552100000004,0.0,0.0,1.2999999523162842,0.23999999463558197,0.3199999928474426,-0.05804443359375,0.02783203125,1.00445556640625,27.889999389648438,0.0,-62.0,3.0517578125E-4,0.0037841796875,Waiting,0.0,0.0,0.0,0.0,0.0,0.0,0.0,0.0,
1.3624590000000025,0.0,0.0,false,4537775.121387283,,-13.0,0.0,0.0,0.0,0.0,0.0,1.8310545,0.0,0.0012207029999995456,0.0,0.0,0.0,-0.0,0.0,0.0,2.6464841040000002,0.0,-0.0012207030000004337,-2.0,0.0,0.0,0.0,0.0,0.0,3.974608968,0.0,0.0,0.0,0.0,0.0,-0.0,0.0,0.0,2.521972398,0.0,0.0,1.2999999523162842,0.23999999463558197,0.3100000023841858,-0.05328369140625,0.02667236328125,1.00390625,27.889999389648438,0.0,-57.0,-3.204345703125E-4,0.0037841796875,Waiting,0.0,0.0,0.0,0.0,0.0,0.0,0.0,0.0,
1.3893549999999997,0.0,0.0,false,4535722.121037464,,-13.0,0.0,0.0,0.0,0.0,0.0,1.8310545,0.0,0.0,0.0,0.0,0.0,-0.0,0.0,0.0,2.647704807,0.0,0.0,-2.0,0.0,0.0,0.0,0.0,0.0,3.981933186,0.0,0.0,0.0,0.0,0.0,-0.0,0.0,0.0,2.5268552100000004,0.0,0.0,1.2999999523162842,0.23999999463558197,0.3100000023841858,-0.05621337890625,0.04425048828125,1.0118408203125,27.889999389648438,0.0,-60.0,-0.002716064453125,0.003814697265625,Waiting,0.0,0.0,0.0,0.0,0.0,0.0,0.0,0.0,
1.4647360000000007,0.0,0.0,false,4533595.7011494255,,-13.0,0.0,0.0,0.0,0.0,0.0,1.8310545,0.0,0.0,0.0,0.0,0.0,-0.0,0.0,0.0,2.64892551,0.0,0.0,-2.0,0.0,0.0,0.0,0.0,0.0,3.980712483,0.0,0.0,0.0,0.0,0.0,-0.0,0.0,0.0,2.5268552100000004,0.0,0.0,1.2999999523162842,0.23999999463558197,0.3100000023841858,-0.048583984375,0.0433349609375,1.0111083984375,27.889999389648438,0.0,-52.0,-0.009796142578125,0.0042266845703125,Waiting,0.0,0.0,0.0,0.0,0.0,0.0,0.0,0.0,
1.5457100000000028,0.0,0.0,false,4531292.905444126,,-13.0,0.0,0.0,0.0,0.0,0.0,1.8310545,0.0,0.0,0.0,0.0,0.0,-0.0,0.0,0.0,2.647704807,0.0,0.0,-2.0,0.0,0.0,0.0,0.0,0.0,3.97949178,0.0,0.0,0.0,0.0,0.0,-0.0,0.0,0.0,2.5268552100000004,0.0,0.0,1.2999999523162842,0.23999999463558197,0.3100000023841858,-0.02178955078125,0.05438232421875,1.01458740234375,27.889999389648438,0.0,-26.0,-0.015899658203125,0.004669189453125,Waiting,0.0,0.0,0.0,0.0,0.0,0.0,0.0,0.0,
1.5857410000000018,0.0,0.0,false,4528918.537142857,,-13.0,0.0,0.0,0.0,0.0,0.0,1.8310545,0.0,-0.0012207029999995456,0.0,0.0,0.0,-0.0,0.0,0.0,2.647704807,0.0,0.0,-2.0,0.0,0.0,0.0,0.0,0.0,3.980712483,0.0,0.0,0.0,0.0,0.0,-0.0,0.0,0.0,2.525634507,0.0,0.0,1.2999999523162842,0.23999999463558197,0.3100000023841858,-0.0052490234375,0.04925537109375,1.0181884765625,27.889999389648438,0.0,-9.0,-0.0191497802734375,0.00543212890625,Waiting,0.0,0.0,0.0,0.0,0.0,0.0,0.0,0.0,
1.6437920000000013,0.0,0.0,false,4526473.207977208,,-13.0,0.0,0.0,0.0,0.0,0.0,1.8310545,0.0,0.0012207029999995456,0.0,0.0,0.0,-0.0,0.0,0.0,2.647704807,0.0,0.0,-2.0,0.0,0.0,0.0,0.0,0.0,3.9868159980000004,0.0,0.0,0.0,0.0,0.0,-0.0,0.0,0.0,2.5268552100000004,0.0,0.0,1.2999999523162842,0.23999999463558197,0.3199999928474426,0.00457763671875,0.0419921875,1.015380859375,27.889999389648438,0.0,0.0,-0.0191497802734375,0.0064849853515625,Waiting,0.0,0.0,0.0,0.0,0.0,0.0,0.0,0.0,
1.6999900000000017,0.0,0.0,false,4523941.659090909,,-13.0,0.0,0.0,0.0,0.0,0.0,1.826171688,0.0,0.0,0.0,0.0,0.0,-0.0,0.0,0.0,2.647704807,0.0,0.0,-2.0,0.0,0.0,0.0,0.0,0.0,3.97949178,0.0,0.0,0.0,0.0,0.0,-0.0,0.0,0.0,2.525634507,0.0,0.0,1.2999999523162842,0.23999999463558197,0.3100000023841858,0.012939453125,0.03448486328125,1.01348876953125,27.889999389648438,0.0,8.0,-0.0191497802734375,0.0064849853515625,Waiting,0.0,0.0,0.0,0.0,0.0,0.0,0.0,0.0,
1.739497000000003,0.0,0.0,false,4521340.441926345,,-13.0,0.0,0.0,0.0,0.0,0.0,1.8310545,0.0,0.0,0.0,0.0,0.0,-0.0,0.0,0.0,2.647704807,0.0,0.0012207030000004337,-2.0,0.0,0.0,0.0,0.0,0.0,3.980712483,0.0,0.0,0.0,0.0,0.0,-0.0,0.0,0.0,2.525634507,0.0,0.0,1.2999999523162842,0.23999999463558197,0.3100000023841858,0.01611328125,0.0255126953125,1.0023193359375,27.889999389648438,0.0,11.0,-0.0191497802734375,0.0064849853515625,Waiting,0.0,0.0,0.0,0.0,0.0,0.0,0.0,0.0,
1.781082000000002,0.0,0.0,false,4518570.666666667,,-13.0,0.0,0.0,0.0,0.0,0.0,1.8310545,0.0,-0.0012207029999995456,0.0,0.0,0.0,-0.0,0.0,0.0,2.647704807,0.0,-0.0012207030000004337,-2.0,0.0,0.0,0.0,0.0,0.0,3.980712483,0.0,0.0,0.0,0.0,0.0,-0.0,0.0,0.0,2.525634507,0.0,0.0,1.2799999713897705,0.23999999463558197,0.3199999928474426,0.02911376953125,0.02325439453125,1.013427734375,27.889999389648438,0.0,24.0,-0.019073486328125,0.0064849853515625,Waiting,0.0,0.0,0.0,0.0,0.0,0.0,0.0,0.0,
1.8429240000000027,0.0,0.0,false,4515732.957746479,,-13.0,0.0,0.0,0.0,0.0,0.0,1.8310545,0.0,0.0,0.0,0.0,0.0,-0.0,0.0,0.0,2.647704807,0.0,0.0,-2.0,0.0,0.0,0.0,0.0,0.0,3.980712483,0.0,0.0,0.0,0.0,0.0,-0.0,0.0,0.0,2.5268552100000004,0.0,0.0,1.2799999713897705,0.23999999463558197,0.3199999928474426,0.03570556640625,0.021240234375,1.01708984375,27.889999389648438,0.0,31.0,-0.0186767578125,0.0064849853515625,Waiting,0.0,0.0,0.0,0.0,0.0,0.0,0.0,0.0,
1.8980910000000004,0.0,0.0,false,4512827.887640449,,-13.0,0.0,0.0,0.0,0.0,0.0,1.828613094,0.0,0.0,0.0,0.0,0.0,-0.0,0.0,0.0,2.6440426980000002,0.0,0.0012207030000004337,-2.0,0.0,0.0,0.0,0.0,0.0,3.980712483,0.0,0.0,0.0,0.0,0.0,-0.0,0.0,0.0,2.5268552100000004,0.0,0.0,1.2699999809265137,0.23999999463558197,0.3199999928474426,0.04071044921875,0.01812744140625,1.00848388671875,27.889999389648438,0.0,36.0,-0.0178985595703125,0.0064849853515625,Waiting,0.0,0.0,0.0,0.0,0.0,0.0,0.0,0.0,
1.9423820000000014,0.0,0.0,false,4509840.425770308,,-13.0,0.0,0.0,0.0,0.0,0.0,1.8310545,0.0,0.0012207029999995456,0.0,0.0,0.0,-0.0,0.0,0.0,2.647704807,0.0,-0.0012207030000004337,-2.0,0.0,0.0,0.0,0.0,0.0,3.980712483,0.0,0.0,0.0,0.0,0.0,-0.0,0.0,0.0,2.5268552100000004,0.0,0.0,1.2599999904632568,0.23999999463558197,0.3199999928474426,0.0506591796875,0.02044677734375,1.01025390625,27.889999389648438,0.0,46.0,-0.0160980224609375,0.0064849853515625,Waiting,0.0,0.0,0.0,0.0,0.0,0.0,0.0,0.0,
1.9761490000000013,0.0,0.0,false,4506786.815642458,,-13.0,0.0,0.0,0.0,0.0,0.0,1.828613094,0.0,0.0012207029999995456,0.0,0.0,0.0,-0.0,0.0,0.0,2.6464841040000002,0.0,0.0,-2.0,0.0,0.0,0.0,0.0,0.0,3.981933186,0.0,0.0,0.0,0.0,0.0,-0.0,0.0,0.0,2.5292966160000003,0.0,0.0,1.2599999904632568,0.23999999463558197,0.3199999928474426,0.0535888671875,0.01507568359375,1.00390625,27.899999618530273,0.0,49.0,-0.0140838623046875,0.0064849853515625,Waiting,0.0,0.0,0.0,0.0,0.0,0.0,0.0,0.0,
2.0205620000000017,0.0,0.0,false,4503667.520891365,,-13.0,0.0,0.0,0.0,0.0,0.0,1.8310545,0.0,-0.0012207029999995456,0.0,0.0,0.0,-0.0,0.0,0.0,2.64892551,0.0,0.0,-2.0,0.0,0.0,0.0,0.0,0.0,3.980712483,0.0,-0.0012207029999995456,0.0,0.0,0.0,-0.0,0.0,0.0,2.5268552100000004,0.0,0.0,1.2599999904632568,0.25,0.3199999928474426,0.05291748046875,0.01806640625,1.01153564453125,27.899999618530273,0.0,48.0,-0.0114898681640625,0.0064849853515625,Waiting,0.0,0.0,0.0,0.0,0.0,0.0,0.0,0.0,
2.072113000000001,0.0,0.0,false,4500385.355555556,,-13.0,0.0,0.0,0.0,0.0,0.0,1.8310545,0.0,-0.0012207029999995456,0.0,0.0,0.0,-0.0,0.0,0.0,2.647704807,0.0,0.0,-2.0,0.0,0.0,0.0,0.0,0.0,3.980712483,0.0,0.0,0.0,0.0,0.0,-0.0,0.0,0.0,2.5268552100000004,0.0,0.0,1.2599999904632568,0.25,0.3199999928474426,0.05023193359375,0.016357421875,1.0115966796875,27.899999618530273,0.0,45.0,-0.0082855224609375,0.0064849853515625,Waiting,0.0,0.0,0.0,0.0,0.0,0.0,0.0,0.0,
2.162321,0.0,0.0,false,4497039.224376732,,-13.0,0.0,0.0,0.0,0.0,0.0,1.8310545,0.0,0.0,0.0,0.0,0.0,-0.0,0.0,0.0,2.647704807,0.0,0.0,-2.0,0.0,0.0,0.0,0.0,0.0,3.980712483,0.0,0.0,0.0,0.0,0.0,-0.0,0.0,0.0,2.5268552100000004,0.0,0.0,1.25,0.25,0.3199999928474426,0.0452880859375,0.0147705078125,1.012939453125,27.899999618530273,0.0,40.0,-1.983642578125E-4,0.0064849853515625,Waiting,0.0,0.0,0.0,0.0,0.0,0.0,0.0,0.0,
2.221767,0.0,0.0,false,4493614.276243094,,-13.0,0.0,0.0,0.0,0.0,0.0,1.8310545,0.0,0.0012207029999995456,0.0,0.0,0.0,-0.0,0.0,0.0,2.647704807,0.0,0.0012207030000004337,-2.0,0.0,0.0,0.0,0.0,0.0,3.981933186,0.0,0.0,0.0,0.0,0.0,-0.0,0.0,0.0,2.5268552100000004,0.0,0.0,1.2300000190734863,0.25999999046325684,0.3199999928474426,0.03546142578125,0.01519775390625,1.01751708984375,27.899999618530273,0.0,30.0,0.0097503662109375,0.0064849853515625,Waiting,0.0,0.0,0.0,0.0,0.0,0.0,0.0,0.0,
2.314622000000003,0.0,0.0,false,4490111.184573003,,-13.0,0.0,0.0,0.0,0.0,0.0,1.824950985,0.0,0.0,0.0,0.0,0.0,-0.0,0.0,0.0,2.6464841040000002,0.0,0.0,-2.0,0.0,0.0,0.0,0.0,0.0,3.980712483,0.0,0.0,0.0,0.0,0.0,-0.0,0.0,0.0,2.5268552100000004,0.0,0.0,1.2300000190734863,0.25999999046325684,0.3199999928474426,0.025634765625,0.01654052734375,1.00897216796875,27.899999618530273,0.0,20.0,0.0152740478515625,0.0064849853515625,Waiting,0.0,0.0,0.0,0.0,0.0,0.0,0.0,0.0,
2.3617440000000025,0.0,0.0,false,4491704.879120879,,-13.0,0.0,0.0,0.0,0.0,0.0,1.8310545,0.0,-0.0012207029999995456,0.0,0.0,0.0,-0.0,0.0,0.0,2.647704807,0.0,-0.0012207030000004337,-2.0,0.0,0.0,0.0,0.0,0.0,3.980712483,0.0,-0.0012207029999995456,0.0,0.0,0.0,-0.0,0.0,0.0,2.525634507,0.0,0.0,1.2200000286102295,0.25999999046325684,0.3199999928474426,0.01885986328125,0.0152587890625,1.01043701171875,27.899999618530273,0.0,14.0,0.02105712890625,0.0064849853515625,Waiting,0.0,0.0,0.0,0.0,0.0,0.0,0.0,0.0,
2.4187220000000016,0.0,0.0,false,4493128.0,,-13.0,0.0,0.0,0.0,0.0,0.0,1.8310545,0.0,0.0012207029999995456,0.0,0.0,0.0,-0.0,0.0,0.0,2.647704807,0.0,0.0,-2.0,0.0,0.0,0.0,0.0,0.0,3.980712483,0.0,0.0012207029999995456,0.0,0.0,0.0,-0.0,0.0,0.0,2.5268552100000004,0.0,0.0,1.2100000381469727,0.25999999046325684,0.3199999928474426,0.0096435546875,0.02490234375,1.01519775390625,27.899999618530273,0.0,4.0,0.02105712890625,0.0064849853515625,Waiting,0.0,0.0,0.0,0.0,0.0,0.0,0.0,0.0,
2.4833760000000002,0.0,0.0,false,4494443.519125683,,-13.0,0.0,0.0,0.0,0.0,0.0,1.8310545,0.0,0.0,0.0,0.0,0.0,-0.0,0.0,0.0,2.647704807,0.0,0.0,-2.0,0.0,0.0,0.0,0.0,0.0,3.983153889,0.0,0.0,0.0,0.0,0.0,-0.0,0.0,0.0,2.5268552100000004,0.0,0.0,1.2100000381469727,0.25999999046325684,0.3199999928474426,-0.0015869140625,0.0286865234375,1.01129150390625,27.899999618530273,0.0,-6.0,0.02105712890625,0.0064849853515625,Waiting,0.0,0.0,0.0,0.0,0.0,0.0,0.0,0.0,
2.5474600000000027,0.0,0.0,false,4495570.485013624,,-13.0,0.0,0.0,0.0,0.0,0.0,1.8310545,0.0,-0.0012207029999995456,0.0,0.0,0.0,-0.0,0.0,0.0,2.647704807,0.0,-0.0012207030000004337,-2.0,0.0,0.0,0.0,0.0,0.0,3.983153889,0.0,0.0,0.0,0.0,0.0,-0.0,0.0,0.0,2.5268552100000004,0.0,0.0,1.2100000381469727,0.25999999046325684,0.3199999928474426,-0.01361083984375,0.0343017578125,1.00396728515625,27.899999618530273,0.0,-18.0,0.02105712890625,0.0064849853515625,Waiting,0.0,0.0,0.0,0.0,0.0,0.0,0.0,0.0,
2.598201000000001,0.0,0.0,false,4496591.717391305,,-13.0,0.0,0.0,0.0,0.0,0.0,1.8310545,0.0,0.0012207029999995456,0.0,0.0,0.0,-0.0,0.0,0.0,2.647704807,0.0,0.0,-2.0,0.0,0.0,0.0,0.0,0.0,3.980712483,0.0,0.0,0.0,0.0,0.0,-0.0,0.0,0.0,2.525634507,0.0,0.0,1.2300000190734863,0.25,0.3199999928474426,-0.02850341796875,0.03424072265625,1.0,27.899999618530273,0.0,-32.0,0.0207366943359375,0.0064849853515625,Waiting,0.0,0.0,0.0,0.0,0.0,0.0,0.0,0.0,
2.6454180000000016,0.0,0.0,false,4497519.739837399,,-13.0,0.0,0.0,0.0,0.0,0.0,1.8310545,0.0,-0.0012207029999995456,0.0,0.0,0.0,-0.0,0.0,0.0,2.647704807,0.0,0.0,-2.0,0.0,0.0,0.0,0.0,0.0,3.980712483,0.0,0.0,0.0,0.0,0.0,-0.0,0.0,0.0,2.524413804,0.0,0.0,1.2300000190734863,0.25,0.3199999928474426,-0.03533935546875,0.03466796875,1.0050048828125,27.899999618530273,0.0,-39.0,0.0200347900390625,0.0064849853515625,Waiting,0.0,0.0,0.0,0.0,0.0,0.0,0.0,0.0,
2.683810000000001,0.0,0.0,false,4498344.0,,-13.0,0.0,0.0,0.0,0.0,0.0,1.8310545,0.0,0.0012207029999995456,0.0,0.0,0.0,-0.0,0.0,0.0,2.647704807,0.0,0.0,-2.0,0.0,0.0,0.0,0.0,0.0,3.981933186,0.0,0.0,0.0,0.0,0.0,-0.0,0.0,0.0,2.525634507,0.0,0.0,1.2400000095367432,0.25,0.3199999928474426,-0.04425048828125,0.0360107421875,1.00244140625,27.899999618530273,0.0,-48.0,0.019287109375,0.0064849853515625,Waiting,0.0,0.0,0.0,0.0,0.0,0.0,0.0,0.0,
2.727559000000001,0.0,0.0,false,4499076.614555256,,-13.0,0.0,0.0,0.0,0.0,0.0,1.8371580150000002,0.0,-0.0012207029999995456,0.0,0.0,0.0,-0.0,0.0,0.0,2.647704807,0.0,0.0012207030000004337,-2.0,0.0,0.0,0.0,0.0,0.0,3.980712483,0.0,0.0,0.0,0.0,0.0,-0.0,0.0,0.0,2.5268552100000004,0.0,0.0,1.2599999904632568,0.25,0.3199999928474426,-0.0478515625,0.0355224609375,1.00323486328125,27.899999618530273,0.0,-52.0,0.01763916015625,0.0064849853515625,Waiting,0.0,0.0,0.0,0.0,0.0,0.0,0.0,0.0,
2.7629490000000003,0.0,0.0,false,4499706.752688172,,-13.0,0.0,0.0,0.0,0.0,0.0,1.8310545,0.0,-0.0012207029999995456,0.0,0.0,0.0,-0.0,0.0,0.0,2.647704807,0.0,0.0012207030000004337,-2.0,0.0,0.0,0.0,0.0,0.0,3.980712483,0.0,0.0,0.0,0.0,0.0,-0.0,0.0,0.0,2.5268552100000004,0.0,0.0,1.2599999904632568,0.25,0.3199999928474426,-0.05621337890625,0.036376953125,0.99957275390625,27.899999618530273,0.0,-60.0,0.0161895751953125,0.0064849853515625,Waiting,0.0,0.0,0.0,0.0,0.0,0.0,0.0,0.0,
2.7974900000000016,0.0,0.0,false,4500246.777479893,,-13.0,0.0,0.0,0.0,0.0,0.0,1.8310545,0.0,0.0012207029999995456,0.0,0.0,0.0,-0.0,0.0,0.0,2.647704807,0.0,-0.0012207030000004337,-2.0,0.0,0.0,0.0,0.0,0.0,3.980712483,0.0,0.0,0.0,0.0,0.0,-0.0,0.0,0.0,2.5268552100000004,0.0,0.0,1.2699999809265137,0.25,0.3199999928474426,-0.05853271484375,0.0335693359375,1.00262451171875,27.899999618530273,0.0,-62.0,0.0133819580078125,0.0064849853515625,Waiting,0.0,0.0,0.0,0.0,0.0,0.0,0.0,0.0,
2.853546000000002,0.0,0.0,false,4500697.411764706,,-13.0,0.0,0.0,0.0,0.0,0.0,1.8310545,0.0,-0.0012207029999995456,0.0,0.0,0.0,-0.0,0.0,0.0,2.647704807,0.0,0.0012207030000004337,-2.0,0.0,0.0,0.0,0.0,0.0,3.980712483,0.0,0.0,0.0,0.0,0.0,-0.0,0.0,0.0,2.518310289,0.0,0.0,1.2699999809265137,0.25,0.3199999928474426,-0.05859375,0.02789306640625,0.99920654296875,27.899999618530273,0.0,-62.0,0.0084686279296875,0.0064849853515625,Waiting,0.0,0.0,0.0,0.0,0.0,0.0,0.0,0.0,
2.9214310000000006,0.0,0.0,false,4501048.213333333,,-13.0,0.0,0.0,0.0,0.0,0.0,1.8310545,0.0,0.0,0.0,0.0,0.0,-0.0,0.0,0.0,2.647704807,0.0,0.0,-2.0,0.0,0.0,0.0,0.0,0.0,3.980712483,0.0,0.0,0.0,0.0,0.0,-0.0,0.0,0.0,2.525634507,0.0,0.0,1.25,0.25,0.3199999928474426,-0.05303955078125,0.0245361328125,0.99639892578125,27.899999618530273,0.0,-57.0,0.0021820068359375,0.0064849853515625,Waiting,0.0,0.0,0.0,0.0,0.0,0.0,0.0,0.0,
2.9718990000000014,0.0,0.0,false,4501299.659574468,,-13.0,0.0,0.0,0.0,0.0,0.0,1.834716609,0.0,0.0012207029999995456,0.0,0.0,0.0,-0.0,0.0,0.0,2.647704807,0.0,0.0,-2.0,0.0,0.0,0.0,0.0,0.0,3.981933186,0.0,0.0,0.0,0.0,0.0,-0.0,0.0,0.0,2.5268552100000004,0.0,0.0,1.25,0.25,0.3199999928474426,-0.04974365234375,0.02197265625,0.99468994140625,27.899999618530273,0.0,-54.0,-0.0033416748046875,0.0064849853515625,Waiting,0.0,0.0,0.0,0.0,0.0,0.0,0.0,0.0,
3.0020490000000026,0.0,0.0,false,4501463.9575596815,,-13.0,0.0,0.0,0.0,0.0,0.0,1.832275203,0.0,-0.0012207029999995456,0.0,0.0,0.0,-0.0,0.0,0.0,2.647704807,0.0,0.0,-2.0,0.0,0.0,0.0,0.0,0.0,3.980712483,0.0,0.0,0.0,0.0,0.0,-0.0,0.0,0.0,2.5268552100000004,0.0,0.0,1.25,0.25,0.3199999928474426,-0.03863525390625,0.02874755859375,0.99774169921875,27.920000076293945,0.0,-43.0,-0.0095062255859375,0.0064849853515625,Waiting,0.0,0.0,0.0,0.0,0.0,0.0,0.0,0.0,
3.0311100000000004,0.0,0.0,false,4501541.7989417985,,-13.0,0.0,0.0,0.0,0.0,0.0,1.8310545,0.0,-0.0012207029999995456,0.0,0.0,0.0,-0.0,0.0,0.0,2.64892551,0.0,0.0,-2.0,0.0,0.0,0.0,0.0,0.0,3.981933186,0.0,0.0,0.0,0.0,0.0,-0.0,0.0,0.0,2.5268552100000004,0.0,0.0,1.25,0.25,0.3199999928474426,-0.037353515625,0.0279541015625,0.99273681640625,27.920000076293945,0.0,-41.0,-0.0116729736328125,0.0064849853515625,Waiting,0.0,0.0,0.0,0.0,0.0,0.0,0.0,0.0,
3.0567870000000004,0.0,0.0,false,4501522.828496043,,-13.0,0.0,0.0,0.0,0.0,0.0,1.8310545,0.0,0.0012207029999995456,0.0,0.0,0.0,-0.0,0.0,0.0,2.647704807,0.0,-0.0012207030000004337,-2.0,0.0,0.0,0.0,0.0,0.0,3.97949178,0.0,0.0,0.0,0.0,0.0,-0.0,0.0,0.0,2.5268552100000004,0.0,0.0,1.2599999904632568,0.25,0.3199999928474426,-0.027099609375,0.0294189453125,0.99609375,27.920000076293945,0.0,-31.0,-0.01617431640625,0.0064849853515625,Waiting,0.0,0.0,0.0,0.0,0.0,0.0,0.0,0.0,
3.0987220000000018,0.0,0.0,false,4501418.821052631,,-13.0,0.0,0.0,0.0,0.0,0.0,1.832275203,0.0,0.0,0.0,0.0,0.0,-0.0,0.0,0.0,2.647704807,0.0,0.0,-2.0,0.0,0.0,0.0,0.0,0.0,3.981933186,0.0,0.0,0.0,0.0,0.0,-0.0,0.0,0.0,2.5268552100000004,0.0,0.0,1.2699999809265137,0.23999999463558197,0.3199999928474426,-0.01776123046875,0.02716064453125,1.00335693359375,27.920000076293945,0.0,-22.0,-0.0232391357421875,0.0064849853515625,Waiting,0.0,0.0,0.0,0.0,0.0,0.0,0.0,0.0,
3.1349910000000016,0.0,0.0,false,4501230.446194226,,-13.0,0.0,0.0,0.0,0.0,0.0,1.8310545,0.0,-0.0012207029999995456,0.0,0.0,0.0,-0.0,0.0,0.0,2.647704807,0.0,0.0012207030000004337,-2.0,0.0,0.0,0.0,0.0,0.0,3.980712483,0.0,-0.0012207029999995456,0.0,0.0,0.0,-0.0,0.0,0.0,2.525634507,0.0,0.0,1.2799999713897705,0.23999999463558197,0.3199999928474426,-0.0013427734375,0.0294189453125,0.99920654296875,27.920000076293945,0.0,-5.0,-0.0280914306640625,0.0064849853515625,Waiting,0.0,0.0,0.0,0.0,0.0,0.0,0.0,0.0,
3.177624,0.0,0.0,false,4500862.408376964,,-13.0,0.0,0.0,0.0,0.0,0.0,1.8310545,0.0,-0.0012207029999995456,0.0,0.0,0.0,-0.0,0.0,0.0,2.6464841040000002,0.0,0.0012207030000004337,-2.0,0.0,0.0,0.0,0.0,0.0,3.980712483,0.0,-0.0012207029999995456,0.0,0.0,0.0,-0.0,0.0,0.0,2.525634507,0.0,0.0,1.2799999713897705,0.23000000417232513,0.3199999928474426,0.01190185546875,0.02618408203125,1.0,27.920000076293945,0.0,7.0,-0.0280914306640625,0.0064849853515625,Waiting,0.0,0.0,0.0,0.0,0.0,0.0,0.0,0.0,
3.207871000000003,0.0,0.0,false,4500389.180156658,,-13.0,0.0,0.0,0.0,0.0,0.0,1.8310545,0.0,0.0012207029999995456,0.0,0.0,0.0,-0.0,0.0,0.0,2.647704807,0.0,0.0,-2.0,0.0,0.0,0.0,0.0,0.0,3.980712483,0.0,0.0012207029999995456,0.0,0.0,0.0,-0.0,0.0,0.0,2.525634507,0.0,0.0,1.2799999713897705,0.23000000417232513,0.3199999928474426,0.03082275390625,0.02239990234375,1.0050048828125,27.920000076293945,0.0,26.0,-0.02801513671875,0.0064849853515625,Waiting,0.0,0.0,0.0,0.0,0.0,0.0,0.0,0.0,
3.228175000000003,0.0,0.0,false,4499834.166666667,,-13.0,0.0,0.0,0.0,0.0,0.0,1.8310545,0.0,0.0012207029999995456,0.0,0.0,0.0,-0.0,0.0,0.0,2.647704807,0.0,0.0,-2.0,0.0,0.0,0.0,0.0,0.0,3.981933186,0.0,0.0012207029999995456,0.0,0.0,0.0,-0.0,0.0,0.0,2.525634507,0.0,0.0,1.2799999713897705,0.23000000417232513,0.3199999928474426,0.0440673828125,0.018310546875,1.01177978515625,27.920000076293945,0.0,39.0,-0.0277862548828125,0.0064849853515625,Waiting,0.0,0.0,0.0,0.0,0.0,0.0,0.0,0.0,
3.2572590000000017,0.0,0.0,false,4499187.137662338,,-13.0,0.0,0.0,0.0,0.0,0.0,1.8310545,0.0,-0.0012207029999995456,0.0,0.0,0.0,-0.0,0.0,0.0,2.647704807,0.0,0.0,-2.0,0.0,0.0,0.0,0.0,0.0,3.981933186,0.0,0.0,0.0,0.0,0.0,-0.0,0.0,0.0,2.5329587250000003,0.0,0.0,1.2699999809265137,0.23000000417232513,0.3199999928474426,0.0496826171875,0.0191650390625,1.0167236328125,27.920000076293945,0.0,45.0,-0.027587890625,0.0064849853515625,Waiting,0.0,0.0,0.0,0.0,0.0,0.0,0.0,0.0,
3.2779720000000014,0.0,0.0,false,4498459.647668393,,-13.0,0.0,0.0,0.0,0.0,0.0,1.8310545,0.0,-0.0012207029999995456,0.0,0.0,0.0,-0.0,0.0,0.0,2.647704807,0.0,0.0,-2.0,0.0,0.0,0.0,0.0,0.0,3.980712483,0.0,0.0,0.0,0.0,0.0,-0.0,0.0,0.0,2.5268552100000004,0.0,0.0,1.2699999809265137,0.23000000417232513,0.3199999928474426,0.05352783203125,0.01715087890625,1.02288818359375,27.920000076293945,0.0,49.0,-0.0273284912109375,0.0064849853515625,Waiting,0.0,0.0,0.0,0.0,0.0,0.0,0.0,0.0,
3.299140000000003,0.0,0.0,false,4497652.320413437,,-13.0,0.0,0.0,0.0,0.0,0.0,1.8310545,0.0,0.0,0.0,0.0,0.0,-0.0,0.0,0.0,2.647704807,0.0,-0.0012207030000004337,-2.0,0.0,0.0,0.0,0.0,0.0,3.981933186,0.0,0.0,0.0,0.0,0.0,-0.0,0.0,0.0,2.5305173190000003,0.0,0.0,1.2699999809265137,0.23000000417232513,0.3199999928474426,0.06781005859375,0.030029296875,1.0137939453125,27.920000076293945,0.0,63.0,-0.026580810546875,0.0064849853515625,Waiting,0.0,0.0,0.0,0.0,0.0,0.0,0.0,0.0,
3.320661,0.0,0.0,false,4496765.773195877,,-13.0,0.0,0.0,0.0,0.0,0.0,1.8310545,0.0,0.0,0.0,0.0,0.0,-0.0,0.0,0.0,2.647704807,0.0,-0.0012207030000004337,-2.0,0.0,0.0,0.0,0.0,0.0,3.981933186,0.0,0.0,0.0,0.0,0.0,-0.0,0.0,0.0,2.5268552100000004,0.0,0.0,1.2599999904632568,0.23000000417232513,0.3199999928474426,0.04278564453125,0.04290771484375,1.04083251953125,27.920000076293945,0.0,38.0,-0.0254974365234375,0.0064849853515625,Waiting,0.0,0.0,0.0,0.0,0.0,0.0,0.0,0.0,
3.3445930000000006,28.375,26.875,false,4495800.616966581,,-13.0,0.0,0.0,0.0,0.0,0.0,1.8310545,0.0,0.0012207029999995456,0.0,0.0,0.0,-0.0,0.0,0.0,2.659911837,0.0,0.0012207030000004337,-2.0,0.0,0.0,0.0,0.0,0.0,3.983153889,0.0,0.0,0.0,0.0,0.0,-0.0,0.0,0.0,2.5268552100000004,0.0,0.0,1.25,0.23000000417232513,0.3199999928474426,0.04022216796875,0.02532958984375,1.00323486328125,27.920000076293945,0.0,36.0,-0.024871826171875,0.0064849853515625,Waiting,0.0,0.0,0.0,0.0,0.0,0.0,0.0,0.0,
3.3645560000000003,28.375,26.875,false,4494746.420512821,,-13.0,0.0,0.0,0.0,0.0,0.0,1.829833797,0.0,0.0012207029999995456,0.0,0.0,0.0,-0.0,0.0,0.0,2.647704807,0.0,0.0012207030000004337,-2.0,0.0,0.0,0.0,0.0,0.0,3.980712483,0.0,0.0,0.0,0.0,0.0,-0.0,0.0,0.0,2.525634507,0.0,0.0,1.2400000095367432,0.23999999463558197,0.3199999928474426,-0.02215576171875,0.030517578125,1.03570556640625,27.920000076293945,0.0,-26.0,-0.02423095703125,0.0064849853515625,Waiting,0.0,0.0,0.0,0.0,0.0,0.0,0.0,0.0,
3.3854520000000012,28.375,26.875,false,4493614.874680307,,-13.0,0.0,0.0,0.0,0.0,0.0,1.8310545,0.0,0.0012207029999995456,0.0,0.0,0.0,-0.0,0.0,0.0,2.64892551,0.0,0.0,-2.0,0.0,0.0,0.0,0.0,0.0,3.980712483,0.0,0.0,0.0,0.0,0.0,-0.0,0.0,0.0,2.5268552100000004,0.0,0.0,1.2599999904632568,0.25,0.3199999928474426,-0.09295654296875,-0.0030517578125,0.993408203125,27.920000076293945,0.0,-97.0,-0.0232696533203125,0.0064697265625,Waiting,0.0,0.0,0.0,0.0,0.0,0.0,0.0,0.0,
3.415635000000002,9.25,8.0,false,4492406.571428572,,-13.0,0.0,0.0,0.0,0.0,0.0,1.8310545,0.0,0.0,0.0,0.0,0.0,-0.0,0.0,0.0,2.647704807,0.0,0.0,-2.0,0.0,0.0,0.0,0.0,0.0,3.981933186,0.0,0.0,0.0,0.0,0.0,-0.0,0.0,0.0,2.5268552100000004,0.0,0.0,1.2599999904632568,0.25999999046325684,0.3199999928474426,-0.0614013671875,0.01409912109375,0.98883056640625,27.920000076293945,0.0,-66.0,-0.02276611328125,0.0063018798828125,Waiting,0.0,0.0,0.0,0.0,0.0,0.0,0.0,0.0,
3.4381110000000006,9.25,8.0,false,4491122.096692112,,-13.0,0.0,0.0,0.0,0.0,0.0,1.8310545,0.0,0.0,0.0,0.0,0.0,-0.0,0.0,0.0,2.647704807,0.0,-0.0012207030000004337,-2.0,0.0,0.0,0.0,0.0,0.0,3.980712483,0.0,0.0,0.0,0.0,0.0,-0.0,0.0,0.0,2.524413804,0.0,0.0,1.25,0.25999999046325684,0.3199999928474426,-7.32421875E-4,0.01226806640625,1.019287109375,27.920000076293945,0.0,-5.0,-0.0225677490234375,0.0059814453125,Waiting,0.0,0.0,0.0,0.0,0.0,0.0,0.0,0.0,
3.4765480000000024,4.625,3.375,false,4489751.411167513,,-13.0,0.0,0.0,0.0,0.0,0.0,1.829833797,0.0,0.0,0.0,0.0,0.0,-0.0,0.0,0.0,2.64892551,0.0,-0.0012207030000004337,-2.0,0.0,0.0,0.0,0.0,0.0,3.981933186,0.0,0.0,0.0,0.0,0.0,-0.0,0.0,0.0,2.5268552100000004,0.0,0.0,1.25,0.25999999046325684,0.3199999928474426,0.016357421875,-0.02386474609375,0.99798583984375,27.920000076293945,0.0,11.0,-0.022491455078125,0.005767822265625,Waiting,0.0,0.0,0.0,0.0,0.0,0.0,0.0,0.0,
3.4996010000000024,4.625,3.375,false,4488223.858227848,,-13.0,0.0,0.0,0.0,0.0,0.0,1.8310545,0.0,0.0,0.0,0.0,0.0,-0.0,0.0,0.0,2.647704807,0.0,0.0,-2.0,0.0,0.0,0.0,0.0,0.0,3.981933186,0.0,0.0012207030000004337,0.0,0.0,0.0,-0.0,0.0,0.0,2.5268552100000004,0.0,0.0,1.2300000190734863,0.25999999046325684,0.3199999928474426,0.09375,0.03240966796875,0.99755859375,27.920000076293945,0.0,89.0,-0.0221405029296875,0.005279541015625,Waiting,0.0,0.0,0.0,0.0,0.0,0.0,0.0,0.0,
3.519661,4.625,3.375,false,4486622.323232323,,-13.0,0.0,0.0,0.0,0.0,0.0,1.833495906,0.0,0.0,0.0,0.0,0.0,-0.0,0.0,0.0,2.647704807,0.0,0.0,-2.0,0.0,0.0,0.0,0.0,0.0,3.9868159980000004,0.0,0.0012207030000004337,0.0,0.0,0.0,-0.0,0.0,0.0,2.525634507,0.0,0.0,1.25,0.25,0.3199999928474426,0.0823974609375,0.03900146484375,1.0291748046875,27.940000534057617,0.0,77.0,-0.021820068359375,0.005279541015625,Waiting,0.0,0.0,0.0,0.0,0.0,0.0,0.0,0.0,
3.5397309999999997,0.0,0.0,false,4484947.365239294,,-13.0,0.0,0.0,0.0,0.0,0.0,1.8310545,0.0,0.0,0.0,0.0,0.0,-0.0,0.0,0.0,2.647704807,0.0,0.0012207030000004337,-2.0,0.0,0.0,0.0,0.0,0.0,3.981933186,0.0,-0.0024414059999999793,0.0,0.0,0.0,-0.0,0.0,0.0,2.5268552100000004,0.0,0.0,1.2400000095367432,0.25,0.3199999928474426,0.07843017578125,0.0322265625,1.00927734375,27.940000534057617,0.0,73.0,-0.0208282470703125,0.005279541015625,Waiting,0.0,0.0,0.0,0.0,0.0,0.0,0.0,0.0,
3.5635800000000017,0.0,0.0,false,4483188.72361809,,-13.0,0.0,0.0,0.0,0.0,0.0,1.832275203,0.0,0.0,0.0,0.0,0.0,-0.0,0.0,0.0,2.647704807,0.0,0.0012207030000004337,-2.0,0.0,0.0,0.0,0.0,0.0,3.980712483,0.0,-0.0024414059999999793,0.0,0.0,0.0,-0.0,0.0,0.0,2.5268552100000004,0.0,0.0,1.25,0.25,0.3199999928474426,0.0714111328125,0.02276611328125,1.03802490234375,27.940000534057617,0.0,66.0,-0.0194244384765625,0.005279541015625,Waiting,0.0,0.0,0.0,0.0,0.0,0.0,0.0,0.0,
3.5834089999999996,0.0,0.0,false,4481357.814536341,,-13.0,0.0,0.0,0.0,0.0,0.0,1.8310545,0.0,0.0,0.0,0.0,0.0,-0.0,0.0,0.0,2.647704807,0.0,0.0,-2.0,0.0,0.0,0.0,0.0,0.0,3.980712483,0.0,0.0012207029999995456,0.0,0.0,0.0,-0.0,0.0,0.0,2.5280759130000003,0.0,0.0,1.2400000095367432,0.25,0.3199999928474426,0.07012939453125,0.0079345703125,1.01129150390625,27.940000534057617,0.0,65.0,-0.0185699462890625,0.005279541015625,Waiting,0.0,0.0,0.0,0.0,0.0,0.0,0.0,0.0,
3.6167570000000016,2.625,2.625,false,4479374.3,,-13.0,0.0,0.0,0.0,0.0,0.0,1.8310545,0.0,-0.0012207029999995456,0.0,0.0,0.0,-0.0,0.0,0.0,2.64892551,0.0,0.0,-2.0,0.0,0.0,0.0,0.0,0.0,3.980712483,0.0,0.0012207029999995456,0.0,0.0,0.0,-0.0,0.0,0.0,2.5280759130000003,0.0,0.0,1.25,0.25,0.3199999928474426,0.06243896484375,0.02178955078125,0.99725341796875,27.940000534057617,0.0,57.0,-0.016632080078125,0.005279541015625,Waiting,0.0,0.0,0.0,0.0,0.0,0.0,0.0,0.0,
3.6386210000000028,2.625,2.625,false,4477320.0,,-13.0,0.0,0.0,0.0,0.0,0.0,1.8310545,0.0,0.0012207029999995456,0.0,0.0,0.0,-0.0,0.0,0.0,2.64892551,0.0,-0.0012207030000004337,-2.0,0.0,0.0,0.0,0.0,0.0,3.980712483,0.0,0.0,0.0,0.0,0.0,-0.0,0.0,0.0,2.5268552100000004,0.0,0.0,1.2300000190734863,0.25,0.3199999928474426,0.0291748046875,0.01312255859375,1.01873779296875,27.940000534057617,0.0,24.0,-0.0144500732421875,0.005279541015625,Waiting,0.0,0.0,0.0,0.0,0.0,0.0,0.0,0.0,
3.661760000000002,20.375,19.75,false,4475185.034825871,,-13.0,0.0,0.0,0.0,0.0,0.0,1.835937312,0.0,0.0012207029999995456,0.0,0.0,0.0,-0.0,0.0,0.0,2.647704807,0.0,-0.0012207030000004337,-2.0,0.0,0.0,0.0,0.0,0.0,3.981933186,0.0,0.0,0.0,0.0,0.0,-0.0,0.0,0.0,2.525634507,0.0,0.0,1.2300000190734863,0.25,0.3199999928474426,-0.010986328125,0.02581787109375,1.0003662109375,27.940000534057617,0.0,-15.0,-0.013336181640625,0.005279541015625,Waiting,0.0,0.0,0.0,0.0,0.0,0.0,0.0,0.0,
3.680014000000003,20.375,19.75,false,4472980.387096774,,-13.0,0.0,0.0,0.0,0.0,0.0,1.8310545,0.0,0.0012207029999995456,0.0,0.0,0.0,-0.0,0.0,0.0,2.64892551,0.0,-0.0012207030000004337,-2.0,0.0,0.0,0.0,0.0,0.0,3.97949178,0.0,0.0,0.0,0.0,0.0,-0.0,0.0,0.0,2.5268552100000004,0.0,0.0,1.2300000190734863,0.25,0.3199999928474426,-0.05816650390625,0.034912109375,1.02020263671875,27.940000534057617,0.0,-62.0,-0.01226806640625,0.005279541015625,Waiting,0.0,0.0,0.0,0.0,0.0,0.0,0.0,0.0,
3.7033650000000016,20.375,19.75,false,4470706.574257426,,-13.0,0.0,0.0,0.0,0.0,0.0,1.826171688,0.0,0.0,0.0,0.0,0.0,-0.0,0.0,0.0,2.647704807,0.0,0.0012207030000004337,-2.0,0.0,0.0,0.0,0.0,0.0,3.980712483,0.0,0.0,0.0,0.0,0.0,-0.0,0.0,0.0,2.5268552100000004,0.0,0.0,1.25,0.27000001072883606,0.3199999928474426,-0.097900390625,-0.03076171875,0.97979736328125,27.940000534057617,0.0,-102.0,-0.01043701171875,0.0052490234375,Waiting,0.0,0.0,0.0,0.0,0.0,0.0,0.0,0.0,
3.7278170000000026,9.75,8.375,false,4468364.108641976,,-13.0,0.0,0.0,0.0,0.0,0.0,1.8310545,0.0,0.0,0.0,0.0,0.0,-0.0,0.0,0.0,2.647704807,0.0,0.0012207030000004337,-2.0,0.0,0.0,0.0,0.0,0.0,3.981933186,0.0,0.0,0.0,0.0,0.0,-0.0,0.0,0.0,2.5268552100000004,0.0,0.0,1.25,0.25999999046325684,0.3199999928474426,-0.0543212890625,0.02716064453125,0.97161865234375,27.940000534057617,0.0,-42.0,-0.009002685546875,0.0051116943359375,Waiting,0.0,0.0,0.0,0.0,0.0,0.0,0.0,0.0,
3.7564180000000014,9.75,8.375,false,4465942.8965517245,,-13.0,0.0,0.0,0.0,0.0,0.0,1.8310545,0.0,0.0,0.0,0.0,0.0,-0.0,0.0,0.0,2.647704807,0.0,-0.0012207030000004337,-2.0,0.0,0.0,0.0,0.0,0.0,3.980712483,0.0,0.0,0.0,0.0,0.0,-0.0,0.0,0.0,2.5268552100000004,0.0,0.0,1.25,0.25999999046325684,0.3199999928474426,1.8310546875E-4,0.0257568359375,1.03118896484375,27.940000534057617,0.0,-4.0,-0.0083465576171875,0.0049896240234375,Waiting,0.0,0.0,0.0,0.0,0.0,0.0,0.0,0.0,
3.777313000000002,9.75,8.375,false,4463454.093366093,,-13.0,0.0,0.0,0.0,0.0,0.0,1.8310545,0.0,0.0,0.0,0.0,0.0,-0.0,0.0,0.0,2.6464841040000002,0.0,-0.0012207030000004337,-2.0,0.0,0.0,0.0,0.0,0.0,3.981933186,0.0,0.0,0.0,0.0,0.0,-0.0,0.0,0.0,2.5268552100000004,0.0,0.0,1.2400000095367432,0.25,0.3100000023841858,0.09906005859375,0.0224609375,1.01824951171875,27.940000534057617,0.0,94.0,-0.0068817138671875,0.0048675537109375,Waiting,0.0,0.0,0.0,0.0,0.0,0.0,0.0,0.0,
3.8019200000000017,5.0,3.125,false,4460898.196078432,,-13.0,0.0,0.0,0.0,0.0,0.0,1.8310545,0.0,0.0,0.0,0.0,0.0,-0.0,0.0,0.0,2.647704807,0.0,0.0012207030000004337,-2.0,0.0,0.0,0.0,0.0,0.0,3.983153889,0.0,0.0,0.0,0.0,0.0,-0.0,0.0,0.0,2.5268552100000004,0.0,0.0,1.2400000095367432,0.25,0.3100000023841858,0.13555908203125,0.02496337890625,1.03607177734375,27.940000534057617,0.0,130.0,-0.0049591064453125,0.0048675537109375,Waiting,0.0,0.0,0.0,0.0,0.0,0.0,0.0,0.0,
3.8213240000000006,5.0,3.125,false,4458275.696821515,,-13.0,0.0,0.0,0.0,0.0,0.0,1.829833797,0.0,0.0,0.0,0.0,0.0,-0.0,0.0,0.0,2.647704807,0.0,0.0012207030000004337,-2.0,0.0,0.0,0.0,0.0,0.0,3.980712483,0.0,0.0,0.0,0.0,0.0,-0.0,0.0,0.0,2.5268552100000004,0.0,0.0,1.25,0.25,0.3199999928474426,0.05328369140625,0.07623291015625,0.99859619140625,27.940000534057617,0.0,49.0,-0.0037994384765625,0.004913330078125,Waiting,0.0,0.0,0.0,0.0,0.0,0.0,0.0,0.0,
3.8439550000000016,3.875,2.375,false,4455576.87804878,,-13.0,0.0,0.0,0.0,0.0,0.0,1.833495906,0.0,0.0,0.0,0.0,0.0,-0.0,0.0,0.0,2.647704807,0.0,-0.0012207030000004337,-2.0,0.0,0.0,0.0,0.0,0.0,3.980712483,0.0,0.0,0.0,0.0,0.0,-0.0,0.0,0.0,2.525634507,0.0,0.0,1.2699999809265137,0.25,0.3199999928474426,0.1011962890625,0.0728759765625,1.04510498046875,27.940000534057617,0.0,9.0,-0.0012359619140625,0.0051116943359375,Waiting,0.0,0.0,0.0,0.0,0.0,0.0,0.0,0.0,
3.8703450000000013,3.875,2.375,false,4452812.476885645,,-13.0,0.0,0.0,0.0,0.0,0.0,1.8310545,0.0,0.0,0.0,0.0,0.0,-0.0,0.0,0.0,2.647704807,0.0,-0.0012207030000004337,-2.0,0.0,0.0,0.0,0.0,0.0,3.980712483,0.0,0.0,0.0,0.0,0.0,-0.0,0.0,0.0,2.5268552100000004,0.0,0.0,1.2699999809265137,0.25,0.3199999928474426,0.0855712890625,0.009765625,1.01763916015625,27.940000534057617,0.0,80.0,1.373291015625E-4,0.0052642822265625,Waiting,0.0,0.0,0.0,0.0,0.0,0.0,0.0,0.0,
3.8975020000000002,3.875,2.375,false,4449982.970873786,,-13.0,0.0,0.0,0.0,0.0,0.0,1.8371580150000002,0.0,0.0,0.0,0.0,0.0,-0.0,0.0,0.0,2.647704807,0.0,0.0,-2.0,0.0,0.0,0.0,0.0,0.0,3.980712483,0.0,0.0,0.0,0.0,0.0,-0.0,0.0,0.0,2.5268552100000004,0.0,0.0,1.2699999809265137,0.25,0.3100000023841858,-0.02099609375,0.01104736328125,0.99920654296875,27.940000534057617,0.0,-25.0,0.0029296875,0.0056304931640625,Waiting,0.0,0.0,0.0,0.0,0.0,0.0,0.0,0.0,
3.9175600000000013,3.875,2.375,false,4447088.832929782,,-13.0,0.0,0.0,0.0,0.0,0.0,1.8310545,0.0,0.0,0.0,0.0,0.0,-0.0,0.0,0.0,2.647704807,0.0,0.0,-2.0,0.0,0.0,0.0,0.0,0.0,3.981933186,0.0,0.0,0.0,0.0,0.0,-0.0,0.0,0.0,2.521972398,0.0,0.0,1.2699999809265137,0.27000001072883606,0.3100000023841858,-0.03240966796875,0.040771484375,1.013671875,27.940000534057617,0.0,-37.0,0.0042724609375,0.005828857421875,Waiting,0.0,0.0,0.0,0.0,0.0,0.0,0.0,0.0,
3.938362000000001,3.5,2.375,false,4444130.531400966,,-13.0,0.0,0.0,0.0,0.0,0.0,1.826171688,0.0,0.0,0.0,0.0,0.0,-0.0,0.0,0.0,2.64892551,0.0,0.0,-2.0,0.0,0.0,0.0,0.0,0.0,3.980712483,0.0,-0.0012207029999995456,0.0,0.0,0.0,-0.0,0.0,0.0,2.525634507,0.0,0.0,1.2799999713897705,0.25999999046325684,0.3100000023841858,-0.04510498046875,0.0281982421875,0.981201171875,27.940000534057617,0.0,-49.0,0.0066986083984375,0.005828857421875,Waiting,0.0,0.0,0.0,0.0,0.0,0.0,0.0,0.0,
3.9609979999999996,3.5,2.375,false,4441020.202409638,,-13.0,0.0,0.0,0.0,0.0,0.0,1.8310545,0.0,-0.0012207029999995456,0.0,0.0,0.0,-0.0,0.0,0.0,2.647704807,0.0,0.0,-2.0,0.0,0.0,0.0,0.0,0.0,3.981933186,0.0,-0.0012207029999995456,0.0,0.0,0.0,-0.0,0.0,0.0,2.523193101,0.0,0.0,1.2799999713897705,0.27000001072883606,0.3100000023841858,-0.13153076171875,0.008544921875,0.9910888671875,27.940000534057617,0.0,-136.0,0.007720947265625,0.005828857421875,Waiting,0.0,0.0,0.0,0.0,0.0,0.0,0.0,0.0,
3.9825159999999995,3.625,2.125,false,4437894.692307692,,-13.0,0.0,0.0,0.0,0.0,0.0,1.832275203,0.0,-0.0012207029999995456,0.0,0.0,0.0,-0.0,0.0,0.0,2.64892551,0.0,0.0012207030000004337,-2.0,0.0,0.0,0.0,0.0,0.0,3.980712483,0.0,0.0012207029999995456,0.0,0.0,0.0,-0.0,0.0,0.0,2.525634507,0.0,0.0,1.2699999809265137,0.27000001072883606,0.3100000023841858,-0.1092529296875,0.0413818359375,0.99652099609375,27.940000534057617,0.0,-113.0,0.0094451904296875,0.0057373046875,Waiting,0.0,0.0,0.0,0.0,0.0,0.0,0.0,0.0,
4.013749,3.625,2.125,false,4439401.323741008,,-13.0,0.0,0.0,0.0,0.0,0.0,1.8310545,0.0,0.0012207029999995456,0.0,0.0,0.0,-0.0,0.0,0.0,2.647704807,0.0,0.0012207030000004337,-2.0,0.0,0.0,0.0,0.0,0.0,3.980712483,0.0,0.0012207029999995456,0.0,0.0,0.0,-0.0,0.0,0.0,2.525634507,0.0,0.0,1.2799999713897705,0.25999999046325684,0.3100000023841858,-0.02880859375,-0.02886962890625,0.97845458984375,27.940000534057617,0.0,-33.0,0.010162353515625,0.00567626953125,Waiting,0.0,0.0,0.0,0.0,0.0,0.0,0.0,0.0,
4.034623,3.625,2.125,false,4440817.933014354,,-13.0,0.0,0.0,0.0,0.0,0.0,1.8310545,0.0,0.0012207029999995456,0.0,0.0,0.0,-0.0,0.0,0.0,2.647704807,0.0,0.0012207030000004337,-2.0,0.0,0.0,0.0,0.0,0.0,3.980712483,0.0,0.0012207029999995456,0.0,0.0,0.0,-0.0,0.0,0.0,2.5268552100000004,0.0,0.0,1.2799999713897705,0.25999999046325684,0.3100000023841858,-0.02642822265625,-0.0184326171875,1.01800537109375,27.950000762939453,0.0,-31.0,0.0113677978515625,0.0054931640625,Waiting,0.0,0.0,0.0,0.0,0.0,0.0,0.0,0.0,
4.0566759999999995,3.5,2.125,false,4442145.164677804,,-13.0,0.0,0.0,0.0,0.0,0.0,1.832275203,0.0,-0.0012207029999995456,0.0,0.0,0.0,-0.0,0.0,0.0,2.647704807,0.0,-0.0012207030000004337,-2.0,0.0,0.0,0.0,0.0,0.0,3.981933186,0.0,0.0,0.0,0.0,0.0,-0.0,0.0,0.0,2.5268552100000004,0.0,0.0,1.2699999809265137,0.27000001072883606,0.3100000023841858,0.03533935546875,0.05108642578125,0.98468017578125,27.950000762939453,0.0,30.0,0.011932373046875,0.0053863525390625,Waiting,0.0,0.0,0.0,0.0,0.0,0.0,0.0,0.0,
4.074678,3.5,2.125,false,4443375.714285715,,-13.0,0.0,0.0,0.0,0.0,0.0,1.8310545,0.0,-0.0012207029999995456,0.0,0.0,0.0,-0.0,0.0,0.0,2.647704807,0.0,-0.0012207030000004337,-2.0,0.0,0.0,0.0,0.0,0.0,3.980712483,0.0,0.0,0.0,0.0,0.0,-0.0,0.0,0.0,2.5268552100000004,0.0,0.0,1.2799999713897705,0.25999999046325684,0.3100000023841858,-0.0050048828125,0.03204345703125,1.0001220703125,27.950000762939453,0.0,-9.0,0.01251220703125,0.00531005859375,Waiting,0.0,0.0,0.0,0.0,0.0,0.0,0.0,0.0,
4.097214,3.625,2.25,false,4444518.194774346,,-13.0,0.0,0.0,0.0,0.0,0.0,1.8310545,0.0,0.0,0.0,0.0,0.0,-0.0,0.0,0.0,2.647704807,0.0,0.0,-2.0,0.0,0.0,0.0,0.0,0.0,3.9904781070000004,0.0,0.0,0.0,0.0,0.0,-0.0,0.0,0.0,2.5268552100000004,0.0,0.0,1.2699999809265137,0.25,0.3100000023841858,0.0194091796875,0.0738525390625,1.0079345703125,27.950000762939453,0.0,15.0,0.0138702392578125,0.005157470703125,Waiting,0.0,0.0,0.0,0.0,0.0,0.0,0.0,0.0,
4.1150090000000015,3.625,2.25,false,4445573.232227488,,-13.0,0.0,0.0,0.0,0.0,0.0,1.829833797,0.0,0.0,0.0,0.0,0.0,-0.0,0.0,0.0,2.647704807,0.0,0.0,-2.0,0.0,0.0,0.0,0.0,0.0,3.980712483,0.0,0.0,0.0,0.0,0.0,-0.0,0.0,0.0,2.5268552100000004,0.0,0.0,1.2899999618530273,0.25,0.3199999928474426,0.1326904296875,0.012451171875,1.01116943359375,27.950000762939453,0.0,128.0,0.014678955078125,0.0051116943359375,Waiting,0.0,0.0,0.0,0.0,0.0,0.0,0.0,0.0,
4.135849000000002,3.625,2.25,false,4446541.44680851,,-13.0,0.0,0.0,0.0,0.0,0.0,1.8310545,0.0,0.0,0.0,0.0,0.0,-0.0,0.0,0.0,2.64892551,0.0,0.0,-2.0,0.0,0.0,0.0,0.0,0.0,3.981933186,0.0,0.0,0.0,0.0,0.0,-0.0,0.0,0.0,2.5268552100000004,0.0,0.0,1.2799999713897705,0.25999999046325684,0.3100000023841858,0.0511474609375,0.073486328125,1.0316162109375,27.950000762939453,0.0,46.0,0.0156097412109375,0.005096435546875,Waiting,0.0,0.0,0.0,0.0,0.0,0.0,0.0,0.0,
4.15741,3.625,2.25,false,4447415.867924528,,-13.0,0.0,0.0,0.0,0.0,0.0,1.8310545,0.0,0.0012207029999995456,0.0,0.0,0.0,-0.0,0.0,0.0,2.647704807,0.0,0.0,-2.0,0.0,0.0,0.0,0.0,0.0,3.9953609190000003,0.0,0.0,0.0,0.0,0.0,-0.0,0.0,0.0,2.5268552100000004,0.0,0.0,1.2999999523162842,0.25999999046325684,0.3100000023841858,0.08587646484375,0.0621337890625,1.02239990234375,27.950000762939453,0.0,81.0,0.0178375244140625,0.00518798828125,Waiting,0.0,0.0,0.0,0.0,0.0,0.0,0.0,0.0,
4.177667000000001,2.875,1.875,false,4448204.724705882,,-13.0,0.0,0.0,0.0,0.0,0.0,1.8310545,0.0,0.0012207029999995456,0.0,0.0,0.0,-0.0,0.0,0.0,2.647704807,0.0,0.0,-2.0,0.0,0.0,0.0,0.0,0.0,3.983153889,0.0,0.0,0.0,0.0,0.0,-0.0,0.0,0.0,2.525634507,0.0,0.0,1.2999999523162842,0.25,0.3100000023841858,0.05865478515625,-0.0089111328125,1.033203125,27.950000762939453,0.0,53.0,0.01910400390625,0.0052642822265625,Waiting,0.0,0.0,0.0,0.0,0.0,0.0,0.0,0.0,
4.202335000000002,2.875,1.875,false,4448908.6197183095,,-13.0,0.0,0.0,0.0,0.0,0.0,1.8310545,0.0,-0.0012207029999995456,0.0,0.0,0.0,-0.0,0.0,0.0,2.647704807,0.0,0.0012207030000004337,-2.0,0.0,0.0,0.0,0.0,0.0,3.980712483,0.0,0.0,0.0,0.0,0.0,-0.0,0.0,0.0,2.525634507,0.0,0.0,1.2899999618530273,0.25,0.3100000023841858,0.002685546875,0.0087890625,1.0224609375,27.950000762939453,0.0,-1.0,0.0218048095703125,0.0054168701171875,Waiting,0.0,0.0,0.0,0.0,0.0,0.0,0.0,0.0,
4.223300999999999,2.875,1.875,false,4449528.149882904,,-13.0,0.0,0.0,0.0,0.0,0.0,1.8310545,0.0,-0.0012207029999995456,0.0,0.0,0.0,-0.0,0.0,0.0,2.647704807,0.0,0.0012207030000004337,-2.0,0.0,0.0,0.0,0.0,0.0,3.980712483,0.0,0.0,0.0,0.0,0.0,-0.0,0.0,0.0,2.523193101,0.0,0.0,1.2899999618530273,0.25999999046325684,0.3100000023841858,-0.01837158203125,0.02130126953125,0.9996337890625,27.950000762939453,0.0,-22.0,0.0245513916015625,0.005615234375,Waiting,0.0,0.0,0.0,0.0,0.0,0.0,0.0,0.0,
4.247575,0.0,0.0,false,4450056.074766356,,-13.0,0.0,0.0,0.0,0.0,0.0,1.8310545,0.0,0.0012207029999995456,0.0,0.0,0.0,-0.0,0.0,0.0,2.647704807,0.0,0.0,-2.0,0.0,0.0,0.0,0.0,0.0,4.002685137,0.0,0.0,0.0,0.0,0.0,-0.0,0.0,0.0,2.5268552100000004,0.0,0.0,1.2899999618530273,0.23999999463558197,0.3100000023841858,-0.00341796875,0.029052734375,1.0196533203125,27.950000762939453,0.0,-7.0,0.025909423828125,0.0057373046875,Waiting,0.0,0.0,0.0,0.0,0.0,0.0,0.0,0.0,
4.273221000000001,0.0,0.0,false,4450500.848484849,,-13.0,0.0,0.0,0.0,0.0,0.0,1.8310545,0.0,0.0012207029999995456,0.0,0.0,0.0,-0.0,0.0,0.0,2.64892551,0.0,0.0,-2.0,0.0,0.0,0.0,0.0,0.0,3.981933186,0.0,0.0,0.0,0.0,0.0,-0.0,0.0,0.0,2.5341794280000003,0.0,0.0,1.2899999618530273,0.25999999046325684,0.3100000023841858,-0.0233154296875,0.0130615234375,1.0130615234375,27.950000762939453,0.0,-27.0,0.028533935546875,0.0057373046875,Waiting,0.0,0.0,0.0,0.0,0.0,0.0,0.0,0.0,
4.298906000000002,0.0,0.0,false,4450863.0511627905,,-13.0,0.0,0.0,0.0,0.0,0.0,1.8310545,0.0,0.0,0.0,0.0,0.0,-0.0,0.0,0.0,2.647704807,0.0,0.0,-2.0,0.0,0.0,0.0,0.0,0.0,3.981933186,0.0,0.0012207030000004337,0.0,0.0,0.0,-0.0,0.0,0.0,2.5268552100000004,0.0,0.0,1.2899999618530273,0.25999999046325684,0.3100000023841858,-0.0372314453125,0.04510498046875,1.0078125,27.950000762939453,0.0,-41.0,0.02978515625,0.0057525634765625,Waiting,0.0,0.0,0.0,0.0,0.0,0.0,0.0,0.0,
4.3190550000000005,0.0,0.0,false,4451135.795823666,,-13.0,0.0,0.0,0.0,0.0,0.0,1.8310545,0.0,0.0,0.0,0.0,0.0,-0.0,0.0,0.0,2.647704807,0.0,0.0,-2.0,0.0,0.0,0.0,0.0,0.0,3.97949178,0.0,0.0012207030000004337,0.0,0.0,0.0,-0.0,0.0,0.0,2.5268552100000004,0.0,0.0,1.2899999618530273,0.25999999046325684,0.3100000023841858,-0.05889892578125,0.031494140625,1.00311279296875,27.950000762939453,0.0,-63.0,0.0320892333984375,0.00579833984375,Waiting,0.0,0.0,0.0,0.0,0.0,0.0,0.0,0.0,
4.3378450000000015,0.0,0.0,false,4451327.148148148,,-13.0,0.0,0.0,0.0,0.0,0.0,1.8310545,0.0,0.0,0.0,0.0,0.0,-0.0,0.0,0.0,2.647704807,0.0,0.0,-2.0,0.0,0.0,0.0,0.0,0.0,3.980712483,0.0,-0.0012207030000004337,0.0,0.0,0.0,-0.0,0.0,0.0,2.5268552100000004,0.0,0.0,1.2999999523162842,0.25999999046325684,0.3100000023841858,-0.0595703125,0.02490234375,1.0074462890625,27.950000762939453,0.0,-64.0,0.0331268310546875,0.00579833984375,Waiting,0.0,0.0,0.0,0.0,0.0,0.0,0.0,0.0,
4.362225000000002,0.0,0.0,false,4451437.672055427,,-13.0,0.0,0.0,0.0,0.0,0.0,1.8310545,0.0,0.0,0.0,0.0,0.0,-0.0,0.0,0.0,2.647704807,0.0,-0.0012207030000004337,-2.0,0.0,0.0,0.0,0.0,0.0,3.980712483,0.0,-0.0012207030000004337,0.0,0.0,0.0,-0.0,0.0,0.0,2.5268552100000004,0.0,0.0,1.2999999523162842,0.25999999046325684,0.3100000023841858,-0.067138671875,0.01287841796875,0.9822998046875,27.950000762939453,0.0,-71.0,0.034912109375,0.00579833984375,Waiting,0.0,0.0,0.0,0.0,0.0,0.0,0.0,0.0,
4.381777000000002,0.0,0.0,false,4451460.239631336,,-13.0,0.0,0.0,0.0,0.0,0.0,1.8310545,0.0,0.0,0.0,0.0,0.0,-0.0,0.0,0.0,2.647704807,0.0,-0.0012207030000004337,-2.0,0.0,0.0,0.0,0.0,0.0,3.9868159980000004,0.0,-0.0012207030000004337,0.0,0.0,0.0,-0.0,0.0,0.0,2.5268552100000004,0.0,0.0,1.2999999523162842,0.25999999046325684,0.3100000023841858,-0.05712890625,0.01031494140625,0.98773193359375,27.950000762939453,0.0,-61.0,0.035675048828125,0.00579833984375,Waiting,0.0,0.0,0.0,0.0,0.0,0.0,0.0,0.0,
4.411808000000001,0.0,0.0,false,4451403.126436782,,-13.0,0.0,0.0,0.0,0.0,0.0,1.8310545,0.0,-0.0012207029999995456,0.0,0.0,0.0,-0.0,0.0,0.0,2.647704807,0.0,0.0012207030000004337,-2.0,0.0,0.0,0.0,0.0,0.0,3.980712483,0.0,0.0,0.0,0.0,0.0,-0.0,0.0,0.0,2.5268552100000004,0.0,0.0,1.2999999523162842,0.25999999046325684,0.3100000023841858,-0.0345458984375,0.00994873046875,0.98175048828125,27.950000762939453,0.0,-39.0,0.0369720458984375,0.00579833984375,Waiting,0.0,0.0,0.0,0.0,0.0,0.0,0.0,0.0,
4.434456000000002,0.0,0.0,false,4451266.880733945,,-13.0,0.0,0.0,0.0,0.0,0.0,1.8310545,0.0,-0.0012207029999995456,0.0,0.0,0.0,-0.0,0.0,0.0,2.647704807,0.0,0.0012207030000004337,-2.0,0.0,0.0,0.0,0.0,0.0,3.980712483,0.0,0.0,0.0,0.0,0.0,-0.0,0.0,0.0,2.525634507,0.0,0.0,1.2999999523162842,0.25999999046325684,0.3100000023841858,-0.034423828125,0.01275634765625,0.98822021484375,27.950000762939453,0.0,-39.0,0.0375213623046875,0.00579833984375,Waiting,0.0,0.0,0.0,0.0,0.0,0.0,0.0,0.0,
4.460166000000001,0.0,0.0,false,4451044.686498856,,-13.0,0.0,0.0,0.0,0.0,0.0,1.8310545,0.0,0.0,0.0,0.0,0.0,-0.0,0.0,0.0,2.6464841040000002,0.0,0.0,-2.0,0.0,0.0,0.0,0.0,0.0,3.981933186,0.0,0.0,0.0,0.0,0.0,-0.0,0.0,0.0,2.525634507,0.0,0.0,1.2999999523162842,0.25999999046325684,0.30000001192092896,9.1552734375E-4,0.01983642578125,0.9822998046875,27.950000762939453,0.0,-3.0,0.0385284423828125,0.00579833984375,Waiting,0.0,0.0,0.0,0.0,0.0,0.0,0.0,0.0,
4.483306000000001,0.0,0.0,false,4450744.474885845,,-13.0,0.0,0.0,0.0,0.0,0.0,1.834716609,0.0,0.0,0.0,0.0,0.0,-0.0,0.0,0.0,2.647704807,0.0,0.0,-2.0,0.0,0.0,0.0,0.0,0.0,3.981933186,0.0,0.0,0.0,0.0,0.0,-0.0,0.0,0.0,2.5268552100000004,0.0,0.0,1.2999999523162842,0.25999999046325684,0.30000001192092896,0.03033447265625,0.0247802734375,1.00140380859375,27.950000762939453,0.0,25.0,0.0395355224609375,0.00579833984375,Waiting,0.0,0.0,0.0,0.0,0.0,0.0,0.0,0.0,
4.512478000000002,0.0,0.0,false,4450287.927107061,,-13.0,0.0,0.0,0.0,0.0,0.0,1.8310545,0.0,0.0012207029999995456,0.0,0.0,0.0,-0.0,0.0,0.0,2.647704807,0.0,0.0,-2.0,0.0,0.0,0.0,0.0,0.0,3.981933186,0.0,0.0,0.0,0.0,0.0,-0.0,0.0,0.0,2.5268552100000004,0.0,0.0,1.2999999523162842,0.25,0.3100000023841858,0.05810546875,0.027587890625,1.01422119140625,27.950000762939453,0.0,53.0,0.0407257080078125,0.00579833984375,Waiting,0.0,0.0,0.0,0.0,0.0,0.0,0.0,0.0,
