Time,ClimberA1,ClimberA2,CameraExists,HeapSpace,LoopTime,FRpos,FRCurrent,FRspeed,FRsetpoint,FRApos,FRACurrent,FREncpos,FREncSetpoint,FREncSpeed,FLpos,FLCurrent,FLspeed,FLsetpoint,FLApos,FLACurrent,FLEncpos,FLEncSetpoint,FLEncSpeed,BRpos,BRCurrent,BRspeed,BRsetpoint,BRApos,BRACurrent,BREncpos,BREncSetpoint,BREncSpeed,BLpos,BLCurrent,BLspeed,BLsetpoint,BLApos,BLACurrent,BLEncpos,BLEncSetpoint,BLEncSpeed,navx_Pitch,navx_Roll,navx_Yaw,navx_XAcc,navx_YAcc,navx_ZAcc,navx_Temp,navx_Bar,navx_Alt,navx_XDis,navx_YDis,GearPlacerState,ShootOutputV,ShootOutputCurrent,ShootEncPos,ShootEncVelocity,ShootSpeed,ShootSetpoint,CarouselSetpoint,CarouselCurrent,
0.14830199999999605,0.0,0.0,false,2816845.794871795,,3185.0,0.125,0.0,-115.74803106486797,0.0,0.125,1.796874816,0.5533560492066895,0.0,-3127.0,0.0,0.0,-115.74803106486797,0.0,0.0,2.6855466000000003,4.397316058113635,0.0,3140.0,0.0,0.0,-115.74803106486797,0.0,0.0,3.9965816220000003,4.401758689006861,0.0,-3264.0,0.0,0.0,-115.74803106486797,0.0,0.0,2.512206774,0.5515167311543324,0.0,0.8600000143051147,0.800000011920929,104.26000213623047,0.0108642578125,0.02490234375,1.00946044921875,30.56999969482422,0.0,10.0,-0.26666259765625,-0.270263671875,Waiting,0.0,0.0,-26740.0,0.0,0.0,0.0,0.0,0.0,
0.18129199999998674,0.0,0.0,false,2817456.844042728,,3185.0,0.125,0.0,-115.74803106486797,0.0,1.75,1.822509579,0.5533560492066895,0.0,-3127.0,0.0,0.0,-115.74803106486797,0.0,0.625,2.663573946,4.397316058113635,0.0,3140.0,0.0,0.0,-115.74803106486797,0.0,0.625,3.9916988100000004,4.401758689006861,0.0,-3264.0,0.0,0.0,-115.74803106486797,0.0,0.0,2.510986071,0.5515167311543324,0.0,0.8799999952316284,0.800000011920929,104.26000213623047,0.00933837890625,0.02386474609375,0.99737548828125,30.56999969482422,0.0,9.0,-0.26666259765625,-0.270263671875,Waiting,0.0,0.0,-26740.0,0.0,0.0,0.0,0.0,0.0,
0.21670499999998719,0.0,0.0,false,2818060.467959251,,3185.0,0.0,0.0,-115.74803106486797,0.0,2.625,1.9726560480000002,0.5533560492066895,0.0,-3127.0,0.0,0.0,-115.74803106486797,0.0,2.0,2.512206774,4.397316058113635,0.0,3140.0,0.0,0.0,-115.74803106486797,0.0,1.75,3.868407807,4.401758689006861,0.0,-3264.0,0.0,0.0,-115.74803106486797,0.0,1.75,2.5939938750000002,0.5515167311543324,0.0,0.8899999856948853,0.800000011920929,104.26000213623047,0.011962890625,0.02069091796875,0.99237060546875,30.56999969482422,0.0,5.0,-0.26666259765625,-0.270263671875,Waiting,0.0,0.0,-26740.0,0.0,0.0,0.0,0.0,0.0,
0.2548429999999935,0.0,0.0,false,2818649.8229012648,,3185.0,0.0,-7.5,-115.74803106486797,0.0,1.375,2.133788844,0.5533560492066895,0.16601560800000037,-3127.0,0.0,0.0,-115.74803106486797,0.0,1.375,2.3706052260000003,4.397316058113635,-0.1672363110000008,3140.0,0.0,0.0,-115.74803106486797,0.0,1.25,3.7414546950000003,4.401758689006861,-0.15014646900000006,-3264.0,0.0,0.0,-115.74803106486797,0.0,2.0,2.718505581,0.5515167311543324,0.09521483400000008,0.8899999856948853,0.7900000214576721,104.26000213623047,0.01739501953125,0.05706787109375,1.01971435546875,30.56999969482422,0.0,39.0,-0.2666473388671875,-0.270263671875,Waiting,0.0,0.0,-26740.0,0.0,0.0,0.0,0.0,0.0,
0.2923669999999984,0.0,0.0,false,2819231.7608409985,,3185.0,0.125,-15.0,-115.74803106486797,0.0,0.5,2.280273204,0.5533560492066895,0.17211912299999987,-3127.0,0.0,0.0,-115.74803106486797,0.0,0.125,2.236327896,4.397316058113635,-0.1477050629999992,3140.0,0.0,0.0,-115.74803106486797,0.0,0.125,3.5852047110000003,4.401758689006861,-0.15258787500000004,-3264.0,0.0,-7.5,-115.74803106486797,0.0,0.25,2.863769238,0.5515167311543324,0.14892576600000007,0.9300000071525574,0.75,104.2699966430664,-0.0128173828125,0.04608154296875,1.06622314453125,30.56999969482422,0.0,34.0,-0.2664794921875,-0.2703704833984375,Waiting,0.0,0.0,-26740.0,0.0,0.0,0.0,0.0,0.0,
0.32941599999999743,0.0,0.0,false,2819806.3064542618,,3179.0,0.125,-22.5,-115.74803106486797,0.0,0.375,2.395019286,0.5533560492066895,0.0,-3127.0,0.0,0.0,-115.74803106486797,0.0,0.0,2.143554468,4.397316058113635,0.0,3140.0,0.0,0.0,-115.74803106486797,0.0,0.0,3.489989877,4.401758689006861,0.0,-3269.0,0.0,-22.5,-115.74803106486797,0.0,0.25,2.989501647,0.5515167311543324,0.0,0.949999988079071,0.75,104.30000305175781,-0.0029296875,0.009521484375,0.9462890625,30.56999969482422,0.0,-2.0,-0.26617431640625,-0.270416259765625,Waiting,0.0,0.0,-26740.0,0.0,0.0,0.0,0.0,0.0,
0.3686609999999928,0.0,0.0,false,2820373.4633825943,,3179.0,0.125,-30.0,-115.74803106486797,0.0,0.375,2.4243161580000003,0.5533560492066895,0.0,-3127.0,0.0,0.0,-115.74803106486797,0.0,0.0,2.138671656,4.397316058113635,0.0,3140.0,0.0,0.0,-115.74803106486797,0.0,0.0,3.463134411,4.401758689006861,0.0,-3269.0,0.0,-37.5,-115.74803106486797,0.0,0.25,3.020019222,0.5515167311543324,0.0,0.9700000286102295,0.7200000286102295,104.33999633789062,0.02838134765625,0.033203125,1.0018310546875,30.56999969482422,0.0,11.0,-0.2660064697265625,-0.270416259765625,Waiting,0.0,0.0,-26740.0,0.0,0.0,0.0,0.0,0.0,
0.40699199999999836,0.0,0.0,false,2820926.708914792,,3179.0,0.125,-37.5,-115.74803106486797,0.0,0.125,2.419433346,0.5533560492066895,0.008544920999999484,-3127.0,0.0,0.0,-115.74803106486797,0.0,0.0,2.139892359,4.397316058113635,0.0012207030000004337,3140.0,0.0,0.0,-115.74803106486797,0.0,0.0,3.4680172230000004,4.401758689006861,-0.01586913899999942,-3269.0,0.0,-22.5,-115.74803106486797,0.0,0.0,3.016357113,0.5515167311543324,0.024414060000000237,0.9700000286102295,0.7300000190734863,104.38999938964844,0.0341796875,0.00177001953125,1.020263671875,30.56999969482422,0.0,-20.0,-0.2660369873046875,-0.270416259765625,Waiting,0.0,0.0,-26740.0,0.0,0.0,0.0,0.0,0.0,
0.4482699999999895,0.0,0.0,false,2821472.5751805645,,3172.0,0.125,-45.0,-115.74803106486797,0.0,0.125,2.40478491,0.5533560492066895,-0.006103515000000392,-3127.0,0.125,0.0,-115.74803106486797,0.0,0.0,2.152099389,4.397316058113635,0.004882811999999959,3140.0,0.125,0.0,-115.74803106486797,0.0,0.0,3.488769174,4.401758689006861,0.006103514999999504,-3270.0,0.0,0.0,-115.74803106486797,0.0,0.0,3.0065914890000003,0.5515167311543324,0.0,0.9700000286102295,0.7699999809265137,104.4000015258789,0.03350830078125,0.03131103515625,0.9827880859375,30.56999969482422,0.0,9.0,-0.266143798828125,-0.2705078125,Waiting,0.0,0.0,-26740.0,0.0,0.0,0.0,0.0,0.0,
0.48749199999999837,0.0,0.0,false,2822011.0461184965,,3172.0,0.125,-45.0,-115.74803106486797,0.0,0.125,2.399902098,0.5533560492066895,0.0,-3127.0,0.125,0.0,-115.74803106486797,0.0,0.0,2.1740720430000002,4.397316058113635,0.0,3140.0,0.125,0.0,-115.74803106486797,0.0,0.0,3.498534798,4.401758689006861,0.0,-3270.0,0.0,0.0,-115.74803106486797,0.0,0.0,2.9980465680000004,0.5515167311543324,0.0,0.9900000095367432,0.7799999713897705,104.38999938964844,0.01318359375,0.03924560546875,1.0057373046875,30.56999969482422,0.0,21.0,-0.26611328125,-0.2705841064453125,Waiting,0.0,0.0,-26740.0,0.0,0.0,0.0,0.0,0.0,
0.5233889999999956,0.0,0.0,false,2822542.1450607153,,3172.0,0.125,-30.0,-115.74803106486797,0.0,0.125,2.399902098,0.5533560492066895,0.0,-3127.0,0.25,0.0,-115.74803106486797,0.0,0.0,2.1667478250000003,4.397316058113635,0.0,3140.0,0.125,0.0,-115.74803106486797,0.0,0.0,3.502196907,4.401758689006861,0.0,-3270.0,0.125,0.0,-115.74803106486797,0.0,0.0,2.9980465680000004,0.5515167311543324,0.0,1.0199999809265137,0.7599999904632568,104.37000274658203,0.00775146484375,0.02972412109375,1.00689697265625,30.559999465942383,0.0,12.0,-0.2659149169921875,-0.2705841064453125,Waiting,0.0,0.0,-26740.0,0.0,0.0,0.0,0.0,0.0,
0.565188999999984,0.0,0.0,false,2823058.996554553,,3167.0,0.125,-22.5,-115.74803106486797,0.0,0.125,2.399902098,0.5533560492066895,0.0,-3127.0,0.5,0.0,-115.74803106486797,0.0,0.0,2.176513449,4.397316058113635,0.0,3140.0,0.125,0.0,-115.74803106486797,0.0,0.0,3.508300422,4.401758689006861,0.0,-3272.0,0.125,-7.5,-115.74803106486797,0.0,0.0,2.9980465680000004,0.5515167311543324,0.0,1.0299999713897705,0.75,104.37000274658203,0.0113525390625,0.01220703125,1.01025390625,30.559999465942383,0.0,-5.0,-0.2657928466796875,-0.2705841064453125,Waiting,0.0,0.0,-26740.0,0.0,0.0,0.0,0.0,0.0,
0.6029409999999916,0.0,0.0,false,2823568.4855643045,,3167.0,0.125,-22.5,-115.74803106486797,0.0,0.125,2.401122801,0.5533560492066895,0.0,-3127.0,0.5,0.0,-115.74803106486797,0.0,0.0,2.176513449,4.397316058113635,0.004882811999999959,3140.0,0.375,0.0,-115.74803106486797,0.0,0.0,3.499755501,4.401758689006861,0.003662109000000413,-3272.0,0.25,-15.0,-115.74803106486797,0.0,0.0,2.9980465680000004,0.5515167311543324,0.0,1.0399999618530273,0.7400000095367432,104.41999816894531,0.00543212890625,0.0233154296875,1.01263427734375,30.559999465942383,0.0,6.0,-0.2657928466796875,-0.2705841064453125,Waiting,0.0,0.0,-26740.0,0.0,0.0,0.0,0.0,0.0,
0.6413569999999891,0.0,0.0,false,2824070.9516155487,,3167.0,0.125,-37.5,-115.74803106486797,0.0,0.125,2.399902098,0.5533560492066895,0.0,-3127.0,0.625,0.0,-115.74803106486797,0.0,0.0,2.177734152,4.397316058113635,0.0,3140.0,0.125,-30.0,-115.74803106486797,0.0,0.0,3.507079719,4.401758689006861,0.0,-3272.0,0.375,-15.0,-115.74803106486797,0.0,0.0,2.9980465680000004,0.5515167311543324,0.0,1.0399999618530273,0.7400000095367432,104.44999694824219,0.01824951171875,0.02789306640625,0.9896240234375,30.559999465942383,0.0,8.0,-0.2657928466796875,-0.2705841064453125,Waiting,0.0,0.0,-26740.0,0.0,0.0,0.0,0.0,0.0,
0.6734059999999882,0.0,0.0,false,2824566.0623155134,,3158.0,0.125,-45.0,-115.74803106486797,0.0,0.125,2.399902098,0.5533560492066895,0.0,-3127.0,0.75,0.0,-115.74803106486797,0.0,0.0,2.176513449,4.397316058113635,0.0,3124.0,0.125,-60.0,-115.74803106486797,0.0,0.0,3.508300422,4.401758689006861,0.0,-3275.0,0.5,-15.0,-115.74803106486797,0.0,0.0,2.9980465680000004,0.5515167311543324,0.0,1.059999942779541,0.7300000190734863,104.48999786376953,-5.4931640625E-4,0.0240478515625,1.00018310546875,30.559999465942383,0.0,8.0,-0.2657928466796875,-0.2705841064453125,Waiting,0.0,0.0,-26740.0,0.0,0.0,0.0,0.0,0.0,
0.7118199999999779,0.0,0.0,false,2825053.821282177,,3158.0,0.125,-45.0,-115.74803106486797,0.0,0.125,2.401122801,0.5533560492066895,0.0,-3127.0,0.75,0.0,-115.74803106486797,0.0,0.0,2.177734152,4.397316058113635,0.0,3124.0,0.125,-105.0,-115.74803106486797,0.0,0.0,3.508300422,4.401758689006861,0.0,-3275.0,0.5,-15.0,-115.74803106486797,0.0,0.0,2.9968258650000004,0.5515167311543324,0.0,1.0800000429153442,0.7099999785423279,104.52999877929688,-0.0032958984375,0.02203369140625,1.01776123046875,30.559999465942383,0.0,6.0,-0.2657928466796875,-0.2705841064453125,Waiting,0.0,0.0,-26740.0,0.0,0.0,0.0,0.0,0.0,
0.7528889999999956,0.0,0.0,false,2825527.379672131,,3158.0,0.125,-37.5,-115.74803106486797,0.0,0.125,2.399902098,0.5533560492066895,0.0,-3127.0,0.875,0.0,-115.74803106486797,0.0,0.0,2.177734152,4.397316058113635,0.0,3124.0,0.375,-90.0,-115.74803106486797,0.0,0.0,3.507079719,4.401758689006861,0.0012207029999995456,-3275.0,0.5,-15.0,-115.74803106486797,0.0,0.0,2.9980465680000004,0.5515167311543324,0.0,1.0800000429153442,0.7200000286102295,104.55999755859375,0.02093505859375,0.01611328125,1.00390625,30.559999465942383,0.0,-4.0,-0.2657928466796875,-0.2705841064453125,Waiting,0.0,0.0,-26740.0,0.0,0.0,0.0,0.0,0.0,
0.7915270000000019,0.0,0.0,false,2825993.9314866415,,3158.0,0.25,-22.5,-115.74803106486797,0.0,0.125,2.399902098,0.5533560492066895,0.0012207030000004337,-3127.0,1.125,0.0,-115.74803106486797,0.0,0.0,2.176513449,4.397316058113635,0.0,3122.0,0.625,-30.0,-115.74803106486797,0.0,0.0,3.507079719,4.401758689006861,0.0,-3277.0,0.5,-7.5,-115.74803106486797,0.0,0.0,2.9980465680000004,0.5515167311543324,0.0,1.0800000429153442,0.7300000190734863,104.58000183105469,0.02294921875,0.01153564453125,0.99676513671875,30.559999465942383,0.0,-9.0,-0.2657928466796875,-0.2705841064453125,Waiting,0.0,0.0,-26740.0,0.0,0.0,0.0,0.0,0.0,
0.8372479999999923,0.0,0.0,false,2826453.144542773,,3156.0,0.375,-7.5,-115.74803106486797,0.0,0.125,2.401122801,0.5533560492066895,0.0,-3127.0,1.25,0.0,-115.74803106486797,0.0,0.0,2.177734152,4.397316058113635,0.0,3122.0,0.875,0.0,-115.74803106486797,0.0,0.0,3.508300422,4.401758689006861,0.0,-3277.0,0.625,-7.5,-115.74803106486797,0.0,0.0,2.9956051620000004,0.5515167311543324,0.0,1.0800000429153442,0.7300000190734863,104.5999984741211,-0.002685546875,0.03375244140625,1.000732421875,30.559999465942383,0.0,18.0,-0.2657928466796875,-0.2705841064453125,Waiting,0.0,0.0,-26740.0,0.0,0.0,0.0,0.0,0.0,
0.8677649999999849,0.0,0.0,false,2826905.0224479763,,3156.0,0.375,0.0,-115.74803106486797,0.0,0.125,2.399902098,0.5533560492066895,0.0,-3127.0,1.25,0.0,-115.74803106486797,0.0,0.0,2.176513449,4.397316058113635,0.0,3122.0,1.0,-7.5,-115.74803106486797,0.0,0.0,3.507079719,4.401758689006861,0.0,-3277.0,0.75,-7.5,-115.74803106486797,0.0,0.0,2.9980465680000004,0.5515167311543324,0.0,1.1200000047683716,0.6899999976158142,104.62999725341797,0.0023193359375,0.032958984375,1.00201416015625,30.559999465942383,0.0,15.0,-0.2657318115234375,-0.2705841064453125,Waiting,0.0,0.0,-26740.0,0.0,0.0,0.0,0.0,0.0,
0.9086079999999783,0.0,0.0,false,2827342.720838794,,3156.0,0.5,0.0,-115.74803106486797,0.0,0.125,2.399902098,0.5533560492066895,0.0012207030000004337,-3127.0,1.375,0.0,-115.74803106486797,0.0,0.0,2.176513449,4.397316058113635,0.0,3122.0,1.0,-7.5,-115.74803106486797,0.0,0.0,3.507079719,4.401758689006861,0.0,-3278.0,0.875,-7.5,-115.74803106486797,0.0,0.0,2.9980465680000004,0.5515167311543324,-0.0012207029999999897,1.1299999952316284,0.6899999976158142,104.6500015258789,0.01336669921875,0.02130126953125,1.01470947265625,30.559999465942383,0.0,0.0,-0.2656707763671875,-0.2705841064453125,Waiting,0.0,0.0,-26740.0,0.0,0.0,0.0,0.0,0.0,
0.9477819999999774,0.0,0.0,false,2827773.0935298936,,3155.0,0.75,-7.5,-115.74803106486797,0.0,0.125,2.401122801,0.5533560492066895,0.0,-3127.0,1.5,0.0,-115.74803106486797,0.0,0.0,2.176513449,4.397316058113635,0.0,3119.0,1.125,-15.0,-115.74803106486797,0.0,0.0,3.507079719,4.401758689006861,0.0012207029999995456,-3278.0,1.0,0.0,-115.74803106486797,0.0,0.0,2.9980465680000004,0.5515167311543324,0.0,1.1200000047683716,0.699999988079071,104.69999694824219,0.0250244140625,0.0172119140625,1.00714111328125,30.559999465942383,0.0,-5.0,-0.2656707763671875,-0.2705841064453125,Waiting,0.0,0.0,-26740.0,0.0,0.0,0.0,0.0,0.0,
0.9858399999999965,0.0,0.0,false,2828196.144120537,,3155.0,0.75,-22.5,-115.74803106486797,0.0,0.125,2.397460692,0.5533560492066895,0.0,-3127.0,1.625,0.0,-115.74803106486797,0.0,0.0,2.177734152,4.397316058113635,0.0,3119.0,1.125,-7.5,-115.74803106486797,0.0,0.0,3.509521125,4.401758689006861,0.0,-3278.0,1.0,-7.5,-115.74803106486797,0.0,0.0,2.9968258650000004,0.5515167311543324,0.0,1.1299999952316284,0.7200000286102295,104.73999786376953,0.03082275390625,0.02532958984375,1.0072021484375,30.559999465942383,0.0,0.0,-0.2656707763671875,-0.270660400390625,Waiting,0.0,0.0,-26740.0,0.0,0.0,0.0,0.0,0.0,
1.0263969999999971,0.0,0.0,false,2828611.8762076306,,3155.0,0.5,-22.5,-115.74803106486797,0.0,0.125,2.3791501470000003,0.5533560492066895,0.0,-3127.0,1.375,-22.5,-115.74803106486797,0.0,0.0,2.176513449,4.397316058113635,0.0,3119.0,1.25,0.0,-115.74803106486797,0.0,0.0,3.507079719,4.401758689006861,0.0,-3282.0,1.125,-15.0,-115.74803106486797,0.0,0.0,2.9980465680000004,0.5515167311543324,0.0,1.149999976158142,0.7400000095367432,104.80000305175781,0.02117919921875,0.02484130859375,1.01239013671875,30.559999465942383,0.0,2.0,-0.2656707763671875,-0.2707366943359375,Waiting,0.0,0.0,-26740.0,0.0,0.0,0.0,0.0,0.0,
1.065194999999978,0.0,0.0,false,2829020.2933857236,,3152.0,0.5,-15.0,-115.74803106486797,0.0,0.125,2.399902098,0.5533560492066895,0.0,-3139.0,1.0,-82.5,-115.74803106486797,0.0,0.0,2.175292746,4.397316058113635,0.0,3118.0,1.25,-7.5,-115.74803106486797,0.0,0.0,3.507079719,4.401758689006861,0.0,-3282.0,1.125,-22.5,-115.74803106486797,0.0,0.0,2.9980465680000004,0.5515167311543324,0.0,1.1699999570846558,0.7300000190734863,104.87000274658203,-0.0047607421875,0.028076171875,0.99383544921875,30.559999465942383,0.0,11.0,-0.2656707763671875,-0.2707366943359375,Waiting,0.0,0.0,-26740.0,0.0,0.0,0.0,0.0,0.0,
1.1035109999999986,0.0,0.0,false,2829414.892126371,,3152.0,0.75,-7.5,-115.74803106486797,0.0,0.125,2.399902098,0.5533560492066895,0.0012207030000004337,-3139.0,0.75,-150.0,-115.74803106486797,0.0,0.0,2.176513449,4.397316058113635,0.0,3118.0,1.375,-22.5,-115.74803106486797,0.0,0.0,3.507079719,4.401758689006861,0.0012207029999995456,-3282.0,1.25,-22.5,-115.74803106486797,0.0,0.0,2.9980465680000004,0.5515167311543324,-0.0012207029999999897,1.159999966621399,0.7200000286102295,105.01000213623047,-0.01263427734375,0.00482177734375,0.982666015625,30.559999465942383,0.0,-8.0,-0.2657318115234375,-0.270721435546875,Waiting,0.0,0.0,-26740.0,0.0,0.0,0.0,0.0,0.0,
1.143429999999993,0.0,0.0,false,2829802.1826513913,,3152.0,0.875,-15.0,-115.74803106486797,0.0,0.125,2.399902098,0.5533560492066895,-0.0012207030000004337,-3139.0,0.75,-150.0,-115.74803106486797,0.0,0.0,2.177734152,4.397316058113635,0.0,3118.0,1.5,-30.0,-115.74803106486797,0.0,0.0,3.507079719,4.401758689006861,0.0,-3282.0,1.375,-30.0,-115.74803106486797,0.0,0.0,3.0004879740000003,0.5515167311543324,0.0,1.159999966621399,0.6700000166893005,105.18000030517578,-0.01007080078125,0.01739501953125,1.015380859375,30.559999465942383,0.0,2.0,-0.265777587890625,-0.2705841064453125,Waiting,0.0,0.0,-26740.0,0.0,0.0,0.0,0.0,0.0,
1.1736359999999986,0.0,0.0,false,2830182.1711667483,,3144.0,1.0,-37.5,-115.74803106486797,0.0,0.125,2.40478491,0.5533560492066895,0.0,-3154.0,0.75,-97.5,-115.74803106486797,0.0,0.0,2.176513449,4.397316058113635,0.0,3111.0,1.375,-37.5,-115.74803106486797,0.0,0.0,3.508300422,4.401758689006861,0.0,-3289.0,1.5,-30.0,-115.74803106486797,0.0,0.0,2.9968258650000004,0.5515167311543324,0.0,1.1799999475479126,0.6700000166893005,105.47000122070312,0.03863525390625,0.02978515625,1.02508544921875,30.559999465942383,0.0,1.0,-0.2656402587890625,-0.27032470703125,Waiting,0.0,0.0,-26740.0,0.0,0.0,0.0,0.0,0.0,
1.2120039999999863,0.0,0.0,false,2830554.8612565445,,3144.0,0.875,-60.0,-115.74803106486797,0.0,0.125,2.403564207,0.5533560492066895,0.003662108999999525,-3154.0,1.0,-30.0,-115.74803106486797,0.0,0.0,2.177734152,4.397316058113635,0.0,3111.0,1.375,-52.5,-115.74803106486797,0.0,0.0,3.507079719,4.401758689006861,-0.0012207029999995456,-3289.0,1.5,-45.0,-115.74803106486797,0.0,0.0,2.9980465680000004,0.5515167311543324,0.0,1.2100000381469727,0.699999988079071,105.68000030517578,4.8828125E-4,0.04290771484375,0.97930908203125,30.559999465942383,0.0,24.0,-0.26544189453125,-0.2702789306640625,Waiting,0.0,0.0,-26740.0,0.0,0.0,0.0,0.0,0.0,
1.2528009999999776,0.0,0.0,false,2830913.418616064,,3144.0,0.375,-67.5,0.0,0.0,0.125,2.40478491,0.5533560492066895,0.0,-3154.0,0.625,0.0,0.0,0.0,0.0,2.176513449,4.397316058113635,0.0,3111.0,0.625,-67.5,0.0,0.0,0.0,3.507079719,4.401758689006861,0.0,-3289.0,1.125,-60.0,0.0,0.0,0.0,2.9968258650000004,0.5515167311543324,0.0,1.2300000190734863,0.6899999976158142,105.9000015258789,0.02276611328125,0.0115966796875,1.0299072265625,30.559999465942383,0.0,-13.0,-0.2653045654296875,-0.2702789306640625,Waiting,0.0,0.0,-26740.0,0.0,0.0,0.0,0.0,0.0,
1.2915169999999925,0.0,0.0,false,2831264.6869479883,,3136.0,0.375,-60.0,1624.21875,0.0,0.125,2.40478491,0.5533560492066917,0.0,-3154.0,0.25,0.0,1624.21875,0.0,0.0,2.1679685280000003,4.397316058113637,0.0,3102.0,3.625,-52.5,1624.21875,0.0,0.0,3.507079719,4.40175868900686,0.0,-3297.0,1.0,-52.5,1624.21875,0.0,0.0,2.9980465680000004,0.5515167311543303,0.0,1.2100000381469727,0.75,106.16000366210938,0.02471923828125,-0.020263671875,0.96820068359375,30.559999465942383,0.0,-42.0,-0.265411376953125,-0.2704315185546875,Waiting,0.0,0.0,-26740.0,0.0,0.0,0.0,0.0,0.0,
1.3270289999999805,0.0,0.0,false,2831609.0047424366,,3136.0,8.375,45.0,2100.0,0.0,0.125,2.408447019,0.5533560492066917,0.0,-3154.0,8.5,37.5,2100.0,0.0,0.0,2.1716306370000003,4.397316058113637,0.0,3102.0,14.75,97.5,2100.0,0.0,0.0,3.50341761,4.40175868900686,0.0,-3297.0,11.75,75.0,2100.0,0.0,0.0,3.0029293800000003,0.5515167311543303,0.0,1.350000023841858,0.6800000071525574,105.94999694824219,-0.12506103515625,-0.2374267578125,0.86175537109375,30.559999465942383,0.0,-210.0,-0.2654571533203125,-0.2705535888671875,Waiting,0.0,0.0,-26740.0,0.0,0.0,0.0,0.0,0.0,
1.367771999999997,0.0,0.0,false,2831946.040549379,,3136.0,21.75,292.5,2100.0,0.0,0.125,2.399902098,0.5533560492066917,0.0,-3154.0,27.125,180.0,2100.0,0.0,0.0,2.1667478250000003,4.397316058113637,0.0,3102.0,21.5,330.0,2100.0,0.0,0.0,3.50341761,4.40175868900686,0.0,-3297.0,26.625,330.0,2100.0,0.0,0.0,3.0029293800000003,0.5515167311543303,0.0,1.1699999570846558,0.5899999737739563,103.9000015258789,-0.13592529296875,-0.252197265625,0.93206787109375,30.559999465942383,0.0,-227.0,-0.2654266357421875,-0.269683837890625,Waiting,0.0,0.0,-26740.0,0.0,0.0,0.0,0.0,0.0,
1.4092079999999843,0.0,0.0,false,2832268.964525094,,3234.0,24.375,502.5,2100.0,0.0,0.125,2.408447019,0.5533560492066917,-0.0012207030000004337,-3077.0,33.625,375.0,2100.0,0.0,0.0,2.1154782990000003,4.397316058113637,0.0,3186.0,27.375,442.5,2100.0,0.0,0.0,3.502196907,4.40175868900686,0.0,-3210.0,28.625,457.5,2100.0,0.0,0.0,3.0017086770000003,0.5515167311543303,0.0,1.149999976158142,0.4000000059604645,101.69999694824219,7.32421875E-4,0.05438232421875,1.1458740234375,30.559999465942383,0.0,32.0,-0.265289306640625,-0.2682952880859375,Waiting,0.0,0.0,-26740.0,0.0,0.0,0.0,0.0,0.0,
1.4477489999999815,0.0,0.0,false,2832584.615887545,,3234.0,24.0,682.5,2100.0,0.0,0.125,2.401122801,0.5533560492066917,0.0,-3077.0,31.875,637.5,2100.0,0.0,0.0,2.0605466640000003,4.397316058113637,-0.06103515000000037,3186.0,26.875,645.0,2100.0,0.0,0.0,3.463134411,4.40175868900686,-0.004882811999999959,-3210.0,25.5,690.0,2100.0,0.0,0.0,3.0017086770000003,0.5515167311543303,0.0,1.100000023841858,0.47999998927116394,97.16999816894531,-0.0361328125,0.04095458984375,1.11102294921875,30.559999465942383,0.0,24.0,-0.2652740478515625,-0.266021728515625,Waiting,0.0,0.0,-26740.0,0.0,0.0,0.0,0.0,0.0,
1.4871929999999993,0.0,0.0,false,2832892.9982023207,,3234.0,22.625,982.5,2100.0,0.0,0.125,2.399902098,0.5533560492066917,0.0,-3077.0,28.5,975.0,2100.0,0.0,0.0,2.03857401,4.397316058113637,0.0,3186.0,26.125,900.0,2100.0,0.0,0.0,3.4643551140000004,4.40175868900686,0.0,-3210.0,23.625,960.0,2100.0,0.0,0.0,3.0029293800000003,0.5515167311543303,0.0,1.090000033378601,0.4399999976158142,93.43000030517578,0.055908203125,0.070068359375,1.12200927734375,30.559999465942383,0.0,45.0,-0.265655517578125,-0.2643890380859375,Waiting,0.0,0.0,-26740.0,0.0,0.0,0.0,0.0,0.0,
1.5278029999999854,0.0,0.0,false,2833194.11503268,,3447.0,19.75,1275.0,2100.0,0.0,0.125,2.399902098,0.5533560492066917,0.0,-2860.0,23.125,1297.5,2100.0,0.0,0.0,2.047118931,4.397316058113637,0.0,3386.0,23.75,1185.0,2100.0,0.0,0.0,3.4643551140000004,4.40175868900686,0.0,-2999.0,20.75,1260.0,2100.0,0.0,0.0,3.0029293800000003,0.5515167311543303,0.0,1.0800000429153442,0.6200000047683716,86.88999938964844,-0.04119873046875,0.00128173828125,1.187744140625,30.559999465942383,0.0,-24.0,-0.265869140625,-0.2622528076171875,Waiting,0.0,0.0,-26740.0,0.0,0.0,0.0,0.0,0.0,
1.5710419999999867,0.0,0.0,false,2833487.9699395522,,3447.0,16.25,1522.5,2100.0,0.0,0.125,2.399902098,0.5533560492066917,0.0,-2860.0,18.875,1530.0,2100.0,0.0,0.0,2.0617673670000003,4.397316058113637,0.0,3386.0,20.5,1417.5,2100.0,0.0,0.0,3.458251599,4.40175868900686,0.0,-2999.0,17.25,1477.5,2100.0,0.0,0.0,3.0041500830000003,0.5515167311543303,0.0,0.9399999976158142,0.7300000190734863,79.5199966430664,-0.08819580078125,-0.07891845703125,0.98468017578125,30.56999969482422,0.0,-111.0,-0.26629638671875,-0.260406494140625,Waiting,0.0,0.0,-26740.0,0.0,0.0,0.0,0.0,0.0,
1.6099269999999961,0.0,0.0,false,2833767.738647501,,3447.0,13.875,1710.0,2100.0,0.0,0.125,2.440185297,0.5533560492066917,0.0,-2860.0,15.625,1702.5,2100.0,0.0,0.0,2.0751951,4.397316058113637,0.01342773300000033,3386.0,17.5,1605.0,2100.0,0.0,0.0,3.4667965200000004,4.40175868900686,0.0,-2999.0,15.0,1642.5,2100.0,0.0,0.0,2.9956051620000004,0.5515167311543303,0.0,0.9399999976158142,0.7400000095367432,74.18000030517578,-0.0155029296875,-0.19696044921875,1.29052734375,30.56999969482422,0.0,-218.0,-0.2668304443359375,-0.259307861328125,Waiting,0.0,0.0,-26740.0,0.0,0.0,0.0,0.0,0.0,
1.6538279999999794,0.0,0.0,false,2834045.056344929,,3745.0,11.75,1845.0,2100.0,0.0,0.125,2.401122801,0.5533560492066917,0.0,-2562.0,13.125,1852.5,2100.0,0.0,0.0,2.097167754,4.397316058113637,0.017089841999999855,3668.0,15.25,1755.0,2100.0,0.0,0.0,3.4643551140000004,4.40175868900686,0.0,-2713.0,13.125,1777.5,2100.0,0.0,0.0,3.0017086770000003,0.5515167311543303,0.0,0.800000011920929,0.8799999952316284,65.69999694824219,0.041015625,0.171875,0.9984130859375,30.56999969482422,0.0,154.0,-0.268829345703125,-0.257720947265625,Waiting,0.0,0.0,-26740.0,0.0,0.0,0.0,0.0,0.0,
1.6935659999999917,0.0,0.0,false,2834642.9536250816,,3745.0,11.0,1897.5,2100.0,0.0,0.125,2.399902098,0.5533560492066917,0.0,-2562.0,10.25,1972.5,2100.0,0.0,0.0,2.109374784,4.397316058113637,0.017089841999999855,3668.0,13.75,1867.5,2100.0,0.0,0.0,3.4643551140000004,4.40175868900686,0.0,-2713.0,11.25,1882.5,2100.0,0.0,0.0,3.0017086770000003,0.5515167311543303,0.0,0.7900000214576721,0.949999988079071,56.7599983215332,-0.12518310546875,0.09576416015625,1.08563232421875,30.56999969482422,0.0,-10.0,-0.2705078125,-0.255767822265625,Waiting,0.0,0.0,-26740.0,0.0,0.0,0.0,0.0,0.0,
1.7290489999999992,0.0,0.0,false,2835232.0914285714,,3745.0,9.75,1987.5,2100.0,0.0,0.125,2.399902098,0.5533560492066917,0.0,-2562.0,9.25,2025.0,2100.0,0.0,0.0,2.1203611110000002,4.397316058113637,0.0,3668.0,12.75,1942.5,2100.0,0.0,0.0,3.458251599,4.40175868900686,0.0,-2713.0,9.875,1980.0,2100.0,0.0,0.0,3.0029293800000003,0.5515167311543303,0.0,0.9399999976158142,0.8700000047683716,50.54999923706055,0.060791015625,-0.08544921875,1.25738525390625,30.56999969482422,0.0,-55.0,-0.271453857421875,-0.2538909912109375,Waiting,0.0,0.0,-26740.0,0.0,0.0,0.0,0.0,0.0,
1.7672449999999953,0.0,0.0,false,2835813.8321906626,,4080.0,8.625,2062.5,2100.0,0.0,0.125,2.399902098,0.5533560492066917,0.0,-2216.0,7.375,2122.5,2100.0,0.0,0.0,2.1105954870000003,4.397316058113637,0.0,3988.0,11.875,1995.0,2100.0,0.0,0.0,3.461913708,4.40175868900686,0.0,-2382.0,8.25,2070.0,2100.0,0.0,0.0,2.9956051620000004,0.5515167311543303,0.0,0.36000001430511475,1.190000057220459,41.02000045776367,0.032958984375,0.045654296875,0.2650146484375,30.56999969482422,0.0,49.0,-0.2733001708984375,-0.251251220703125,Waiting,0.0,0.0,-26740.0,0.0,0.0,0.0,0.0,0.0,
1.8101520000000018,0.0,0.0,false,2836388.179533214,,4080.0,7.5,2130.0,2100.0,0.0,0.125,2.399902098,0.5533560492066917,0.0012207030000004337,-2216.0,6.0,2182.5,2100.0,0.0,0.0,2.1191404080000003,4.397316058113637,-0.0012207030000004337,3988.0,11.375,2017.5,2100.0,0.0,0.0,3.463134411,4.40175868900686,0.0,-2382.0,7.625,2107.5,2100.0,0.0,0.0,3.0029293800000003,0.5515167311543303,0.0,0.4099999964237213,0.9599999785423279,31.219999313354492,0.12945556640625,-0.0877685546875,0.74969482421875,30.56999969482422,0.0,51.0,-0.27569580078125,-0.2483673095703125,Waiting,0.0,0.0,-26740.0,0.0,0.0,0.0,0.0,0.0,
1.8491939999999887,0.0,0.0,false,2836955.4712793734,,4080.0,6.5,2182.5,2130.0863378213635,0.0,0.125,2.399902098,0.6111189494869326,0.0,-2216.0,5.125,2205.0,2249.793948904719,0.0,0.0,2.1191404080000003,4.379681743593785,0.0012207030000004337,3988.0,10.5,2055.0,1951.4199157207838,0.0,0.0,3.463134411,4.422110407568922,0.0,-2382.0,6.5,2160.0,2081.428522295871,0.0,0.0,3.0017086770000003,0.4925975002410006,0.0,0.09000000357627869,0.9700000286102295,24.610000610351562,-0.13018798828125,0.0865478515625,0.81005859375,30.56999969482422,0.0,-95.0,-0.277801513671875,-0.2467803955078125,Waiting,0.0,0.0,-26740.0,0.0,0.0,0.0,0.0,0.0,
1.886127999999997,0.0,0.0,false,2837508.501876326,,4438.0,10.5,2227.5,3057.493854045775,0.0,0.25,2.364501711,1.027927302432975,0.0,-1856.0,12.0,2235.0,3798.4571119550264,0.0,0.0,2.109374784,4.249532105472697,0.0,4320.0,6.75,2085.0,849.2364068423747,0.0,2.25,3.5205074520000004,0.2258397250531954,0.0,-2029.0,6.0,2197.5,2408.570164753474,0.0,0.375,3.0017086770000003,4.868928420467231,0.0,0.05000000074505806,0.8999999761581421,14.569999694824219,0.03857421875,0.05072021484375,1.15216064453125,30.56999969482422,0.0,32.0,-0.2813568115234375,-0.2445220947265625,Waiting,0.0,0.0,-26740.0,0.0,0.0,0.0,0.0,0.0,
1.924576000000001,0.0,0.0,false,2838054.1324632955,,4438.0,17.5,2302.5,3103.7123637233776,0.0,1.625,2.524413804,1.405707338487627,0.0,-1856.0,30.125,2377.5,4063.011732547265,0.0,0.0,2.080077912,4.28416123367036,0.0,4320.0,5.125,1980.0,-1452.1276789161097,0.0,5.0,3.7390132890000003,4.076801988655758,0.0,-2029.0,9.0,2235.0,2997.2835531463584,0.0,3.0,2.8442379900000003,4.59357000589087,0.0,0.2800000011920929,0.8299999833106995,4.170000076293945,-0.376708984375,0.0731201171875,0.75238037109375,30.56999969482422,0.0,-381.0,-0.285675048828125,-0.2417144775390625,Waiting,0.0,0.0,-26740.0,0.0,0.0,0.0,0.0,0.0,
1.9657630000000064,0.0,0.0,false,2838592.386233893,,4438.0,18.125,2370.0,3470.392675741295,0.0,3.25,2.677001679,1.9502653415147089,0.12817381500000025,-1856.0,33.5,2490.0,3145.714629287524,0.0,0.0,2.071532991,4.351697405789919,-0.03295898099999928,4320.0,27.75,1605.0,-3707.1195225168663,0.0,3.375,3.7353511800000003,4.363015470543184,0.22338864900000033,-2029.0,14.125,2340.0,3405.0888915416585,0.0,1.125,2.6342770740000003,4.28948392375006,0.0,0.550000011920929,0.4300000071525574,-2.809999942779541,-0.3157958984375,0.61724853515625,1.02276611328125,30.56999969482422,0.0,-352.0,-0.2895355224609375,-0.2376708984375,Waiting,0.0,0.0,-26740.0,0.0,0.0,0.0,0.0,0.0,
1.9987129999999889,0.0,0.0,false,2839123.245923027,,4837.0,22.25,2467.5,3563.8181771801997,0.0,3.0,2.8942868130000003,1.7755952219592221,0.209960916,-1410.0,23.125,2700.0,3563.8181771801997,0.0,0.0,2.0666501790000003,4.24472980529335,-0.006103515000000392,4420.0,48.125,1267.5,-3563.8181771801997,0.0,2.875,3.6914058720000003,4.249018277515307,-0.030517575000000186,-1634.0,17.125,2407.5,3563.8181771801997,0.0,1.125,2.442626703,4.243443263626762,-0.18676755899999975,1.3200000524520874,0.17000000178813934,-9.609999656677246,-0.21563720703125,0.2713623046875,1.37823486328125,30.56999969482422,0.0,-256.0,-0.2947235107421875,-0.230621337890625,Waiting,0.0,0.0,-26740.0,0.0,0.0,0.0,0.0,0.0,
2.0326209999999847,0.0,0.0,false,2839639.8734713844,,4837.0,29.0,2460.0,3563.8181771801997,0.0,2.25,3.1103512440000003,1.6838991095331002,0.0,-1410.0,20.0,2797.5,3563.8181771801997,0.0,0.0,2.047118931,4.153310776204535,0.0,4420.0,56.875,247.5,-3563.8181771801997,0.0,0.375,3.6340328310000003,4.157506887314057,0.0,-1634.0,25.375,2512.5,3563.8181771801997,0.0,0.75,2.182616964,4.152051942871678,0.0,1.9199999570846558,-0.25999999046325684,-19.190000534057617,-0.47283935546875,0.54827880859375,0.608642578125,30.56999969482422,0.0,-617.0,-0.306854248046875,-0.2167205810546875,Waiting,0.0,0.0,-26740.0,0.0,0.0,0.0,0.0,0.0,
2.072296000000002,0.0,0.0,false,2840149.471144441,,4837.0,33.0,2340.0,3563.818177180199,0.0,1.375,3.244628574,1.5968912148581633,0.0,-1410.0,22.875,2850.0,3563.818177180199,0.0,0.0,2.0080564350000003,4.066565798213748,0.0,4420.0,40.375,-945.0,-3563.818177180199,0.0,0.875,3.547362918,4.070674270428553,0.0,-1634.0,32.5,2512.5,3563.818177180199,0.0,0.0,1.983642375,4.065333256549307,0.0,2.759999990463257,-1.0199999809265137,-27.489999771118164,-0.4508056640625,0.2021484375,1.051025390625,30.600000381469727,0.0,-452.0,-0.3271484375,-0.20184326171875,Waiting,0.0,0.0,-26740.0,0.0,0.0,0.0,0.0,0.0,
2.1107060000000057,0.0,0.0,false,2840651.708557457,,4837.0,33.25,2272.5,3563.818177180199,0.0,0.875,3.276366852,1.4824434476004729,0.10009764600000004,-1410.0,22.875,2932.5,3563.818177180199,0.0,0.0,1.984863078,3.9524638642576027,-0.04394530799999963,4117.0,32.375,-1740.0,-3563.818177180199,0.0,0.625,3.4667965200000004,3.9564570587052263,-0.08789061599999926,-1256.0,36.75,2407.5,3563.818177180199,0.0,0.0,1.822509579,3.9512659059233157,0.0,3.0299999713897705,-1.3600000143051147,-32.119998931884766,-0.18634033203125,0.21014404296875,0.55023193359375,30.600000381469727,0.0,-242.0,-0.34454345703125,-0.192535400390625,Waiting,0.0,0.0,-26740.0,0.0,0.0,0.0,0.0,0.0,
2.149231,0.0,0.0,false,2841146.589308996,,5186.0,33.0,2160.0,3563.8181771801997,0.0,0.625,3.302001615,1.3907473417494052,0.03906249600000011,-932.0,23.75,2955.0,3563.8181771801997,0.0,0.0,1.9470212850000002,3.8610448417239733,-0.01831054500000029,4117.0,30.5,-1867.5,-3563.8181771801997,0.0,0.625,3.3801266070000002,3.864945675065784,-0.08911131900000058,-1256.0,39.0,2332.5,3563.8181771801997,0.0,0.0,1.694335764,3.85987459172143,-0.16723631099999992,3.740000009536743,-1.6799999475479126,-35.91999816894531,-0.396728515625,0.58734130859375,1.61212158203125,30.600000381469727,0.0,-564.0,-0.3644561767578125,-0.182830810546875,Waiting,0.0,0.0,-26740.0,0.0,0.0,0.0,0.0,0.0,
2.1885109999999988,0.0,0.0,false,2841634.097441747,,5186.0,30.5,2130.0,3563.818177180199,0.0,0.25,3.287353179,1.3448303165011959,0.0,-932.0,24.25,2947.5,3563.818177180199,0.0,0.0,1.8212888760000001,3.8152665665520584,0.0,4117.0,38.875,-1725.0,-3563.818177180199,0.0,0.875,3.278808258,3.8191211498684376,0.0,-1256.0,43.0,2032.5,3563.818177180199,0.0,0.0,1.560058434,3.8141101915571447,0.0,4.349999904632568,-1.7400000095367432,-39.9900016784668,-0.3197021484375,0.2679443359375,0.92596435546875,30.600000381469727,0.0,-349.0,-0.3987274169921875,-0.166717529296875,Waiting,0.0,0.0,-26740.0,0.0,0.0,0.0,0.0,0.0,
2.226432000000001,0.0,0.0,false,2842107.7236884977,,5539.0,29.5,2167.5,3563.8181771801997,0.0,0.125,3.281249664,1.2965692053900844,0.0,-486.0,25.375,2872.5,3563.8181771801997,0.0,0.0,1.6809080310000002,3.7671512887742797,0.0,3871.0,43.875,-1515.0,-3563.8181771801997,0.0,0.625,3.184814127,3.770957260979548,0.0,-965.0,43.0,1875.0,3563.8181771801997,0.0,0.0,1.4758299270000002,3.7660094971126994,0.0,4.989999771118164,-1.5499999523162842,-42.45000076293945,0.130859375,0.4169921875,1.22125244140625,30.600000381469727,0.0,-88.0,-0.435791015625,-0.1487884521484375,Waiting,0.0,0.0,-26740.0,0.0,0.0,0.0,0.0,0.0,
2.268899999999994,0.0,0.0,false,2842573.3363740025,,5539.0,29.375,2220.0,3563.8181771801997,0.0,0.125,3.276366852,1.26885356186761,0.0,-486.0,28.125,2790.0,3563.8181771801997,0.0,0.0,1.6088865540000001,3.739519395181869,0.0,3871.0,39.625,-1590.0,-3563.8181771801997,0.0,0.625,3.1005856200000004,3.743297450743783,0.0,-965.0,41.875,1830.0,3563.8181771801997,0.0,0.0,1.433105322,3.7383859785132953,0.0,5.360000133514404,-1.1299999952316284,-43.689998626708984,0.2027587890625,0.48443603515625,0.64483642578125,30.600000381469727,0.0,-136.0,-0.4742889404296875,-0.12799072265625,Waiting,0.0,0.0,-26740.0,0.0,0.0,0.0,0.0,0.0,
2.3068389999999783,0.0,0.0,false,2843031.94267101,,5539.0,30.125,2257.5,3563.818177180199,0.0,0.125,3.277587555,1.2590634633806037,-0.004882811999999959,-486.0,31.25,2685.0,3563.818177180199,0.0,0.0,1.5502928100000002,3.729758879990049,-0.07812499200000023,3871.0,34.75,-1905.0,-3563.818177180199,0.0,0.375,3.029784846,3.7335270744535674,-0.07690428900000068,-965.0,37.75,1867.5,3563.818177180199,0.0,0.0,1.380615093,3.728628421650994,-0.051269526000000454,5.800000190734863,-0.9300000071525574,-44.06999969482422,0.0537109375,0.33587646484375,1.21307373046875,30.600000381469727,0.0,-94.0,-0.500274658203125,-0.11199951171875,Waiting,0.0,0.0,-26740.0,0.0,0.0,0.0,0.0,0.0,
2.3496749999999884,0.0,0.0,false,2843483.2125061066,,5539.0,28.875,2310.0,3563.8181771802,0.0,0.125,3.251952792,1.252720534515383,0.0,-486.0,31.875,2617.5,3563.8181771802,0.0,0.0,1.5014646900000002,3.723435117912294,-0.05737304099999996,3871.0,31.625,-2182.5,-3563.8181771802,0.0,0.125,2.962646181,3.7271969234466567,-0.07446288299999937,-618.0,35.5,2017.5,3563.8181771802,0.0,0.0,1.337890488,3.722306576251985,-0.04638671399999961,6.269999980926514,-0.5199999809265137,-44.16999816894531,0.26531982421875,0.0306396484375,0.757568359375,30.600000381469727,0.0,231.0,-0.539642333984375,-0.085052490234375,Waiting,0.0,0.0,-26740.0,0.0,0.0,0.0,0.0,0.0,
2.3898009999999776,0.0,0.0,false,2843920.2969716704,,5922.0,27.375,2407.5,3563.8181771801997,0.0,0.125,3.2128902960000003,1.2524448030259896,0.0,-67.0,31.875,2602.5,3563.8181771801997,0.0,0.0,1.469726412,3.7231602196163616,0.0,3491.0,29.75,-2400.0,-3563.8181771801997,0.0,0.125,2.919921576,3.7269217474195706,0.0,-618.0,33.375,2212.5,3563.8181771801997,0.0,0.0,1.303710804,3.722031761275399,0.0,6.559999942779541,-0.27000001072883606,-44.060001373291016,0.2740478515625,0.20654296875,1.2413330078125,30.600000381469727,0.0,156.0,-0.5653839111328125,-0.065765380859375,Waiting,0.0,0.0,-26740.0,0.0,0.0,0.0,0.0,0.0,
2.426664999999979,0.0,0.0,false,2844350.0543708284,,5922.0,26.0,2535.0,3563.8181771801997,0.0,0.125,3.179931315,1.2550646729787212,0.0,-67.0,31.0,2640.0,3563.8181771801997,0.0,0.0,1.4501951640000001,3.725772172959647,0.0,3491.0,28.375,-2550.0,-3563.8181771801997,0.0,0.0,2.9003903280000003,3.7295363396326717,0.0,-618.0,31.75,2355.0,3563.8181771801997,0.0,0.0,1.280517447,3.72464292295774,0.0,6.639999866485596,0.03999999910593033,-43.88999938964844,0.1854248046875,0.38031005859375,0.841796875,30.600000381469727,0.0,-62.0,-0.5906524658203125,-0.0452728271484375,Waiting,0.0,0.0,-26740.0,0.0,0.0,0.0,0.0,0.0,
2.465353999999992,0.0,0.0,false,2844772.48828125,,5922.0,25.75,2595.0,2444.4678943574486,0.0,0.125,3.1689449880000002,1.2776034735992552,0.0,-67.0,30.375,2707.5,2710.4181315433243,0.0,0.0,1.433105322,3.358144473879959,0.0,3491.0,27.125,-2662.5,-3530.7366832879165,0.0,0.0,2.9003903280000003,3.740786260330864,0.0,-209.0,30.375,2490.0,3719.8178299440183,0.0,0.0,1.2707518230000001,3.4572671576203837,0.0,7.039999961853027,0.3400000035762787,-43.560001373291016,0.04461669921875,0.2708740234375,1.52655029296875,30.600000381469727,0.0,-31.0,-0.628265380859375,-0.0120391845703125,Waiting,0.0,0.0,-26740.0,0.0,0.0,0.0,0.0,0.0,
2.5069309999999825,0.0,0.0,false,2845187.602278275,,6354.0,25.125,2700.0,769.8524342397152,0.0,0.125,3.1579586610000003,1.4571143840164167,-0.017089841999999855,370.0,30.125,2745.0,2813.921395107826,0.0,0.25,1.381835796,2.684458268864453,-0.014648435999999876,3058.0,25.25,-2775.0,-3211.622510921737,0.0,0.0,2.886962595,3.7665934345963867,-0.0012207029999999897,-209.0,29.125,2610.0,4200.0,0.0,0.0,1.2170408910000001,3.1572654391511454,-0.004882811999999959,7.079999923706055,0.6800000071525574,-43.279998779296875,0.1820068359375,0.18212890625,0.6876220703125,30.600000381469727,0.0,59.0,-0.6530303955078125,0.010955810546875,Waiting,0.0,0.0,-26740.0,0.0,0.0,0.0,0.0,0.0,
2.547399000000005,0.0,0.0,false,2845595.3947282787,,6354.0,20.375,2782.5,454.70183233608196,0.0,0.125,3.1542965520000004,1.053290850916083,-0.004882811999999959,370.0,28.75,2827.5,3063.3602474872673,0.0,2.125,1.2438963570000001,2.5885273681080805,-0.06225585299999992,3058.0,24.375,-2842.5,-2909.0510051294286,0.0,0.0,2.9016110310000003,3.6864872218035667,0.0,-209.0,28.25,2715.0,4200.0,0.0,0.375,1.116943245,3.0757167268844188,-0.05737304099999996,7.360000133514404,0.9100000262260437,-42.810001373291016,0.17236328125,0.1163330078125,0.8802490234375,30.600000381469727,0.0,113.0,-0.6898040771484375,0.047607421875,Waiting,0.0,0.0,-26740.0,0.0,0.0,0.0,0.0,0.0,
2.5824349999999976,0.0,0.0,false,2845989.3606637386,,6354.0,10.0,2797.5,396.2559431228276,0.0,0.125,3.1542965520000004,0.5833951495952412,0.0,370.0,28.75,2902.5,3212.588741692947,0.0,3.375,0.9106444380000001,2.5399722411228303,0.0,2564.0,23.375,-2970.0,-2734.28095652365,0.0,0.0,2.9016110310000003,3.6308364941902265,0.0,237.0,28.75,2760.0,4200.0,0.0,0.75,0.95214834,3.028090724932176,0.0,7.230000019073486,1.3200000524520874,-42.04999923706055,0.266357421875,0.03643798828125,0.703369140625,30.559999465942383,0.0,220.0,-0.724456787109375,0.0855560302734375,Waiting,0.0,0.0,-26740.0,0.0,0.0,0.0,0.0,0.0,
2.6253369999999996,0.0,0.0,false,2846376.0195185426,,6790.0,3.0,2715.0,437.13231933741963,0.0,4.125,3.01513641,0.314206471173617,0.0,844.0,30.125,2955.0,3298.017193196247,0.0,0.5,0.6335448570000001,2.514952184304836,0.0,2564.0,21.5,-3097.5,-2637.0755123794356,0.0,0.0,2.866210644,3.5945294121903504,0.0,237.0,31.25,2790.0,4200.0,0.0,0.375,0.8166503070000001,3.0008321873336086,0.0,7.099999904632568,1.8899999856948853,-40.560001373291016,0.46697998046875,-0.31597900390625,1.0484619140625,30.559999465942383,0.0,617.0,-0.7549591064453125,0.125732421875,Waiting,0.0,0.0,-26740.0,0.0,0.0,0.0,0.0,0.0,
2.6622449999999955,0.0,0.0,false,2846755.3748577004,,6790.0,0.5,2557.5,413.06046142213256,0.0,2.25,2.817382524,0.8278751076916171,-0.1818847469999998,844.0,31.0,2925.0,3139.231225992171,0.0,0.0,0.458984328,2.564486112534114,-0.29296871999999974,2564.0,20.5,-3195.0,-2820.6109718544944,0.0,0.0,2.8417965840000003,3.6577850608600677,-0.025634763000000227,237.0,34.25,2722.5,4200.0,0.0,0.375,0.7397460180000001,3.051642029738012,0.0,6.769999980926514,2.5,-39.11000061035156,0.50982666015625,-0.25341796875,1.166015625,30.559999465942383,0.0,602.0,-0.7713775634765625,0.1529083251953125,Waiting,0.0,0.0,-26740.0,0.0,0.0,0.0,0.0,0.0,
2.699975000000006,0.0,0.0,false,2847127.4302439024,,6790.0,0.375,2460.0,571.386673075423,0.0,1.75,2.60009739,1.2959046131543224,-0.2502441150000001,844.0,29.5,2917.5,2950.004297798804,0.0,0.0,0.289306611,2.6276565684185407,-0.20874021300000045,2564.0,21.625,-3232.5,-3043.674978235485,0.0,0.0,2.810058306,3.7257784484592382,-0.0402831990000001,237.0,34.5,2632.5,4200.0,0.0,0.375,0.6872557890000001,3.1119430061560416,-0.09033202199999968,6.039999961853027,3.059999942779541,-36.599998474121094,0.75689697265625,-0.4722900390625,0.62213134765625,30.559999465942383,0.0,901.0,-0.7917633056640625,0.1940155029296875,Waiting,0.0,0.0,-26740.0,0.0,0.0,0.0,0.0,0.0,
2.734432000000001,0.0,0.0,false,2847485.3467728826,,7127.0,1.25,2205.0,1540.2556268879844,0.0,0.25,2.5317380220000003,0.8575010275719062,0.0,1300.0,32.0,2895.0,2661.4355117861696,0.0,0.0,0.274658175,2.8977625424565425,0.0,2049.0,22.75,-3225.0,-2778.4200958850856,0.0,0.0,2.7941891670000003,3.5092196239013314,0.0,653.0,33.625,2587.5,3525.6871410342837,0.0,0.0,0.6860350860000001,3.155035623780977,0.0,5.489999771118164,3.3399999141693115,-34.68000030517578,0.56854248046875,-0.2979736328125,1.99603271484375,30.559999465942383,0.0,650.0,-0.800811767578125,0.22100830078125,Waiting,0.0,0.0,-26740.0,0.0,0.0,0.0,0.0,0.0,
2.7730869999999994,0.0,0.0,false,2847835.9726918074,,7127.0,9.875,1912.5,2520.0,0.0,0.25,2.5390622400000002,0.7778312201182062,0.0,1300.0,38.375,2752.5,2520.0,0.0,1.25,0.30395504700000003,3.249980803457897,0.0,2049.0,20.0,-3172.5,-2520.0,0.0,0.0,2.764892295,3.253264275678,0.0,653.0,32.625,2587.5,2520.0,0.0,0.0,0.688476492,3.2489957617918663,0.0,4.75,3.990000009536743,-31.3799991607666,0.28985595703125,-0.041015625,0.82208251953125,30.559999465942383,0.0,255.0,-0.80657958984375,0.2602996826171875,Waiting,0.0,0.0,-26740.0,0.0,0.0,0.0,0.0,0.0,
2.8104469999999857,0.0,0.0,false,2848179.311555339,,7127.0,26.5,1815.0,2520.0000000000005,0.0,0.125,2.5378415370000003,0.8083046782387641,0.0,1300.0,35.75,2550.0,2520.0000000000005,0.0,2.375,0.423583941,3.2803621782037955,0.05126952600000001,2049.0,17.375,-3060.0,-2520.0000000000005,0.0,0.375,2.6977536300000002,3.2836763448821187,-0.03051757499999974,653.0,27.375,2647.5,2520.0000000000005,0.0,0.0,0.6860350860000001,3.279367928200299,-0.0012207029999999897,4.400000095367432,4.449999809265137,-29.059999465942383,0.36383056640625,0.061767578125,1.38714599609375,30.559999465942383,0.0,245.0,-0.806243896484375,0.285552978515625,Waiting,0.0,0.0,-26740.0,0.0,0.0,0.0,0.0,0.0,
2.850649000000005,0.0,0.0,false,2848515.699707507,,7454.0,32.75,2002.5,2520.0,0.0,0.125,2.547607161,0.8402948962529514,0.004882811999999959,1690.0,34.875,2452.5,2520.0,0.0,3.125,0.623779233,3.312255729564032,0.13183592400000022,1589.0,17.125,-2880.0,-2520.0,0.0,0.625,2.60009739,3.3156021184603386,0.0,1093.0,26.125,2745.0,2520.0,0.0,0.0,0.6872557890000001,3.31125181289514,0.0012207029999999897,4.090000152587891,5.099999904632568,-25.540000915527344,0.5462646484375,-0.1822509765625,-0.0098876953125,30.559999465942383,0.0,571.0,-0.8016204833984375,0.323150634765625,Waiting,0.0,0.0,-26740.0,0.0,0.0,0.0,0.0,0.0,
2.8884709999999902,0.0,0.0,false,2848844.807798538,,7454.0,33.75,2212.5,2520.0,0.0,0.125,2.5415036460000002,0.8888317651536745,0.0,1690.0,32.625,2505.0,2520.0,0.0,1.0,0.8154296040000001,3.360645931858488,0.0,1589.0,20.25,-2715.0,-2520.0,0.0,0.0,2.524413804,3.3640412096235504,0.0,1093.0,25.875,2850.0,2520.0,0.0,0.0,0.690917898,3.3596273485289694,0.0,4.179999828338623,5.460000038146973,-23.350000381469727,0.4180908203125,0.27618408203125,1.35540771484375,30.559999465942383,0.0,194.0,-0.79510498046875,0.348419189453125,Waiting,0.0,0.0,-26740.0,0.0,0.0,0.0,0.0,0.0,
2.9268429999999936,0.0,0.0,false,2849159.8024691357,,7454.0,33.125,2250.0,2520.0,0.0,0.125,2.547607161,0.9333698962529513,0.0,1690.0,33.75,2535.0,2520.0,0.0,0.25,0.9460448250000001,3.405049479564032,0.0,1589.0,21.75,-2640.0,-2520.0,0.0,0.0,2.512206774,3.4084896184603384,0.0,1093.0,26.375,2872.5,2520.0,0.0,0.0,0.7226561760000001,3.40401743789514,0.0,4.010000228881836,5.940000057220459,-20.389999389648438,0.45025634765625,0.14019775390625,0.7392578125,30.559999465942383,0.0,318.0,-0.78155517578125,0.3863983154296875,Waiting,0.0,0.0,-26740.0,0.0,0.0,0.0,0.0,0.0,
2.962030999999988,0.0,0.0,false,2849467.526392724,,7820.0,32.375,2257.5,2520.0,0.0,0.125,2.5634763,0.9598445639716268,0.003662108999999525,2108.0,32.5,2565.0,2520.0,0.0,0.0,1.02539052,3.4314441472795285,0.1171874879999999,1163.0,22.125,-2632.5,-2520.0,0.0,0.0,2.506103259,3.4349109528435613,-0.019531247999999835,1557.0,25.875,2880.0,2520.0,0.0,0.25,0.758056563,3.430404105610319,0.0,4.489999771118164,6.130000114440918,-18.15999984741211,0.21356201171875,0.12158203125,1.86602783203125,30.559999465942383,0.0,19.0,-0.76373291015625,0.425201416015625,Waiting,0.0,0.0,-26740.0,0.0,0.0,0.0,0.0,0.0,
3.0066479999999864,0.0,0.0,false,2849767.9831113997,,7820.0,32.0,2295.0,2520.0,0.0,0.375,2.595214578,0.9905937798817965,0.02685546600000066,2108.0,31.875,2595.0,2520.0,0.0,0.0,1.087646373,3.462100446542105,0.08911131900000013,1163.0,21.5,-2655.0,-2520.0,0.0,0.0,2.506103259,3.4655982243220023,0.0,1557.0,26.125,2880.0,2520.0,0.0,0.25,0.811767495,3.461051113208136,0.04760741700000004,4.519999980926514,6.639999866485596,-16.989999771118164,0.02764892578125,-0.02471923828125,0.62841796875,30.559999465942383,0.0,-21.0,-0.75103759765625,0.4511566162109375,Waiting,0.0,0.0,-26740.0,0.0,0.0,0.0,0.0,0.0,
3.0455080000000017,0.0,0.0,false,2850061.176164962,,7820.0,29.875,2385.0,2520.0,0.0,0.625,2.629394262,1.0132075492435044,0.0,2108.0,31.875,2655.0,2520.0,0.0,0.125,1.1364744930000001,3.484645882595911,0.04882812000000003,1163.0,19.0,-2715.0,-2520.0,0.0,0.0,2.507323962,3.4881664381451087,0.0,1557.0,25.875,2917.5,2520.0,0.0,0.0,0.875244051,3.4835897159311515,0.05859374399999995,4.679999828338623,6.46999979019165,-15.729999542236328,-0.05242919921875,0.32000732421875,0.919677734375,30.559999465942383,0.0,-216.0,-0.7327117919921875,0.4908447265625,Waiting,0.0,0.0,-26740.0,0.0,0.0,0.0,0.0,0.0,
3.0773859999999984,0.0,0.0,false,2850347.109090909,,8237.0,24.75,2550.0,2520.0,0.0,0.375,2.664794649,1.0241007840898315,0.0,2548.0,30.375,2722.5,2520.0,0.0,0.0,1.156005741,3.4955062007374242,0.0,716.0,16.5,-2790.0,-2520.0,0.0,0.0,2.506103259,3.4990377285215604,0.0,2032.0,26.125,2947.5,2520.0,0.0,0.0,0.924072171,3.4944467424021837,0.0,4.949999809265137,6.360000133514404,-15.100000381469727,0.07366943359375,0.13812255859375,0.69635009765625,30.510000228881836,0.0,-24.0,-0.7213897705078125,0.5183258056640625,Waiting,0.0,0.0,-26740.0,0.0,0.0,0.0,0.0,0.0,
3.117652000000002,0.0,0.0,false,2850618.9540658984,,8237.0,22.75,2640.0,2520.0,0.0,0.375,2.700195036,1.0358213317553215,0.03906249599999967,2548.0,29.5,2767.5,2520.0,0.0,0.0,1.17187488,3.50719133176009,0.0,716.0,14.875,-2850.0,-2520.0,0.0,0.0,2.504882556,3.510734665091834,0.0,2032.0,26.375,2992.5,2520.0,0.0,0.0,0.9570311520000001,3.5061283317605665,0.0,5.239999771118164,5.929999828338623,-14.5600004196167,-0.07000732421875,0.45635986328125,1.45355224609375,30.510000228881836,0.0,-294.0,-0.70538330078125,0.5602569580078125,Waiting,0.0,0.0,-26740.0,0.0,0.0,0.0,0.0,0.0,
3.1655130000000065,0.0,0.0,false,2850884.1389159365,,8237.0,18.125,2797.5,2520.0,0.0,0.25,2.753905968,1.040233771991731,0.05737304099999996,2548.0,28.5,2932.5,2520.0,0.0,0.0,1.180419801,3.5115904386758814,0.009765623999999917,716.0,11.75,-2902.5,-2520.0,0.0,0.0,2.5292966160000003,3.5151382164478315,0.003662108999999969,2032.0,26.125,3045.0,2520.0,0.0,0.0,0.9704588850000001,3.5105261053442964,0.0,5.429999828338623,6.059999942779541,-14.4399995803833,-0.0845947265625,0.22845458984375,0.353515625,30.510000228881836,0.0,-166.0,-0.6912078857421875,0.6040496826171875,Waiting,0.0,0.0,-26740.0,0.0,0.0,0.0,0.0,0.0,
3.200771999999997,0.0,0.0,false,2851474.748012332,,8711.0,13.5,2910.0,2520.0000000000005,0.0,0.25,2.825927445,1.0418884502304937,0.04760741700000004,3038.0,27.75,2977.5,2520.0000000000005,0.0,0.0,1.192626831,3.5132401168796763,0.013427732999999442,242.0,10.625,-2932.5,-2520.0000000000005,0.0,0.0,2.520751695,3.516789561329949,0.006103514999999948,2530.0,26.625,3105.0,2520.0000000000005,0.0,0.0,0.982665915,3.5121752835445945,0.01831054500000029,5.860000133514404,5.440000057220459,-14.449999809265137,-0.02587890625,0.22296142578125,1.99993896484375,30.510000228881836,0.0,-214.0,-0.6832427978515625,0.6338958740234375,Waiting,0.0,0.0,-26740.0,0.0,0.0,0.0,0.0,0.0,
3.233158999999985,0.0,0.0,false,2852058.0532122,,8711.0,10.75,2992.5,2520.0,0.0,0.125,2.835693069,1.0417505581855788,0.0,3038.0,27.375,3075.0,2520.0,0.0,0.0,1.202392455,3.5131026415109647,0.0,242.0,8.75,-2985.0,-2520.0,0.0,0.0,2.5305173190000003,3.5166519470691697,0.0,2530.0,26.875,3142.5,2520.0,0.0,0.0,0.989990133,3.5120378498435034,0.0,5.630000114440918,5.400000095367432,-14.529999732971191,-0.0418701171875,0.1298828125,-0.076416015625,30.510000228881836,0.0,-67.0,-0.673431396484375,0.6786346435546875,Waiting,0.0,0.0,-26740.0,0.0,0.0,0.0,0.0,0.0,
3.274301999999996,0.0,0.0,false,2852634.0489862124,,8711.0,8.125,3037.5,2520.0,0.0,0.125,2.8442379900000003,1.0406474481264765,0.0,3038.0,27.0,3165.0,2520.0,0.0,0.0,1.204833861,3.512002864782017,0.0,242.0,6.5,-3015.0,-2520.0,0.0,0.0,2.543945052,3.5155510592301704,0.0,2530.0,26.875,3180.0,2520.0,0.0,0.0,0.994872945,3.510938406447571,0.0,5.760000228881836,5.059999942779541,-14.649999618530273,-0.1397705078125,0.127685546875,0.77520751953125,30.510000228881836,0.0,-214.0,-0.6655120849609375,0.72393798828125,Waiting,0.0,0.0,-26740.0,0.0,0.0,0.0,0.0,0.0,
3.3150199999999894,0.0,0.0,false,2853202.747972754,,9204.0,6.375,3052.5,2758.5693366591763,0.0,0.125,2.8491208020000003,0.7080041886898897,0.009765623999999917,3559.0,25.625,3232.5,2758.5693366591763,0.0,0.0,1.209716673,3.1803647723259996,0.0,-243.0,5.25,-3030.0,-2758.5693366591763,0.0,0.0,2.553710676,3.183577911113963,0.015869138999999866,3047.0,26.875,3202.5,2758.5693366591763,0.0,0.0,0.993652242,3.1794008306896107,0.0,5.880000114440918,4.639999866485596,-14.739999771118164,-0.113037109375,0.1424560546875,1.7796630859375,30.510000228881836,0.0,-239.0,-0.6614990234375,0.7541961669921875,Waiting,0.0,0.0,-26740.0,0.0,0.0,0.0,0.0,0.0,
3.354960999999981,0.0,0.0,false,2853757.3575482406,,9204.0,7.875,3090.0,3563.8181771801997,0.0,0.25,2.8454586930000003,0.41697599684397446,0.0,3559.0,24.25,3277.5,3563.8181771801997,0.0,0.125,1.1901854250000001,2.8902159968535113,0.004882811999999959,-243.0,8.5,-3030.0,-3563.8181771801997,0.0,0.125,2.553710676,2.8931359968503325,0.009765623999999917,3047.0,26.25,3240.0,3563.8181771801997,0.0,0.0,0.9753416970000001,2.889339996854465,0.0,5.639999866485596,4.849999904632568,-14.8100004196167,0.14111328125,0.2147216796875,0.3250732421875,30.510000228881836,0.0,62.0,-0.6582489013671875,0.7841644287109375,Waiting,0.0,0.0,-26740.0,0.0,0.0,0.0,0.0,0.0,
3.3949149999999793,0.0,0.0,false,2854305.011673152,,9204.0,13.125,3195.0,3197.870629418895,0.0,0.625,2.835693069,0.31905741541346533,0.0,3559.0,23.75,3307.5,3197.870629418895,0.0,0.5,1.104736215,2.7925933015473894,0.0,-243.0,12.75,-3112.5,-3197.870629418895,0.0,0.625,2.4865720110000002,2.7954146728360816,0.0,3047.0,24.625,3262.5,3197.870629418895,0.0,0.75,0.914306547,2.791746890160782,-0.021972653999999814,5.880000114440918,4.639999866485596,-14.970000267028809,0.14373779296875,0.200439453125,1.16485595703125,30.510000228881836,0.0,26.0,-0.6539306640625,0.8293914794921875,Waiting,0.0,0.0,-26740.0,0.0,0.0,0.0,0.0,0.0,
3.4300389999999896,0.0,0.0,false,2854845.381747447,,9204.0,12.375,3262.5,2520.0,0.0,0.75,2.6965329270000002,4.757166666666667,0.0,4104.0,23.625,3322.5,2520.0,0.0,0.5,0.9362792010000001,2.2682916666666664,0.0,-764.0,9.875,-3240.0,-2520.0,0.0,0.875,2.3278806210000003,2.270583333333333,0.0,3578.0,23.625,3300.0,2520.0,0.0,1.5,0.7531737510000001,2.2676041666666666,0.0,5.75,5.059999942779541,-15.050000190734863,0.3638916015625,-0.04315185546875,-0.0975341796875,30.510000228881836,0.0,367.0,-0.6498260498046875,0.874969482421875,Waiting,0.0,0.0,-26740.0,0.0,0.0,0.0,0.0,0.0,
3.4683559999999996,0.0,0.0,false,2855378.450567261,,9738.0,4.375,3337.5,2520.0,0.0,2.0,2.492675526,4.756477219592201,-0.1745605290000003,4104.0,16.75,3382.5,2520.0,0.0,2.0,0.8691405360000001,2.267604302933481,-0.16235349899999996,-764.0,6.5,-3262.5,-2520.0,0.0,2.5,2.088622833,2.269895275153054,0.0,3578.0,25.625,3307.5,2520.0,0.0,2.25,0.532226508,2.266917011267609,0.0,5.389999866485596,4.929999828338623,-15.180000305175781,0.5799560546875,-0.60516357421875,1.68353271484375,30.510000228881836,0.0,617.0,-0.6451568603515625,0.904632568359375,Waiting,0.0,0.0,-26740.0,0.0,0.0,0.0,0.0,0.0,
3.507,0.0,0.0,false,2855904.242424242,,9738.0,0.5,3255.0,2520.0,0.0,2.375,2.2216794600000003,4.754822554503547,-0.23925778799999975,4104.0,11.875,3382.5,2520.0,0.0,2.375,0.47851557600000005,2.265954637840059,-0.15502928100000002,-764.0,1.5,-3112.5,-2520.0,0.0,2.5,1.8200681730000001,2.268243943394555,-0.2392577880000002,3578.0,31.5,3225.0,2520.0,0.0,2.625,0.289306611,2.2652678461737104,-0.21484372799999996,3.930000066757202,5.909999847412109,-15.1899995803833,0.53314208984375,-1.21917724609375,0.07330322265625,30.510000228881836,0.0,825.0,-0.63336181640625,0.944915771484375,Waiting,0.0,0.0,-26740.0,0.0,0.0,0.0,0.0,0.0,
3.545472999999998,0.0,0.0,false,2856415.9896305897,,9738.0,0.875,3045.0,2520.0000000000005,0.0,1.125,1.9213865220000002,4.754546783563827,0.0,4104.0,12.5,3255.0,2520.0000000000005,0.0,0.25,0.300292938,2.2656797002130085,0.0,-764.0,4.875,-2835.0,-2520.0000000000005,0.0,0.625,1.539306483,2.2679687279966143,0.0,4016.0,37.5,3000.0,2520.0000000000005,0.0,2.25,0.07934569500000001,2.264992991877927,0.0,2.7899999618530273,6.230000019073486,-15.319999694824219,0.1173095703125,-0.336181640625,1.7078857421875,30.510000228881836,0.0,43.0,-0.62109375,0.9670562744140625,Waiting,0.0,0.0,-26740.0,0.0,0.0,0.0,0.0,0.0,
3.581869000000006,0.0,0.0,false,2856920.8009071765,,10198.0,3.875,2820.0,2520.0,0.0,0.25,1.7663572410000001,4.751926887310876,0.0,4577.0,18.875,2925.0,2520.0,0.0,0.0,0.173339826,2.2630677206489773,0.0,-1189.0,7.75,-2610.0,-2520.0,0.0,0.0,1.3977049350000001,2.265354109536277,0.0,4016.0,42.375,2692.5,2520.0,0.0,0.75,4.9206537930000005,2.2623818039827874,0.0,1.0399999618530273,6.96999979019165,-15.300000190734863,0.5517578125,-1.5296630859375,-1.123046875,30.530000686645508,0.0,1056.0,-0.59942626953125,0.9949493408203125,Waiting,0.0,0.0,-26740.0,0.0,0.0,0.0,0.0,0.0,
3.617676999999996,0.0,0.0,false,2857418.347910593,,10198.0,5.5,2700.0,2520.0,0.0,0.0,1.676025219,4.753029997369978,-0.14892576600000051,4577.0,22.375,2737.5,2520.0,0.0,0.0,0.12573240900000002,2.264167497377925,-0.11962889399999987,-1189.0,10.0,-2527.5,-2520.0,0.0,0.0,1.33056627,2.2664549973752766,-0.14038084500000014,4016.0,43.25,2557.5,2520.0,0.0,0.375,4.893798327,2.2634812473787203,0.0,0.0,6.190000057220459,-15.34000015258789,0.22735595703125,-0.4293212890625,1.99993896484375,30.530000686645508,0.0,122.0,-0.5810394287109375,1.00653076171875,Waiting,0.0,0.0,-26740.0,0.0,0.0,0.0,0.0,0.0,
3.6564100000000037,0.0,0.0,false,2857908.614736842,,10198.0,8.75,2460.0,2529.4348775615317,0.0,0.125,1.622314287,4.684909132938281,-0.08789061600000014,4577.0,31.0,2400.0,2529.4348775615317,0.0,0.0,0.07080077400000001,2.196252477621181,-0.07202147699999983,-1189.0,10.5,-2437.5,-2529.4348775615317,0.0,0.0,1.300048695,2.1984713627268806,-0.06835936799999942,4016.0,44.75,2310.0,2529.4348775615317,0.0,0.0,4.879149891,2.1955868120894717,-0.026855465999999772,-1.75,6.840000152587891,-15.109999656677246,0.31341552734375,-1.43109130859375,0.30841064453125,30.530000686645508,0.0,632.0,-0.5525665283203125,1.01617431640625,Waiting,0.0,0.0,-26740.0,0.0,7.5,0.0,0.0,0.0,
3.6956600000000033,0.0,0.0,false,2858384.857512953,,10560.0,13.0,2280.0,3032.3369189134487,0.0,0.125,1.6284178020000002,4.289667470220792,0.0,4948.0,37.75,2287.5,3032.3369189134487,0.0,0.0,0.06103515,1.8022051390255227,-0.025634763000000227,-1579.0,12.625,-2445.0,-3032.3369189134487,0.0,0.0,1.2951658830000001,1.8040259160906122,0.0,4362.0,44.625,2167.5,3032.3369189134487,0.0,0.375,4.880370594,1.801658905905996,-0.007324217999999938,-2.8499999046325684,6.449999809265137,-15.0600004196167,-0.7109375,-0.93798828125,1.915283203125,30.530000686645508,0.0,-672.0,-0.53167724609375,1.01568603515625,Waiting,0.0,0.0,-26739.0,1.0,0.0,0.0,0.0,0.0,
3.7301639999999896,0.0,0.0,false,2858853.8487939127,,10560.0,19.75,2257.5,3320.881478083695,0.0,0.125,1.6296385050000002,4.196532119530136,0.0,4948.0,40.375,2250.0,3320.881478083695,0.0,0.0,0.045166011000000006,1.709351220699968,0.0,-1579.0,15.875,-2497.5,-3320.881478083695,0.0,0.0,1.2951658830000001,1.7110781869766907,0.0,4362.0,42.0,2085.0,3320.881478083695,0.0,0.375,4.858397940000001,1.7088331308169513,0.0,-4.349999904632568,6.5,-14.9399995803833,-0.038330078125,-0.89093017578125,-0.2950439453125,30.530000686645508,0.0,229.0,-0.50054931640625,1.008331298828125,Waiting,0.0,0.0,-26739.0,1.0,0.0,0.0,0.0,0.0,
3.7687479999999924,0.0,0.0,false,2859315.9235998704,,10560.0,23.375,2317.5,3564.6086125114493,0.0,1.25,1.542968592,3.8031063414855684,0.0,4948.0,37.25,2257.5,4012.8370433323066,0.0,2.0,4.857177237,1.6208422958570565,0.0,-1579.0,17.625,-2602.5,-2295.9161936458286,0.0,1.125,1.193847534,1.3629247036019354,0.0,4362.0,38.375,2107.5,2944.0886101125284,0.0,4.875,4.703368659000001,1.781549647252254,0.0,-5.119999885559082,6.599999904632568,-14.989999771118164,-0.2449951171875,-0.7705078125,1.8887939453125,30.530000686645508,0.0,-290.0,-0.477386474609375,0.99871826171875,Waiting,0.0,0.0,-26739.0,1.0,0.0,0.0,0.0,0.0,
3.811475999999995,0.0,0.0,false,2859770.753843664,,10972.0,35.375,2580.0,-4200.0,0.0,3.0,1.324462755,0.8396579193091475,-0.13427733000000064,5312.0,36.125,2295.0,3814.071357491046,0.0,1.375,4.647216321,1.4547180852266937,0.0,-1991.0,13.125,-2565.0,2306.671395920119,0.0,2.0,0.925292874,2.857672735186173,0.0,4713.0,36.5,2235.0,1492.6061934715583,0.0,0.75,4.510497585,1.8436736322697305,0.0,-6.909999847412109,6.46999979019165,-15.119999885559082,-0.29052734375,-0.682861328125,-0.2403564453125,30.530000686645508,0.0,-67.0,-0.4312744140625,0.9718475341796875,Waiting,0.0,0.0,-26739.0,0.0,0.0,0.0,0.0,0.0,
3.861798999999999,0.0,0.0,false,2860218.343042071,,10972.0,52.75,2137.5,4200.0,0.0,8.375,1.225585812,3.1442472984541356,-0.24780270899999923,5312.0,33.25,2325.0,3122.6655176952827,0.0,1.125,4.512938991,1.2436670135745216,-0.18676755900000064,-1991.0,19.875,-1912.5,2902.984072384713,0.0,7.5,0.9082030320000001,2.678342591931652,-0.2734374719999999,4713.0,33.25,2257.5,733.7277832564855,0.0,0.375,4.431151890000001,1.2641820043578986,-0.16601560799999948,-6.880000114440918,5.460000038146973,-15.029999732971191,-0.583740234375,-0.16290283203125,1.9527587890625,30.530000686645508,0.0,-462.0,-0.4001007080078125,0.9446563720703125,Waiting,0.0,0.0,-26739.0,0.0,0.0,0.0,0.0,0.0,
