Time,ClimberA1,ClimberA2,CameraExists,HeapSpace,LoopTime,FRpos,FRCurrent,FRspeed,FRsetpoint,FRApos,FRACurrent,FREncpos,FREncSetpoint,FREncSpeed,FLpos,FLCurrent,FLspeed,FLsetpoint,FLApos,FLACurrent,FLEncpos,FLEncSetpoint,FLEncSpeed,BRpos,BRCurrent,BRspeed,BRsetpoint,BRApos,BRACurrent,BREncpos,BREncSetpoint,BREncSpeed,BLpos,BLCurrent,BLspeed,BLsetpoint,BLApos,BLACurrent,BLEncpos,BLEncSetpoint,BLEncSpeed,navx_Pitch,navx_Roll,navx_Yaw,navx_XAcc,navx_YAcc,navx_ZAcc,navx_Temp,navx_Bar,navx_Alt,navx_XDis,navx_YDis,GearPlacerState,ShootOutputV,ShootOutputCurrent,ShootEncPos,ShootEncVelocity,ShootSpeed,ShootSetpoint,CarouselSetpoint,CarouselCurrent,
0.4444470000000001,0.0,0.0,false,4317762.834951457,,56048.0,0.0,0.0,0.0,0.0,0.0,1.796874816,0.0,0.0,-63179.0,0.0,0.0,-0.0,0.0,0.0,2.6940915210000003,0.0,0.0,42396.0,0.0,0.0,0.0,0.0,0.0,4.122314031,0.0,0.0,-57659.0,0.0,0.0,-0.0,0.0,0.0,2.462157951,0.0,0.0,1.6799999475479126,0.4399999976158142,-132.82000732421875,0.005615234375,0.0069580078125,1.02044677734375,36.72999954223633,0.0,18.0,0.5981292724609375,1.8114776611328125,Waiting,0.0,0.0,32.0,0.0,0.0,0.0,0.0,0.0,
0.47748099999999977,0.0,0.0,false,4320913.623188406,,56048.0,0.0,0.0,0.0,0.0,0.0,1.798095519,0.0,4.9608748160000005,-63179.0,0.0,0.0,-0.0,0.0,0.0,2.6940915210000003,0.0,0.014091521000000107,42396.0,0.0,0.0,0.0,0.0,0.0,4.122314031,0.0,0.021093328000000966,-57659.0,0.0,0.0,-0.0,0.0,0.0,2.460937248,0.0,4.8984372480000005,1.659999966621399,0.4399999976158142,-132.82000732421875,-0.02508544921875,0.02532958984375,0.9761962890625,36.66999816894531,0.0,24.0,0.59814453125,1.8114471435546875,Waiting,0.0,0.0,32.0,0.0,0.0,0.0,0.0,0.0,
0.5061559999999999,0.0,0.0,false,4323884.115384615,,56048.0,0.0,0.0,0.0,0.0,0.0,1.798095519,0.0,4.9608748160000005,-63179.0,0.0,0.0,-0.0,0.0,0.0,2.6940915210000003,0.0,0.0,42396.0,0.0,0.0,0.0,0.0,0.0,4.122314031,0.0,0.0,-57659.0,0.0,0.0,-0.0,0.0,0.0,2.462157951,0.0,0.0,1.659999966621399,0.4399999976158142,-132.82000732421875,-0.04339599609375,0.05328369140625,0.9486083984375,36.66999816894531,0.0,15.0,0.5983123779296875,1.811248779296875,Waiting,0.0,0.0,32.0,0.0,0.0,0.0,0.0,0.0,
0.5333379999999998,0.0,0.0,false,4326651.406698565,,56048.0,0.0,0.0,0.0,0.0,0.0,1.796874816,0.0,0.0,-63179.0,0.0,0.0,-0.0,0.0,0.0,2.6953122240000003,0.0,0.0,42396.0,0.0,0.0,0.0,0.0,0.0,4.122314031,0.0,0.0,-57659.0,0.0,0.0,-0.0,0.0,0.0,2.462157951,0.0,0.0,1.6699999570846558,0.44999998807907104,-132.82000732421875,-0.01300048828125,0.01568603515625,0.983154296875,36.66999816894531,0.0,23.0,0.598602294921875,1.81085205078125,Waiting,0.0,0.0,32.0,0.0,0.0,0.0,0.0,0.0,
0.5683770000000004,0.0,0.0,false,4329243.771428571,,56048.0,0.0,0.0,0.0,0.0,0.0,1.796874816,0.0,0.0,-63179.0,0.0,0.0,-0.0,0.0,0.0,2.6953122240000003,0.0,0.0,42396.0,0.0,0.0,0.0,0.0,0.0,4.121093328000001,0.0,0.0,-57659.0,0.0,0.0,-0.0,0.0,0.0,2.462157951,0.0,0.0,1.6699999570846558,0.4300000071525574,-132.82000732421875,0.05126953125,0.03167724609375,1.02703857421875,36.66999816894531,0.0,-30.0,0.598907470703125,1.8108673095703125,Waiting,0.0,0.0,32.0,0.0,0.0,0.0,0.0,0.0,
0.593357,0.0,0.0,false,4331663.090047393,,56048.0,0.0,0.0,0.0,0.0,0.0,1.796874816,0.0,0.0,-63179.0,0.0,0.0,-0.0,0.0,0.0,2.6953122240000003,0.0,0.0,42396.0,0.0,0.0,0.0,0.0,0.0,4.122314031,0.0,0.0,-57659.0,0.0,0.0,-0.0,0.0,0.0,2.46582006,0.0,0.0,1.6699999570846558,0.4300000071525574,-132.82000732421875,0.0189208984375,0.0052490234375,1.02447509765625,36.66999816894531,0.0,10.0,0.5989532470703125,1.8114166259765625,Waiting,0.0,0.0,32.0,0.0,0.0,0.0,0.0,0.0,
0.6536869999999999,0.0,0.0,false,4333887.20754717,,56048.0,0.0,0.0,0.0,0.0,0.0,1.796874816,0.0,0.0,-63179.0,0.0,0.0,-0.0,0.0,0.0,2.6953122240000003,0.0,0.0,42396.0,0.0,0.0,0.0,0.0,0.0,4.122314031,0.0,0.0,-57659.0,0.0,0.0,-0.0,0.0,0.0,2.46582006,0.0,0.004882811999999959,1.659999966621399,0.4399999976158142,-132.82000732421875,-0.04345703125,0.02386474609375,0.95574951171875,36.66999816894531,0.0,37.0,0.5990447998046875,1.8119964599609375,Waiting,0.0,0.0,32.0,0.0,0.0,0.0,0.0,0.0,
0.6948289999999997,0.0,0.0,false,4335943.3615023475,,56048.0,0.0,0.0,0.0,0.0,0.0,1.796874816,0.0,0.0,-63179.0,0.0,0.0,-0.0,0.0,0.0,2.6953122240000003,0.0,0.0,42396.0,0.0,0.0,0.0,0.0,0.0,4.122314031,0.0,0.0,-57659.0,0.0,0.0,-0.0,0.0,0.0,2.467040763,0.0,0.004882811999999959,1.6699999570846558,0.44999998807907104,-132.82000732421875,-0.0361328125,0.02825927734375,0.956787109375,36.66999816894531,0.0,29.0,0.59930419921875,1.8121185302734375,Waiting,0.0,0.0,32.0,0.0,0.0,0.0,0.0,0.0,
0.7283190000000004,0.0,0.0,false,4337687.887850467,,56048.0,0.0,0.0,0.0,0.0,0.0,1.798095519,0.0,0.0,-63179.0,0.0,0.0,-0.0,0.0,0.0,2.6953122240000003,0.0,0.0,42396.0,0.0,0.0,0.0,0.0,0.0,4.121093328000001,0.0,0.0,-57659.0,0.0,0.0,-0.0,0.0,0.0,2.467040763,0.0,0.0,1.659999966621399,0.4399999976158142,-132.82000732421875,0.0294189453125,0.04339599609375,1.01287841796875,36.66999816894531,0.0,-24.0,0.5996551513671875,1.8121337890625,Waiting,0.0,0.0,32.0,0.0,0.0,0.0,0.0,0.0,
0.7531660000000001,0.0,0.0,false,4339271.069767442,,56048.0,0.0,0.0,0.0,0.0,0.0,1.796874816,0.0,0.0,-63179.0,0.0,0.0,-0.0,0.0,0.0,2.6953122240000003,0.0,0.0,42396.0,0.0,0.0,0.0,0.0,0.0,4.122314031,0.0,0.0,-57659.0,0.0,0.0,-0.0,0.0,0.0,2.46582006,0.0,0.0,1.6699999570846558,0.4300000071525574,-132.82000732421875,0.07275390625,0.0400390625,1.028076171875,36.66999816894531,0.0,-51.0,0.5998382568359375,1.8122406005859375,Waiting,0.0,0.0,32.0,0.0,0.0,0.0,0.0,0.0,
0.7878150000000005,0.0,0.0,false,4340670.481481481,,56048.0,0.0,0.0,0.0,0.0,0.0,1.796874816,0.0,0.0,-63179.0,0.0,0.0,-0.0,0.0,0.0,2.6940915210000003,0.0,0.0,42396.0,0.0,0.0,0.0,0.0,0.0,4.123534734000001,0.0,0.0,-57659.0,0.0,0.0,-0.0,0.0,0.0,2.46582006,0.0,0.0,1.6699999570846558,0.4300000071525574,-132.82000732421875,0.03955078125,0.0111083984375,1.0345458984375,36.66999816894531,0.0,-7.0,0.5998077392578125,1.812530517578125,Waiting,0.0,0.0,32.0,0.0,0.0,0.0,0.0,0.0,
0.8168720000000003,0.0,0.0,false,4341912.995391705,,56048.0,0.0,0.0,0.0,0.0,0.0,1.796874816,0.0,0.0,-63179.0,0.0,0.0,-0.0,0.0,0.0,2.6940915210000003,0.0,0.0,42396.0,0.0,0.0,0.0,0.0,0.0,4.121093328000001,0.0,0.0,-57659.0,0.0,0.0,-0.0,0.0,0.0,2.46582006,0.0,0.0,1.6699999570846558,0.4399999976158142,-132.82000732421875,-0.022705078125,0.02581787109375,0.97332763671875,36.66999816894531,0.0,22.0,0.5998382568359375,1.8129119873046875,Waiting,0.0,0.0,32.0,0.0,0.0,0.0,0.0,0.0,
0.8470770000000002,0.0,0.0,false,4343000.403669725,,56048.0,0.0,0.0,0.0,0.0,0.0,1.798095519,0.0,0.0,-63179.0,0.0,0.0,-0.0,0.0,0.0,2.6940915210000003,0.0,0.0,42396.0,0.0,0.0,0.0,0.0,0.0,4.122314031,0.0,0.0,-57659.0,0.0,0.0,-0.0,0.0,0.0,2.467040763,0.0,0.0,1.6699999570846558,0.44999998807907104,-132.82000732421875,-0.0465087890625,0.01202392578125,0.95367431640625,36.66999816894531,0.0,48.0,0.59991455078125,1.813079833984375,Waiting,0.0,0.0,32.0,0.0,0.0,0.0,0.0,0.0,
0.8761679999999996,0.0,0.0,false,4343934.831050228,,56048.0,0.0,0.0,0.0,0.0,0.0,1.7944334100000001,0.0,0.0,-63179.0,0.0,0.0,-0.0,0.0,0.0,2.6953122240000003,0.0,0.0,42396.0,0.0,0.0,0.0,0.0,0.0,4.121093328000001,0.0,0.0,-57659.0,0.0,0.0,-0.0,0.0,0.0,2.46582006,0.0,0.0,1.6699999570846558,0.44999998807907104,-132.82000732421875,-0.015625,0.01873779296875,0.9793701171875,36.66999816894531,0.0,23.0,0.6004180908203125,1.8132171630859375,Waiting,0.0,0.0,32.0,0.0,0.0,0.0,0.0,0.0,
0.9095050000000001,0.0,0.0,false,4344695.30909091,,56048.0,0.0,0.0,0.0,0.0,0.0,1.798095519,0.0,0.0,-63179.0,0.0,0.0,-0.0,0.0,0.0,2.6953122240000003,0.0,0.0,42396.0,0.0,0.0,0.0,0.0,0.0,4.122314031,0.0,0.0,-57659.0,0.0,0.0,-0.0,0.0,0.0,2.46582006,0.0,0.0,1.659999966621399,0.4399999976158142,-132.82000732421875,0.05743408203125,0.03704833984375,1.02838134765625,36.66999816894531,0.0,-38.0,0.6007843017578125,1.813232421875,Waiting,0.0,0.0,32.0,0.0,0.0,0.0,0.0,0.0,
0.9426670000000004,0.0,0.0,false,4345307.149321267,,56048.0,0.0,0.0,0.0,0.0,0.0,1.796874816,0.0,0.0,-63179.0,0.0,0.0,-0.0,0.0,0.0,2.6940915210000003,0.0,0.0,42396.0,0.0,0.0,0.0,0.0,0.0,4.121093328000001,0.0,0.0,-57659.0,0.0,0.0,-0.0,0.0,0.0,2.46582006,0.0,0.0,1.6699999570846558,0.4300000071525574,-132.82000732421875,0.0633544921875,0.03948974609375,1.03082275390625,36.66999816894531,0.0,-44.0,0.6009368896484375,1.813446044921875,Waiting,0.0,0.0,32.0,0.0,0.0,0.0,0.0,0.0,
0.9906509999999998,0.0,0.0,false,4345772.360360361,,56048.0,0.0,0.0,0.0,0.0,0.0,1.796874816,0.0,0.0,-63179.0,0.0,0.0,-0.0,0.0,0.0,2.6940915210000003,0.0,0.0,42396.0,0.0,0.0,0.0,0.0,0.0,4.122314031,0.0,0.0,-57659.0,0.0,0.0,-0.0,0.0,0.0,2.46582006,0.0,0.0,1.659999966621399,0.4399999976158142,-132.82000732421875,-0.0274658203125,0.02984619140625,0.97918701171875,36.689998626708984,0.0,22.0,0.600982666015625,1.81402587890625,Waiting,0.0,0.0,32.0,0.0,0.0,0.0,0.0,0.0,
1.0336500000000006,0.0,0.0,false,4346069.596412556,,56048.0,0.0,0.0,0.0,0.0,0.0,1.796874816,0.0,0.0,-63179.0,0.0,0.0,-0.0,0.0,0.0,2.6953122240000003,0.0,0.0,42396.0,0.0,0.0,0.0,0.0,0.0,4.121093328000001,0.0,0.0,-57659.0,0.0,0.0,-0.0,0.0,0.0,2.46582006,0.0,0.0,1.659999966621399,0.44999998807907104,-132.82000732421875,-0.0419921875,0.0330810546875,0.9559326171875,36.689998626708984,0.0,29.0,0.6014251708984375,1.814300537109375,Waiting,0.0,0.0,32.0,0.0,0.0,0.0,0.0,0.0,
1.0591620000000002,0.0,0.0,false,4346085.535714285,,56048.0,0.0,0.0,0.0,0.0,0.0,1.796874816,0.0,0.0,-63179.0,0.0,0.0,-0.0,0.0,0.0,2.6940915210000003,0.0,0.0,42396.0,0.0,0.0,0.0,0.0,0.0,4.122314031,0.0,0.0,-57659.0,0.0,0.0,-0.0,0.0,0.0,2.467040763,0.0,0.0,1.659999966621399,0.4399999976158142,-132.82000732421875,0.03143310546875,0.04388427734375,1.00909423828125,36.689998626708984,0.0,-26.0,0.60186767578125,1.814300537109375,Waiting,0.0,0.0,32.0,0.0,0.0,0.0,0.0,0.0,
1.0918190000000003,0.0,0.0,false,4345962.097777777,,56048.0,0.0,0.0,0.0,0.0,0.0,1.796874816,0.0,0.0,-63179.0,0.0,0.0,-0.0,0.0,0.0,2.6953122240000003,0.0,0.0,42396.0,0.0,0.0,0.0,0.0,0.0,4.122314031,0.0,0.0,-57659.0,0.0,0.0,-0.0,0.0,0.0,2.467040763,0.0,0.0,1.6699999570846558,0.4399999976158142,-132.82000732421875,0.074462890625,0.0447998046875,1.03460693359375,36.689998626708984,0.0,-35.0,0.6021575927734375,1.8145599365234375,Waiting,0.0,0.0,32.0,0.0,0.0,0.0,0.0,0.0,
1.1266450000000003,0.0,0.0,false,4345701.699115044,,56048.0,0.0,0.0,0.0,0.0,0.0,1.796874816,0.0,0.0,-63179.0,0.0,0.0,-0.0,0.0,0.0,2.6953122240000003,0.0,0.0,42396.0,0.0,0.0,0.0,0.0,0.0,4.121093328000001,0.0,0.0,-57659.0,0.0,0.0,-0.0,0.0,0.0,2.46582006,0.0,0.0,1.6699999570846558,0.4399999976158142,-132.82000732421875,0.03631591796875,0.00390625,1.02972412109375,36.689998626708984,0.0,0.0,0.6021575927734375,1.81475830078125,Waiting,0.0,0.0,32.0,0.0,0.0,0.0,0.0,0.0,
1.150388,0.0,0.0,false,4345282.678414097,,56048.0,0.0,0.0,0.0,0.0,0.0,1.796874816,0.0,0.0,-63179.0,0.0,0.0,-0.0,0.0,0.0,2.6940915210000003,0.0,0.0,42396.0,0.0,0.0,0.0,0.0,0.0,4.122314031,0.0,0.0,-57659.0,0.0,0.0,-0.0,0.0,0.0,2.46582006,0.0,0.0,1.659999966621399,0.4399999976158142,-132.82000732421875,-0.03167724609375,0.0218505859375,0.9754638671875,36.689998626708984,0.0,31.0,0.602203369140625,1.8151702880859375,Waiting,0.0,0.0,32.0,0.0,0.0,0.0,0.0,0.0,
1.179692,0.0,0.0,false,4344729.929824562,,56048.0,0.0,0.0,0.0,0.0,0.0,1.796874816,0.0,0.0,-63179.0,0.0,0.0,-0.0,0.0,0.0,2.6940915210000003,0.0,0.0,42396.0,0.0,0.0,0.0,0.0,0.0,4.121093328000001,0.0,0.0,-57659.0,0.0,0.0,-0.0,0.0,0.0,2.46582006,0.0,0.0,1.659999966621399,0.44999998807907104,-132.82000732421875,-0.05743408203125,0.04217529296875,0.93609619140625,36.689998626708984,0.0,33.0,0.6024322509765625,1.815399169921875,Waiting,0.0,0.0,32.0,0.0,0.0,0.0,0.0,0.0,
1.221285,0.0,0.0,false,4344045.76419214,,56048.0,0.0,0.0,0.0,0.0,0.0,1.798095519,0.0,0.0,-63179.0,0.0,0.0,-0.0,0.0,0.0,2.6940915210000003,0.0,0.0,42396.0,0.0,0.0,0.0,0.0,0.0,4.122314031,0.0,0.0,-57659.0,0.0,0.0,-0.0,0.0,0.0,2.46582006,0.0,0.0,1.659999966621399,0.4399999976158142,-132.82000732421875,0.0484619140625,0.04302978515625,1.013427734375,36.689998626708984,0.0,-37.0,0.6030426025390625,1.8154296875,Waiting,0.0,0.0,32.0,0.0,0.0,0.0,0.0,0.0,
1.2546720000000005,0.0,0.0,false,4343230.365217391,,56048.0,0.0,0.0,0.0,0.0,0.0,1.796874816,0.0,0.0,-63179.0,0.0,0.0,-0.0,0.0,0.0,2.6940915210000003,0.0,0.0,42396.0,0.0,0.0,0.0,0.0,0.0,4.122314031,0.0,0.0,-57659.0,0.0,0.0,-0.0,0.0,0.0,2.467040763,0.0,0.0,1.6699999570846558,0.4300000071525574,-132.82000732421875,0.06903076171875,0.0450439453125,1.03912353515625,36.689998626708984,0.0,-52.0,0.6032257080078125,1.8155975341796875,Waiting,0.0,0.0,32.0,0.0,0.0,0.0,0.0,0.0,
1.291143,0.0,0.0,false,4342264.865800866,,56048.0,0.0,0.0,0.0,0.0,0.0,1.798095519,0.0,0.0,-63179.0,0.0,0.0,-0.0,0.0,0.0,2.6953122240000003,0.0,0.0,42396.0,0.0,0.0,0.0,0.0,0.0,4.122314031,0.0,0.0,-57659.0,0.0,0.0,-0.0,0.0,0.0,2.46582006,0.0,0.0,1.6699999570846558,0.4399999976158142,-132.82000732421875,-0.02020263671875,0.02679443359375,0.99078369140625,36.689998626708984,0.0,20.0,0.603240966796875,1.816192626953125,Waiting,0.0,0.0,32.0,0.0,0.0,0.0,0.0,0.0,
1.3256109999999999,0.0,0.0,false,4341173.206896552,,56048.0,0.0,0.0,0.0,0.0,0.0,1.796874816,0.0,0.0,-63179.0,0.0,0.0,-0.0,0.0,0.0,2.6940915210000003,0.0,0.0,42396.0,0.0,0.0,0.0,0.0,0.0,4.121093328000001,0.0,0.0,-57659.0,0.0,0.0,-0.0,0.0,0.0,2.46582006,0.0,0.0,1.6699999570846558,0.44999998807907104,-132.82000732421875,-0.06512451171875,0.043701171875,0.94464111328125,36.689998626708984,0.0,37.0,0.603424072265625,1.8164825439453125,Waiting,0.0,0.0,32.0,0.0,0.0,0.0,0.0,0.0,
1.3530650000000004,0.0,0.0,false,4339956.463519313,,56048.0,0.0,0.0,0.0,0.0,0.0,1.798095519,0.0,0.0,-63179.0,0.0,0.0,-0.0,0.0,0.0,2.6953122240000003,0.0,0.0,42396.0,0.0,0.0,0.0,0.0,0.0,4.121093328000001,0.0,0.0,-57659.0,0.0,0.0,-0.0,0.0,0.0,2.46582006,0.0,0.0,1.6699999570846558,0.44999998807907104,-132.82000732421875,-0.02191162109375,0.019775390625,0.97906494140625,36.689998626708984,0.0,26.0,0.603790283203125,1.8165283203125,Waiting,0.0,0.0,32.0,0.0,0.0,0.0,0.0,0.0,
1.388223,0.0,0.0,false,4338481.948717949,,56048.0,0.0,0.0,0.0,0.0,0.0,1.796874816,0.0,0.0,-63179.0,0.0,0.0,-0.0,0.0,0.0,2.6940915210000003,0.0,0.0,42396.0,0.0,0.0,0.0,0.0,0.0,4.122314031,0.0,0.0,-57659.0,0.0,0.0,-0.0,0.0,0.0,2.467040763,0.0,0.0,1.659999966621399,0.4399999976158142,-132.82000732421875,0.069580078125,0.03631591796875,1.02935791015625,36.689998626708984,0.0,-46.0,0.604156494140625,1.8165435791015625,Waiting,0.0,0.0,32.0,0.0,0.0,0.0,0.0,0.0,
1.411339,0.0,0.0,false,4336866.042553191,,56048.0,0.0,0.0,0.0,0.0,0.0,1.798095519,0.0,0.0,-63179.0,0.0,0.0,-0.0,0.0,0.0,2.6940915210000003,0.0,0.0,42396.0,0.0,0.0,0.0,0.0,0.0,4.122314031,0.0,0.0,-57659.0,0.0,0.0,-0.0,0.0,0.0,2.467040763,0.0,0.0,1.659999966621399,0.4300000071525574,-132.82000732421875,0.06939697265625,0.0321044921875,1.03314208984375,36.689998626708984,0.0,-43.0,0.604278564453125,1.816741943359375,Waiting,0.0,0.0,32.0,0.0,0.0,0.0,0.0,0.0,
1.4495470000000006,0.0,0.0,false,4335131.084745763,,56048.0,0.0,0.0,0.0,0.0,0.0,1.796874816,0.0,0.0,-63179.0,0.0,0.0,-0.0,0.0,0.0,2.6940915210000003,0.0,0.0,42396.0,0.0,0.0,0.0,0.0,0.0,4.121093328000001,0.0,0.0,-57659.0,0.0,0.0,-0.0,0.0,0.0,2.46582006,0.0,0.0,1.6699999570846558,0.4300000071525574,-132.82000732421875,-0.00396728515625,0.0203857421875,1.00048828125,36.689998626708984,0.0,14.0,0.6042633056640625,1.8171539306640625,Waiting,0.0,0.0,32.0,0.0,0.0,0.0,0.0,0.0,
1.4816019999999999,0.0,0.0,false,4333142.514767933,,56048.0,0.0,0.0,0.0,0.0,0.0,1.796874816,0.0,0.0,-63179.0,0.0,0.0,-0.0,0.0,0.0,2.6953122240000003,0.0,0.0,42396.0,0.0,0.0,0.0,0.0,0.0,4.121093328000001,0.0,0.0,-57659.0,0.0,0.0,-0.0,0.0,0.0,2.467040763,0.0,0.0,1.659999966621399,0.4399999976158142,-132.82000732421875,-0.060302734375,0.02398681640625,0.94482421875,36.68000030517578,0.0,48.0,0.6043853759765625,1.8175201416015625,Waiting,0.0,0.0,32.0,0.0,0.0,0.0,0.0,0.0,
1.509041,0.0,0.0,false,4331017.714285715,,56048.0,0.0,0.0,0.0,0.0,0.0,1.796874816,0.0,0.0,-63179.0,0.0,0.0,-0.0,0.0,0.0,2.6940915210000003,0.0,0.0,42396.0,0.0,0.0,0.0,0.0,0.0,4.122314031,0.0,0.0,-57659.0,0.0,0.0,-0.0,0.0,0.0,2.467040763,0.0,0.0,1.6699999570846558,0.44999998807907104,-132.82000732421875,-0.0284423828125,0.01690673828125,0.9705810546875,36.68000030517578,0.0,32.0,0.6047210693359375,1.817626953125,Waiting,0.0,0.0,32.0,0.0,0.0,0.0,0.0,0.0,
1.5390320000000002,0.0,0.0,false,4328779.615062761,,56048.0,0.0,0.0,0.0,0.0,0.0,1.795654113,0.0,0.0,-63179.0,0.0,0.0,-0.0,0.0,0.0,2.6953122240000003,0.0,0.0,42396.0,0.0,0.0,0.0,0.0,0.0,4.122314031,0.0,0.0,-57659.0,0.0,0.0,-0.0,0.0,0.0,2.467040763,0.0,0.0,1.659999966621399,0.4399999976158142,-132.82000732421875,0.0494384765625,0.04278564453125,1.0208740234375,36.68000030517578,0.0,-37.0,0.6051177978515625,1.817657470703125,Waiting,0.0,0.0,32.0,0.0,0.0,0.0,0.0,0.0,
1.5741040000000002,0.0,0.0,false,4326430.166666667,,56048.0,0.0,0.0,0.0,0.0,0.0,1.796874816,0.0,0.0,-63179.0,0.0,0.0,-0.0,0.0,0.0,2.6940915210000003,0.0,0.0,42396.0,0.0,0.0,0.0,0.0,0.0,4.122314031,0.0,0.0,-57659.0,0.0,0.0,-0.0,0.0,0.0,2.46582006,0.0,0.0,1.6699999570846558,0.4300000071525574,-132.82000732421875,0.06976318359375,0.04547119140625,1.03570556640625,36.68000030517578,0.0,-53.0,0.6052703857421875,1.8178253173828125,Waiting,0.0,0.0,32.0,0.0,0.0,0.0,0.0,0.0,
1.6011360000000003,0.0,0.0,false,4323970.22406639,,56048.0,0.0,0.0,0.0,0.0,0.0,1.798095519,0.0,0.0,-63179.0,0.0,0.0,-0.0,0.0,0.0,2.6940915210000003,0.0,0.0,42396.0,0.0,0.0,0.0,0.0,0.0,4.121093328000001,0.0,0.0,-57659.0,0.0,0.0,-0.0,0.0,0.0,2.46582006,0.0,0.0,1.6699999570846558,0.4300000071525574,-132.82000732421875,0.0172119140625,0.015869140625,1.01654052734375,36.68000030517578,0.0,3.0,0.6052398681640625,1.8182220458984375,Waiting,0.0,0.0,32.0,0.0,0.0,0.0,0.0,0.0,
1.6309639999999999,0.0,0.0,false,4321400.231404958,,56048.0,0.0,0.0,0.0,0.0,0.0,1.796874816,0.0,0.0,-63179.0,0.0,0.0,-0.0,0.0,0.0,2.6940915210000003,0.0,0.0,42396.0,0.0,0.0,0.0,0.0,0.0,4.122314031,0.0,0.0,-57659.0,0.0,0.0,-0.0,0.0,0.0,2.46582006,0.0,0.0,1.6699999570846558,0.4399999976158142,-132.82000732421875,-0.05718994140625,0.01788330078125,0.94537353515625,36.68000030517578,0.0,50.0,0.605316162109375,1.8186187744140625,Waiting,0.0,0.0,32.0,0.0,0.0,0.0,0.0,0.0,
1.6541370000000006,0.0,0.0,false,4318702.518518519,,56048.0,0.0,0.0,0.0,0.0,0.0,1.796874816,0.0,0.0,-63179.0,0.0,0.0,-0.0,0.0,0.0,2.6940915210000003,0.0,0.0,42396.0,0.0,0.0,0.0,0.0,0.0,4.122314031,0.0,0.0,-57659.0,0.0,0.0,-0.0,0.0,0.0,2.46582006,0.0,0.0,1.6699999570846558,0.44999998807907104,-132.82000732421875,-0.04559326171875,0.01519775390625,0.95709228515625,36.68000030517578,0.0,45.0,0.605621337890625,1.8187713623046875,Waiting,0.0,0.0,32.0,0.0,0.0,0.0,0.0,0.0,
1.6870480000000008,0.0,0.0,false,4315898.459016394,,56048.0,0.0,0.0,0.0,0.0,0.0,1.798095519,0.0,0.0,-63179.0,0.0,0.0,-0.0,0.0,0.0,2.6940915210000003,0.0,0.0,42396.0,0.0,0.0,0.0,0.0,0.0,4.122314031,0.0,0.0,-57659.0,0.0,0.0,-0.0,0.0,0.0,2.46582006,0.0,0.0,1.6699999570846558,0.4399999976158142,-132.82000732421875,-0.00390625,0.03271484375,0.98284912109375,36.68000030517578,0.0,4.0,0.6058349609375,1.81878662109375,Waiting,0.0,0.0,32.0,0.0,0.0,0.0,0.0,0.0,
1.7095049999999992,0.0,0.0,false,4312989.942857143,,56048.0,0.0,0.0,0.0,0.0,0.0,1.796874816,0.0,0.0,-63179.0,0.0,0.0,-0.0,0.0,0.0,2.6953122240000003,0.0,0.0,42396.0,0.0,0.0,0.0,0.0,0.0,4.122314031,0.0,0.0,-57659.0,0.0,0.0,-0.0,0.0,0.0,2.467040763,0.0,0.0,1.6699999570846558,0.4300000071525574,-132.82000732421875,0.07257080078125,0.04449462890625,1.025634765625,36.68000030517578,0.0,-54.0,0.6061553955078125,1.818817138671875,Waiting,0.0,0.0,32.0,0.0,0.0,0.0,0.0,0.0,
1.735785,0.0,0.0,false,4309976.8130081305,,56048.0,0.0,0.0,0.0,0.0,0.0,1.798095519,0.0,0.0,-63179.0,0.0,0.0,-0.0,0.0,0.0,2.6940915210000003,0.0,0.0,42396.0,0.0,0.0,0.0,0.0,0.0,4.122314031,0.0,0.0,-57659.0,0.0,0.0,-0.0,0.0,0.0,2.46582006,0.0,0.0,1.6699999570846558,0.41999998688697815,-132.82000732421875,0.0584716796875,0.00677490234375,1.0352783203125,36.68000030517578,0.0,-17.0,0.6062164306640625,1.819061279296875,Waiting,0.0,0.0,32.0,0.0,0.0,0.0,0.0,0.0,
1.770215,0.0,0.0,false,4306715.303643725,,56048.0,0.0,0.0,0.0,0.0,0.0,1.796874816,0.0,0.0,-63179.0,0.0,0.0,-0.0,0.0,0.0,2.6940915210000003,0.0,0.0,42396.0,0.0,0.0,0.0,0.0,0.0,4.122314031,0.0,0.0,-57659.0,0.0,0.0,-0.0,0.0,0.0,2.46582006,0.0,0.0,1.6699999570846558,0.4300000071525574,-132.82000732421875,-0.0189208984375,0.02362060546875,0.986083984375,36.68000030517578,0.0,21.0,0.6062164306640625,1.8194732666015625,Waiting,0.0,0.0,32.0,0.0,0.0,0.0,0.0,0.0,
1.7881360000000004,0.0,0.0,false,4303353.774193549,,56048.0,0.0,0.0,0.0,0.0,0.0,1.798095519,0.0,0.0,-63179.0,0.0,0.0,-0.0,0.0,0.0,2.6953122240000003,0.0,0.0,42396.0,0.0,0.0,0.0,0.0,0.0,4.122314031,0.0,0.0,-57659.0,0.0,0.0,-0.0,0.0,0.0,2.46582006,0.0,0.0,1.6699999570846558,0.4399999976158142,-132.82000732421875,-0.05926513671875,0.01165771484375,0.959228515625,36.68000030517578,0.0,57.0,0.6062774658203125,1.81964111328125,Waiting,0.0,0.0,32.0,0.0,0.0,0.0,0.0,0.0,
1.8456620000000004,0.0,0.0,false,4299893.943775101,,56048.0,0.0,0.0,0.0,0.0,0.0,1.798095519,0.0,0.0,-63179.0,0.0,0.0,-0.0,0.0,0.0,2.6940915210000003,0.0,0.0,42396.0,0.0,0.0,0.0,0.0,0.0,4.121093328000001,0.0,0.0,-57659.0,0.0,0.0,-0.0,0.0,0.0,2.46582006,0.0,0.0,1.659999966621399,0.4399999976158142,-132.82000732421875,0.0396728515625,0.0450439453125,1.0155029296875,36.68000030517578,0.0,-32.0,0.60699462890625,1.8197784423828125,Waiting,0.0,0.0,32.0,0.0,0.0,0.0,0.0,0.0,
1.87133,0.0,0.0,false,4296335.584,,56048.0,0.0,0.0,0.0,0.0,0.0,1.796874816,0.0,0.0,-63179.0,0.0,0.0,-0.0,0.0,0.0,2.6940915210000003,0.0,0.0,42396.0,0.0,0.0,0.0,0.0,0.0,4.122314031,0.0,0.0,-57659.0,0.0,0.0,-0.0,0.0,0.0,2.46582006,0.0,0.0,1.6699999570846558,0.4300000071525574,-132.82000732421875,0.07135009765625,0.04473876953125,1.0374755859375,36.68000030517578,0.0,-53.0,0.607177734375,1.8199005126953125,Waiting,0.0,0.0,32.0,0.0,0.0,0.0,0.0,0.0,
1.894121000000001,0.0,0.0,false,4292660.940239044,,56048.0,0.0,0.0,0.0,0.0,0.0,1.798095519,0.0,0.0,-63179.0,0.0,0.0,-0.0,0.0,0.0,2.6940915210000003,0.0,0.0,42396.0,0.0,0.0,0.0,0.0,0.0,4.122314031,0.0,0.0,-57659.0,0.0,0.0,-0.0,0.0,0.0,2.46582006,0.0,0.0,1.6699999570846558,0.4300000071525574,-132.82000732421875,0.05950927734375,0.0023193359375,1.041015625,36.68000030517578,0.0,-14.0,0.607177734375,1.820068359375,Waiting,0.0,0.0,32.0,0.0,0.0,0.0,0.0,0.0,
1.9245310000000009,0.0,0.0,false,4288891.650793651,,56048.0,0.0,0.0,0.0,0.0,0.0,1.798095519,0.0,0.0,-63179.0,0.0,0.0,-0.0,0.0,0.0,2.6953122240000003,0.0,0.0,42396.0,0.0,0.0,0.0,0.0,0.0,4.121093328000001,0.0,0.0,-57659.0,0.0,0.0,-0.0,0.0,0.0,2.46582006,0.0,0.0,1.6699999570846558,0.4300000071525574,-132.82000732421875,-0.0228271484375,0.02398681640625,0.9815673828125,36.68000030517578,0.0,24.0,0.6071929931640625,1.8204803466796875,Waiting,0.0,0.0,32.0,0.0,0.0,0.0,0.0,0.0,
1.9492829999999994,0.0,0.0,false,4285028.332015811,,56048.0,0.0,0.0,0.0,0.0,0.0,1.798095519,0.0,0.0,-63179.0,0.0,0.0,-0.0,0.0,0.0,2.6940915210000003,0.0,0.0,42396.0,0.0,0.0,0.0,0.0,0.0,4.122314031,0.0,0.0,-57659.0,0.0,0.0,-0.0,0.0,0.0,2.467040763,0.0,0.0,1.659999966621399,0.4399999976158142,-132.82000732421875,-0.06695556640625,0.04229736328125,0.93927001953125,36.68000030517578,0.0,39.0,0.6073760986328125,1.82073974609375,Waiting,0.0,0.0,32.0,0.0,0.0,0.0,0.0,0.0,
1.9784120000000003,0.0,0.0,false,4281072.094488189,,56048.0,0.0,0.0,0.0,0.0,0.0,1.798095519,0.0,0.0,-63179.0,0.0,0.0,-0.0,0.0,0.0,2.6953122240000003,0.0,0.0,42396.0,0.0,0.0,0.0,0.0,0.0,4.121093328000001,0.0,0.0,-57659.0,0.0,0.0,-0.0,0.0,0.0,2.46582006,0.0,0.0,1.659999966621399,0.4399999976158142,-132.82000732421875,0.005859375,0.03240966796875,0.98358154296875,36.68000030517578,0.0,-1.0,0.6077728271484375,1.8207855224609375,Waiting,0.0,0.0,32.0,0.0,0.0,0.0,0.0,0.0,
2.007339,0.0,0.0,false,4277004.141176471,,56048.0,0.0,0.0,0.0,0.0,0.0,1.796874816,0.0,0.0,-63179.0,0.0,0.0,-0.0,0.0,0.0,2.6940915210000003,0.0,0.0,42396.0,0.0,0.0,0.0,0.0,0.0,4.121093328000001,0.0,0.0,-57659.0,0.0,0.0,-0.0,0.0,0.0,2.467040763,0.0,0.0,1.659999966621399,0.4399999976158142,-132.82000732421875,0.07373046875,0.04022216796875,1.038818359375,36.66999816894531,0.0,-52.0,0.608123779296875,1.8209686279296875,Waiting,0.0,0.0,32.0,0.0,0.0,0.0,0.0,0.0,
2.0330689999999993,0.0,0.0,false,4272845.59375,,56048.0,0.0,0.0,0.0,0.0,0.0,1.796874816,0.0,0.0,-63179.0,0.0,0.0,-0.0,0.0,0.0,2.6940915210000003,0.0,0.0,42396.0,0.0,0.0,0.0,0.0,0.0,4.122314031,0.0,0.0,-57659.0,0.0,0.0,-0.0,0.0,0.0,2.46582006,0.0,0.0,1.659999966621399,0.4399999976158142,-132.82000732421875,0.07373046875,0.04022216796875,1.038818359375,36.66999816894531,0.0,-52.0,0.608123779296875,1.8209686279296875,Waiting,0.0,0.0,32.0,0.0,0.0,0.0,0.0,0.0,
2.0548639999999994,0.0,0.0,false,4268476.607003891,,56048.0,0.0,0.0,0.0,0.0,0.0,1.796874816,0.0,0.0,-63179.0,0.0,0.0,-0.0,0.0,0.0,2.6953122240000003,0.0,0.0,42396.0,0.0,0.0,0.0,0.0,0.0,4.121093328000001,0.0,0.0,-57659.0,0.0,0.0,-0.0,0.0,0.0,2.46582006,0.0,0.0,1.659999966621399,0.4399999976158142,-132.82000732421875,-0.031982421875,0.01849365234375,0.9827880859375,36.66999816894531,0.0,34.0,0.608154296875,1.8215789794921875,Waiting,0.0,0.0,32.0,0.0,0.0,0.0,0.0,0.0,
2.0901229999999997,0.0,0.0,false,4264084.837209302,,56048.0,0.0,0.0,0.0,0.0,0.0,1.796874816,0.0,0.0,-63179.0,0.0,0.0,-0.0,0.0,0.0,2.6940915210000003,0.0,0.0,42396.0,0.0,0.0,0.0,0.0,0.0,4.121093328000001,0.0,0.0,-57659.0,0.0,0.0,-0.0,0.0,0.0,2.46582006,0.0,0.0,1.649999976158142,0.44999998807907104,-132.82000732421875,-0.0645751953125,0.03839111328125,0.93548583984375,36.66999816894531,0.0,40.0,0.6083831787109375,1.82183837890625,Waiting,0.0,0.0,32.0,0.0,0.0,0.0,0.0,0.0,
2.1322870000000003,0.0,0.0,false,4266963.675675675,,56048.0,0.0,0.0,0.0,0.0,0.0,1.798095519,0.0,0.0,-63179.0,0.0,0.0,-0.0,0.0,0.0,2.6940915210000003,0.0,0.0,42396.0,0.0,0.0,0.0,0.0,0.0,4.121093328000001,0.0,0.0,-57659.0,0.0,0.0,-0.0,0.0,0.0,2.467040763,0.0,0.0,1.649999976158142,0.4399999976158142,-132.82000732421875,0.005859375,0.039306640625,0.99359130859375,36.66999816894531,0.0,-6.0,0.608795166015625,1.8218841552734375,Waiting,0.0,0.0,32.0,0.0,0.0,0.0,0.0,0.0,
2.155205,0.0,0.0,false,4269691.138461539,,56048.0,0.0,0.0,0.0,0.0,0.0,1.796874816,0.0,0.0,-63179.0,0.0,0.0,-0.0,0.0,0.0,2.6953122240000003,0.0,0.0,42396.0,0.0,0.0,0.0,0.0,0.0,4.122314031,0.0,0.0,-57659.0,0.0,0.0,-0.0,0.0,0.0,2.46582006,0.0,0.0,1.659999966621399,0.4300000071525574,-132.82000732421875,0.0760498046875,0.0533447265625,1.034423828125,36.66999816894531,0.0,-63.0,0.6090850830078125,1.8219757080078125,Waiting,0.0,0.0,32.0,0.0,0.0,0.0,0.0,0.0,
2.1876830000000007,0.0,0.0,false,4272268.475095785,,56048.0,0.0,0.0,0.0,0.0,0.0,1.795654113,0.0,0.0,-63179.0,0.0,0.0,-0.0,0.0,0.0,2.6940915210000003,0.0,0.0,42396.0,0.0,0.0,0.0,0.0,0.0,4.121093328000001,0.0,0.0,-57659.0,0.0,0.0,-0.0,0.0,0.0,2.46582006,0.0,0.0,1.659999966621399,0.4300000071525574,-132.82000732421875,0.04510498046875,0.00128173828125,1.0382080078125,36.66999816894531,0.0,-4.0,0.609130859375,1.8222808837890625,Waiting,0.0,0.0,32.0,0.0,0.0,0.0,0.0,0.0,
2.2120910000000005,0.0,0.0,false,4274697.404580153,,56048.0,0.0,0.0,0.0,0.0,0.0,1.798095519,0.0,0.0,-63179.0,0.0,0.0,-0.0,0.0,0.0,2.6953122240000003,0.0,0.0,42396.0,0.0,0.0,0.0,0.0,0.0,4.122314031,0.0,0.0,-57659.0,0.0,0.0,-0.0,0.0,0.0,2.46582006,0.0,0.0,1.659999966621399,0.4399999976158142,-132.82000732421875,-0.04443359375,0.01116943359375,0.9581298828125,36.66999816894531,0.0,47.0,0.6091766357421875,1.82269287109375,Waiting,0.0,0.0,32.0,0.0,0.0,0.0,0.0,0.0,
2.246362000000001,0.0,0.0,false,4276965.231939163,,56048.0,0.0,0.0,0.0,0.0,0.0,1.796874816,0.0,0.0,-63179.0,0.0,0.0,-0.0,0.0,0.0,2.6953122240000003,0.0,0.0,42396.0,0.0,0.0,0.0,0.0,0.0,4.121093328000001,0.0,0.0,-57659.0,0.0,0.0,-0.0,0.0,0.0,2.46582006,0.0,0.0,1.659999966621399,0.4399999976158142,-132.82000732421875,-0.0635986328125,0.0416259765625,0.944580078125,36.66999816894531,0.0,37.0,0.6092681884765625,1.8228302001953125,Waiting,0.0,0.0,32.0,0.0,0.0,0.0,0.0,0.0,
2.272272000000001,0.0,0.0,false,4279088.606060606,,56048.0,0.0,0.0,0.0,0.0,0.0,1.796874816,0.0,0.0,-63179.0,0.0,0.0,-0.0,0.0,0.0,2.6940915210000003,0.0,0.0,42396.0,0.0,0.0,0.0,0.0,0.0,4.122314031,0.0,0.0,-57659.0,0.0,0.0,-0.0,0.0,0.0,2.46582006,0.0,0.0,1.659999966621399,0.4399999976158142,-132.82000732421875,0.0242919921875,0.03839111328125,1.00604248046875,36.66999816894531,0.0,-17.0,0.609832763671875,1.822906494140625,Waiting,0.0,0.0,32.0,0.0,0.0,0.0,0.0,0.0,
2.3061270000000005,0.0,0.0,false,4281068.196226415,,56048.0,0.0,0.0,0.0,0.0,0.0,1.796874816,0.0,0.0,-63179.0,0.0,0.0,-0.0,0.0,0.0,2.6953122240000003,0.0,0.0,42396.0,0.0,0.0,0.0,0.0,0.0,4.122314031,0.0,0.0,-57659.0,0.0,0.0,-0.0,0.0,0.0,2.46582006,0.0,0.0,1.659999966621399,0.4300000071525574,-132.82000732421875,0.07025146484375,0.04669189453125,1.03814697265625,36.66999816894531,0.0,-54.0,0.6100616455078125,1.823028564453125,Waiting,0.0,0.0,32.0,0.0,0.0,0.0,0.0,0.0,
2.332067999999999,0.0,0.0,false,4282891.879699248,,56048.0,0.0,0.0,0.0,0.0,0.0,1.798095519,0.0,0.0,-63179.0,0.0,0.0,-0.0,0.0,0.0,2.6953122240000003,0.0,0.0,42396.0,0.0,0.0,0.0,0.0,0.0,4.121093328000001,0.0,0.0,-57659.0,0.0,0.0,-0.0,0.0,0.0,2.46582006,0.0,0.0,1.659999966621399,0.4300000071525574,-132.82000732421875,0.0654296875,0.009033203125,1.0274658203125,36.66999816894531,0.0,-4.0,0.6100921630859375,1.8233642578125,Waiting,0.0,0.0,32.0,0.0,0.0,0.0,0.0,0.0,
2.3569439999999995,0.0,0.0,false,4284576.0,,56048.0,0.0,0.0,0.0,0.0,0.0,1.796874816,0.0,0.0,-63179.0,0.0,0.0,-0.0,0.0,0.0,2.6953122240000003,0.0,0.0,42396.0,0.0,0.0,0.0,0.0,0.0,4.122314031,0.0,0.0,-57659.0,0.0,0.0,-0.0,0.0,0.0,2.46582006,0.0,0.0,1.659999966621399,0.4399999976158142,-132.82000732421875,-0.05438232421875,0.01153564453125,0.95068359375,36.66999816894531,0.0,53.0,0.61016845703125,1.8237457275390625,Waiting,0.0,0.0,32.0,0.0,0.0,0.0,0.0,0.0,
2.3908320000000005,0.0,0.0,false,4286121.223880597,,56048.0,0.0,0.0,0.0,0.0,0.0,1.796874816,0.0,0.0,-63179.0,0.0,0.0,-0.0,0.0,0.0,2.6940915210000003,0.0,0.0,42396.0,0.0,0.0,0.0,0.0,0.0,4.122314031,0.0,0.0,-57659.0,0.0,0.0,-0.0,0.0,0.0,2.467040763,0.0,0.0,1.659999966621399,0.4399999976158142,-132.82000732421875,-0.068603515625,0.04351806640625,0.9381103515625,36.66999816894531,0.0,39.0,0.61029052734375,1.8238525390625,Waiting,0.0,0.0,32.0,0.0,0.0,0.0,0.0,0.0,
2.4145059999999994,0.0,0.0,false,4287515.985130112,,56048.0,0.0,0.0,0.0,0.0,0.0,1.796874816,0.0,0.0,-63179.0,0.0,0.0,-0.0,0.0,0.0,2.6953122240000003,0.0,0.0,42396.0,0.0,0.0,0.0,0.0,0.0,4.122314031,0.0,0.0,-57659.0,0.0,0.0,-0.0,0.0,0.0,2.46582006,0.0,0.0,1.6699999570846558,0.44999998807907104,-132.82000732421875,6.7138671875E-4,0.0401611328125,0.9884033203125,36.66999816894531,0.0,-3.0,0.6106719970703125,1.8238983154296875,Waiting,0.0,0.0,32.0,0.0,0.0,0.0,0.0,0.0,
2.453924000000001,0.0,0.0,false,4288651.051851852,,56048.0,0.0,0.0,0.0,0.0,0.0,1.796874816,0.0,0.0,-63179.0,0.0,0.0,-0.0,0.0,0.0,2.6953122240000003,0.0,0.0,42396.0,0.0,0.0,0.0,0.0,0.0,4.122314031,0.0,0.0,-57659.0,0.0,0.0,-0.0,0.0,0.0,2.46582006,0.0,0.0,1.6699999570846558,0.4300000071525574,-132.82000732421875,0.051513671875,0.00360107421875,1.044921875,36.66999816894531,0.0,-9.0,0.61102294921875,1.824249267578125,Waiting,0.0,0.0,32.0,0.0,0.0,0.0,0.0,0.0,
2.4881139999999995,0.0,0.0,false,4289652.811808118,,56048.0,0.0,0.0,0.0,0.0,0.0,1.795654113,0.0,0.0,-63179.0,0.0,0.0,-0.0,0.0,0.0,2.6940915210000003,0.0,0.0,42396.0,0.0,0.0,0.0,0.0,0.0,4.122314031,0.0,0.0,-57659.0,0.0,0.0,-0.0,0.0,0.0,2.46582006,0.0,0.0,1.6699999570846558,0.4300000071525574,-132.82000732421875,0.01251220703125,0.032470703125,1.01312255859375,36.66999816894531,0.0,-5.0,0.6110076904296875,1.824462890625,Waiting,0.0,0.0,32.0,0.0,0.0,0.0,0.0,0.0,
2.510611000000001,0.0,0.0,false,4290509.764705882,,56048.0,0.0,0.0,0.0,0.0,0.0,1.796874816,0.0,0.0,-63179.0,0.0,0.0,-0.0,0.0,0.0,2.6953122240000003,0.0,0.0,42396.0,0.0,0.0,0.0,0.0,0.0,4.122314031,0.0,0.0,-57659.0,0.0,0.0,-0.0,0.0,0.0,2.467040763,0.0,0.0,1.659999966621399,0.44999998807907104,-132.82000732421875,-0.06072998046875,0.0267333984375,0.93756103515625,36.689998626708984,0.0,46.0,0.6112518310546875,1.824859619140625,Waiting,0.0,0.0,32.0,0.0,0.0,0.0,0.0,0.0,
2.552606,0.0,0.0,false,4291188.571428572,,56048.0,0.0,0.0,0.0,0.0,0.0,1.796874816,0.0,0.0,-63179.0,0.0,0.0,-0.0,0.0,0.0,2.6953122240000003,0.0,0.0,42396.0,0.0,0.0,0.0,0.0,0.0,4.122314031,0.0,0.0,-57659.0,0.0,0.0,-0.0,0.0,0.0,2.467040763,0.0,0.0,1.659999966621399,0.4399999976158142,-132.82000732421875,0.01898193359375,0.04254150390625,1.0001220703125,36.689998626708984,0.0,-17.0,0.6116180419921875,1.8249053955078125,Waiting,0.0,0.0,32.0,0.0,0.0,0.0,0.0,0.0,
2.582411,0.0,0.0,false,4291726.072992701,,56048.0,0.0,0.0,0.0,0.0,0.0,1.796874816,0.0,0.0,-63179.0,0.0,0.0,-0.0,0.0,0.0,2.6940915210000003,0.0,0.0,42396.0,0.0,0.0,0.0,0.0,0.0,4.122314031,0.0,0.0,-57659.0,0.0,0.0,-0.0,0.0,0.0,2.467040763,0.0,0.0,1.659999966621399,0.4399999976158142,-132.82000732421875,0.068115234375,0.04815673828125,1.021240234375,36.689998626708984,0.0,-54.0,0.6117706298828125,1.8249359130859375,Waiting,0.0,0.0,32.0,0.0,0.0,0.0,0.0,0.0,
2.6055779999999995,0.0,0.0,false,4292137.367272727,,56048.0,0.0,0.0,0.0,0.0,0.0,1.796874816,0.0,0.0,-63179.0,0.0,0.0,-0.0,0.0,0.0,2.6953122240000003,0.0,0.0,42396.0,0.0,0.0,0.0,0.0,0.0,4.122314031,0.0,0.0,-57659.0,0.0,0.0,-0.0,0.0,0.0,2.46582006,0.0,0.0,1.659999966621399,0.4300000071525574,-132.82000732421875,0.07037353515625,0.00616455078125,1.045654296875,36.689998626708984,0.0,-24.0,0.611846923828125,1.825164794921875,Waiting,0.0,0.0,32.0,0.0,0.0,0.0,0.0,0.0,
2.634325000000001,0.0,0.0,false,4292423.130434782,,56048.0,0.0,0.0,NaN,0.0,0.0,1.796874816,NaN,0.0,-63179.0,0.0,0.0,NaN,0.0,0.0,2.6953122240000003,NaN,0.0,42396.0,0.0,0.0,NaN,0.0,0.0,4.122314031,NaN,0.0,-57659.0,0.0,0.0,NaN,0.0,0.0,2.46582006,NaN,0.0,1.649999976158142,0.4399999976158142,-132.82000732421875,-0.0155029296875,0.02532958984375,0.990966796875,36.689998626708984,0.0,18.0,0.6118316650390625,1.825592041015625,Waiting,0.0,0.0,32.0,0.0,0.0,0.0,0.0,0.0,
2.6609500000000006,0.0,0.0,false,4292585.53068592,,56048.0,0.0,0.0,NaN,0.0,0.0,1.798095519,NaN,0.0,-63179.0,0.0,0.0,NaN,0.0,0.0,2.6940915210000003,NaN,0.0,42396.0,0.0,0.0,NaN,0.0,0.0,4.122314031,NaN,0.0,-57659.0,0.0,0.0,NaN,0.0,0.0,2.46582006,NaN,0.0,1.649999976158142,0.44999998807907104,-132.82000732421875,-0.0709228515625,0.038818359375,0.93450927734375,36.689998626708984,0.0,44.0,0.61199951171875,1.8258819580078125,Waiting,0.0,0.0,32.0,0.0,0.0,0.0,0.0,0.0,
2.7062790000000003,0.0,0.0,false,4292611.683453238,,56048.0,0.0,0.0,NaN,0.0,0.0,1.796874816,NaN,0.0,-63179.0,0.0,0.0,NaN,0.0,0.0,2.6953122240000003,NaN,0.0,42396.0,0.0,0.0,NaN,0.0,0.0,4.121093328000001,NaN,0.0,-57659.0,0.0,0.0,NaN,0.0,0.0,2.467040763,NaN,0.0,1.649999976158142,0.44999998807907104,-132.82000732421875,0.00262451171875,0.0355224609375,0.986328125,36.689998626708984,0.0,-1.0,0.612396240234375,1.8259735107421875,Waiting,0.0,0.0,32.0,0.0,0.0,0.0,0.0,0.0,
2.739455,0.0,0.0,false,4292516.645161291,,56048.0,0.0,0.0,NaN,0.0,0.0,1.798095519,NaN,0.0,-63179.0,0.0,0.0,NaN,0.0,0.0,2.6940915210000003,NaN,0.0,42396.0,0.0,0.0,NaN,0.0,0.0,4.121093328000001,NaN,0.0,-57659.0,0.0,0.0,NaN,0.0,0.0,2.46582006,NaN,0.0,1.649999976158142,0.4399999976158142,-132.82000732421875,0.07708740234375,0.02783203125,1.040771484375,36.689998626708984,0.0,-45.0,0.612701416015625,1.82623291015625,Waiting,0.0,0.0,32.0,0.0,0.0,0.0,0.0,0.0,
2.772058999999999,0.0,0.0,false,4292289.2,,56048.0,0.0,0.0,NaN,0.0,0.0,1.798095519,NaN,0.0,-63179.0,0.0,0.0,NaN,0.0,0.0,2.6953122240000003,NaN,0.0,42396.0,0.0,0.0,NaN,0.0,0.0,4.121093328000001,NaN,0.0,-57659.0,0.0,0.0,NaN,0.0,0.0,2.467040763,NaN,0.0,1.649999976158142,0.44999998807907104,-132.82000732421875,-0.04376220703125,0.01007080078125,0.96783447265625,36.689998626708984,0.0,48.0,0.612701416015625,1.826904296875,Waiting,0.0,0.0,32.0,0.0,0.0,0.0,0.0,0.0,
2.825481,0.0,0.0,false,4291943.145907474,,56048.0,0.0,0.0,NaN,0.0,0.0,1.798095519,NaN,0.0,-63179.0,0.0,0.0,NaN,0.0,0.0,2.6940915210000003,NaN,0.0,42396.0,0.0,0.0,NaN,0.0,0.0,4.122314031,NaN,0.0,-57659.0,0.0,0.0,NaN,0.0,0.0,2.46582006,NaN,0.0,1.659999966621399,0.46000000834465027,-132.82000732421875,-0.0567626953125,0.01947021484375,0.9403076171875,36.689998626708984,0.0,49.0,0.6128997802734375,1.8271484375,Waiting,0.0,0.0,32.0,0.0,0.0,0.0,0.0,0.0,
2.850545,0.0,0.0,false,4291431.631205673,,56048.0,0.0,0.0,NaN,0.0,0.0,1.798095519,NaN,0.0,-63179.0,0.0,0.0,NaN,0.0,0.0,2.6953122240000003,NaN,0.0,42396.0,0.0,0.0,NaN,0.0,0.0,4.122314031,NaN,0.0,-57659.0,0.0,0.0,NaN,0.0,0.0,2.467040763,NaN,0.0,1.649999976158142,0.44999998807907104,-132.82000732421875,0.03173828125,0.0404052734375,1.00787353515625,36.689998626708984,0.0,-24.0,0.6132659912109375,1.827239990234375,Waiting,0.0,0.0,32.0,0.0,0.0,0.0,0.0,0.0,
2.8818490000000003,0.0,0.0,false,4290685.568904594,,56048.0,0.0,0.0,NaN,0.0,0.0,1.796874816,NaN,0.0,-63179.0,0.0,0.0,NaN,0.0,0.0,2.6953122240000003,NaN,0.0,42396.0,0.0,0.0,NaN,0.0,0.0,4.122314031,NaN,0.0,-57659.0,0.0,0.0,NaN,0.0,0.0,2.46582006,NaN,0.0,1.659999966621399,0.4399999976158142,-132.82000732421875,0.072021484375,0.0419921875,1.0384521484375,36.689998626708984,0.0,-52.0,0.613433837890625,1.827423095703125,Waiting,0.0,0.0,32.0,0.0,0.0,0.0,0.0,0.0,
2.908455,0.0,0.0,false,4289826.338028169,,56048.0,0.0,0.0,NaN,0.0,0.0,1.796874816,NaN,0.0,-63179.0,0.0,0.0,NaN,0.0,0.0,2.6940915210000003,NaN,0.0,42396.0,0.0,0.0,NaN,0.0,0.0,4.122314031,NaN,0.0,-57659.0,0.0,0.0,NaN,0.0,0.0,2.467040763,NaN,0.0,1.649999976158142,0.4399999976158142,-132.82000732421875,0.0244140625,0.02606201171875,1.01483154296875,36.689998626708984,0.0,-8.0,0.6134033203125,1.8278350830078125,Waiting,0.0,0.0,32.0,0.0,0.0,0.0,0.0,0.0,
2.936829,0.0,0.0,false,4288841.375438596,,56048.0,0.0,0.0,NaN,0.0,0.0,1.796874816,NaN,0.0,-63179.0,0.0,0.0,NaN,0.0,0.0,2.6953122240000003,NaN,0.0,42396.0,0.0,0.0,NaN,0.0,0.0,4.121093328000001,NaN,0.0,-57659.0,0.0,0.0,NaN,0.0,0.0,2.467040763,NaN,0.0,1.649999976158142,0.46000000834465027,-132.82000732421875,-0.0667724609375,0.033203125,0.938720703125,36.689998626708984,0.0,46.0,0.61358642578125,1.8283538818359375,Waiting,0.0,0.0,32.0,0.0,0.0,0.0,0.0,0.0,
3.0074140000000007,0.0,0.0,false,4287745.258741259,,56048.0,0.0,0.0,NaN,0.0,0.0,1.798095519,NaN,0.0,-63179.0,0.0,0.0,NaN,0.0,0.0,2.6940915210000003,NaN,0.0,42396.0,0.0,0.0,NaN,0.0,0.0,4.122314031,NaN,0.0,-57659.0,0.0,0.0,NaN,0.0,0.0,2.467040763,NaN,0.0,1.649999976158142,0.4399999976158142,-132.82000732421875,0.06878662109375,0.0146484375,1.0440673828125,36.689998626708984,0.0,-29.0,0.6141815185546875,1.82879638671875,Waiting,0.0,0.0,32.0,0.0,0.0,0.0,0.0,0.0,
3.0551450000000004,0.0,0.0,false,4286526.383275261,,56048.0,0.0,0.0,NaN,0.0,0.0,1.796874816,NaN,0.0,-63179.0,0.0,0.0,NaN,0.0,0.0,2.6940915210000003,NaN,0.0,42396.0,0.0,0.0,NaN,0.0,0.0,4.121093328000001,NaN,0.0,-57659.0,0.0,0.0,NaN,0.0,0.0,2.46582006,NaN,0.0,1.659999966621399,0.4399999976158142,-132.82000732421875,-0.00921630859375,0.03192138671875,0.997314453125,36.689998626708984,0.0,9.0,0.6141815185546875,1.8292694091796875,Waiting,0.0,0.0,32.0,0.0,0.0,0.0,0.0,0.0,
3.1091720000000005,0.0,0.0,false,4285198.861111111,,56048.0,0.0,0.0,NaN,0.0,0.0,1.796874816,NaN,0.0,-63179.0,0.0,0.0,NaN,0.0,0.0,2.6953122240000003,NaN,0.0,42396.0,0.0,0.0,NaN,0.0,0.0,4.121093328000001,NaN,0.0,-57659.0,0.0,0.0,NaN,0.0,0.0,2.467040763,NaN,0.0,1.659999966621399,0.44999998807907104,-132.82000732421875,0.045166015625,0.0396728515625,1.0196533203125,36.689998626708984,0.0,-32.0,0.614837646484375,1.8297882080078125,Waiting,0.0,0.0,32.0,0.0,0.0,0.0,0.0,0.0,
3.17183,0.0,0.0,false,4283750.9204152245,,56048.0,0.0,0.0,NaN,0.0,0.0,1.798095519,NaN,0.0,-63179.0,0.0,0.0,NaN,0.0,0.0,2.6953122240000003,NaN,0.0,42396.0,0.0,0.0,NaN,0.0,0.0,4.122314031,NaN,0.0,-57659.0,0.0,0.0,NaN,0.0,0.0,2.467040763,NaN,0.0,1.6699999570846558,0.4300000071525574,-132.80999755859375,0.04766845703125,0.00677490234375,1.043212890625,36.689998626708984,0.0,-9.0,0.614959716796875,1.830230712890625,Waiting,0.0,0.0,32.0,0.0,0.0,0.0,0.0,0.0,
3.195302,0.0,0.0,false,4282160.413793104,,56048.0,0.0,0.0,NaN,0.0,0.0,1.796874816,NaN,0.0,-63179.0,0.0,0.0,NaN,0.0,0.0,2.6953122240000003,NaN,0.0,42396.0,0.0,0.0,NaN,0.0,0.0,4.122314031,NaN,0.0,-57659.0,0.0,0.0,NaN,0.0,0.0,2.467040763,NaN,0.0,1.659999966621399,0.4399999976158142,-132.80999755859375,0.002197265625,0.03704833984375,1.0054931640625,36.689998626708984,0.0,-1.0,0.614959716796875,1.8304595947265625,Waiting,0.0,0.0,32.0,0.0,0.0,0.0,0.0,0.0,
3.2283060000000003,0.0,0.0,false,4280465.374570447,,56048.0,0.0,0.0,NaN,0.0,0.0,1.796874816,NaN,0.0,-63179.0,0.0,0.0,NaN,0.0,0.0,2.6953122240000003,NaN,0.0,42396.0,0.0,0.0,NaN,0.0,0.0,4.122314031,NaN,0.0,-57659.0,0.0,0.0,NaN,0.0,0.0,2.467040763,NaN,0.0,1.659999966621399,0.44999998807907104,-132.82000732421875,-0.065185546875,0.03955078125,0.94134521484375,36.689998626708984,0.0,40.0,0.61505126953125,1.8307952880859375,Waiting,0.0,0.0,32.0,0.0,0.0,0.0,0.0,0.0,
3.2640319999999994,0.0,0.0,false,4278487.369863014,,56048.0,0.0,0.0,NaN,0.0,0.0,1.796874816,NaN,0.0,-63179.0,0.0,0.0,NaN,0.0,0.0,2.6953122240000003,NaN,0.0,42396.0,0.0,0.0,NaN,0.0,0.0,4.122314031,NaN,0.0,-57659.0,0.0,0.0,NaN,0.0,0.0,2.467040763,NaN,0.0,1.6699999570846558,0.44999998807907104,-132.82000732421875,-0.01116943359375,0.02996826171875,0.97698974609375,36.689998626708984,0.0,11.0,0.615386962890625,1.830902099609375,Waiting,0.0,0.0,32.0,0.0,0.0,0.0,0.0,0.0,
3.291371000000001,0.0,0.0,false,4276395.686006826,,56048.0,0.0,0.0,NaN,0.0,0.0,1.796874816,NaN,0.0,-63179.0,0.0,0.0,NaN,0.0,0.0,2.6940915210000003,NaN,0.0,42396.0,0.0,0.0,NaN,0.0,0.0,4.122314031,NaN,0.0,-57659.0,0.0,0.0,NaN,0.0,0.0,2.46582006,NaN,0.0,1.659999966621399,0.4399999976158142,-132.82000732421875,0.07293701171875,0.04931640625,1.029296875,36.689998626708984,0.0,-58.0,0.615692138671875,1.83099365234375,Waiting,0.0,0.0,32.0,0.0,0.0,0.0,0.0,0.0,
3.3272510000000004,0.0,0.0,false,4274203.9455782315,,56048.0,0.0,0.0,NaN,0.0,0.0,1.796874816,NaN,0.0,-63179.0,0.0,0.0,NaN,0.0,0.0,2.6953122240000003,NaN,0.0,42396.0,0.0,0.0,NaN,0.0,0.0,4.122314031,NaN,0.0,-57659.0,0.0,0.0,NaN,0.0,0.0,2.467040763,NaN,0.0,1.659999966621399,0.4399999976158142,-132.82000732421875,-0.0361328125,0.0155029296875,0.97454833984375,36.689998626708984,0.0,39.0,0.615753173828125,1.83172607421875,Waiting,0.0,0.0,32.0,0.0,0.0,0.0,0.0,0.0,
3.3649009999999997,0.0,0.0,false,4271900.745762712,,56048.0,0.0,0.0,NaN,0.0,0.0,1.795654113,NaN,0.0,-63179.0,0.0,0.0,NaN,0.0,0.0,2.6940915210000003,NaN,0.0,42396.0,0.0,0.0,NaN,0.0,0.0,4.123534734000001,NaN,0.0,-57659.0,0.0,0.0,NaN,0.0,0.0,2.46582006,NaN,0.0,1.649999976158142,0.44999998807907104,-132.82000732421875,-0.06622314453125,0.02020263671875,0.93804931640625,36.689998626708984,0.0,55.0,0.615966796875,1.832000732421875,Waiting,0.0,0.0,32.0,0.0,0.0,0.0,0.0,0.0,
3.3910959999999997,0.0,0.0,false,4269499.594594595,,56048.0,0.0,0.0,NaN,0.0,0.0,1.798095519,NaN,0.0,-63179.0,0.0,0.0,NaN,0.0,0.0,2.6940915210000003,NaN,0.0,42396.0,0.0,0.0,NaN,0.0,0.0,4.122314031,NaN,0.0,-57659.0,0.0,0.0,NaN,0.0,0.0,2.467040763,NaN,0.0,1.649999976158142,0.4399999976158142,-132.82000732421875,0.016357421875,0.03814697265625,0.99542236328125,36.689998626708984,0.0,-12.0,0.616363525390625,1.8321075439453125,Waiting,0.0,0.0,32.0,0.0,0.0,0.0,0.0,0.0,
3.412594000000001,0.0,0.0,false,4267001.481481481,,56048.0,0.0,0.0,NaN,0.0,0.0,1.796874816,NaN,0.0,-63179.0,0.0,0.0,NaN,0.0,0.0,2.6940915210000003,NaN,0.0,42396.0,0.0,0.0,NaN,0.0,0.0,4.122314031,NaN,0.0,-57659.0,0.0,0.0,NaN,0.0,0.0,2.46582006,NaN,0.0,1.649999976158142,0.4399999976158142,-132.82000732421875,0.016357421875,0.04608154296875,1.039794921875,36.689998626708984,0.0,-55.0,0.6165924072265625,1.832275390625,Waiting,0.0,0.0,32.0,0.0,0.0,0.0,0.0,0.0,
3.443696,0.0,0.0,false,4264394.657718121,,56048.0,0.0,0.0,NaN,0.0,0.0,1.796874816,NaN,0.0,-63179.0,0.0,0.0,NaN,0.0,0.0,2.6940915210000003,NaN,0.0,42396.0,0.0,0.0,NaN,0.0,0.0,4.122314031,NaN,0.0,-57659.0,0.0,0.0,NaN,0.0,0.0,2.46582006,NaN,0.0,1.659999966621399,0.4300000071525574,-132.82000732421875,0.0662841796875,0.00665283203125,1.05126953125,36.689998626708984,0.0,-22.0,0.616607666015625,1.83245849609375,Waiting,0.0,0.0,32.0,0.0,0.0,0.0,0.0,0.0,
3.4708799999999993,0.0,0.0,false,4261692.789297659,,56048.0,0.0,0.0,NaN,0.0,0.0,1.796874816,NaN,0.0,-63179.0,0.0,0.0,NaN,0.0,0.0,2.6953122240000003,NaN,0.0,42396.0,0.0,0.0,NaN,0.0,0.0,4.122314031,NaN,0.0,-57659.0,0.0,0.0,NaN,0.0,0.0,2.46582006,NaN,0.0,1.649999976158142,0.44999998807907104,-132.82000732421875,-0.07208251953125,0.0322265625,0.93829345703125,36.689998626708984,0.0,50.0,0.6168212890625,1.8332061767578125,Waiting,0.0,0.0,32.0,0.0,0.0,0.0,0.0,0.0,
3.539183000000001,0.0,0.0,false,4258781.8133333335,,56048.0,0.0,0.0,NaN,0.0,0.0,1.796874816,NaN,0.0,-63179.0,0.0,0.0,NaN,0.0,0.0,2.6940915210000003,NaN,0.0,42396.0,0.0,0.0,NaN,0.0,0.0,4.122314031,NaN,0.0,-57659.0,0.0,0.0,NaN,0.0,0.0,2.46582006,NaN,0.0,1.659999966621399,0.4300000071525574,-132.82000732421875,0.0762939453125,0.04937744140625,1.0396728515625,36.66999816894531,0.0,-60.0,0.617462158203125,1.8333282470703125,Waiting,0.0,0.0,32.0,0.0,0.0,0.0,0.0,0.0,
3.5893919999999997,0.0,0.0,false,4255766.378737542,,56048.0,0.0,0.0,NaN,0.0,0.0,1.796874816,NaN,0.0,-63179.0,0.0,0.0,NaN,0.0,0.0,2.6940915210000003,NaN,0.0,42396.0,0.0,0.0,NaN,0.0,0.0,4.122314031,NaN,0.0,-57659.0,0.0,0.0,NaN,0.0,0.0,2.467040763,NaN,0.0,1.659999966621399,0.41999998688697815,-132.82000732421875,0.06243896484375,0.00628662109375,1.04962158203125,36.66999816894531,0.0,-19.0,0.61749267578125,1.8334503173828125,Waiting,0.0,0.0,32.0,0.0,0.0,0.0,0.0,0.0,
3.610808000000001,0.0,0.0,false,4252647.523178808,,56048.0,0.0,0.0,NaN,0.0,0.0,1.796874816,NaN,0.0,-63179.0,0.0,0.0,NaN,0.0,0.0,2.6940915210000003,NaN,0.0,42396.0,0.0,0.0,NaN,0.0,0.0,4.121093328000001,NaN,0.0012207029999995456,-57659.0,0.0,0.0,NaN,0.0,0.0,2.467040763,NaN,0.0,1.649999976158142,0.4399999976158142,-132.82000732421875,-0.0557861328125,0.0167236328125,0.94488525390625,36.66999816894531,0.0,50.0,0.6175384521484375,1.833953857421875,Waiting,0.0,0.0,32.0,0.0,0.0,0.0,0.0,0.0,
3.675058000000001,0.0,0.0,false,4249438.363036304,,56048.0,0.0,0.0,NaN,0.0,0.0,1.796874816,NaN,0.0,-63179.0,0.0,0.0,NaN,0.0,0.0,2.6953122240000003,NaN,0.0,42396.0,0.0,0.0,NaN,0.0,0.0,4.121093328000001,NaN,0.0,-57659.0,0.0,0.0,NaN,0.0,0.0,2.46582006,NaN,0.0,1.649999976158142,0.4300000071525574,-132.82000732421875,0.05853271484375,0.04736328125,1.016357421875,36.66999816894531,0.0,-47.0,0.6181640625,1.834075927734375,Waiting,0.0,0.0,32.0,0.0,0.0,0.0,0.0,0.0,
3.7268199999999996,0.0,0.0,false,4246127.315789473,,56048.0,0.0,0.0,NaN,0.0,0.0,1.796874816,NaN,0.0,-63179.0,0.0,0.0,NaN,0.0,0.0,2.6953122240000003,NaN,0.0,42396.0,0.0,0.0,NaN,0.0,0.0,4.122314031,NaN,0.0,-57659.0,0.0,0.0,NaN,0.0,0.0,2.467040763,NaN,0.0,1.659999966621399,0.4300000071525574,-132.82000732421875,0.0394287109375,0.011474609375,1.0333251953125,36.66999816894531,0.0,-7.0,0.6182708740234375,1.83441162109375,Waiting,0.0,0.0,32.0,0.0,0.0,0.0,0.0,0.0,
3.761326000000001,0.0,0.0,false,4242727.816393442,,56048.0,0.0,0.0,NaN,0.0,0.0,1.798095519,NaN,0.0,-63179.0,0.0,0.0,NaN,0.0,0.0,2.6940915210000003,NaN,0.0,42396.0,0.0,0.0,NaN,0.0,0.0,4.123534734000001,NaN,0.0,-57659.0,0.0,0.0,NaN,0.0,0.0,2.46582006,NaN,0.0,1.6699999570846558,0.44999998807907104,-132.82000732421875,-0.0445556640625,0.0093994140625,0.95599365234375,36.66999816894531,0.0,48.0,0.6187591552734375,1.834869384765625,Waiting,0.0,0.0,32.0,0.0,0.0,0.0,0.0,0.0,
3.8416389999999994,0.0,0.0,false,4239228.758169935,,56048.0,0.0,0.0,NaN,0.0,0.0,1.798095519,NaN,0.0,-63179.0,0.0,0.0,NaN,0.0,0.0,2.6940915210000003,NaN,0.0,42396.0,0.0,0.0,NaN,0.0,0.0,4.121093328000001,NaN,0.0,-57659.0,0.0,0.0,NaN,0.0,0.0,2.46582006,NaN,0.0,1.6699999570846558,0.4300000071525574,-132.82000732421875,0.0750732421875,0.04803466796875,1.0333251953125,36.66999816894531,0.0,-58.0,0.6190338134765625,1.8349151611328125,Waiting,0.0,0.0,32.0,0.0,0.0,0.0,0.0,0.0,
3.8590830000000005,0.0,0.0,false,4235599.087947883,,56048.0,0.0,0.0,NaN,0.0,0.0,1.798095519,NaN,0.0,-63179.0,0.0,0.0,NaN,0.0,0.0,2.6940915210000003,NaN,0.0,42396.0,0.0,0.0,NaN,0.0,0.0,4.121093328000001,NaN,0.0,-57659.0,0.0,0.0,NaN,0.0,0.0,2.467040763,NaN,0.0,1.659999966621399,0.4300000071525574,-132.82000732421875,0.0479736328125,0.00750732421875,1.04718017578125,36.66999816894531,0.0,-10.0,0.61907958984375,1.8351898193359375,Waiting,0.0,0.0,32.0,0.0,0.0,0.0,0.0,0.0,
3.9006260000000004,0.0,0.0,false,4231883.896103896,,56048.0,0.0,0.0,NaN,0.0,0.0,1.796874816,NaN,0.0,-63179.0,0.0,0.0,NaN,0.0,0.0,2.6953122240000003,NaN,0.0,42396.0,0.0,0.0,NaN,0.0,0.0,4.121093328000001,NaN,0.0,-57659.0,0.0,0.0,NaN,0.0,0.0,2.46582006,NaN,0.0,1.659999966621399,0.4399999976158142,-132.82000732421875,-0.04931640625,0.01251220703125,0.96331787109375,36.66999816894531,0.0,49.0,0.6191253662109375,1.8355560302734375,Waiting,0.0,0.0,32.0,0.0,0.0,0.0,0.0,0.0,
3.9532630000000006,0.0,0.0,false,4234322.822006472,,56048.0,0.0,0.0,NaN,0.0,0.0,1.798095519,NaN,0.0,-63179.0,0.0,0.0,NaN,0.0,0.0,2.6940915210000003,NaN,0.0,42396.0,0.0,0.0,NaN,0.0,0.0,4.122314031,NaN,0.0,-57659.0,0.0,0.0,NaN,0.0,0.0,2.467040763,NaN,0.0,1.649999976158142,0.4300000071525574,-132.82000732421875,0.04302978515625,0.04107666015625,1.00531005859375,36.66999816894531,0.0,-32.0,0.6197509765625,1.8357086181640625,Waiting,0.0,0.0,32.0,0.0,0.0,0.0,0.0,0.0,
3.9989470000000003,0.0,0.0,false,4236597.212903226,,56048.0,0.0,0.0,NaN,0.0,0.0,1.796874816,NaN,0.0,-63179.0,0.0,0.0,NaN,0.0,0.0,2.6953122240000003,NaN,0.0,42396.0,0.0,0.0,NaN,0.0,0.0,4.122314031,NaN,0.0,-57659.0,0.0,0.0,NaN,0.0,0.0,2.467040763,NaN,0.0,1.659999966621399,0.41999998688697815,-132.82000732421875,0.05413818359375,0.00579833984375,1.04302978515625,36.66999816894531,0.0,-13.0,0.6199188232421875,1.836029052734375,Waiting,0.0,0.0,32.0,0.0,0.0,0.0,0.0,0.0,
4.039128000000001,0.0,0.0,false,4238831.048231511,,56048.0,0.0,0.0,NaN,0.0,0.0,1.796874816,NaN,0.0,-63179.0,0.0,0.0,NaN,0.0,0.0,2.6953122240000003,NaN,0.0,42396.0,0.0,0.0,NaN,0.0,0.0,4.122314031,NaN,0.0,-57659.0,0.0,0.0,NaN,0.0,0.0,2.467040763,NaN,0.0,1.649999976158142,0.4399999976158142,-132.82000732421875,-0.064697265625,0.03375244140625,0.94354248046875,36.720001220703125,0.0,44.0,0.620025634765625,1.836517333984375,Waiting,0.0,0.0,32.0,0.0,0.0,0.0,0.0,0.0,
4.074145000000001,0.0,0.0,false,4240928.615384615,,56048.0,0.0,0.0,NaN,0.0,0.0,1.796874816,NaN,0.0,-63179.0,0.0,0.0,NaN,0.0,0.0,2.6940915210000003,NaN,0.0,42396.0,0.0,0.0,NaN,0.0,0.0,4.122314031,NaN,0.0,-57659.0,0.0,0.0,NaN,0.0,0.0,2.467040763,NaN,0.0,1.649999976158142,0.4300000071525574,-132.82000732421875,0.03863525390625,0.03961181640625,1.0052490234375,36.720001220703125,0.0,-28.0,0.6205902099609375,1.8365936279296875,Waiting,0.0,0.0,32.0,0.0,0.0,0.0,0.0,0.0,
4.125249,0.0,0.0,false,4242900.9329073485,,56048.0,0.0,0.0,NaN,0.0,0.0,1.796874816,NaN,0.0,-63179.0,0.0,0.0,NaN,0.0,0.0,2.6940915210000003,NaN,0.0,42396.0,0.0,0.0,NaN,0.0,0.0,4.121093328000001,NaN,0.0,-57659.0,0.0,0.0,NaN,0.0,0.0,2.467040763,NaN,0.0,1.649999976158142,0.41999998688697815,-132.82000732421875,0.0711669921875,0.03179931640625,1.04840087890625,36.720001220703125,0.0,-44.0,0.62078857421875,1.83673095703125,Waiting,0.0,0.0,32.0,0.0,0.0,0.0,0.0,0.0,
4.173403,0.0,0.0,false,4244739.898089172,,56048.0,0.0,0.0,NaN,0.0,0.0,1.798095519,NaN,0.0,-63179.0,0.0,0.0,NaN,0.0,0.0,2.6940915210000003,NaN,0.0,42396.0,0.0,0.0,NaN,0.0,0.0,4.121093328000001,NaN,0.0,-57659.0,0.0,0.0,NaN,0.0,0.0,2.467040763,NaN,0.0,1.649999976158142,0.4399999976158142,-132.82000732421875,-0.0623779296875,0.04034423828125,0.9404296875,36.720001220703125,0.0,37.0,0.6209564208984375,1.8373870849609375,Waiting,0.0,0.0,32.0,0.0,0.0,0.0,0.0,0.0,
4.207597,0.0,0.0,false,4246456.050793651,,56048.0,0.0,0.0,NaN,0.0,0.0,1.796874816,NaN,0.0,-63179.0,0.0,0.0,NaN,0.0,0.0,2.6940915210000003,NaN,0.0,42396.0,0.0,0.0,NaN,0.0,0.0,4.121093328000001,NaN,0.0012207029999995456,-57659.0,0.0,0.0,NaN,0.0,0.0,2.467040763,NaN,0.0,1.659999966621399,0.4399999976158142,-132.82000732421875,-0.00982666015625,0.03369140625,0.97528076171875,36.720001220703125,0.0,7.0,0.621307373046875,1.8374481201171875,Waiting,0.0,0.0,32.0,0.0,0.0,0.0,0.0,0.0,
4.242468000000001,0.0,0.0,false,4248040.936708861,,56048.0,0.0,0.0,NaN,0.0,0.0,1.798095519,NaN,0.0,-63179.0,0.0,0.0,NaN,0.0,0.0,2.6940915210000003,NaN,0.0,42396.0,0.0,0.0,NaN,0.0,0.0,4.123534734000001,NaN,0.0,-57659.0,0.0,0.0,NaN,0.0,0.0,2.467040763,NaN,0.0,1.659999966621399,0.4300000071525574,-132.82000732421875,0.0728759765625,0.037109375,1.050048828125,36.720001220703125,0.0,-48.0,0.621673583984375,1.8376007080078125,Waiting,0.0,0.0,32.0,0.0,0.0,0.0,0.0,0.0,
4.276675999999999,0.0,0.0,false,4249496.176656151,,56048.0,0.0,0.0,NaN,0.0,0.0,1.796874816,NaN,0.0,-63179.0,0.0,0.0,NaN,0.0,0.0,2.6953122240000003,NaN,0.0,42396.0,0.0,0.0,NaN,0.0,0.0,4.121093328000001,NaN,0.0,-57659.0,0.0,0.0,NaN,0.0,0.0,2.46582006,NaN,0.0,1.659999966621399,0.4300000071525574,-132.82000732421875,0.01019287109375,0.0361328125,1.01422119140625,36.720001220703125,0.0,-6.0,0.6216888427734375,1.83795166015625,Waiting,0.0,0.0,32.0,0.0,0.0,0.0,0.0,0.0,
4.322665000000001,0.0,0.0,false,4250832.176100629,,56048.0,0.0,0.0,NaN,0.0,0.0,1.796874816,NaN,0.0,-63179.0,0.0,0.0,NaN,0.0,0.0,2.6940915210000003,NaN,0.0,42396.0,0.0,0.0,NaN,0.0,0.0,4.122314031,NaN,0.0,-57659.0,0.0,0.0,NaN,0.0,0.0,2.46582006,NaN,0.0,1.659999966621399,0.4399999976158142,-132.82000732421875,-0.06060791015625,0.01409912109375,0.943115234375,36.720001220703125,0.0,55.0,0.6219482421875,1.838287353515625,Waiting,0.0,0.0,32.0,0.0,0.0,0.0,0.0,0.0,
4.358929,0.0,0.0,false,4252040.902821316,,56048.0,0.0,0.0,NaN,0.0,0.0,1.796874816,NaN,0.0,-63179.0,0.0,0.0,NaN,0.0,0.0,2.6953122240000003,NaN,0.0,42396.0,0.0,0.0,NaN,0.0,0.0,4.122314031,NaN,0.0,-57659.0,0.0,0.0,NaN,0.0,0.0,2.46582006,NaN,0.0,1.659999966621399,0.4300000071525574,-132.82000732421875,0.07440185546875,0.05419921875,1.02606201171875,36.720001220703125,0.0,-63.0,0.622467041015625,1.8383331298828125,Waiting,0.0,0.0,32.0,0.0,0.0,0.0,0.0,0.0,
4.413869000000001,0.0,0.0,false,4253132.675,,56048.0,0.0,0.0,NaN,0.0,0.0,1.798095519,NaN,0.0,-63179.0,0.0,0.0,NaN,0.0,0.0,2.6940915210000003,NaN,0.0,42396.0,0.0,0.0,NaN,0.0,0.0,4.122314031,NaN,0.0,-57659.0,0.0,0.0,NaN,0.0,0.0,2.467040763,NaN,0.0,1.659999966621399,0.4300000071525574,-132.82000732421875,0.02044677734375,0.031494140625,1.0189208984375,36.720001220703125,0.0,-10.0,0.62255859375,1.838775634765625,Waiting,0.0,0.0,32.0,0.0,0.0,0.0,0.0,0.0,
4.447475000000001,0.0,0.0,false,4254083.065420561,,56048.0,0.0,0.0,NaN,0.0,0.0,1.796874816,NaN,0.0,-63179.0,0.0,0.0,NaN,0.0,0.0,2.6940915210000003,NaN,0.0,42396.0,0.0,0.0,NaN,0.0,0.0,4.122314031,NaN,0.0,-57659.0,0.0,0.0,NaN,0.0,0.0,2.46582006,NaN,0.0,1.6699999570846558,0.4300000071525574,-132.82000732421875,-0.0394287109375,0.0142822265625,0.96820068359375,36.720001220703125,0.0,42.0,0.622589111328125,1.8389739990234375,Waiting,0.0,0.0,32.0,0.0,0.0,0.0,0.0,0.0,
4.472004999999999,0.0,0.0,false,4254918.832298136,,56048.0,0.0,0.0,NaN,0.0,0.0,1.796874816,NaN,0.0,-63179.0,0.0,0.0,NaN,0.0,0.0,2.6953122240000003,NaN,0.0,42396.0,0.0,0.0,NaN,0.0,0.0,4.122314031,NaN,0.0,-57659.0,0.0,0.0,NaN,0.0,0.0,2.46582006,NaN,0.0,1.659999966621399,0.4399999976158142,-132.82000732421875,-0.01495361328125,0.0289306640625,0.9754638671875,36.720001220703125,0.0,14.0,0.623046875,1.8391876220703125,Waiting,0.0,0.0,32.0,0.0,0.0,0.0,0.0,0.0,
4.505203,0.0,0.0,false,4255523.244582043,,56048.0,0.0,0.0,NaN,0.0,0.0,1.798095519,NaN,0.0,-63179.0,0.0,0.0,NaN,0.0,0.0,2.6940915210000003,NaN,0.0,42396.0,0.0,0.0,NaN,0.0,0.0,4.122314031,NaN,0.0,-57659.0,0.0,0.0,NaN,0.0,0.0,2.46582006,NaN,0.0,1.659999966621399,0.4399999976158142,-132.82000732421875,0.0294189453125,0.04052734375,1.00030517578125,36.720001220703125,0.0,-23.0,0.62322998046875,1.839202880859375,Waiting,0.0,0.0,32.0,0.0,0.0,0.0,0.0,0.0,
4.535228999999999,0.0,0.0,false,4256015.87654321,,56048.0,0.0,0.0,NaN,0.0,0.0,1.796874816,NaN,0.0,-63179.0,0.0,0.0,NaN,0.0,0.0,2.6953122240000003,NaN,0.0,42396.0,0.0,0.0,NaN,0.0,0.0,4.121093328000001,NaN,0.0,-57659.0,0.0,0.0,NaN,0.0,0.0,2.46582006,NaN,0.0,1.659999966621399,0.4300000071525574,-132.82000732421875,0.0736083984375,0.0322265625,1.05206298828125,36.720001220703125,0.0,-45.0,0.623443603515625,1.8393402099609375,Waiting,0.0,0.0,32.0,0.0,0.0,0.0,0.0,0.0,
4.569109,0.0,0.0,false,4256388.775384615,,56048.0,0.0,0.0,NaN,0.0,0.0,1.798095519,NaN,0.0,-63179.0,0.0,0.0,NaN,0.0,0.0,2.6940915210000003,NaN,0.0,42396.0,0.0,0.0,NaN,0.0,0.0,4.122314031,NaN,0.0,-57659.0,0.0,0.0,NaN,0.0,0.0,2.467040763,NaN,0.0,1.659999966621399,0.4300000071525574,-132.82000732421875,0.0201416015625,0.03387451171875,1.01043701171875,36.70000076293945,0.0,-11.0,0.6234893798828125,1.8397216796875,Waiting,0.0,0.0,32.0,0.0,0.0,0.0,0.0,0.0,
4.593566000000001,0.0,0.0,false,4256652.0,,56048.0,0.0,0.0,NaN,0.0,0.0,1.796874816,NaN,0.0,-63179.0,0.0,0.0,NaN,0.0,0.0,2.6940915210000003,NaN,0.0,42396.0,0.0,0.0,NaN,0.0,0.0,4.122314031,NaN,0.0,-57659.0,0.0,0.0,NaN,0.0,0.0,2.46582006,NaN,0.0,1.659999966621399,0.4399999976158142,-132.82000732421875,-0.06494140625,0.03570556640625,0.9437255859375,36.70000076293945,0.0,43.0,0.6236114501953125,1.8400726318359375,Waiting,0.0,0.0,32.0,0.0,0.0,0.0,0.0,0.0,
4.619322,0.0,0.0,false,4256797.626911315,,56048.0,0.0,0.0,NaN,0.0,0.0,1.798095519,NaN,0.0,-63179.0,0.0,0.0,NaN,0.0,0.0,2.6940915210000003,NaN,0.0,42396.0,0.0,0.0,NaN,0.0,0.0,4.122314031,NaN,0.0,-57659.0,0.0,0.0,NaN,0.0,0.0,2.467040763,NaN,0.0,1.659999966621399,0.4399999976158142,-132.82000732421875,-0.01416015625,0.03155517578125,0.97918701171875,36.70000076293945,0.0,12.0,0.6239776611328125,1.840179443359375,Waiting,0.0,0.0,32.0,0.0,0.0,0.0,0.0,0.0,
4.648200000000001,0.0,0.0,false,4256835.634146341,,56048.0,0.0,0.0,NaN,0.0,0.0,1.796874816,NaN,0.0,-63179.0,0.0,0.0,NaN,0.0,0.0,2.6953122240000003,NaN,0.0,42396.0,0.0,0.0,NaN,0.0,0.0,4.122314031,NaN,0.0012207029999995456,-57659.0,0.0,0.0,NaN,0.0,0.0,2.467040763,NaN,0.0,1.659999966621399,0.4399999976158142,-132.82000732421875,0.07366943359375,0.05242919921875,1.0198974609375,36.70000076293945,0.0,-61.0,0.6243133544921875,1.84027099609375,Waiting,0.0,0.0,32.0,0.0,0.0,0.0,0.0,0.0,
4.670982,0.0,0.0,false,4256767.003039514,,56048.0,0.0,0.0,NaN,0.0,0.0,1.798095519,NaN,0.0,-63179.0,0.0,0.0,NaN,0.0,0.0,2.6953122240000003,NaN,0.0,42396.0,0.0,0.0,NaN,0.0,0.0,4.121093328000001,NaN,0.0,-57659.0,0.0,0.0,NaN,0.0,0.0,2.467040763,NaN,0.0,1.659999966621399,0.4300000071525574,-132.82000732421875,0.019775390625,0.03692626953125,1.0223388671875,36.70000076293945,0.0,-13.0,0.6244049072265625,1.84075927734375,Waiting,0.0,0.0,32.0,0.0,0.0,0.0,0.0,0.0,
4.760522999999999,0.0,0.0,false,4256583.8545454545,,56048.0,0.0,0.0,NaN,0.0,0.0,1.796874816,NaN,0.0,-63179.0,0.0,0.0,NaN,0.0,0.0,2.6940915210000003,NaN,0.0,42396.0,0.0,0.0,NaN,0.0,0.0,4.122314031,NaN,0.0,-57659.0,0.0,0.0,NaN,0.0,0.0,2.467040763,NaN,0.0,1.659999966621399,0.4399999976158142,-132.82000732421875,0.03240966796875,0.03948974609375,1.01031494140625,36.70000076293945,0.0,-24.0,0.6250457763671875,1.841278076171875,Waiting,0.0,0.0,32.0,0.0,0.0,0.0,0.0,0.0,
4.791165000000001,0.0,0.0,false,4256286.8640483385,,56048.0,0.0,0.0,NaN,0.0,0.0,1.796874816,NaN,0.0,-63179.0,0.0,0.0,NaN,0.0,0.0,2.6940915210000003,NaN,0.0,42396.0,0.0,0.0,NaN,0.0,0.0,4.121093328000001,NaN,0.0,-57659.0,0.0,0.0,NaN,0.0,0.0,2.46582006,NaN,0.0,1.659999966621399,0.4399999976158142,-132.82000732421875,0.07080078125,0.05755615234375,1.026123046875,36.70000076293945,0.0,-62.0,0.62518310546875,1.841339111328125,Waiting,0.0,0.0,32.0,0.0,0.0,0.0,0.0,0.0,
4.825862999999999,0.0,0.0,false,4255877.421686747,,56048.0,0.0,0.0,NaN,0.0,0.0,1.796874816,NaN,0.0,-63179.0,0.0,0.0,NaN,0.0,0.0,2.6940915210000003,NaN,0.0,42396.0,0.0,0.0,NaN,0.0,0.0,4.122314031,NaN,0.0,-57659.0,0.0,0.0,NaN,0.0,0.0,2.46582006,NaN,0.0,1.659999966621399,0.4399999976158142,-132.82000732421875,-0.06329345703125,0.03515625,0.93902587890625,36.70000076293945,0.0,42.0,0.625396728515625,1.8422088623046875,Waiting,0.0,0.0,32.0,0.0,0.0,0.0,0.0,0.0,
