Time,ClimberA1,ClimberA2,FRpos,FRCurrent,FRspeed,FRsetpoint,FRApos,FRACurrent,FREncpos,FREncSetpoint,FREncSpeed,FLpos,FLCurrent,FLspeed,FLsetpoint,FLApos,FLACurrent,FLEncpos,FLEncSetpoint,FLEncSpeed,BRpos,BRCurrent,BRspeed,BRsetpoint,BRApos,BRACurrent,BREncpos,BREncSetpoint,BREncSpeed,BLpos,BLCurrent,BLspeed,BLsetpoint,BLApos,BLACurrent,BLEncpos,BLEncSetpoint,BLEncSpeed,navx_Pitch,navx_Roll,navx_Yaw,navx_XAcc,navx_YAcc,navx_ZAcc,navx_Temp,navx_Bar,navx_Alt,navx_XDis,navx_YDis,GearPlacerState,ShootOutputV,ShootOutputCurrent,ShootEncPos,ShootEncVelocity,ShootSpeed,ShootSetpoint,CarouselSetpoint,CarouselCurrent,
0.10881899999990129,0.0,0.0,-118371.0,0.0,0.0,0.0,0.0,0.25,0.6872557890000001,4.790531348495851,0.0,-182940.0,0.125,0.0,0.0,0.0,0.125,0.29785153200000003,4.821082762734675,0.0,88941.0,0.125,0.0,0.0,0.0,0.0,3.1091305410000003,4.798430186486656,0.0,-177385.0,0.125,0.0,0.0,0.0,0.25,1.431884619,4.815489893032019,0.0,-0.05999999865889549,-0.6899999976158142,0.0,-0.0133056640625,0.00115966796875,1.01885986328125,35.16999816894531,0.0,0.0,-1.9242706298828125,3.2000885009765625,Waiting,0.0,0.0,-148305.0,0.0,0.0,0.0,0.0,0.0,
0.1953499999999767,0.0,0.0,-118371.0,0.0,0.0,0.0,0.0,0.25,0.6872557890000001,4.790531348495851,0.0,-182940.0,0.125,0.0,0.0,0.0,0.125,0.29785153200000003,4.821082762734675,0.0,88941.0,0.0,0.0,0.0,0.0,0.125,3.1152340560000003,4.798430186486656,0.0,-177385.0,0.125,0.0,0.0,0.0,0.125,1.431884619,4.815489893032019,0.0,-0.05000000074505806,-0.6899999976158142,0.0,-0.01190185546875,3.0517578125E-4,1.017333984375,35.16999816894531,0.0,0.0,-1.9242706298828125,3.2000885009765625,Waiting,0.0,0.125,-148305.0,0.0,0.0,0.0,0.0,0.0,
0.2816689999999944,0.0,0.0,-118371.0,0.0,0.0,0.0,0.0,0.25,0.6860350860000001,4.790531348495851,0.0,-182940.0,0.125,0.0,0.0,0.0,0.125,0.299072235,4.821082762734675,0.0,88941.0,0.0,0.0,0.0,0.0,0.125,3.1103512440000003,4.798430186486656,0.0,-177385.0,0.125,0.0,0.0,0.0,0.125,1.433105322,4.815489893032019,0.0,-0.05000000074505806,-0.6899999976158142,0.0,-0.011962890625,0.0025634765625,1.01947021484375,35.16999816894531,0.0,0.0,-1.9242706298828125,3.2000885009765625,Waiting,0.0,0.0,-148305.0,0.0,0.0,0.0,0.0,0.0,
0.3690219999999972,0.0,0.0,-118371.0,0.0,0.0,0.0,0.0,0.25,0.6872557890000001,4.790531348495851,0.0,-182940.0,0.125,0.0,0.0,0.0,0.125,0.29785153200000003,4.821082762734675,0.0,88941.0,0.125,0.0,0.0,0.0,0.0,3.1140133530000003,4.798430186486656,-0.003662109000000413,-177385.0,0.125,0.0,0.0,0.0,0.25,1.431884619,4.815489893032019,0.0,-0.05000000074505806,-0.6899999976158142,0.0,-0.01141357421875,-8.544921875E-4,1.015869140625,35.16999816894531,0.0,0.0,-1.9242706298828125,3.2000885009765625,Waiting,0.0,0.125,-148305.0,0.0,0.0,0.0,0.0,0.0,
0.45218799999996556,0.0,0.0,-118371.0,0.0,0.0,0.0,0.0,0.25,0.6860350860000001,4.790531348495851,0.0,-182940.0,0.125,0.0,0.0,0.0,0.125,0.29785153200000003,4.821082762734675,0.0,88941.0,0.0,0.0,0.0,0.0,0.0,3.1140133530000003,4.798430186486656,0.0,-177385.0,0.125,0.0,0.0,0.0,0.25,1.431884619,4.815489893032019,0.0,-0.05000000074505806,-0.6899999976158142,-0.009999999776482582,-0.00885009765625,-3.0517578125E-4,1.019287109375,35.130001068115234,0.0,3.0,-1.9242706298828125,3.2000885009765625,Waiting,0.0,0.0,-148305.0,0.0,0.0,0.0,0.0,0.0,
0.5380009999999311,0.0,0.0,-118371.0,0.0,0.0,0.0,0.0,0.25,0.6860350860000001,4.790531348495851,0.0,-182940.0,0.125,0.0,0.0,0.0,0.125,0.29785153200000003,4.821082762734675,0.0,88941.0,0.0,0.0,0.0,0.0,0.125,3.1140133530000003,4.798430186486656,0.0,-177385.0,0.125,0.0,0.0,0.0,0.125,1.431884619,4.815489893032019,0.0,-0.03999999910593033,-0.6899999976158142,-0.009999999776482582,-0.01141357421875,5.4931640625E-4,1.0177001953125,35.130001068115234,0.0,0.0,-1.9242706298828125,3.2000885009765625,Waiting,0.0,0.125,-148305.0,0.0,0.0,0.0,0.0,0.0,
0.6291529999999329,0.0,0.0,-118371.0,0.0,0.0,0.0,0.0,0.25,0.6860350860000001,4.790531348495851,0.0,-182940.0,0.125,0.0,0.0,0.0,0.125,0.29785153200000003,4.821082762734675,0.0,88941.0,0.0,0.0,0.0,0.0,0.125,3.1140133530000003,4.798430186486656,0.0,-177385.0,0.125,0.0,0.0,0.0,0.125,1.431884619,4.815489893032019,0.0,-0.029999999329447746,-0.6899999976158142,-0.009999999776482582,-0.0118408203125,1.8310546875E-4,1.02252197265625,35.130001068115234,0.0,0.0,-1.9242706298828125,3.2000885009765625,Waiting,0.0,0.0,-148305.0,0.0,0.0,0.0,0.0,0.0,
0.714671999999904,0.0,0.0,-118371.0,0.0,0.0,0.0,0.0,0.25,0.6860350860000001,4.790531348495851,0.0,-182940.0,0.125,0.0,0.0,0.0,0.125,0.300292938,4.821082762734675,0.0,88941.0,0.0,0.0,0.0,0.0,0.125,3.1140133530000003,4.798430186486656,0.0012207030000004337,-177385.0,0.125,0.0,0.0,0.0,0.125,1.431884619,4.815489893032019,0.0,-0.029999999329447746,-0.6800000071525574,-0.009999999776482582,-0.01239013671875,-0.0020751953125,1.01995849609375,35.130001068115234,0.0,0.0,-1.9242706298828125,3.2000885009765625,Waiting,0.0,0.0,-148305.0,0.0,0.0,0.0,0.0,0.0,
0.7962819999998901,0.0,0.0,-118371.0,0.0,0.0,0.0,0.0,0.25,0.6860350860000001,4.790531348495851,0.0,-182940.0,0.125,0.0,0.0,0.0,0.125,0.299072235,4.821082762734675,0.0,88941.0,0.125,0.0,0.0,0.0,0.0,3.1091305410000003,4.798430186486656,0.0,-177385.0,0.125,0.0,0.0,0.0,0.125,1.431884619,4.815489893032019,0.0,-0.029999999329447746,-0.6800000071525574,-0.009999999776482582,-0.0120849609375,6.103515625E-4,1.0185546875,35.130001068115234,0.0,0.0,-1.9242706298828125,3.2000885009765625,Waiting,0.0,0.125,-148305.0,0.0,0.0,0.0,0.0,0.0,
0.8862259999999078,0.0,0.0,-118371.0,0.0,0.0,0.0,0.0,0.25,0.6860350860000001,4.790531348495851,0.0,-182940.0,0.125,0.0,0.0,0.0,0.125,0.29785153200000003,4.821082762734675,0.0,88941.0,0.125,0.0,0.0,0.0,0.0,3.1140133530000003,4.798430186486656,0.0,-177385.0,0.125,0.0,0.0,0.0,0.125,1.431884619,4.815489893032019,0.0,-0.029999999329447746,-0.6800000071525574,-0.009999999776482582,-0.00775146484375,-4.2724609375E-4,1.01751708984375,35.130001068115234,0.0,4.0,-1.9242706298828125,3.2000885009765625,Waiting,0.0,0.125,-148305.0,0.0,0.0,0.0,0.0,0.0,
0.9716139999999431,0.0,0.0,-118371.0,0.0,0.0,0.0,0.0,0.25,0.6872557890000001,4.790531348495851,0.0,-182940.0,0.125,0.0,0.0,0.0,0.125,0.29785153200000003,4.821082762734675,0.0,88941.0,0.0,0.0,0.0,0.0,0.125,3.1140133530000003,4.798430186486656,0.0012207030000004337,-177385.0,0.125,0.0,0.0,0.0,0.125,1.431884619,4.815489893032019,0.0,-0.029999999329447746,-0.6800000071525574,-0.009999999776482582,-0.0147705078125,-1.220703125E-4,1.0167236328125,35.15999984741211,0.0,-2.0,-1.9242706298828125,3.2000885009765625,Waiting,0.0,0.0,-148305.0,0.0,0.0,0.0,0.0,0.0,
1.055057999999961,0.0,0.0,-118371.0,0.0,0.0,0.0,0.0,0.25,0.6872557890000001,4.790531348495851,0.0,-182940.0,0.125,0.0,0.0,0.0,0.125,0.299072235,4.821082762734675,0.0,88941.0,0.0,0.0,0.0,0.0,0.0,3.1103512440000003,4.798430186486656,0.0,-177385.0,0.125,0.0,0.0,0.0,0.125,1.433105322,4.815489893032019,0.0,-0.019999999552965164,-0.6899999976158142,-0.019999999552965164,-0.0089111328125,0.00152587890625,1.022705078125,35.15999984741211,0.0,3.0,-1.9242706298828125,3.2000885009765625,Waiting,0.0,0.0,-148305.0,0.0,0.0,0.0,0.0,0.0,
1.146546999999904,0.0,0.0,-118371.0,0.0,0.0,0.0,0.0,0.25,0.6860350860000001,4.790531348495851,0.0,-182940.0,0.125,0.0,0.0,0.0,0.125,0.29785153200000003,4.821082762734675,0.0,88941.0,0.0,0.0,0.0,0.0,0.125,3.1152340560000003,4.798430186486656,0.0,-177385.0,0.125,0.0,0.0,0.0,0.125,1.431884619,4.815489893032019,0.0,-0.019999999552965164,-0.6899999976158142,-0.009999999776482582,-0.0118408203125,-7.9345703125E-4,1.0167236328125,35.15999984741211,0.0,0.0,-1.9242706298828125,3.2000885009765625,Waiting,0.0,0.125,-148305.0,0.0,0.0,0.0,0.0,0.0,
1.2337929999999468,0.0,0.0,-118371.0,0.0,0.0,0.0,0.0,0.25,0.6860350860000001,4.790531348495851,0.0,-182940.0,0.125,0.0,0.0,0.0,0.125,0.29785153200000003,4.821082762734675,0.0,88941.0,0.0,0.0,0.0,0.0,0.0,3.1152340560000003,4.798430186486656,0.0,-177385.0,0.125,0.0,0.0,0.0,0.25,1.431884619,4.815489893032019,0.0,-0.019999999552965164,-0.6899999976158142,-0.009999999776482582,-0.0133056640625,6.103515625E-5,1.01910400390625,35.15999984741211,0.0,0.0,-1.9242706298828125,3.2000885009765625,Waiting,0.0,0.125,-148305.0,0.0,0.0,0.0,0.0,0.0,
1.3291389999999665,0.0,0.0,-118371.0,0.0,0.0,0.0,0.0,0.25,0.6860350860000001,4.790531348495851,0.0,-182940.0,0.125,0.0,0.0,0.0,0.125,0.299072235,4.821082762734675,0.0,88941.0,0.125,0.0,0.0,0.0,0.125,3.1152340560000003,4.798430186486656,0.0,-177385.0,0.125,0.0,0.0,0.0,0.125,1.431884619,4.815489893032019,0.0,-0.019999999552965164,-0.6899999976158142,-0.019999999552965164,-0.0108642578125,1.8310546875E-4,1.01812744140625,35.15999984741211,0.0,1.0,-1.9242706298828125,3.2000885009765625,Waiting,0.0,0.0,-148305.0,0.0,0.0,0.0,0.0,0.0,
1.4240449999999254,0.0,0.0,-118371.0,0.0,0.0,0.0,0.0,0.25,0.6872557890000001,4.790531348495851,0.0,-182940.0,0.125,0.0,0.0,0.0,0.125,0.29785153200000003,4.821082762734675,0.0,88941.0,0.125,0.0,0.0,0.0,0.0,3.1140133530000003,4.798430186486656,-0.0024414060000008675,-177385.0,0.125,0.0,0.0,0.0,0.125,1.431884619,4.815489893032019,0.0,-0.019999999552965164,-0.6800000071525574,-0.019999999552965164,-0.01239013671875,-4.2724609375E-4,1.022216796875,35.15999984741211,0.0,0.0,-1.9242706298828125,3.2000885009765625,Waiting,0.0,0.125,-148305.0,0.0,0.0,0.0,0.0,0.0,
1.5124349999999394,0.0,0.0,-118371.0,0.0,0.0,0.0,0.0,0.25,0.6860350860000001,4.790531348495851,0.0,-182940.0,0.125,0.0,0.0,0.0,0.125,0.299072235,4.821082762734675,0.0,88941.0,0.0,0.0,0.0,0.0,0.125,3.1152340560000003,4.798430186486656,0.0,-177385.0,0.125,0.0,0.0,0.0,0.125,1.433105322,4.815489893032019,0.0,-0.029999999329447746,-0.6800000071525574,-0.019999999552965164,-0.01446533203125,-4.8828125E-4,1.01800537109375,35.15999984741211,0.0,-2.0,-1.9242706298828125,3.2000885009765625,Waiting,0.0,0.125,-148305.0,0.0,0.0,0.0,0.0,0.0,
1.5921759999999776,0.0,0.0,-118371.0,0.0,0.0,0.0,0.0,0.25,0.6860350860000001,4.790531348495851,0.0,-182940.0,0.125,0.0,0.0,0.0,0.125,0.299072235,4.821082762734675,0.0,88941.0,0.0,0.0,0.0,0.0,0.125,3.1103512440000003,4.798430186486656,0.0,-177385.0,0.125,0.0,0.0,0.0,0.25,1.433105322,4.815489893032019,0.0,-0.019999999552965164,-0.6899999976158142,-0.019999999552965164,-0.01116943359375,-8.544921875E-4,1.02032470703125,35.15999984741211,0.0,1.0,-1.9242706298828125,3.2000885009765625,Waiting,0.0,0.0,-148305.0,0.0,0.0,0.0,0.0,0.0,
1.677655999999959,0.0,0.0,-118371.0,0.0,0.0,0.0,0.0,0.25,0.6860350860000001,4.790531348495851,0.0,-182940.0,0.125,0.0,0.0,0.0,0.125,0.29785153200000003,4.821082762734675,0.0,88941.0,0.0,0.0,0.0,0.0,0.125,3.1091305410000003,4.798430186486656,0.0,-177385.0,0.125,0.0,0.0,0.0,0.125,1.431884619,4.815489893032019,0.0,-0.019999999552965164,-0.6899999976158142,-0.019999999552965164,-0.010498046875,0.00335693359375,1.0177001953125,35.15999984741211,0.0,1.0,-1.9242706298828125,3.2000885009765625,Waiting,0.0,0.125,-148305.0,0.0,0.0,0.0,0.0,0.0,
1.763658999999985,0.0,0.0,-118371.0,0.0,0.0,0.0,0.0,0.25,0.6860350860000001,4.790531348495851,0.0,-182940.0,0.125,0.0,0.0,0.0,0.125,0.299072235,4.821082762734675,0.0,88941.0,0.0,0.0,0.0,0.0,0.0,3.1140133530000003,4.798430186486656,0.0,-177385.0,0.125,0.0,0.0,0.0,0.125,1.431884619,4.815489893032019,0.0,-0.019999999552965164,-0.6899999976158142,-0.019999999552965164,-0.0137939453125,-0.00213623046875,1.01434326171875,35.15999984741211,0.0,-1.0,-1.9242706298828125,3.2000885009765625,Waiting,0.0,0.0,-148305.0,0.0,0.0,0.0,0.0,0.125,
1.8484119999998947,0.0,0.0,-118371.0,0.0,0.0,0.0,0.0,0.25,0.6860350860000001,4.790531348495851,0.0,-182940.0,0.125,0.0,0.0,0.0,0.125,0.29785153200000003,4.821082762734675,0.0,88941.0,0.0,0.0,0.0,0.0,0.0,3.1140133530000003,4.798430186486656,0.0,-177385.0,0.125,0.0,0.0,0.0,0.125,1.431884619,4.815489893032019,0.0,-0.019999999552965164,-0.6899999976158142,-0.019999999552965164,-0.0091552734375,7.9345703125E-4,1.0205078125,35.15999984741211,0.0,3.0,-1.9242706298828125,3.2000885009765625,Waiting,0.0,0.0,-148305.0,0.0,0.0,0.0,0.0,0.0,
1.9322699999999022,0.0,0.0,-118371.0,0.0,0.0,0.0,0.0,0.25,0.6860350860000001,4.790531348495851,0.0,-182940.0,0.125,0.0,0.0,0.0,0.125,0.299072235,4.821082762734675,0.0,88941.0,0.0,0.0,0.0,0.0,0.0,3.1152340560000003,4.798430186486656,0.0,-177385.0,0.125,0.0,0.0,0.0,0.125,1.431884619,4.815489893032019,0.0,-0.019999999552965164,-0.6899999976158142,-0.019999999552965164,-0.012451171875,7.32421875E-4,1.01708984375,35.15999984741211,0.0,0.0,-1.9242706298828125,3.2000885009765625,Waiting,0.0,0.0,-148305.0,0.0,0.0,0.0,0.0,0.0,
2.0176489999999756,0.0,0.0,-118371.0,0.0,0.0,0.0,0.0,0.25,0.6860350860000001,4.790531348495851,0.0,-182940.0,0.125,0.0,0.0,0.0,0.125,0.299072235,4.821082762734675,0.0,88941.0,0.125,0.0,0.0,0.0,0.125,3.1140133530000003,4.798430186486656,0.0012207030000004337,-177385.0,0.125,0.0,0.0,0.0,0.125,1.431884619,4.815489893032019,0.0,-0.019999999552965164,-0.6800000071525574,-0.019999999552965164,-0.0120849609375,1.8310546875E-4,1.0169677734375,35.15999984741211,0.0,0.0,-1.9242706298828125,3.2000885009765625,Waiting,0.0,0.0,-148305.0,0.0,0.0,0.0,0.0,0.0,
2.1019409999999916,0.0,0.0,-118371.0,0.0,0.0,0.0,0.0,0.25,0.6860350860000001,4.790531348495851,0.0,-182940.0,0.125,0.0,0.0,0.0,0.125,0.299072235,4.821082762734675,0.0,88941.0,0.0,0.0,0.0,0.0,0.0,3.1103512440000003,4.798430186486656,0.0,-177385.0,0.125,0.0,0.0,0.0,0.125,1.431884619,4.815489893032019,0.0,-0.009999999776482582,-0.6899999976158142,-0.019999999552965164,-0.014892578125,7.9345703125E-4,1.01593017578125,35.15999984741211,0.0,-2.0,-1.9242706298828125,3.2000885009765625,Waiting,0.0,0.0,-148305.0,0.0,0.0,0.0,0.0,0.0,
2.189709999999963,0.0,0.0,-118371.0,0.0,0.0,0.0,0.0,0.25,0.6860350860000001,4.790531348495851,0.0,-182940.0,0.125,0.0,0.0,0.0,0.125,0.29785153200000003,4.821082762734675,0.0,88941.0,0.125,0.0,0.0,0.0,0.125,3.1140133530000003,4.798430186486656,0.0,-177385.0,0.125,0.0,0.0,0.0,0.25,1.433105322,4.815489893032019,0.0,-0.019999999552965164,-0.6899999976158142,-0.019999999552965164,-0.01171875,-0.0025634765625,1.017578125,35.15999984741211,0.0,0.0,-1.9242706298828125,3.2000885009765625,Waiting,0.0,0.0,-148305.0,0.0,0.0,0.0,0.0,0.0,
2.2754259999999777,0.0,0.0,-118371.0,0.0,0.0,0.0,0.0,0.25,0.6860350860000001,4.790531348495851,0.0,-182940.0,0.125,0.0,0.0,0.0,0.125,0.29785153200000003,4.821082762734675,0.0,88941.0,0.0,0.0,0.0,0.0,0.0,3.1140133530000003,4.798430186486656,-0.003662109000000413,-177385.0,0.125,0.0,0.0,0.0,0.125,1.433105322,4.815489893032019,0.0,-0.019999999552965164,-0.6899999976158142,-0.029999999329447746,-0.00994873046875,-6.103515625E-4,1.0179443359375,35.15999984741211,0.0,2.0,-1.9242706298828125,3.2000885009765625,Waiting,0.0,0.0,-148305.0,0.0,0.0,0.0,0.0,0.0,
2.359805999999982,0.0,0.0,-118371.0,0.0,0.0,0.0,0.0,0.25,0.6860350860000001,4.790531348495851,0.0,-182940.0,0.125,0.0,0.0,0.0,0.125,0.299072235,4.821082762734675,0.0,88941.0,0.0,0.0,0.0,0.0,0.125,3.1091305410000003,4.798430186486656,0.0,-177385.0,0.125,0.0,0.0,0.0,0.125,1.431884619,4.815489893032019,0.0,-0.019999999552965164,-0.6899999976158142,-0.029999999329447746,-0.01202392578125,-5.4931640625E-4,1.01690673828125,35.15999984741211,0.0,0.0,-1.9242706298828125,3.2000885009765625,Waiting,0.0,0.125,-148305.0,0.0,0.0,0.0,0.0,0.0,
2.4497799999999117,0.0,0.0,-118370.0,0.375,7.5,295.3125,0.0,0.375,0.704345631,-0.0,0.0,-182940.0,0.375,0.0,-295.3125,0.0,0.25,0.308837859,-0.0,0.0,88942.0,0.5,7.5,295.3125,0.0,0.125,3.139648116,0.0,0.0,-177385.0,0.625,0.0,-295.3125,0.0,0.375,1.4807127390000001,0.0,0.0,-0.019999999552965164,-0.6899999976158142,-0.029999999329447746,-0.01202392578125,-0.00592041015625,1.010498046875,35.15999984741211,0.0,0.0,-1.9242706298828125,3.2000885009765625,Waiting,0.0,0.0,-148305.0,0.0,0.0,0.0,0.0,0.0,
2.5377280000000026,0.0,0.0,-118370.0,2.625,120.0,738.28125,0.0,0.375,0.761718672,-0.0,0.0,-182964.0,2.5,-75.0,-738.28125,0.0,0.25,0.31738278000000003,-0.0,0.0,88958.0,2.875,97.5,738.28125,0.0,0.125,3.200683266,0.0,0.0,-177407.0,3.5,-135.0,-738.28125,0.0,0.375,1.561279137,0.0,0.0,-0.07999999821186066,-0.33000001311302185,-0.09000000357627869,0.1943359375,-0.23785400390625,1.2125244140625,35.119998931884766,0.0,201.0,-1.92266845703125,3.1995697021484375,Waiting,0.0,0.0,-148305.0,0.0,0.0,0.0,0.0,0.0,
2.6303679999999003,0.0,0.0,-118348.0,5.0,112.5,869.53125,0.0,0.375,0.78124992,-0.0,0.0,-182964.0,6.125,-225.0,-869.53125,0.0,0.25,0.346679652,-0.0,0.0,88958.0,6.625,127.5,869.53125,0.0,0.125,3.232421544,0.0,0.0,-177407.0,5.375,-195.0,-869.53125,0.0,0.375,1.616210772,0.0,0.0,-0.20999999344348907,0.20000000298023224,0.10999999940395355,0.16278076171875,0.08062744140625,0.85076904296875,35.119998931884766,0.0,159.0,-1.9146881103515625,3.196136474609375,Waiting,0.0,0.125,-148305.0,0.0,0.0,0.0,0.0,0.0,
2.7199759999999076,0.0,0.0,-118314.0,6.875,277.5,885.9375,0.0,0.125,0.786132732,-0.0,0.0,-183003.0,7.75,-337.5,-885.9375,0.0,0.5,0.351562464,-0.0,0.0,88989.0,7.75,285.0,885.9375,0.0,0.0,3.237304356,0.0,0.0,-177443.0,7.125,-307.5,-885.9375,0.0,0.25,1.674804516,0.0,0.0,-0.17000000178813934,0.8100000023841858,0.12999999523162842,0.15582275390625,0.0159912109375,1.077392578125,35.119998931884766,0.0,140.0,-1.899200439453125,3.193634033203125,Waiting,0.0,0.0,-148305.0,0.0,0.0,0.0,0.0,0.0,
2.8068199999999486,0.0,0.0,-118235.0,6.5,465.0,885.9375,0.0,0.25,0.7897948410000001,-0.0,0.0,-183082.0,7.375,-510.0,-885.9375,0.0,0.25,0.351562464,-0.0,0.0,89062.0,7.625,465.0,885.9375,0.0,0.0,3.236083653,0.0,0.0,-177516.0,7.25,-465.0,-885.9375,0.0,0.5,1.6833494370000002,0.0,0.0,-0.09000000357627869,1.2100000381469727,0.2800000011920929,0.1611328125,0.02777099609375,1.1405029296875,35.119998931884766,0.0,137.0,-1.8769073486328125,3.1929168701171875,Waiting,0.0,0.125,-148305.0,0.0,0.0,0.0,0.0,0.0,
2.893462999999989,0.0,0.0,-118235.0,6.375,585.0,885.9375,0.0,0.25,0.7885741380000001,-0.0,0.0,-183196.0,6.5,-667.5,-885.9375,0.0,0.5,0.35644527600000003,-0.0,0.0,89153.0,7.625,547.5,885.9375,0.0,0.0,3.237304356,0.0,0.0,-177622.0,6.5,-645.0,-885.9375,0.0,0.5,1.677245922,0.0,0.0,-0.07999999821186066,1.3300000429153442,0.6100000143051147,0.0296630859375,-0.0728759765625,1.29534912109375,35.119998931884766,0.0,-1.0,-1.850494384765625,3.1938018798828125,Waiting,0.0,0.0,-148305.0,0.0,0.0,0.0,0.0,0.0,
2.9763629999998957,0.0,0.0,-118128.0,7.5,735.0,1050.0,0.0,0.25,0.7897948410000001,-0.0,0.0,-183196.0,7.375,-772.5,-1050.0,0.0,0.5,0.35644527600000003,-0.0,0.0,89153.0,9.25,645.0,1050.0,0.0,0.0,3.237304356,0.0,0.0,-177622.0,7.25,-742.5,-1050.0,0.0,0.5,1.674804516,0.0,0.0,-0.14000000059604645,1.6200000047683716,0.8799999952316284,0.11639404296875,0.0869140625,1.0001220703125,35.119998931884766,0.0,89.0,-1.8257293701171875,3.1931610107421875,Waiting,0.0,0.0,-148305.0,0.0,0.0,0.0,0.0,0.0,
3.059601999999955,0.0,0.0,-117998.0,9.5,862.5,1246.875,0.0,0.25,0.786132732,-0.0,0.0,-183337.0,8.625,-907.5,-1246.875,0.0,0.5,0.357665979,-0.0,0.0,89278.0,11.5,802.5,1246.875,0.0,0.0,3.237304356,0.0,0.0,-177754.0,9.375,-885.0,-1246.875,0.0,0.5,1.668701001,0.0,0.0,-0.07000000029802322,2.130000114440918,1.190000057220459,0.23699951171875,0.140869140625,0.961669921875,35.130001068115234,0.0,204.0,-1.79071044921875,3.1922760009765625,Waiting,0.0,0.125,-148305.0,0.0,0.0,0.0,0.0,0.125,
3.1494709999999033,0.0,0.0,-117826.0,14.875,1027.5,1739.0625,0.0,0.25,0.787353435,-0.0,0.0,-183518.0,12.5,-1080.0,-1739.0625,0.0,0.25,0.35644527600000003,-0.0,0.0,89440.0,18.625,1027.5,1739.0625,0.0,0.0,3.237304356,0.0,0.0,-177921.0,15.25,-1050.0,-1739.0625,0.0,0.5,1.6589353770000002,0.0,0.0,0.03999999910593033,2.690000057220459,1.5299999713897705,0.22088623046875,0.13861083984375,1.42291259765625,35.130001068115234,0.0,157.0,-1.748992919921875,3.1939239501953125,Waiting,0.0,0.0,-148305.0,0.0,0.0,0.0,0.0,0.0,
3.235239999999991,0.0,0.0,-117826.0,20.5,1267.5,2100.0,0.0,0.25,0.782470623,-0.0,0.0,-183518.0,17.5,-1342.5,-2100.0,0.0,0.25,0.35400387,-0.0,0.0,89440.0,22.125,1252.5,2100.0,0.0,0.0,3.237304356,0.0,0.0,-177921.0,20.625,-1305.0,-2100.0,0.0,0.25,1.6589353770000002,0.0,0.0,-0.05999999865889549,3.319999933242798,1.8700000047683716,0.013427734375,-0.1339111328125,1.02301025390625,35.130001068115234,0.0,-50.0,-1.7102813720703125,3.192657470703125,Waiting,0.0,0.125,-148305.0,0.0,0.0,0.0,0.0,0.0,
3.325071999999927,0.0,0.0,-117596.0,18.875,1552.5,2100.0,0.0,0.25,0.782470623,-0.0,0.0,-183762.0,16.25,-1635.0,-2100.0,0.0,0.25,0.352783167,-0.0,0.0,89655.0,24.875,1485.0,2100.0,0.0,0.0,3.236083653,0.0,0.0,-178144.0,18.75,-1582.5,-2100.0,0.0,0.25,1.6577146740000002,0.0,0.0,-0.14000000059604645,3.740000009536743,2.3499999046325684,0.30517578125,-0.0748291015625,0.8876953125,35.130001068115234,0.0,243.0,-1.6575927734375,3.1922454833984375,Waiting,0.0,0.0,-148305.0,0.0,0.0,0.0,0.0,0.0,
3.407167999999947,0.0,0.0,-117302.0,16.625,1807.5,2100.0,0.0,0.25,0.783691326,-0.0,0.0,-184056.0,13.75,-1867.5,-2100.0,0.0,0.5,0.36132808800000005,-0.0,0.0,89919.0,23.0,1695.0,2100.0,0.0,0.0,3.232421544,0.0,0.0,-178432.0,15.875,-1830.0,-2100.0,0.0,0.25,1.6638181890000001,0.0,0.0,-0.23999999463558197,4.170000076293945,2.880000114440918,0.13262939453125,-0.0657958984375,1.28509521484375,35.130001068115234,0.0,35.0,-1.596832275390625,3.188690185546875,Waiting,0.0,0.125,-148305.0,0.0,0.0,0.0,0.0,0.0,
3.4935289999999806,0.0,0.0,-117302.0,14.5,1980.0,2100.0,0.0,0.25,0.772704999,-0.0,0.0,-184388.0,11.25,-2040.0,-2100.0,0.0,0.5,0.358886682,-0.0,0.0,90233.0,20.5,1912.5,2100.0,0.0,0.0,3.236083653,0.0,0.0,-178760.0,13.375,-2010.0,-2100.0,0.0,0.25,1.6540525650000002,0.0,0.0,-0.800000011920929,3.8299999237060547,3.4700000286102295,0.10546875,0.13507080078125,1.84796142578125,35.130001068115234,0.0,-8.0,-1.53717041015625,3.1791839599609375,Waiting,0.0,0.125,-148305.0,0.0,0.0,0.0,0.0,0.0,
3.5798989999999757,0.0,0.0,-116975.0,12.625,2107.5,2100.0,0.0,0.25,0.784912029,-0.0,0.0,-184388.0,9.125,-2137.5,-2100.0,0.0,0.5,0.3662109,-0.0,0.0,90233.0,17.375,2092.5,2100.0,0.0,0.0,3.237304356,0.0,0.0,-178760.0,11.0,-2152.5,-2100.0,0.0,0.25,1.6540525650000002,0.0,0.0,-0.8700000047683716,4.079999923706055,3.940000057220459,-0.02911376953125,-0.05487060546875,1.058837890625,35.08000183105469,0.0,-106.0,-1.4856414794921875,3.1666412353515625,Waiting,0.0,0.125,-148305.0,0.0,0.0,0.0,0.0,0.0,
3.66791399999999,0.0,0.0,-116625.0,10.75,2205.0,2100.0,0.0,0.25,0.782470623,-0.0,0.0,-184740.0,7.5,-2227.5,-2100.0,0.0,0.25,0.3662109,-0.0,0.0,90581.0,14.375,2197.5,2100.0,0.0,0.0,3.237304356,0.0,0.0,-179111.0,9.5,-2212.5,-2100.0,0.0,0.25,1.650390456,0.0,0.0,-0.9100000262260437,3.7799999713897705,4.369999885559082,0.11810302734375,0.37469482421875,1.2442626953125,35.08000183105469,0.0,65.0,-1.4259033203125,3.1495361328125,Waiting,0.0,0.125,-148305.0,0.0,0.0,0.0,0.0,0.0,
3.7519279999999564,0.0,0.0,-116263.0,9.125,2257.5,2100.0,0.0,0.25,0.782470623,-0.0,0.0,-185104.0,5.875,-2257.5,-2100.0,0.0,0.25,0.379638633,-0.0,0.0,90945.0,12.625,2257.5,2100.0,0.0,0.0,3.232421544,0.0,0.0,-179475.0,8.125,-2257.5,-2100.0,0.0,0.25,1.645507644,0.0,0.0,-0.5899999737739563,3.75,4.800000190734863,0.0718994140625,-0.34832763671875,1.50579833984375,35.08000183105469,0.0,-54.0,-1.3664703369140625,3.1349029541015625,Waiting,0.0,0.0,-148305.0,0.0,0.0,0.0,0.0,0.0,
3.8367099999999628,0.0,0.0,-116263.0,7.625,2302.5,2100.0,0.0,0.25,0.784912029,-0.0,0.0,-185104.0,4.75,-2295.0,-2100.0,0.0,0.25,0.371093712,-0.0,0.0,91325.0,10.125,2332.5,2100.0,0.0,0.0,3.237304356,0.0,0.0,-179849.0,6.5,-2317.5,-2100.0,0.0,0.25,1.649169753,0.0,0.0,-0.6100000143051147,3.759999990463257,5.199999809265137,-0.07330322265625,0.01275634765625,-0.09576416015625,35.08000183105469,0.0,-65.0,-1.30035400390625,3.1149139404296875,Waiting,0.0,0.125,-148305.0,0.0,0.0,0.0,0.0,0.0,
3.9333279999999795,0.0,0.0,-115885.0,6.5,2302.5,2100.0,0.0,0.25,0.783691326,-0.0,0.0,-185476.0,3.75,-2280.0,-2100.0,0.0,0.25,0.371093712,-0.0,0.0,91325.0,8.875,2340.0,2100.0,0.0,0.0,3.233642247,0.0,0.0,-179849.0,5.5,-2317.5,-2100.0,0.0,0.25,1.649169753,0.0,0.0,-0.6100000143051147,3.549999952316284,5.440000057220459,0.1240234375,0.0103759765625,0.4327392578125,35.08000183105469,0.0,97.0,-1.257049560546875,3.10174560546875,Waiting,0.0,0.125,-148305.0,0.0,0.0,0.0,0.0,0.0,
4.021138999999966,0.0,0.0,-115528.0,6.125,2272.5,2112.5236916201084,0.0,0.375,0.808105386,0.08569196507062889,0.0,-185834.0,3.5,-2257.5,-2112.5236916201084,0.0,0.25,0.37597652400000003,0.08623846201039605,0.0,91693.0,7.5,2325.0,2112.5236916201084,0.0,0.125,3.242187168,0.08583325773734302,0.0,-180217.0,5.0,-2310.0,-2112.5236916201084,0.0,0.25,1.649169753,0.08613841799432775,0.0,-0.46000000834465027,3.319999933242798,5.789999961853027,-0.04931640625,-0.12908935546875,-0.08319091796875,35.029998779296875,0.0,-57.0,-1.2067413330078125,3.0897674560546875,Waiting,0.0,0.0,-148305.0,0.0,0.0,0.0,0.0,0.0,
4.109125,0.0,0.0,-115168.0,5.75,2250.0,2114.3703870866766,0.0,0.375,0.849609288,0.09175926131054378,0.0,-186196.0,2.75,-2265.0,-2114.3703870866766,0.0,0.5,0.43457026800000004,0.09234445217949137,0.0,92058.0,7.0,2280.0,2114.3703870866766,0.0,0.125,3.289794585,0.09191055800114482,0.0,-180581.0,4.75,-2272.5,-2114.3703870866766,0.0,0.25,1.6577146740000002,0.09223732469087093,0.0,-0.41999998688697815,2.690000057220459,5.920000076293945,-0.204833984375,-0.1214599609375,1.1951904296875,35.029998779296875,0.0,-271.0,-1.1618804931640625,3.0762786865234375,Waiting,0.0,0.0,-148305.0,0.0,0.0,0.0,0.0,0.0,
4.194446999999927,0.0,0.0,-115168.0,5.625,2212.5,2118.4401564096784,0.0,0.375,0.8691405360000001,0.10386032115494612,0.0,-186196.0,2.375,-2242.5,-2118.4401564096784,0.0,0.25,0.46630854600000005,0.10452268602926812,0.0,92058.0,6.375,2287.5,2118.4401564096784,0.0,0.125,3.334960596,0.10403157060324239,0.0,-180581.0,4.5,-2250.0,-2118.4401564096784,0.0,0.25,1.6540525650000002,0.10440143074436575,0.0,-0.029999999329447746,2.490000009536743,5.900000095367432,0.2557373046875,-0.0308837890625,1.026123046875,35.029998779296875,0.0,206.0,-1.120086669921875,3.0649871826171875,Waiting,0.0,0.0,-148305.0,0.0,0.0,0.0,0.0,0.0,
4.2871799999999345,0.0,0.0,-114810.0,5.125,2250.0,2139.6794501546397,0.0,0.375,0.8972167050000001,0.23271765531340033,0.0,-186554.0,2.25,-2235.0,-2139.6794501546397,0.0,0.5,0.523681587,0.23420180247181524,0.0,92424.0,6.125,2265.0,2139.6794501546397,0.0,0.125,3.3776852010000002,0.23310137038030992,0.0,-180942.0,4.5,-2242.5,-2139.6794501546397,0.0,0.375,1.6833494370000002,0.23393010828405375,0.0,0.1899999976158142,2.380000114440918,5.670000076293945,0.1568603515625,-0.02056884765625,0.808837890625,35.029998779296875,0.0,120.0,-1.0855712890625,3.05792236328125,Waiting,0.0,0.0,-148305.0,0.0,0.0,0.0,0.0,0.0,
4.372023999999976,0.0,0.0,-114449.0,5.25,2257.5,2220.6088164341327,0.0,0.5,0.992431539,0.33827522363601203,0.0,-186911.0,2.5,-2235.0,-2220.6088164341327,0.0,0.5,0.651855402,0.34043255979190207,0.0,92782.0,7.125,2227.5,2220.6088164341327,0.0,0.125,3.4814449560000003,0.3388329866467151,0.0,-181299.0,4.875,-2235.0,-2220.6088164341327,0.0,0.375,1.779784974,0.340037628809971,0.0,0.8700000047683716,1.809999942779541,5.440000057220459,-0.15081787109375,-0.05108642578125,0.8468017578125,35.029998779296875,0.0,-182.0,-1.044769287109375,3.0505218505859375,Waiting,0.0,0.0,-148305.0,0.0,0.0,0.0,0.0,0.0,
4.457396999999998,0.0,0.0,-114093.0,5.75,2227.5,2231.491255339409,0.0,0.375,1.088867076,0.3460559857856671,0.0,-187283.0,1.875,-2310.0,-2231.491255339409,0.0,0.5,0.7641600780000001,0.34826294342824304,0.0,93139.0,7.5,2220.0,2231.491255339409,0.0,0.125,3.566894166,0.3466265780579268,0.0,-181657.0,5.0,-2242.5,-2231.491255339409,0.0,0.375,1.9238279280000001,0.3478589285293674,0.0,1.9700000286102295,1.5499999523162842,5.289999961853027,0.11334228515625,0.24261474609375,0.443359375,35.029998779296875,0.0,121.0,-1.00537109375,3.05181884765625,Waiting,0.0,0.125,-148305.0,0.0,0.0,0.0,0.0,0.0,
4.550661999999895,0.0,0.0,-114093.0,5.625,2235.0,2231.491255339409,0.0,0.375,1.152343632,0.3439967132264177,0.0,-187283.0,2.125,-2242.5,-2231.491255339409,0.0,0.0,0.8178710100000001,0.3461905379439773,0.0,93139.0,7.375,2197.5,2231.491255339409,0.0,0.0,3.605956662,0.344563910079852,0.0,-181657.0,5.25,-2197.5,-2231.491255339409,0.0,0.125,2.000732217,0.3457889272132968,0.0,2.9100000858306885,0.9200000166893005,5.090000152587891,-0.076904296875,-0.14776611328125,1.47662353515625,35.0,0.0,-120.0,-0.969024658203125,3.0655059814453125,Waiting,0.0,0.0,-148305.0,0.0,0.0,0.0,0.0,0.0,
4.636008999999961,0.0,0.0,-113730.0,4.375,2257.5,2139.6794501546397,0.0,0.25,1.126708869,0.22159759134895,0.0,-187637.0,2.0,-2220.0,-2139.6794501546397,0.0,0.25,0.8178710100000001,0.2230108207623747,0.0,93491.0,6.625,2242.5,2139.6794501546397,0.0,0.25,3.5803218990000003,0.22196297116715483,0.0,-182011.0,4.75,-2197.5,-2139.6794501546397,0.0,0.5,2.0056150290000003,0.22275210907369608,0.0,3.0199999809265137,0.8700000047683716,4.880000114440918,-0.0042724609375,0.12664794921875,1.05072021484375,35.0,0.0,-14.0,-0.9352569580078125,3.0800018310546875,Waiting,0.0,0.0,-148305.0,0.0,0.0,0.0,0.0,0.0,
4.730394999999902,0.0,0.0,-113369.0,3.5,2257.5,2116.342658928369,0.0,0.375,1.063232313,0.1641241420230902,0.0,-187981.0,2.5,-2122.5,-2116.342658928369,0.0,0.25,0.758056563,0.16517083690613557,0.0,93857.0,5.0,2257.5,2116.342658928369,0.0,0.125,3.498534798,0.1643947570997721,0.0,-182359.0,4.75,-2167.5,-2116.342658928369,0.0,0.5,1.885986135,0.1649792245619885,0.0,2.7300000190734863,0.9599999785423279,4.46999979019165,-0.021484375,-0.28802490234375,0.54681396484375,35.0,0.0,-55.0,-0.9048614501953125,3.0933380126953125,Waiting,0.0,0.125,-148305.0,0.0,0.0,0.0,0.0,0.0,
4.8209139999999895,0.0,0.0,-112998.0,2.0,2295.0,2107.740251958614,0.0,0.375,0.982665915,0.12728751396449345,0.0,-188321.0,2.875,-2122.5,-2107.740251958614,0.0,0.5,0.6469725900000001,0.12809928478565305,0.0,94217.0,4.25,2265.0,2107.740251958614,0.0,0.125,3.435058242,0.12749739119478723,0.0,-182700.0,4.875,-2137.5,-2107.740251958614,0.0,0.25,1.774902162,0.12795067862308154,0.0,2.049999952316284,0.9399999976158142,3.6700000762939453,-0.01788330078125,0.12347412109375,1.16021728515625,35.0,0.0,-31.0,-0.874481201171875,3.097442626953125,Waiting,0.0,0.0,-148305.0,0.0,0.0,0.0,0.0,0.0,
4.909009999999893,0.0,0.0,-112998.0,1.25,2295.0,2105.1846399221286,0.0,0.25,0.92773428,0.1036773079526914,0.0,-188321.0,3.25,-2085.0,-2105.1846399221286,0.0,0.25,0.592040955,0.1043385056679351,0.0,94217.0,3.25,2257.5,2105.1846399221286,0.0,0.125,3.3789059040000002,0.10384825564080083,0.0,-182700.0,4.875,-2122.5,-2105.1846399221286,0.0,0.25,1.719970527,0.10421746404805642,0.0,1.2999999523162842,0.6800000071525574,2.809999942779541,0.04632568359375,-0.113525390625,1.41162109375,35.0,0.0,22.0,-0.8422698974609375,3.092864990234375,Waiting,0.0,0.0,-148305.0,0.0,0.0,0.0,0.0,0.0,
5.001297999999951,0.0,0.0,-112637.0,1.25,2220.0,2105.1846399221286,0.0,0.125,0.888671784,0.09379280555991659,0.0,-188656.0,2.5,-2152.5,-2105.1846399221286,0.0,0.25,0.5664061920000001,0.09439096527265539,0.0,94578.0,2.75,2250.0,2105.1846399221286,0.0,0.125,3.339843408,0.09394745524737841,0.0,-183040.0,5.0,-2122.5,-2105.1846399221286,0.0,0.125,1.678466625,0.09428146365323527,0.0,0.7400000095367432,0.6000000238418579,2.109999895095825,0.14453125,-0.26068115234375,1.14208984375,35.0,0.0,122.0,-0.8145294189453125,3.07843017578125,Waiting,0.0,0.0,-148305.0,0.0,0.0,0.0,0.0,0.0,
5.096490999999922,0.0,0.0,-112289.0,1.875,2152.5,2105.1846399221286,0.0,0.25,0.887451081,0.08418287240529188,0.0,-188994.0,2.875,-2092.5,-2105.1846399221286,0.0,0.25,0.54931635,0.08471974516941139,0.0,94935.0,2.5,2212.5,2105.1846399221286,0.0,0.0,3.3251949720000002,0.08432167681389653,0.0,-183377.0,4.875,-2100.0,-2105.1846399221286,0.0,0.125,1.6870115460000001,0.08462146299519997,0.0,0.699999988079071,0.41999998688697815,1.4600000381469727,-0.132568359375,0.3182373046875,0.83245849609375,34.9900016784668,0.0,-130.0,-0.783447265625,3.0560455322265625,Waiting,0.0,0.125,-148305.0,0.0,0.0,0.0,0.0,0.0,
5.1936439999999715,0.0,0.0,-111954.0,0.875,2092.5,1906.3631268273791,0.0,0.25,0.877685457,0.017021533028455348,0.0,-189343.0,4.75,-2160.0,-2285.567701611264,0.0,0.25,0.526122993,0.014287649763072514,0.0,95286.0,0.875,2190.0,1939.8000594398427,0.0,0.125,3.334960596,0.14747683729318084,0.0,-183720.0,6.75,-2137.5,-2313.5305526239226,0.0,0.25,1.691894358,0.1238756406175334,0.0,0.7699999809265137,0.2800000011920929,1.1399999856948853,0.004150390625,0.1085205078125,0.87835693359375,34.9900016784668,0.0,1.0,-0.7596588134765625,3.040924072265625,Waiting,0.0,0.125,-148305.0,0.0,0.0,0.0,0.0,0.0,
5.289796999999904,0.0,0.0,-111954.0,0.875,1980.0,1843.9471218591982,0.0,0.25,0.8422850700000001,4.93212176650614,0.0,-189685.0,5.875,-2160.0,-2349.6190555248377,0.0,0.25,0.5017089330000001,4.965770112507233,0.0,95618.0,0.75,2092.5,1887.2285145381459,0.0,0.125,3.3740230920000003,0.1693619984540836,0.0,-184070.0,8.375,-2175.0,-2383.736601212153,0.0,0.25,1.7126463090000001,0.13417140769637917,0.0,0.7599999904632568,0.009999999776482582,1.2999999523162842,-0.1605224609375,-0.1614990234375,0.92401123046875,34.9900016784668,0.0,-164.0,-0.74102783203125,3.0286712646484375,Waiting,0.0,0.0,-148305.0,0.0,0.0,0.0,0.0,0.0,
5.383459999999963,0.0,0.0,-111641.0,0.5,1957.5,1662.4151273601963,0.0,0.375,0.7897948410000001,4.859724603832877,0.0,-189685.0,8.25,-2265.0,-2544.2208365252204,0.0,0.25,0.45532221900000003,4.919559812214186,0.0,95618.0,0.75,1972.5,1749.4071429367561,0.0,0.125,3.4216305090000003,0.26240735805068255,0.0,-184070.0,11.125,-2242.5,-2601.8956476175636,0.0,0.25,1.7370603690000002,0.17523484449337512,0.0,0.4000000059604645,-0.009999999776482582,2.450000047683716,0.05029296875,-0.2342529296875,0.25872802734375,34.9900016784668,0.0,40.0,-0.7169952392578125,3.0079345703125,Waiting,0.0,0.0,-148305.0,0.0,0.0,0.0,0.0,0.0,
5.474525999999955,0.0,0.0,-111332.0,0.125,1882.5,1429.72629001809,0.0,0.375,0.729980394,4.742301346766617,0.0,-190059.0,11.25,-2392.5,-2822.7459850595865,0.0,0.25,0.406494099,4.8726687116796,0.0,95924.0,0.5,1882.5,1615.736209029338,0.0,0.25,3.5339351850000003,0.4273951939464047,0.0,-184436.0,16.5,-2392.5,-2921.366312013887,0.0,0.25,1.772460756,0.22894358348835953,0.0,0.23000000417232513,-0.3400000035762787,4.739999771118164,-0.08355712890625,-0.17236328125,1.224609375,34.9900016784668,0.0,-90.0,-0.6986541748046875,2.986358642578125,Waiting,0.0,0.125,-148305.0,0.0,0.0,0.0,0.0,0.0,
5.569199999999953,0.0,0.0,-111052.0,0.125,1732.5,1389.8990199495536,0.0,0.25,0.6481932930000001,4.778767847908215,0.0,-190478.0,10.0,-2617.5,-2815.889312662883,0.0,0.25,0.399169881,4.893004836959843,0.0,96215.0,0.5,1777.5,1646.5293151964886,0.0,0.125,3.697509387,0.471839736872388,0.0,-184851.0,15.125,-2625.0,-2951.0120503504786,0.0,0.25,1.8371580150000002,0.2529835431840236,0.0,0.09000000357627869,-0.5699999928474426,9.3100004196167,-0.0213623046875,-0.114990234375,1.023193359375,34.880001068115234,0.0,-29.0,-0.683013916015625,2.9608612060546875,Waiting,0.0,0.125,-148305.0,0.0,0.0,0.0,0.0,0.0,
5.659883999999962,0.0,0.0,-110823.0,0.375,1470.0,1321.8562200251795,0.0,0.375,0.6579589170000001,4.863153030111904,0.0,-190915.0,7.25,-2730.0,-2784.8858984698436,0.0,0.125,0.39550777200000004,4.936035782283569,0.0,96485.0,1.125,1687.5,1716.8542845129805,0.0,0.125,3.7976070330000002,0.5500502966216686,0.0,-185307.0,12.125,-2887.5,-2992.63666944845,0.0,0.25,1.8908689470000002,0.29862549772251523,0.0,-0.5600000023841858,-0.8899999856948853,17.700000762939453,-0.19110107421875,-0.16522216796875,1.218505859375,34.880001068115234,0.0,-210.0,-0.667755126953125,2.925933837890625,Waiting,0.0,0.125,-148305.0,0.0,0.0,0.0,0.0,0.0,
5.755250999999931,0.0,0.0,-110823.0,0.375,1305.0,1232.9806915715526,0.0,0.5,0.755615157,0.10300098204133099,0.0,-190915.0,5.375,-2767.5,-2693.783956421935,0.0,0.25,0.405273396,0.04733831495106591,0.0,96485.0,2.25,1695.0,1856.5306617103192,0.0,0.125,3.874511322,0.6713093896348316,0.0,-185797.0,9.875,-3022.5,-3030.3360731045173,0.0,0.25,1.9421384730000002,0.3789188072163349,0.0,-1.190000057220459,-0.6499999761581421,26.40999984741211,0.13671875,-0.2933349609375,1.05224609375,34.880001068115234,0.0,12.0,-0.6566009521484375,2.887847900390625,Waiting,0.0,0.125,-148305.0,0.0,0.0,0.0,0.0,0.0,
5.851357999999891,0.0,0.0,-110625.0,0.375,1192.5,1139.5621297080495,0.0,0.5,0.9704588850000001,0.30199960790994185,0.0,-191352.0,5.625,-2662.5,-2608.869375396696,0.0,0.25,0.40893550500000003,0.13010297333663254,0.0,96763.0,4.125,1770.0,2006.497785998778,0.0,0.125,3.968505453,0.8006553408224156,0.0,-185797.0,9.125,-3075.0,-3087.6578397931335,0.0,0.25,2.0141599500000003,0.46278292705107954,0.0,-1.4600000381469727,-0.009999999776482582,35.4900016784668,0.09417724609375,-0.15533447265625,0.3480224609375,34.880001068115234,0.0,-8.0,-0.647064208984375,2.8445587158203125,Waiting,0.0,0.0,-148305.0,0.0,0.0,0.0,0.0,0.0,
5.946936999999918,0.0,0.0,-110443.0,0.375,1102.5,997.8423755944584,0.0,1.25,1.282958853,0.7411094022571504,0.0,-191770.0,5.0,-2565.0,-2491.0906622510015,0.0,0.75,0.495605418,0.26118793796891093,0.0,97042.0,9.625,1740.0,2372.8558180029477,0.0,0.375,4.144286685,1.0407335618671667,0.0,-186291.0,11.75,-3097.5,-3292.459265359646,0.0,0.375,2.130126735,0.6112268816915323,0.0,-1.1699999570846558,0.25,46.06999969482422,0.3233642578125,0.297119140625,0.37677001953125,34.880001068115234,0.0,442.0,-0.6357879638671875,2.791717529296875,Waiting,0.0,0.0,-148305.0,0.0,0.0,0.0,0.0,0.0,
6.03735699999996,0.0,0.0,-110298.0,1.875,900.0,1100.1043254696729,0.0,1.125,1.6345213170000001,1.115156536995687,0.0,-192164.0,3.75,-2467.5,-2288.347263571256,0.0,0.75,0.656738214,0.39192196762402215,0.0,97332.0,15.875,1807.5,2648.5691301745137,0.0,0.25,4.364013225,1.18766784357637,0.0,-186792.0,12.5,-3142.5,-3322.8334458847544,0.0,0.25,2.290038828,0.7272702611245278,0.0,-0.05000000074505806,-0.019999999552965164,56.08000183105469,-0.2384033203125,-0.48223876953125,1.579345703125,34.880001068115234,0.0,-531.0,-0.622222900390625,2.753265380859375,Waiting,0.0,0.0,-148305.0,0.0,0.0,0.0,0.0,0.0,
6.13280999999994,0.0,0.0,-110298.0,4.5,847.5,1251.6223352132276,0.0,0.625,2.056884555,1.3527119503645775,0.0,-192532.0,2.25,-2317.5,-2091.0752046070093,0.0,0.5,0.852050694,0.5014384518061074,0.0,97659.0,20.25,2017.5,2821.2128119284926,0.0,0.25,4.517821803,1.2895038681912463,0.0,-187306.0,10.75,-3210.0,-3281.048425657126,0.0,0.375,2.414550534,0.8154583095490143,0.0,0.3400000035762787,-0.20999999344348907,67.23999786376953,0.12158203125,0.0933837890625,0.9781494140625,34.79999923706055,0.0,129.0,-0.60595703125,2.7208099365234375,Waiting,0.0,0.0,-148305.0,0.0,0.0,0.0,0.0,0.0,
6.2235019999999786,0.0,0.0,-110168.0,8.625,907.5,1481.1285184218973,0.0,0.375,2.3266599180000003,1.5678467336608621,0.0,-192532.0,1.625,-2115.0,-1849.9601172425469,0.0,0.25,1.038818253,0.6480679354647716,0.0,97659.0,23.875,2235.0,2990.5517218475807,0.0,0.125,4.599608904,1.3987024553144503,0.0,-187306.0,8.75,-3232.5,-3189.3589243531283,0.0,0.25,2.509765368,0.919831388023219,0.0,1.1100000143051147,-0.2800000011920929,80.8499984741211,-0.19140625,0.58160400390625,0.92449951171875,34.79999923706055,0.0,526.0,-0.5779876708984375,2.690277099609375,Waiting,0.0,0.0,-148305.0,0.0,0.0,0.0,0.0,0.0,
6.317421999999904,0.0,0.0,-109989.0,13.625,1267.5,1985.4101364827484,0.0,0.5,2.519530992,1.848536122198361,0.0,-192853.0,1.0,-1822.5,-1490.44422797608,0.0,0.5,1.254882684,0.9862248299928975,0.0,98045.0,22.625,2625.0,3299.3345628027027,0.0,0.375,4.7058100650000005,1.581622949102877,0.0,-187822.0,6.375,-3195.0,-3027.404687841265,0.0,0.375,2.6306149650000004,1.1172107917264746,0.0,1.5499999523162842,-0.5299999713897705,90.23999786376953,0.1087646484375,0.24066162109375,1.23638916015625,34.79999923706055,0.0,206.0,-0.553802490234375,2.6701812744140625,Waiting,0.0,0.125,-148305.0,0.0,0.0,0.0,0.0,0.0,
6.41102099999995,0.0,0.0,-109728.0,13.625,1612.5,2222.855627282512,0.0,0.5,2.707519254,1.976382820939212,0.0,-193114.0,1.125,-1590.0,-1309.8165134769629,0.0,0.5,1.514892423,1.1989139143572867,0.0,98512.0,19.75,2962.5,3399.195091298327,0.0,0.25,4.842528801,1.6765888911696567,0.0,-188331.0,4.5,-3165.0,-2886.01098888103,0.0,0.375,2.769775107,1.2218225931641677,0.0,1.8300000429153442,-1.2200000286102295,101.52999877929688,-0.08203125,0.04351806640625,1.2044677734375,34.79999923706055,0.0,15.0,-0.5224456787109375,2.6478424072265625,Waiting,0.0,0.0,-148305.0,0.0,0.0,0.0,0.0,0.0,
6.498936999999918,0.0,0.0,-109396.0,13.0,2025.0,2451.1172736465624,0.0,0.375,2.8405758810000004,2.105615824852264,0.0,-193349.0,0.75,-1500.0,-1144.1277109701593,0.0,0.5,1.779784974,1.4679133307842533,0.0,99037.0,16.875,3240.0,3458.4849788128,0.0,0.125,4.958495586000001,1.7782173697464463,0.0,-188809.0,2.875,-2977.5,-2694.8414941356073,0.0,0.375,2.8552243170000002,1.3361429446754713,0.0,2.140000104904175,-1.8799999952316284,112.75,0.1436767578125,0.0123291015625,1.2208251953125,34.79999923706055,0.0,-101.0,-0.487762451171875,2.6272735595703125,Waiting,0.0,0.125,-148305.0,0.0,0.0,0.0,0.0,0.0,
6.592469999999972,0.0,0.0,-109396.0,11.375,2362.5,2675.623361465437,0.0,0.5,2.938232121,2.228679627193841,0.0,-193349.0,0.875,-1320.0,-1057.882410060163,0.0,0.5,2.054443149,1.7945491883297062,0.0,99037.0,15.75,3465.0,3493.931314775953,0.0,0.125,0.083007804,1.881996856620644,0.0,-188809.0,1.375,-2895.0,-2483.4876390807976,0.0,0.375,3.024902034,1.460773639006256,0.0,1.909999966621399,-2.299999952316284,124.2699966430664,-0.18408203125,0.053955078125,1.033447265625,34.84000015258789,0.0,96.0,-0.4503021240234375,2.606353759765625,Waiting,0.0,0.125,-148305.0,0.0,0.0,0.0,0.0,0.0,
6.6832389999999435,0.0,0.0,-108986.0,9.625,2662.5,2873.2235061629644,0.0,0.5,3.035888361,2.345444452935551,0.0,-193548.0,1.125,-1222.5,-1068.2675494630535,0.0,0.5,2.3730466320000003,2.1368453657227335,0.0,99605.0,13.75,3645.0,3490.770068144122,0.0,0.25,0.175781232,1.9849928132509693,0.0,-189265.0,1.0,-2685.0,-2251.945361130975,0.0,0.375,3.150634443,1.5923561402150548,0.0,1.6799999475479126,-2.680000066757202,135.69000244140625,-0.0511474609375,0.0546875,1.1064453125,34.84000015258789,0.0,14.0,-0.4111175537109375,2.584014892578125,Waiting,0.0,0.0,-148305.0,0.0,0.0,0.0,0.0,0.0,
6.767168999999995,0.0,0.0,-108527.0,9.125,2850.0,3046.171170816197,0.0,0.375,3.1604000670000003,2.456648886411951,0.0,-193749.0,1.125,-1260.0,-1175.8843800189902,0.0,0.5,2.72216769,2.449131458235515,0.0,100197.0,10.25,3712.5,3456.004506755463,0.0,0.125,0.30517575,2.0873543051638377,0.0,-189662.0,0.625,-2437.5,-2011.8430415852513,0.0,0.375,3.228759435,1.7349281345992127,0.0,1.2899999618530273,-2.7699999809265137,146.8800048828125,-0.096435546875,0.0177001953125,1.20892333984375,34.84000015258789,0.0,26.0,-0.37286376953125,2.5613555908203125,Waiting,0.0,0.0,-148305.0,0.0,0.0,0.0,0.0,0.0,
6.8522179999999935,0.0,0.0,-108018.0,8.25,3060.0,3215.2947905655137,0.0,0.375,3.303222318,2.567728781234566,0.0,-193960.0,2.125,-1290.0,-1353.2757246245876,0.0,0.5,3.044433282,2.720675581035964,0.0,100795.0,7.875,3742.5,3410.92313663567,0.0,0.125,0.432128862,2.1907802006294177,0.0,-190029.0,0.375,-2332.5,-1768.5110236176045,0.0,0.375,3.3801266070000002,1.8914372765487337,0.0,0.8100000023841858,-2.9800000190734863,159.11000061035156,0.04266357421875,0.28912353515625,0.877197265625,34.84000015258789,0.0,15.0,-0.3362579345703125,2.5370635986328125,Waiting,0.0,0.125,-148305.0,0.0,0.0,0.0,0.0,0.0,
6.944715999999898,0.0,0.0,-108018.0,5.875,3352.5,3343.4599477585425,0.0,0.375,3.4265133210000003,2.6801875366109296,0.0,-193960.0,4.0,-1387.5,-1593.5104961262566,0.0,0.5,3.331298487,2.948946587227007,0.0,100795.0,5.25,3712.5,3305.522066123621,0.0,0.125,0.5554198650000001,2.302094990372482,0.0,-190029.0,0.125,-2107.5,-1512.2921042672824,0.0,0.375,3.597411741,2.091400135897341,0.0,0.33000001311302185,-3.0399999618530273,171.9600067138672,0.07861328125,0.033447265625,0.62261962890625,34.84000015258789,0.0,-106.0,-0.3360443115234375,2.5091094970703125,Waiting,0.0,0.0,-148305.0,0.0,0.0,0.0,0.0,0.0,
7.033473999999929,0.0,0.0,-107470.0,3.5,3465.0,3441.507157342993,0.0,0.375,3.551025027,2.7963728099801215,0.0,-194191.0,5.625,-1500.0,-1867.469161153104,0.0,0.5,3.5729976810000004,3.1469160481246807,0.0,101390.0,1.875,3660.0,3158.8464291631594,0.0,0.125,0.675048759,2.4213314938515027,0.0,-190341.0,0.125,-1770.0,-1273.4913886052286,0.0,0.375,3.8415523410000003,2.3493609158699877,0.0,-0.11999999731779099,-3.190000057220459,-175.2899932861328,-0.0750732421875,0.0157470703125,1.212646484375,34.84000015258789,0.0,5.0,-0.336578369140625,2.4796295166015625,Waiting,0.0,0.0,-148305.0,0.0,0.0,0.0,0.0,0.0,
7.118077999999979,0.0,0.0,-106896.0,2.625,3585.0,3500.1535721072783,0.0,0.375,3.647460564,2.9104113165032364,0.0,-194486.0,5.75,-1882.5,-2142.2027701972397,0.0,0.25,3.714599229,3.315478025916347,0.0,101944.0,1.375,3412.5,2979.3823390518364,0.0,0.125,0.786132732,2.5429975771492455,0.0,-190587.0,0.375,-1492.5,-1102.1237691654126,0.0,0.625,4.152831606,2.669396744745012,0.0,-0.5600000023841858,-2.549999952316284,-162.66000366210938,0.10516357421875,-0.1767578125,0.47003173828125,34.900001525878906,0.0,-69.0,-0.3400726318359375,2.44903564453125,Waiting,0.0,0.0,-148305.0,0.0,0.0,0.0,0.0,0.0,
7.210243999999948,0.0,0.0,-106896.0,1.5,3615.0,3519.3857623744902,0.0,0.375,3.7402339920000003,3.0227958088678366,0.0,-194833.0,6.0,-2122.5,-2405.134789061277,0.0,0.25,3.852538668,3.46458919347084,0.0,102455.0,0.875,3232.5,2771.4758662744816,0.0,0.125,0.9082030320000001,2.668231080178686,0.0,-190780.0,0.375,-1245.0,-1039.0744374155536,0.0,0.625,4.511718288,3.0403170024869413,0.0,-0.7900000214576721,-2.509999990463257,-150.3000030517578,-0.07183837890625,0.29766845703125,1.4820556640625,34.900001525878906,0.0,-151.0,-0.3480224609375,2.4192047119140625,Waiting,0.0,0.125,-148305.0,0.0,0.0,0.0,0.0,0.0,
7.2950709999999965,0.0,0.0,-106316.0,1.125,3600.0,3500.4701429105858,0.0,0.375,3.856200777,3.132777569943935,0.0,-194833.0,7.75,-2280.0,-2645.674972928065,0.0,0.25,3.93066366,3.598977569934901,0.0,102455.0,0.75,3007.5,2542.8636944430978,0.0,0.125,1.040038956,2.797246960972969,0.0,-190780.0,0.75,-1125.0,-1101.1178908210784,0.0,0.625,4.881591297,3.4033322269257003,0.0,-0.8700000047683716,-2.049999952316284,-138.42999267578125,0.09661865234375,0.0484619140625,0.92718505859375,34.900001525878906,0.0,-138.0,-0.3605194091796875,2.386474609375,Waiting,0.0,0.125,-148305.0,0.0,0.0,0.0,0.0,0.0,
7.386487999999896,0.0,0.0,-105740.0,0.75,3592.5,3479.2522490769165,0.0,0.375,3.983153889,3.2368716764310204,0.0,-195219.0,9.0,-2490.0,-2876.885683218547,0.0,0.25,4.045409742,3.727638220409703,0.0,102906.0,0.75,2737.5,2314.1996917546194,0.0,0.125,1.168212771,2.9189577158129536,0.0,-190958.0,1.25,-1110.0,-1235.635559102375,0.0,0.625,0.273437472,3.719745857896606,0.0,-0.8299999833106995,-1.7300000190734863,-129.0,0.14678955078125,-0.079345703125,0.759033203125,34.900001525878906,0.0,-53.0,-0.375579833984375,2.3575897216796875,Waiting,0.0,0.0,-148305.0,0.0,0.0,0.0,0.0,0.0,
7.468396999999997,0.0,0.0,-105190.0,1.125,3502.5,3396.0634020356924,0.0,0.375,4.091796456,3.3380420159665034,0.0,-195653.0,10.125,-2685.0,-3057.883289448367,0.0,0.5,4.18701129,3.837561228534321,0.0,103292.0,0.875,2437.5,2069.1402165482787,0.0,0.125,1.2927244770000001,3.0548355413974795,0.0,-191149.0,3.125,-1170.0,-1448.7045305992456,0.0,0.375,0.5432128350000001,3.9545623117541653,0.0,-0.6100000143051147,-1.2300000190734863,-119.48999786376953,0.15283203125,0.17529296875,0.40301513671875,34.900001525878906,0.0,-235.0,-0.3958587646484375,2.3281707763671875,Waiting,0.0,0.125,-148305.0,0.0,0.0,0.0,0.0,0.0,
7.554320999999996,0.0,0.0,-105190.0,1.875,3315.0,3323.1334372621054,0.0,0.375,4.173583557000001,3.4069000011120827,0.0,-195653.0,10.5,-2827.5,-3165.5359694478675,0.0,0.5,4.318847214,3.9096221730233505,0.0,103292.0,1.125,2167.5,1900.361406090107,0.0,0.125,1.3964842320000002,3.1548383940180114,0.0,-191149.0,4.25,-1305.0,-1608.9672481985351,0.0,0.375,0.7519530480000001,4.087833804860726,0.0,-0.4399999976158142,-1.2799999713897705,-107.83999633789062,-0.146484375,0.0640869140625,1.1290283203125,34.900001525878906,0.0,-32.0,-0.4158172607421875,2.293243408203125,Waiting,0.0,0.0,-148305.0,0.0,0.0,0.0,0.0,0.0,
7.64627099999995,0.0,0.0,-104664.0,2.0,3247.5,3213.2584091731924,0.0,0.375,4.237060113,3.509079065730052,0.0,-196117.0,11.625,-2970.0,-3335.2618835569415,0.0,0.25,4.411620642,4.021353623351707,0.0,103620.0,1.375,1905.0,1636.6532794165412,0.0,0.25,1.5051267990000001,3.3110867524734813,0.0,-191361.0,6.75,-1410.0,-1864.8260467964512,0.0,0.375,0.930175686,4.2780343772736265,0.0,-0.10999999940395355,-1.3700000047683716,-95.91000366210938,-0.0885009765625,0.25091552734375,1.21929931640625,34.810001373291016,0.0,-245.0,-0.41827392578125,2.256744384765625,Waiting,0.0,0.125,-148305.0,0.0,0.0,0.0,0.0,0.0,
7.734290999999969,0.0,0.0,-104163.0,1.875,3127.5,3007.9210291835075,0.0,0.375,4.3457026800000005,3.6395086046437286,0.0,-196620.0,11.625,-3202.5,-3465.928059573689,0.0,0.25,4.50439407,4.1469158726234685,0.0,103896.0,1.5,1642.5,1337.8895600132605,0.0,0.375,1.677245922,3.560755682768298,0.0,-191614.0,8.875,-1635.0,-2180.600117199011,0.0,0.25,1.03759755,4.4570654245683645,0.0,-0.1899999976158142,-1.4900000095367432,-83.55999755859375,-0.0517578125,-0.06976318359375,0.9764404296875,34.810001373291016,0.0,63.0,-0.422515869140625,2.2155609130859375,Waiting,0.0,0.125,-148305.0,0.0,0.0,0.0,0.0,0.0,
7.828304000000004,0.0,0.0,-103698.0,1.875,2925.0,2831.753946945955,0.0,0.375,4.47998001,3.7392307517739827,0.0,-197147.0,12.375,-3247.5,-3532.2630802945787,0.0,0.25,4.622802261,4.238406682951742,0.0,104111.0,1.75,1372.5,1151.400590811283,0.0,0.25,1.992187296,3.7930829663093975,0.0,-191917.0,10.875,-1912.5,-2404.9481019117075,0.0,0.25,1.1645506620000001,4.57549058821067,0.0,-0.3199999928474426,-1.659999966621399,-71.43000030517578,-0.177490234375,0.0657958984375,0.846435546875,34.810001373291016,0.0,-115.0,-0.42645263671875,2.1738128662109375,Waiting,0.0,0.125,-148305.0,0.0,0.0,0.0,0.0,0.0,
7.914017999999924,0.0,0.0,-103698.0,0.875,2797.5,2569.346085700254,0.0,0.375,4.606933122,3.877770144897472,0.0,-197147.0,12.625,-3367.5,-3596.7192134450524,0.0,0.25,4.709472174,4.362700798986863,0.0,104111.0,1.75,1230.0,976.3013781298729,0.0,0.5,2.312011482,4.188637790065484,0.0,-191917.0,13.375,-2145.0,-2699.6322292489895,0.0,0.25,1.2915037740000002,4.72901713862742,0.0,-0.4399999976158142,-1.559999942779541,-59.88999938964844,0.03155517578125,-0.2490234375,1.12921142578125,34.810001373291016,0.0,239.0,-0.428985595703125,2.1328125,Waiting,0.0,0.0,-148305.0,0.0,0.0,0.0,0.0,0.0,
7.999841999999946,0.0,0.0,-103262.0,0.875,2632.5,2372.8938579688884,0.0,0.375,4.727782719,3.9757096758428077,0.0,-197695.0,12.375,-3465.0,-3617.3530798542442,0.0,0.25,4.801024899000001,4.446426989315053,0.0,104293.0,2.625,1050.0,944.6436103032817,0.0,0.375,2.667236055,4.502133287115494,0.0,-192277.0,13.25,-2452.5,-2889.112250091943,0.0,0.375,1.436767431,4.8279882310986855,0.0,-0.44999998807907104,-1.159999966621399,-48.61000061035156,0.0850830078125,0.4407958984375,0.942138671875,34.810001373291016,0.0,-267.0,-0.430084228515625,2.0929412841796875,Waiting,0.0,0.125,-148305.0,0.0,0.0,0.0,0.0,0.0,
8.089584999999962,0.0,0.0,-102875.0,0.875,2415.0,2119.559608125381,0.0,0.375,4.831542474,4.105450010035912,0.0,-198251.0,13.125,-3450.0,-3592.018672295195,0.0,0.5,4.879149891,4.544714277199624,0.0,104447.0,4.0,945.0,1036.8204823885699,0.0,0.375,3.023681331,4.85407523328516,0.0,-192704.0,12.125,-2737.5,-3079.7827719534343,0.0,0.375,1.5502928100000002,4.935528497401191,0.0,-0.20999999344348907,-1.1100000143051147,-37.130001068115234,-0.110595703125,0.0811767578125,0.96075439453125,34.810001373291016,0.0,-124.0,-0.43359375,2.0594329833984375,Waiting,0.0,0.0,-148305.0,0.0,0.0,0.0,0.0,0.0,
8.175429999999935,0.0,0.0,-102539.0,0.75,2197.5,1852.9796416124204,0.0,0.375,0.026855466,4.252460000013635,0.0,-198798.0,13.125,-3457.5,-3533.017425816015,0.0,0.5,4.958495586000001,4.645237972131253,0.0,104597.0,6.5,930.0,1222.8584234072948,0.0,0.625,3.2128902960000003,0.19659943979936836,0.0,-193176.0,12.625,-2925.0,-3247.1620382401156,0.0,0.25,1.639404129,0.07363893954013412,0.0,-0.3100000023841858,-1.0099999904632568,-25.3799991607666,-0.083984375,-0.25250244140625,0.9676513671875,34.77000045776367,0.0,45.0,-0.4369354248046875,2.0252838134765625,Waiting,0.0,0.0,-148305.0,0.0,0.0,0.0,0.0,0.0,
8.265633999999961,0.0,0.0,-102539.0,0.5,1995.0,1573.281477203658,0.0,0.375,0.18066404400000002,4.426791111622635,0.0,-198798.0,13.0,-3390.0,-3456.413516056294,0.0,0.5,0.10986327000000001,4.751270569871021,0.0,104597.0,9.5,1012.5,1476.0127011702352,0.0,0.625,3.5278316700000003,0.4443918928608264,0.0,-193176.0,13.75,-3052.5,-3413.237946800716,0.0,0.25,1.749267399,0.18445945108832507,0.0,-0.6800000071525574,-0.9800000190734863,-13.819999694824219,-0.236083984375,0.3009033203125,1.35418701171875,34.77000045776367,0.0,-282.0,-0.4395751953125,1.9896392822265625,Waiting,0.0,0.125,-148305.0,0.0,0.0,0.0,0.0,0.0,
8.351500999999931,0.0,0.0,-102252.0,0.5,1740.0,1308.8606083449588,0.0,0.375,0.35034176100000003,4.627423256512944,0.0,-199341.0,11.0,-3397.5,-3343.2169900939075,0.0,0.5,0.21118161900000001,4.852541820632158,0.0,104771.0,13.5,1140.0,1743.1399200704852,0.0,0.25,3.815917578,0.6359823079556298,0.0,-193679.0,14.125,-3195.0,-3535.8903449794325,0.0,0.25,1.8420408270000002,0.28788986033641834,0.0,-0.36000001430511475,-0.6299999952316284,-2.2899999618530273,-0.07421875,0.14617919921875,1.2396240234375,34.77000045776367,0.0,-66.0,-0.4428253173828125,1.9510498046875,Waiting,0.0,0.0,-148305.0,0.0,0.0,0.0,0.0,0.0,
8.435814999999945,0.0,0.0,-102018.0,0.375,1477.5,1087.0992528171773,0.0,0.5,0.562744083,4.893836470168188,0.0,-199877.0,8.375,-3352.5,-3184.4179052369377,0.0,0.5,0.29296872,4.957146080400877,0.0,104981.0,17.75,1297.5,2018.692455180407,0.0,0.25,4.0234370880000005,0.7905046821363216,0.0,-194220.0,13.625,-3397.5,-3610.2426287329004,0.0,0.375,1.933593552,0.3882337040256639,0.0,-0.15000000596046448,-0.8100000023841858,7.809999942779541,0.00738525390625,-0.1346435546875,1.04168701171875,34.77000045776367,0.0,4.0,-0.4474334716796875,1.920989990234375,Waiting,0.0,0.0,-148305.0,0.0,0.0,0.0,0.0,0.0,
8.529599999999977,0.0,0.0,-102018.0,0.5,1207.5,938.6696359146712,0.0,0.875,0.8789061600000001,0.3129702597820247,0.0,-199877.0,6.875,-3247.5,-2986.2493259631256,0.0,0.5,0.39428706900000005,0.09665183583821906,0.0,105236.0,23.25,1545.0,2301.7279567708874,0.0,0.125,4.129638249,0.9339305699363133,0.0,-194790.0,11.0,-3525.0,-3651.6483864698316,0.0,0.25,2.048339634,0.493188690434588,0.0,-0.4000000059604645,-0.5299999713897705,22.420000076293945,-0.0474853515625,0.1123046875,0.86932373046875,34.77000045776367,0.0,8.0,-0.456329345703125,1.87945556640625,Waiting,0.0,0.125,-148305.0,0.0,0.0,0.0,0.0,0.0,
8.61293299999996,0.0,0.0,-101845.0,1.125,967.5,913.0795818784401,0.0,0.875,1.282958853,0.7429925134847891,0.0,-200383.0,4.875,-3037.5,-2760.0998682146137,0.0,0.5,0.506591745,0.214809173287106,0.0,105236.0,28.25,1800.0,2586.2729473559702,0.0,0.25,4.21142535,1.073389165532545,0.0,-194790.0,9.375,-3645.0,-3670.5918756925776,0.0,0.25,2.145995874,0.6013799691719475,0.0,-0.25999999046325684,-0.7799999713897705,35.060001373291016,-0.06298828125,0.12811279296875,0.8895263671875,34.810001373291016,0.0,34.0,-0.455047607421875,1.846923828125,Waiting,0.0,0.125,-148305.0,0.0,0.0,0.0,0.0,0.0,
8.700839999999967,0.0,0.0,-101696.0,2.5,930.0,1058.8023162246602,0.0,0.875,1.691894358,1.1322706077997102,0.0,-200857.0,3.25,-2865.0,-2494.233554668654,0.0,0.5,0.617675718,0.34385277259016517,0.0,105561.0,26.375,2182.5,2843.546731725827,0.0,0.375,4.299315966,1.1991708653446373,0.0,-195377.0,8.25,-3682.5,-3631.2390028612767,0.0,0.375,2.255859144,0.710115329420129,0.0,-0.2800000011920929,-0.5799999833106995,45.7599983215332,-0.06854248046875,0.34527587890625,0.26348876953125,34.810001373291016,0.0,202.0,-0.450592041015625,1.82513427734375,Waiting,0.0,0.125,-148305.0,0.0,0.0,0.0,0.0,0.0,
8.79000299999991,0.0,0.0,-101549.0,4.5,930.0,1262.4590735999473,0.0,0.625,2.105712675,1.3881342492920024,0.0,-201276.0,2.875,-2640.0,-2251.956451344617,0.0,0.5,0.74462883,0.4610873162732479,0.0,105985.0,23.0,2610.0,3039.0214184817823,0.0,0.375,4.417724157,1.300755467240591,0.0,-195970.0,7.0,-3690.0,-3565.55130775436,0.0,0.25,2.353515384,0.8027087297425272,0.0,-0.44999998807907104,-0.5799999833106995,56.900001525878906,0.13604736328125,-0.1651611328125,1.00390625,34.810001373291016,0.0,-51.0,-0.443115234375,1.807891845703125,Waiting,0.0,0.125,-148305.0,0.0,0.0,0.0,0.0,0.0,
8.873850999999908,0.0,0.0,-101549.0,9.875,1020.0,1561.3361681675124,0.0,0.375,2.387695068,1.6504441392835585,0.0,-201276.0,1.5,-2415.0,-1936.123688896761,0.0,0.5,0.8959960020000001,0.6102946985099799,0.0,105985.0,20.625,2985.0,3277.8514272866346,0.0,0.5,4.5483393780000005,1.4283527472627398,0.0,-195970.0,3.875,-3712.5,-3472.0475641966973,0.0,0.25,2.473144278,0.9166594770176271,0.0,-0.49000000953674316,-0.5600000023841858,70.87000274658203,0.2320556640625,-0.34161376953125,0.395263671875,34.810001373291016,0.0,-242.0,-0.4337158203125,1.787353515625,Waiting,0.0,0.0,-148305.0,0.0,0.0,0.0,0.0,0.0,
8.966409999999916,0.0,0.0,-101362.0,11.375,1320.0,1850.6053709184002,0.0,0.375,2.559814191,1.8197912508310128,0.0,-201640.0,1.375,-2122.5,-1646.2420275219395,0.0,0.5,1.0595702040000001,0.7723157930626283,0.0,106491.0,18.125,3247.5,3432.6042744383867,0.0,0.25,4.677733896,1.531653243227678,0.0,-196558.0,2.625,-3570.0,-3326.8821258349685,0.0,0.25,2.543945052,1.0197322857170048,0.0,-0.41999998688697815,-0.49000000953674316,85.19999694824219,0.0228271484375,0.26263427734375,0.7530517578125,34.810001373291016,0.0,269.0,-0.42279052734375,1.767791748046875,Waiting,0.0,0.125,-148305.0,0.0,0.0,0.0,0.0,0.0,
9.051138999999967,0.0,0.0,-101098.0,13.375,1665.0,2258.6106578566587,0.0,0.5,2.712402066,2.0225953760688995,0.0,-201943.0,0.25,-1807.5,-1249.4983810296637,0.0,0.75,1.284179556,1.0688998891802035,0.0,107036.0,16.0,3487.5,3596.0587750864806,0.0,0.375,4.8132319290000005,1.6765072443409512,0.0,-197117.0,1.375,-3442.5,-3064.565681183639,0.0,0.375,2.6379391830000003,1.171398061092978,0.0,-0.10000000149011612,-0.10000000149011612,99.69000244140625,0.11273193359375,-0.29150390625,1.10723876953125,34.810001373291016,0.0,-304.0,-0.4079742431640625,1.74298095703125,Waiting,0.0,0.125,-148305.0,0.0,0.0,0.0,0.0,0.125,
9.144555999999982,0.0,0.0,-100758.0,14.375,1995.0,2590.0512151111625,0.0,0.5,2.866210644,2.1767162776208933,0.0,-202189.0,0.0,-1567.5,-975.9645679808739,0.0,0.75,1.588134603,1.4369495027143073,0.0,107623.0,16.5,3630.0,3679.725272369955,0.0,0.25,4.94384715,1.8004370793990496,0.0,-197647.0,0.375,-3337.5,-2790.075199913691,0.0,0.375,2.8039547910000002,1.3090188439324955,0.0,0.1899999976158142,0.0,114.2699966430664,-0.0062255859375,-0.13714599609375,1.22119140625,34.81999969482422,0.0,-126.0,-0.3939056396484375,1.7149810791015625,Waiting,0.0,0.0,-148305.0,0.0,0.0,0.0,0.0,0.0,
9.233198999999907,0.0,0.0,-100758.0,13.875,2385.0,2889.7923512229618,0.0,0.375,3.037109064,2.3190285267342605,0.0,-202189.0,0.125,-1305.0,-863.6100718358443,0.0,1.0,2.0068357320000003,1.9340184586123144,0.0,107623.0,14.5,3667.5,3707.7031383183735,0.0,0.25,0.10986327000000001,1.923725961071454,0.0,-197647.0,0.0,-3135.0,-2478.3028638335336,0.0,0.375,2.930907903,1.4556046732750938,0.0,0.33000001311302185,-0.75,128.4199981689453,-0.0244140625,-0.10443115234375,1.48870849609375,34.81999969482422,0.0,-85.0,-0.3769073486328125,1.6907806396484375,Waiting,0.0,0.0,-148305.0,0.0,0.0,0.0,0.0,0.0,
9.315912999999941,0.0,0.0,-100330.0,11.75,2835.0,3103.7659244733663,0.0,0.375,3.1579586610000003,2.4285259217770734,0.0,-202378.0,0.875,-1095.0,-939.8239696209778,0.0,1.0,2.5317380220000003,2.344607207264448,0.0,108220.0,12.75,3840.0,3689.121280765665,0.0,0.25,0.23315427300000002,2.0234792543717286,0.0,-198128.0,0.0,-2887.5,-2204.432354178786,0.0,0.375,3.1030270260000004,1.5842521671833074,0.0,0.11999999731779099,-1.0,142.57000732421875,-0.1431884765625,0.01043701171875,1.22442626953125,34.81999969482422,0.0,101.0,-0.36181640625,1.67352294921875,Waiting,0.0,0.125,-148305.0,0.0,0.0,0.0,0.0,0.0,
