Time,ClimberA1,ClimberA2,FRpos,FRCurrent,FRspeed,FRsetpoint,FRApos,FRACurrent,FREncpos,FREncSetpoint,FREncSpeed,FLpos,FLCurrent,FLspeed,FLsetpoint,FLApos,FLACurrent,FLEncpos,FLEncSetpoint,FLEncSpeed,BRpos,BRCurrent,BRspeed,BRsetpoint,BRApos,BRACurrent,BREncpos,BREncSetpoint,BREncSpeed,BLpos,BLCurrent,BLspeed,BLsetpoint,BLApos,BLACurrent,BLEncpos,BLEncSetpoint,BLEncSpeed,navx_Pitch,navx_Roll,navx_Yaw,navx_XAcc,navx_YAcc,navx_ZAcc,navx_Temp,navx_Bar,navx_Alt,navx_XDis,navx_YDis,GearPlacerState,ShootOutputV,ShootOutputCurrent,ShootEncPos,ShootEncVelocity,ShootSpeed,ShootSetpoint,CarouselSetpoint,CarouselCurrent,
0.10200900000000183,0.0,0.0,134439.0,0.0,0.0,0.0,0.0,2.25,1.302490101,2.4,0.0,-102692.0,0.0,0.0,0.0,0.0,2.375,0.8813475660000001,2.4,0.0,179298.0,0.0,0.0,0.0,0.0,4.625,3.7475582100000002,2.4,0.0,-113924.0,0.125,0.0,0.0,0.0,2.375,2.0581052580000003,2.4,0.0,0.7300000190734863,-0.6700000166893005,63.439998626708984,-0.0250244140625,0.0595703125,0.855224609375,35.79999923706055,0.0,36.0,-6.187530517578125,-1.8756256103515625,Waiting,0.0,0.0,-19187.0,0.0,0.0,0.0,0.0,0.0,
0.1411820000000007,0.0,0.0,134437.0,0.0,0.0,0.0,0.0,1.875,1.547851404,0.0,0.0,-102692.0,0.0,0.0,-0.0,0.0,1.5,1.1364744930000001,0.0,0.0,179298.0,0.0,0.0,0.0,0.0,1.5,3.9978023250000003,0.0,0.0,-113924.0,0.125,-7.5,-0.0,0.0,1.625,2.2656247680000003,0.0,0.535009547,0.7400000095367432,-0.6299999952316284,0.03999999910593033,0.0081787109375,0.0250244140625,1.11712646484375,35.79999923706055,0.0,20.0,-6.18701171875,-1.875396728515625,Waiting,0.0,0.0,-19187.0,0.0,0.0,0.0,0.0,0.0,
0.1664330000000009,0.0,0.0,134437.0,0.0,-15.0,0.0,0.0,2.0,1.69677717,0.0,0.0,-102692.0,0.0,0.0,-0.0,0.0,1.5,1.297607289,0.0,0.0,179298.0,0.0,-7.5,0.0,0.0,1.5,4.165038636,0.0,0.7758784940000005,-113929.0,0.125,-22.5,-0.0,0.0,5.5,2.198486103,0.0,0.535009547,0.75,-0.6499999761581421,0.05999999865889549,-0.01226806640625,-0.01611328125,1.0882568359375,35.79999923706055,0.0,0.0,-6.186492919921875,-1.8754119873046875,Waiting,0.0,0.0,-19187.0,0.0,0.0,0.0,0.0,0.0,
0.19160800000000017,0.0,0.0,134437.0,0.0,-30.0,0.0,0.0,7.5,1.7614744290000002,0.0,0.7988865540000001,-102692.0,0.0,0.0,-0.0,0.0,3.875,1.433105322,0.0,0.7480862859999995,179290.0,0.125,-37.5,0.0,0.0,3.125,4.207763241,0.0,0.7758784940000005,-113929.0,0.125,-30.0,-0.0,0.0,5.625,2.08740213,0.0,0.032958981000000165,0.7900000214576721,-0.6399999856948853,0.019999999552965164,-0.03057861328125,-0.01641845703125,0.96026611328125,35.79999923706055,0.0,-19.0,-6.186492919921875,-1.8753204345703125,Waiting,0.0,0.0,-19187.0,0.0,0.0,0.0,0.0,0.0,
0.21734500000000118,0.0,0.0,134437.0,0.125,-45.0,0.0,0.0,8.5,1.649169753,0.0,0.09643553699999985,-102692.0,0.0,0.0,-0.0,0.0,8.125,1.312255725,0.0,0.21728513399999994,179290.0,0.125,-52.5,0.0,0.0,7.875,4.062499584,0.0,0.14038084499999925,-113929.0,0.125,-22.5,-0.0,0.0,1.375,2.0056150290000003,0.0,0.032958981000000165,0.8299999833106995,-0.6499999761581421,0.0,0.0169677734375,-0.15069580078125,1.1763916015625,35.79999923706055,0.0,30.0,-6.1864776611328125,-1.875396728515625,Waiting,0.0,0.0,-19187.0,0.0,0.0,0.0,0.0,0.0,
0.2464180000000015,0.0,0.0,134432.0,0.125,-45.0,0.0,0.0,8.75,1.5283201560000002,0.0,0.09643553699999985,-102692.0,0.0,0.0,-0.0,0.0,9.0,1.2634276050000002,0.0,0.21728513399999994,179290.0,0.125,-52.5,0.0,0.0,7.5,3.919677333,0.0,0.14038084499999925,-113929.0,0.125,0.0,-0.0,0.0,0.5,1.9238279280000001,0.0,-0.10253905200000002,0.8399999737739563,-0.6800000071525574,-0.05999999865889549,0.03253173828125,-0.07977294921875,0.9747314453125,35.79999923706055,0.0,44.0,-6.186431884765625,-1.875732421875,Waiting,0.0,0.0,-19187.0,0.0,0.0,0.0,0.0,0.0,
0.2916290000000008,0.0,0.0,134432.0,0.0,-15.0,0.0,0.0,1.125,1.2390135450000002,0.0,-0.3002929379999999,-102692.0,0.0,0.0,-0.0,0.0,1.5,0.938720607,0.0,-0.2563476299999996,179290.0,0.125,-15.0,0.0,0.0,1.25,3.605956662,0.0,-0.35522457299999965,-113923.0,0.125,22.5,-0.0,0.0,0.5,1.750488102,0.0,-0.18432615300000021,0.8799999952316284,-0.6100000143051147,-0.09000000357627869,0.01153564453125,-0.32366943359375,1.15545654296875,35.79999923706055,0.0,24.0,-6.1857452392578125,-1.8771514892578125,Waiting,0.0,0.0,-19187.0,0.0,0.0,0.0,0.0,0.0,
0.31442299999999884,0.0,0.0,134432.0,0.0,0.0,0.0,0.0,0.75,1.158447147,0.0,-0.3002929379999999,-102692.0,0.0,0.0,-0.0,0.0,1.125,0.822753822,0.0,-0.2563476299999996,179290.0,0.0,0.0,0.0,0.0,0.625,3.508300422,0.0,-0.22583005499999986,-113923.0,0.125,30.0,-0.0,0.0,0.5,1.697997873,0.0,-0.18432615300000021,0.800000011920929,-0.6299999952316284,-0.09000000357627869,-0.00506591796875,-0.0079345703125,1.08831787109375,35.79999923706055,0.0,7.0,-6.1851806640625,-1.8795318603515625,Waiting,0.0,0.0,-19187.0,0.0,0.0,0.0,0.0,0.0,
0.34439700000000084,0.0,0.0,134432.0,0.0,0.0,0.0,0.0,0.375,1.0327147380000001,0.0,-0.22827146100000006,-102692.0,0.0,0.0,-0.0,0.0,0.875,0.676269462,0.0,-0.23925778799999975,179290.0,0.0,0.0,0.0,0.0,0.25,3.4313961330000002,0.0,-0.22583005499999986,-113923.0,0.125,30.0,-0.0,0.0,0.5,1.649169753,0.0,-0.18920896499999995,0.7699999809265137,-0.6100000143051147,-0.07999999821186066,0.0516357421875,0.02496337890625,0.9091796875,35.79999923706055,0.0,61.0,-6.184844970703125,-1.8807830810546875,Waiting,0.0,0.0,-19187.0,0.0,0.0,0.0,0.0,0.0,
0.3676130000000012,0.0,0.0,134432.0,0.0,0.0,0.0,0.0,0.5,0.9741209940000001,0.0,-0.22827146100000006,-102692.0,0.0,0.0,-0.0,0.0,0.5,0.596923767,0.0,-0.23925778799999975,179290.0,0.0,7.5,0.0,0.0,0.375,3.382568013,0.0,-0.16723631099999992,-113923.0,0.125,30.0,-0.0,0.0,0.25,1.6345213170000001,0.0,-0.18920896499999995,0.800000011920929,-0.5799999833106995,-0.05000000074505806,0.01904296875,0.068359375,1.0509033203125,35.79999923706055,0.0,29.0,-6.1839447021484375,-1.8831329345703125,Waiting,0.0,0.0,-19187.0,0.0,0.0,0.0,0.0,0.0,
0.39190300000000206,0.0,0.0,134432.0,0.0,0.0,0.0,0.0,0.5,0.930175686,0.0,-0.17089841999999988,-102692.0,0.0,0.0,-0.0,0.0,0.5,0.526122993,0.0,-0.2502441150000001,179290.0,0.0,15.0,0.0,0.0,0.25,3.358153953,0.0,-0.16723631099999992,-113923.0,0.125,30.0,-0.0,0.0,0.5,1.6345213170000001,0.0,-0.05859374399999995,0.8299999833106995,-0.6100000143051147,-0.019999999552965164,-0.012939453125,0.05291748046875,0.9541015625,35.79999923706055,0.0,-2.0,-6.1829681396484375,-1.885284423828125,Waiting,0.0,0.0,-19187.0,0.0,0.0,0.0,0.0,0.0,
0.41184000000000015,0.0,0.0,134432.0,0.0,0.0,0.0,0.0,0.375,0.911865141,0.0,-0.17089841999999988,-102692.0,0.0,0.0,-0.0,0.0,0.25,0.495605418,0.0,-0.2502441150000001,179290.0,0.0,22.5,0.0,0.0,0.375,3.343505517,0.0,-0.16723631099999992,-113920.0,0.125,22.5,-0.0,0.0,0.25,1.640624832,0.0,-0.05859374399999995,0.8199999928474426,-0.5899999737739563,-0.019999999552965164,-0.02703857421875,0.01507568359375,0.95343017578125,35.79999923706055,0.0,-17.0,-6.1829681396484375,-1.8863067626953125,Waiting,0.0,0.0,-19187.0,0.0,0.0,0.0,0.0,0.0,
0.43501100000000226,0.0,0.0,134432.0,0.0,0.0,0.0,0.0,0.375,0.8923338930000001,0.0,-0.09033202200000012,-102692.0,0.0,0.0,-0.0,0.0,0.25,0.46142573400000003,0.0,-0.14038084500000014,179293.0,0.0,15.0,0.0,0.0,0.25,3.330077784,0.0,-0.06591796200000033,-113920.0,0.125,15.0,-0.0,0.0,0.25,1.650390456,0.0,0.004882811999999959,0.8100000023841858,-0.6000000238418579,-0.009999999776482582,-0.012451171875,-0.00677490234375,1.055419921875,35.77000045776367,0.0,-1.0,-6.1829681396484375,-1.8884124755859375,Waiting,0.0,0.0,-19187.0,0.0,0.0,0.0,0.0,0.0,
0.457,0.0,0.0,134432.0,0.0,0.0,0.0,0.0,0.375,0.8825682690000001,0.0,-0.09033202200000012,-102692.0,0.0,0.0,-0.0,0.0,0.25,0.457763625,0.0,-0.14038084500000014,179293.0,0.0,15.0,0.0,0.0,0.25,3.328857081,0.0,-0.06591796200000033,-113920.0,0.125,7.5,-0.0,0.0,0.25,1.6552732680000002,0.0,0.004882811999999959,0.800000011920929,-0.6200000047683716,-0.019999999552965164,-0.01513671875,-0.0257568359375,1.05084228515625,35.77000045776367,0.0,-3.0,-6.1829681396484375,-1.8895263671875,Waiting,0.0,0.0,-19187.0,0.0,0.0,0.0,0.0,0.0,
0.49066100000000007,0.0,0.0,134432.0,0.0,0.0,0.0,0.0,0.375,0.8837889720000001,0.0,-0.03173827799999995,-102692.0,0.0,0.0,-0.0,0.0,0.25,0.456542922,0.0,-0.048828120000000474,179293.0,0.0,7.5,0.0,0.0,0.25,3.3251949720000002,0.0,-0.023193356999999803,-113920.0,0.125,0.0,-0.0,0.0,0.25,1.6540525650000002,0.0,0.015869139000000088,0.7900000214576721,-0.6200000047683716,-0.05000000074505806,-0.03338623046875,0.03863525390625,1.0465087890625,35.77000045776367,0.0,-22.0,-6.1829833984375,-1.8906402587890625,Waiting,0.0,0.0,-19187.0,0.0,0.0,0.0,0.0,0.0,
0.5120169999999998,0.0,0.0,134432.0,0.0,0.0,0.0,0.0,0.375,0.8825682690000001,0.0,-0.03173827799999995,-102692.0,0.0,0.0,-0.0,0.0,0.25,0.457763625,0.0,-0.048828120000000474,179293.0,0.0,0.0,0.0,0.0,0.125,3.3239742690000003,0.0,-0.023193356999999803,-113920.0,0.125,0.0,-0.0,0.0,0.25,1.6540525650000002,0.0,0.015869139000000088,0.7900000214576721,-0.6399999856948853,-0.05000000074505806,-0.038330078125,0.01092529296875,1.04736328125,35.77000045776367,0.0,-26.0,-6.18304443359375,-1.8906097412109375,Waiting,0.0,0.0,-19187.0,0.0,0.0,0.0,0.0,0.0,
0.5342819999999993,0.0,0.0,134432.0,0.0,0.0,0.0,0.0,0.375,0.8825682690000001,0.0,-0.0012207029999999897,-102692.0,0.0,0.0,-0.0,0.0,0.25,0.456542922,0.0,0.0,179293.0,0.0,0.0,0.0,0.0,0.125,3.3239742690000003,0.0,-0.004882811999999959,-113920.0,0.125,0.0,-0.0,0.0,0.25,1.6540525650000002,0.0,0.0,0.800000011920929,-0.6399999856948853,-0.05000000074505806,-0.0208740234375,0.02606201171875,1.0233154296875,35.77000045776367,0.0,0.0,-6.183135986328125,-1.89056396484375,Waiting,0.0,0.0,-19187.0,0.0,0.0,0.0,0.0,0.0,
0.5558869999999988,0.0,0.0,134432.0,0.0,0.0,0.0,0.0,0.375,0.8825682690000001,0.0,-0.0012207029999999897,-102692.0,0.0,0.0,-0.0,0.0,0.25,0.457763625,0.0,0.0,179293.0,0.0,0.0,0.0,0.0,0.125,3.3239742690000003,0.0,-0.004882811999999959,-113920.0,0.125,0.0,-0.0,0.0,0.25,1.6564939710000002,0.0,0.0,0.7900000214576721,-0.6299999952316284,-0.019999999552965164,-0.0186767578125,0.0059814453125,0.994873046875,35.77000045776367,0.0,-7.0,-6.183135986328125,-1.89056396484375,Waiting,0.0,0.0,-19187.0,0.0,0.0,0.0,0.0,0.0,
0.5812659999999996,0.0,0.0,134432.0,0.0,0.0,0.0,0.0,0.375,0.8825682690000001,0.0,-0.0012207029999999897,-102692.0,0.0,0.0,-0.0,0.0,0.25,0.456542922,0.0,0.0,179293.0,0.0,0.0,0.0,0.0,0.125,3.3251949720000002,0.0,0.0,-113920.0,0.125,0.0,-0.0,0.0,0.25,1.6540525650000002,0.0,0.0,0.7900000214576721,-0.6499999761581421,-0.019999999552965164,-0.003173828125,0.019287109375,1.03778076171875,35.77000045776367,0.0,8.0,-6.183135986328125,-1.89056396484375,Waiting,0.0,0.0,-19187.0,0.0,0.0,0.0,0.0,0.0,
0.6065650000000024,0.0,0.0,134432.0,0.0,0.0,0.0,0.0,0.375,0.8825682690000001,0.0,-0.0012207029999999897,-102692.0,0.0,0.0,-0.0,0.0,0.25,0.456542922,0.0,0.0,179293.0,0.0,0.0,0.0,0.0,0.125,3.3239742690000003,0.0,0.0,-113920.0,0.125,0.0,-0.0,0.0,0.25,1.6540525650000002,0.0,0.0,0.7900000214576721,-0.6299999952316284,-0.019999999552965164,0.00537109375,0.01763916015625,1.00079345703125,35.77000045776367,0.0,16.0,-6.183135986328125,-1.89056396484375,Waiting,0.0,0.0,-19187.0,0.0,0.0,0.0,0.0,0.0,
0.6283860000000022,0.0,0.0,134432.0,0.0,0.0,0.0,0.0,0.375,0.8825682690000001,0.0,0.0,-102692.0,0.0,0.0,-0.0,0.0,0.25,0.46142573400000003,0.0,0.0,179293.0,0.0,0.0,0.0,0.0,0.125,3.3251949720000002,0.0,0.0,-113920.0,0.125,0.0,-0.0,0.0,0.25,1.6540525650000002,0.0,0.0,0.7900000214576721,-0.6299999952316284,-0.029999999329447746,-0.01116943359375,0.0181884765625,1.03302001953125,35.77000045776367,0.0,0.0,-6.183135986328125,-1.89056396484375,Waiting,0.0,0.0,-19187.0,0.0,0.0,0.0,0.0,0.0,
0.6494049999999988,0.0,0.0,134432.0,0.0,0.0,0.0,0.0,0.375,0.8825682690000001,0.0,0.0,-102692.0,0.0,0.0,-0.0,0.0,0.25,0.457763625,0.0,0.0,179293.0,0.0,0.0,0.0,0.0,0.125,3.3251949720000002,0.0,0.0,-113920.0,0.125,0.0,-0.0,0.0,0.25,1.6552732680000002,0.0,0.0,0.7900000214576721,-0.6299999952316284,-0.029999999329447746,-0.0096435546875,0.0240478515625,1.0482177734375,35.77000045776367,0.0,2.0,-6.183135986328125,-1.89056396484375,Waiting,0.0,0.0,-19187.0,0.0,0.0,0.0,0.0,0.0,
0.6706000000000022,0.0,0.0,134432.0,0.0,0.0,0.0,0.0,0.375,0.8825682690000001,0.0,0.0,-102692.0,0.0,0.0,-0.0,0.0,0.25,0.457763625,0.0,0.0,179293.0,0.0,0.0,0.0,0.0,0.125,3.3251949720000002,0.0,0.0,-113920.0,0.125,0.0,-0.0,0.0,0.25,1.6540525650000002,0.0,0.0,0.7900000214576721,-0.6200000047683716,-0.029999999329447746,-0.00946044921875,0.00592041015625,0.98712158203125,35.77000045776367,0.0,1.0,-6.183135986328125,-1.89056396484375,Waiting,0.0,0.0,-19187.0,0.0,0.0,0.0,0.0,0.0,
0.6931260000000002,0.0,0.0,134432.0,0.0,0.0,0.0,0.0,0.375,0.8825682690000001,0.0,0.0,-102692.0,0.0,0.0,-0.0,0.0,0.25,0.46142573400000003,0.0,0.0,179293.0,0.0,0.0,0.0,0.0,0.125,3.3251949720000002,0.0,0.0,-113920.0,0.125,0.0,-0.0,0.0,0.25,1.6552732680000002,0.0,0.0,0.7900000214576721,-0.6200000047683716,-0.019999999552965164,-0.004638671875,0.00201416015625,1.034423828125,35.77000045776367,0.0,6.0,-6.183135986328125,-1.89056396484375,Waiting,0.0,0.0,-19187.0,0.0,0.0,0.0,0.0,0.0,
0.7168110000000015,0.0,0.0,134432.0,0.0,0.0,0.0,0.0,0.375,0.8825682690000001,0.0,-0.0012207029999999897,-102692.0,0.0,0.0,-0.0,0.0,0.25,0.457763625,0.0,0.0,179293.0,0.0,0.0,0.0,0.0,0.125,3.3239742690000003,0.0,0.0,-113920.0,0.125,0.0,-0.0,0.0,0.25,1.6552732680000002,0.0,-0.0012207030000002117,0.7799999713897705,-0.6200000047683716,-0.019999999552965164,-0.011962890625,0.012451171875,0.9913330078125,35.77000045776367,0.0,-1.0,-6.183135986328125,-1.89056396484375,Waiting,0.0,0.0,-19187.0,0.0,0.0,0.0,0.0,0.0,
0.7523879999999991,0.0,0.0,134432.0,0.0,0.0,0.0,0.0,0.375,0.877685457,0.0,-0.0012207029999999897,-102692.0,0.0,0.0,-0.0,0.0,0.25,0.457763625,0.0,0.0,179293.0,0.0,0.0,0.0,0.0,0.125,3.3239742690000003,0.0,0.0,-113920.0,0.125,0.0,-0.0,0.0,0.25,1.6540525650000002,0.0,-0.0012207030000002117,0.7799999713897705,-0.6299999952316284,-0.019999999552965164,-0.01226806640625,0.01483154296875,1.0228271484375,35.77000045776367,0.0,0.0,-6.183135986328125,-1.89056396484375,Waiting,0.0,0.0,-19187.0,0.0,0.0,0.0,0.0,0.0,
0.7890030000000006,0.0,0.0,134432.0,0.0,0.0,0.0,0.0,0.375,0.877685457,0.0,0.0012207029999999897,-102692.0,0.0,0.0,-0.0,0.0,0.25,0.456542922,0.0,0.0,179293.0,0.0,0.0,0.0,0.0,0.125,3.3251949720000002,0.0,0.0,-113920.0,0.125,0.0,-0.0,0.0,0.25,1.6540525650000002,0.0,0.0012207030000002117,0.7799999713897705,-0.6399999856948853,-0.029999999329447746,-0.01055908203125,0.012451171875,0.99798583984375,35.77000045776367,0.0,0.0,-6.183135986328125,-1.89056396484375,Waiting,0.0,0.0,-19187.0,0.0,0.0,0.0,0.0,0.0,
0.8136009999999988,0.0,0.0,134432.0,0.0,0.0,0.0,0.0,0.375,0.8813475660000001,0.0,0.0012207029999999897,-102692.0,0.0,0.0,-0.0,0.0,0.25,0.457763625,0.0,0.0,179293.0,0.0,0.0,0.0,0.0,0.125,3.3251949720000002,0.0,0.0,-113920.0,0.125,0.0,-0.0,0.0,0.25,1.6540525650000002,0.0,0.0012207030000002117,0.7799999713897705,-0.6399999856948853,-0.019999999552965164,-0.00958251953125,0.00897216796875,1.0166015625,35.77000045776367,0.0,1.0,-6.183135986328125,-1.89056396484375,Waiting,0.0,0.0,-19187.0,0.0,0.0,0.0,0.0,0.0,
0.8351029999999992,0.0,0.0,134432.0,0.0,0.0,0.0,0.0,0.375,0.8837889720000001,0.0,-0.0024414059999999793,-102692.0,0.0,0.0,-0.0,0.0,0.25,0.456542922,0.0,0.0,179293.0,0.0,0.0,0.0,0.0,0.125,3.3239742690000003,0.0,0.0,-113920.0,0.125,0.0,-0.0,0.0,0.25,1.6540525650000002,0.0,-0.0012207030000002117,0.7799999713897705,-0.6499999761581421,-0.019999999552965164,-0.013671875,0.00738525390625,1.0277099609375,35.77000045776367,0.0,-2.0,-6.183135986328125,-1.89056396484375,Waiting,0.0,0.0,-19187.0,0.0,0.0,0.0,0.0,0.0,
0.8551980000000003,0.0,0.0,134432.0,0.0,0.0,0.0,0.0,0.25,0.8825682690000001,0.0,-0.0024414059999999793,-102692.0,0.0,0.0,-0.0,0.0,0.25,0.457763625,0.0,0.0,179293.0,0.0,0.0,0.0,0.0,0.125,3.3215328630000003,0.0,0.0,-113920.0,0.125,0.0,-0.0,0.0,0.25,1.6552732680000002,0.0,-0.0012207030000002117,0.7799999713897705,-0.6399999856948853,-0.019999999552965164,-0.009033203125,0.01043701171875,1.0037841796875,35.77000045776367,0.0,2.0,-6.183135986328125,-1.89056396484375,Waiting,0.0,0.0,-19187.0,0.0,0.0,0.0,0.0,0.0,
0.8760110000000022,0.0,0.0,134432.0,0.0,0.0,0.0,0.0,0.25,0.8825682690000001,0.0,-0.0012207030000001007,-102692.0,0.0,0.0,-0.0,0.0,0.25,0.457763625,0.0,0.0,179293.0,0.0,0.0,0.0,0.0,0.125,3.3239742690000003,0.0,0.0,-113920.0,0.125,0.0,-0.0,0.0,0.25,1.6540525650000002,0.0,0.0012207030000002117,0.7799999713897705,-0.6399999856948853,-0.019999999552965164,-0.01348876953125,0.01495361328125,1.0345458984375,35.77000045776367,0.0,-1.0,-6.183135986328125,-1.89056396484375,Waiting,0.0,0.0,-19187.0,0.0,0.0,0.0,0.0,0.0,
0.9021260000000002,0.0,0.0,134432.0,0.0,0.0,0.0,0.0,0.25,0.876464754,0.0,-0.0012207030000001007,-102692.0,0.0,0.0,-0.0,0.0,0.25,0.457763625,0.0,0.0,179293.0,0.0,0.0,0.0,0.0,0.125,3.3239742690000003,0.0,0.0,-113920.0,0.125,0.0,-0.0,0.0,0.25,1.6540525650000002,0.0,0.0012207030000002117,0.7799999713897705,-0.6399999856948853,-0.019999999552965164,-0.01031494140625,0.0216064453125,1.02008056640625,35.77000045776367,0.0,1.0,-6.183135986328125,-1.89056396484375,Waiting,0.0,0.0,-19187.0,0.0,0.0,0.0,0.0,0.0,
0.927385000000002,0.0,0.0,134432.0,0.0,0.0,0.0,0.0,0.25,0.8825682690000001,0.0,0.0024414060000000903,-102692.0,0.0,0.0,-0.0,0.0,0.25,0.457763625,0.0,0.0,179293.0,0.0,0.0,0.0,0.0,0.125,3.3251949720000002,0.0,0.0,-113920.0,0.125,0.0,-0.0,0.0,0.25,1.6540525650000002,0.0,0.0012207030000002117,0.7799999713897705,-0.6399999856948853,-0.019999999552965164,-0.012939453125,0.01068115234375,1.01373291015625,35.77000045776367,0.0,-1.0,-6.183135986328125,-1.89056396484375,Waiting,0.0,0.0,-19187.0,0.0,0.0,0.0,0.0,0.0,
0.9496959999999999,0.0,0.0,134432.0,0.0,0.0,0.0,0.0,0.25,0.8825682690000001,0.0,0.0024414060000000903,-102692.0,0.0,0.0,-0.0,0.0,0.25,0.456542922,0.0,0.0,179293.0,0.0,0.0,0.0,0.0,0.125,3.3251949720000002,0.0,0.0,-113920.0,0.125,0.0,-0.0,0.0,0.25,1.652831862,0.0,0.0,0.7799999713897705,-0.6499999761581421,-0.019999999552965164,-0.013916015625,0.00848388671875,1.0228271484375,35.779998779296875,0.0,-2.0,-6.183135986328125,-1.89056396484375,Waiting,0.0,0.0,-19187.0,0.0,0.0,0.0,0.0,0.0,
0.9680830000000024,0.0,0.0,134432.0,0.0,0.0,0.0,0.0,0.25,0.8789061600000001,0.0,0.0024414060000000903,-102692.0,0.0,0.0,-0.0,0.0,0.25,0.457763625,0.0,0.0,179293.0,0.0,0.0,0.0,0.0,0.125,3.3239742690000003,0.0,0.0,-113920.0,0.125,0.0,-0.0,0.0,0.25,1.6540525650000002,0.0,0.0,0.7799999713897705,-0.6399999856948853,-0.019999999552965164,-0.00946044921875,0.0093994140625,1.025634765625,35.779998779296875,0.0,2.0,-6.183135986328125,-1.89056396484375,Waiting,0.0,0.0,-19187.0,0.0,0.0,0.0,0.0,0.0,
0.989768,0.0,0.0,134432.0,0.0,0.0,0.0,0.0,0.25,0.8825682690000001,0.0,0.0,-102692.0,0.0,0.0,-0.0,0.0,0.25,0.458984328,0.0,0.0,179293.0,0.0,0.0,0.0,0.0,0.125,3.3251949720000002,0.0,0.0,-113920.0,0.125,0.0,-0.0,0.0,0.25,1.6540525650000002,0.0,0.0,0.7799999713897705,-0.6399999856948853,-0.019999999552965164,-0.01544189453125,0.01513671875,1.01239013671875,35.779998779296875,0.0,-3.0,-6.183135986328125,-1.89056396484375,Waiting,0.0,0.0,-19187.0,0.0,0.0,0.0,0.0,0.0,
1.009491000000002,0.0,0.0,134432.0,0.0,0.0,0.0,0.0,0.25,0.8789061600000001,0.0,0.0,-102692.0,0.0,0.0,-0.0,0.0,0.25,0.457763625,0.0,0.0,179293.0,0.0,0.0,0.0,0.0,0.125,3.3215328630000003,0.0,0.0,-113920.0,0.125,0.0,-0.0,0.0,0.25,1.6540525650000002,0.0,0.0,0.7799999713897705,-0.6399999856948853,-0.019999999552965164,-0.01531982421875,0.016845703125,1.025634765625,35.779998779296875,0.0,-3.0,-6.183135986328125,-1.89056396484375,Waiting,0.0,0.0,-19187.0,0.0,0.0,0.0,0.0,0.0,
1.0315550000000002,0.0,0.0,134432.0,0.0,0.0,0.0,0.0,0.25,0.8825682690000001,0.0,-0.0012207029999999897,-102692.0,0.0,0.0,-0.0,0.0,0.25,0.456542922,0.0,0.0,179293.0,0.0,0.0,0.0,0.0,0.125,3.3251949720000002,0.0,0.0,-113920.0,0.125,0.0,-0.0,0.0,0.25,1.6540525650000002,0.0,0.0,0.7799999713897705,-0.6399999856948853,-0.019999999552965164,-0.01214599609375,0.014404296875,1.01513671875,35.779998779296875,0.0,0.0,-6.183135986328125,-1.89056396484375,Waiting,0.0,0.0,-19187.0,0.0,0.0,0.0,0.0,0.0,
1.0516110000000007,0.0,0.0,134432.0,0.0,0.0,0.0,0.0,0.375,0.8789061600000001,0.0,-0.0012207029999999897,-102692.0,0.0,0.0,-0.0,0.0,0.25,0.457763625,0.0,0.0,179293.0,0.0,0.0,0.0,0.0,0.125,3.3251949720000002,0.0,0.0,-113920.0,0.125,0.0,-0.0,0.0,0.25,1.6540525650000002,0.0,0.0,0.7799999713897705,-0.6499999761581421,-0.019999999552965164,-0.01092529296875,0.012939453125,1.01312255859375,35.779998779296875,0.0,0.0,-6.183135986328125,-1.89056396484375,Waiting,0.0,0.0,-19187.0,0.0,0.0,0.0,0.0,0.0,
1.0720159999999996,0.0,0.0,134432.0,0.0,0.0,0.0,0.0,0.375,0.877685457,0.0,-0.0012207029999999897,-102692.0,0.0,0.0,-0.0,0.0,0.25,0.456542922,0.0,0.0,179293.0,0.0,0.0,0.0,0.0,0.125,3.3239742690000003,0.0,0.0,-113920.0,0.125,0.0,-0.0,0.0,0.25,1.6552732680000002,0.0,0.0,0.7799999713897705,-0.6499999761581421,-0.019999999552965164,-0.010498046875,0.0108642578125,1.0223388671875,35.779998779296875,0.0,1.0,-6.183135986328125,-1.89056396484375,Waiting,0.0,0.0,-19187.0,0.0,0.0,0.0,0.0,0.0,
1.0966280000000006,0.0,0.0,134432.0,0.0,0.0,0.0,0.0,0.375,0.8789061600000001,0.0,0.0,-102692.0,0.0,0.0,-0.0,0.0,0.25,0.457763625,0.0,0.0,179293.0,0.0,0.0,0.0,0.0,0.125,3.3239742690000003,0.0,0.0,-113920.0,0.125,0.0,-0.0,0.0,0.25,1.6540525650000002,0.0,0.0,0.7799999713897705,-0.6499999761581421,-0.019999999552965164,-0.01318359375,0.01043701171875,1.0162353515625,35.779998779296875,0.0,-1.0,-6.183135986328125,-1.89056396484375,Waiting,0.0,0.0,-19187.0,0.0,0.0,0.0,0.0,0.0,
1.1166939999999994,0.0,0.0,134432.0,0.0,0.0,0.0,0.0,0.375,0.877685457,0.0,0.0,-102692.0,0.0,0.0,-0.0,0.0,0.25,0.457763625,0.0,0.0,179293.0,0.0,0.0,0.0,0.0,0.125,3.3251949720000002,0.0,0.0,-113920.0,0.125,0.0,-0.0,0.0,0.25,1.652831862,0.0,0.0,0.7699999809265137,-0.6499999761581421,-0.019999999552965164,-0.0087890625,0.0128173828125,1.02032470703125,35.779998779296875,0.0,2.0,-6.183135986328125,-1.89056396484375,Waiting,0.0,0.0,-19187.0,0.0,0.0,0.0,0.0,0.0,
1.1395730000000004,0.0,0.0,134432.0,0.0,0.0,0.0,0.0,0.25,0.8825682690000001,0.0,0.0012207029999999897,-102692.0,0.0,0.0,-0.0,0.0,0.25,0.456542922,0.0,0.0,179293.0,0.0,0.0,0.0,0.0,0.125,3.3251949720000002,0.0,0.0,-113920.0,0.125,0.0,-0.0,0.0,0.25,1.6540525650000002,0.0,-0.0012207030000002117,0.7799999713897705,-0.6499999761581421,-0.019999999552965164,-0.013671875,0.0169677734375,1.02435302734375,35.779998779296875,0.0,-1.0,-6.183135986328125,-1.89056396484375,Waiting,0.0,0.0,-19187.0,0.0,0.0,0.0,0.0,0.0,
1.1645240000000012,0.0,0.0,134432.0,0.0,0.0,0.0,0.0,0.25,0.877685457,0.0,0.0012207029999999897,-102692.0,0.0,0.0,-0.0,0.0,0.25,0.457763625,0.0,0.0,179293.0,0.0,0.0,0.0,0.0,0.125,3.3239742690000003,0.0,0.0,-113920.0,0.125,0.0,-0.0,0.0,0.25,1.6540525650000002,0.0,-0.0012207030000002117,0.7799999713897705,-0.6499999761581421,-0.019999999552965164,-0.010009765625,0.0137939453125,1.00653076171875,35.779998779296875,0.0,1.0,-6.183135986328125,-1.89056396484375,Waiting,0.0,0.0,-19187.0,0.0,0.0,0.0,0.0,0.0,
1.1911270000000005,0.0,0.0,134432.0,0.0,0.0,0.0,0.0,0.25,0.8825682690000001,0.0,-0.0024414060000000903,-102692.0,0.0,0.0,-0.0,0.0,0.25,0.457763625,0.0,0.0,179293.0,0.0,0.0,0.0,0.0,0.125,3.3239742690000003,0.0,0.0,-113920.0,0.125,0.0,-0.0,0.0,0.25,1.6540525650000002,0.0,0.0012207030000002117,0.7799999713897705,-0.6499999761581421,-0.019999999552965164,-0.01348876953125,0.01190185546875,1.0189208984375,35.779998779296875,0.0,-1.0,-6.183135986328125,-1.89056396484375,Waiting,0.0,0.0,-19187.0,0.0,0.0,0.0,0.0,0.0,
1.2114500000000008,0.0,0.0,134432.0,0.0,0.0,0.0,0.0,0.375,0.877685457,0.0,-0.0024414060000000903,-102692.0,0.0,0.0,-0.0,0.0,0.25,0.457763625,0.0,0.0,179293.0,0.0,0.0,0.0,0.0,0.125,3.3239742690000003,0.0,0.0,-113920.0,0.125,0.0,-0.0,0.0,0.25,1.6540525650000002,0.0,0.0012207030000002117,0.7799999713897705,-0.6499999761581421,-0.019999999552965164,-0.01141357421875,0.0098876953125,1.01763916015625,35.779998779296875,0.0,0.0,-6.183135986328125,-1.89056396484375,Waiting,0.0,0.0,-19187.0,0.0,0.0,0.0,0.0,0.0,
1.2335169999999998,0.0,0.0,134432.0,0.0,0.0,0.0,0.0,0.25,0.8801268630000001,0.0,0.0012207030000001007,-102692.0,0.0,0.0,-0.0,0.0,0.25,0.457763625,0.0,0.0,179293.0,0.0,0.0,0.0,0.0,0.125,3.3251949720000002,0.0,0.0,-113920.0,0.125,0.0,-0.0,0.0,0.25,1.6540525650000002,0.0,-0.0012207030000002117,0.7799999713897705,-0.6499999761581421,-0.019999999552965164,-0.01025390625,0.0147705078125,1.01953125,35.779998779296875,0.0,1.0,-6.183135986328125,-1.89056396484375,Waiting,0.0,0.0,-19187.0,0.0,0.0,0.0,0.0,0.0,
1.253441999999999,0.0,0.0,134432.0,0.0,0.0,0.0,0.0,0.25,0.877685457,0.0,0.0012207030000001007,-102692.0,0.0,0.0,-0.0,0.0,0.25,0.457763625,0.0,0.0,179293.0,0.0,0.0,0.0,0.0,0.125,3.3239742690000003,0.0,0.0,-113920.0,0.125,0.0,-0.0,0.0,0.25,1.652831862,0.0,-0.0012207030000002117,0.7799999713897705,-0.6499999761581421,-0.019999999552965164,-0.01312255859375,0.0123291015625,1.020263671875,35.779998779296875,0.0,-1.0,-6.183135986328125,-1.89056396484375,Waiting,0.0,0.0,-19187.0,0.0,0.0,0.0,0.0,0.0,
1.2810509999999995,0.0,0.0,134432.0,0.0,0.0,0.0,0.0,0.375,0.8825682690000001,0.0,-0.0012207030000001007,-102692.0,0.0,0.0,-0.0,0.0,0.25,0.456542922,0.0,0.0,179293.0,0.0,0.0,0.0,0.0,0.125,3.3239742690000003,0.0,0.0,-113920.0,0.125,0.0,-0.0,0.0,0.25,1.6552732680000002,0.0,0.0,0.7699999809265137,-0.6499999761581421,-0.019999999552965164,-0.0125732421875,0.0147705078125,1.01708984375,35.779998779296875,0.0,0.0,-6.183135986328125,-1.89056396484375,Waiting,0.0,0.0,-19187.0,0.0,0.0,0.0,0.0,0.0,
1.3074900000000016,0.0,0.0,134432.0,0.0,0.0,0.0,0.0,0.25,0.877685457,0.0,-0.0012207030000001007,-102692.0,0.0,0.0,-0.0,0.0,0.25,0.456542922,0.0,0.0,179293.0,0.0,0.0,0.0,0.0,0.125,3.3239742690000003,0.0,0.0,-113920.0,0.125,0.0,-0.0,0.0,0.25,1.6540525650000002,0.0,0.0,0.7699999809265137,-0.6499999761581421,-0.019999999552965164,-0.01153564453125,0.01519775390625,1.01947021484375,35.779998779296875,0.0,0.0,-6.183135986328125,-1.89056396484375,Waiting,0.0,0.0,-19187.0,0.0,0.0,0.0,0.0,0.0,
1.3298509999999988,0.0,0.0,134432.0,0.0,0.0,0.0,0.0,0.25,0.877685457,0.0,-0.0012207029999999897,-102692.0,0.0,0.0,-0.0,0.0,0.25,0.456542922,0.0,0.0,179293.0,0.0,0.0,0.0,0.0,0.125,3.3251949720000002,0.0,0.0,-113920.0,0.125,0.0,-0.0,0.0,0.25,1.6540525650000002,0.0,0.0,0.7699999809265137,-0.6499999761581421,-0.019999999552965164,-0.0072021484375,0.01239013671875,1.02325439453125,35.779998779296875,0.0,4.0,-6.183135986328125,-1.89056396484375,Waiting,0.0,0.0,-19187.0,0.0,0.0,0.0,0.0,0.0,
1.3503440000000009,0.0,0.0,134432.0,0.0,0.0,0.0,0.0,0.25,0.8789061600000001,0.0,-0.0012207029999999897,-102692.0,0.0,0.0,-0.0,0.0,0.25,0.457763625,0.0,0.0,179293.0,0.0,0.0,0.0,0.0,0.125,3.3239742690000003,0.0,0.0,-113920.0,0.125,0.0,-0.0,0.0,0.25,1.6540525650000002,0.0,0.0012207030000002117,0.7699999809265137,-0.6499999761581421,-0.019999999552965164,-0.01031494140625,0.0108642578125,1.009521484375,35.779998779296875,0.0,1.0,-6.183135986328125,-1.89056396484375,Waiting,0.0,0.0,-19187.0,0.0,0.0,0.0,0.0,0.0,
1.3722479999999997,0.0,0.0,134432.0,0.0,0.0,0.0,0.0,0.25,0.877685457,0.0,-0.0012207029999999897,-102692.0,0.0,0.0,-0.0,0.0,0.25,0.456542922,0.0,0.0,179293.0,0.0,0.0,0.0,0.0,0.125,3.3251949720000002,0.0,0.0,-113920.0,0.125,0.0,-0.0,0.0,0.25,1.6540525650000002,0.0,0.0012207030000002117,0.7699999809265137,-0.6499999761581421,-0.019999999552965164,-0.008544921875,0.01275634765625,1.02490234375,35.779998779296875,0.0,3.0,-6.183135986328125,-1.89056396484375,Waiting,0.0,0.0,-19187.0,0.0,0.0,0.0,0.0,0.0,
1.3974079999999995,0.0,0.0,134432.0,0.0,0.0,0.0,0.0,0.25,0.8789061600000001,0.0,0.0024414060000000903,-102692.0,0.0,0.0,-0.0,0.0,0.25,0.457763625,0.0,0.0,179293.0,0.0,0.0,0.0,0.0,0.125,3.3239742690000003,0.0,0.0,-113920.0,0.125,0.0,-0.0,0.0,0.25,1.6540525650000002,0.0,-0.0012207030000002117,0.7699999809265137,-0.6499999761581421,-0.019999999552965164,-0.00927734375,0.01416015625,1.02056884765625,35.779998779296875,0.0,2.0,-6.183135986328125,-1.89056396484375,Waiting,0.0,0.0,-19187.0,0.0,0.0,0.0,0.0,0.0,
1.4158950000000003,0.0,0.0,134432.0,0.0,0.0,0.0,0.0,0.25,0.877685457,0.0,0.0024414060000000903,-102692.0,0.0,0.0,-0.0,0.0,0.25,0.457763625,0.0,0.0,179293.0,0.0,0.0,0.0,0.0,0.125,3.3239742690000003,0.0,0.0,-113920.0,0.125,0.0,-0.0,0.0,0.25,1.6540525650000002,0.0,-0.0012207030000002117,0.7699999809265137,-0.6499999761581421,-0.019999999552965164,-0.0125732421875,0.015380859375,1.01806640625,35.779998779296875,0.0,0.0,-6.183135986328125,-1.89056396484375,Waiting,0.0,0.0,-19187.0,0.0,0.0,0.0,0.0,0.0,
1.4380390000000007,0.0,0.0,134432.0,0.0,0.0,0.0,0.0,0.25,0.8825682690000001,0.0,0.0,-102692.0,0.0,0.0,-0.0,0.0,0.25,0.457763625,0.0,0.0,179293.0,0.0,0.0,0.0,0.0,0.125,3.3239742690000003,0.0,0.0,-113920.0,0.125,0.0,-0.0,0.0,0.25,1.6540525650000002,0.0,0.0,0.7699999809265137,-0.6499999761581421,-0.019999999552965164,-0.011962890625,0.01690673828125,1.025634765625,35.779998779296875,0.0,0.0,-6.183135986328125,-1.89056396484375,Waiting,0.0,0.0,-19187.0,0.0,0.0,0.0,0.0,0.0,
1.4793450000000012,0.0,0.0,134432.0,0.0,0.0,0.0,0.0,0.375,0.8825682690000001,0.0,0.0,-102692.0,0.0,0.0,-0.0,0.0,0.25,0.457763625,0.0,0.0,179293.0,0.0,0.0,0.0,0.0,0.125,3.3227535660000003,0.0,0.0,-113920.0,0.125,0.0,-0.0,0.0,0.25,1.6540525650000002,0.0,0.0,0.7699999809265137,-0.6499999761581421,-0.019999999552965164,-0.0126953125,0.015380859375,1.01788330078125,35.779998779296875,0.0,-1.0,-6.183135986328125,-1.89056396484375,Waiting,0.0,0.0,-19187.0,0.0,0.0,0.0,0.0,0.0,
1.494964,0.0,0.0,134432.0,0.0,0.0,0.0,0.0,0.375,0.876464754,0.0,0.0,-102692.0,0.0,0.0,-0.0,0.0,0.25,0.457763625,0.0,0.0,179293.0,0.0,0.0,0.0,0.0,0.125,3.3251949720000002,0.0,0.0,-113920.0,0.125,0.0,-0.0,0.0,0.25,1.6540525650000002,0.0,0.0012207030000002117,0.7699999809265137,-0.6499999761581421,-0.019999999552965164,-0.0123291015625,0.01171875,1.02239990234375,35.779998779296875,0.0,0.0,-6.183135986328125,-1.89056396484375,Waiting,0.0,0.0,-19187.0,0.0,0.0,0.0,0.0,0.0,
1.5146219999999995,0.0,0.0,134432.0,0.0,0.0,0.0,0.0,0.375,0.877685457,0.0,0.0,-102692.0,0.0,0.0,-0.0,0.0,0.25,0.456542922,0.0,0.0,179293.0,0.0,0.0,0.0,0.0,0.125,3.3251949720000002,0.0,0.0,-113920.0,0.125,0.0,-0.0,0.0,0.25,1.6540525650000002,0.0,0.0012207030000002117,0.7699999809265137,-0.6499999761581421,-0.019999999552965164,-0.012939453125,0.0166015625,1.0247802734375,35.779998779296875,0.0,-1.0,-6.183135986328125,-1.89056396484375,Waiting,0.0,0.0,-19187.0,0.0,0.0,0.0,0.0,0.0,
1.5382730000000011,0.0,0.0,134432.0,0.0,0.0,0.0,0.0,0.375,0.877685457,0.0,-0.0012207030000001007,-102692.0,0.0,0.0,-0.0,0.0,0.25,0.456542922,0.0,0.0,179293.0,0.0,0.0,0.0,0.0,0.125,3.3239742690000003,0.0,0.0,-113920.0,0.125,0.0,-0.0,0.0,0.25,1.6540525650000002,0.0,0.0,0.7699999809265137,-0.6499999761581421,-0.019999999552965164,-0.01129150390625,0.01318359375,1.01885986328125,35.779998779296875,0.0,0.0,-6.183135986328125,-1.89056396484375,Waiting,0.0,0.0,-19187.0,0.0,0.0,0.0,0.0,0.0,
1.556446,0.0,0.0,134432.0,0.0,0.0,0.0,0.0,0.375,0.877685457,0.0,-0.0012207030000001007,-102692.0,0.0,0.0,-0.0,0.0,0.25,0.457763625,0.0,0.0,179293.0,0.0,0.0,0.0,0.0,0.125,3.3251949720000002,0.0,0.0,-113920.0,0.125,0.0,-0.0,0.0,0.25,1.6540525650000002,0.0,0.0,0.7699999809265137,-0.6499999761581421,-0.019999999552965164,-0.0135498046875,0.01190185546875,1.019287109375,35.779998779296875,0.0,-1.0,-6.183135986328125,-1.89056396484375,Waiting,0.0,0.0,-19187.0,0.0,0.0,0.0,0.0,0.0,
1.575262999999999,0.0,0.0,134432.0,0.0,0.0,0.0,0.0,0.375,0.8789061600000001,0.0,0.0,-102692.0,0.0,0.0,-0.0,0.0,0.25,0.457763625,0.0,0.0,179293.0,0.0,0.0,0.0,0.0,0.125,3.3251949720000002,0.0,0.0,-113920.0,0.125,0.0,-0.0,0.0,0.25,1.6540525650000002,0.0,0.0,0.7699999809265137,-0.6499999761581421,-0.019999999552965164,-0.0126953125,0.00787353515625,1.02435302734375,35.779998779296875,0.0,0.0,-6.183135986328125,-1.89056396484375,Waiting,0.0,0.0,-19187.0,0.0,0.0,0.0,0.0,0.0,
1.602297999999999,0.0,0.0,134432.0,0.0,0.0,0.0,0.0,0.375,0.877685457,0.0,0.0,-102692.0,0.0,0.0,-0.0,0.0,0.25,0.456542922,0.0,0.0,179293.0,0.0,0.0,0.0,0.0,0.125,3.3239742690000003,0.0,0.0,-113920.0,0.125,0.0,-0.0,0.0,0.25,1.6552732680000002,0.0,-0.0012207030000002117,0.7599999904632568,-0.6499999761581421,-0.019999999552965164,-0.0108642578125,0.01116943359375,1.0159912109375,35.779998779296875,0.0,0.0,-6.183135986328125,-1.89056396484375,Waiting,0.0,0.0,-19187.0,0.0,0.0,0.0,0.0,0.0,
1.6226270000000005,0.0,0.0,134432.0,0.0,0.0,0.0,0.0,0.375,0.877685457,0.0,0.0,-102692.0,0.0,0.0,-0.0,0.0,0.25,0.456542922,0.0,0.0,179293.0,0.0,0.0,0.0,0.0,0.125,3.3251949720000002,0.0,0.0,-113920.0,0.125,0.0,-0.0,0.0,0.25,1.6540525650000002,0.0,-0.0012207030000002117,0.7599999904632568,-0.6499999761581421,-0.019999999552965164,-0.0113525390625,0.0142822265625,1.02166748046875,35.779998779296875,0.0,0.0,-6.183135986328125,-1.89056396484375,Waiting,0.0,0.0,-19187.0,0.0,0.0,0.0,0.0,0.0,
1.6481360000000023,0.0,0.0,134432.0,0.0,0.0,0.0,0.0,0.375,0.877685457,0.0,0.0,-102692.0,0.0,0.0,-0.0,0.0,0.25,0.457763625,0.0,0.0,179293.0,0.0,0.0,0.0,0.0,0.125,3.3239742690000003,0.0,0.0,-113920.0,0.125,0.0,-0.0,0.0,0.25,1.652831862,0.0,0.0012207030000002117,0.7599999904632568,-0.6499999761581421,-0.019999999552965164,-0.0101318359375,0.01568603515625,1.0164794921875,35.779998779296875,0.0,1.0,-6.183135986328125,-1.89056396484375,Waiting,0.0,0.0,-19187.0,0.0,0.0,0.0,0.0,0.0,
1.6690499999999993,0.0,0.0,134432.0,0.0,0.0,0.0,0.0,0.375,0.8825682690000001,0.0,0.0,-102692.0,0.0,0.0,-0.0,0.0,0.25,0.457763625,0.0,0.0,179293.0,0.0,0.0,0.0,0.0,0.125,3.3239742690000003,0.0,0.0,-113920.0,0.125,0.0,-0.0,0.0,0.25,1.6540525650000002,0.0,0.0012207030000002117,0.7699999809265137,-0.6499999761581421,-0.019999999552965164,-0.01263427734375,0.01580810546875,1.02276611328125,35.779998779296875,0.0,0.0,-6.183135986328125,-1.89056396484375,Waiting,0.0,0.0,-19187.0,0.0,0.0,0.0,0.0,0.0,
1.6913100000000012,0.0,0.0,134432.0,0.0,0.0,0.0,0.0,0.375,0.877685457,0.0,0.0,-102692.0,0.0,0.0,-0.0,0.0,0.25,0.457763625,0.0,0.0,179293.0,0.0,0.0,0.0,0.0,0.125,3.3251949720000002,0.0,0.0,-113920.0,0.125,0.0,-0.0,0.0,0.25,1.6540525650000002,0.0,-0.0012207030000002117,0.7699999809265137,-0.6499999761581421,-0.019999999552965164,-0.0115966796875,0.0167236328125,1.01849365234375,35.779998779296875,0.0,0.0,-6.183135986328125,-1.89056396484375,Waiting,0.0,0.0,-19187.0,0.0,0.0,0.0,0.0,0.0,
1.7121059999999997,0.0,0.0,134432.0,0.0,0.0,0.0,0.0,0.375,0.877685457,0.0,0.0,-102692.0,0.0,0.0,-0.0,0.0,0.25,0.457763625,0.0,0.0,179293.0,0.0,0.0,0.0,0.0,0.125,3.3251949720000002,0.0,0.0,-113920.0,0.125,0.0,-0.0,0.0,0.25,1.6540525650000002,0.0,-0.0012207030000002117,0.7699999809265137,-0.6499999761581421,-0.009999999776482582,-0.01080322265625,0.0123291015625,1.01605224609375,35.779998779296875,0.0,0.0,-6.183135986328125,-1.89056396484375,Waiting,0.0,0.0,-19187.0,0.0,0.0,0.0,0.0,0.0,
1.7321280000000006,0.0,0.0,134432.0,0.0,0.0,0.0,0.0,0.375,0.877685457,0.0,-0.0012207029999999897,-102692.0,0.0,0.0,-0.0,0.0,0.25,0.457763625,0.0,0.0,179293.0,0.0,0.0,0.0,0.0,0.125,3.3239742690000003,0.0,0.0,-113920.0,0.125,0.0,-0.0,0.0,0.25,1.6540525650000002,0.0,0.0012207030000002117,0.7699999809265137,-0.6499999761581421,-0.009999999776482582,-0.009521484375,0.0150146484375,1.02056884765625,35.779998779296875,0.0,2.0,-6.183135986328125,-1.89056396484375,Waiting,0.0,0.0,-19187.0,0.0,0.0,0.0,0.0,0.0,
1.7530190000000003,0.0,0.0,134432.0,0.0,0.0,0.0,0.0,0.375,0.877685457,0.0,-0.0012207029999999897,-102692.0,0.0,0.0,-0.0,0.0,0.25,0.456542922,0.0,0.0,179293.0,0.0,0.0,0.0,0.0,0.125,3.3251949720000002,0.0,0.0,-113920.0,0.125,0.0,-0.0,0.0,0.25,1.6540525650000002,0.0,0.0012207030000002117,0.7699999809265137,-0.6499999761581421,-0.009999999776482582,-0.0113525390625,0.01226806640625,1.02166748046875,35.779998779296875,0.0,0.0,-6.183135986328125,-1.89056396484375,Waiting,0.0,0.0,-19187.0,0.0,0.0,0.0,0.0,0.0,
1.787058000000001,0.0,0.0,134432.0,0.0,0.0,0.0,0.0,0.375,0.877685457,0.0,0.0012207029999999897,-102692.0,0.0,0.0,-0.0,0.0,0.25,0.457763625,0.0,0.0,179293.0,0.0,0.0,0.0,0.0,0.125,3.3239742690000003,0.0,0.0,-113920.0,0.125,0.0,-0.0,0.0,0.25,1.6540525650000002,0.0,0.0,0.7699999809265137,-0.6499999761581421,-0.009999999776482582,-0.01300048828125,0.0157470703125,1.021728515625,35.779998779296875,0.0,-1.0,-6.183135986328125,-1.89056396484375,Waiting,0.0,0.0,-19187.0,0.0,0.0,0.0,0.0,0.0,
1.8086189999999989,0.0,0.0,134432.0,0.0,0.0,0.0,0.0,0.375,0.877685457,0.0,0.0012207029999999897,-102692.0,0.0,0.0,-0.0,0.0,0.25,0.457763625,0.0,0.0,179293.0,0.0,0.0,0.0,0.0,0.125,3.3251949720000002,0.0,0.0,-113920.0,0.125,0.0,-0.0,0.0,0.25,1.6540525650000002,0.0,0.0,0.7699999809265137,-0.6499999761581421,-0.009999999776482582,-0.0128173828125,0.01275634765625,1.025634765625,35.779998779296875,0.0,-1.0,-6.183135986328125,-1.89056396484375,Waiting,0.0,0.0,-19187.0,0.0,0.0,0.0,0.0,0.0,
1.8318660000000018,0.0,0.0,134432.0,0.0,0.0,0.0,0.0,0.25,0.8789061600000001,0.0,0.0,-102692.0,0.0,0.0,-0.0,0.0,0.25,0.457763625,0.0,0.0,179293.0,0.0,0.0,0.0,0.0,0.125,3.3251949720000002,0.0,0.0,-113920.0,0.125,0.0,-0.0,0.0,0.25,1.6540525650000002,0.0,0.0,0.7699999809265137,-0.6499999761581421,-0.009999999776482582,-0.013427734375,0.014892578125,1.02001953125,35.779998779296875,0.0,-1.0,-6.183135986328125,-1.89056396484375,Waiting,0.0,0.0,-19187.0,0.0,0.0,0.0,0.0,0.0,
1.8525519999999998,0.0,0.0,134432.0,0.0,0.0,0.0,0.0,0.25,0.877685457,0.0,0.0,-102692.0,0.0,0.0,-0.0,0.0,0.25,0.457763625,0.0,0.0,179293.0,0.0,0.0,0.0,0.0,0.125,3.3239742690000003,0.0,0.0,-113920.0,0.125,0.0,-0.0,0.0,0.25,1.6540525650000002,0.0,0.0,0.7699999809265137,-0.6399999856948853,-0.009999999776482582,-0.01171875,0.01214599609375,1.01715087890625,35.779998779296875,0.0,0.0,-6.183135986328125,-1.89056396484375,Waiting,0.0,0.0,-19187.0,0.0,0.0,0.0,0.0,0.0,
1.871684000000001,0.0,0.0,134432.0,0.0,0.0,0.0,0.0,0.25,0.877685457,0.0,0.0,-102692.0,0.0,0.0,-0.0,0.0,0.25,0.456542922,0.0,0.0,179293.0,0.0,0.0,0.0,0.0,0.125,3.3251949720000002,0.0,0.0,-113920.0,0.125,0.0,-0.0,0.0,0.25,1.6540525650000002,0.0,0.0,0.7699999809265137,-0.6399999856948853,-0.009999999776482582,-0.00927734375,0.01409912109375,1.02001953125,35.779998779296875,0.0,2.0,-6.183135986328125,-1.89056396484375,Waiting,0.0,0.0,-19187.0,0.0,0.0,0.0,0.0,0.0,
1.8947530000000006,0.0,0.0,134432.0,0.0,0.0,0.0,0.0,0.25,0.871581942,0.0,0.0,-102692.0,0.0,0.0,-0.0,0.0,0.25,0.456542922,0.0,0.0,179293.0,0.0,0.0,0.0,0.0,0.125,3.3239742690000003,0.0,0.0,-113920.0,0.125,0.0,-0.0,0.0,0.25,1.6540525650000002,0.0,0.0,0.7699999809265137,-0.6399999856948853,-0.009999999776482582,-0.012939453125,0.01470947265625,1.01983642578125,35.779998779296875,0.0,-1.0,-6.183135986328125,-1.89056396484375,Waiting,0.0,0.0,-19187.0,0.0,0.0,0.0,0.0,0.0,
1.9142469999999994,0.0,0.0,134432.0,0.0,0.0,0.0,0.0,0.25,0.8789061600000001,0.0,0.0,-102692.0,0.0,0.0,-0.0,0.0,0.25,0.457763625,0.0,0.0,179293.0,0.0,0.0,0.0,0.0,0.125,3.3239742690000003,0.0,0.0,-113920.0,0.125,0.0,-0.0,0.0,0.25,1.6552732680000002,0.0,0.0,0.7699999809265137,-0.6399999856948853,0.0,-0.00823974609375,0.01300048828125,1.02056884765625,35.779998779296875,0.0,3.0,-6.183135986328125,-1.89056396484375,Waiting,0.0,0.0,-19187.0,0.0,0.0,0.0,0.0,0.0,
1.9359789999999995,0.0,0.0,134432.0,0.0,0.0,0.0,0.0,0.375,0.8789061600000001,0.0,0.0012207030000001007,-102692.0,0.0,0.0,-0.0,0.0,0.25,0.457763625,0.0,0.0,179293.0,0.0,0.0,0.0,0.0,0.125,3.3251949720000002,0.0,0.0,-113920.0,0.125,0.0,-0.0,0.0,0.25,1.6540525650000002,0.0,0.0,0.7699999809265137,-0.6399999856948853,0.0,-0.0128173828125,0.0130615234375,1.01922607421875,35.779998779296875,0.0,-1.0,-6.183135986328125,-1.89056396484375,Waiting,0.0,0.0,-19187.0,0.0,0.0,0.0,0.0,0.0,
1.9586320000000015,0.0,0.0,134432.0,0.0,0.0,0.0,0.0,0.25,0.877685457,0.0,0.0012207030000001007,-102692.0,0.0,0.0,-0.0,0.0,0.25,0.457763625,0.0,0.0,179293.0,0.0,0.0,0.0,0.0,0.125,3.3239742690000003,0.0,0.0,-113920.0,0.125,0.0,-0.0,0.0,0.25,1.6540525650000002,0.0,0.0,0.7699999809265137,-0.6399999856948853,0.0,-0.01239013671875,0.01153564453125,1.01959228515625,35.790000915527344,0.0,0.0,-6.183135986328125,-1.89056396484375,Waiting,0.0,0.0,-19187.0,0.0,0.0,0.0,0.0,0.0,
1.9762299999999995,0.0,0.0,134432.0,0.0,0.0,0.0,0.0,0.25,0.877685457,0.0,-0.0012207030000001007,-102692.0,0.0,0.0,-0.0,0.0,0.25,0.457763625,0.0,0.0,179293.0,0.0,0.0,0.0,0.0,0.125,3.3239742690000003,0.0,0.0,-113920.0,0.125,0.0,-0.0,0.0,0.25,1.6540525650000002,0.0,0.0,0.7699999809265137,-0.6399999856948853,0.0,-0.00933837890625,0.0103759765625,1.016845703125,35.790000915527344,0.0,2.0,-6.183135986328125,-1.89056396484375,Waiting,0.0,0.0,-19187.0,0.0,0.0,0.0,0.0,0.0,
2.002159,0.0,0.0,134432.0,0.0,0.0,0.0,0.0,0.25,0.877685457,0.0,-0.0012207030000001007,-102692.0,0.0,0.0,-0.0,0.0,0.25,0.457763625,0.0,0.0,179293.0,0.0,0.0,0.0,0.0,0.125,3.3251949720000002,0.0,0.0,-113920.0,0.125,0.0,-0.0,0.0,0.25,1.6552732680000002,0.0,0.0,0.7699999809265137,-0.6399999856948853,0.0,-0.01226806640625,0.01507568359375,1.02081298828125,35.790000915527344,0.0,0.0,-6.183135986328125,-1.89056396484375,Waiting,0.0,0.0,-19187.0,0.0,0.0,0.0,0.0,0.0,
2.0213359999999994,0.0,0.0,134432.0,0.0,0.0,0.0,0.0,0.375,0.877685457,0.0,-0.0012207030000001007,-102692.0,0.0,0.0,-0.0,0.0,0.25,0.457763625,0.0,0.0,179293.0,0.0,0.0,0.0,0.0,0.125,3.3239742690000003,0.0,0.0,-113920.0,0.125,0.0,-0.0,0.0,0.25,1.6540525650000002,0.0,0.0,0.7699999809265137,-0.6399999856948853,0.0,-0.0098876953125,0.013671875,1.0198974609375,35.790000915527344,0.0,1.0,-6.183135986328125,-1.89056396484375,Waiting,0.0,0.0,-19187.0,0.0,0.0,0.0,0.0,0.0,
2.0470250000000014,0.0,0.0,134432.0,0.0,0.0,0.0,0.0,0.375,0.874023348,0.0,0.0,-102692.0,0.0,0.0,-0.0,0.0,0.25,0.457763625,0.0,0.0,179293.0,0.0,0.0,0.0,0.0,0.125,3.3251949720000002,0.0,0.0,-113920.0,0.125,0.0,-0.0,0.0,0.25,1.6540525650000002,0.0,0.0,0.7699999809265137,-0.6399999856948853,0.0,-0.01123046875,0.01141357421875,1.0174560546875,35.790000915527344,0.0,0.0,-6.183135986328125,-1.89056396484375,Waiting,0.0,0.0,-19187.0,0.0,0.0,0.0,0.0,0.0,
2.0682340000000003,0.0,0.0,134432.0,0.0,0.0,0.0,0.0,0.375,0.877685457,0.0,0.0,-102692.0,0.0,0.0,-0.0,0.0,0.25,0.457763625,0.0,0.0,179293.0,0.0,0.0,0.0,0.0,0.125,3.3239742690000003,0.0,0.0,-113920.0,0.125,0.0,-0.0,0.0,0.25,1.6540525650000002,0.0,0.0,0.7699999809265137,-0.6399999856948853,0.0,-0.0079345703125,0.01324462890625,1.01336669921875,35.790000915527344,0.0,3.0,-6.183135986328125,-1.89056396484375,Waiting,0.0,0.0,-19187.0,0.0,0.0,0.0,0.0,0.0,
2.09407,0.0,0.0,134432.0,0.0,0.0,0.0,0.0,0.375,0.8813475660000001,0.0,0.0,-102692.0,0.0,0.0,-0.0,0.0,0.25,0.457763625,0.0,0.0,179293.0,0.0,0.0,0.0,0.0,0.125,3.3264156750000002,0.0,0.0,-113920.0,0.125,0.0,-0.0,0.0,0.25,1.6552732680000002,0.0,-0.0012207030000002117,0.7699999809265137,-0.6399999856948853,0.0,-0.014404296875,0.013671875,1.02093505859375,35.790000915527344,0.0,-2.0,-6.183135986328125,-1.89056396484375,Waiting,0.0,0.0,-19187.0,0.0,0.0,0.0,0.0,0.0,
2.114376,0.0,0.0,134432.0,0.0,0.0,0.0,0.0,0.375,0.8789061600000001,0.0,0.0,-102692.0,0.0,0.0,-0.0,0.0,0.25,0.456542922,0.0,0.0,179293.0,0.0,0.0,0.0,0.0,0.125,3.3239742690000003,0.0,0.0,-113920.0,0.125,0.0,-0.0,0.0,0.25,1.6540525650000002,0.0,-0.0012207030000002117,0.7699999809265137,-0.6399999856948853,0.0,-0.01153564453125,0.01690673828125,1.0162353515625,35.790000915527344,0.0,0.0,-6.183135986328125,-1.89056396484375,Waiting,0.0,0.0,-19187.0,0.0,0.0,0.0,0.0,0.0,
2.1367750000000014,0.0,0.0,134432.0,0.0,0.0,0.0,0.0,0.375,0.875244051,0.0,0.0,-102692.0,0.0,0.0,-0.0,0.0,0.25,0.457763625,0.0,0.0,179293.0,0.0,0.0,0.0,0.0,0.125,3.3251949720000002,0.0,0.0,-113920.0,0.125,0.0,-0.0,0.0,0.25,1.651611159,0.0,0.0,0.7699999809265137,-0.6399999856948853,0.0,-0.0146484375,0.01373291015625,1.01312255859375,35.790000915527344,0.0,-3.0,-6.183135986328125,-1.89056396484375,Waiting,0.0,0.0,-19187.0,0.0,0.0,0.0,0.0,0.0,
2.159702000000001,0.0,0.0,134432.0,0.0,0.0,-347.14145496312074,0.0,0.375,0.8703612390000001,4.596667500853109,0.0,-102692.0,0.0,0.0,347.14145496312074,0.0,0.25,0.45288081300000005,4.625982556474402,0.0,179293.0,0.0,0.0,-347.14145496312074,0.0,0.125,3.3251949720000002,4.604246687637523,0.0,-113920.0,0.125,0.0,347.14145496312074,0.0,0.25,1.6552732680000002,4.620616019752588,0.0012207030000002117,0.7699999809265137,-0.6499999761581421,0.0,-0.0108642578125,0.01348876953125,1.01910400390625,35.790000915527344,0.0,0.0,-6.183135986328125,-1.89056396484375,Waiting,0.0,0.0,-19187.0,0.0,0.0,0.0,0.0,0.0,
2.1774170000000015,0.0,0.0,134432.0,0.125,0.0,-347.14145496312074,0.0,0.375,0.876464754,4.596667500853109,0.0,-102692.0,0.125,0.0,347.14145496312074,0.0,0.25,0.457763625,4.625982556474402,0.0,179293.0,0.125,0.0,-347.14145496312074,0.0,0.125,3.3251949720000002,4.604246687637523,0.0,-113920.0,0.375,0.0,347.14145496312074,0.0,0.25,1.6540525650000002,4.620616019752588,0.0,0.7699999809265137,-0.6499999761581421,0.0,-0.01165771484375,0.01654052734375,1.01898193359375,35.790000915527344,0.0,0.0,-6.183135986328125,-1.89056396484375,Waiting,0.0,0.0,-19187.0,0.0,0.0,0.0,0.0,0.0,
2.2060650000000024,0.0,0.0,134432.0,0.125,0.0,-555.1991022852861,0.0,1.0,0.836181555,4.632108952648869,-0.0024414059999999793,-102692.0,0.5,0.0,555.1991022852861,0.0,0.5,0.438232377,4.661650034653515,0.0,179293.0,0.375,0.0,-555.1991022852861,0.0,0.625,3.289794585,4.639746576851917,-0.0012207029999999897,-113920.0,0.5,0.0,555.1991022852861,0.0,0.25,1.639404129,4.656242120596381,0.0,0.7699999809265137,-0.6499999761581421,0.0,-0.00970458984375,0.0137939453125,1.01983642578125,35.790000915527344,0.0,1.0,-6.183135986328125,-1.89056396484375,Waiting,0.0,0.0,-19187.0,0.0,0.0,0.0,0.0,0.0,
2.227345000000001,0.0,0.0,134432.0,0.125,0.0,-657.3749003500473,0.0,1.25,0.7885741380000001,4.597602592625293,0.0,-102691.0,1.0,0.0,657.3749003500473,0.0,1.125,0.38940425700000003,4.6269236117554335,-0.030517574999999297,179293.0,0.375,0.0,-657.3749003500473,0.0,1.125,3.229980138,4.605183321229992,0.0,-113920.0,0.75,0.0,657.3749003500473,0.0,1.25,1.5808103850000002,4.621555983328741,-0.015869138999999866,0.7699999809265137,-0.6499999761581421,0.0,-0.024169921875,0.007568359375,1.0167236328125,35.790000915527344,0.0,-12.0,-6.183135986328125,-1.89056396484375,Waiting,0.0,0.0,-19187.0,0.0,0.0,0.0,0.0,0.0,
2.251406999999999,0.0,0.0,134432.0,0.375,-15.0,-776.3524541531222,0.0,1.5,0.74462883,4.617256109247524,4.876333037999999,-102691.0,1.5,15.0,776.3524541531222,0.0,1.125,0.33569332500000004,4.646702467861721,-0.05859374400000039,179293.0,0.625,0.0,-776.3524541531222,0.0,1.375,3.189696939,4.624869243431575,4.885702741,-113920.0,1.125,0.0,776.3524541531222,0.0,1.375,1.5295408590000001,4.641311894264719,4.902082038,0.7699999809265137,-0.6600000262260437,0.0,-0.0189208984375,0.05792236328125,1.0220947265625,35.790000915527344,0.0,-7.0,-6.183135986328125,-1.890533447265625,Waiting,0.0,0.0,-19187.0,0.0,0.0,0.0,0.0,0.0,
2.2705470000000023,0.0,0.0,134432.0,0.625,-30.0,-791.524351726596,0.0,0.75,0.69580071,4.623854024728545,-0.051269525999999566,-102691.0,2.125,52.5,791.524351726596,0.0,0.875,0.302734344,4.653342461274042,-0.04760741700000004,179293.0,1.0,0.0,-791.524351726596,0.0,1.0,3.135986007,4.6314780378447375,-0.05004882300000002,-113920.0,1.875,0.0,791.524351726596,0.0,0.875,1.4794920360000001,4.647944184714903,-0.053710931999999545,0.7699999809265137,-0.6899999976158142,0.0,-0.0430908203125,-0.07672119140625,1.03692626953125,35.790000915527344,0.0,-30.0,-6.1832733154296875,-1.8904571533203125,Waiting,0.0,0.0,-19187.0,0.0,0.0,0.0,0.0,0.0,
2.295114000000001,0.0,0.0,134419.0,1.625,-60.0,-843.594696081376,0.0,0.625,0.650634699,4.628008499374844,-0.04272460500000008,-102691.0,3.625,97.5,843.594696081376,0.0,0.5,0.25634763,4.657523430909442,-0.04272460500000008,179293.0,1.75,0.0,-843.594696081376,0.0,0.5,3.07617156,4.635639362570867,-0.053710931999999545,-113920.0,3.125,15.0,843.594696081376,0.0,0.625,1.412353371,4.652120304066755,0.0,0.75,-0.800000011920929,0.019999999552965164,-0.177734375,-0.04400634765625,0.83197021484375,35.790000915527344,0.0,-165.0,-6.1840362548828125,-1.890380859375,Waiting,0.0,0.0,-19187.0,0.0,0.0,0.0,0.0,0.0,
2.3152649999999992,0.0,0.0,134419.0,2.5,-82.5,-982.4015696904161,0.0,0.5,0.623779233,4.67465669275181,-0.03906249599999967,-102691.0,4.75,135.0,982.4015696904161,0.0,0.5,0.225830055,4.7044691211976435,-0.03662108999999969,179293.0,2.625,-15.0,-982.4015696904161,0.0,0.375,3.046874688,4.682364471533025,-0.03906249600000056,-113920.0,4.375,22.5,982.4015696904161,0.0,0.625,1.383056499,4.699011533325805,-0.053710931999999545,0.75,-0.8999999761581421,0.029999999329447746,-0.105224609375,0.1395263671875,1.060791015625,35.790000915527344,0.0,-88.0,-6.184722900390625,-1.890289306640625,Waiting,0.0,0.0,-19187.0,0.0,0.0,0.0,0.0,0.0,
2.342464,0.0,0.0,134419.0,3.625,-97.5,-975.8871104978708,0.0,0.5,0.596923767,4.796359476336985,-0.023193357000000248,-102665.0,6.375,142.5,975.8871104978708,0.0,0.25,0.206298807,4.826948059218483,0.0,179282.0,3.5,-30.0,-975.8871104978708,0.0,0.25,3.028564143,4.804267924000341,-0.02441406000000068,-113915.0,5.375,22.5,975.8871104978708,0.0,0.5,1.3696287660000002,4.821348385268604,0.0,0.800000011920929,-1.0800000429153442,0.10999999940395355,-0.2188720703125,0.05340576171875,1.0625,35.790000915527344,0.0,-198.0,-6.186614990234375,-1.8898162841796875,Waiting,0.0,0.0,-19187.0,0.0,0.0,0.0,0.0,0.0,
2.36482,0.0,0.0,134419.0,4.375,-97.5,-970.3551158588199,0.0,0.375,0.589599549,4.823602083025597,-0.01586913900000031,-102665.0,7.625,150.0,970.3551158588199,0.0,0.25,0.206298807,4.854364404497106,-0.014648435999999876,179282.0,4.5,-60.0,-970.3551158588199,0.0,0.25,3.022460628,4.831555449492533,-0.02075195099999938,-113915.0,5.75,52.5,970.3551158588199,0.0,0.25,1.3696287660000002,4.848732925234103,-0.013427732999999442,0.8500000238418579,-1.1100000143051147,0.15000000596046448,-0.0880126953125,0.09832763671875,0.77392578125,35.790000915527344,0.0,-72.0,-6.1878509521484375,-1.88946533203125,Waiting,0.0,0.0,-19187.0,0.0,0.0,0.0,0.0,0.0,
2.389125,0.0,0.0,134419.0,5.25,-112.5,-1033.5643031796815,0.0,0.375,0.58593744,4.844153357380316,0.0,-102665.0,8.875,135.0,1033.5643031796815,0.0,0.25,0.206298807,4.875046743748445,0.0,179282.0,5.375,-82.5,-1033.5643031796815,0.0,0.125,3.018798519,4.852140609688889,0.0,-113915.0,5.75,112.5,1033.5643031796815,0.0,0.375,1.376952984,4.869391271197156,0.0,0.9700000286102295,-1.3300000429153442,0.18000000715255737,-0.37762451171875,0.22003173828125,0.88946533203125,35.790000915527344,0.0,-356.0,-6.1908416748046875,-1.888580322265625,Waiting,0.0,0.0,-19187.0,0.0,0.0,0.0,0.0,0.0,
2.409546000000002,0.0,0.0,134390.0,6.25,-135.0,-1099.2026298710214,0.0,0.375,0.58593744,4.8505756834734415,0.0,-102665.0,10.125,135.0,1099.2026298710214,0.0,0.25,0.205078104,4.88151002795886,-0.0012207029999995456,179282.0,6.0,-120.0,-1099.2026298710214,0.0,0.0,3.022460628,4.8585735251946796,-0.004882811999999959,-113915.0,6.375,187.5,1099.2026298710214,0.0,0.375,1.378173687,4.87584705744327,0.004882811999999959,1.0199999809265137,-1.5499999523162842,0.18000000715255737,-0.13079833984375,0.13848876953125,1.3236083984375,35.790000915527344,0.0,-94.0,-6.1927947998046875,-1.8878631591796875,Waiting,0.0,0.0,-19187.0,0.0,0.0,0.0,0.0,0.0,
2.4300920000000006,0.0,0.0,134390.0,7.0,-172.5,-1197.7640902050323,0.0,0.375,0.611572203,4.858355501525976,0.0,-102665.0,11.25,157.5,1197.7640902050323,0.0,0.25,0.206298807,4.88933946147714,0.0,179282.0,6.375,-150.0,-1197.7640902050323,0.0,0.0,3.037109064,4.866366170952101,0.0,-113915.0,7.125,255.0,1197.7640902050323,0.0,0.375,1.3745115780000001,4.883667408146824,0.0,1.159999966621399,-1.6100000143051147,0.10999999940395355,-0.16326904296875,0.14215087890625,0.73992919921875,35.790000915527344,0.0,-142.0,-6.1971435546875,-1.88616943359375,Waiting,0.0,0.0,-19187.0,0.0,0.0,0.0,0.0,0.0,
2.452135000000002,0.0,0.0,134390.0,7.875,-217.5,-1493.9655669121687,0.0,0.375,0.6066893910000001,4.874567854287251,0.014648435999999876,-102665.0,12.375,210.0,1493.9655669121687,0.0,0.25,0.216064431,4.905655207843208,0.006103515000000392,179282.0,7.125,-187.5,-1493.9655669121687,0.0,0.125,3.0517575000000003,4.882605255350974,0.012207029999999897,-113859.0,8.625,307.5,1493.9655669121687,0.0,0.375,1.365966657,4.89996422684705,-0.01342773300000033,1.2400000095367432,-1.8600000143051147,0.10000000149011612,-0.27581787109375,0.0106201171875,1.19482421875,35.790000915527344,0.0,-236.0,-6.1996612548828125,-1.8852081298828125,Waiting,0.0,0.0,-19187.0,0.0,0.0,0.0,0.0,0.0,
2.4712000000000005,0.0,0.0,134390.0,9.5,-255.0,-1609.2981213761584,0.0,0.375,0.6091307970000001,4.879400879217426,-0.0012207030000004337,-102612.0,14.0,270.0,1609.2981213761584,0.0,0.25,0.216064431,4.91051905518867,0.003662108999999525,179237.0,8.375,-225.0,-1609.2981213761584,0.0,0.0,3.066405936,4.88744624918442,0.01586913900000031,-113859.0,9.5,337.5,1609.2981213761584,0.0,0.375,1.361083845,4.904822431712225,-0.003662108999999525,1.25,-2.049999952316284,0.09000000357627869,-0.199951171875,0.02850341796875,1.0308837890625,35.790000915527344,0.0,-162.0,-6.20245361328125,-1.884246826171875,Waiting,0.0,0.0,-19187.0,0.0,0.0,0.0,0.0,0.0,
2.493524000000001,0.0,0.0,134390.0,11.625,-307.5,-1609.2981213761584,0.0,0.375,0.628662045,4.879400879217426,0.01586913900000031,-102612.0,16.875,337.5,1609.2981213761584,0.0,0.25,0.214843728,4.91051905518867,-0.0012207029999995456,179237.0,11.625,-315.0,-1609.2981213761584,0.0,0.0,3.078612966,4.88744624918442,0.019531247999999835,-113859.0,11.25,367.5,1609.2981213761584,0.0,0.25,1.3745115780000001,4.904822431712225,0.0,1.409999966621399,-2.2899999618530273,0.10999999940395355,-0.360107421875,-0.10491943359375,1.05548095703125,35.779998779296875,0.0,-317.0,-6.2089385986328125,-1.882110595703125,Waiting,0.0,0.0,-19187.0,0.0,0.0,0.0,0.0,0.0,
2.5144049999999987,0.0,0.0,134390.0,13.375,-367.5,-1690.5824726682292,0.0,0.375,0.640869075,4.821130602338816,0.014648435999999876,-102612.0,19.625,397.5,1690.5824726682292,0.0,0.25,0.22094724300000002,4.851877162045136,0.0012207029999995456,179237.0,11.625,-315.0,-1690.5824726682292,0.0,0.0,3.085937184,4.829079893720104,0.008544920999999484,-113859.0,13.125,397.5,1690.5824726682292,0.0,0.25,1.387939311,4.846248568196808,0.010986327000000351,1.3799999952316284,-2.490000009536743,0.12999999523162842,-0.2210693359375,0.2899169921875,1.12188720703125,35.779998779296875,0.0,-171.0,-6.21270751953125,-1.880950927734375,Waiting,0.0,0.0,-19187.0,0.0,0.0,0.0,0.0,0.0,
2.5354650000000003,0.0,0.0,134308.0,14.875,-442.5,-1690.5824726682295,0.0,0.25,0.653076105,4.821405171781537,0.0,-102612.0,22.0,465.0,1690.5824726682295,0.0,0.25,0.216064431,4.852153482543047,0.0,179237.0,14.375,-412.5,-1690.5824726682295,0.0,0.0,3.090819996,4.829354915884953,0.0,-113859.0,15.0,457.5,1690.5824726682295,0.0,0.25,1.408691262,4.8465245681392295,0.0,1.4900000095367432,-2.7799999713897705,0.20000000298023224,-0.29248046875,0.21368408203125,0.89068603515625,35.779998779296875,0.0,-248.0,-6.2213287353515625,-1.8775787353515625,Waiting,0.0,0.0,-19187.0,0.0,0.0,0.0,0.0,0.0,
2.5563830000000016,0.0,0.0,134308.0,15.25,-517.5,-1690.5824726682292,0.0,0.25,0.662841729,4.822366165137914,0.010986326999999463,-102612.0,23.0,532.5,1690.5824726682292,0.0,0.25,0.216064431,4.8531206045945465,0.0,179237.0,14.625,-450.0,-1690.5824726682292,0.0,0.125,3.1005856200000004,4.830317493769282,0.008544920999999484,-113859.0,16.375,532.5,1690.5824726682292,0.0,0.375,1.418456886,4.847490568246161,0.017089842000000743,1.5299999713897705,-2.950000047683716,0.23999999463558197,-0.15972900390625,0.0477294921875,0.95501708984375,35.779998779296875,0.0,-110.0,-6.22607421875,-1.875579833984375,Waiting,0.0,0.0,-19187.0,0.0,0.0,0.0,0.0,0.0,
2.5752580000000016,0.0,0.0,134308.0,15.75,-600.0,-1525.5886317558125,0.0,0.375,0.662841729,4.88627706803468,0.004882811999999959,-102612.0,23.875,607.5,1525.5886317558125,0.0,0.25,0.21362302500000002,4.91743909661384,0.0,179156.0,14.625,-487.5,-1525.5886317558125,0.0,0.125,3.1005856200000004,4.8943337757630845,0.0,-113752.0,16.25,607.5,1525.5886317558125,0.0,0.375,1.4196775890000002,4.911734445295532,0.009765623999999917,1.7300000190734863,-3.299999952316284,0.3100000023841858,-0.2091064453125,-0.1441650390625,1.4813232421875,35.779998779296875,0.0,-124.0,-6.2362518310546875,-1.871246337890625,Waiting,0.0,0.0,-19187.0,0.0,0.0,0.0,0.0,0.0,
2.600607,0.0,0.0,134308.0,15.125,-675.0,-1422.0471918582919,0.0,0.25,0.662841729,0.0042558272827288935,-0.0012207029999995456,-102493.0,23.875,682.5,1422.0471918582919,0.0,0.25,0.216064431,0.004282968644048733,0.0,179156.0,14.625,-517.5,-1422.0471918582919,0.0,0.125,3.0993649170000004,0.004262844477227304,0.0,-113752.0,15.625,675.0,1422.0471918582919,0.0,0.375,1.436767431,0.00427800003289941,0.010986326999999463,1.6299999952316284,-3.4800000190734863,0.33000001311302185,-0.30706787109375,0.07977294921875,0.9945068359375,35.779998779296875,0.0,-245.0,-6.24169921875,-1.8691558837890625,Waiting,0.0,0.0,-19187.0,0.0,0.0,0.0,0.0,0.0,
2.620690999999999,0.0,0.0,134308.0,14.125,-750.0,-1372.44091629982,0.0,0.25,0.662841729,0.004530396930019451,0.004882811999999959,-102493.0,22.25,772.5,1372.44091629982,0.0,0.25,0.216064431,0.004559289347834184,0.0,179156.0,14.625,-517.5,-1372.44091629982,0.0,0.0,3.1103512440000003,0.004537866846982942,0.0,-113752.0,14.5,750.0,1372.44091629982,0.0,0.375,1.441650243,0.004554000180957348,0.007324217999999938,1.5,-3.5199999809265137,0.36000001430511475,-0.14886474609375,0.10888671875,0.5048828125,35.779998779296875,0.0,-116.0,-6.247406005859375,-1.866973876953125,Waiting,0.0,0.0,-19187.0,0.0,0.0,0.0,0.0,0.0,
2.6443719999999993,0.0,0.0,134161.0,12.75,-817.5,-1355.9054911136627,0.0,0.375,0.676269462,0.005491390081824966,0.0024414059999999793,-102493.0,19.875,855.0,1355.9054911136627,0.0,0.5,0.216064431,0.005526411193457912,0.0,179156.0,14.25,-577.5,-1355.9054911136627,0.0,0.125,3.118896165,0.005500444526404327,0.009765623999999917,-113752.0,13.25,817.5,1355.9054911136627,0.0,0.375,1.455077976,0.005520000082251272,0.0,1.7300000190734863,-3.7799999713897705,0.44999998807907104,-0.3035888671875,0.07501220703125,1.3509521484375,35.779998779296875,0.0,-213.0,-6.2592926025390625,-1.8624267578125,Waiting,0.0,0.0,-19187.0,0.0,0.0,0.0,0.0,0.0,
2.6673410000000004,0.0,0.0,134161.0,11.75,-885.0,-1339.3700659275055,0.0,0.375,0.692138601,0.006177813586341483,0.010986326999999463,-102493.0,17.625,930.0,1339.3700659275055,0.0,0.5,0.22094724300000002,0.006217212335297758,0.0012207030000004337,179156.0,14.0,-607.5,-1339.3700659275055,0.0,0.125,3.139648116,0.006187999836071637,0.014648435999999876,-113752.0,12.5,885.0,1339.3700659275055,0.0,0.375,1.469726412,0.006209999835488827,0.010986326999999463,1.7200000286102295,-3.869999885559082,0.5099999904632568,-0.281005859375,0.02313232421875,0.93804931640625,35.779998779296875,0.0,-216.0,-6.265625,-1.8601226806640625,Waiting,0.0,0.0,-19187.0,0.0,0.0,0.0,0.0,0.0,
2.6914550000000017,0.0,0.0,134161.0,10.875,-945.0,-1339.3700659275055,0.0,0.375,0.705566334,0.007550661413653053,0.01586913900000031,-102493.0,14.625,1057.5,1339.3700659275055,0.0,0.75,0.229492164,0.007598815442474522,0.0,179156.0,14.25,-637.5,-1339.3700659275055,0.0,0.125,3.1689449880000002,0.007563111275034003,0.021972653999998926,-113592.0,11.875,982.5,1339.3700659275055,0.0,0.375,1.490478363,0.007590000164505682,0.0,1.7799999713897705,-3.9700000286102295,0.6100000143051147,-0.09124755859375,-0.17706298828125,1.212158203125,35.779998779296875,0.0,-9.0,-6.2786865234375,-1.855804443359375,Waiting,0.0,0.0,-19187.0,0.0,0.0,0.0,0.0,0.0,
2.7126409999999996,0.0,0.0,134161.0,10.125,-997.5,-1339.3700659275055,0.0,0.375,0.72021477,0.008923508422685307,0.017089841999999855,-102312.0,13.625,1102.5,1339.3700659275055,0.0,0.75,0.234374976,0.008980417726153428,0.004882811999999959,179045.0,14.25,-675.0,-1339.3700659275055,0.0,0.125,3.177489909,0.00893822189436784,0.02441406000000068,-113592.0,11.125,1027.5,1339.3700659275055,0.0,0.375,1.5026853930000001,0.008969999670980007,0.01586913900000031,1.690000057220459,-4.179999828338623,0.699999988079071,-0.322021484375,-0.41156005859375,0.9686279296875,35.779998779296875,0.0,-255.0,-6.292327880859375,-1.852203369140625,Waiting,0.0,0.0,-19187.0,0.0,0.0,0.0,0.0,0.0,
