Time,ClimberA1,ClimberA2,CameraExists,HeapSpace,LoopTime,FRpos,FRCurrent,FRspeed,FRsetpoint,FRApos,FRACurrent,FREncpos,FREncSetpoint,FREncSpeed,FLpos,FLCurrent,FLspeed,FLsetpoint,FLApos,FLACurrent,FLEncpos,FLEncSetpoint,FLEncSpeed,BRpos,BRCurrent,BRspeed,BRsetpoint,BRApos,BRACurrent,BREncpos,BREncSetpoint,BREncSpeed,BLpos,BLCurrent,BLspeed,BLsetpoint,BLApos,BLACurrent,BLEncpos,BLEncSetpoint,BLEncSpeed,navx_Pitch,navx_Roll,navx_Yaw,navx_XAcc,navx_YAcc,navx_ZAcc,navx_Temp,navx_Bar,navx_Alt,navx_XDis,navx_YDis,GearPlacerState,ShootOutputV,ShootOutputCurrent,ShootEncPos,ShootEncVelocity,ShootSpeed,ShootSetpoint,CarouselSetpoint,CarouselCurrent,
0.46500499999988826,0.0,0.0,false,6459739.397849462,,0.0,0.0,0.0,0.0,0.0,0.0,1.8457029360000001,0.0,0.008482233000000505,9.0,0.0,0.0,-0.0,0.0,0.0,2.66113254,0.0,4.910132539999999,-1.0,0.0,0.0,0.0,0.0,0.0,3.97949178,0.0,4.9034917799999995,8.0,0.0,0.0,-0.0,0.0,0.0,2.564697003,0.0,0.024697002999999995,70.08999633789062,2.2200000286102295,-11.130000114440918,0.03802490234375,0.99603271484375,0.3463134765625,34.18000030517578,0.0,-7.0,-0.0529632568359375,0.0149078369140625,Waiting,0.0,0.0,0.0,0.0,0.0,0.0,0.0,0.0,
0.4969589999997988,0.0,0.0,false,6462236.449197861,,0.0,0.0,0.0,0.0,0.0,0.0,1.8457029360000001,0.0,0.0,9.0,0.0,0.0,-0.0,0.0,0.0,2.66113254,0.0,0.0,-1.0,0.0,0.0,0.0,0.0,0.0,3.97949178,0.0,0.0,8.0,0.0,0.0,-0.0,0.0,0.0,2.565917706,0.0,0.0,70.08999633789062,2.2200000286102295,-11.130000114440918,0.01336669921875,0.9261474609375,0.3515625,34.18000030517578,0.0,-15.0,-0.0529632568359375,0.014862060546875,Waiting,0.0,0.0,0.0,0.0,0.0,0.0,0.0,0.0,
0.5290769999995828,0.0,0.0,false,6464568.127659574,,0.0,0.0,0.0,0.0,0.0,0.0,1.8457029360000001,0.0,0.0,9.0,0.0,0.0,-0.0,0.0,0.0,2.662353243,0.0,0.0,-1.0,0.0,0.0,0.0,0.0,0.0,4.000243731,0.0,0.0,8.0,0.0,0.0,-0.0,0.0,0.0,2.564697003,0.0,0.0,70.0999984741211,2.2300000190734863,-11.130000114440918,0.0283203125,0.9019775390625,0.35333251953125,34.18000030517578,0.0,3.0,-0.0529632568359375,0.0146942138671875,Waiting,0.0,0.0,0.0,0.0,0.0,0.0,0.0,0.0,
0.5627969999997876,0.0,0.0,false,6466736.973544974,,0.0,0.0,0.0,0.0,0.0,0.0,1.8457029360000001,0.0,0.0,9.0,0.0,0.0,-0.0,0.0,0.0,2.66113254,0.0,0.0,-1.0,0.0,0.0,0.0,0.0,0.0,3.97949178,0.0,-0.0012207029999995456,8.0,0.0,0.0,-0.0,0.0,0.0,2.564697003,0.0,0.0,70.08999633789062,2.2200000286102295,-11.119999885559082,0.05145263671875,0.95745849609375,0.322021484375,34.18000030517578,0.0,2.0,-0.0529632568359375,0.0144500732421875,Waiting,0.0,0.0,0.0,0.0,0.0,0.0,0.0,0.0,
0.5868149999999441,0.0,0.0,false,6468565.978947368,,0.0,0.0,0.0,0.0,0.0,0.0,1.8457029360000001,0.0,0.0,9.0,0.0,0.0,-0.0,0.0,0.0,2.662353243,0.0,0.0,-1.0,0.0,0.0,0.0,0.0,0.0,3.97949178,0.0,0.0012207029999995456,8.0,0.0,0.0,-0.0,0.0,0.0,2.564697003,0.0,-0.0012207029999999897,70.08999633789062,2.2100000381469727,-11.119999885559082,0.06060791015625,1.0076904296875,0.33819580078125,34.18000030517578,0.0,7.0,-0.0529632568359375,0.0142974853515625,Waiting,0.0,0.0,0.0,0.0,0.0,0.0,0.0,0.0,
0.6208349999999627,0.0,0.0,false,6470212.90052356,,0.0,0.0,0.0,0.0,0.0,0.125,1.8444822330000001,0.0,0.0012207030000004337,9.0,0.0,0.0,-0.0,0.0,0.0,2.66113254,0.0,0.0,-1.0,0.0,0.0,0.0,0.0,0.0,3.980712483,0.0,0.0012207029999995456,8.0,0.0,0.0,-0.0,0.0,0.0,2.564697003,0.0,-0.0012207029999999897,70.0999984741211,2.2200000286102295,-11.119999885559082,0.03387451171875,0.97998046875,0.3555908203125,34.18000030517578,0.0,-4.0,-0.0529632568359375,0.0142822265625,Waiting,0.0,0.0,0.0,0.0,0.0,0.0,0.0,0.0,
0.6580370000000112,0.0,0.0,false,6471706.666666667,,0.0,0.0,0.0,0.0,0.0,0.0,1.8457029360000001,0.0,-0.0012207030000004337,9.0,0.0,0.0,-0.0,0.0,0.0,2.66113254,0.0,0.0,-1.0,0.0,0.0,0.0,0.0,0.0,3.980712483,0.0,0.0,8.0,0.0,0.0,-0.0,0.0,0.0,2.564697003,0.0,0.0012207029999999897,70.0999984741211,2.2200000286102295,-11.119999885559082,0.0101318359375,0.90924072265625,0.344482421875,34.18000030517578,0.0,-17.0,-0.0529632568359375,0.0141754150390625,Waiting,0.0,0.0,0.0,0.0,0.0,0.0,0.0,0.0,
0.685836999999825,0.0,0.0,false,6472914.445595855,,0.0,0.0,0.0,0.0,0.0,0.0,1.8457029360000001,0.0,-0.0012207030000004337,9.0,0.0,0.0,-0.0,0.0,0.0,2.66113254,0.0,0.0,-1.0,0.0,0.0,0.0,0.0,0.0,3.97949178,0.0,0.0,8.0,0.0,0.0,-0.0,0.0,0.0,2.564697003,0.0,0.0,70.08000183105469,2.2200000286102295,-11.130000114440918,0.04473876953125,0.941162109375,0.32562255859375,34.18000030517578,0.0,0.0,-0.0529632568359375,0.0137939453125,Waiting,0.0,0.0,0.0,0.0,0.0,0.0,0.0,0.0,
0.7201869999999181,0.0,0.0,false,6473949.360824742,,0.0,0.0,0.0,0.0,0.0,0.0,1.8432615300000001,0.0,0.0,9.0,0.0,0.0,-0.0,0.0,0.0,2.66113254,0.0,0.0,-1.0,0.0,0.0,0.0,0.0,0.0,3.980712483,0.0,0.0,8.0,0.0,0.0,-0.0,0.0,0.0,2.564697003,0.0,0.0,70.08000183105469,2.2100000381469727,-11.119999885559082,0.06610107421875,0.984619140625,0.342529296875,34.16999816894531,0.0,18.0,-0.0529632568359375,0.0136871337890625,Waiting,0.0,0.0,0.0,0.0,0.0,0.0,0.0,0.0,
0.7419219999997877,0.0,0.0,false,6474839.835897435,,0.0,0.0,0.0,0.0,0.0,0.0,1.8457029360000001,0.0,0.0,9.0,0.0,0.0,-0.0,0.0,0.0,2.662353243,0.0,0.0,-1.0,0.0,0.0,0.0,0.0,0.0,3.980712483,0.0,0.0,8.0,0.0,0.0,-0.0,0.0,0.0,2.564697003,0.0,0.0,70.08999633789062,2.2100000381469727,-11.119999885559082,0.05230712890625,1.0089111328125,0.33587646484375,34.16999816894531,0.0,0.0,-0.0529632568359375,0.013580322265625,Waiting,0.0,0.0,0.0,0.0,0.0,0.0,0.0,0.0,
0.7671999999997205,0.0,0.0,false,6475454.530612245,,0.0,0.0,0.0,0.0,0.0,0.125,1.8457029360000001,0.0,0.0012207030000004337,9.0,0.0,0.0,-0.0,0.0,0.0,2.662353243,0.0,0.0,-1.0,0.0,0.0,0.0,0.0,0.0,3.980712483,0.0,0.0,8.0,0.0,0.0,-0.0,0.0,0.0,2.564697003,0.0,0.0,70.0999984741211,2.2200000286102295,-11.130000114440918,0.0238037109375,0.94757080078125,0.34613037109375,34.16999816894531,0.0,-11.0,-0.0529632568359375,0.0135498046875,Waiting,0.0,0.0,0.0,0.0,0.0,0.0,0.0,0.0,
0.7977119999998249,0.0,0.0,false,6475930.517766497,,0.0,0.0,0.0,0.0,0.0,0.125,1.8444822330000001,0.0,-0.0012207030000004337,9.0,0.0,0.0,-0.0,0.0,0.0,2.66113254,0.0,0.0,-1.0,0.0,0.0,0.0,0.0,0.0,3.980712483,0.0,0.0,8.0,0.0,0.0,-0.0,0.0,0.0,2.564697003,0.0,0.0,70.0999984741211,2.2200000286102295,-11.130000114440918,0.02557373046875,0.89666748046875,0.351806640625,34.16999816894531,0.0,1.0,-0.0529632568359375,0.0134429931640625,Waiting,0.0,0.0,0.0,0.0,0.0,0.0,0.0,0.0,
0.826246999999974,0.0,0.0,false,6476244.606060606,,0.0,0.0,0.0,0.0,0.0,0.0,1.8457029360000001,0.0,-0.0012207030000004337,9.0,0.0,0.0,-0.0,0.0,0.0,2.662353243,0.0,0.0,-1.0,0.0,0.0,0.0,0.0,0.0,3.980712483,0.0,0.0,8.0,0.0,0.0,-0.0,0.0,0.0,2.564697003,0.0,0.0,70.08000183105469,2.2300000190734863,-11.140000343322754,0.043212890625,0.93853759765625,0.32861328125,34.16999816894531,0.0,0.0,-0.0529632568359375,0.013214111328125,Waiting,0.0,0.0,0.0,0.0,0.0,0.0,0.0,0.0,
0.8502009999998845,0.0,0.0,false,6476293.266331659,,0.0,0.0,0.0,0.0,0.0,0.0,1.8457029360000001,0.0,0.0,9.0,0.0,0.0,-0.0,0.0,0.0,2.662353243,0.0,0.0,-1.0,0.0,0.0,0.0,0.0,0.0,3.97949178,0.0,0.0,8.0,0.0,0.0,-0.0,0.0,0.0,2.567138409,0.0,0.0,70.08999633789062,2.2200000286102295,-11.130000114440918,0.06689453125,0.981201171875,0.33734130859375,34.16999816894531,0.0,17.0,-0.0529632568359375,0.0131072998046875,Waiting,0.0,0.0,0.0,0.0,0.0,0.0,0.0,0.0,
0.8795569999995642,0.0,0.0,false,6476210.96,,0.0,0.0,0.0,0.0,0.0,0.0,1.8457029360000001,0.0,0.0,9.0,0.0,0.0,-0.0,0.0,0.0,2.66113254,0.0,0.0,-1.0,0.0,0.0,0.0,0.0,0.0,3.978271077,0.0,0.0,8.0,0.0,0.0,-0.0,0.0,0.0,2.559814191,0.0,0.0,70.08000183105469,2.2200000286102295,-11.140000343322754,0.062255859375,1.0081787109375,0.34228515625,34.16999816894531,0.0,10.0,-0.0529632568359375,0.0130462646484375,Waiting,0.0,0.0,0.0,0.0,0.0,0.0,0.0,0.0,
0.9081019999999553,0.0,0.0,false,6475999.641791045,,0.0,0.0,0.0,0.0,0.0,0.0,1.848144342,0.0,0.0,9.0,0.0,0.0,-0.0,0.0,0.0,2.659911837,0.0,0.0,-1.0,0.0,0.0,0.0,0.0,0.0,3.97949178,0.0,0.0,8.0,0.0,0.0,-0.0,0.0,0.0,2.564697003,0.0,-0.0012207029999999897,70.08000183105469,2.2200000286102295,-11.140000343322754,0.02294921875,0.9493408203125,0.34326171875,34.16999816894531,0.0,-14.0,-0.0529632568359375,0.0130157470703125,Waiting,0.0,0.0,0.0,0.0,0.0,0.0,0.0,0.0,
0.9358199999998323,0.0,0.0,false,6475661.227722772,,0.0,0.0,0.0,0.0,0.0,0.0,1.8444822330000001,0.0,0.0,9.0,0.0,0.0,-0.0,0.0,0.0,2.66113254,0.0,0.0,-1.0,0.0,0.0,0.0,0.0,0.0,3.97949178,0.0,0.0,8.0,0.0,0.0,-0.0,0.0,0.0,2.564697003,0.0,-0.0012207029999999897,70.08999633789062,2.2200000286102295,-11.130000114440918,0.02459716796875,0.8968505859375,0.34954833984375,34.16999816894531,0.0,0.0,-0.0530242919921875,0.0129852294921875,Waiting,0.0,0.0,0.0,0.0,0.0,0.0,0.0,0.0,
0.9653319999999367,0.0,0.0,false,6475044.3743842365,,0.0,0.0,0.0,0.0,0.0,0.0,1.848144342,0.0,0.0,9.0,0.0,0.0,-0.0,0.0,0.0,2.662353243,0.0,0.0,-1.0,0.0,0.0,0.0,0.0,0.0,3.97949178,0.0,-0.0012207029999995456,8.0,0.0,0.0,-0.0,0.0,0.0,2.564697003,0.0,0.0,70.08000183105469,2.2200000286102295,-11.130000114440918,0.036376953125,0.91571044921875,0.34326171875,34.16999816894531,0.0,4.0,-0.0530548095703125,0.0129241943359375,Waiting,0.0,0.0,0.0,0.0,0.0,0.0,0.0,0.0,
0.9880839999997988,0.0,0.0,false,6474305.647058823,,0.0,0.0,0.0,0.0,0.0,0.0,1.8457029360000001,0.0,0.0,9.0,0.0,0.0,-0.0,0.0,0.0,2.66113254,0.0,0.0,-1.0,0.0,0.0,0.0,0.0,0.0,3.97949178,0.0,0.0012207029999995456,8.0,0.0,0.0,-0.0,0.0,0.0,2.564697003,0.0,0.0012207029999999897,70.08999633789062,2.2100000381469727,-11.119999885559082,0.0650634765625,0.99346923828125,0.34820556640625,34.16999816894531,0.0,18.0,-0.0530548095703125,0.0128631591796875,Waiting,0.0,0.0,0.0,0.0,0.0,0.0,0.0,0.0,
1.0227539999997244,0.0,0.0,false,6473446.8292682925,,0.0,0.0,0.0,0.0,0.0,0.125,1.8469236390000001,0.0,0.0012207030000004337,9.0,0.0,0.0,-0.0,0.0,0.0,2.662353243,0.0,0.0,-1.0,0.0,0.0,0.0,0.0,0.0,3.980712483,0.0,0.0012207029999995456,8.0,0.0,0.0,-0.0,0.0,0.0,2.564697003,0.0,0.0012207029999999897,70.08999633789062,2.2100000381469727,-11.119999885559082,0.04351806640625,1.01226806640625,0.34967041015625,34.16999816894531,0.0,-3.0,-0.0530548095703125,0.012939453125,Waiting,0.0,0.0,0.0,0.0,0.0,0.0,0.0,0.0,
1.0518619999997318,0.0,0.0,false,6472318.368932039,,0.0,0.0,0.0,0.0,0.0,0.125,1.8457029360000001,0.0,-0.0012207030000004337,9.0,0.0,0.0,-0.0,0.0,0.0,2.662353243,0.0,0.0,-1.0,0.0,0.0,0.0,0.0,0.0,3.97949178,0.0,0.0,8.0,0.0,0.0,-0.0,0.0,0.0,2.564697003,0.0,-0.0012207029999999897,70.08000183105469,2.2100000381469727,-11.130000114440918,0.01898193359375,0.9417724609375,0.33551025390625,34.16999816894531,0.0,-19.0,-0.0530548095703125,0.01300048828125,Waiting,0.0,0.0,0.0,0.0,0.0,0.0,0.0,0.0,
1.083588999999687,0.0,0.0,false,6471074.743961353,,0.0,0.0,0.0,0.0,0.0,0.0,1.8457029360000001,0.0,-0.0012207030000004337,9.0,0.0,0.0,-0.0,0.0,0.0,2.66113254,0.0,0.0,-1.0,0.0,0.0,0.0,0.0,0.0,3.97949178,0.0,0.0,8.0,0.0,0.0,-0.0,0.0,0.0,2.564697003,0.0,-0.0012207029999999897,70.08000183105469,2.2200000286102295,-11.130000114440918,0.03167724609375,0.89959716796875,0.34808349609375,34.16999816894531,0.0,4.0,-0.0530548095703125,0.0129241943359375,Waiting,0.0,0.0,0.0,0.0,0.0,0.0,0.0,0.0,
1.119307999999728,0.0,0.0,false,6469717.615384615,,0.0,0.0,0.0,0.0,0.0,0.0,1.8457029360000001,0.0,0.0,9.0,0.0,0.0,-0.0,0.0,0.0,2.662353243,0.0,0.0,-1.0,0.0,0.0,0.0,0.0,0.0,3.97949178,0.0,0.0,8.0,0.0,0.0,-0.0,0.0,0.0,2.569579815,0.0,0.0012207029999999897,70.06999969482422,2.2200000286102295,-11.140000343322754,0.05865478515625,0.96630859375,0.3406982421875,34.16999816894531,0.0,14.0,-0.0530548095703125,0.0128631591796875,Waiting,0.0,0.0,0.0,0.0,0.0,0.0,0.0,0.0,
1.1454219999997877,0.0,0.0,false,6468123.751196172,,0.0,0.0,0.0,0.0,0.0,0.0,1.8457029360000001,0.0,0.0,9.0,0.0,0.0,-0.0,0.0,0.0,2.662353243,0.0,0.0,-1.0,0.0,0.0,0.0,0.0,0.0,3.97949178,0.0,0.0,8.0,0.0,0.0,-0.0,0.0,0.0,2.564697003,0.0,0.0,70.08000183105469,2.2200000286102295,-11.140000343322754,0.04290771484375,1.0067138671875,0.34588623046875,34.16999816894531,0.0,-5.0,-0.052947998046875,0.012939453125,Waiting,0.0,0.0,0.0,0.0,0.0,0.0,0.0,0.0,
1.2003739999998362,0.0,0.0,false,6466396.952380952,,0.0,0.0,0.0,0.0,0.0,0.0,1.8444822330000001,0.0,0.0,9.0,0.0,0.0,-0.0,0.0,0.0,2.662353243,0.0,0.0,-1.0,0.0,0.0,0.0,0.0,0.0,3.97949178,0.0,0.0,8.0,0.0,0.0,-0.0,0.0,0.0,2.564697003,0.0,-0.0012207029999999897,70.08000183105469,2.2300000190734863,-11.140000343322754,0.02569580078125,0.90960693359375,0.347900390625,34.16999816894531,0.0,-2.0,-0.0529937744140625,0.0129852294921875,Waiting,0.0,0.0,0.0,0.0,0.0,0.0,0.0,0.0,
1.2451159999999217,0.0,0.0,false,6464562.8436018955,,0.0,0.0,0.0,0.0,0.0,0.0,1.8457029360000001,0.0,0.0,9.0,0.0,0.0,-0.0,0.0,0.0,2.662353243,0.0,0.0,-1.0,0.0,0.0,0.0,0.0,0.0,3.97949178,0.0,0.0,8.0,0.0,0.0,-0.0,0.0,0.0,2.564697003,0.0,0.0012207029999999897,70.08000183105469,2.2200000286102295,-11.140000343322754,0.06219482421875,0.98272705078125,0.34820556640625,34.20000076293945,0.0,17.0,-0.05303955078125,0.0128631591796875,Waiting,0.0,0.0,0.0,0.0,0.0,0.0,0.0,0.0,
1.2757919999998995,0.0,0.0,false,6462499.849056603,,0.0,0.0,0.0,0.0,0.0,0.0,1.8457029360000001,0.0,0.0,9.0,0.0,0.0,-0.0,0.0,0.0,2.66113254,0.0,0.0,-1.0,0.0,0.0,0.0,0.0,0.0,3.97949178,0.0,0.0,8.0,0.0,0.0,-0.0,0.0,0.0,2.564697003,0.0,0.0012207029999999897,70.08000183105469,2.2200000286102295,-11.140000343322754,0.044921875,1.00604248046875,0.344482421875,34.20000076293945,0.0,-3.0,-0.05303955078125,0.0128631591796875,Waiting,0.0,0.0,0.0,0.0,0.0,0.0,0.0,0.0,
1.2995429999995978,0.0,0.0,false,6460310.197183099,,0.0,0.0,0.0,0.0,0.0,0.0,1.8469236390000001,0.0,0.0,9.0,0.0,0.0,-0.0,0.0,0.0,2.66113254,0.0,0.0,-1.0,0.0,0.0,0.0,0.0,0.0,3.97949178,0.0,0.0,8.0,0.0,0.0,-0.0,0.0,0.0,2.564697003,0.0,0.0,70.08000183105469,2.2200000286102295,-11.140000343322754,0.03363037109375,0.98504638671875,0.353271484375,34.20000076293945,0.0,-6.0,-0.05303955078125,0.0128631591796875,Waiting,0.0,0.0,0.0,0.0,0.0,0.0,0.0,0.0,
1.3247689999998546,0.0,0.0,false,6458019.065420561,,0.0,0.0,0.0,0.0,0.0,0.0,1.8457029360000001,0.0,0.0,9.0,0.0,0.0,-0.0,0.0,0.0,2.66113254,0.0,0.0,-1.0,0.0,0.0,0.0,0.0,0.0,3.97949178,0.0,0.0,8.0,0.0,0.0,-0.0,0.0,0.0,2.5634763,0.0,0.0,70.08000183105469,2.2200000286102295,-11.130000114440918,0.0186767578125,0.9156494140625,0.3353271484375,34.20000076293945,0.0,-14.0,-0.0531005859375,0.0128631591796875,Waiting,0.0,0.0,0.0,0.0,0.0,0.0,0.0,0.0,
1.3455289999996312,0.0,0.0,false,6455506.493023256,,0.0,0.0,0.0,0.0,0.0,0.0,1.8457029360000001,0.0,0.0,9.0,0.0,0.0,-0.0,0.0,0.0,2.66113254,0.0,0.0,-1.0,0.0,0.0,0.0,0.0,0.0,3.980712483,0.0,0.0,8.0,0.0,0.0,-0.0,0.0,0.0,2.564697003,0.0,0.0,70.08000183105469,2.2200000286102295,-11.140000343322754,0.0340576171875,0.92510986328125,0.336669921875,34.20000076293945,0.0,-2.0,-0.05316162109375,0.0128021240234375,Waiting,0.0,0.0,0.0,0.0,0.0,0.0,0.0,0.0,
1.3690439999997617,0.0,0.0,false,6452896.37037037,,0.0,0.0,0.0,0.0,0.0,0.0,1.8457029360000001,0.0,0.0012207030000004337,9.0,0.0,0.0,-0.0,0.0,0.0,2.66113254,0.0,0.0,-1.0,0.0,0.0,0.0,0.0,0.0,3.97949178,0.0,0.0,8.0,0.0,0.0,-0.0,0.0,0.0,2.564697003,0.0,0.0,70.08000183105469,2.2100000381469727,-11.130000114440918,0.0567626953125,0.96533203125,0.33740234375,34.20000076293945,0.0,11.0,-0.05316162109375,0.0127716064453125,Waiting,0.0,0.0,0.0,0.0,0.0,0.0,0.0,0.0,
1.3889209999996237,0.0,0.0,false,6450190.046082949,,0.0,0.0,0.0,0.0,0.0,0.125,1.8457029360000001,0.0,0.0012207030000004337,9.0,0.0,0.0,-0.0,0.0,0.0,2.66113254,0.0,0.0,-1.0,0.0,0.0,0.0,0.0,0.0,3.97949178,0.0,0.0,8.0,0.0,0.0,-0.0,0.0,0.0,2.564697003,0.0,-0.0012207029999999897,70.08000183105469,2.2200000286102295,-11.140000343322754,0.04718017578125,1.01055908203125,0.34051513671875,34.20000076293945,0.0,-4.0,-0.0531005859375,0.012786865234375,Waiting,0.0,0.0,0.0,0.0,0.0,0.0,0.0,0.0,
1.4152559999995864,0.0,0.0,false,6447246.165137615,,0.0,0.0,0.0,0.0,0.0,0.0,1.8457029360000001,0.0,-0.0012207030000004337,9.0,0.0,0.0,-0.0,0.0,0.0,2.66113254,0.0,0.0,-1.0,0.0,0.0,0.0,0.0,0.0,3.97949178,0.0,0.0,8.0,0.0,0.0,-0.0,0.0,0.0,2.564697003,0.0,-0.0012207029999999897,70.08000183105469,2.2200000286102295,-11.130000114440918,0.03997802734375,0.98858642578125,0.35137939453125,34.20000076293945,0.0,-2.0,-0.053070068359375,0.0128326416015625,Waiting,0.0,0.0,0.0,0.0,0.0,0.0,0.0,0.0,
1.4369719999996013,0.0,0.0,false,6444210.00913242,,0.0,0.0,0.0,0.0,0.0,0.0,1.8457029360000001,0.0,-0.0012207030000004337,9.0,0.0,0.0,-0.0,0.0,0.0,2.66113254,0.0,0.0,-1.0,0.0,0.0,0.0,0.0,0.0,3.9978023250000003,0.0,0.0,8.0,0.0,0.0,-0.0,0.0,0.0,2.564697003,0.0,-0.0012207029999999897,70.08000183105469,2.2200000286102295,-11.140000343322754,0.01556396484375,0.92059326171875,0.3355712890625,34.20000076293945,0.0,-18.0,-0.053070068359375,0.01287841796875,Waiting,0.0,0.0,0.0,0.0,0.0,0.0,0.0,0.0,
1.47325,0.0,0.0,false,6441082.836363636,,0.0,0.0,0.0,0.0,0.0,0.0,1.8457029360000001,0.0,0.0,9.0,0.0,0.0,-0.0,0.0,0.0,2.670898164,0.0,0.0,-1.0,0.0,0.0,0.0,0.0,0.0,3.97949178,0.0,0.0,8.0,0.0,0.0,-0.0,0.0,0.0,2.564697003,0.0,0.0012207029999999897,70.06999969482422,2.2300000190734863,-11.149999618530273,0.037841796875,0.91326904296875,0.33502197265625,34.20000076293945,0.0,2.0,-0.053070068359375,0.0128021240234375,Waiting,0.0,0.0,0.0,0.0,0.0,0.0,0.0,0.0,
1.4944189999997617,0.0,0.0,false,6437747.728506788,,0.0,0.0,0.0,0.0,0.0,0.0,1.8457029360000001,0.0,0.0,9.0,0.0,0.0,-0.0,0.0,0.0,2.662353243,0.0,0.0,-1.0,0.0,0.0,0.0,0.0,0.0,3.97949178,0.0,0.0,8.0,0.0,0.0,-0.0,0.0,0.0,2.564697003,0.0,0.0,70.06999969482422,2.2200000286102295,-11.140000343322754,0.0609130859375,0.98846435546875,0.34942626953125,34.20000076293945,0.0,15.0,-0.053070068359375,0.01275634765625,Waiting,0.0,0.0,0.0,0.0,0.0,0.0,0.0,0.0,
1.522394999999553,0.0,0.0,false,6434185.009009009,,0.0,0.0,0.0,0.0,0.0,0.0,1.8457029360000001,0.0,0.0,9.0,0.0,0.0,-0.0,0.0,0.0,2.66113254,0.0,0.0,-1.0,0.0,0.0,0.0,0.0,0.0,3.97949178,0.0,0.0,8.0,0.0,0.0,-0.0,0.0,0.0,2.564697003,0.0,0.0,70.06999969482422,2.2200000286102295,-11.149999618530273,0.05548095703125,1.00634765625,0.34490966796875,34.20000076293945,0.0,5.0,-0.053070068359375,0.012786865234375,Waiting,0.0,0.0,0.0,0.0,0.0,0.0,0.0,0.0,
1.5425509999999776,0.0,0.0,false,6430537.219730942,,0.0,0.0,0.0,0.0,0.0,0.0,1.8444822330000001,0.0,0.0,9.0,0.0,0.0,-0.0,0.0,0.0,2.662353243,0.0,0.0,-1.0,0.0,0.0,0.0,0.0,0.0,3.97949178,0.0,0.0,8.0,0.0,0.0,-0.0,0.0,0.0,2.564697003,0.0,0.0,70.08000183105469,2.2200000286102295,-11.140000343322754,0.04071044921875,1.0015869140625,0.35302734375,34.20000076293945,0.0,-3.0,-0.053070068359375,0.01287841796875,Waiting,0.0,0.0,0.0,0.0,0.0,0.0,0.0,0.0,
1.5656519999997691,0.0,0.0,false,6426805.5,,0.0,0.0,0.0,0.0,0.0,0.0,1.8457029360000001,0.0,0.0,9.0,0.0,0.0,-0.0,0.0,0.0,2.662353243,0.0,0.0,-1.0,0.0,0.0,0.0,0.0,0.0,3.980712483,0.0,0.0,8.0,0.0,0.0,-0.0,0.0,0.0,2.5634763,0.0,0.0,70.06999969482422,2.2300000190734863,-11.149999618530273,0.0146484375,0.92218017578125,0.32763671875,34.20000076293945,0.0,-23.0,-0.0531005859375,0.01287841796875,Waiting,0.0,0.0,0.0,0.0,0.0,0.0,0.0,0.0,
1.588311999999918,0.0,0.0,false,6422874.986666666,,0.0,0.0,0.0,0.0,0.0,0.0,1.8457029360000001,0.0,0.0,9.0,0.0,0.0,-0.0,0.0,0.0,2.652587619,0.0,0.0,-1.0,0.0,0.0,0.0,0.0,0.0,3.978271077,0.0,0.0,8.0,0.0,0.0,-0.0,0.0,0.0,2.564697003,0.0,0.0,70.06999969482422,2.2300000190734863,-11.149999618530273,0.0374755859375,0.9105224609375,0.3419189453125,34.20000076293945,0.0,5.0,-0.053192138671875,0.01287841796875,Waiting,0.0,0.0,0.0,0.0,0.0,0.0,0.0,0.0,
1.6127579999999144,0.0,0.0,false,6418863.787610619,,0.0,0.0,0.0,0.0,0.0,0.0,1.8457029360000001,0.0,0.0,9.0,0.0,0.0,-0.0,0.0,0.0,2.66113254,0.0,0.0,-1.0,0.0,0.0,0.0,0.0,0.0,3.97949178,0.0,0.0,8.0,0.0,0.0,-0.0,0.0,0.0,2.564697003,0.0,0.0,70.06999969482422,2.2200000286102295,-11.149999618530273,0.06292724609375,0.98455810546875,0.35687255859375,34.20000076293945,0.0,21.0,-0.0531768798828125,0.01287841796875,Waiting,0.0,0.0,0.0,0.0,0.0,0.0,0.0,0.0,
1.6324189999997616,0.0,0.0,false,6414750.907488987,,0.0,0.0,0.0,0.0,0.0,0.0,1.8457029360000001,0.0,0.0,9.0,0.0,0.0,-0.0,0.0,0.0,2.66113254,0.0,0.0,-1.0,0.0,0.0,0.0,0.0,0.0,3.97949178,0.0,0.0,8.0,0.0,0.0,-0.0,0.0,0.0,2.5634763,0.0,0.0,70.06999969482422,2.2200000286102295,-11.149999618530273,0.052734375,1.0040283203125,0.34619140625,34.20000076293945,0.0,4.0,-0.053131103515625,0.01287841796875,Waiting,0.0,0.0,0.0,0.0,0.0,0.0,0.0,0.0,
1.6551159999999219,0.0,0.0,false,6410445.192982456,,0.0,0.0,0.0,0.0,0.0,0.0,1.8457029360000001,0.0,0.0,9.0,0.0,0.0,-0.0,0.0,0.0,2.662353243,0.0,0.0,-1.0,0.0,0.0,0.0,0.0,0.0,3.97949178,0.0,0.0,8.0,0.0,0.0,-0.0,0.0,0.0,2.5634763,0.0,-0.0012207029999999897,70.08000183105469,2.2200000286102295,-11.140000343322754,0.04144287109375,1.0013427734375,0.34906005859375,34.20000076293945,0.0,-4.0,-0.0531005859375,0.01287841796875,Waiting,0.0,0.0,0.0,0.0,0.0,0.0,0.0,0.0,
1.680148999999743,0.0,0.0,false,6406063.126637555,,0.0,0.0,0.0,0.0,0.0,0.0,1.849365045,0.0,0.0,9.0,0.0,0.0,-0.0,0.0,0.0,2.66113254,0.0,0.0,-1.0,0.0,0.0,0.0,0.0,0.0,3.97949178,0.0,0.0,8.0,0.0,0.0,-0.0,0.0,0.0,2.564697003,0.0,-0.0012207029999999897,70.06999969482422,2.2300000190734863,-11.149999618530273,0.01837158203125,0.93170166015625,0.33160400390625,34.20000076293945,0.0,-19.0,-0.0531005859375,0.01287841796875,Waiting,0.0,0.0,0.0,0.0,0.0,0.0,0.0,0.0,
1.7016579999998211,0.0,0.0,false,6401605.704347827,,0.0,0.0,0.0,0.0,0.0,0.0,1.8444822330000001,0.0,0.0,9.0,0.0,0.0,-0.0,0.0,0.0,2.662353243,0.0,0.0,-1.0,0.0,0.0,0.0,0.0,0.0,3.97949178,0.0,0.0,8.0,0.0,0.0,-0.0,0.0,0.0,2.564697003,0.0,0.0012207029999999897,70.06999969482422,2.2200000286102295,-11.149999618530273,0.03887939453125,0.914306640625,0.3385009765625,34.20000076293945,0.0,4.0,-0.0531005859375,0.0128173828125,Waiting,0.0,0.0,0.0,0.0,0.0,0.0,0.9,0.0,
1.7263499999996275,0.0,0.0,false,6397073.904761905,,0.0,0.0,0.0,0.0,0.0,0.125,1.8457029360000001,0.0,0.0012207030000004337,9.0,0.0,0.0,-0.0,0.0,0.0,2.66113254,0.0,0.0,-1.0,0.0,0.0,0.0,0.0,0.0,3.980712483,0.0,0.0,8.0,0.0,0.0,-0.0,0.0,0.0,2.565917706,0.0,0.0012207029999999897,70.06999969482422,2.2200000286102295,-11.149999618530273,0.0482177734375,0.9478759765625,0.33380126953125,34.20000076293945,0.0,5.0,-0.0531005859375,0.012786865234375,Waiting,0.0,0.0,0.0,0.0,0.0,0.0,0.9,3.875,
1.7467819999996572,0.0,0.0,false,6392334.620689655,,0.0,0.0,0.0,0.0,0.0,0.125,1.8457029360000001,0.0,0.0012207030000004337,9.0,0.0,0.0,-0.0,0.0,0.0,2.662353243,0.0,0.0,-1.0,0.0,0.0,0.0,0.0,0.0,3.983153889,0.0,0.0,8.0,0.0,0.0,-0.0,0.0,0.0,2.562255597,0.0,0.0,70.06999969482422,2.2200000286102295,-11.140000343322754,0.05377197265625,1.00665283203125,0.3582763671875,34.20000076293945,0.0,9.0,-0.0531005859375,0.012786865234375,Waiting,0.0,0.0,0.0,0.0,0.0,0.0,0.9,4.875,
1.7701119999997317,0.0,0.0,false,6387524.017167382,,0.0,0.0,0.0,0.0,0.0,0.0,1.8457029360000001,0.0,-0.0012207030000004337,9.0,0.0,0.0,-0.0,0.0,0.0,2.662353243,0.0,0.0,-1.0,0.0,0.0,0.0,0.0,0.0,3.980712483,0.0,0.0,8.0,0.0,0.0,-0.0,0.0,0.0,2.565917706,0.0,0.0,70.06999969482422,2.2200000286102295,-11.140000343322754,0.0413818359375,0.989990234375,0.347900390625,34.20000076293945,0.0,-2.0,-0.0531005859375,0.012786865234375,Waiting,0.0,0.0,0.0,0.0,0.0,0.0,0.9,5.375,
1.7903779999995604,0.0,0.0,false,6382643.008547009,,0.0,0.0,0.0,0.0,0.0,0.0,1.8444822330000001,0.0,-0.0012207030000004337,9.0,0.0,0.0,-0.0,0.0,0.0,2.662353243,0.0,0.0,-1.0,0.0,0.0,0.0,0.0,0.0,3.97949178,0.0,0.0,8.0,0.0,0.0,-0.0,0.0,0.0,2.564697003,0.0,0.0,70.06999969482422,2.2300000190734863,-11.149999618530273,0.02117919921875,0.93499755859375,0.3304443359375,34.20000076293945,0.0,-18.0,-0.0531005859375,0.012786865234375,Waiting,0.0,0.0,0.0,0.0,0.0,0.0,0.9,1.5,
1.8164459999999962,0.0,0.0,false,6377581.378723404,,0.0,0.0,0.0,0.0,0.0,0.0,1.8457029360000001,0.0,0.0,9.0,0.0,0.0,-0.0,0.0,0.0,2.66113254,0.0,0.0,-1.0,0.0,0.0,0.0,0.0,0.0,3.97949178,0.0,0.0,8.0,0.0,0.0,-0.0,0.0,0.0,2.564697003,0.0,0.0,70.06999969482422,2.2300000190734863,-11.15999984741211,0.0369873046875,0.9144287109375,0.34259033203125,34.20000076293945,0.0,4.0,-0.0531005859375,0.012786865234375,Waiting,0.0,0.0,0.0,0.0,0.0,0.0,0.9,0.5,
1.8365529999998398,0.0,0.0,false,6372452.06779661,,0.0,0.0,0.0,0.0,0.0,0.0,1.8457029360000001,0.0,0.0,9.0,0.0,0.0,-0.0,0.0,0.0,2.66113254,0.0,0.0,-1.0,0.0,0.0,0.0,0.0,0.0,3.97949178,0.0,0.0,8.0,0.0,0.0,-0.0,0.0,0.0,2.565917706,0.0,0.0,70.06999969482422,2.2300000190734863,-11.149999618530273,0.05133056640625,0.9688720703125,0.34228515625,34.20000076293945,0.0,7.0,-0.0531005859375,0.012786865234375,Waiting,0.0,0.0,0.0,0.0,0.0,0.0,0.9,0.375,
1.8642669999999926,0.0,0.0,false,6367234.801687764,,0.0,0.0,0.0,0.0,0.0,0.0,1.8457029360000001,0.0,0.0,9.0,0.0,0.0,-0.0,0.0,0.0,2.662353243,0.0,0.0,-1.0,0.0,0.0,0.0,0.0,0.0,3.97949178,0.0,0.0,8.0,0.0,0.0,-0.0,0.0,0.0,2.564697003,0.0,-0.0012207029999999897,70.06999969482422,2.2300000190734863,-11.149999618530273,0.040283203125,0.9967041015625,0.3653564453125,34.20000076293945,0.0,1.0,-0.0531005859375,0.012786865234375,Waiting,0.0,0.0,0.0,0.0,0.0,0.0,0.9,0.25,
1.8847029999997467,0.0,0.0,false,6361951.731092437,,0.0,0.0,0.0,0.0,0.0,0.0,1.8457029360000001,0.0,0.0,9.0,0.0,0.0,-0.0,0.0,0.0,2.662353243,0.0,0.0,-1.0,0.0,0.0,0.0,0.0,0.0,3.97949178,0.0,0.0,8.0,0.0,0.0,-0.0,0.0,0.0,2.565917706,0.0,-0.0012207029999999897,70.06999969482422,2.2300000190734863,-11.149999618530273,0.02947998046875,0.975830078125,0.3419189453125,34.20000076293945,0.0,-13.0,-0.0531005859375,0.012786865234375,Waiting,0.0,0.0,0.0,0.0,0.0,0.0,0.9,0.25,
1.9081429999996908,0.0,0.0,false,6356494.49372385,,0.0,0.0,0.0,0.0,0.0,0.0,1.8457029360000001,0.0,0.0,9.0,0.0,0.0,-0.0,0.0,0.0,2.658691134,0.0,0.0,-1.0,0.0,0.0,0.0,0.0,0.0,3.9916988100000004,0.0,0.0,8.0,0.0,0.0,-0.0,0.0,0.0,2.564697003,0.0,0.0012207029999999897,70.08000183105469,2.2300000190734863,-11.149999618530273,0.01654052734375,0.93914794921875,0.33660888671875,34.20000076293945,0.0,-20.0,-0.053192138671875,0.012786865234375,Waiting,0.0,0.0,0.0,0.0,0.0,0.0,0.9,0.25,
1.928335999999661,0.0,0.0,false,6350974.0,,0.0,0.0,0.0,0.0,0.0,0.0,1.8457029360000001,0.0,0.0,9.0,0.0,0.0,-0.0,0.0,0.0,2.662353243,0.0,0.0,-1.0,0.0,0.0,0.0,0.0,0.0,3.980712483,0.0,0.0,8.0,0.0,0.0,-0.0,0.0,0.0,2.5634763,0.0,0.0012207029999999897,70.08000183105469,2.2300000190734863,-11.149999618530273,0.03680419921875,0.9287109375,0.3431396484375,34.20000076293945,0.0,1.0,-0.053253173828125,0.012786865234375,Waiting,0.0,0.0,0.0,0.0,0.0,0.0,0.9,0.25,
1.9489429999999701,0.0,0.0,false,6345391.037344398,,0.0,0.0,0.0,0.0,0.0,0.0,1.8457029360000001,0.0,0.0,9.0,0.0,0.0,-0.0,0.0,0.0,2.66113254,0.0,0.0,-1.0,0.0,0.0,0.0,0.0,0.0,3.97949178,0.0,0.0,8.0,0.0,0.0,-0.0,0.0,0.0,2.5634763,0.0,-0.0012207029999999897,70.08000183105469,2.2200000286102295,-11.149999618530273,0.05487060546875,0.97442626953125,0.35406494140625,34.20000076293945,0.0,14.0,-0.053253173828125,0.012786865234375,Waiting,0.0,0.0,0.0,0.0,0.0,0.0,0.9,0.375,
1.9761759999999777,0.0,0.0,false,6339617.851239669,,0.0,0.0,0.0,0.0,0.0,0.0,1.8457029360000001,0.0,0.0,9.0,0.0,0.0,-0.0,0.0,0.0,2.66113254,0.0,0.0,-1.0,0.0,0.0,0.0,0.0,0.0,3.980712483,0.0,0.0,8.0,0.0,0.0,-0.0,0.0,0.0,2.5634763,0.0,-0.0012207029999999897,70.08999633789062,2.2200000286102295,-11.140000343322754,0.05499267578125,0.98663330078125,0.3662109375,34.20000076293945,0.0,17.0,-0.053253173828125,0.012786865234375,Waiting,0.0,0.0,0.0,0.0,0.0,0.0,0.9,0.25,
2.006511999999639,0.0,0.0,false,6333784.790123457,,0.0,0.0,0.0,0.0,0.0,0.0,1.8469236390000001,0.0,0.0,9.0,0.0,0.0,-0.0,0.0,0.0,2.662353243,0.0,0.0,-1.0,0.0,0.0,0.0,0.0,0.0,3.980712483,0.0,0.0,8.0,0.0,0.0,-0.0,0.0,0.0,2.564697003,0.0,0.0012207029999999897,70.08999633789062,2.2200000286102295,-11.140000343322754,0.032470703125,0.9637451171875,0.33544921875,34.20000076293945,0.0,-11.0,-0.053253173828125,0.012786865234375,Waiting,0.0,0.0,0.0,0.0,0.0,0.0,0.9,0.25,
2.0277419999996202,0.0,0.0,false,6327892.590163934,,0.0,0.0,0.0,0.0,0.0,0.0,1.8457029360000001,0.0,0.0,9.0,0.0,0.0,-0.0,0.0,0.0,2.66113254,0.0,0.0,-1.0,0.0,0.0,0.0,0.0,0.0,3.980712483,0.0,0.0,8.0,0.0,0.0,-0.0,0.0,0.0,2.564697003,0.0,0.0012207029999999897,70.08999633789062,2.2300000190734863,-11.149999618530273,0.029541015625,0.9071044921875,0.33843994140625,34.20000076293945,0.0,-2.0,-0.053253173828125,0.012786865234375,Waiting,0.0,0.0,0.0,0.0,0.0,0.0,0.9,0.25,
2.0476089999997056,0.0,0.0,false,6321941.975510204,,0.0,0.0,0.0,0.0,0.0,0.0,1.8457029360000001,0.0,0.0,9.0,0.0,0.0,-0.0,0.0,0.0,2.662353243,0.0,0.0,-1.0,0.0,0.0,0.0,0.0,0.0,3.97949178,0.0,0.0,8.0,0.0,0.0,-0.0,0.0,0.0,2.564697003,0.0,-0.0012207029999999897,70.08000183105469,2.2300000190734863,-11.149999618530273,0.0411376953125,0.91705322265625,0.33685302734375,34.20000076293945,0.0,5.0,-0.053253173828125,0.012786865234375,Waiting,0.0,0.0,0.0,0.0,0.0,0.0,0.9,0.375,
2.0707569999997504,0.0,0.0,false,6315827.577235772,,0.0,0.0,0.0,0.0,0.0,0.0,1.8457029360000001,0.0,0.0,9.0,0.0,0.0,-0.0,0.0,0.0,2.66113254,0.0,0.0,-1.0,0.0,0.0,0.0,0.0,0.0,3.97949178,0.0,0.0,8.0,0.0,0.0,-0.0,0.0,0.0,2.564697003,0.0,-0.0012207029999999897,70.08000183105469,2.2300000190734863,-11.149999618530273,0.06298828125,0.97576904296875,0.3458251953125,34.20000076293945,0.0,18.0,-0.053253173828125,0.012786865234375,Waiting,0.0,0.0,0.0,0.0,0.0,0.0,0.9,0.375,
2.090945999999996,0.0,0.0,false,6309636.761133603,,0.0,0.0,0.0,0.0,0.0,0.0,1.8457029360000001,0.0,0.0,9.0,0.0,0.0,-0.0,0.0,0.0,2.662353243,0.0,0.0,-1.0,0.0,0.0,0.0,0.0,0.0,3.97949178,0.0,0.0,8.0,0.0,0.0,-0.0,0.0,0.0,2.564697003,0.0,0.0,70.08000183105469,2.2300000190734863,-11.149999618530273,0.04986572265625,0.99578857421875,0.3514404296875,34.20000076293945,0.0,5.0,-0.053253173828125,0.012786865234375,Waiting,0.0,0.0,0.0,0.0,0.0,0.0,0.9,0.375,
2.1293619999997317,0.0,0.0,false,6312570.903225807,,0.0,0.0,0.0,0.0,0.0,0.0,1.8457029360000001,0.0,0.0,9.0,0.0,0.0,-0.0,0.0,0.0,2.662353243,0.0,0.0,-1.0,0.0,0.0,0.0,0.0,0.0,3.980712483,0.0,0.0,8.0,0.0,0.0,-0.0,0.0,0.0,2.564697003,0.0,0.0,70.08999633789062,2.2300000190734863,-11.149999618530273,0.02447509765625,0.96429443359375,0.3275146484375,34.20000076293945,0.0,-21.0,-0.0532684326171875,0.012786865234375,Waiting,0.0,0.0,0.0,0.0,0.0,0.0,0.0,0.375,
2.1490849999999626,0.0,0.0,false,6315334.8112449795,,0.0,0.0,0.0,0.0,0.0,0.0,1.8457029360000001,0.0,0.0,9.0,0.0,0.0,-0.0,0.0,0.0,2.662353243,0.0,0.0,-1.0,0.0,0.0,0.0,0.0,0.0,3.9855952950000004,0.0,0.0,8.0,0.0,0.0,-0.0,0.0,0.0,2.564697003,0.0,0.0012207029999999897,70.08999633789062,2.240000009536743,-11.149999618530273,0.03680419921875,0.918212890625,0.3458251953125,34.20000076293945,0.0,4.0,-0.053375244140625,0.012786865234375,Waiting,0.0,0.0,0.0,0.0,0.0,0.0,0.0,0.0,
2.1735439999997617,0.0,0.0,false,6317913.152,,0.0,0.0,0.0,0.0,0.0,0.0,1.8457029360000001,0.0,0.0,9.0,0.0,0.0,-0.0,0.0,0.0,2.652587619,0.0,0.0,-1.0,0.0,0.0,0.0,0.0,0.0,3.980712483,0.0,0.0,8.0,0.0,0.0,-0.0,0.0,0.0,2.565917706,0.0,0.0012207029999999897,70.08000183105469,2.2300000190734863,-11.149999618530273,0.04095458984375,0.93255615234375,0.3280029296875,34.20000076293945,0.0,0.0,-0.053375244140625,0.012786865234375,Waiting,0.0,0.0,0.0,0.0,0.0,0.0,0.0,0.0,
2.1947349999998695,0.0,0.0,false,6320340.780876494,,0.0,0.0,0.0,0.0,0.0,0.0,1.8457029360000001,0.0,0.0,9.0,0.0,0.0,-0.0,0.0,0.0,2.66113254,0.0,0.0,-1.0,0.0,0.0,0.0,0.0,0.0,3.97949178,0.0,0.0,8.0,0.0,0.0,-0.0,0.0,0.0,2.564697003,0.0,-0.0012207029999999897,70.08999633789062,2.240000009536743,-11.149999618530273,0.0606689453125,0.99212646484375,0.35699462890625,34.20000076293945,0.0,17.0,-0.053375244140625,0.012786865234375,Waiting,0.0,0.0,0.0,0.0,0.0,0.0,0.0,0.0,
2.22331799999997,0.0,0.0,false,6322604.222222222,,0.0,0.0,0.0,0.0,0.0,0.125,1.8457029360000001,0.0,0.0012207030000004337,9.0,0.0,0.0,-0.0,0.0,0.0,2.662353243,0.0,0.0,-1.0,0.0,0.0,0.0,0.0,0.0,3.97949178,0.0,0.0,8.0,0.0,0.0,-0.0,0.0,0.0,2.5634763,0.0,-0.0012207029999999897,70.0999984741211,2.2300000190734863,-11.149999618530273,0.04461669921875,0.99163818359375,0.3658447265625,34.20000076293945,0.0,6.0,-0.053375244140625,0.012786865234375,Waiting,0.0,0.0,0.0,0.0,0.0,0.0,0.0,0.0,
2.246033999999985,0.0,0.0,false,6324720.632411067,,0.0,0.0,0.0,0.0,0.0,0.125,1.849365045,0.0,0.0012207030000004337,9.0,0.0,0.0,-0.0,0.0,0.0,2.66113254,0.0,0.0,-1.0,0.0,0.0,0.0,0.0,0.0,3.980712483,0.0,0.0,8.0,0.0,0.0,-0.0,0.0,0.0,2.5634763,0.0,0.0,70.08999633789062,2.240000009536743,-11.15999984741211,0.02435302734375,0.92449951171875,0.33782958984375,34.189998626708984,0.0,-10.0,-0.053436279296875,0.012786865234375,Waiting,0.0,0.0,0.0,0.0,0.0,0.0,0.0,0.0,
2.2731149999997577,0.0,0.0,false,6326691.748031496,,0.0,0.0,0.0,0.0,0.0,0.125,1.8457029360000001,0.0,0.0,9.0,0.0,0.0,-0.0,0.0,0.0,2.662353243,0.0,0.0,-1.0,0.0,0.0,0.0,0.0,0.0,3.97949178,0.0,0.0,8.0,0.0,0.0,-0.0,0.0,0.0,2.565917706,0.0,0.0,70.08999633789062,2.240000009536743,-11.15999984741211,0.02435302734375,0.92449951171875,0.33782958984375,34.189998626708984,0.0,-10.0,-0.053436279296875,0.012786865234375,Waiting,0.0,0.0,0.0,0.0,0.0,0.0,0.0,0.0,
2.2971839999998918,0.0,0.0,false,6328504.188235294,,0.0,0.0,0.0,0.0,0.0,0.125,1.8457029360000001,0.0,0.0,9.0,0.0,0.0,-0.0,0.0,0.0,2.662353243,0.0,0.0,-1.0,0.0,0.0,0.0,0.0,0.0,3.980712483,0.0,0.0,8.0,0.0,0.0,-0.0,0.0,0.0,2.564697003,0.0,0.0,70.08999633789062,2.2300000190734863,-11.149999618530273,0.04754638671875,0.93963623046875,0.3321533203125,34.189998626708984,0.0,5.0,-0.053497314453125,0.012786865234375,Waiting,0.0,0.0,0.0,0.0,0.0,0.0,0.0,0.0,
2.3239409999996425,0.0,0.0,false,6330174.78125,,0.0,0.0,0.0,0.0,0.0,0.0,1.8444822330000001,0.0,-0.0012207030000004337,9.0,0.0,0.0,-0.0,0.0,0.0,2.662353243,0.0,0.0,-1.0,0.0,0.0,0.0,0.0,0.0,3.978271077,0.0,0.0,8.0,0.0,0.0,-0.0,0.0,0.0,2.564697003,0.0,0.0,70.0999984741211,2.2300000190734863,-11.149999618530273,0.05853271484375,0.97503662109375,0.35595703125,34.189998626708984,0.0,18.0,-0.053497314453125,0.012786865234375,Waiting,0.0,0.0,0.0,0.0,0.0,0.0,0.0,0.0,
2.343394999999553,0.0,0.0,false,6331705.2451361865,,0.0,0.0,0.0,0.0,0.0,0.0,1.8457029360000001,0.0,-0.0012207030000004337,9.0,0.0,0.0,-0.0,0.0,0.0,2.662353243,0.0,0.0,-1.0,0.0,0.0,0.0,0.0,0.0,3.97949178,0.0,0.0,8.0,0.0,0.0,-0.0,0.0,0.0,2.564697003,0.0,0.0,70.0999984741211,2.2300000190734863,-11.140000343322754,0.04168701171875,0.98504638671875,0.35552978515625,34.189998626708984,0.0,1.0,-0.053497314453125,0.012786865234375,Waiting,0.0,0.0,0.0,0.0,0.0,0.0,0.0,0.0,
2.366958999999799,0.0,0.0,false,6333097.209302326,,0.0,0.0,0.0,0.0,0.0,0.125,1.8457029360000001,0.0,0.0012207030000004337,9.0,0.0,0.0,-0.0,0.0,0.0,2.662353243,0.0,0.0,-1.0,0.0,0.0,0.0,0.0,0.0,3.97949178,0.0,0.0,8.0,0.0,0.0,-0.0,0.0,0.0,2.564697003,0.0,0.0,70.0999984741211,2.240000009536743,-11.149999618530273,0.01910400390625,0.93194580078125,0.3291015625,34.189998626708984,0.0,-20.0,-0.0535125732421875,0.012786865234375,Waiting,0.0,0.0,0.0,0.0,0.0,0.0,0.0,0.0,
2.388430999999866,0.0,0.0,false,6334337.420849421,,0.0,0.0,0.0,0.0,0.0,0.125,1.8457029360000001,0.0,0.0012207030000004337,9.0,0.0,0.0,-0.0,0.0,0.0,2.662353243,0.0,0.0,-1.0,0.0,0.0,0.0,0.0,0.0,3.980712483,0.0,0.0,8.0,0.0,0.0,-0.0,0.0,0.0,2.564697003,0.0,0.0,70.0999984741211,2.240000009536743,-11.149999618530273,0.0321044921875,0.91363525390625,0.34051513671875,34.189998626708984,0.0,0.0,-0.0535430908203125,0.012786865234375,Waiting,0.0,0.0,0.0,0.0,0.0,0.0,0.0,0.0,
2.4113379999999887,0.0,0.0,false,6335442.215384616,,0.0,0.0,0.0,0.0,0.0,0.125,1.8469236390000001,0.0,-0.0012207030000004337,9.0,0.0,0.0,-0.0,0.0,0.0,2.662353243,0.0,0.0,-1.0,0.0,0.0,0.0,0.0,0.0,3.97949178,0.0,-0.0012207029999995456,8.0,0.0,0.0,-0.0,0.0,0.0,2.564697003,0.0,0.0,70.08999633789062,2.240000009536743,-11.149999618530273,0.0526123046875,0.95916748046875,0.33160400390625,34.189998626708984,0.0,6.0,-0.0535888671875,0.012786865234375,Waiting,0.0,0.0,0.0,0.0,0.0,0.0,0.0,0.0,
2.4308139999997804,0.0,0.0,false,6336413.363984674,,0.0,0.0,0.0,0.0,0.0,0.0,1.8457029360000001,0.0,-0.0012207030000004337,9.0,0.0,0.0,-0.0,0.0,0.0,2.662353243,0.0,0.0,-1.0,0.0,0.0,0.0,0.0,0.0,3.980712483,0.0,-0.0012207029999995456,8.0,0.0,0.0,-0.0,0.0,0.0,2.565917706,0.0,0.0,70.0999984741211,2.240000009536743,-11.149999618530273,0.06170654296875,0.9871826171875,0.357421875,34.189998626708984,0.0,19.0,-0.0535888671875,0.012786865234375,Waiting,0.0,0.0,0.0,0.0,0.0,0.0,0.0,0.0,
2.450029999999795,0.0,0.0,false,6337252.396946565,,0.0,0.0,0.0,0.0,0.0,0.0,1.8469236390000001,0.0,-0.0012207030000004337,9.0,0.0,0.0,-0.0,0.0,0.0,2.662353243,0.0,0.0,-1.0,0.0,0.0,0.0,0.0,0.0,3.980712483,0.0,0.0012207029999995456,8.0,0.0,0.0,-0.0,0.0,0.0,2.564697003,0.0,0.0012207029999999897,70.0999984741211,2.240000009536743,-11.149999618530273,0.04595947265625,0.99407958984375,0.36016845703125,34.189998626708984,0.0,5.0,-0.0535888671875,0.012786865234375,Waiting,0.0,0.0,0.0,0.0,0.0,0.0,0.0,0.0,
2.4806099999998694,0.0,0.0,false,6337821.961977187,,0.0,0.0,0.0,0.0,0.0,0.0,1.8457029360000001,0.0,0.0012207030000004337,9.0,0.0,0.0,-0.0,0.0,0.0,2.662353243,0.0,0.0,-1.0,0.0,0.0,0.0,0.0,0.0,3.980712483,0.0,0.0012207029999995456,8.0,0.0,0.0,-0.0,0.0,0.0,2.564697003,0.0,0.0012207029999999897,70.08999633789062,2.25,-11.15999984741211,0.02606201171875,0.94989013671875,0.328369140625,34.189998626708984,0.0,-17.0,-0.0535888671875,0.012786865234375,Waiting,0.0,0.0,0.0,0.0,0.0,0.0,0.0,0.0,
2.5010989999999294,0.0,0.0,false,6338263.454545454,,0.0,0.0,0.0,0.0,0.0,0.125,1.8457029360000001,0.0,0.0012207030000004337,9.0,0.0,0.0,-0.0,0.0,0.0,2.66113254,0.0,0.0,-1.0,0.0,0.0,0.0,0.0,0.0,3.969726156,0.0,0.0,8.0,0.0,0.0,-0.0,0.0,0.0,2.564697003,0.0,-0.0012207029999999897,70.08999633789062,2.25,-11.15999984741211,0.03875732421875,0.91650390625,0.3404541015625,34.189998626708984,0.0,4.0,-0.0535888671875,0.012786865234375,Waiting,0.0,0.0,0.0,0.0,0.0,0.0,0.0,0.0,
2.5274569999999366,0.0,0.0,false,6338578.324528302,,0.0,0.0,0.0,0.0,0.0,0.0,1.8457029360000001,0.0,-0.0012207030000004337,9.0,0.0,0.0,-0.0,0.0,0.0,2.662353243,0.0,0.0,-1.0,0.0,0.0,0.0,0.0,0.0,3.97949178,0.0,0.0,8.0,0.0,0.0,-0.0,0.0,0.0,2.564697003,0.0,-0.0012207029999999897,70.08999633789062,2.25,-11.15999984741211,0.04766845703125,0.93951416015625,0.3341064453125,34.189998626708984,0.0,6.0,-0.0535888671875,0.012786865234375,Waiting,0.0,0.0,0.0,0.0,0.0,0.0,0.0,0.0,
2.5476819999995644,0.0,0.0,false,6338768.0,,0.0,0.0,0.0,0.0,0.0,0.0,1.8457029360000001,0.0,-0.0012207030000004337,9.0,0.0,0.0,-0.0,0.0,0.0,2.66113254,0.0,0.0,-1.0,0.0,0.0,0.0,0.0,0.0,3.97949178,0.0,-0.0012207029999995456,8.0,0.0,0.0,-0.0,0.0,0.0,2.5634763,0.0,0.0012207029999999897,70.0999984741211,2.240000009536743,-11.149999618530273,0.05511474609375,0.9947509765625,0.35650634765625,34.189998626708984,0.0,11.0,-0.0535888671875,0.012786865234375,Waiting,0.0,0.0,0.0,0.0,0.0,0.0,0.0,0.0,
2.5772269999999553,0.0,0.0,false,6338696.629213483,,0.0,0.0,0.0,0.0,0.0,0.0,1.8457029360000001,0.0,0.0,9.0,0.0,0.0,-0.0,0.0,0.0,2.66113254,0.0,0.0,-1.0,0.0,0.0,0.0,0.0,0.0,3.97949178,0.0,-0.0012207029999995456,8.0,0.0,0.0,-0.0,0.0,0.0,2.565917706,0.0,0.0012207029999999897,70.11000061035156,2.240000009536743,-11.149999618530273,0.039794921875,0.9844970703125,0.36474609375,34.189998626708984,0.0,3.0,-0.0535888671875,0.012786865234375,Waiting,0.0,0.0,0.0,0.0,0.0,0.0,0.0,0.0,
2.59886699999962,0.0,0.0,false,6338503.880597015,,0.0,0.0,0.0,0.0,0.0,0.0,1.8444822330000001,0.0,0.0,9.0,0.0,0.0,-0.0,0.0,0.0,2.662353243,0.0,0.0,-1.0,0.0,0.0,0.0,0.0,0.0,3.980712483,0.0,0.0012207029999995456,8.0,0.0,0.0,-0.0,0.0,0.0,2.564697003,0.0,0.0,70.11000061035156,2.240000009536743,-11.149999618530273,0.018310546875,0.93963623046875,0.32843017578125,34.189998626708984,0.0,-22.0,-0.0536041259765625,0.012786865234375,Waiting,0.0,0.0,0.0,0.0,0.0,0.0,0.0,0.0,
2.624998999999836,0.0,0.0,false,6338191.107806692,,0.0,0.0,0.0,0.0,0.0,0.0,1.8457029360000001,0.0,0.0012207030000004337,9.0,0.0,0.0,-0.0,0.0,0.0,2.66113254,0.0,0.0,-1.0,0.0,0.0,0.0,0.0,0.0,3.980712483,0.0,0.0012207029999995456,8.0,0.0,0.0,-0.0,0.0,0.0,2.564697003,0.0,0.0,70.11000061035156,2.240000009536743,-11.149999618530273,0.03680419921875,0.9228515625,0.334228515625,34.189998626708984,0.0,0.0,-0.0537109375,0.012786865234375,Waiting,0.0,0.0,0.0,0.0,0.0,0.0,0.0,0.0,
2.6477309999996796,0.0,0.0,false,6337759.644444444,,0.0,0.0,0.0,0.0,0.0,0.125,1.8457029360000001,0.0,0.0012207030000004337,9.0,0.0,0.0,-0.0,0.0,0.0,2.662353243,0.0,0.0,-1.0,0.0,0.0,0.0,0.0,0.0,3.980712483,0.0,-0.0012207029999995456,8.0,0.0,0.0,-0.0,0.0,0.0,2.564697003,0.0,-0.0012207029999999897,70.0999984741211,2.2300000190734863,-11.140000343322754,0.05902099609375,0.98223876953125,0.35595703125,34.189998626708984,0.0,17.0,-0.0537109375,0.012786865234375,Waiting,0.0,0.0,0.0,0.0,0.0,0.0,0.0,0.0,
2.6784019999997692,0.0,0.0,false,6337188.988929889,,0.0,0.0,0.0,0.0,0.0,0.0,1.8457029360000001,0.0,-0.0012207030000004337,9.0,0.0,0.0,-0.0,0.0,0.0,2.66113254,0.0,0.0,-1.0,0.0,0.0,0.0,0.0,0.0,3.97949178,0.0,-0.0012207029999995456,8.0,0.0,0.0,-0.0,0.0,0.0,2.564697003,0.0,-0.0012207029999999897,70.0999984741211,2.2300000190734863,-11.140000343322754,0.04608154296875,0.99603271484375,0.35296630859375,34.189998626708984,0.0,2.0,-0.0537109375,0.012786865234375,Waiting,0.0,0.0,0.0,0.0,0.0,0.0,0.0,0.0,
2.7006719999997877,0.0,0.0,false,6336502.411764706,,0.0,0.0,0.0,0.0,0.0,0.0,1.8457029360000001,0.0,-0.0012207030000004337,9.0,0.0,0.0,-0.0,0.0,0.0,2.662353243,0.0,0.0,-1.0,0.0,0.0,0.0,0.0,0.0,3.980712483,0.0,0.0012207029999995456,8.0,0.0,0.0,-0.0,0.0,0.0,2.564697003,0.0,0.0012207029999999897,70.0999984741211,2.240000009536743,-11.149999618530273,0.0269775390625,0.95428466796875,0.33331298828125,34.189998626708984,0.0,-15.0,-0.0537109375,0.012786865234375,Waiting,0.0,0.0,0.0,0.0,0.0,0.0,0.0,0.0,
2.7261999999997206,0.0,0.0,false,6335701.186813187,,0.0,0.0,0.0,0.0,0.0,0.0,1.8457029360000001,0.0,0.0,9.0,0.0,0.0,-0.0,0.0,0.0,2.662353243,0.0,0.0,-1.0,0.0,0.0,0.0,0.0,0.0,3.97949178,0.0,0.0012207029999995456,8.0,0.0,0.0,-0.0,0.0,0.0,2.565917706,0.0,0.0012207029999999897,70.11000061035156,2.240000009536743,-11.149999618530273,0.01947021484375,0.93017578125,0.33013916015625,34.189998626708984,0.0,-18.0,-0.0537109375,0.012786865234375,Waiting,0.0,0.0,0.0,0.0,0.0,0.0,0.0,0.0,
2.745435999999754,0.0,0.0,false,6334772.525547445,,0.0,0.0,0.0,0.0,0.0,0.0,1.8457029360000001,0.0,0.0,9.0,0.0,0.0,-0.0,0.0,0.0,2.664794649,0.0,0.0,-1.0,0.0,0.0,0.0,0.0,0.0,3.980712483,0.0,0.0012207029999995456,8.0,0.0,0.0,-0.0,0.0,0.0,2.564697003,0.0,-0.0012207029999999897,70.0999984741211,2.240000009536743,-11.149999618530273,0.0447998046875,0.92974853515625,0.33001708984375,34.189998626708984,0.0,3.0,-0.0537109375,0.012786865234375,Waiting,0.0,0.0,0.0,0.0,0.0,0.0,0.0,0.0,
2.767972999999765,0.0,0.0,false,6333731.636363637,,0.0,0.0,0.0,0.0,0.0,0.0,1.8457029360000001,0.0,0.0012207030000004337,9.0,0.0,0.0,-0.0,0.0,0.0,2.662353243,0.0,0.0,-1.0,0.0,0.0,0.0,0.0,0.0,3.97949178,0.0,0.0,8.0,0.0,0.0,-0.0,0.0,0.0,2.564697003,0.0,-0.0012207029999999897,70.0999984741211,2.240000009536743,-11.149999618530273,0.05975341796875,0.99041748046875,0.35723876953125,34.20000076293945,0.0,17.0,-0.0537109375,0.012786865234375,Waiting,0.0,0.0,0.0,0.0,0.0,0.0,0.0,0.0,
2.788806999999564,0.0,0.0,false,6332579.9130434785,,0.0,0.0,0.0,0.0,0.0,0.125,1.8457029360000001,0.0,0.0012207030000004337,9.0,0.0,0.0,-0.0,0.0,0.0,2.662353243,0.0,0.0,-1.0,0.0,0.0,0.0,0.0,0.0,3.980712483,0.0,0.0,8.0,0.0,0.0,-0.0,0.0,0.0,2.564697003,0.0,-0.0012207029999999897,70.11000061035156,2.240000009536743,-11.149999618530273,0.04693603515625,0.99481201171875,0.359375,34.20000076293945,0.0,5.0,-0.0537109375,0.012786865234375,Waiting,0.0,0.0,0.0,0.0,0.0,0.0,0.0,0.0,
2.814213999999687,0.0,0.0,false,6331318.555956678,,0.0,0.0,0.0,0.0,0.0,0.125,1.8408201240000002,0.0,-0.0012207030000004337,9.0,0.0,0.0,-0.0,0.0,0.0,2.66113254,0.0,0.0,-1.0,0.0,0.0,0.0,0.0,0.0,3.980712483,0.0,0.0,8.0,0.0,0.0,-0.0,0.0,0.0,2.564697003,0.0,0.0012207029999999897,70.11000061035156,2.240000009536743,-11.149999618530273,0.03460693359375,0.97467041015625,0.3468017578125,34.20000076293945,0.0,-6.0,-0.0537109375,0.012786865234375,Waiting,0.0,0.0,0.0,0.0,0.0,0.0,0.0,0.0,
2.8326759999999775,0.0,0.0,false,6329934.90647482,,0.0,0.0,0.0,0.0,0.0,0.0,1.8457029360000001,0.0,-0.0012207030000004337,9.0,0.0,0.0,-0.0,0.0,0.0,2.662353243,0.0,0.0,-1.0,0.0,0.0,0.0,0.0,0.0,3.97949178,0.0,0.0,8.0,0.0,0.0,-0.0,0.0,0.0,2.564697003,0.0,0.0012207029999999897,70.11000061035156,2.25,-11.15999984741211,0.03009033203125,0.9176025390625,0.3359375,34.20000076293945,0.0,-5.0,-0.0537109375,0.012786865234375,Waiting,0.0,0.0,0.0,0.0,0.0,0.0,0.0,0.0,
2.8507979999999518,0.0,0.0,false,6328444.071684588,,0.0,0.0,0.0,0.0,0.0,0.0,1.8395994210000002,0.0,-0.0012207030000004337,9.0,0.0,0.0,-0.0,0.0,0.0,2.66113254,0.0,0.0,-1.0,0.0,0.0,0.0,0.0,0.0,3.980712483,0.0,0.0,8.0,0.0,0.0,-0.0,0.0,0.0,2.564697003,0.0,0.0,70.0999984741211,2.25,-11.15999984741211,0.03692626953125,0.91802978515625,0.3394775390625,34.20000076293945,0.0,2.0,-0.0537109375,0.012786865234375,Waiting,0.0,0.0,0.0,0.0,0.0,0.0,0.0,0.0,
2.8776419999999927,0.0,0.0,false,6326847.2,,0.0,0.0,0.0,0.0,0.0,0.0,1.8457029360000001,0.0,0.0,9.0,0.0,0.0,-0.0,0.0,0.0,2.662353243,0.0,0.0,-1.0,0.0,0.0,0.0,0.0,0.0,3.977050374,0.0,0.0,8.0,0.0,0.0,-0.0,0.0,0.0,2.564697003,0.0,0.0,70.0999984741211,2.240000009536743,-11.149999618530273,0.05657958984375,0.979736328125,0.35260009765625,34.20000076293945,0.0,14.0,-0.0537109375,0.012786865234375,Waiting,0.0,0.0,0.0,0.0,0.0,0.0,0.0,0.0,
2.8962949999999257,0.0,0.0,false,6325145.423487544,,0.0,0.0,0.0,0.0,0.0,0.0,1.8457029360000001,0.0,0.0,9.0,0.0,0.0,-0.0,0.0,0.0,2.662353243,0.0,0.0,-1.0,0.0,0.0,0.0,0.0,0.0,3.980712483,0.0,0.0,8.0,0.0,0.0,-0.0,0.0,0.0,2.564697003,0.0,-0.0012207029999999897,70.11000061035156,2.240000009536743,-11.149999618530273,0.04949951171875,0.99432373046875,0.3590087890625,34.20000076293945,0.0,7.0,-0.0537109375,0.012786865234375,Waiting,0.0,0.0,0.0,0.0,0.0,0.0,0.0,0.0,
2.9255689999996686,0.0,0.0,false,6323326.212765957,,0.0,0.0,0.0,0.0,0.0,0.125,1.8457029360000001,0.0,0.0012207030000004337,9.0,0.0,0.0,-0.0,0.0,0.0,2.66113254,0.0,0.0,-1.0,0.0,0.0,0.0,0.0,0.0,3.980712483,0.0,0.0,8.0,0.0,0.0,-0.0,0.0,0.0,2.564697003,0.0,-0.0012207029999999897,70.11000061035156,2.240000009536743,-11.149999618530273,0.02618408203125,0.9625244140625,0.330810546875,34.20000076293945,0.0,-18.0,-0.0537109375,0.012786865234375,Waiting,0.0,0.0,0.0,0.0,0.0,0.0,0.0,0.0,
2.9442599999997765,0.0,0.0,false,6321404.409893993,,0.0,0.0,0.0,0.0,0.0,0.125,1.8457029360000001,0.0,0.0012207030000004337,9.0,0.0,0.0,-0.0,0.0,0.0,2.662353243,0.0,0.0,-1.0,0.0,0.0,0.0,0.0,0.0,3.97949178,0.0,0.0,8.0,0.0,0.0,-0.0,0.0,0.0,2.564697003,0.0,-0.0012207029999999897,70.11000061035156,2.240000009536743,-11.149999618530273,0.02056884765625,0.9332275390625,0.332275390625,34.20000076293945,0.0,-17.0,-0.0537109375,0.012786865234375,Waiting,0.0,0.0,0.0,0.0,0.0,0.0,0.0,0.0,
2.966594999999739,0.0,0.0,false,6319266.056338028,,0.0,0.0,0.0,0.0,0.0,0.125,1.8457029360000001,0.0,-0.0012207030000004337,9.0,0.0,0.0,-0.0,0.0,0.0,2.66113254,0.0,0.0,-1.0,0.0,0.0,0.0,0.0,0.0,3.97949178,0.0,0.0,8.0,0.0,0.0,-0.0,0.0,0.0,2.5634763,0.0,0.0,70.11000061035156,2.240000009536743,-11.149999618530273,0.03863525390625,0.92901611328125,0.33245849609375,34.20000076293945,0.0,0.0,-0.0537109375,0.012786865234375,Waiting,0.0,0.0,0.0,0.0,0.0,0.0,0.0,0.0,
2.9848499999996276,0.0,0.0,false,6317028.070175438,,0.0,0.0,0.0,0.0,0.0,0.0,1.8469236390000001,0.0,-0.0012207030000004337,9.0,0.0,0.0,-0.0,0.0,0.0,2.659911837,0.0,0.0,-1.0,0.0,0.0,0.0,0.0,0.0,3.97949178,0.0,0.0,8.0,0.0,0.0,-0.0,0.0,0.0,2.564697003,0.0,0.0,70.11000061035156,2.240000009536743,-11.149999618530273,0.05462646484375,0.9674072265625,0.34765625,34.20000076293945,0.0,12.0,-0.0537109375,0.012786865234375,Waiting,0.0,0.0,0.0,0.0,0.0,0.0,0.0,0.0,
3.0044219999997877,0.0,0.0,false,6314691.496503497,,0.0,0.0,0.0,0.0,0.0,0.0,1.8457029360000001,0.0,-0.0012207030000004337,9.0,0.0,0.0,-0.0,0.0,0.0,2.662353243,0.0,0.0,-1.0,0.0,0.0,0.0,0.0,0.0,3.980712483,0.0,0.0,8.0,0.0,0.0,-0.0,0.0,0.0,2.564697003,0.0,0.0012207029999999897,70.11000061035156,2.240000009536743,-11.149999618530273,0.0562744140625,0.99029541015625,0.358154296875,34.20000076293945,0.0,14.0,-0.0537109375,0.012786865234375,Waiting,0.0,0.0,0.0,0.0,0.0,0.0,0.0,0.0,
3.026685999999754,0.0,0.0,false,6312243.540069686,,0.0,0.0,0.0,0.0,0.0,0.0,1.8457029360000001,0.0,0.0,9.0,0.0,0.0,-0.0,0.0,0.0,2.662353243,0.0,0.0,-1.0,0.0,0.0,0.0,0.0,0.0,3.980712483,0.0,0.0,8.0,0.0,0.0,-0.0,0.0,0.0,2.5634763,0.0,0.0012207029999999897,70.11000061035156,2.240000009536743,-11.149999618530273,0.0355224609375,0.9786376953125,0.33966064453125,34.20000076293945,0.0,-9.0,-0.0537109375,0.012786865234375,Waiting,0.0,0.0,0.0,0.0,0.0,0.0,0.0,0.0,
3.047829999999609,0.0,0.0,false,6309699.138888889,,0.0,0.0,0.0,0.0,0.0,0.0,1.8457029360000001,0.0,0.0,9.0,0.0,0.0,-0.0,0.0,0.0,2.662353243,0.0,0.0,-1.0,0.0,0.0,0.0,0.0,0.0,3.97949178,0.0,0.0,8.0,0.0,0.0,-0.0,0.0,0.0,2.564697003,0.0,0.0,70.11000061035156,2.240000009536743,-11.149999618530273,0.02008056640625,0.9456787109375,0.330078125,34.20000076293945,0.0,-21.0,-0.0537261962890625,0.012786865234375,Waiting,0.0,0.0,0.0,0.0,0.0,0.0,0.0,0.0,
3.0694739999999294,0.0,0.0,false,6307059.294117647,,0.0,0.0,0.0,0.0,0.0,0.0,1.851806451,0.0,0.0,9.0,0.0,0.0,-0.0,0.0,0.0,2.66113254,0.0,0.0,-1.0,0.0,0.0,0.0,0.0,0.0,3.97949178,0.0,0.0,8.0,0.0,0.0,-0.0,0.0,0.0,2.565917706,0.0,0.0,70.11000061035156,2.240000009536743,-11.149999618530273,0.036865234375,0.9176025390625,0.3411865234375,34.20000076293945,0.0,3.0,-0.053802490234375,0.012786865234375,Waiting,0.0,0.0,0.0,0.0,0.0,0.0,0.0,0.0,
3.088860999999568,0.0,0.0,false,6304324.993103448,,0.0,0.0,0.0,0.0,0.0,0.0,1.8469236390000001,0.0,0.0,9.0,0.0,0.0,-0.0,0.0,0.0,2.662353243,0.0,0.0,-1.0,0.0,0.0,0.0,0.0,0.0,3.980712483,0.0,0.0,8.0,0.0,0.0,-0.0,0.0,0.0,2.5634763,0.0,0.0,70.11000061035156,2.240000009536743,-11.149999618530273,0.05230712890625,0.94573974609375,0.33660888671875,34.20000076293945,0.0,10.0,-0.053802490234375,0.012786865234375,Waiting,0.0,0.0,0.0,0.0,0.0,0.0,0.0,0.0,
3.110954999999609,0.0,0.0,false,6301483.986254295,,0.0,0.0,0.0,0.0,0.0,0.0,1.8457029360000001,0.0,0.0,9.0,0.0,0.0,-0.0,0.0,0.0,2.662353243,0.0,0.0,-1.0,0.0,0.0,0.0,0.0,0.0,3.9929195130000004,0.0,0.0,8.0,0.0,0.0,-0.0,0.0,0.0,2.564697003,0.0,-0.0012207029999999897,70.12000274658203,2.240000009536743,-11.149999618530273,0.04583740234375,1.00067138671875,0.35797119140625,34.20000076293945,0.0,3.0,-0.053802490234375,0.012786865234375,Waiting,0.0,0.0,0.0,0.0,0.0,0.0,0.0,0.0,
3.130851999999955,0.0,0.0,false,6298550.547945205,,0.0,0.0,0.0,0.0,0.0,0.0,1.8457029360000001,0.0,0.0,9.0,0.0,0.0,-0.0,0.0,0.0,2.66113254,0.0,0.0,-1.0,0.0,0.0,0.0,0.0,0.0,3.97949178,0.0,0.0,8.0,0.0,0.0,-0.0,0.0,0.0,2.564697003,0.0,-0.0012207029999999897,70.12000274658203,2.240000009536743,-11.149999618530273,0.04180908203125,0.98846435546875,0.3502197265625,34.20000076293945,0.0,-1.0,-0.053802490234375,0.012786865234375,Waiting,0.0,0.0,0.0,0.0,0.0,0.0,0.0,0.0,
3.1501699999999255,0.0,0.0,false,6295525.624573379,,0.0,0.0,0.0,0.0,0.0,0.0,1.8457029360000001,0.0,0.0,9.0,0.0,0.0,-0.0,0.0,0.0,2.66113254,0.0,0.0,-1.0,0.0,0.0,0.0,0.0,0.0,3.97949178,0.0,-0.0012207029999995456,8.0,0.0,0.0,-0.0,0.0,0.0,2.564697003,0.0,0.0,70.12000274658203,2.240000009536743,-11.149999618530273,0.02667236328125,0.95819091796875,0.32769775390625,34.20000076293945,0.0,-18.0,-0.053802490234375,0.012786865234375,Waiting,0.0,0.0,0.0,0.0,0.0,0.0,0.0,0.0,
3.1774759999997912,0.0,0.0,false,6292410.149659864,,0.0,0.0,0.0,0.0,0.0,0.0,1.8457029360000001,0.0,0.0,9.0,0.0,0.0,-0.0,0.0,0.0,2.662353243,0.0,0.0,-1.0,0.0,0.0,0.0,0.0,0.0,3.980712483,0.0,-0.0012207029999995456,8.0,0.0,0.0,-0.0,0.0,0.0,2.564697003,0.0,0.0,70.12000274658203,2.240000009536743,-11.149999618530273,0.036865234375,0.91412353515625,0.33984375,34.20000076293945,0.0,3.0,-0.053802490234375,0.012786865234375,Waiting,0.0,0.0,0.0,0.0,0.0,0.0,0.0,0.0,
3.199208999999799,0.0,0.0,false,6289191.945762712,,0.0,0.0,0.0,0.0,0.0,0.0,1.8444822330000001,0.0,0.0,9.0,0.0,0.0,-0.0,0.0,0.0,2.66113254,0.0,0.0,-1.0,0.0,0.0,0.0,0.0,0.0,3.97949178,0.0,0.0012207029999995456,8.0,0.0,0.0,-0.0,0.0,0.0,2.564697003,0.0,0.0012207029999999897,70.12000274658203,2.25,-11.149999618530273,0.04425048828125,0.93035888671875,0.33282470703125,34.20000076293945,0.0,15.0,-0.053802490234375,0.012786865234375,Waiting,0.0,0.0,0.0,0.0,0.0,0.0,0.0,0.0,
3.2253249999997204,0.0,0.0,false,6285885.108108108,,0.0,0.0,0.0,0.0,0.0,0.125,1.8457029360000001,0.0,0.0012207030000004337,9.0,0.0,0.0,-0.0,0.0,0.0,2.662353243,0.0,0.0,-1.0,0.0,0.0,0.0,0.0,0.0,3.980712483,0.0,0.0012207029999995456,8.0,0.0,0.0,-0.0,0.0,0.0,2.570800518,0.0,0.0012207029999999897,70.12000274658203,2.240000009536743,-11.149999618530273,0.0523681640625,0.9951171875,0.3551025390625,34.20000076293945,0.0,8.0,-0.053802490234375,0.012786865234375,Waiting,0.0,0.0,0.0,0.0,0.0,0.0,0.0,0.0,
3.2440209999997167,0.0,0.0,false,6282490.478114478,,0.0,0.0,0.0,0.0,0.0,0.125,1.8457029360000001,0.0,0.0012207030000004337,9.0,0.0,0.0,-0.0,0.0,0.0,2.66113254,0.0,0.0,-1.0,0.0,0.0,0.0,0.0,0.0,3.97949178,0.0,0.0012207029999995456,8.0,0.0,0.0,-0.0,0.0,0.0,2.564697003,0.0,0.0012207029999999897,70.12999725341797,2.240000009536743,-11.140000343322754,0.04449462890625,0.993408203125,0.35888671875,34.20000076293945,0.0,3.0,-0.053802490234375,0.012786865234375,Waiting,0.0,0.0,0.0,0.0,0.0,0.0,0.0,0.0,
3.2666069999998437,0.0,0.0,false,6278996.080536913,,0.0,0.0,0.0,0.0,0.0,0.125,1.8469236390000001,0.0,-0.0012207030000004337,9.0,0.0,0.0,-0.0,0.0,0.0,2.662353243,0.0,0.0,-1.0,0.0,0.0,0.0,0.0,0.0,3.97949178,0.0,0.0,8.0,0.0,0.0,-0.0,0.0,0.0,2.564697003,0.0,-0.0012207029999999897,70.12000274658203,2.240000009536743,-11.149999618530273,0.0184326171875,0.9437255859375,0.327880859375,34.13999938964844,0.0,-23.0,-0.0538330078125,0.012786865234375,Waiting,0.0,0.0,0.0,0.0,0.0,0.0,0.0,0.0,
3.2877579999999145,0.0,0.0,false,6275415.785953177,,0.0,0.0,0.0,0.0,0.0,0.0,1.8457029360000001,0.0,-0.0012207030000004337,9.0,0.0,0.0,-0.0,0.0,0.0,2.662353243,0.0,0.0,-1.0,0.0,0.0,0.0,0.0,0.0,3.97949178,0.0,0.0,8.0,0.0,0.0,-0.0,0.0,0.0,2.567138409,0.0,-0.0012207029999999897,70.12000274658203,2.240000009536743,-11.149999618530273,0.0389404296875,0.9212646484375,0.3380126953125,34.13999938964844,0.0,3.0,-0.0539093017578125,0.012786865234375,Waiting,0.0,0.0,0.0,0.0,0.0,0.0,0.0,0.0,
3.3161949999998326,0.0,0.0,false,6271750.453333333,,0.0,0.0,0.0,0.0,0.0,0.0,1.8457029360000001,0.0,0.0,9.0,0.0,0.0,-0.0,0.0,0.0,2.662353243,0.0,0.0,-1.0,0.0,0.0,0.0,0.0,0.0,3.97949178,0.0,0.0,8.0,0.0,0.0,-0.0,0.0,0.0,2.564697003,0.0,0.0,70.12000274658203,2.240000009536743,-11.149999618530273,0.0499267578125,0.95391845703125,0.33831787109375,34.13999938964844,0.0,7.0,-0.0539093017578125,0.012786865234375,Waiting,0.0,0.0,0.0,0.0,0.0,0.0,0.0,0.0,
3.3409069999996572,0.0,0.0,false,6268000.930232558,,0.0,0.0,0.0,0.0,0.0,0.0,1.8457029360000001,0.0,0.0,9.0,0.0,0.0,-0.0,0.0,0.0,2.66113254,0.0,0.0,-1.0,0.0,0.0,0.0,0.0,0.0,3.97949178,0.0,0.0,8.0,0.0,0.0,-0.0,0.0,0.0,2.564697003,0.0,0.0,70.12999725341797,2.240000009536743,-11.140000343322754,0.04718017578125,0.9932861328125,0.36279296875,34.13999938964844,0.0,7.0,-0.0539093017578125,0.012786865234375,Waiting,0.0,0.0,0.0,0.0,0.0,0.0,0.0,0.0,
3.3655099999997766,0.0,0.0,false,6264047.125827814,,0.0,0.0,0.0,0.0,0.0,0.0,1.8444822330000001,0.0,0.0,9.0,0.0,0.0,-0.0,0.0,0.0,2.66113254,0.0,0.0,-1.0,0.0,0.0,0.0,0.0,0.0,3.97949178,0.0,0.0,8.0,0.0,0.0,-0.0,0.0,0.0,2.565917706,0.0,0.0012207029999999897,70.12999725341797,2.240000009536743,-11.140000343322754,0.0252685546875,0.94970703125,0.33001708984375,34.13999938964844,0.0,-17.0,-0.0539093017578125,0.012786865234375,Waiting,0.0,0.0,0.0,0.0,0.0,0.0,0.0,0.0,
3.385469999999739,0.0,0.0,false,6260011.590759076,,0.0,0.0,0.0,0.0,0.0,0.0,1.8457029360000001,0.0,0.0,9.0,0.0,0.0,-0.0,0.0,0.0,2.662353243,0.0,0.0,-1.0,0.0,0.0,0.0,0.0,0.0,3.980712483,0.0,0.0,8.0,0.0,0.0,-0.0,0.0,0.0,2.5634763,0.0,0.0012207029999999897,70.12999725341797,2.240000009536743,-11.140000343322754,0.0299072265625,0.92340087890625,0.33441162109375,34.13999938964844,0.0,-6.0,-0.0539093017578125,0.012786865234375,Waiting,0.0,0.0,0.0,0.0,0.0,0.0,0.0,0.0,
3.405996999999974,0.0,0.0,false,6255895.131578947,,0.0,0.0,0.0,0.0,0.0,0.0,1.8457029360000001,0.0,0.0012207030000004337,9.0,0.0,0.0,-0.0,0.0,0.0,2.662353243,0.0,0.0,-1.0,0.0,0.0,0.0,0.0,0.0,3.980712483,0.0,-0.0012207029999995456,8.0,0.0,0.0,-0.0,0.0,0.0,2.564697003,0.0,0.0,70.12000274658203,2.240000009536743,-11.149999618530273,0.049560546875,0.94281005859375,0.33612060546875,34.13999938964844,0.0,8.0,-0.0539093017578125,0.012786865234375,Waiting,0.0,0.0,0.0,0.0,0.0,0.0,0.0,0.0,
3.4288489999999294,0.0,0.0,false,6251698.544262295,,0.0,0.0,0.0,0.0,0.0,0.125,1.8457029360000001,0.0,0.0012207030000004337,9.0,0.0,0.0,-0.0,0.0,0.0,2.662353243,0.0,0.0,-1.0,0.0,0.0,0.0,0.0,0.0,3.97949178,0.0,-0.0012207029999995456,8.0,0.0,0.0,-0.0,0.0,0.0,2.564697003,0.0,0.0,70.12999725341797,2.240000009536743,-11.140000343322754,0.05853271484375,0.9759521484375,0.353271484375,34.13999938964844,0.0,17.0,-0.0539093017578125,0.012786865234375,Waiting,0.0,0.0,0.0,0.0,0.0,0.0,0.0,0.0,
3.4507579999999143,0.0,0.0,false,6247410.039215687,,0.0,0.0,0.0,0.0,0.0,0.125,1.8457029360000001,0.0,0.0012207030000004337,9.0,0.0,0.0,-0.0,0.0,0.0,2.662353243,0.0,0.0,-1.0,0.0,0.0,0.0,0.0,0.0,3.97949178,0.0,0.0012207029999995456,8.0,0.0,0.0,-0.0,0.0,0.0,2.564697003,0.0,-0.0012207029999999897,70.12999725341797,2.240000009536743,-11.140000343322754,0.0406494140625,0.98681640625,0.35272216796875,34.13999938964844,0.0,-1.0,-0.0539093017578125,0.012786865234375,Waiting,0.0,0.0,0.0,0.0,0.0,0.0,0.0,0.0,
3.480021999999881,0.0,0.0,false,6243043.048859935,,0.0,0.0,0.0,0.0,0.0,0.125,1.8457029360000001,0.0,0.0,9.0,0.0,0.0,-0.0,0.0,0.0,2.66113254,0.0,0.0,-1.0,0.0,0.0,0.0,0.0,0.0,3.97949178,0.0,0.0012207029999995456,8.0,0.0,0.0,-0.0,0.0,0.0,2.564697003,0.0,-0.0012207029999999897,70.12999725341797,2.240000009536743,-11.140000343322754,0.0274658203125,0.95599365234375,0.332275390625,34.13999938964844,0.0,-15.0,-0.0539093017578125,0.012786865234375,Waiting,0.0,0.0,0.0,0.0,0.0,0.0,0.0,0.0,
3.498643999999855,0.0,0.0,false,6238486.207792208,,0.0,0.0,0.0,0.0,0.0,0.125,1.8457029360000001,0.0,0.0,9.0,0.0,0.0,-0.0,0.0,0.0,2.66113254,0.0,0.0,-1.0,0.0,0.0,0.0,0.0,0.0,3.97949178,0.0,0.0,8.0,0.0,0.0,-0.0,0.0,0.0,2.564697003,0.0,0.0012207029999999897,70.12999725341797,2.25,-11.149999618530273,0.0333251953125,0.9151611328125,0.333740234375,34.13999938964844,0.0,-2.0,-0.0539093017578125,0.012786865234375,Waiting,0.0,0.0,0.0,0.0,0.0,0.0,0.0,0.0,
3.524404999999795,0.0,0.0,false,6233853.1262135925,,0.0,0.0,0.0,0.0,0.0,0.125,1.8457029360000001,0.0,0.0,9.0,0.0,0.0,-0.0,0.0,0.0,2.662353243,0.0,0.0,-1.0,0.0,0.0,0.0,0.0,0.0,3.980712483,0.0,0.0,8.0,0.0,0.0,-0.0,0.0,0.0,2.564697003,0.0,0.0012207029999999897,70.12000274658203,2.25,-11.149999618530273,0.04534912109375,0.931396484375,0.33203125,34.13999938964844,0.0,4.0,-0.0539093017578125,0.012786865234375,Waiting,0.0,0.0,0.0,0.0,0.0,0.0,0.0,0.0,
3.5455629999996163,0.0,0.0,false,6229132.129032258,,0.0,0.0,0.0,0.0,0.0,0.125,1.8457029360000001,0.0,0.0,9.0,0.0,0.0,-0.0,0.0,0.0,2.662353243,0.0,0.0,-1.0,0.0,0.0,0.0,0.0,0.0,3.97949178,0.0,0.0,8.0,0.0,0.0,-0.0,0.0,0.0,2.564697003,0.0,0.0012207029999999897,70.12999725341797,2.25,-11.149999618530273,0.055419921875,0.9903564453125,0.35675048828125,34.13999938964844,0.0,13.0,-0.0539093017578125,0.012786865234375,Waiting,0.0,0.0,0.0,0.0,0.0,0.0,0.0,0.0,
3.568055999999866,0.0,0.0,false,6224336.4372990355,,0.0,0.0,0.0,0.0,0.0,0.125,1.8457029360000001,0.0,0.0,9.0,0.0,0.0,-0.0,0.0,0.0,2.66113254,0.0,0.0,-1.0,0.0,0.0,0.0,0.0,0.0,3.97949178,0.0,0.0,8.0,0.0,0.0,-0.0,0.0,0.0,2.564697003,0.0,0.0,70.12999725341797,2.240000009536743,-11.140000343322754,0.04486083984375,0.98681640625,0.36456298828125,34.13999938964844,0.0,7.0,-0.0539093017578125,0.012786865234375,Waiting,0.0,0.0,0.0,0.0,0.0,0.0,0.0,0.0,
3.59156399999978,0.0,0.0,false,6219485.102564103,,0.0,0.0,0.0,0.0,0.0,0.125,1.8457029360000001,0.0,0.0,9.0,0.0,0.0,-0.0,0.0,0.0,2.662353243,0.0,0.0,-1.0,0.0,0.0,0.0,0.0,0.0,3.978271077,0.0,0.0,8.0,0.0,0.0,-0.0,0.0,0.0,2.564697003,0.0,0.0,70.12999725341797,2.25,-11.149999618530273,0.017578125,0.94244384765625,0.3323974609375,34.13999938964844,0.0,-21.0,-0.0539398193359375,0.012786865234375,Waiting,0.0,0.0,0.0,0.0,0.0,0.0,0.0,0.0,
