Time,ClimberA1,ClimberA2,CameraExists,HeapSpace,LoopTime,FRpos,FRCurrent,FRspeed,FRsetpoint,FRApos,FRACurrent,FREncpos,FREncSetpoint,FREncSpeed,FLpos,FLCurrent,FLspeed,FLsetpoint,FLApos,FLACurrent,FLEncpos,FLEncSetpoint,FLEncSpeed,BRpos,BRCurrent,BRspeed,BRsetpoint,BRApos,BRACurrent,BREncpos,BREncSetpoint,BREncSpeed,BLpos,BLCurrent,BLspeed,BLsetpoint,BLApos,BLACurrent,BLEncpos,BLEncSetpoint,BLEncSpeed,navx_Pitch,navx_Roll,navx_Yaw,navx_XAcc,navx_YAcc,navx_ZAcc,navx_Temp,navx_Bar,navx_Alt,navx_XDis,navx_YDis,GearPlacerState,ShootOutputV,ShootOutputCurrent,ShootEncPos,ShootEncVelocity,ShootSpeed,ShootSetpoint,CarouselSetpoint,CarouselCurrent,
0.3088000000002794,0.0,0.0,false,5198533.2087558815,,-115.0,0.0,0.0,0.0,0.0,0.0,1.8457029360000001,0.0,0.0,114.0,0.0,0.0,-0.0,0.0,0.0,2.657470431,0.0,0.0,-109.0,0.0,0.0,0.0,0.0,0.0,3.984374592,0.0,0.0,88.0,0.0,0.0,-0.0,0.0,0.0,2.569579815,0.0,0.0,69.9000015258789,2.180000066757202,-15.199999809265137,0.03656005859375,0.95458984375,0.347412109375,34.459999084472656,0.0,-1.0,-0.165740966796875,-0.1843109130859375,Waiting,0.0,0.0,-165380.0,0.0,0.0,0.0,0.0,0.0,
0.4307920000003651,0.0,0.0,false,5198568.132446847,,-115.0,0.0,0.0,0.0,0.0,0.0,1.8457029360000001,0.0,0.0,114.0,0.0,0.0,-0.0,0.0,0.0,2.657470431,0.0,0.0,-109.0,0.0,0.0,0.0,0.0,0.0,3.984374592,0.0,0.0,88.0,0.0,0.0,-0.0,0.0,0.0,2.569579815,0.0,0.0,69.87999725341797,2.1700000762939453,-15.210000038146973,0.03759765625,0.959716796875,0.34942626953125,34.459999084472656,0.0,-1.0,-0.165740966796875,-0.1843109130859375,Waiting,0.0,0.0,-165380.0,0.0,0.0,0.0,0.0,0.0,
0.5279260000004433,0.0,0.0,false,5198601.664504062,,-115.0,0.0,0.0,0.0,0.0,0.0,1.8457029360000001,0.0,0.0,114.0,0.0,0.0,-0.0,0.0,0.0,2.657470431,0.0,0.0,-109.0,0.0,0.0,0.0,0.0,0.0,3.9855952950000004,0.0,0.0012207029999995456,88.0,0.0,0.0,-0.0,0.0,0.0,2.569579815,0.0,0.0,69.88999938964844,2.180000066757202,-15.210000038146973,0.0379638671875,0.95263671875,0.3502197265625,34.459999084472656,0.0,1.0,-0.165740966796875,-0.1843109130859375,Waiting,0.0,0.0,-165380.0,0.0,0.0,0.0,0.0,0.0,
0.6085879999999888,0.0,0.0,false,5198633.457340328,,-115.0,0.0,0.0,0.0,0.0,0.0,1.8457029360000001,0.0,0.0,114.0,0.0,0.0,-0.0,0.0,0.0,2.656249728,0.0,0.0,-109.0,0.0,0.0,0.0,0.0,0.0,3.9855952950000004,0.0,0.0,88.0,0.0,0.0,-0.0,0.0,0.0,2.569579815,0.0,-0.0012207029999999897,69.88999938964844,2.180000066757202,-15.210000038146973,0.03692626953125,0.95416259765625,0.346923828125,34.459999084472656,0.0,-1.0,-0.165740966796875,-0.1843109130859375,Waiting,0.0,0.0,-165380.0,0.0,0.0,0.0,0.0,0.0,
0.6805120000001043,0.0,0.0,false,5198663.858675005,,-115.0,0.0,0.0,0.0,0.0,0.0,1.8457029360000001,0.0,0.0,114.0,0.0,0.0,-0.0,0.0,0.0,2.657470431,0.0,0.0,-109.0,0.0,0.0,0.0,0.0,0.0,3.984374592,0.0,0.0,88.0,0.0,0.0,-0.0,0.0,0.0,2.569579815,0.0,0.0,69.87999725341797,2.1700000762939453,-15.210000038146973,0.0338134765625,0.95391845703125,0.350341796875,34.459999084472656,0.0,-2.0,-0.165740966796875,-0.1843109130859375,Waiting,0.0,0.0,-165380.0,0.0,0.0,0.0,0.0,0.0,
0.7625820000004023,0.0,0.0,false,5198692.868569091,,-115.0,0.0,0.0,0.0,0.0,0.0,1.8457029360000001,0.0,0.0,114.0,0.0,0.0,-0.0,0.0,0.0,2.657470431,0.0,0.0,-109.0,0.0,0.0,0.0,0.0,0.0,3.9855952950000004,0.0,0.0,88.0,0.0,0.0,-0.0,0.0,0.0,2.569579815,0.0,0.0012207029999999897,69.88999938964844,2.1700000762939453,-15.199999809265137,0.04107666015625,0.958984375,0.34912109375,34.459999084472656,0.0,2.0,-0.165740966796875,-0.1843109130859375,Waiting,0.0,0.0,-165380.0,0.0,0.0,0.0,0.0,0.0,
0.8344799999999813,0.0,0.0,false,5198720.139450613,,-115.0,0.0,0.0,0.0,0.0,0.0,1.8457029360000001,0.0,0.0,114.0,0.0,0.0,-0.0,0.0,0.0,2.64892551,0.0,0.0,-109.0,0.0,0.0,0.0,0.0,0.0,3.9855952950000004,0.0,0.0,88.0,0.0,0.0,-0.0,0.0,0.0,2.569579815,0.0,0.0,69.87999725341797,2.1700000762939453,-15.199999809265137,0.03863525390625,0.9547119140625,0.342529296875,34.470001220703125,0.0,-2.0,-0.165740966796875,-0.1843109130859375,Waiting,0.0,0.0,-165380.0,0.0,0.0,0.0,0.0,0.0,
0.9137710000001825,0.0,0.0,false,5198746.019023685,,-115.0,0.0,0.0,0.0,0.0,0.125,1.8444822330000001,0.0,0.0012207030000004337,114.0,0.0,0.0,-0.0,0.0,0.0,2.656249728,0.0,0.0,-109.0,0.0,0.0,0.0,0.0,0.0,3.977050374,0.0,0.0,88.0,0.0,0.0,-0.0,0.0,0.0,2.569579815,0.0,0.0,69.87999725341797,2.1700000762939453,-15.210000038146973,0.03912353515625,0.95574951171875,0.3436279296875,34.470001220703125,0.0,-1.0,-0.165740966796875,-0.1843109130859375,Waiting,0.0,0.0,-165380.0,0.0,0.0,0.0,0.0,0.0,
0.9888470000000671,0.0,0.0,false,5198770.507349288,,-115.0,0.0,0.0,0.0,0.0,0.0,1.8457029360000001,0.0,0.0,114.0,0.0,0.0,-0.0,0.0,0.0,2.66113254,0.0,0.0,-109.0,0.0,0.0,0.0,0.0,0.0,3.984374592,0.0,0.0,88.0,0.0,0.0,-0.0,0.0,0.0,2.569579815,0.0,0.0,69.88999938964844,2.1700000762939453,-15.199999809265137,0.0357666015625,0.95330810546875,0.3516845703125,34.470001220703125,0.0,0.0,-0.165740966796875,-0.1843109130859375,Waiting,0.0,0.0,-165380.0,0.0,0.0,0.0,0.0,0.0,
1.0607020000000484,0.0,0.0,false,5198793.2568706805,,-115.0,0.0,0.0,0.0,0.0,0.0,1.8457029360000001,0.0,0.0,114.0,0.0,0.0,-0.0,0.0,0.0,2.657470431,0.0,0.0,-109.0,0.0,0.0,0.0,0.0,0.0,3.984374592,0.0,0.0,88.0,0.0,0.0,-0.0,0.0,0.0,2.568359112,0.0,-0.0012207029999999897,69.87999725341797,2.1600000858306885,-15.199999809265137,0.03607177734375,0.95623779296875,0.34454345703125,34.470001220703125,0.0,-3.0,-0.165740966796875,-0.1843109130859375,Waiting,0.0,0.0,-165380.0,0.0,0.0,0.0,0.0,0.0,
1.128844000000041,0.0,0.0,false,5198814.615276722,,-115.0,0.0,0.0,0.0,0.0,0.0,1.8457029360000001,0.0,0.0,114.0,0.0,0.0,-0.0,0.0,0.0,2.657470431,0.0,0.0,-109.0,0.0,0.0,0.0,0.0,0.0,3.984374592,0.0,0.0,88.0,0.0,0.0,-0.0,0.0,0.0,2.569579815,0.0,0.0,69.88999938964844,2.1600000858306885,-15.199999809265137,0.04022216796875,0.95611572265625,0.34765625,34.470001220703125,0.0,1.0,-0.165740966796875,-0.1843109130859375,Waiting,0.0,0.0,-165380.0,0.0,0.0,0.0,0.0,0.0,
1.202389000000432,0.0,0.0,false,5198834.582628388,,-115.0,0.0,0.0,0.0,0.0,0.0,1.8457029360000001,0.0,0.0,114.0,0.0,0.0,-0.0,0.0,0.0,2.653808322,0.0,0.0,-109.0,0.0,0.0,0.0,0.0,0.0,3.984374592,0.0,0.0,88.0,0.0,0.0,-0.0,0.0,0.0,2.568359112,0.0,0.0,69.88999938964844,2.1700000762939453,-15.199999809265137,0.041748046875,0.95458984375,0.3536376953125,34.470001220703125,0.0,5.0,-0.165740966796875,-0.1843109130859375,Waiting,0.0,0.0,-165380.0,0.0,0.0,0.0,0.0,0.0,
1.2737400000002235,0.0,0.0,false,5198852.811384157,,-115.0,0.0,0.0,0.0,0.0,0.0,1.8444822330000001,0.0,0.0,114.0,0.0,0.0,-0.0,0.0,0.0,2.656249728,0.0,0.0012207030000004337,-109.0,0.0,0.0,0.0,0.0,0.0,3.984374592,0.0,0.0,88.0,0.0,0.0,-0.0,0.0,0.0,2.569579815,0.0,0.0,69.87999725341797,2.1700000762939453,-15.210000038146973,0.03662109375,0.95428466796875,0.35003662109375,34.470001220703125,0.0,0.0,-0.165740966796875,-0.1843109130859375,Waiting,0.0,0.0,-165380.0,0.0,0.0,0.0,0.0,0.0,
1.3490520000001416,0.0,0.0,false,5198868.9892033255,,-115.0,0.0,0.0,0.0,0.0,0.125,1.8457029360000001,0.0,0.0,114.0,0.0,0.0,-0.0,0.0,0.0,2.655029025,0.0,0.0,-109.0,0.0,0.0,0.0,0.0,0.0,3.9855952950000004,0.0,0.0,88.0,0.0,0.0,-0.0,0.0,0.0,2.569579815,0.0,0.0,69.87999725341797,2.1600000858306885,-15.199999809265137,0.03643798828125,0.95703125,0.35357666015625,34.470001220703125,0.0,0.0,-0.165740966796875,-0.1843109130859375,Waiting,0.0,0.0,-165380.0,0.0,0.0,0.0,0.0,0.0,
1.427099000000395,0.0,0.0,false,5198883.428588125,,-115.0,0.0,0.0,0.0,0.0,0.0,1.8457029360000001,0.0,-0.0012207030000004337,114.0,0.0,0.0,-0.0,0.0,0.0,2.656249728,0.0,0.0,-109.0,0.0,0.0,0.0,0.0,0.0,3.984374592,0.0,0.0,88.0,0.0,0.0,-0.0,0.0,0.0,2.569579815,0.0,0.0012207029999999897,69.87999725341797,2.1600000858306885,-15.199999809265137,0.03961181640625,0.95477294921875,0.35650634765625,34.470001220703125,0.0,5.0,-0.165740966796875,-0.1843109130859375,Waiting,0.0,0.0,-165380.0,0.0,0.0,0.0,0.0,0.0,
1.496166000000201,0.0,0.0,false,5198896.12961475,,-115.0,0.0,0.0,0.0,0.0,0.0,1.8457029360000001,0.0,0.0,114.0,0.0,0.0,-0.0,0.0,0.0,2.656249728,0.0,0.0,-109.0,0.0,0.0,0.0,0.0,0.0,3.9855952950000004,0.0,0.0,88.0,0.0,0.0,-0.0,0.0,0.0,2.569579815,0.0,0.0,69.87000274658203,2.1700000762939453,-15.210000038146973,0.042236328125,0.95086669921875,0.3502197265625,34.470001220703125,0.0,5.0,-0.165740966796875,-0.1843109130859375,Waiting,0.0,0.0,-165380.0,0.0,0.0,0.0,0.9,5.625,
1.572783000000287,0.0,0.0,false,5198907.439941564,,-115.0,0.0,0.0,0.0,0.0,0.125,1.849365045,0.0,0.0012207030000004337,114.0,0.0,0.0,-0.0,0.0,0.0,2.657470431,0.0,0.0,-109.0,0.0,0.0,0.0,0.0,0.0,3.984374592,0.0,0.0,88.0,0.0,0.0,-0.0,0.0,0.0,2.572021221,0.0,0.0012207029999999897,69.87000274658203,2.1700000762939453,-15.210000038146973,0.0380859375,0.94488525390625,0.34454345703125,34.470001220703125,0.0,0.0,-0.165740966796875,-0.1843109130859375,Waiting,0.0,0.0,-165380.0,0.0,0.0,0.0,0.9,0.375,
1.6382780000003987,0.0,0.0,false,5198917.012052417,,-115.0,0.0,0.0,0.0,0.0,0.0,1.8457029360000001,0.0,0.0,114.0,0.0,0.0,-0.0,0.0,0.0,2.657470431,0.0,0.0,-109.0,0.0,0.0,0.0,0.0,0.0,3.9868159980000004,0.0,0.0,88.0,0.0,0.0,-0.0,0.0,0.0,2.569579815,0.0,0.0,69.87000274658203,2.1600000858306885,-15.210000038146973,0.04180908203125,0.9464111328125,0.3409423828125,34.470001220703125,0.0,1.0,-0.165740966796875,-0.1843109130859375,Waiting,0.0,0.0,-165380.0,0.0,0.0,0.0,0.0,0.0,
1.7148850000002422,0.0,0.0,false,5198925.193595512,,-115.0,0.0,0.0,0.0,0.0,0.0,1.8457029360000001,0.0,0.0,114.0,0.0,0.0,-0.0,0.0,0.0,2.657470431,0.0,-0.0024414060000008675,-109.0,0.0,0.0,0.0,0.0,0.0,3.9855952950000004,0.0,0.0,88.0,0.0,0.0,-0.0,0.0,0.0,2.570800518,0.0,0.0,69.87999725341797,2.1600000858306885,-15.199999809265137,0.0406494140625,0.9512939453125,0.34429931640625,34.470001220703125,0.0,0.0,-0.165740966796875,-0.1843109130859375,Waiting,0.0,0.0,-165380.0,0.0,0.0,0.0,0.0,0.0,
1.7852129999999888,0.0,0.0,false,5198931.984631791,,-115.0,0.0,0.0,0.0,0.0,0.0,1.8457029360000001,0.0,0.0,114.0,0.0,0.0,-0.0,0.0,0.0,2.657470431,0.0,0.0,-109.0,0.0,0.0,0.0,0.0,0.0,3.981933186,0.0,0.0,88.0,0.0,0.0,-0.0,0.0,0.0,2.567138409,0.0,0.0,69.87999725341797,2.1700000762939453,-15.210000038146973,0.037109375,0.962646484375,0.34283447265625,34.470001220703125,0.0,-5.0,-0.165740966796875,-0.1843109130859375,Waiting,0.0,0.0,-165380.0,0.0,0.0,0.0,0.9,5.75,
1.8648430000003426,0.0,0.0,false,5198937.037660327,,-115.0,0.0,0.0,0.0,0.0,0.0,1.8444822330000001,0.0,0.0,114.0,0.0,0.0,-0.0,0.0,0.0,2.657470431,0.0,-0.0012207030000004337,-109.0,0.0,0.0,0.0,0.0,0.0,3.984374592,0.0,0.0012207029999995456,88.0,0.0,0.0,-0.0,0.0,0.0,2.568359112,0.0,-0.0012207029999999897,69.87000274658203,2.1600000858306885,-15.199999809265137,0.0379638671875,0.95703125,0.3548583984375,34.470001220703125,0.0,8.0,-0.165740966796875,-0.1843109130859375,Waiting,0.0,0.0,-165380.0,0.0,0.0,0.0,0.9,0.375,
1.932441000000108,0.0,0.0,false,5198940.700314075,,-115.0,0.0,0.0,0.0,0.0,0.0,1.8457029360000001,0.0,0.0,114.0,0.0,0.0,-0.0,0.0,0.0,2.657470431,0.0,-0.0012207030000004337,-109.0,0.0,0.0,0.0,0.0,0.0,3.984374592,0.0,0.0,88.0,0.0,0.0,-0.0,0.0,0.0,2.569579815,0.0,0.0,69.86000061035156,2.1700000762939453,-15.220000267028809,0.03985595703125,0.9615478515625,0.35052490234375,34.470001220703125,0.0,0.0,-0.165740966796875,-0.1843109130859375,Waiting,0.0,0.0,-165380.0,0.0,0.0,0.0,0.9,0.375,
2.0087839999999852,0.0,0.0,false,5198942.972653967,,-115.0,0.0,0.0,0.0,0.0,0.0,1.8457029360000001,0.0,0.0,114.0,0.0,0.0,-0.0,0.0,0.0,2.657470431,0.0,0.0,-109.0,0.0,0.0,0.0,0.0,0.0,3.983153889,0.0,0.0,88.0,0.0,0.0,-0.0,0.0,0.0,2.570800518,0.0,0.0,69.86000061035156,2.1700000762939453,-15.220000267028809,0.03839111328125,0.9525146484375,0.34515380859375,34.470001220703125,0.0,-1.0,-0.165740966796875,-0.1843109130859375,Waiting,0.0,0.0,-165380.0,0.0,0.0,0.0,0.9,0.375,
2.07857200000016,0.0,0.0,false,5198943.507194297,,-115.0,0.0,0.0,0.0,0.0,0.0,1.8457029360000001,0.0,0.0,114.0,0.0,0.0,-0.0,0.0,0.0,2.657470431,0.0,0.0,-109.0,0.0,0.0,0.0,0.0,0.0,3.984374592,0.0,0.0,88.0,0.0,0.0,-0.0,0.0,0.0,2.570800518,0.0,0.0,69.86000061035156,2.1700000762939453,-15.210000038146973,0.0360107421875,0.95263671875,0.35736083984375,34.470001220703125,0.0,3.0,-0.165740966796875,-0.1843109130859375,Waiting,0.0,0.0,-165380.0,0.0,0.0,0.0,0.9,0.375,
2.1525530000003057,0.0,0.0,false,5198942.651552777,,-115.0,0.0,0.0,0.0,0.0,0.0,1.851806451,0.0,0.0,114.0,0.0,0.0,-0.0,0.0,0.0,2.657470431,0.0,0.0,-109.0,0.0,0.0,0.0,0.0,0.0,3.984374592,0.0,0.0,88.0,0.0,0.0,-0.0,0.0,0.0,2.570800518,0.0,0.0012207029999999897,69.81999969482422,2.180000066757202,-15.25,0.04400634765625,0.95263671875,0.33001708984375,34.470001220703125,0.0,-4.0,-0.165740966796875,-0.1843109130859375,Waiting,0.0,0.0,-165380.0,0.0,0.0,0.0,0.0,0.0,
2.223033000000287,0.0,0.0,false,5198940.405790327,,-115.0,0.0,0.0,0.0,0.0,0.0,1.8457029360000001,0.0,0.0,114.0,0.0,0.0,-0.0,0.0,0.0,2.657470431,0.0,0.0,-109.0,0.0,0.0,0.0,0.0,0.0,3.984374592,0.0,-0.0012207029999995456,88.0,0.0,0.0,-0.0,0.0,0.0,2.569579815,0.0,-0.0012207029999999897,69.77999877929688,2.180000066757202,-15.270000457763672,0.03778076171875,0.9244384765625,0.3804931640625,34.470001220703125,0.0,22.0,-0.16571044921875,-0.18438720703125,Waiting,0.0,0.0,-165380.0,0.0,0.0,0.0,0.0,0.0,
2.285091000000015,0.0,0.0,false,5198936.422436459,,-115.0,0.0,0.0,0.0,0.0,0.0,1.8457029360000001,0.0,0.0,114.0,0.0,0.0,-0.0,0.0,0.0,2.657470431,0.0,0.0,-109.0,0.0,0.0,0.0,0.0,0.0,3.984374592,0.0,0.0,88.0,0.0,0.0,-0.0,0.0,0.0,2.569579815,0.0,0.0,69.63999938964844,2.2200000286102295,-15.380000114440918,0.04656982421875,1.0194091796875,0.2808837890625,34.470001220703125,0.0,-45.0,-0.16534423828125,-0.1848297119140625,Waiting,0.0,0.0,-165380.0,0.0,0.0,0.0,0.0,0.0,
2.364195000000298,0.0,0.0,false,5198931.049093644,,-115.0,0.0,0.0,0.0,0.0,0.0,1.8457029360000001,0.0,0.0,114.0,0.0,0.0,-0.0,0.0,0.0,2.657470431,0.0,0.0,-109.0,0.0,0.0,0.0,0.0,0.0,3.9855952950000004,0.0,0.0012207029999995456,88.0,0.0,0.0,-0.0,0.0,0.0,2.569579815,0.0,0.0,69.83000183105469,2.1700000762939453,-15.220000267028809,0.01214599609375,0.9024658203125,0.3341064453125,34.45000076293945,0.0,-17.0,-0.1654510498046875,-0.184234619140625,Waiting,0.0,0.0,-165380.0,0.0,0.0,0.0,0.9,5.375,
2.43413300000038,0.0,0.0,false,5198923.278431831,,-115.0,0.0,0.0,0.0,0.0,0.0,1.8457029360000001,0.0,0.0,114.0,0.0,0.0,-0.0,0.0,0.0,2.657470431,0.0,0.0,-109.0,0.0,0.0,0.0,0.0,0.0,3.9855952950000004,0.0,0.0,88.0,0.0,0.0,-0.0,0.0,0.0,2.572021221,0.0,0.0,69.87999725341797,2.140000104904175,-15.170000076293945,0.02349853515625,0.93548583984375,0.336181640625,34.45000076293945,0.0,-13.0,-0.1653289794921875,-0.18438720703125,Waiting,0.0,0.0,-165380.0,0.0,0.0,0.0,0.9,0.375,
2.5137380000003615,0.0,0.0,false,5198913.770416137,,-115.0,0.0,0.0,0.0,0.0,0.125,1.8457029360000001,0.0,0.0012207030000004337,114.0,0.0,0.0,-0.0,0.0,0.0,2.657470431,0.0,0.0,-109.0,0.0,0.0,0.0,0.0,0.0,3.984374592,0.0,0.0,88.0,0.0,0.0,-0.0,0.0,0.0,2.569579815,0.0,0.0,69.69999694824219,2.1600000858306885,-15.300000190734863,0.03570556640625,0.967529296875,0.29449462890625,34.45000076293945,0.0,-34.0,-0.1652984619140625,-0.1842498779296875,Waiting,0.0,0.0,-165380.0,0.0,0.0,0.0,0.9,0.375,
2.586913000000175,0.0,0.0,false,5198902.872633793,,-115.0,0.0,0.0,0.0,0.0,0.0,1.8457029360000001,0.0,-0.0012207030000004337,114.0,0.0,0.0,-0.0,0.0,0.0,2.657470431,0.0,0.0,-109.0,0.0,0.0,0.0,0.0,0.0,3.9855952950000004,0.0,0.0,88.0,0.0,0.0,-0.0,0.0,0.0,2.569579815,0.0,0.0,69.72000122070312,2.180000066757202,-15.300000190734863,0.0423583984375,0.92138671875,0.3372802734375,34.45000076293945,0.0,3.0,-0.165496826171875,-0.1837615966796875,Waiting,0.0,0.0,-165380.0,0.0,0.0,0.0,0.9,0.375,
2.65818600000022,0.0,0.0,false,5198890.23763967,,-115.0,0.0,0.0,0.0,0.0,0.0,1.8457029360000001,0.0,0.0,114.0,0.0,0.0,-0.0,0.0,0.0,2.656249728,0.0,0.0,-109.0,0.0,0.0,0.0,0.0,0.0,3.984374592,0.0,0.0,88.0,0.0,0.0,-0.0,0.0,0.0,2.569579815,0.0,0.0012207029999999897,69.8499984741211,2.1700000762939453,-15.220000267028809,0.0338134765625,0.95672607421875,0.344970703125,34.45000076293945,0.0,-6.0,-0.165496826171875,-0.1837615966796875,Waiting,0.0,0.0,-165380.0,0.0,0.0,0.0,0.9,0.375,
2.7312620000001044,0.0,0.0,false,5198876.342943943,,-115.0,0.0,0.0,0.0,0.0,0.0,1.8457029360000001,0.0,0.0,114.0,0.0,0.0,-0.0,0.0,0.0,2.657470431,0.0,0.0,-109.0,0.0,0.0,0.0,0.0,0.0,3.983153889,0.0,0.0,88.0,0.0,0.0,-0.0,0.0,0.0,2.569579815,0.0,0.0,69.7699966430664,2.1500000953674316,-15.25,0.02587890625,0.95086669921875,0.34490966796875,34.45000076293945,0.0,3.0,-0.165496826171875,-0.1839141845703125,Waiting,0.0,0.0,-165380.0,0.0,0.0,0.0,0.9,0.375,
2.8312330000000077,0.0,0.0,false,5198910.846159464,,-115.0,0.0,0.0,0.0,0.0,0.125,1.8457029360000001,0.0,0.0012207030000004337,114.0,0.0,0.0,-0.0,0.0,0.0,2.657470431,0.0,0.0,-109.0,0.0,0.0,0.0,0.0,0.0,3.9855952950000004,0.0,0.0,88.0,0.0,0.0,-0.0,0.0,0.0,2.569579815,0.0,0.0,69.83999633789062,2.1500000953674316,-15.210000038146973,0.04931640625,0.95355224609375,0.35540771484375,34.459999084472656,0.0,13.0,-0.165496826171875,-0.1837921142578125,Waiting,0.0,0.0,-165380.0,0.0,0.0,0.0,0.9,0.375,
2.9056049999999813,0.0,0.0,false,5198943.612548928,,-115.0,0.0,0.0,0.0,0.0,0.0,1.8444822330000001,0.0,-0.0012207030000004337,114.0,0.0,0.0,-0.0,0.0,0.0,2.657470431,0.0,0.0,-109.0,0.0,0.0,0.0,0.0,0.0,3.984374592,0.0,0.0,88.0,0.0,0.0,-0.0,0.0,0.0,2.569579815,0.0,-0.0012207029999999897,69.8499984741211,2.190000057220459,-15.229999542236328,0.04388427734375,0.955322265625,0.34393310546875,34.459999084472656,0.0,1.0,-0.165496826171875,-0.1837921142578125,Waiting,0.0,0.0,-165380.0,0.0,0.0,0.0,0.9,0.375,
2.9736170000000857,0.0,0.0,false,5198975.220786049,,-115.0,0.0,0.0,0.0,0.0,0.0,1.8444822330000001,0.0,0.0,114.0,0.0,0.0,-0.0,0.0,0.0,2.657470431,0.0,0.0,-109.0,0.0,0.0,0.0,0.0,0.0,3.984374592,0.0,0.0,88.0,0.0,0.0,-0.0,0.0,0.0,2.569579815,0.0,0.0,69.79000091552734,2.180000066757202,-15.270000457763672,0.0313720703125,0.96087646484375,0.3428955078125,34.459999084472656,0.0,-10.0,-0.165496826171875,-0.1837921142578125,Waiting,0.0,0.0,-165380.0,0.0,0.0,0.0,0.9,0.375,
3.0469270000001414,0.0,0.0,false,5199005.092332409,,-115.0,0.0,0.0,0.0,0.0,0.125,1.8444822330000001,0.0,0.0012207030000004337,114.0,0.0,0.0,-0.0,0.0,0.0,2.657470431,0.0,0.0,-109.0,0.0,0.0,0.0,0.0,0.0,3.984374592,0.0,0.0,88.0,0.0,0.0,-0.0,0.0,0.0,2.568359112,0.0,0.0,69.87000274658203,2.140000104904175,-15.1899995803833,0.03125,0.9537353515625,0.36212158203125,34.459999084472656,0.0,2.0,-0.165496826171875,-0.1837921142578125,Waiting,0.0,0.0,-165380.0,0.0,0.0,0.0,0.9,0.375,
3.115593000000343,0.0,0.0,false,5199033.80584481,,-115.0,0.0,0.0,0.0,0.0,0.0,1.8457029360000001,0.0,0.0,114.0,0.0,0.0,-0.0,0.0,0.0,2.656249728,0.0,0.0,-109.0,0.0,0.0,0.0,0.0,0.0,3.984374592,0.0,0.0,88.0,0.0,0.0,-0.0,0.0,0.0,2.569579815,0.0,0.0,69.83000183105469,2.1500000953674316,-15.210000038146973,0.0421142578125,0.9547119140625,0.355712890625,34.459999084472656,0.0,7.0,-0.165496826171875,-0.1837921142578125,Waiting,0.0,0.0,-165380.0,0.0,0.0,0.0,0.9,0.375,
3.1916120000001973,0.0,0.0,false,5199060.78280173,,-115.0,0.0,0.0,0.0,0.0,0.125,1.8457029360000001,0.0,0.0012207030000004337,114.0,0.0,0.0,-0.0,0.0,0.0,2.656249728,0.0,0.0,-109.0,0.0,0.0,0.0,0.0,0.0,3.984374592,0.0,0.0,88.0,0.0,0.0,-0.0,0.0,0.0,2.569579815,0.0,0.0012207029999999897,69.77999877929688,2.1600000858306885,-15.260000228881836,0.0443115234375,0.95068359375,0.34600830078125,34.459999084472656,0.0,3.0,-0.165496826171875,-0.1837921142578125,Waiting,0.0,0.0,-165380.0,0.0,0.0,0.0,0.9,0.375,
3.256160000000149,0.0,0.0,false,5199086.023279249,,-115.0,0.0,0.0,0.0,0.0,0.125,1.8457029360000001,0.0,0.0,114.0,0.0,0.0,-0.0,0.0,0.0,2.656249728,0.0,0.0,-109.0,0.0,0.0,0.0,0.0,0.0,3.984374592,0.0,0.0,88.0,0.0,0.0,-0.0,0.0,0.0,2.569579815,0.0,0.0,69.83999633789062,2.1700000762939453,-15.229999542236328,0.03497314453125,0.9515380859375,0.3455810546875,34.459999084472656,0.0,-3.0,-0.165496826171875,-0.1837921142578125,Waiting,0.0,0.0,-165380.0,0.0,0.0,0.0,0.9,0.375,
3.3330480000004172,0.0,0.0,false,5199110.105908812,,-115.0,0.0,0.0,0.0,0.0,0.125,1.8457029360000001,0.0,-0.0012207030000004337,114.0,0.0,0.0,-0.0,0.0,0.0,2.656249728,0.0,0.0,-109.0,0.0,0.0,0.0,0.0,0.0,3.9855952950000004,0.0,-0.0012207029999995456,88.0,0.0,0.0,-0.0,0.0,0.0,2.569579815,0.0,0.0,69.83000183105469,2.1600000858306885,-15.239999771118164,0.03643798828125,0.95660400390625,0.35455322265625,34.4900016784668,0.0,1.0,-0.165496826171875,-0.1837921142578125,Waiting,0.0,0.0,-165380.0,0.0,0.0,0.0,0.9,0.375,
3.4086970000001604,0.0,0.0,false,5199132.452194232,,-115.0,0.0,0.0,0.0,0.0,0.125,1.8457029360000001,0.0,0.0012207030000004337,114.0,0.0,0.0,-0.0,0.0,0.0,2.657470431,0.0,0.0,-109.0,0.0,0.0,0.0,0.0,0.0,3.9855952950000004,0.0,0.0,88.0,0.0,0.0,-0.0,0.0,0.0,2.569579815,0.0,0.0,69.79000091552734,2.140000104904175,-15.229999542236328,0.0343017578125,0.9501953125,0.3480224609375,34.4900016784668,0.0,-2.0,-0.165496826171875,-0.1837921142578125,Waiting,0.0,0.0,-165380.0,0.0,0.0,0.0,0.9,0.375,
3.4808370000002906,0.0,0.0,false,5199152.619545534,,-115.0,0.0,0.0,0.0,0.0,0.125,1.8457029360000001,0.0,0.0,114.0,0.0,0.0,-0.0,0.0,0.0,2.656249728,0.0,0.0,-109.0,0.0,0.0,0.0,0.0,0.0,3.984374592,0.0,0.0,88.0,0.0,0.0,-0.0,0.0,0.0,2.569579815,0.0,0.0,69.83999633789062,2.1500000953674316,-15.210000038146973,0.0443115234375,0.9586181640625,0.348876953125,34.4900016784668,0.0,4.0,-0.165496826171875,-0.1837921142578125,Waiting,0.0,0.0,-165380.0,0.0,0.0,0.0,0.9,0.5,
3.5535530000003055,0.0,0.0,false,5199171.050717759,,-115.0,0.0,0.0,0.0,0.0,0.125,1.8457029360000001,0.0,0.0,114.0,0.0,0.0,-0.0,0.0,0.0,2.657470431,0.0,0.0,-109.0,0.0,0.0,0.0,0.0,0.0,3.9880367010000004,0.0,0.0,88.0,0.0,0.0,-0.0,0.0,0.0,2.568359112,0.0,0.0,69.80999755859375,2.180000066757202,-15.25,0.03997802734375,0.94647216796875,0.3560791015625,34.4900016784668,0.0,6.0,-0.165496826171875,-0.1837921142578125,Waiting,0.0,0.0,-165380.0,0.0,0.0,0.0,0.9,0.375,
3.616136000000406,0.0,0.0,false,5199188.324308537,,-115.0,0.0,0.0,0.0,0.0,0.0,1.8457029360000001,0.0,0.0,114.0,0.0,0.0,-0.0,0.0,0.0,2.657470431,0.0,0.0,-109.0,0.0,0.0,0.0,0.0,0.0,3.9855952950000004,0.0,0.0,88.0,0.0,0.0,-0.0,0.0,0.0,2.569579815,0.0,0.0,69.80000305175781,2.1700000762939453,-15.25,0.03704833984375,0.957275390625,0.341796875,34.4900016784668,0.0,-5.0,-0.165496826171875,-0.1837921142578125,Waiting,0.0,0.0,-165380.0,0.0,0.0,0.0,0.9,0.375,
3.691685000000056,0.0,0.0,false,5199203.861855459,,-115.0,0.0,0.0,0.0,0.0,0.0,1.8457029360000001,0.0,0.0,114.0,0.0,0.0,-0.0,0.0,0.0,2.657470431,0.0,0.0012207030000004337,-109.0,0.0,0.0,0.0,0.0,0.0,3.984374592,0.0,0.0,88.0,0.0,0.0,-0.0,0.0,0.0,2.569579815,0.0,0.0,69.87999725341797,2.1600000858306885,-15.1899995803833,0.02825927734375,0.96685791015625,0.37060546875,34.4900016784668,0.0,0.0,-0.165496826171875,-0.183807373046875,Waiting,0.0,0.0,-165380.0,0.0,0.0,0.0,0.9,0.375,
3.757470000000205,0.0,0.0,false,5199218.241939252,,-115.0,0.0,0.0,0.0,0.0,0.125,1.8432615300000001,0.0,0.0,114.0,0.0,0.0,-0.0,0.0,0.0,2.657470431,0.0,0.0,-109.0,0.0,0.0,0.0,0.0,0.0,3.984374592,0.0,0.0,88.0,0.0,0.0,-0.0,0.0,0.0,2.570800518,0.0,0.0,69.81999969482422,2.1500000953674316,-15.220000267028809,0.04193115234375,0.95068359375,0.34906005859375,34.4900016784668,0.0,4.0,-0.165496826171875,-0.18389892578125,Waiting,0.0,0.0,-165380.0,0.0,0.0,0.0,0.9,0.375,
3.834648000000045,0.0,0.0,false,5199230.886114397,,-115.0,0.0,0.0,0.0,0.0,0.0,1.8457029360000001,0.0,-0.0012207030000004337,114.0,0.0,0.0,-0.0,0.0,0.0,2.656249728,0.0,0.0,-109.0,0.0,0.0,0.0,0.0,0.0,3.9855952950000004,0.0,0.0,88.0,0.0,0.0,-0.0,0.0,0.0,2.569579815,0.0,0.0,69.83000183105469,2.1600000858306885,-15.229999542236328,0.04608154296875,0.95233154296875,0.3441162109375,34.47999954223633,0.0,4.0,-0.165496826171875,-0.18389892578125,Waiting,0.0,0.0,-165380.0,0.0,0.0,0.0,0.9,0.25,
3.9016190000004136,0.0,0.0,false,5199241.794456937,,-115.0,0.0,0.0,0.0,0.0,0.0,1.8444822330000001,0.0,0.0,114.0,0.0,0.0,-0.0,0.0,0.0,2.657470431,0.0,0.0,-109.0,0.0,0.0,0.0,0.0,0.0,3.97949178,0.0,0.0,88.0,0.0,0.0,-0.0,0.0,0.0,2.569579815,0.0,0.0,69.81999969482422,2.180000066757202,-15.239999771118164,0.0482177734375,0.96923828125,0.35302734375,34.47999954223633,0.0,6.0,-0.165496826171875,-0.1840057373046875,Waiting,0.0,0.0,-165380.0,0.0,0.0,0.0,0.9,0.25,
3.9768770000003277,0.0,0.0,false,5199251.5455222465,,-115.0,0.0,0.0,0.0,0.0,0.0,1.8457029360000001,0.0,0.0,114.0,0.0,0.0,-0.0,0.0,0.0,2.653808322,0.0,0.0,-109.0,0.0,0.0,0.0,0.0,0.0,3.983153889,0.0,0.0,88.0,0.0,0.0,-0.0,0.0,0.0,2.569579815,0.0,0.0,69.76000213623047,2.1600000858306885,-15.270000457763672,0.02752685546875,0.939453125,0.3226318359375,34.47999954223633,0.0,-19.0,-0.1655731201171875,-0.1840057373046875,Waiting,0.0,0.0,-165380.0,0.0,0.0,0.0,0.9,0.25,
4.047653000000398,0.0,0.0,false,5199259.560890135,,-115.0,0.0,0.0,0.0,0.0,0.125,1.8444822330000001,0.0,0.0012207030000004337,114.0,0.0,0.0,-0.0,0.0,0.0,2.657470431,0.0,0.0,-109.0,0.0,0.0,0.0,0.0,0.0,3.9855952950000004,0.0,0.0,88.0,0.0,0.0,-0.0,0.0,0.0,2.570800518,0.0,0.0,69.8499984741211,2.1600000858306885,-15.210000038146973,0.026611328125,0.936767578125,0.35321044921875,34.47999954223633,0.0,-3.0,-0.1656494140625,-0.1840057373046875,Waiting,0.0,0.0,-165380.0,0.0,0.0,0.0,0.9,0.25,
4.119817000000272,0.0,0.0,false,5199266.419099073,,-115.0,0.0,0.0,0.0,0.0,0.125,1.8457029360000001,0.0,0.0,114.0,0.0,0.0,-0.0,0.0,0.0,2.657470431,0.0,0.0,-109.0,0.0,0.0,0.0,0.0,0.0,3.984374592,0.0,0.0,88.0,0.0,0.0,-0.0,0.0,0.0,2.565917706,0.0,0.0,69.83000183105469,2.1600000858306885,-15.220000267028809,0.037109375,0.95465087890625,0.3502197265625,34.47999954223633,0.0,0.0,-0.1656494140625,-0.1840057373046875,Waiting,0.0,0.0,-165380.0,0.0,0.0,0.0,0.9,0.375,
4.188725000000093,0.0,0.0,false,5199271.099144351,,-115.0,0.0,0.0,0.0,0.0,0.125,1.8457029360000001,0.0,0.0,114.0,0.0,0.0,-0.0,0.0,0.0,2.653808322,0.0,0.0,-109.0,0.0,0.0,0.0,0.0,0.0,3.984374592,0.0,0.0,88.0,0.0,0.0,-0.0,0.0,0.0,2.569579815,0.0,0.0,69.76000213623047,2.1700000762939453,-15.270000457763672,0.0372314453125,0.937744140625,0.33502197265625,34.47999954223633,0.0,-5.0,-0.1656494140625,-0.1840057373046875,Waiting,0.0,0.0,-165380.0,0.0,0.0,0.0,0.9,0.375,
4.258417000000365,0.0,0.0,false,5199274.62216187,,-115.0,0.0,0.0,0.0,0.0,0.0,1.8444822330000001,0.0,-0.0012207030000004337,114.0,0.0,0.0,-0.0,0.0,0.0,2.656249728,0.0,0.0,-109.0,0.0,0.0,0.0,0.0,0.0,3.9855952950000004,0.0,0.0,88.0,0.0,0.0,-0.0,0.0,0.0,2.569579815,0.0,0.0,69.86000061035156,2.1700000762939453,-15.210000038146973,0.03167724609375,0.96728515625,0.35052490234375,34.47999954223633,0.0,-7.0,-0.1656494140625,-0.1840057373046875,Waiting,0.0,0.0,-165380.0,0.0,0.0,0.0,0.9,0.375,
4.334800000000279,0.0,0.0,false,5199276.409765215,,-115.0,0.0,0.0,0.0,0.0,0.0,1.8457029360000001,0.0,0.0012207030000004337,114.0,0.0,0.0,-0.0,0.0,0.0,2.657470431,0.0,0.0,-109.0,0.0,0.0,0.0,0.0,0.0,3.984374592,0.0,0.0,88.0,0.0,0.0,-0.0,0.0,0.0,2.568359112,0.0,0.0,69.81999969482422,2.1600000858306885,-15.239999771118164,0.0345458984375,0.95465087890625,0.34759521484375,34.45000076293945,0.0,-3.0,-0.1656494140625,-0.1840057373046875,Waiting,0.0,0.0,-165380.0,0.0,0.0,0.0,0.9,0.375,
4.411395000000018,0.0,0.0,false,5199276.462030399,,-115.0,0.0,0.0,0.0,0.0,0.0,1.8457029360000001,0.0,0.0,114.0,0.0,0.0,-0.0,0.0,0.0,2.657470431,0.0,0.0,-109.0,0.0,0.0,0.0,0.0,0.0,3.983153889,0.0,0.0,88.0,0.0,0.0,-0.0,0.0,0.0,2.569579815,0.0,0.0,69.77999877929688,2.1600000858306885,-15.260000228881836,0.03900146484375,0.95928955078125,0.33831787109375,34.45000076293945,0.0,-6.0,-0.1656494140625,-0.1840057373046875,Waiting,0.0,0.0,-165380.0,0.0,0.0,0.0,0.9,0.5,
4.488783999999985,0.0,0.0,false,5199274.7790334355,,-115.0,0.0,0.0,0.0,0.0,0.0,1.8469236390000001,0.0,0.0,114.0,0.0,0.0,-0.0,0.0,0.0,2.657470431,0.0,0.0,-109.0,0.0,0.0,0.0,0.0,0.0,3.984374592,0.0,0.0,88.0,0.0,0.0,-0.0,0.0,0.0,2.5634763,0.0,0.0012207029999999897,69.87000274658203,2.180000066757202,-15.210000038146973,0.04376220703125,0.953369140625,0.36029052734375,34.45000076293945,0.0,10.0,-0.1656494140625,-0.1840057373046875,Waiting,0.0,0.0,-165380.0,0.0,0.0,0.0,0.9,0.5,
4.557714000000153,0.0,0.0,false,5199271.939262093,,-115.0,0.0,0.0,0.0,0.0,0.0,1.8457029360000001,0.0,0.0,114.0,0.0,0.0,-0.0,0.0,0.0,2.668456758,0.0,0.0,-109.0,0.0,0.0,0.0,0.0,0.0,3.9855952950000004,0.0,0.0,88.0,0.0,0.0,-0.0,0.0,0.0,2.569579815,0.0,0.0,69.79000091552734,2.1700000762939453,-15.260000228881836,0.03179931640625,0.95672607421875,0.34625244140625,34.45000076293945,0.0,-7.0,-0.1656494140625,-0.1840057373046875,Waiting,0.0,0.0,-165380.0,0.0,0.0,0.0,0.9,0.375,
4.634093000000343,0.0,0.0,false,5199267.364363722,,-115.0,0.0,0.0,0.0,0.0,0.0,1.8457029360000001,0.0,0.0012207030000004337,114.0,0.0,0.0,-0.0,0.0,0.0,2.657470431,0.0,0.0,-109.0,0.0,0.0,0.0,0.0,0.0,3.9855952950000004,0.0,0.0012207029999995456,88.0,0.0,0.0,-0.0,0.0,0.0,2.569579815,0.0,0.0,69.75,2.1600000858306885,-15.279999732971191,0.05047607421875,0.93365478515625,0.3424072265625,34.45000076293945,0.0,10.0,-0.1656494140625,-0.1840057373046875,Waiting,0.0,0.0,-165380.0,0.0,0.0,0.0,0.9,0.375,
4.7010530000003055,0.0,0.0,false,5199261.05441432,,-115.0,0.0,0.0,0.0,0.0,0.0,1.8457029360000001,0.0,-0.0012207030000004337,114.0,0.0,0.0,-0.0,0.0,0.0,2.657470431,0.0,0.0,-109.0,0.0,0.0,0.0,0.0,0.0,3.984374592,0.0,0.0,88.0,0.0,0.0,-0.0,0.0,0.0,2.568359112,0.0,0.0,69.8499984741211,2.1700000762939453,-15.220000267028809,0.0328369140625,0.949462890625,0.35089111328125,34.45000076293945,0.0,-2.0,-0.1656494140625,-0.1840057373046875,Waiting,0.0,0.0,-165380.0,0.0,0.0,0.0,0.9,0.375,
4.78161400000006,0.0,0.0,false,5199253.587876311,,-115.0,0.0,0.0,0.0,0.0,0.0,1.8457029360000001,0.0,0.0,114.0,0.0,0.0,-0.0,0.0,0.0,2.657470431,0.0,0.0,-109.0,0.0,0.0,0.0,0.0,0.0,3.984374592,0.0,0.0,88.0,0.0,0.0,-0.0,0.0,0.0,2.569579815,0.0,-0.0012207029999999897,69.80999755859375,2.180000066757202,-15.239999771118164,0.04351806640625,0.9591064453125,0.34149169921875,34.45000076293945,0.0,0.0,-0.1656494140625,-0.1840057373046875,Waiting,0.0,0.0,-165380.0,0.0,0.0,0.0,0.9,0.375,
4.844041000000201,0.0,0.0,false,5199244.386422367,,-115.0,0.0,0.0,0.0,0.0,0.125,1.8469236390000001,0.0,0.0012207030000004337,114.0,0.0,0.0,-0.0,0.0,0.0,2.657470431,0.0,0.0,-109.0,0.0,0.0,0.0,0.0,0.0,3.9855952950000004,0.0,0.0012207029999995456,88.0,0.0,0.0,-0.0,0.0,0.0,2.569579815,0.0,0.0,69.72000122070312,2.180000066757202,-15.3100004196167,0.0345458984375,0.951171875,0.35150146484375,34.45000076293945,0.0,-2.0,-0.1656494140625,-0.1840057373046875,Waiting,0.0,0.0,-165380.0,0.0,0.0,0.0,0.9,0.375,
4.914292000000365,0.0,0.0,false,5199233.585961224,,-115.0,0.0,0.0,0.0,0.0,0.125,1.8457029360000001,0.0,0.0,114.0,0.0,0.0,-0.0,0.0,0.0,2.656249728,0.0,0.0,-109.0,0.0,0.0,0.0,0.0,0.0,3.9965816220000003,0.0,0.0,88.0,0.0,0.0,-0.0,0.0,0.0,2.569579815,0.0,0.0,69.83999633789062,2.180000066757202,-15.229999542236328,0.03338623046875,0.9710693359375,0.36810302734375,34.45000076293945,0.0,2.0,-0.1656494140625,-0.183929443359375,Waiting,0.0,0.0,-165380.0,0.0,0.0,0.0,0.9,0.375,
4.990188000000082,0.0,0.0,false,5199221.050732149,,-115.0,0.0,0.0,0.0,0.0,0.0,1.8457029360000001,0.0,-0.0012207030000004337,114.0,0.0,0.0,-0.0,0.0,0.0,2.663573946,0.0,0.0012207030000004337,-109.0,0.0,0.0,0.0,0.0,0.0,3.983153889,0.0,0.0012207029999995456,88.0,0.0,0.0,-0.0,0.0,0.0,2.568359112,0.0,0.0,69.81999969482422,2.1600000858306885,-15.229999542236328,0.04351806640625,0.96063232421875,0.35845947265625,34.45000076293945,0.0,8.0,-0.1656494140625,-0.183929443359375,Waiting,0.0,0.0,-165380.0,0.0,0.0,0.0,0.9,0.375,
5.062516999999993,0.0,0.0,false,5199206.780811119,,-115.0,0.0,0.0,0.0,0.0,0.125,1.8457029360000001,0.0,0.0,114.0,0.0,0.0,-0.0,0.0,0.0,2.657470431,0.0,0.0,-109.0,0.0,0.0,0.0,0.0,0.0,3.984374592,0.0,0.0,88.0,0.0,0.0,-0.0,0.0,0.0,2.569579815,0.0,0.0,69.7699966430664,2.1700000762939453,-15.270000457763672,0.0433349609375,0.95330810546875,0.34503173828125,34.45000076293945,0.0,1.0,-0.1656494140625,-0.183929443359375,Waiting,0.0,0.0,-165380.0,0.0,0.0,0.0,0.9,0.375,
5.148414000000339,0.0,0.0,false,5199242.440911546,,-115.0,0.0,0.0,0.0,0.0,0.0,1.8444822330000001,0.0,-0.0012207030000004337,114.0,0.0,0.0,-0.0,0.0,0.0,2.656249728,0.0,0.0,-109.0,0.0,0.0,0.0,0.0,0.0,3.9855952950000004,0.0,0.0,88.0,0.0,0.0,-0.0,0.0,0.0,2.569579815,0.0,0.0,69.81999969482422,2.180000066757202,-15.25,0.03192138671875,0.9560546875,0.35418701171875,34.45000076293945,0.0,-3.0,-0.1656494140625,-0.183929443359375,Waiting,0.0,0.0,-165380.0,0.0,0.0,0.0,0.9,0.375,
5.213566000000108,0.0,0.0,false,5199276.627503649,,-115.0,0.0,0.0,0.0,0.0,0.0,1.8432615300000001,0.0,0.0,114.0,0.0,0.0,-0.0,0.0,0.0,2.657470431,0.0,0.0,-109.0,0.0,0.0,0.0,0.0,0.0,3.984374592,0.0,0.0,88.0,0.0,0.0,-0.0,0.0,0.0,2.567138409,0.0,0.0,69.81999969482422,2.1700000762939453,-15.239999771118164,0.03302001953125,0.950439453125,0.3555908203125,34.45000076293945,0.0,0.0,-0.1656494140625,-0.183929443359375,Waiting,0.0,0.0,-165380.0,0.0,0.0,0.0,0.9,0.375,
5.289531000000425,0.0,0.0,false,5199309.340651961,,-115.0,0.0,0.0,0.0,0.0,0.125,1.8457029360000001,0.0,0.0012207030000004337,114.0,0.0,0.0,-0.0,0.0,0.0,2.656249728,0.0,0.0,-109.0,0.0,0.0,0.0,0.0,0.0,3.984374592,0.0,0.0,88.0,0.0,0.0,-0.0,0.0,0.0,2.569579815,0.0,0.0,69.73999786376953,2.1700000762939453,-15.289999961853027,0.0361328125,0.9493408203125,0.3458251953125,34.45000076293945,0.0,-3.0,-0.1656494140625,-0.183929443359375,Waiting,0.0,0.0,-165380.0,0.0,0.0,0.0,0.9,0.5,
5.353540000000037,0.0,0.0,false,5199340.58042101,,-115.0,0.0,0.0,0.0,0.0,0.0,1.8457029360000001,0.0,-0.0012207030000004337,114.0,0.0,0.0,-0.0,0.0,0.0,2.656249728,0.0,0.0,-109.0,0.0,0.0,0.0,0.0,0.0,3.984374592,0.0,0.0,88.0,0.0,0.0,-0.0,0.0,0.0,2.569579815,0.0,0.0012207029999999897,69.77999877929688,2.180000066757202,-15.270000457763672,0.04132080078125,0.9532470703125,0.34906005859375,34.45000076293945,0.0,2.0,-0.1656494140625,-0.183929443359375,Waiting,0.0,0.0,-165380.0,0.0,0.0,0.0,0.9,0.375,
5.431772000000347,0.0,0.0,false,5199370.346875319,,-115.0,0.0,0.0,0.0,0.0,0.0,1.8457029360000001,0.0,0.0012207030000004337,114.0,0.0,0.0,-0.0,0.0,0.0,2.657470431,0.0,0.0012207030000004337,-109.0,0.0,0.0,0.0,0.0,0.0,3.984374592,0.0,0.0,88.0,0.0,0.0,-0.0,0.0,0.0,2.569579815,0.0,0.0,69.81999969482422,2.190000057220459,-15.25,0.034423828125,0.95501708984375,0.36236572265625,34.470001220703125,0.0,3.0,-0.1656494140625,-0.183929443359375,Waiting,0.0,0.0,-165380.0,0.0,0.0,0.0,0.9,0.375,
5.495716000000015,0.0,0.0,false,5199397.903888824,,-115.0,0.0,0.0,0.0,0.0,0.0,1.8457029360000001,0.0,-0.0012207030000004337,114.0,0.0,0.0,-0.0,0.0,0.0,2.656249728,0.0,-0.0012207030000004337,-109.0,0.0,0.0,0.0,0.0,0.0,3.984374592,0.0,0.0,88.0,0.0,0.0,-0.0,0.0,0.0,2.569579815,0.0,0.0,69.76000213623047,2.180000066757202,-15.279999732971191,0.02960205078125,0.95001220703125,0.35028076171875,34.470001220703125,0.0,-6.0,-0.1656494140625,-0.183929443359375,Waiting,0.0,0.0,-165380.0,0.0,0.0,0.0,0.9,0.375,
5.564707000000403,0.0,0.0,false,5199423.987738121,,-115.0,0.0,0.0,0.0,0.0,0.0,1.8457029360000001,0.0,0.0,114.0,0.0,0.0,-0.0,0.0,0.0,2.656249728,0.0,0.0,-109.0,0.0,0.0,0.0,0.0,0.0,3.9855952950000004,0.0,0.0,88.0,0.0,0.0,-0.0,0.0,0.0,2.569579815,0.0,0.0,69.80999755859375,2.1700000762939453,-15.239999771118164,0.0380859375,0.9361572265625,0.34014892578125,34.470001220703125,0.0,0.0,-0.1656494140625,-0.183929443359375,Waiting,0.0,0.0,-165380.0,0.0,0.0,0.0,0.9,0.25,
5.63250800000038,0.0,0.0,false,5199448.298484804,,-115.0,0.0,0.0,0.0,0.0,0.0,1.8457029360000001,0.0,0.0,114.0,0.0,0.0,-0.0,0.0,0.0,2.656249728,0.0,0.0,-109.0,0.0,0.0,0.0,0.0,0.0,3.984374592,0.0,0.0,88.0,0.0,0.0,-0.0,0.0,0.0,2.568359112,0.0,0.0012207029999999897,69.83000183105469,2.180000066757202,-15.239999771118164,0.03350830078125,0.958740234375,0.35076904296875,34.470001220703125,0.0,-4.0,-0.1656494140625,-0.183929443359375,Waiting,0.0,0.0,-165380.0,0.0,0.0,0.0,0.9,0.375,
5.706354999999982,0.0,0.0,false,5199471.1362050595,,-115.0,0.0,0.0,0.0,0.0,0.0,1.8457029360000001,0.0,0.0,114.0,0.0,0.0,-0.0,0.0,0.0,2.657470431,0.0,0.0,-109.0,0.0,0.0,0.0,0.0,0.0,3.984374592,0.0,0.0,88.0,0.0,0.0,-0.0,0.0,0.0,2.569579815,0.0,-0.0012207029999999897,69.7699966430664,2.1700000762939453,-15.270000457763672,0.048095703125,0.94659423828125,0.32818603515625,34.470001220703125,0.0,-1.0,-0.1656494140625,-0.183929443359375,Waiting,0.0,0.0,-165380.0,0.0,0.0,0.0,0.9,0.375,
5.775609000000172,0.0,0.0,false,5199492.500963391,,-115.0,0.0,0.0,0.0,0.0,0.0,1.848144342,0.0,0.0012207030000004337,114.0,0.0,0.0,-0.0,0.0,0.0,2.657470431,0.0,0.0,-109.0,0.0,0.0,0.0,0.0,0.0,3.9904781070000004,0.0,0.0,88.0,0.0,0.0,-0.0,0.0,0.0,2.569579815,0.0,0.0,69.83999633789062,2.190000057220459,-15.239999771118164,0.0509033203125,0.95269775390625,0.35882568359375,34.470001220703125,0.0,15.0,-0.1656494140625,-0.183929443359375,Waiting,0.0,0.0,-165380.0,0.0,0.0,0.0,0.9,0.375,
5.850085000000428,0.0,0.0,false,5199512.392824301,,-115.0,0.0,0.0,0.0,0.0,0.0,1.8457029360000001,0.0,-0.0012207030000004337,114.0,0.0,0.0,-0.0,0.0,0.0,2.657470431,0.0,0.0,-109.0,0.0,0.0,0.0,0.0,0.0,3.984374592,0.0,0.0,88.0,0.0,0.0,-0.0,0.0,0.0,2.569579815,0.0,0.0,69.80000305175781,2.180000066757202,-15.260000228881836,0.03082275390625,0.96893310546875,0.349609375,34.470001220703125,0.0,-9.0,-0.1656494140625,-0.183929443359375,Waiting,0.0,0.0,-165380.0,0.0,0.0,0.0,0.9,0.375,
5.914914000000339,0.0,0.0,false,5199530.811852285,,-115.0,0.0,0.0,0.0,0.0,0.0,1.8457029360000001,0.0,0.0,114.0,0.0,0.0,-0.0,0.0,0.0,2.656249728,0.0,0.0,-109.0,0.0,0.0,0.0,0.0,0.0,3.9868159980000004,0.0,0.0,88.0,0.0,0.0,-0.0,0.0,0.0,2.569579815,0.0,0.0,69.7699966430664,2.1600000858306885,-15.260000228881836,0.03289794921875,0.94293212890625,0.3489990234375,34.459999084472656,0.0,-2.0,-0.1656494140625,-0.183929443359375,Waiting,0.0,0.0,-165380.0,0.0,0.0,0.0,0.9,0.375,
5.990413000000175,0.0,0.0,false,5199547.758111836,,-115.0,0.0,0.0,0.0,0.0,0.125,1.8457029360000001,0.0,0.0012207030000004337,114.0,0.0,0.0,-0.0,0.0,0.0,2.657470431,0.0,0.0,-109.0,0.0,0.0,0.0,0.0,0.0,3.984374592,0.0,0.0,88.0,0.0,0.0,-0.0,0.0,0.0,2.569579815,0.0,0.0,69.80000305175781,2.1600000858306885,-15.239999771118164,0.0435791015625,0.96893310546875,0.36529541015625,34.459999084472656,0.0,9.0,-0.1656494140625,-0.183929443359375,Waiting,0.0,0.0,-165380.0,0.0,0.0,0.0,0.9,0.375,
6.06093600000022,0.0,0.0,false,5199562.931690799,,-115.0,0.0,0.0,0.0,0.0,0.0,1.8457029360000001,0.0,-0.0012207030000004337,114.0,0.0,0.0,-0.0,0.0,0.0,2.657470431,0.0,0.0,-109.0,0.0,0.0,0.0,0.0,0.0,3.984374592,0.0,0.0,88.0,0.0,0.0,-0.0,0.0,0.0,2.569579815,0.0,0.0012207029999999897,69.7300033569336,2.190000057220459,-15.3100004196167,0.0440673828125,0.94952392578125,0.3623046875,34.459999084472656,0.0,11.0,-0.1656494140625,-0.183929443359375,Waiting,0.0,0.0,-165380.0,0.0,0.0,0.0,0.9,0.375,
6.135161000000313,0.0,0.0,false,5199576.632639062,,-115.0,0.0,0.0,0.0,0.0,0.0,1.8444822330000001,0.0,0.0,114.0,0.0,0.0,-0.0,0.0,0.0,2.657470431,0.0,0.0,-109.0,0.0,0.0,0.0,0.0,0.0,3.9855952950000004,0.0,0.0012207029999995456,88.0,0.0,0.0,-0.0,0.0,0.0,2.569579815,0.0,-0.0012207029999999897,69.75,2.200000047683716,-15.300000190734863,0.0384521484375,0.96844482421875,0.34344482421875,34.459999084472656,0.0,-7.0,-0.1656494140625,-0.183929443359375,Waiting,0.0,0.0,-165380.0,0.0,0.0,0.0,0.9,0.375,
6.197506000000052,0.0,0.0,false,5199588.861021105,,-115.0,0.0,0.0,0.0,0.0,0.0,1.8457029360000001,0.0,0.0,114.0,0.0,0.0,-0.0,0.0,0.0,2.656249728,0.0,0.0,-109.0,0.0,0.0,0.0,0.0,0.0,3.9855952950000004,0.0,0.0,88.0,0.0,0.0,-0.0,0.0,0.0,2.569579815,0.0,0.0,69.81999969482422,2.190000057220459,-15.25,0.029296875,0.94464111328125,0.362060546875,34.459999084472656,0.0,1.0,-0.1656494140625,-0.183929443359375,Waiting,0.0,0.0,-165380.0,0.0,0.0,0.0,0.9,0.375,
6.2707110000001265,0.0,0.0,false,5199599.616901409,,-115.0,0.0,0.0,0.0,0.0,0.0,1.8444822330000001,0.0,0.0,114.0,0.0,0.0,-0.0,0.0,0.0,2.657470431,0.0,0.0,-109.0,0.0,0.0,0.0,0.0,0.0,3.984374592,0.0,0.0,88.0,0.0,0.0,-0.0,0.0,0.0,2.569579815,0.0,0.0,69.7300033569336,2.1700000762939453,-15.300000190734863,0.04052734375,0.95025634765625,0.360595703125,34.459999084472656,0.0,-2.0,-0.1656494140625,-0.183929443359375,Waiting,0.0,0.0,-165380.0,0.0,0.0,0.0,0.9,0.25,
6.344353000000119,0.0,0.0,false,5199608.900344445,,-115.0,0.0,0.0,0.0,0.0,0.0,1.8457029360000001,0.0,0.0,114.0,0.0,0.0,-0.0,0.0,0.0,2.653808322,0.0,0.0,-109.0,0.0,0.0,0.0,0.0,0.0,3.984374592,0.0,-0.0012207029999995456,88.0,0.0,0.0,-0.0,0.0,0.0,2.570800518,0.0,0.0012207029999999897,69.7699966430664,2.1500000953674316,-15.25,0.04254150390625,0.96588134765625,0.33502197265625,34.459999084472656,0.0,-6.0,-0.1656494140625,-0.183929443359375,Waiting,0.0,0.0,-165380.0,0.0,0.0,0.0,0.9,0.375,
6.4123840000000785,0.0,0.0,false,5199616.7114146855,,-115.0,0.0,0.0,0.0,0.0,0.125,1.8457029360000001,0.0,0.0,114.0,0.0,0.0,-0.0,0.0,0.0,2.657470431,0.0,0.0,-109.0,0.0,0.0,0.0,0.0,0.0,3.9855952950000004,0.0,0.0,88.0,0.0,0.0,-0.0,0.0,0.0,2.569579815,0.0,0.0,69.8499984741211,2.180000066757202,-15.210000038146973,0.0545654296875,0.9605712890625,0.36962890625,34.459999084472656,0.0,22.0,-0.165618896484375,-0.183929443359375,Waiting,0.0,0.0,-165380.0,0.0,0.0,0.0,0.9,0.375,
6.493719000000041,0.0,0.0,false,5199623.050176596,,-115.0,0.0,0.0,0.0,0.0,0.125,1.8457029360000001,0.0,0.0,114.0,0.0,0.0,-0.0,0.0,0.0,2.657470431,0.0,0.0,-109.0,0.0,0.0,0.0,0.0,0.0,3.984374592,0.0,0.0,88.0,0.0,0.0,-0.0,0.0,0.0,2.569579815,0.0,0.0,69.68000030517578,2.2100000381469727,-15.350000381469727,0.040771484375,0.960205078125,0.34918212890625,34.459999084472656,0.0,-1.0,-0.16546630859375,-0.183929443359375,Waiting,0.0,0.0,-165380.0,0.0,0.0,0.0,0.9,0.5,
6.564776000000071,0.0,0.0,false,5199626.880719217,,-115.0,0.0,0.0,0.0,0.0,0.125,1.8457029360000001,0.0,0.0,114.0,0.0,0.0,-0.0,0.0,0.0,2.657470431,0.0,0.0,-109.0,0.0,0.0,0.0,0.0,0.0,3.984374592,0.0,0.0,88.0,0.0,0.0,-0.0,0.0,0.0,2.569579815,0.0,0.0,69.80999755859375,2.1700000762939453,-15.239999771118164,0.02532958984375,0.96136474609375,0.3492431640625,34.459999084472656,0.0,-12.0,-0.16546630859375,-0.183929443359375,Waiting,0.0,0.0,-165380.0,0.0,0.0,0.0,0.9,0.375,
6.645511000000406,0.0,0.0,false,5199629.239112668,,-115.0,0.0,0.0,0.0,0.0,0.125,1.849365045,0.0,0.0,114.0,0.0,0.0,-0.0,0.0,0.0,2.657470431,0.0,0.0,-109.0,0.0,0.0,0.0,0.0,0.0,3.984374592,0.0,0.0,88.0,0.0,0.0,-0.0,0.0,0.0,2.569579815,0.0,0.0,69.80000305175781,2.1500000953674316,-15.229999542236328,0.0447998046875,0.9620361328125,0.3603515625,34.459999084472656,0.0,9.0,-0.16546630859375,-0.183929443359375,Waiting,0.0,0.0,-165380.0,0.0,0.0,0.0,0.9,0.375,
6.713595000000205,0.0,0.0,false,5199630.125421404,,-115.0,0.0,0.0,0.0,0.0,0.0,1.8457029360000001,0.0,0.0,114.0,0.0,0.0,-0.0,0.0,0.0,2.657470431,0.0,0.0,-109.0,0.0,0.0,0.0,0.0,0.0,3.9855952950000004,0.0,0.0,88.0,0.0,0.0,-0.0,0.0,0.0,2.564697003,0.0,0.0,69.69000244140625,2.190000057220459,-15.329999923706055,0.04510498046875,0.95849609375,0.33245849609375,34.459999084472656,0.0,-5.0,-0.16546630859375,-0.183929443359375,Waiting,0.0,0.0,-165380.0,0.0,0.0,0.0,0.9,0.5,
6.789836000000126,0.0,0.0,false,5199629.539709874,,-115.0,0.0,0.0,0.0,0.0,0.125,1.8457029360000001,0.0,0.0012207030000004337,114.0,0.0,0.0,-0.0,0.0,0.0,2.657470431,0.0,0.0,-109.0,0.0,0.0,0.0,0.0,0.0,3.984374592,0.0,0.0,88.0,0.0,0.0,-0.0,0.0,0.0,2.568359112,0.0,-0.0012207029999999897,69.79000091552734,2.200000047683716,-15.279999732971191,0.04022216796875,0.9586181640625,0.3572998046875,34.459999084472656,0.0,4.0,-0.16546630859375,-0.183929443359375,Waiting,0.0,0.0,-165380.0,0.0,0.0,0.0,0.9,0.5,
6.866702000000048,0.0,0.0,false,5199627.482042526,,-115.0,0.0,0.0,0.0,0.0,0.0,1.8457029360000001,0.0,0.0,114.0,0.0,0.0,-0.0,0.0,0.0,2.657470431,0.0,0.0,-109.0,0.0,0.0,0.0,0.0,0.0,3.9855952950000004,0.0,0.0,88.0,0.0,0.0,-0.0,0.0,0.0,2.569579815,0.0,0.0,69.79000091552734,2.180000066757202,-15.260000228881836,0.03131103515625,0.95733642578125,0.35992431640625,34.459999084472656,0.0,-1.0,-0.16546630859375,-0.183929443359375,Waiting,0.0,0.0,-165380.0,0.0,0.0,0.0,0.9,0.5,
6.9484520000000485,0.0,0.0,false,5199623.952483801,,-115.0,0.0,0.0,0.0,0.0,0.125,1.8457029360000001,0.0,0.0012207030000004337,114.0,0.0,0.0,-0.0,0.0,0.0,2.656249728,0.0,0.0,-109.0,0.0,0.0,0.0,0.0,0.0,3.984374592,0.0,0.0,88.0,0.0,0.0,-0.0,0.0,0.0,2.569579815,0.0,0.0012207029999999897,69.72000122070312,2.1600000858306885,-15.289999961853027,0.039794921875,0.95703125,0.34246826171875,34.47999954223633,0.0,-3.0,-0.16546630859375,-0.183929443359375,Waiting,0.0,0.0,-165380.0,0.0,0.0,0.0,0.9,0.5,
7.032924000000116,0.0,0.0,false,5199618.651178402,,-115.0,0.0,0.0,0.0,0.0,0.0,1.8457029360000001,0.0,-0.0012207030000004337,114.0,0.0,0.0,-0.0,0.0,0.0,2.656249728,0.0,0.0,-109.0,0.0,0.0,0.0,0.0,0.0,3.983153889,0.0,0.0,88.0,0.0,0.0,-0.0,0.0,0.0,2.569579815,0.0,0.0,69.77999877929688,2.190000057220459,-15.270000457763672,0.0479736328125,0.9649658203125,0.3585205078125,34.47999954223633,0.0,9.0,-0.16546630859375,-0.183929443359375,Waiting,0.0,0.0,-165380.0,0.0,0.0,0.0,0.9,0.5,
7.10671200000029,0.0,0.0,false,5199611.878119254,,-115.0,0.0,0.0,0.0,0.0,0.0,1.8444822330000001,0.0,0.0,114.0,0.0,0.0,-0.0,0.0,0.0,2.657470431,0.0,0.0,-109.0,0.0,0.0,0.0,0.0,0.0,3.9868159980000004,0.0,0.0,88.0,0.0,0.0,-0.0,0.0,0.0,2.569579815,0.0,0.0,69.69000244140625,2.190000057220459,-15.329999923706055,0.0391845703125,0.9549560546875,0.3388671875,34.47999954223633,0.0,-6.0,-0.16546630859375,-0.183929443359375,Waiting,0.0,0.0,-165380.0,0.0,0.0,0.0,0.9,0.375,
7.188253000000026,0.0,0.0,false,5199603.633370788,,-115.0,0.0,0.0,0.0,0.0,0.0,1.8457029360000001,0.0,0.0,114.0,0.0,0.0,-0.0,0.0,0.0,2.657470431,0.0,0.0,-109.0,0.0,0.0,0.0,0.0,0.0,3.984374592,0.0,0.0,88.0,0.0,0.0,-0.0,0.0,0.0,2.569579815,0.0,0.0,69.77999877929688,2.190000057220459,-15.270000457763672,0.02978515625,0.9425048828125,0.35748291015625,34.47999954223633,0.0,0.0,-0.16546630859375,-0.183929443359375,Waiting,0.0,0.0,-165380.0,0.0,0.0,0.0,0.9,0.375,
7.2629629999999885,0.0,0.0,false,5199593.916997432,,-115.0,0.0,0.0,0.0,0.0,0.0,1.8457029360000001,0.0,0.0,114.0,0.0,0.0,-0.0,0.0,0.0,2.657470431,0.0,0.0,-109.0,0.0,0.0,0.0,0.0,0.0,3.984374592,0.0,0.0,88.0,0.0,0.0,-0.0,0.0,0.0,2.569579815,0.0,0.0,69.76000213623047,2.1700000762939453,-15.270000457763672,0.02923583984375,0.96087646484375,0.34429931640625,34.47999954223633,0.0,-11.0,-0.16546630859375,-0.1840667724609375,Waiting,0.0,0.0,-165380.0,0.0,0.0,0.0,0.9,0.25,
7.347189000000246,0.0,0.0,false,5199582.729063608,,-115.0,0.0,0.0,0.0,0.0,0.0,1.851806451,0.0,0.0,114.0,0.0,0.0,-0.0,0.0,0.0,2.657470431,0.0,0.0,-109.0,0.0,0.0,0.0,0.0,0.0,3.984374592,0.0,0.0,88.0,0.0,0.0,-0.0,0.0,0.0,2.569579815,0.0,-0.0012207029999999897,69.7300033569336,2.1700000762939453,-15.289999961853027,0.04095458984375,0.9522705078125,0.35174560546875,34.47999954223633,0.0,3.0,-0.16546630859375,-0.1840667724609375,Waiting,0.0,0.0,-165380.0,0.0,0.0,0.0,0.9,0.25,
7.423036000000313,0.0,0.0,false,5199570.069633737,,-115.0,0.0,0.0,0.0,0.0,0.0,1.8457029360000001,0.0,0.0,114.0,0.0,0.0,-0.0,0.0,0.0,2.657470431,0.0,0.0,-109.0,0.0,0.0,0.0,0.0,0.0,3.984374592,0.0,0.0,88.0,0.0,0.0,-0.0,0.0,0.0,2.569579815,0.0,0.0,69.77999877929688,2.180000066757202,-15.270000457763672,0.037109375,0.94989013671875,0.357421875,34.459999084472656,0.0,3.0,-0.16546630859375,-0.1840667724609375,Waiting,0.0,0.0,-165380.0,0.0,0.0,0.0,0.9,0.25,
7.500669000000228,0.0,0.0,false,5199555.638878755,,-115.0,0.0,0.0,0.0,0.0,0.0,1.8444822330000001,0.0,0.0,114.0,0.0,0.0,-0.0,0.0,0.0,2.657470431,0.0,0.0,-109.0,0.0,0.0,0.0,0.0,0.0,3.984374592,0.0,0.0,88.0,0.0,0.0,-0.0,0.0,0.0,2.569579815,0.0,0.0,69.76000213623047,2.1700000762939453,-15.270000457763672,0.0328369140625,0.95196533203125,0.351318359375,34.459999084472656,0.0,-3.0,-0.16546630859375,-0.1840667724609375,Waiting,0.0,0.0,-165380.0,0.0,0.0,0.0,0.9,0.25,
7.593419000000227,0.0,0.0,false,5199590.411486605,,-115.0,0.0,0.0,0.0,0.0,0.125,1.8444822330000001,0.0,0.0012207030000004337,114.0,0.0,0.0,-0.0,0.0,0.0,2.657470431,0.0,0.0,-109.0,0.0,0.0,0.0,0.0,0.0,3.9855952950000004,0.0,0.0,88.0,0.0,0.0,-0.0,0.0,0.0,2.569579815,0.0,0.0,69.77999877929688,2.1600000858306885,-15.260000228881836,0.0360107421875,0.95709228515625,0.34942626953125,34.459999084472656,0.0,-2.0,-0.16546630859375,-0.1840667724609375,Waiting,0.0,0.0,-165380.0,0.0,0.0,0.0,0.9,0.25,
7.673776000000071,0.0,0.0,false,5199623.505406154,,-115.0,0.0,0.0,0.0,0.0,0.125,1.8469236390000001,0.0,0.0,114.0,0.0,0.0,-0.0,0.0,0.0,2.657470431,0.0,0.0,-109.0,0.0,0.0,0.0,0.0,0.0,3.984374592,0.0,0.0,88.0,0.0,0.0,-0.0,0.0,0.0,2.569579815,0.0,0.0,69.83000183105469,2.1700000762939453,-15.229999542236328,0.04425048828125,0.9599609375,0.3564453125,34.459999084472656,0.0,7.0,-0.16546630859375,-0.1840667724609375,Waiting,0.0,0.0,-165380.0,0.0,0.0,0.0,0.9,0.25,
7.750113000000361,0.0,0.0,false,5199654.920710888,,-115.0,0.0,0.0,0.0,0.0,0.0,1.8457029360000001,0.0,-0.0012207030000004337,114.0,0.0,0.0,-0.0,0.0,0.0,2.656249728,0.0,0.0,-109.0,0.0,0.0,0.0,0.0,0.0,3.984374592,0.0,0.0,88.0,0.0,0.0,-0.0,0.0,0.0,2.570800518,0.0,0.0,69.79000091552734,2.190000057220459,-15.270000457763672,0.0458984375,0.963623046875,0.34625244140625,34.459999084472656,0.0,2.0,-0.16534423828125,-0.1840667724609375,Waiting,0.0,0.0,-165380.0,0.0,0.0,0.0,0.9,0.375,
7.829211000000127,0.0,0.0,false,5199685.496286569,,-115.0,0.0,0.0,0.0,0.0,0.125,1.8457029360000001,0.0,0.0,114.0,0.0,0.0,-0.0,0.0,0.0,2.657470431,0.0,0.0,-109.0,0.0,0.0,0.0,0.0,0.0,3.984374592,0.0,0.0,88.0,0.0,0.0,-0.0,0.0,0.0,2.569579815,0.0,0.0,69.81999969482422,2.180000066757202,-15.239999771118164,0.03070068359375,0.95306396484375,0.34381103515625,34.459999084472656,0.0,-8.0,-0.16534423828125,-0.1840667724609375,Waiting,0.0,0.0,-165380.0,0.0,0.0,0.0,0.9,0.375,
7.903650000000373,0.0,0.0,false,5199714.185829345,,-115.0,0.0,0.0,0.0,0.0,0.0,1.8457029360000001,0.0,-0.0012207030000004337,114.0,0.0,0.0,-0.0,0.0,0.0,2.657470431,0.0,0.0,-109.0,0.0,0.0,0.0,0.0,0.0,3.984374592,0.0,-0.0012207029999995456,88.0,0.0,0.0,-0.0,0.0,0.0,2.568359112,0.0,-0.0012207029999999897,69.83000183105469,2.1600000858306885,-15.220000267028809,0.02911376953125,0.96075439453125,0.35400390625,34.47999954223633,0.0,-6.0,-0.16534423828125,-0.1840667724609375,Waiting,0.0,0.0,-165380.0,0.0,0.0,0.0,0.9,0.375,
7.988214000000153,0.0,0.0,false,5199741.1969593065,,-115.0,0.0,0.0,0.0,0.0,0.0,1.8457029360000001,0.0,0.0,114.0,0.0,0.0,-0.0,0.0,0.0,2.657470431,0.0,0.0,-109.0,0.0,0.0,0.0,0.0,0.0,3.9855952950000004,0.0,0.0012207029999995456,88.0,0.0,0.0,-0.0,0.0,0.0,2.569579815,0.0,0.0,69.81999969482422,2.1600000858306885,-15.229999542236328,0.0362548828125,0.951171875,0.34820556640625,34.47999954223633,0.0,-1.0,-0.16534423828125,-0.1840667724609375,Waiting,0.0,0.0,-165380.0,0.0,0.0,0.0,0.9,0.375,
8.060342000000178,0.0,0.0,false,5199766.52974992,,-115.0,0.0,0.0,0.0,0.0,0.125,1.8457029360000001,0.0,0.0012207030000004337,114.0,0.0,0.0,-0.0,0.0,0.0,2.657470431,0.0,0.0,-109.0,0.0,0.0,0.0,0.0,0.0,3.984374592,0.0,0.0,88.0,0.0,0.0,-0.0,0.0,0.0,2.5817868450000003,0.0,0.0,69.83999633789062,2.180000066757202,-15.229999542236328,0.0401611328125,0.9453125,0.33453369140625,34.47999954223633,0.0,-3.0,-0.16534423828125,-0.1840667724609375,Waiting,0.0,0.0,-165380.0,0.0,0.0,0.0,0.9,0.25,
8.136245000000113,0.0,0.0,false,5199790.184274646,,-115.0,0.0,0.0,0.0,0.0,0.125,1.8457029360000001,0.0,-0.0012207030000004337,114.0,0.0,0.0,-0.0,0.0,0.0,2.657470431,0.0,0.0,-109.0,0.0,0.0,0.0,0.0,0.0,3.984374592,0.0,0.0,88.0,0.0,0.0,-0.0,0.0,0.0,2.569579815,0.0,0.0012207029999999897,69.8499984741211,2.180000066757202,-15.239999771118164,0.0408935546875,0.95697021484375,0.34844970703125,34.47999954223633,0.0,1.0,-0.16534423828125,-0.1840667724609375,Waiting,0.0,0.0,-165380.0,0.0,0.0,0.0,0.9,0.375,
8.21486800000025,0.0,0.0,false,5199812.791829589,,-115.0,0.0,0.0,0.0,0.0,0.125,1.8457029360000001,0.0,0.0,114.0,0.0,0.0,-0.0,0.0,0.0,2.657470431,0.0,0.0,-109.0,0.0,0.0,0.0,0.0,0.0,3.983153889,0.0,0.0,88.0,0.0,0.0,-0.0,0.0,0.0,2.569579815,0.0,0.0,69.8499984741211,2.180000066757202,-15.239999771118164,0.033935546875,0.9576416015625,0.3526611328125,34.47999954223633,0.0,-2.0,-0.16534423828125,-0.1840667724609375,Waiting,0.0,0.0,-165380.0,0.0,0.0,0.0,0.9,0.25,
8.291308000000194,0.0,0.0,false,5199833.721247137,,-115.0,0.0,0.0,0.0,0.0,0.0,1.8457029360000001,0.0,-0.0012207030000004337,114.0,0.0,0.0,-0.0,0.0,0.0,2.656249728,0.0,0.0,-109.0,0.0,0.0,0.0,0.0,0.0,3.984374592,0.0,0.0,88.0,0.0,0.0,-0.0,0.0,0.0,2.568359112,0.0,0.0012207029999999897,69.83999633789062,2.1500000953674316,-15.220000267028809,0.02984619140625,0.96142578125,0.35589599609375,34.47999954223633,0.0,-4.0,-0.16534423828125,-0.1840667724609375,Waiting,0.0,0.0,-165380.0,0.0,0.0,0.0,0.9,0.25,
8.367775000000373,0.0,0.0,false,5199852.972600741,,-115.0,0.0,0.0,0.0,0.0,0.0,1.8457029360000001,0.0,0.0,114.0,0.0,0.0,-0.0,0.0,0.0,2.657470431,0.0,0.0,-109.0,0.0,0.0,0.0,0.0,0.0,3.975829671,0.0,0.0,88.0,0.0,0.0,-0.0,0.0,0.0,2.569579815,0.0,0.0,69.86000061035156,2.1600000858306885,-15.210000038146973,0.04718017578125,0.96673583984375,0.35467529296875,34.47999954223633,0.0,8.0,-0.16534423828125,-0.1840667724609375,Waiting,0.0,0.0,-165380.0,0.0,0.0,0.0,0.9,0.25,
8.43805000000028,0.0,0.0,false,5199870.545963847,,-115.0,0.0,0.0,0.0,0.0,0.125,1.8457029360000001,0.0,0.0012207030000004337,114.0,0.0,0.0,-0.0,0.0,0.0,2.657470431,0.0,0.0,-109.0,0.0,0.0,0.0,0.0,0.0,3.984374592,0.0,0.0012207029999995456,88.0,0.0,0.0,-0.0,0.0,0.0,2.567138409,0.0,-0.0012207029999999897,69.83000183105469,2.200000047683716,-15.260000228881836,0.0439453125,0.9588623046875,0.34423828125,34.470001220703125,0.0,0.0,-0.165191650390625,-0.1840667724609375,Waiting,0.0,0.0,-165380.0,0.0,0.0,0.0,0.9,0.25,
8.519783999999985,0.0,0.0,false,5199886.233893557,,-115.0,0.0,0.0,0.0,0.0,0.125,1.8457029360000001,0.0,0.0,114.0,0.0,0.0,-0.0,0.0,0.0,2.657470431,0.0,0.0,-109.0,0.0,0.0,0.0,0.0,0.0,4.002685137,0.0,0.0,88.0,0.0,0.0,-0.0,0.0,0.0,2.568359112,0.0,0.0,69.83999633789062,2.180000066757202,-15.239999771118164,0.02154541015625,0.9471435546875,0.34539794921875,34.470001220703125,0.0,-13.0,-0.165191650390625,-0.1840667724609375,Waiting,0.0,0.0,-165380.0,0.0,0.0,0.0,0.9,0.25,
8.591684000000358,0.0,0.0,false,5199900.243985703,,-115.0,0.0,0.0,0.0,0.0,0.0,1.853027154,0.0,-0.0012207030000004337,114.0,0.0,0.0,-0.0,0.0,0.0,2.657470431,0.0,0.0,-109.0,0.0,0.0,0.0,0.0,0.0,3.984374592,0.0,0.0,88.0,0.0,0.0,-0.0,0.0,0.0,2.569579815,0.0,0.0,69.88999938964844,2.1500000953674316,-15.1899995803833,0.0355224609375,0.96002197265625,0.35382080078125,34.470001220703125,0.0,0.0,-0.165191650390625,-0.1840667724609375,Waiting,0.0,0.0,-165380.0,0.0,0.0,0.0,0.9,0.375,
8.659858000000007,0.0,0.0,false,5199912.576313716,,-115.0,0.0,0.0,0.0,0.0,0.0,1.8457029360000001,0.0,0.0,114.0,0.0,0.0,-0.0,0.0,0.0,2.656249728,0.0,0.0,-109.0,0.0,0.0,0.0,0.0,0.0,3.9855952950000004,0.0,-0.0012207029999995456,88.0,0.0,0.0,-0.0,0.0,0.0,2.568359112,0.0,0.0012207029999999897,69.87000274658203,2.1600000858306885,-15.220000267028809,0.05029296875,0.95074462890625,0.34161376953125,34.470001220703125,0.0,7.0,-0.165191650390625,-0.1840667724609375,Waiting,0.0,0.0,-165380.0,0.0,0.0,0.0,0.9,0.25,
8.722913000000174,0.0,0.0,false,5199924.069616468,,-115.0,0.0,0.0,0.0,0.0,0.125,1.8457029360000001,0.0,0.0,114.0,0.0,0.0,-0.0,0.0,0.0,2.657470431,0.0,0.0,-109.0,0.0,0.0,0.0,0.0,0.0,3.9855952950000004,0.0,0.0,88.0,0.0,0.0,-0.0,0.0,0.0,2.569579815,0.0,0.0,69.86000061035156,2.180000066757202,-15.229999542236328,0.0382080078125,0.94427490234375,0.33746337890625,34.470001220703125,0.0,-3.0,-0.165191650390625,-0.1840667724609375,Waiting,0.0,0.0,-165380.0,0.0,0.0,0.0,0.9,0.25,
8.800454000000377,0.0,0.0,false,5199933.88527747,,-115.0,0.0,0.0,0.0,0.0,0.0,1.8457029360000001,0.0,-0.0012207030000004337,114.0,0.0,0.0,-0.0,0.0,0.0,2.657470431,0.0,0.0,-109.0,0.0,0.0,0.0,0.0,0.0,3.984374592,0.0,-0.0012207029999995456,88.0,0.0,0.0,-0.0,0.0,0.0,2.569579815,0.0,0.0012207029999999897,69.88999938964844,2.180000066757202,-15.220000267028809,0.033935546875,0.95147705078125,0.339111328125,34.470001220703125,0.0,-7.0,-0.165191650390625,-0.1840667724609375,Waiting,0.0,0.0,-165380.0,0.0,0.0,0.0,0.9,0.375,
8.862676000000443,0.0,0.0,false,5199941.81586894,,-115.0,0.0,0.0,0.0,0.0,0.125,1.8457029360000001,0.0,0.0,114.0,0.0,0.0,-0.0,0.0,0.0,2.657470431,0.0,0.0,-109.0,0.0,0.0,0.0,0.0,0.0,3.9855952950000004,0.0,0.0,88.0,0.0,0.0,-0.0,0.0,0.0,2.569579815,0.0,0.0,69.86000061035156,2.1700000762939453,-15.220000267028809,0.03369140625,0.9505615234375,0.34356689453125,34.470001220703125,0.0,-5.0,-0.165191650390625,-0.1840667724609375,Waiting,0.0,0.0,-165380.0,0.0,0.0,0.0,0.9,0.25,
8.943625,0.0,0.0,false,5199948.068971554,,-115.0,0.0,0.0,0.0,0.0,0.0,1.8457029360000001,0.0,-0.0012207030000004337,114.0,0.0,0.0,-0.0,0.0,0.0,2.657470431,0.0,0.0012207030000004337,-109.0,0.0,0.0,0.0,0.0,0.0,3.96728475,0.0,0.0,88.0,0.0,0.0,-0.0,0.0,0.0,2.570800518,0.0,0.0,69.86000061035156,2.1500000953674316,-15.210000038146973,0.03826904296875,0.953125,0.3267822265625,34.47999954223633,0.0,-10.0,-0.165191650390625,-0.1840667724609375,Waiting,0.0,0.0,-165380.0,0.0,0.0,0.0,0.9,0.25,
9.013875,0.0,0.0,false,5199952.644658721,,-115.0,0.0,0.0,0.0,0.0,0.0,1.8457029360000001,0.0,0.0,114.0,0.0,0.0,-0.0,0.0,0.0,2.656249728,0.0,0.0,-109.0,0.0,0.0,0.0,0.0,0.0,3.96728475,0.0,0.0,88.0,0.0,0.0,-0.0,0.0,0.0,2.570800518,0.0,0.0,69.87999725341797,2.1600000858306885,-15.210000038146973,0.04327392578125,0.955810546875,0.362060546875,34.47999954223633,0.0,11.0,-0.165191650390625,-0.1840667724609375,Waiting,0.0,0.0,-165380.0,0.0,0.0,0.0,0.9,0.25,
9.088965000000316,0.0,0.0,false,5199956.381608122,,-115.0,0.0,0.0,0.0,0.0,0.125,1.8457029360000001,0.0,0.0012207030000004337,114.0,0.0,0.0,-0.0,0.0,0.0,2.656249728,0.0,-0.0012207030000004337,-109.0,0.0,0.0,0.0,0.0,0.0,3.9855952950000004,0.0,0.0,88.0,0.0,0.0,-0.0,0.0,0.0,2.565917706,0.0,0.0,69.87000274658203,2.1700000762939453,-15.220000267028809,0.04388427734375,0.96624755859375,0.34039306640625,34.47999954223633,0.0,-2.0,-0.165191650390625,-0.1840667724609375,Waiting,0.0,0.0,-165380.0,0.0,0.0,0.0,0.9,0.25,
9.155979000000283,0.0,0.0,false,5199958.233775327,,-115.0,0.0,0.0,0.0,0.0,0.0,1.8457029360000001,0.0,-0.0012207030000004337,114.0,0.0,0.0,-0.0,0.0,0.0,2.656249728,0.0,0.0,-109.0,0.0,0.0,0.0,0.0,0.0,3.984374592,0.0,0.0,88.0,0.0,0.0,-0.0,0.0,0.0,2.569579815,0.0,-0.0012207029999999897,69.87000274658203,2.1700000762939453,-15.220000267028809,0.037353515625,0.95538330078125,0.34210205078125,34.47999954223633,0.0,-4.0,-0.165191650390625,-0.1840667724609375,Waiting,0.0,0.0,-165380.0,0.0,0.0,0.0,0.9,0.25,
9.228358000000007,0.0,0.0,false,5199958.408728885,,-115.0,0.0,0.0,0.0,0.0,0.0,1.8457029360000001,0.0,0.0,114.0,0.0,0.0,-0.0,0.0,0.0,2.656249728,0.0,0.0,-109.0,0.0,0.0,0.0,0.0,0.0,3.984374592,0.0,0.0,88.0,0.0,0.0,-0.0,0.0,0.0,2.569579815,0.0,0.0,69.9000015258789,2.1600000858306885,-15.1899995803833,0.03057861328125,0.95330810546875,0.33831787109375,34.47999954223633,0.0,-10.0,-0.165191650390625,-0.1840667724609375,Waiting,0.0,0.0,-165380.0,0.0,0.0,0.0,0.9,0.25,
9.296126000000164,0.0,0.0,false,5199956.906542192,,-115.0,0.0,0.0,0.0,0.0,0.0,1.8457029360000001,0.0,0.0,114.0,0.0,0.0,-0.0,0.0,0.0,2.657470431,0.0,0.0,-109.0,0.0,0.0,0.0,0.0,0.0,3.984374592,0.0,0.0,88.0,0.0,0.0,-0.0,0.0,0.0,2.569579815,0.0,0.0,69.87999725341797,2.1600000858306885,-15.199999809265137,0.03741455078125,0.952392578125,0.34429931640625,34.47999954223633,0.0,-1.0,-0.165191650390625,-0.1840667724609375,Waiting,0.0,0.0,-165380.0,0.0,0.0,0.0,0.0,0.0,
9.354987000000197,0.0,0.0,false,5199953.72728864,,-115.0,0.0,0.0,0.0,0.0,0.125,1.8457029360000001,0.0,0.0012207030000004337,114.0,0.0,0.0,-0.0,0.0,0.0,2.657470431,0.0,0.0,-109.0,0.0,0.0,0.0,0.0,0.0,3.984374592,0.0,0.0,88.0,0.0,0.0,-0.0,0.0,0.0,2.569579815,0.0,0.0,69.87999725341797,2.1700000762939453,-15.210000038146973,0.03668212890625,0.957275390625,0.3447265625,34.47999954223633,0.0,-3.0,-0.165191650390625,-0.1840667724609375,Waiting,0.0,0.0,-165380.0,0.0,0.0,0.0,0.0,0.0,
