Time,ClimberA1,ClimberA2,CameraExists,HeapSpace,LoopTime,FRpos,FRCurrent,FRspeed,FRsetpoint,FRApos,FRACurrent,FREncpos,FREncSetpoint,FREncSpeed,FLpos,FLCurrent,FLspeed,FLsetpoint,FLApos,FLACurrent,FLEncpos,FLEncSetpoint,FLEncSpeed,BRpos,BRCurrent,BRspeed,BRsetpoint,BRApos,BRACurrent,BREncpos,BREncSetpoint,BREncSpeed,BLpos,BLCurrent,BLspeed,BLsetpoint,BLApos,BLACurrent,BLEncpos,BLEncSetpoint,BLEncSpeed,navx_Pitch,navx_Roll,navx_Yaw,navx_XAcc,navx_YAcc,navx_ZAcc,navx_Temp,navx_Bar,navx_Alt,navx_XDis,navx_YDis,GearPlacerState,ShootOutputV,ShootOutputCurrent,ShootEncPos,ShootEncVelocity,ShootSpeed,ShootSetpoint,CarouselSetpoint,CarouselCurrent,
0.528839999999851,0.0,0.0,false,4213332.146568737,,1.0,0.0,0.0,0.0,0.0,0.0,1.8457029360000001,0.0,0.0012207030000004337,12.0,0.0,0.0,-0.0,0.0,0.0,2.66113254,0.0,0.0,-1.0,0.0,0.0,0.0,0.0,0.0,3.97949178,0.0,0.0,11.0,0.0,0.0,-0.0,0.0,0.0,2.565917706,0.0,-0.0012207029999999897,70.12000274658203,2.25,-13.399999618530273,0.0457763671875,0.95623779296875,0.36279296875,34.18000030517578,0.0,14.0,-0.0724334716796875,0.015655517578125,Waiting,0.0,0.0,0.0,0.0,0.0,0.0,0.0,0.0,
0.5886759999999777,0.0,0.0,false,4213418.591634114,,1.0,0.0,0.0,0.0,0.0,0.125,1.8444822330000001,0.0,0.0,12.0,0.0,0.0,-0.0,0.0,0.0,2.656249728,0.0,0.0,-1.0,0.0,0.0,0.0,0.0,0.0,3.97949178,0.0,0.0,11.0,0.0,0.0,-0.0,0.0,0.0,2.564697003,0.0,0.0012207029999999897,70.0199966430664,2.259999990463257,-13.470000267028809,0.0323486328125,0.9544677734375,0.34967041015625,34.18000030517578,0.0,-4.0,-0.0724334716796875,0.015655517578125,Waiting,0.0,0.0,0.0,0.0,0.0,0.0,0.0,0.0,
0.6493689999999478,0.0,0.0,false,4213503.600919577,,1.0,0.0,0.0,0.0,0.0,0.125,1.8444822330000001,0.0,0.0,12.0,0.0,0.0,-0.0,0.0,0.0,2.662353243,0.0,0.0,-1.0,0.0,0.0,0.0,0.0,0.0,3.97949178,0.0,0.0,11.0,0.0,0.0,-0.0,0.0,0.0,2.564697003,0.0,0.0,70.02999877929688,2.25,-13.449999809265137,0.04254150390625,0.951171875,0.3284912109375,34.20000076293945,0.0,-4.0,-0.0724334716796875,0.015655517578125,Waiting,0.0,0.0,0.0,0.0,0.0,0.0,0.0,0.0,
0.7099929999997839,0.0,0.0,false,4213587.174512756,,1.0,0.0,0.0,0.0,0.0,0.0,1.8457029360000001,0.0,-0.0012207030000004337,12.0,0.0,0.0,-0.0,0.0,0.0,2.66113254,0.0,0.0,-1.0,0.0,0.0,0.0,0.0,0.0,3.97949178,0.0,0.0,11.0,0.0,0.0,-0.0,0.0,0.0,2.564697003,0.0,0.0012207029999999897,70.12000274658203,2.25,-13.40999984741211,0.04010009765625,0.95941162109375,0.352294921875,34.20000076293945,0.0,3.0,-0.0724334716796875,0.015655517578125,Waiting,0.0,0.0,0.0,0.0,0.0,0.0,0.0,0.0,
0.7517110000001267,0.0,0.0,false,4213669.309246262,,1.0,0.0,0.0,0.0,0.0,0.0,1.8383787180000002,0.0,0.0,12.0,0.0,0.0,-0.0,0.0,0.0,2.662353243,0.0,0.0,-1.0,0.0,0.0,0.0,0.0,0.0,3.97949178,0.0,0.0,11.0,0.0,0.0,-0.0,0.0,0.0,2.564697003,0.0,-0.0024414059999999793,70.13999938964844,2.259999990463257,-13.399999618530273,0.03704833984375,0.955810546875,0.359130859375,34.20000076293945,0.0,5.0,-0.0724334716796875,0.015655517578125,Waiting,0.0,0.0,0.0,0.0,0.0,0.0,0.0,0.0,
0.8037549999998882,0.0,0.0,false,4213750.008462853,,1.0,0.0,0.0,0.0,0.0,0.0,1.8457029360000001,0.0,0.0,12.0,0.0,0.0,-0.0,0.0,0.0,2.66113254,0.0,0.0,-1.0,0.0,0.0,0.0,0.0,0.0,3.973388265,0.0,0.0,11.0,0.0,0.0,-0.0,0.0,0.0,2.564697003,0.0,0.0012207029999999897,70.02999877929688,2.25,-13.449999809265137,0.03668212890625,0.95806884765625,0.33380126953125,34.20000076293945,0.0,-8.0,-0.0724334716796875,0.015655517578125,Waiting,0.0,0.0,0.0,0.0,0.0,0.0,0.0,0.0,
0.8529499999997207,0.0,0.0,false,4213829.337347682,,1.0,0.0,0.0,0.0,0.0,0.0,1.8457029360000001,0.0,0.0,12.0,0.0,0.0,-0.0,0.0,0.0,2.66113254,0.0,0.0,-1.0,0.0,0.0,0.0,0.0,0.0,3.980712483,0.0,0.0,11.0,0.0,0.0,-0.0,0.0,0.0,2.564697003,0.0,0.0,70.0199966430664,2.2300000190734863,-13.449999809265137,0.0374755859375,0.949951171875,0.331298828125,34.20000076293945,0.0,-7.0,-0.0724334716796875,0.015655517578125,Waiting,0.0,0.0,0.0,0.0,0.0,0.0,0.0,0.0,
0.9054509999998845,0.0,0.0,false,4213907.230888156,,1.0,0.0,0.0,0.0,0.0,0.125,1.8457029360000001,0.0,0.0012207030000004337,12.0,0.0,0.0,-0.0,0.0,0.0,2.662353243,0.0,0.0,-1.0,0.0,0.0,0.0,0.0,0.0,3.97949178,0.0,0.0,11.0,0.0,0.0,-0.0,0.0,0.0,2.5634763,0.0,0.0,70.12999725341797,2.25,-13.399999618530273,0.0435791015625,0.958740234375,0.35162353515625,34.20000076293945,0.0,6.0,-0.0724334716796875,0.015655517578125,Waiting,0.0,0.0,0.0,0.0,0.0,0.0,0.0,0.0,
0.9535189999998547,0.0,0.0,false,4213983.689171871,,1.0,0.0,0.0,0.0,0.0,0.0,1.8457029360000001,0.0,-0.0012207030000004337,12.0,0.0,0.0,-0.0,0.0,0.0,2.662353243,0.0,0.0,-1.0,0.0,0.0,0.0,0.0,0.0,3.959960532,0.0,0.0,11.0,0.0,0.0,-0.0,0.0,0.0,2.564697003,0.0,0.0,70.18000030517578,2.25,-13.369999885559082,0.04132080078125,0.9638671875,0.3575439453125,34.20000076293945,0.0,6.0,-0.0724334716796875,0.015655517578125,Waiting,0.0,0.0,0.0,0.0,0.0,0.0,0.0,0.0,
0.9978980000000447,0.0,0.0,false,4214058.712286412,,1.0,0.0,0.0,0.0,0.0,0.0,1.8457029360000001,0.0,0.0,12.0,0.0,0.0,-0.0,0.0,0.0,2.662353243,0.0,0.0,-1.0,0.0,0.0,0.0,0.0,0.0,3.97949178,0.0,-0.0012207029999995456,11.0,0.0,0.0,-0.0,0.0,0.0,2.564697003,0.0,0.0,70.13999938964844,2.25,-13.390000343322754,0.0404052734375,0.9549560546875,0.3419189453125,34.20000076293945,0.0,0.0,-0.0724334716796875,0.015655517578125,Waiting,0.0,0.0,0.0,0.0,0.0,0.0,0.0,0.0,
1.0466669999998994,0.0,0.0,false,4214132.365411607,,1.0,0.0,0.0,0.0,0.0,0.125,1.8420408270000002,0.0,0.0012207030000004337,12.0,0.0,0.0,-0.0,0.0,0.0,2.66113254,0.0,0.0,-1.0,0.0,0.0,0.0,0.0,0.0,3.97949178,0.0,0.0012207029999995456,11.0,0.0,0.0,-0.0,0.0,0.0,2.564697003,0.0,0.0,70.08000183105469,2.25,-13.430000305175781,0.0400390625,0.951171875,0.342041015625,34.20000076293945,0.0,0.0,-0.0724334716796875,0.015655517578125,Waiting,0.0,0.0,0.0,0.0,0.0,0.0,0.0,0.0,
1.090554999999702,0.0,0.0,false,4214204.583540132,,1.0,0.0,0.0,0.0,0.0,0.125,1.8457029360000001,0.0,-0.0012207030000004337,12.0,0.0,0.0,-0.0,0.0,0.0,2.66113254,0.0,0.0,-1.0,0.0,0.0,0.0,0.0,0.0,3.97949178,0.0,-0.0012207029999995456,11.0,0.0,0.0,-0.0,0.0,0.0,2.564697003,0.0,-0.0012207029999999897,70.06999969482422,2.240000009536743,-13.430000305175781,0.03790283203125,0.953369140625,0.3450927734375,34.20000076293945,0.0,0.0,-0.0724334716796875,0.015655517578125,Waiting,0.0,0.0,0.0,0.0,0.0,0.0,0.0,0.0,
1.1337269999999553,0.0,0.0,false,4214275.3010190595,,1.0,0.0,0.0,0.0,0.0,0.0,1.8457029360000001,0.0,0.0,12.0,0.0,0.0,-0.0,0.0,0.0,2.66113254,0.0,0.0,-1.0,0.0,0.0,0.0,0.0,0.0,3.97949178,0.0,0.0012207029999995456,11.0,0.0,0.0,-0.0,0.0,0.0,2.564697003,0.0,0.0012207029999999897,70.11000061035156,2.240000009536743,-13.40999984741211,0.03643798828125,0.958251953125,0.33831787109375,34.18000030517578,0.0,-5.0,-0.0724334716796875,0.015655517578125,Waiting,0.0,0.0,0.0,0.0,0.0,0.0,0.0,0.0,
1.1792199999997393,0.0,0.0,false,4214344.5836791145,,1.0,0.0,0.0,0.0,0.0,0.0,1.8457029360000001,0.0,0.0,12.0,0.0,0.0,-0.0,0.0,0.0,2.653808322,0.0,0.0,-1.0,0.0,0.0,0.0,0.0,0.0,3.980712483,0.0,0.0,11.0,0.0,0.0,-0.0,0.0,0.0,2.564697003,0.0,0.0,70.13999938964844,2.240000009536743,-13.380000114440918,0.03021240234375,0.96270751953125,0.35247802734375,34.18000030517578,0.0,-5.0,-0.0724334716796875,0.015655517578125,Waiting,0.0,0.0,0.0,0.0,0.0,0.0,0.0,0.0,
1.2275129999998025,0.0,0.0,false,4214412.431607851,,1.0,0.0,0.0,0.0,0.0,0.0,1.8457029360000001,0.0,0.0,12.0,0.0,0.0,-0.0,0.0,0.0,2.662353243,0.0,0.0,-1.0,0.0,0.0,0.0,0.0,0.0,3.97949178,0.0,0.0,11.0,0.0,0.0,-0.0,0.0,0.0,2.564697003,0.0,0.0,70.12000274658203,2.240000009536743,-13.390000343322754,0.03961181640625,0.9591064453125,0.33404541015625,34.18000030517578,0.0,-5.0,-0.072479248046875,0.015655517578125,Waiting,0.0,0.0,0.0,0.0,0.0,0.0,0.0,0.0,
1.2710709999999963,0.0,0.0,false,4214478.90997844,,1.0,0.0,0.0,0.0,0.0,0.0,1.8457029360000001,0.0,0.0,12.0,0.0,0.0,-0.0,0.0,0.0,2.66113254,0.0,0.0,-1.0,0.0,0.0,0.0,0.0,0.0,3.97949178,0.0,0.0,11.0,0.0,0.0,-0.0,0.0,0.0,2.569579815,0.0,0.0,70.08000183105469,2.2300000190734863,-13.40999984741211,0.0263671875,0.96014404296875,0.3341064453125,34.18000030517578,0.0,-16.0,-0.072479248046875,0.01568603515625,Waiting,0.0,0.0,0.0,0.0,0.0,0.0,0.0,0.0,
1.308743999999948,0.0,0.0,false,4214543.953790144,,1.0,0.0,0.0,0.0,0.0,0.0,1.8457029360000001,0.0,0.0,12.0,0.0,0.0,-0.0,0.0,0.0,2.66113254,0.0,0.0,-1.0,0.0,0.0,0.0,0.0,0.0,3.97949178,0.0,0.0,11.0,0.0,0.0,-0.0,0.0,0.0,2.564697003,0.0,0.0,70.08999633789062,2.240000009536743,-13.40999984741211,0.0333251953125,0.94561767578125,0.3397216796875,34.18000030517578,0.0,-5.0,-0.072479248046875,0.0157318115234375,Waiting,0.0,0.0,0.0,0.0,0.0,0.0,0.0,0.0,
1.3532919999998994,0.0,0.0,false,4214607.563130491,,1.0,0.0,0.0,0.0,0.0,0.0,1.8457029360000001,0.0,0.0,12.0,0.0,0.0,-0.0,0.0,0.0,2.66113254,0.0,0.0,-1.0,0.0,0.0,0.0,0.0,0.0,3.97949178,0.0,-0.0012207029999995456,11.0,0.0,0.0,-0.0,0.0,0.0,2.564697003,0.0,-0.0012207029999999897,70.12999725341797,2.240000009536743,-13.390000343322754,0.037353515625,0.947509765625,0.3509521484375,34.18000030517578,0.0,3.0,-0.072479248046875,0.0157318115234375,Waiting,0.0,0.0,0.0,0.0,0.0,0.0,0.0,0.0,
1.3972730000000446,0.0,0.0,false,4214669.738087006,,1.0,0.0,0.0,0.0,0.0,0.125,1.8469236390000001,0.0,0.0012207030000004337,12.0,0.0,0.0,-0.0,0.0,0.0,2.662353243,0.0,0.0,-1.0,0.0,0.0,0.0,0.0,0.0,3.97949178,0.0,0.0012207029999995456,11.0,0.0,0.0,-0.0,0.0,0.0,2.565917706,0.0,0.0,70.13999938964844,2.25,-13.390000343322754,0.0439453125,0.96563720703125,0.34954833984375,34.18000030517578,0.0,4.0,-0.072479248046875,0.0157318115234375,Waiting,0.0,0.0,0.0,0.0,0.0,0.0,0.0,0.0,
1.4475279999999329,0.0,0.0,false,4214730.478747204,,1.0,0.0,0.0,0.0,0.0,0.0,1.8444822330000001,0.0,-0.0012207030000004337,12.0,0.0,0.0,-0.0,0.0,0.0,2.662353243,0.0,0.0,-1.0,0.0,0.0,0.0,0.0,0.0,3.97949178,0.0,0.0,11.0,0.0,0.0,-0.0,0.0,0.0,2.564697003,0.0,0.0012207029999999897,70.11000061035156,2.240000009536743,-13.399999618530273,0.0421142578125,0.9638671875,0.341064453125,34.18000030517578,0.0,0.0,-0.072479248046875,0.0157318115234375,Waiting,0.0,0.0,0.0,0.0,0.0,0.0,0.0,0.0,
1.493344000000041,0.0,0.0,false,4214789.785198593,,1.0,0.0,0.0,0.0,0.0,0.0,1.8444822330000001,0.0,0.0,12.0,0.0,0.0,-0.0,0.0,0.0,2.662353243,0.0,0.0,-1.0,0.0,0.0,0.0,0.0,0.0,3.97949178,0.0,-0.0012207029999995456,11.0,0.0,0.0,-0.0,0.0,0.0,2.554931379,0.0,-0.0012207029999999897,70.0999984741211,2.240000009536743,-13.40999984741211,0.03277587890625,0.94976806640625,0.35015869140625,34.18000030517578,0.0,-1.0,-0.072479248046875,0.0157318115234375,Waiting,0.0,0.0,0.0,0.0,0.0,0.0,0.0,0.0,
1.542433999999892,0.0,0.0,false,4214847.657528675,,1.0,0.0,0.0,0.0,0.0,0.0,1.8457029360000001,0.0,0.0,12.0,0.0,0.0,-0.0,0.0,0.0,2.662353243,0.0,0.0,-1.0,0.0,0.0,0.0,0.0,0.0,3.984374592,0.0,0.0012207029999995456,11.0,0.0,0.0,-0.0,0.0,0.0,2.564697003,0.0,0.0,70.11000061035156,2.2300000190734863,-13.390000343322754,0.03021240234375,0.96136474609375,0.33636474609375,34.18000030517578,0.0,-12.0,-0.072479248046875,0.0157318115234375,Waiting,0.0,0.0,0.0,0.0,0.0,0.0,0.0,0.0,
1.5871110000000335,0.0,0.0,false,4214903.622557094,,1.0,0.0,0.0,0.0,0.0,0.0,1.8457029360000001,0.0,0.0,12.0,0.0,0.0,-0.0,0.0,0.0,2.662353243,0.0,0.0,-1.0,0.0,0.0,0.0,0.0,0.0,3.9855952950000004,0.0,0.0,11.0,0.0,0.0,-0.0,0.0,0.0,2.564697003,0.0,0.0012207029999999897,70.13999938964844,2.2300000190734863,-13.369999885559082,0.04620361328125,0.9693603515625,0.3466796875,34.18000030517578,0.0,4.0,-0.072479248046875,0.0157318115234375,Waiting,0.0,0.0,0.0,0.0,0.0,0.0,0.0,0.0,
1.630816000000108,0.0,0.0,false,4214958.153658438,,1.0,0.0,0.0,0.0,0.0,0.0,1.8469236390000001,0.0,0.0,12.0,0.0,0.0,-0.0,0.0,0.0,2.662353243,0.0,0.0,-1.0,0.0,0.0,0.0,0.0,0.0,3.97949178,0.0,-0.0012207029999995456,11.0,0.0,0.0,-0.0,0.0,0.0,2.564697003,0.0,0.0,70.13999938964844,2.240000009536743,-13.380000114440918,0.0323486328125,0.95196533203125,0.35052490234375,34.15999984741211,0.0,-2.0,-0.072479248046875,0.0157318115234375,Waiting,0.0,0.0,0.0,0.0,0.0,0.0,0.0,0.0,
1.6734789999998174,0.0,0.0,false,4215011.250920183,,1.0,0.0,0.0,0.0,0.0,0.0,1.8469236390000001,0.0,0.0,12.0,0.0,0.0,-0.0,0.0,0.0,2.662353243,0.0,0.0,-1.0,0.0,0.0,0.0,0.0,0.0,3.978271077,0.0,0.0012207029999995456,11.0,0.0,0.0,-0.0,0.0,0.0,2.564697003,0.0,0.0012207029999999897,70.0999984741211,2.25,-13.40999984741211,0.055419921875,0.95379638671875,0.330078125,34.15999984741211,0.0,7.0,-0.072479248046875,0.0157318115234375,Waiting,0.0,0.0,0.0,0.0,0.0,0.0,0.0,0.0,
1.7341170000000856,0.0,0.0,false,4215062.87245811,,1.0,0.0,0.0,0.0,0.0,0.0,1.8457029360000001,0.0,0.0,12.0,0.0,0.0,-0.0,0.0,0.0,2.66113254,0.0,0.0,-1.0,0.0,0.0,0.0,0.0,0.0,3.97949178,0.0,0.0,11.0,0.0,0.0,-0.0,0.0,0.0,2.565917706,0.0,-0.0012207029999999897,70.12000274658203,2.2699999809265137,-13.420000076293945,0.043212890625,0.96514892578125,0.3428955078125,34.15999984741211,0.0,0.0,-0.072479248046875,0.0157318115234375,Waiting,0.0,0.0,0.0,0.0,0.0,0.0,0.0,0.0,
1.7824550000000745,0.0,0.0,false,4215113.060333082,,1.0,0.0,0.0,0.0,0.0,0.0,1.8457029360000001,0.0,0.0012207030000004337,12.0,0.0,0.0,-0.0,0.0,0.0,2.662353243,0.0,0.0,-1.0,0.0,0.0,0.0,0.0,0.0,3.97949178,0.0,0.0,11.0,0.0,0.0,-0.0,0.0,0.0,2.564697003,0.0,0.0,70.12000274658203,2.2699999809265137,-13.420000076293945,0.0396728515625,0.9384765625,0.35723876953125,34.15999984741211,0.0,9.0,-0.072479248046875,0.0157318115234375,Waiting,0.0,0.0,0.0,0.0,0.0,0.0,0.0,0.0,
1.8276299999998882,0.0,0.0,false,4215161.814632559,,1.0,0.0,0.0,0.0,0.0,0.125,1.8457029360000001,0.0,0.0012207030000004337,12.0,0.0,0.0,-0.0,0.0,0.0,2.66113254,0.0,0.0,-1.0,0.0,0.0,0.0,0.0,0.0,3.97949178,0.0,0.0,11.0,0.0,0.0,-0.0,0.0,0.0,2.564697003,0.0,0.0,70.08000183105469,2.25,-13.4399995803833,0.0308837890625,0.95538330078125,0.34130859375,34.15999984741211,0.0,-9.0,-0.072479248046875,0.0157318115234375,Waiting,0.0,0.0,0.0,0.0,0.0,0.0,0.0,0.0,
1.874833999999799,0.0,0.0,false,4215209.13544399,,1.0,0.0,0.0,0.0,0.0,0.125,1.8457029360000001,0.0,0.0,12.0,0.0,0.0,-0.0,0.0,0.0,2.66113254,0.0,0.0,-1.0,0.0,0.0,0.0,0.0,0.0,3.981933186,0.0,0.0,11.0,0.0,0.0,-0.0,0.0,0.0,2.569579815,0.0,-0.0012207029999999897,70.05999755859375,2.240000009536743,-13.4399995803833,0.02899169921875,0.95806884765625,0.3387451171875,34.15999984741211,0.0,-12.0,-0.072479248046875,0.0157318115234375,Waiting,0.0,0.0,0.0,0.0,0.0,0.0,0.0,0.0,
1.9182390000000595,0.0,0.0,false,4215255.087921919,,1.0,0.0,0.0,0.0,0.0,0.0,1.8457029360000001,0.0,-0.0012207030000004337,12.0,0.0,0.0,-0.0,0.0,0.0,2.67333957,0.0,0.0,-1.0,0.0,0.0,0.0,0.0,0.0,3.980712483,0.0,0.0,11.0,0.0,0.0,-0.0,0.0,0.0,2.5634763,0.0,-0.0012207029999999897,70.08999633789062,2.2200000286102295,-13.40999984741211,0.03143310546875,0.9581298828125,0.3436279296875,34.15999984741211,0.0,-7.0,-0.072479248046875,0.0157318115234375,Waiting,0.0,0.0,0.0,0.0,0.0,0.0,0.0,0.0,
1.9960039999997243,0.0,0.0,false,4215298.303165857,,1.0,0.0,0.0,0.0,0.0,0.125,1.8457029360000001,0.0,0.0,12.0,0.0,0.0,-0.0,0.0,0.0,2.66113254,0.0,0.0,-1.0,0.0,0.0,0.0,0.0,0.0,3.97949178,0.0,0.0,11.0,0.0,0.0,-0.0,0.0,0.0,2.564697003,0.0,0.0,70.0999984741211,2.240000009536743,-13.40999984741211,0.04595947265625,0.95843505859375,0.34783935546875,34.15999984741211,0.0,6.0,-0.072479248046875,0.0157318115234375,Waiting,0.0,0.0,0.0,0.0,0.0,0.0,0.0,0.0,
2.050601999999955,0.0,0.0,false,4215340.085234435,,1.0,0.0,0.0,0.0,0.0,0.125,1.8457029360000001,0.0,0.0,12.0,0.0,0.0,-0.0,0.0,0.0,2.662353243,0.0,0.0,-1.0,0.0,0.0,0.0,0.0,0.0,3.97949178,0.0,0.0,11.0,0.0,0.0,-0.0,0.0,0.0,2.564697003,0.0,-0.0012207029999999897,70.06999969482422,2.240000009536743,-13.430000305175781,0.0562744140625,0.9638671875,0.3519287109375,34.15999984741211,0.0,16.0,-0.072479248046875,0.0157318115234375,Waiting,0.0,0.0,0.0,0.0,0.0,0.0,0.0,0.0,
2.094194000000134,0.0,0.0,false,4215380.434215074,,1.0,0.0,0.0,0.0,0.0,0.0,1.8457029360000001,0.0,-0.0012207030000004337,12.0,0.0,0.0,-0.0,0.0,0.0,2.659911837,0.0,0.0,-1.0,0.0,0.0,0.0,0.0,0.0,3.97949178,0.0,0.0,11.0,0.0,0.0,-0.0,0.0,0.0,2.564697003,0.0,0.0012207029999999897,70.05999755859375,2.259999990463257,-13.449999809265137,0.04052734375,0.951904296875,0.34478759765625,34.15999984741211,0.0,1.0,-0.072479248046875,0.0157318115234375,Waiting,0.0,0.0,0.0,0.0,0.0,0.0,0.0,0.0,
2.145529000000097,0.0,0.0,false,4215419.350195185,,1.0,0.0,0.0,0.0,0.0,0.0,1.8457029360000001,0.0,0.0012207030000004337,12.0,0.0,0.0,-0.0,0.0,0.0,2.66113254,0.0,0.0,-1.0,0.0,0.0,0.0,0.0,0.0,3.980712483,0.0,0.0,11.0,0.0,0.0,-0.0,0.0,0.0,2.564697003,0.0,0.0,70.06999969482422,2.25,-13.4399995803833,0.04351806640625,0.95703125,0.3458251953125,34.150001525878906,0.0,3.0,-0.072479248046875,0.0157318115234375,Waiting,0.0,0.0,0.0,0.0,0.0,0.0,0.0,0.0,
2.1898509999997913,0.0,0.0,false,4215456.833262173,,1.0,0.0,0.0,0.0,0.0,0.125,1.8457029360000001,0.0,-0.0012207030000004337,12.0,0.0,0.0,-0.0,0.0,0.0,2.662353243,0.0,0.0,-1.0,0.0,0.0,0.0,0.0,0.0,3.97949178,0.0,0.0,11.0,0.0,0.0,-0.0,0.0,0.0,2.564697003,0.0,-0.0012207029999999897,70.05999755859375,2.240000009536743,-13.430000305175781,0.033935546875,0.96136474609375,0.34783935546875,34.150001525878906,0.0,-4.0,-0.072479248046875,0.0157318115234375,Waiting,0.0,0.0,0.0,0.0,0.0,0.0,0.0,0.0,
2.232976999999955,0.0,0.0,false,4215492.883503436,,1.0,0.0,0.0,0.0,0.0,0.0,1.8444822330000001,0.0,0.0,12.0,0.0,0.0,-0.0,0.0,0.0,2.659911837,0.0,0.0,-1.0,0.0,0.0,0.0,0.0,0.0,3.97949178,0.0,-0.0012207029999995456,11.0,0.0,0.0,-0.0,0.0,0.0,2.567138409,0.0,0.0,70.02999877929688,2.2300000190734863,-13.4399995803833,0.0406494140625,0.95428466796875,0.3502197265625,34.150001525878906,0.0,3.0,-0.072479248046875,0.0157318115234375,Waiting,0.0,0.0,0.0,0.0,0.0,0.0,0.0,0.0,
2.2859860000000336,0.0,0.0,false,4215527.501006364,,1.0,0.0,0.0,0.0,0.0,0.0,1.8457029360000001,0.0,0.0012207030000004337,12.0,0.0,0.0,-0.0,0.0,0.0,2.662353243,0.0,0.0,-1.0,0.0,0.0,0.0,0.0,0.0,3.980712483,0.0,0.0012207029999995456,11.0,0.0,0.0,-0.0,0.0,0.0,2.564697003,0.0,0.0012207029999999897,70.01000213623047,2.2100000381469727,-13.4399995803833,0.03472900390625,0.95404052734375,0.34124755859375,34.150001525878906,0.0,-5.0,-0.072479248046875,0.0157318115234375,Waiting,0.0,0.0,0.0,0.0,0.0,0.0,0.0,0.0,
2.329472999999765,0.0,0.0,false,4215560.685858339,,1.0,0.0,0.0,0.0,0.0,0.125,1.8469236390000001,0.0,0.0012207030000004337,12.0,0.0,0.0,-0.0,0.0,0.0,2.662353243,0.0,0.0,-1.0,0.0,0.0,0.0,0.0,0.0,3.97949178,0.0,0.0,11.0,0.0,0.0,-0.0,0.0,0.0,2.568359112,0.0,0.0,70.02999877929688,2.2100000381469727,-13.430000305175781,0.04351806640625,0.95074462890625,0.3408203125,34.150001525878906,0.0,2.0,-0.072479248046875,0.0157318115234375,Waiting,0.0,0.0,0.0,0.0,0.0,0.0,0.0,0.0,
2.3729389999997803,0.0,0.0,false,4215592.43814674,,1.0,0.0,0.0,0.0,0.0,0.0,1.8469236390000001,0.0,-0.0012207030000004337,12.0,0.0,0.0,-0.0,0.0,0.0,2.662353243,0.0,0.0,-1.0,0.0,0.0,0.0,0.0,0.0,3.97949178,0.0,0.0,11.0,0.0,0.0,-0.0,0.0,0.0,2.564697003,0.0,0.0,70.08000183105469,2.2200000286102295,-13.420000076293945,0.0418701171875,0.9560546875,0.3468017578125,34.150001525878906,0.0,3.0,-0.072479248046875,0.0157318115234375,Waiting,0.0,0.0,0.0,0.0,0.0,0.0,0.0,0.0,
2.4258589999997056,0.0,0.0,false,4215622.757958935,,1.0,0.0,0.0,0.0,0.0,0.0,1.8444822330000001,0.0,0.0,12.0,0.0,0.0,-0.0,0.0,0.0,2.662353243,0.0,0.0,-1.0,0.0,0.0,0.0,0.0,0.0,3.97949178,0.0,0.0,11.0,0.0,0.0,-0.0,0.0,0.0,2.564697003,0.0,0.0,70.12000274658203,2.2300000190734863,-13.399999618530273,0.05303955078125,0.96417236328125,0.3515625,34.150001525878906,0.0,13.0,-0.072479248046875,0.0157318115234375,Waiting,0.0,0.0,0.0,0.0,0.0,0.0,0.0,0.0,
2.469913999999873,0.0,0.0,false,4215651.645382285,,1.0,0.0,0.0,0.0,0.0,0.125,1.8457029360000001,0.0,0.0012207030000004337,12.0,0.0,0.0,-0.0,0.0,0.0,2.662353243,0.0,0.0,-1.0,0.0,0.0,0.0,0.0,0.0,3.980712483,0.0,0.0,11.0,0.0,0.0,-0.0,0.0,0.0,2.564697003,0.0,-0.0012207029999999897,70.08000183105469,2.25,-13.430000305175781,0.04241943359375,0.96356201171875,0.345458984375,34.150001525878906,0.0,1.0,-0.072479248046875,0.0157318115234375,Waiting,0.0,0.0,0.0,0.0,0.0,0.0,0.0,0.0,
2.512410000000149,0.0,0.0,false,4215679.100504147,,1.0,0.0,0.0,0.0,0.0,0.0,1.8457029360000001,0.0,-0.0012207030000004337,12.0,0.0,0.0,-0.0,0.0,0.0,2.662353243,0.0,0.0,-1.0,0.0,0.0,0.0,0.0,0.0,3.9868159980000004,0.0,0.0,11.0,0.0,0.0,-0.0,0.0,0.0,2.5634763,0.0,0.0012207029999999897,70.04000091552734,2.2300000190734863,-13.4399995803833,0.0406494140625,0.94976806640625,0.32879638671875,34.150001525878906,0.0,-5.0,-0.072479248046875,0.0157318115234375,Waiting,0.0,0.0,0.0,0.0,0.0,0.0,0.0,0.0,
2.5649640000001526,0.0,0.0,false,4215705.123411868,,1.0,0.0,0.0,0.0,0.0,0.0,1.8469236390000001,0.0,0.0,12.0,0.0,0.0,-0.0,0.0,0.0,2.663573946,0.0,0.0,-1.0,0.0,0.0,0.0,0.0,0.0,3.978271077,0.0,0.0,11.0,0.0,0.0,-0.0,0.0,0.0,2.564697003,0.0,0.0,70.06999969482422,2.2300000190734863,-13.420000076293945,0.036865234375,0.96234130859375,0.34625244140625,34.150001525878906,0.0,-2.0,-0.072479248046875,0.0157318115234375,Waiting,0.0,0.0,0.0,0.0,0.0,0.0,0.0,0.0,
2.6095929999998773,0.0,0.0,false,4215729.238525024,,1.0,0.0,0.0,0.0,0.0,0.0,1.8457029360000001,0.0,0.0,12.0,0.0,0.0,-0.0,0.0,0.0,2.662353243,0.0,0.0,-1.0,0.0,0.0,0.0,0.0,0.0,3.97949178,0.0,-0.0012207029999995456,11.0,0.0,0.0,-0.0,0.0,0.0,2.564697003,0.0,-0.0012207029999999897,70.12000274658203,2.2300000190734863,-13.399999618530273,0.0367431640625,0.9564208984375,0.34307861328125,34.150001525878906,0.0,-2.0,-0.072479248046875,0.0157318115234375,Waiting,0.0,0.0,0.0,0.0,0.0,0.0,0.0,0.0,
2.6540460000000894,0.0,0.0,false,4215751.921618051,,1.0,0.0,0.0,0.0,0.0,0.125,1.8457029360000001,0.0,0.0012207030000004337,12.0,0.0,0.0,-0.0,0.0,0.0,2.66113254,0.0,0.0,-1.0,0.0,0.0,0.0,0.0,0.0,3.97949178,0.0,0.0012207029999995456,11.0,0.0,0.0,-0.0,0.0,0.0,2.564697003,0.0,0.0012207029999999897,70.12999725341797,2.2300000190734863,-13.390000343322754,0.0364990234375,0.96539306640625,0.33990478515625,34.150001525878906,0.0,-6.0,-0.072479248046875,0.0157318115234375,Waiting,0.0,0.0,0.0,0.0,0.0,0.0,0.0,0.0,
2.706091999999713,0.0,0.0,false,4215773.172778275,,1.0,0.0,0.0,0.0,0.0,0.125,1.8457029360000001,0.0,0.0,12.0,0.0,0.0,-0.0,0.0,0.0,2.662353243,0.0,0.0,-1.0,0.0,0.0,0.0,0.0,0.0,3.980712483,0.0,0.0,11.0,0.0,0.0,-0.0,0.0,0.0,2.564697003,0.0,-0.0012207029999999897,70.08999633789062,2.2300000190734863,-13.40999984741211,0.019775390625,0.93682861328125,0.34149169921875,34.150001525878906,0.0,-14.0,-0.072479248046875,0.0157318115234375,Waiting,0.0,0.0,0.0,0.0,0.0,0.0,0.0,0.0,
2.7496089999997055,0.0,0.0,false,4215792.992093014,,1.0,0.0,0.0,0.0,0.0,0.0,1.8457029360000001,0.0,-0.0012207030000004337,12.0,0.0,0.0,-0.0,0.0,0.0,2.663573946,0.0,0.0,-1.0,0.0,0.0,0.0,0.0,0.0,3.97949178,0.0,0.0,11.0,0.0,0.0,-0.0,0.0,0.0,2.564697003,0.0,0.0012207029999999897,70.08999633789062,2.2300000190734863,-13.40999984741211,0.0521240234375,0.970458984375,0.34423828125,34.150001525878906,0.0,7.0,-0.072479248046875,0.0157318115234375,Waiting,0.0,0.0,0.0,0.0,0.0,0.0,0.0,0.0,
2.797410999999847,0.0,0.0,false,4215811.3796495795,,1.0,0.0,0.0,0.0,0.0,0.125,1.8457029360000001,0.0,0.0012207030000004337,12.0,0.0,0.0,-0.0,0.0,0.0,2.66113254,0.0,0.0,-1.0,0.0,0.0,0.0,0.0,0.0,3.97949178,0.0,0.0,11.0,0.0,0.0,-0.0,0.0,0.0,2.564697003,0.0,0.0,70.12999725341797,2.240000009536743,-13.399999618530273,0.021484375,0.9439697265625,0.34088134765625,34.150001525878906,0.0,-14.0,-0.072479248046875,0.0157318115234375,Waiting,0.0,0.0,0.0,0.0,0.0,0.0,0.0,0.0,
2.8740639999997803,0.0,0.0,false,4215897.697758084,,1.0,0.0,0.0,0.0,0.0,0.125,1.8457029360000001,0.0,0.0,12.0,0.0,0.0,-0.0,0.0,0.0,2.662353243,0.0,0.0,-1.0,0.0,0.0,0.0,0.0,0.0,3.980712483,0.0,0.0,11.0,0.0,0.0,-0.0,0.0,0.0,2.564697003,0.0,0.0,70.12999725341797,2.25,-13.399999618530273,0.02288818359375,0.9600830078125,0.3438720703125,34.150001525878906,0.0,-15.0,-0.072479248046875,0.0157318115234375,Waiting,0.0,0.0,0.0,0.0,0.0,0.0,0.0,0.0,
2.9211669999998993,0.0,0.0,false,4215982.435284553,,1.0,0.0,0.0,0.0,0.0,0.0,1.8457029360000001,0.0,-0.0012207030000004337,12.0,0.0,0.0,-0.0,0.0,0.0,2.662353243,0.0,0.0,-1.0,0.0,0.0,0.0,0.0,0.0,3.97949178,0.0,0.0,11.0,0.0,0.0,-0.0,0.0,0.0,2.564697003,0.0,0.0,70.12999725341797,2.2300000190734863,-13.380000114440918,0.0250244140625,0.975341796875,0.30926513671875,34.150001525878906,0.0,-24.0,-0.072540283203125,0.0157623291015625,Waiting,0.0,0.0,0.0,0.0,0.0,0.0,0.0,0.0,
2.969972000000067,0.0,0.0,false,4216066.118005731,,1.0,0.0,0.0,0.0,0.0,0.125,1.8457029360000001,0.0,0.0012207030000004337,12.0,0.0,0.0,-0.0,0.0,0.0,2.66113254,0.0,0.0,-1.0,0.0,0.0,0.0,0.0,0.0,3.97949178,0.0,0.0,11.0,0.0,0.0,-0.0,0.0,0.0,2.564697003,0.0,0.0012207029999999897,70.12999725341797,2.240000009536743,-13.399999618530273,0.01837158203125,0.94378662109375,0.3551025390625,34.150001525878906,0.0,-10.0,-0.0726318359375,0.015838623046875,Waiting,0.0,0.0,0.0,0.0,0.0,0.0,0.0,0.0,
3.0144529999997465,0.0,0.0,false,4216148.220316247,,1.0,0.0,0.0,0.0,0.0,0.0,1.8457029360000001,0.0,-0.0012207030000004337,12.0,0.0,0.0,-0.0,0.0,0.0,2.66113254,0.0,0.0,-1.0,0.0,0.0,0.0,0.0,0.0,3.975829671,0.0,0.0,11.0,0.0,0.0,-0.0,0.0,0.0,2.564697003,0.0,-0.0012207029999999897,70.12000274658203,2.2300000190734863,-13.399999618530273,0.050537109375,0.9515380859375,0.338134765625,34.150001525878906,0.0,7.0,-0.072662353515625,0.01580810546875,Waiting,0.0,0.0,0.0,0.0,0.0,0.0,0.0,0.0,
3.0575,0.0,0.0,false,4216228.74231246,,1.0,0.0,0.0,0.0,0.0,0.0,1.8457029360000001,0.0,0.0,12.0,0.0,0.0,-0.0,0.0,0.0,2.66113254,0.0,0.0,-1.0,0.0,0.0,0.0,0.0,0.0,3.980712483,0.0,0.0,11.0,0.0,0.0,-0.0,0.0,0.0,2.564697003,0.0,0.0012207029999999897,70.08999633789062,2.240000009536743,-13.430000305175781,0.04193115234375,0.9549560546875,0.32061767578125,34.150001525878906,0.0,-8.0,-0.072601318359375,0.01580810546875,Waiting,0.0,0.0,0.0,0.0,0.0,0.0,0.0,0.0,
3.106285000000149,0.0,0.0,false,4216308.209739045,,1.0,0.0,0.0,0.0,0.0,0.125,1.8457029360000001,0.0,0.0012207030000004337,12.0,0.0,0.0,-0.0,0.0,0.0,2.662353243,0.0,0.0,-1.0,0.0,0.0,0.0,0.0,0.0,3.97949178,0.0,0.0,11.0,0.0,0.0,-0.0,0.0,0.0,2.564697003,0.0,0.0024414059999999793,70.05000305175781,2.2300000190734863,-13.449999809265137,0.0400390625,0.939697265625,0.33837890625,34.150001525878906,0.0,0.0,-0.07257080078125,0.0157470703125,Waiting,0.0,0.0,0.0,0.0,0.0,0.0,0.0,0.0,
3.1503309999997726,0.0,0.0,false,4216386.09702266,,1.0,0.0,0.0,0.0,0.0,0.0,1.8469236390000001,0.0,-0.0012207030000004337,12.0,0.0,0.0,-0.0,0.0,0.0,2.66113254,0.0,0.0,-1.0,0.0,0.0,0.0,0.0,0.0,3.9855952950000004,0.0,-0.0012207029999995456,11.0,0.0,0.0,-0.0,0.0,0.0,2.564697003,0.0,-0.0024414059999999793,70.05999755859375,2.240000009536743,-13.449999809265137,0.03216552734375,0.9422607421875,0.34088134765625,34.150001525878906,0.0,-5.0,-0.07257080078125,0.0157012939453125,Waiting,0.0,0.0,0.0,0.0,0.0,0.0,0.0,0.0,
3.1960039999997245,0.0,0.0,false,4216462.4042596435,,1.0,0.0,0.0,0.0,0.0,0.0,1.8457029360000001,0.0,0.0,12.0,0.0,0.0,-0.0,0.0,0.0,2.66113254,0.0,0.0,-1.0,0.0,0.0,0.0,0.0,0.0,3.980712483,0.0,0.0012207029999995456,11.0,0.0,0.0,-0.0,0.0,0.0,2.565917706,0.0,0.0,70.12000274658203,2.240000009536743,-13.40999984741211,0.024658203125,0.96270751953125,0.33892822265625,34.150001525878906,0.0,-16.0,-0.07257080078125,0.0157012939453125,Waiting,0.0,0.0,0.0,0.0,0.0,0.0,0.0,0.0,
3.246586999999825,0.0,0.0,false,4216537.131546325,,1.0,0.0,0.0,0.0,0.0,0.0,1.8457029360000001,0.0,0.0,12.0,0.0,0.0,-0.0,0.0,0.0,2.662353243,0.0,0.0,-1.0,0.0,0.0,0.0,0.0,0.0,3.978271077,0.0,0.0,11.0,0.0,0.0,-0.0,0.0,0.0,2.564697003,0.0,0.0,70.0999984741211,2.240000009536743,-13.420000076293945,0.04571533203125,0.951171875,0.3297119140625,34.150001525878906,0.0,7.0,-0.07257080078125,0.0157012939453125,Waiting,0.0,0.0,0.0,0.0,0.0,0.0,0.0,0.0,
3.289839000000153,0.0,0.0,false,4216610.8045846205,,1.0,0.0,0.0,0.0,0.0,0.0,1.8457029360000001,0.0,0.0,12.0,0.0,0.0,-0.0,0.0,0.0,2.66113254,0.0,0.0,-1.0,0.0,0.0,0.0,0.0,0.0,3.980712483,0.0,0.0,11.0,0.0,0.0,-0.0,0.0,0.0,2.564697003,0.0,-0.0012207029999999897,70.05000305175781,2.240000009536743,-13.460000038146973,0.05059814453125,0.965576171875,0.34393310546875,34.150001525878906,0.0,6.0,-0.07257080078125,0.0157012939453125,Waiting,0.0,0.0,0.0,0.0,0.0,0.0,0.0,0.0,
3.3390389999998735,0.0,0.0,false,4216682.89784389,,1.0,0.0,0.0,0.0,0.0,0.0,1.8444822330000001,0.0,0.0012207030000004337,12.0,0.0,0.0,-0.0,0.0,0.0,2.66113254,0.0,0.0,-1.0,0.0,0.0,0.0,0.0,0.0,3.980712483,0.0,0.0,11.0,0.0,0.0,-0.0,0.0,0.0,2.564697003,0.0,0.0012207029999999897,70.04000091552734,2.25,-13.470000267028809,0.03271484375,0.9510498046875,0.33441162109375,34.150001525878906,0.0,-10.0,-0.07257080078125,0.0158233642578125,Waiting,0.0,0.0,0.0,0.0,0.0,0.0,0.0,0.0,
3.3856650000000372,0.0,0.0,false,4216753.411420443,,1.0,0.0,0.0,0.0,0.0,0.125,1.848144342,0.0,0.0012207030000004337,12.0,0.0,0.0,-0.0,0.0,0.0,2.662353243,0.0,0.0,-1.0,0.0,0.0,0.0,0.0,0.0,3.97949178,0.0,0.0,11.0,0.0,0.0,-0.0,0.0,0.0,2.564697003,0.0,0.0,70.06999969482422,2.240000009536743,-13.4399995803833,0.0439453125,0.94873046875,0.33721923828125,34.150001525878906,0.0,1.0,-0.07257080078125,0.0158233642578125,Waiting,0.0,0.0,0.0,0.0,0.0,0.0,0.0,0.0,
3.428621999999974,0.0,0.0,false,4216822.87098413,,1.0,0.0,0.0,0.0,0.0,0.125,1.8457029360000001,0.0,0.0,12.0,0.0,0.0,-0.0,0.0,0.0,2.662353243,0.0,0.0,-1.0,0.0,0.0,0.0,0.0,0.0,3.980712483,0.0,-0.0012207029999995456,11.0,0.0,0.0,-0.0,0.0,0.0,2.564697003,0.0,-0.0012207029999999897,70.12000274658203,2.240000009536743,-13.40999984741211,0.0430908203125,0.9520263671875,0.375732421875,34.150001525878906,0.0,18.0,-0.07257080078125,0.01580810546875,Waiting,0.0,0.0,0.0,0.0,0.0,0.0,0.0,0.0,
3.475020999999717,0.0,0.0,false,4216890.751036333,,1.0,0.0,0.0,0.0,0.0,0.0,1.8444822330000001,0.0,-0.0012207030000004337,12.0,0.0,0.0,-0.0,0.0,0.0,2.66113254,0.0,0.0,-1.0,0.0,0.0,0.0,0.0,0.0,3.97949178,0.0,-0.0012207029999995456,11.0,0.0,0.0,-0.0,0.0,0.0,2.564697003,0.0,-0.0012207029999999897,70.08999633789062,2.2300000190734863,-13.420000076293945,0.05078125,0.968505859375,0.35009765625,34.150001525878906,0.0,9.0,-0.0726165771484375,0.01568603515625,Waiting,0.0,0.0,0.0,0.0,0.0,0.0,0.0,0.0,
3.52369700000016,0.0,0.0,false,4216957.051673339,,1.0,0.0,0.0,0.0,0.0,0.0,1.8457029360000001,0.0,0.0,12.0,0.0,0.0,-0.0,0.0,0.0,2.662353243,0.0,0.0,-1.0,0.0,0.0,0.0,0.0,0.0,3.980712483,0.0,0.0012207029999995456,11.0,0.0,0.0,-0.0,0.0,0.0,2.564697003,0.0,0.0012207029999999897,70.04000091552734,2.2300000190734863,-13.449999809265137,0.0340576171875,0.94866943359375,0.327880859375,34.150001525878906,0.0,-11.0,-0.0726470947265625,0.01568603515625,Waiting,0.0,0.0,0.0,0.0,0.0,0.0,0.0,0.0,
3.572339999999851,0.0,0.0,false,4217022.298532938,,1.0,0.0,0.0,0.0,0.0,0.0,1.8457029360000001,0.0,0.0,12.0,0.0,0.0,-0.0,0.0,0.0,2.662353243,0.0,0.0,-1.0,0.0,0.0,0.0,0.0,0.0,3.97949178,0.0,0.0,11.0,0.0,0.0,-0.0,0.0,0.0,2.5634763,0.0,0.0,70.05000305175781,2.2300000190734863,-13.449999809265137,0.03216552734375,0.971435546875,0.34454345703125,34.150001525878906,0.0,-9.0,-0.0726470947265625,0.01568603515625,Waiting,0.0,0.0,0.0,0.0,0.0,0.0,0.0,0.0,
3.618003999999724,0.0,0.0,false,4217085.440617698,,1.0,0.0,0.0,0.0,0.0,0.0,1.8457029360000001,0.0,0.0,12.0,0.0,0.0,-0.0,0.0,0.0,2.66113254,0.0,0.0,-1.0,0.0,0.0,0.0,0.0,0.0,3.97949178,0.0,0.0,11.0,0.0,0.0,-0.0,0.0,0.0,2.564697003,0.0,0.0,70.08999633789062,2.240000009536743,-13.420000076293945,0.05133056640625,0.9442138671875,0.3392333984375,34.150001525878906,0.0,10.0,-0.0726470947265625,0.01568603515625,Waiting,0.0,0.0,0.0,0.0,0.0,0.0,0.0,0.0,
3.659614999999758,0.0,0.0,false,4217147.003576073,,1.0,0.0,0.0,0.0,0.0,0.0,1.8457029360000001,0.0,0.0,12.0,0.0,0.0,-0.0,0.0,0.0,2.66113254,0.0,0.0,-1.0,0.0,0.0,0.0,0.0,0.0,3.97949178,0.0,0.0,11.0,0.0,0.0,-0.0,0.0,0.0,2.565917706,0.0,0.0,70.0999984741211,2.25,-13.420000076293945,0.0494384765625,0.94635009765625,0.3511962890625,34.150001525878906,0.0,13.0,-0.0726470947265625,0.01568603515625,Waiting,0.0,0.0,0.0,0.0,0.0,0.0,0.0,0.0,
3.705746999999974,0.0,0.0,false,4217207.513013796,,1.0,0.0,0.0,0.0,0.0,0.0,1.8457029360000001,0.0,0.0012207030000004337,12.0,0.0,0.0,-0.0,0.0,0.0,2.66113254,0.0,0.0,-1.0,0.0,0.0,0.0,0.0,0.0,3.97949178,0.0,0.0,11.0,0.0,0.0,-0.0,0.0,0.0,2.564697003,0.0,0.0,70.04000091552734,2.25,-13.460000038146973,0.02874755859375,0.95379638671875,0.34027099609375,34.150001525878906,0.0,-11.0,-0.072509765625,0.01568603515625,Waiting,0.0,0.0,0.0,0.0,0.0,0.0,0.0,0.0,
3.7526370000001044,0.0,0.0,false,4217266.443496282,,1.0,0.0,0.0,0.0,0.0,0.0,1.8457029360000001,0.0,-0.0012207030000004337,12.0,0.0,0.0,-0.0,0.0,0.0,2.662353243,0.0,0.0,-1.0,0.0,0.0,0.0,0.0,0.0,3.980712483,0.0,-0.0012207029999995456,11.0,0.0,0.0,-0.0,0.0,0.0,2.565917706,0.0,-0.0012207029999999897,70.04000091552734,2.2300000190734863,-13.449999809265137,0.04217529296875,0.95556640625,0.340576171875,34.150001525878906,0.0,0.0,-0.072509765625,0.01568603515625,Waiting,0.0,0.0,0.0,0.0,0.0,0.0,0.0,0.0,
3.7947719999998806,0.0,0.0,false,4217323.795119771,,1.0,0.0,0.0,0.0,0.0,0.0,1.8457029360000001,0.0,0.0012207030000004337,12.0,0.0,0.0,-0.0,0.0,0.0,2.662353243,0.0,0.0,-1.0,0.0,0.0,0.0,0.0,0.0,3.97949178,0.0,0.0012207029999995456,11.0,0.0,0.0,-0.0,0.0,0.0,2.565917706,0.0,0.0024414059999999793,70.06999969482422,2.240000009536743,-13.430000305175781,0.02667236328125,0.94610595703125,0.3499755859375,34.150001525878906,0.0,-6.0,-0.072509765625,0.015777587890625,Waiting,0.0,0.0,0.0,0.0,0.0,0.0,0.0,0.0,
3.8436450000000186,0.0,0.0,false,4217379.228443722,,1.0,0.0,0.0,0.0,0.0,0.125,1.8457029360000001,0.0,0.0,12.0,0.0,0.0,-0.0,0.0,0.0,2.66113254,0.0,0.0,-1.0,0.0,0.0,0.0,0.0,0.0,3.97949178,0.0,0.0,11.0,0.0,0.0,-0.0,0.0,0.0,2.564697003,0.0,-0.0012207029999999897,70.05999755859375,2.2200000286102295,-13.430000305175781,0.04437255859375,0.9627685546875,0.343994140625,34.150001525878906,0.0,2.0,-0.072509765625,0.015777587890625,Waiting,0.0,0.0,0.0,0.0,0.0,0.0,0.0,0.0,
3.8920439999997614,0.0,0.0,false,4217433.08311493,,1.0,0.0,0.0,0.0,0.0,0.125,1.8457029360000001,0.0,-0.0012207030000004337,12.0,0.0,0.0,-0.0,0.0,0.0,2.662353243,0.0,0.0,-1.0,0.0,0.0,0.0,0.0,0.0,3.97949178,0.0,0.0,11.0,0.0,0.0,-0.0,0.0,0.0,2.564697003,0.0,-0.0012207029999999897,70.05000305175781,2.2300000190734863,-13.4399995803833,0.0369873046875,0.957275390625,0.34161376953125,34.150001525878906,0.0,-3.0,-0.072509765625,0.015777587890625,Waiting,0.0,0.0,0.0,0.0,0.0,0.0,0.0,0.0,
3.937498000000138,0.0,0.0,false,4217485.359229613,,1.0,0.0,0.0,0.0,0.0,0.0,1.8457029360000001,0.0,0.0,12.0,0.0,0.0,-0.0,0.0,0.0,2.66113254,0.0,0.0,-1.0,0.0,0.0,0.0,0.0,0.0,3.980712483,0.0,0.0,11.0,0.0,0.0,-0.0,0.0,0.0,2.564697003,0.0,0.0,70.04000091552734,2.2200000286102295,-13.449999809265137,0.03851318359375,0.9566650390625,0.3389892578125,34.150001525878906,0.0,-3.0,-0.072509765625,0.015777587890625,Waiting,0.0,0.0,0.0,0.0,0.0,0.0,0.0,0.0,
3.9867089999997987,0.0,0.0,false,4217536.582329399,,1.0,0.0,0.0,0.0,0.0,0.0,1.8457029360000001,0.0,0.0012207030000004337,12.0,0.0,0.0,-0.0,0.0,0.0,2.66113254,0.0,0.0,-1.0,0.0,0.0,0.0,0.0,0.0,3.97949178,0.0,0.0,11.0,0.0,0.0,-0.0,0.0,0.0,2.564697003,0.0,0.0,70.12000274658203,2.2300000190734863,-13.399999618530273,0.03314208984375,0.9637451171875,0.33831787109375,34.150001525878906,0.0,-9.0,-0.072509765625,0.015777587890625,Waiting,0.0,0.0,0.0,0.0,0.0,0.0,0.0,0.0,
4.031918999999761,0.0,0.0,false,4217586.227043718,,1.0,0.0,0.0,0.0,0.0,0.125,1.8457029360000001,0.0,0.0012207030000004337,12.0,0.0,0.0,-0.0,0.0,0.0,2.66113254,0.0,0.0,-1.0,0.0,0.0,0.0,0.0,0.0,3.97949178,0.0,0.0,11.0,0.0,0.0,-0.0,0.0,0.0,2.564697003,0.0,0.0,70.1500015258789,2.240000009536743,-13.380000114440918,0.03466796875,0.9576416015625,0.34490966796875,34.150001525878906,0.0,-3.0,-0.072509765625,0.015777587890625,Waiting,0.0,0.0,0.0,0.0,0.0,0.0,0.0,0.0,
4.078766999999993,0.0,0.0,false,4217634.293468766,,1.0,0.0,0.0,0.0,0.0,0.0,1.8457029360000001,0.0,-0.0012207030000004337,12.0,0.0,0.0,-0.0,0.0,0.0,2.662353243,0.0,0.0,-1.0,0.0,0.0,0.0,0.0,0.0,3.97949178,0.0,0.0,11.0,0.0,0.0,-0.0,0.0,0.0,2.564697003,0.0,0.0,70.13999938964844,2.240000009536743,-13.390000343322754,0.03863525390625,0.9478759765625,0.34832763671875,34.150001525878906,0.0,3.0,-0.072509765625,0.015777587890625,Waiting,0.0,0.0,0.0,0.0,0.0,0.0,0.0,0.0,
4.125584999999963,0.0,0.0,false,4217681.307114127,,1.0,0.0,0.0,0.0,0.0,0.0,1.8457029360000001,0.0,0.0,12.0,0.0,0.0,-0.0,0.0,0.0,2.66113254,0.0,0.0,-1.0,0.0,0.0,0.0,0.0,0.0,3.978271077,0.0,0.0,11.0,0.0,0.0,-0.0,0.0,0.0,2.564697003,0.0,0.0,70.08999633789062,2.240000009536743,-13.420000076293945,0.0374755859375,0.9755859375,0.35345458984375,34.150001525878906,0.0,-1.0,-0.072509765625,0.015838623046875,Waiting,0.0,0.0,0.0,0.0,0.0,0.0,0.0,0.0,
4.171473999999929,0.0,0.0,false,4217726.742641234,,1.0,0.0,0.0,0.0,0.0,0.0,1.8457029360000001,0.0,0.0,12.0,0.0,0.0,-0.0,0.0,0.0,2.662353243,0.0,0.0,-1.0,0.0,0.0,0.0,0.0,0.0,3.97949178,0.0,0.0,11.0,0.0,0.0,-0.0,0.0,0.0,2.564697003,0.0,0.0,70.08000183105469,2.2300000190734863,-13.430000305175781,0.0679931640625,0.931396484375,0.3369140625,34.150001525878906,0.0,25.0,-0.0724945068359375,0.015869140625,Waiting,0.0,0.0,0.0,0.0,0.0,0.0,0.0,0.0,
4.213604999999982,0.0,0.0,false,4217770.600146258,,1.0,0.0,0.0,0.0,0.0,0.0,1.8420408270000002,0.0,0.0,12.0,0.0,0.0,-0.0,0.0,0.0,2.662353243,0.0,0.0,-1.0,0.0,0.0,0.0,0.0,0.0,3.980712483,0.0,0.0,11.0,0.0,0.0,-0.0,0.0,0.0,2.564697003,0.0,0.0012207029999999897,70.05000305175781,2.2699999809265137,-13.479999542236328,0.06231689453125,0.9888916015625,0.3433837890625,34.150001525878906,0.0,11.0,-0.07244873046875,0.015869140625,Waiting,0.0,0.0,0.0,0.0,0.0,0.0,0.0,0.0,
4.26282200000016,0.0,0.0,false,4217813.405106746,,1.0,0.0,0.0,0.0,0.0,0.0,1.8457029360000001,0.0,0.0,12.0,0.0,0.0,-0.0,0.0,0.0,2.66113254,0.0,0.0,-1.0,0.0,0.0,0.0,0.0,0.0,3.97949178,0.0,0.0,11.0,0.0,0.0,-0.0,0.0,0.0,2.564697003,0.0,0.0,70.0,2.2300000190734863,-13.479999542236328,0.02008056640625,0.96807861328125,0.353515625,34.150001525878906,0.0,-15.0,-0.0725555419921875,0.015869140625,Waiting,0.0,0.0,0.0,0.0,0.0,0.0,0.0,0.0,
4.308587999999989,0.0,0.0,false,4217854.6322161285,,1.0,0.0,0.0,0.0,0.0,0.0,1.8457029360000001,0.0,0.0,12.0,0.0,0.0,-0.0,0.0,0.0,2.66113254,0.0,0.0,-1.0,0.0,0.0,0.0,0.0,0.0,3.980712483,0.0,0.0,11.0,0.0,0.0,-0.0,0.0,0.0,2.564697003,0.0,0.0,70.0,2.2200000286102295,-13.460000038146973,0.063720703125,0.97100830078125,0.32806396484375,34.150001525878906,0.0,9.0,-0.0725555419921875,0.0158843994140625,Waiting,0.0,0.0,0.0,0.0,0.0,0.0,0.0,0.0,
4.353097999999766,0.0,0.0,false,4217894.281570555,,1.0,0.0,0.0,0.0,0.0,0.0,1.8457029360000001,0.0,0.0,12.0,0.0,0.0,-0.0,0.0,0.0,2.662353243,0.0,0.0,-1.0,0.0,0.0,0.0,0.0,0.0,3.980712483,0.0,0.0,11.0,0.0,0.0,-0.0,0.0,0.0,2.564697003,0.0,-0.0012207029999999897,70.06999969482422,2.2200000286102295,-13.430000305175781,0.02825927734375,0.95391845703125,0.36517333984375,34.150001525878906,0.0,0.0,-0.0726318359375,0.01593017578125,Waiting,0.0,0.0,0.0,0.0,0.0,0.0,0.0,0.0,
4.402097000000067,0.0,0.0,false,4217932.878615535,,1.0,0.0,0.0,0.0,0.0,0.0,1.8444822330000001,0.0,0.0012207030000004337,12.0,0.0,0.0,-0.0,0.0,0.0,2.662353243,0.0,0.0,-1.0,0.0,0.0,0.0,0.0,0.0,3.97949178,0.0,0.0,11.0,0.0,0.0,-0.0,0.0,0.0,2.564697003,0.0,0.0012207029999999897,70.0999984741211,2.2100000381469727,-13.399999618530273,0.05950927734375,0.9456787109375,0.34429931640625,34.150001525878906,0.0,19.0,-0.0726318359375,0.015869140625,Waiting,0.0,0.0,0.0,0.0,0.0,0.0,0.0,0.0,
4.447361999999732,0.0,0.0,false,4217969.898076493,,1.0,0.0,0.0,0.0,0.0,0.125,1.849365045,0.0,-0.0012207030000004337,12.0,0.0,0.0,-0.0,0.0,0.0,2.662353243,0.0,0.0,-1.0,0.0,0.0,0.0,0.0,0.0,3.980712483,0.0,0.0,11.0,0.0,0.0,-0.0,0.0,0.0,2.564697003,0.0,-0.0012207029999999897,70.06999969482422,2.2300000190734863,-13.430000305175781,0.03692626953125,0.96026611328125,0.33282470703125,34.150001525878906,0.0,-8.0,-0.0726318359375,0.015869140625,Waiting,0.0,0.0,0.0,0.0,0.0,0.0,0.0,0.0,
4.491910000000149,0.0,0.0,false,4218005.340049559,,1.0,0.0,0.0,0.0,0.0,0.0,1.8457029360000001,0.0,0.0012207030000004337,12.0,0.0,0.0,-0.0,0.0,0.0,2.662353243,0.0,0.0,-1.0,0.0,0.0,0.0,0.0,0.0,3.97949178,0.0,0.0,11.0,0.0,0.0,-0.0,0.0,0.0,2.564697003,0.0,0.0012207029999999897,70.0199966430664,2.2300000190734863,-13.449999809265137,0.0599365234375,0.94476318359375,0.34954833984375,34.150001525878906,0.0,21.0,-0.072601318359375,0.015869140625,Waiting,0.0,0.0,0.0,0.0,0.0,0.0,0.0,0.0,
4.545251999999862,0.0,0.0,false,4218039.729948208,,1.0,0.0,0.0,0.0,0.0,0.125,1.8444822330000001,0.0,0.0,12.0,0.0,0.0,-0.0,0.0,0.0,2.662353243,0.0,0.0,-1.0,0.0,0.0,0.0,0.0,0.0,3.981933186,0.0,0.0,11.0,0.0,0.0,-0.0,0.0,0.0,2.565917706,0.0,0.0,70.02999877929688,2.2300000190734863,-13.460000038146973,0.03338623046875,0.96026611328125,0.352783203125,34.150001525878906,0.0,-2.0,-0.072540283203125,0.015869140625,Waiting,0.0,0.0,0.0,0.0,0.0,0.0,0.0,0.0,
4.589398999999743,0.0,0.0,false,4218072.542529856,,1.0,0.0,0.0,0.0,0.0,0.125,1.8457029360000001,0.0,0.0,12.0,0.0,0.0,-0.0,0.0,0.0,2.662353243,0.0,0.0,-1.0,0.0,0.0,0.0,0.0,0.0,3.97949178,0.0,0.0,11.0,0.0,0.0,-0.0,0.0,0.0,2.565917706,0.0,-0.0012207029999999897,70.04000091552734,2.2300000190734863,-13.449999809265137,0.04522705078125,0.9683837890625,0.3382568359375,34.150001525878906,0.0,0.0,-0.072540283203125,0.015869140625,Waiting,0.0,0.0,0.0,0.0,0.0,0.0,0.0,0.0,
4.632529999999795,0.0,0.0,false,4218103.252594594,,1.0,0.0,0.0,0.0,0.0,0.0,1.8469236390000001,0.0,-0.0012207030000004337,12.0,0.0,0.0,-0.0,0.0,0.0,2.659911837,0.0,0.0,-1.0,0.0,0.0,0.0,0.0,0.0,3.980712483,0.0,0.0,11.0,0.0,0.0,-0.0,0.0,0.0,2.564697003,0.0,0.0012207029999999897,70.08000183105469,2.240000009536743,-13.430000305175781,0.04095458984375,0.9591064453125,0.34576416015625,34.150001525878906,0.0,1.0,-0.072540283203125,0.0159759521484375,Waiting,0.0,0.0,0.0,0.0,0.0,0.0,0.0,0.0,
4.679461000000127,0.0,0.0,false,4218132.91084122,,1.0,0.0,0.0,0.0,0.0,0.0,1.8457029360000001,0.0,0.0,12.0,0.0,0.0,-0.0,0.0,0.0,2.659911837,0.0,0.0,-1.0,0.0,0.0,0.0,0.0,0.0,3.97949178,0.0,0.0,11.0,0.0,0.0,-0.0,0.0,0.0,2.564697003,0.0,0.0012207029999999897,70.06999969482422,2.240000009536743,-13.430000305175781,0.0433349609375,0.95574951171875,0.33721923828125,34.150001525878906,0.0,0.0,-0.072540283203125,0.0159759521484375,Waiting,0.0,0.0,0.0,0.0,0.0,0.0,0.0,0.0,
4.728733000000007,0.0,0.0,false,4218160.9920591405,,1.0,0.0,0.0,0.0,0.0,0.125,1.8457029360000001,0.0,0.0012207030000004337,12.0,0.0,0.0,-0.0,0.0,0.0,2.66113254,0.0,0.0,-1.0,0.0,0.0,0.0,0.0,0.0,3.97949178,0.0,0.0,11.0,0.0,0.0,-0.0,0.0,0.0,2.564697003,0.0,0.0,70.05999755859375,2.2300000190734863,-13.4399995803833,0.0389404296875,0.9583740234375,0.339599609375,34.150001525878906,0.0,-3.0,-0.072540283203125,0.0159759521484375,Waiting,0.0,0.0,0.0,0.0,0.0,0.0,0.0,0.0,
4.771922999999951,0.0,0.0,false,4218187.496344435,,1.0,0.0,0.0,0.0,0.0,0.0,1.8444822330000001,0.0,-0.0012207030000004337,12.0,0.0,0.0,-0.0,0.0,0.0,2.662353243,0.0,0.0,-1.0,0.0,0.0,0.0,0.0,0.0,3.97949178,0.0,0.0,11.0,0.0,0.0,-0.0,0.0,0.0,2.567138409,0.0,-0.0012207029999999897,70.02999877929688,2.2200000286102295,-13.460000038146973,0.03656005859375,0.95428466796875,0.344970703125,34.150001525878906,0.0,-2.0,-0.072540283203125,0.0159759521484375,Waiting,0.0,0.0,0.0,0.0,0.0,0.0,0.0,0.0,
4.813973999999929,0.0,0.0,false,4218212.084401211,,1.0,0.0,0.0,0.0,0.0,0.0,1.8457029360000001,0.0,0.0,12.0,0.0,0.0,-0.0,0.0,0.0,2.662353243,0.0,0.0,-1.0,0.0,0.0,0.0,0.0,0.0,3.980712483,0.0,0.0,11.0,0.0,0.0,-0.0,0.0,0.0,2.564697003,0.0,0.0012207029999999897,70.0199966430664,2.2300000190734863,-13.460000038146973,0.0438232421875,0.94921875,0.34100341796875,34.150001525878906,0.0,2.0,-0.072540283203125,0.0159759521484375,Waiting,0.0,0.0,0.0,0.0,0.0,0.0,0.0,0.0,
4.859273000000044,0.0,0.0,false,4218235.095731286,,1.0,0.0,0.0,0.0,0.0,0.0,1.8457029360000001,0.0,0.0012207030000004337,12.0,0.0,0.0,-0.0,0.0,0.0,2.662353243,0.0,0.0,-1.0,0.0,0.0,0.0,0.0,0.0,3.980712483,0.0,0.0,11.0,0.0,0.0,-0.0,0.0,0.0,2.565917706,0.0,0.0,70.02999877929688,2.2300000190734863,-13.460000038146973,0.038330078125,0.9556884765625,0.3475341796875,34.150001525878906,0.0,0.0,-0.072540283203125,0.0159759521484375,Waiting,0.0,0.0,0.0,0.0,0.0,0.0,0.0,0.0,
4.905141999999993,0.0,0.0,false,4218256.530430721,,1.0,0.0,0.0,0.0,0.0,0.125,1.8469236390000001,0.0,-0.0012207030000004337,12.0,0.0,0.0,-0.0,0.0,0.0,2.662353243,0.0,0.0,-1.0,0.0,0.0,0.0,0.0,0.0,3.980712483,0.0,0.0,11.0,0.0,0.0,-0.0,0.0,0.0,2.564697003,0.0,0.0,70.05000305175781,2.2300000190734863,-13.449999809265137,0.043212890625,0.95245361328125,0.3365478515625,34.150001525878906,0.0,0.0,-0.072540283203125,0.0159759521484375,Waiting,0.0,0.0,0.0,0.0,0.0,0.0,0.0,0.0,
4.951462999999989,0.0,0.0,false,4218276.913816912,,1.0,0.0,0.0,0.0,0.0,0.0,1.8457029360000001,0.0,0.0,12.0,0.0,0.0,-0.0,0.0,0.0,2.662353243,0.0,0.0,-1.0,0.0,0.0,0.0,0.0,0.0,3.978271077,0.0,0.0,11.0,0.0,0.0,-0.0,0.0,0.0,2.564697003,0.0,0.0,70.0999984741211,2.2300000190734863,-13.420000076293945,0.04522705078125,0.9603271484375,0.34820556640625,34.150001525878906,0.0,6.0,-0.072540283203125,0.0159759521484375,Waiting,0.0,0.0,0.0,0.0,0.0,0.0,0.0,0.0,
4.995401999999769,0.0,0.0,false,4218295.720743223,,1.0,0.0,0.0,0.0,0.0,0.0,1.853027154,0.0,0.0,12.0,0.0,0.0,-0.0,0.0,0.0,2.662353243,0.0,0.0,-1.0,0.0,0.0,0.0,0.0,0.0,3.980712483,0.0,0.0,11.0,0.0,0.0,-0.0,0.0,0.0,2.565917706,0.0,0.0,70.08000183105469,2.240000009536743,-13.4399995803833,0.04010009765625,0.95440673828125,0.353759765625,34.150001525878906,0.0,5.0,-0.072540283203125,0.0159759521484375,Waiting,0.0,0.0,0.0,0.0,0.0,0.0,0.0,0.0,
5.046580000000074,0.0,0.0,false,4218312.95130569,,1.0,0.0,0.0,0.0,0.0,0.0,1.8457029360000001,0.0,0.0,12.0,0.0,0.0,-0.0,0.0,0.0,2.66113254,0.0,0.0,-1.0,0.0,0.0,0.0,0.0,0.0,3.97949178,0.0,0.0,11.0,0.0,0.0,-0.0,0.0,0.0,2.564697003,0.0,0.0,70.04000091552734,2.240000009536743,-13.470000267028809,0.037353515625,0.95184326171875,0.33258056640625,34.150001525878906,0.0,-7.0,-0.072540283203125,0.0159759521484375,Waiting,0.0,0.0,0.0,0.0,0.0,0.0,0.0,0.0,
5.101421000000089,0.0,0.0,false,4218399.839665361,,1.0,0.0,0.0,0.0,0.0,0.0,1.8457029360000001,0.0,0.0,12.0,0.0,0.0,-0.0,0.0,0.0,2.662353243,0.0,0.0,-1.0,0.0,0.0,0.0,0.0,0.0,3.980712483,0.0,0.0,11.0,0.0,0.0,-0.0,0.0,0.0,2.564697003,0.0,0.0,70.04000091552734,2.2300000190734863,-13.460000038146973,0.0406494140625,0.9598388671875,0.33367919921875,34.150001525878906,0.0,-5.0,-0.072540283203125,0.0159759521484375,Waiting,0.0,0.0,0.0,0.0,0.0,0.0,0.0,0.0,
5.146580999999773,0.0,0.0,false,4218485.72417154,,1.0,0.0,0.0,0.0,0.0,0.0,1.8457029360000001,0.0,0.0,12.0,0.0,0.0,-0.0,0.0,0.0,2.662353243,0.0,0.0,-1.0,0.0,0.0,0.0,0.0,0.0,3.980712483,0.0,0.0,11.0,0.0,0.0,-0.0,0.0,0.0,2.564697003,0.0,0.0,70.08000183105469,2.2300000190734863,-13.4399995803833,0.03662109375,0.95635986328125,0.3555908203125,34.150001525878906,0.0,2.0,-0.072540283203125,0.0159759521484375,Waiting,0.0,0.0,0.0,0.0,0.0,0.0,0.0,0.0,
5.191035000000149,0.0,0.0,false,4218569.937257609,,1.0,0.0,0.0,0.0,0.0,0.0,1.8457029360000001,0.0,0.0,12.0,0.0,0.0,-0.0,0.0,0.0,2.66113254,0.0,0.0,-1.0,0.0,0.0,0.0,0.0,0.0,3.980712483,0.0,0.0,11.0,0.0,0.0,-0.0,0.0,0.0,2.564697003,0.0,-0.0012207029999999897,70.0999984741211,2.2300000190734863,-13.420000076293945,0.037841796875,0.95489501953125,0.34857177734375,34.189998626708984,0.0,0.0,-0.072540283203125,0.0159759521484375,Waiting,0.0,0.0,0.0,0.0,0.0,0.0,0.0,0.0,
5.237844000000041,0.0,0.0,false,4218652.479025381,,1.0,0.0,0.0,0.0,0.0,0.0,1.8432615300000001,0.0,0.0,12.0,0.0,0.0,-0.0,0.0,0.0,2.663573946,0.0,0.0,-1.0,0.0,0.0,0.0,0.0,0.0,3.97949178,0.0,0.0,11.0,0.0,0.0,-0.0,0.0,0.0,2.564697003,0.0,0.0012207029999999897,70.06999969482422,2.2300000190734863,-13.4399995803833,0.04296875,0.9586181640625,0.3411865234375,34.189998626708984,0.0,0.0,-0.072540283203125,0.0159759521484375,Waiting,0.0,0.0,0.0,0.0,0.0,0.0,0.0,0.0,
5.285873000000138,0.0,0.0,false,4218734.183508964,,1.0,0.0,0.0,0.0,0.0,0.0,1.853027154,0.0,0.0,12.0,0.0,0.0,-0.0,0.0,0.0,2.662353243,0.0,0.0,-1.0,0.0,0.0,0.0,0.0,0.0,3.980712483,0.0,0.0,11.0,0.0,0.0,-0.0,0.0,0.0,2.564697003,0.0,0.0012207029999999897,70.05999755859375,2.2300000190734863,-13.449999809265137,0.04156494140625,0.95391845703125,0.3409423828125,34.189998626708984,0.0,0.0,-0.072540283203125,0.0159759521484375,Waiting,0.0,0.0,0.0,0.0,0.0,0.0,0.0,0.0,
5.331961000000127,0.0,0.0,false,4218814.216843986,,1.0,0.0,0.0,0.0,0.0,0.125,1.8457029360000001,0.0,0.0012207030000004337,12.0,0.0,0.0,-0.0,0.0,0.0,2.66113254,0.0,0.0,-1.0,0.0,0.0,0.0,0.0,0.0,3.97949178,0.0,0.0,11.0,0.0,0.0,-0.0,0.0,0.0,2.564697003,0.0,-0.0012207029999999897,70.02999877929688,2.240000009536743,-13.460000038146973,0.04205322265625,0.94921875,0.33868408203125,34.189998626708984,0.0,0.0,-0.072540283203125,0.0159759521484375,Waiting,0.0,0.0,0.0,0.0,0.0,0.0,0.0,0.0,
5.376768999999855,0.0,0.0,false,4218892.579132236,,1.0,0.0,0.0,0.0,0.0,0.0,1.8457029360000001,0.0,-0.0012207030000004337,12.0,0.0,0.0,-0.0,0.0,0.0,2.662353243,0.0,0.0,-1.0,0.0,0.0,0.0,0.0,0.0,3.97949178,0.0,0.0,11.0,0.0,0.0,-0.0,0.0,0.0,2.564697003,0.0,0.0,70.05000305175781,2.240000009536743,-13.449999809265137,0.0421142578125,0.95941162109375,0.34942626953125,34.189998626708984,0.0,3.0,-0.072540283203125,0.0159759521484375,Waiting,0.0,0.0,0.0,0.0,0.0,0.0,0.0,0.0,
5.422138999999967,0.0,0.0,false,4218970.104357007,,1.0,0.0,0.0,0.0,0.0,0.0,1.8469236390000001,0.0,0.0,12.0,0.0,0.0,-0.0,0.0,0.0,2.662353243,0.0,0.0,-1.0,0.0,0.0,0.0,0.0,0.0,3.97949178,0.0,0.0,11.0,0.0,0.0,-0.0,0.0,0.0,2.565917706,0.0,0.0012207029999999897,70.05999755859375,2.240000009536743,-13.449999809265137,0.03570556640625,0.9569091796875,0.35040283203125,34.189998626708984,0.0,0.0,-0.072540283203125,0.0159759521484375,Waiting,0.0,0.0,0.0,0.0,0.0,0.0,0.0,0.0,
5.472987999999896,0.0,0.0,false,4219045.9587047,,1.0,0.0,0.0,0.0,0.0,0.0,1.851806451,0.0,0.0,12.0,0.0,0.0,-0.0,0.0,0.0,2.66113254,0.0,0.0,-1.0,0.0,0.0,0.0,0.0,0.0,3.980712483,0.0,0.0,11.0,0.0,0.0,-0.0,0.0,0.0,2.5634763,0.0,0.0,70.05999755859375,2.2300000190734863,-13.449999809265137,0.041015625,0.95782470703125,0.33984375,34.189998626708984,0.0,-1.0,-0.072540283203125,0.0159759521484375,Waiting,0.0,0.0,0.0,0.0,0.0,0.0,0.0,0.0,
5.512983000000007,0.0,0.0,false,4219120.142277083,,1.0,0.0,0.0,0.0,0.0,0.0,1.8457029360000001,0.0,0.0012207030000004337,12.0,0.0,0.0,-0.0,0.0,0.0,2.66113254,0.0,0.0,-1.0,0.0,0.0,0.0,0.0,0.0,3.97949178,0.0,0.0,11.0,0.0,0.0,-0.0,0.0,0.0,2.564697003,0.0,-0.0012207029999999897,70.05000305175781,2.240000009536743,-13.460000038146973,0.03167724609375,0.95770263671875,0.3482666015625,34.189998626708984,0.0,-5.0,-0.072540283203125,0.0159759521484375,Waiting,0.0,0.0,0.0,0.0,0.0,0.0,0.0,0.0,
5.557376999999862,0.0,0.0,false,4219193.4890066385,,1.0,0.0,0.0,0.0,0.0,0.0,1.8469236390000001,0.0,-0.0012207030000004337,12.0,0.0,0.0,-0.0,0.0,0.0,2.66113254,0.0,0.0,-1.0,0.0,0.0,0.0,0.0,0.0,3.97949178,0.0,0.0,11.0,0.0,0.0,-0.0,0.0,0.0,2.565917706,0.0,0.0012207029999999897,70.01000213623047,2.2300000190734863,-13.470000267028809,0.03668212890625,0.960693359375,0.34893798828125,34.189998626708984,0.0,-1.0,-0.072540283203125,0.0159759521484375,Waiting,0.0,0.0,0.0,0.0,0.0,0.0,0.0,0.0,
5.608126000000164,0.0,0.0,false,4219265.165130537,,1.0,0.0,0.0,0.0,0.0,0.125,1.8457029360000001,0.0,0.0012207030000004337,12.0,0.0,0.0,-0.0,0.0,0.0,2.662353243,0.0,0.0,-1.0,0.0,0.0,0.0,0.0,0.0,3.980712483,0.0,0.0,11.0,0.0,0.0,-0.0,0.0,0.0,2.564697003,0.0,0.0,69.93000030517578,2.2300000190734863,-13.5,0.041259765625,0.94586181640625,0.3411865234375,34.189998626708984,0.0,0.0,-0.072540283203125,0.0159759521484375,Waiting,0.0,0.0,0.0,0.0,0.0,0.0,0.0,0.0,
5.651018000000157,0.0,0.0,false,4219335.170750523,,1.0,0.0,0.0,0.0,0.0,0.125,1.8444822330000001,0.0,-0.0012207030000004337,12.0,0.0,0.0,-0.0,0.0,0.0,2.662353243,0.0,0.0,-1.0,0.0,0.0,0.0,0.0,0.0,3.980712483,0.0,0.0,11.0,0.0,0.0,-0.0,0.0,0.0,2.564697003,0.0,-0.0012207029999999897,70.0,2.2200000286102295,-13.479999542236328,0.04034423828125,0.95257568359375,0.32354736328125,34.189998626708984,0.0,-8.0,-0.072540283203125,0.0159759521484375,Waiting,0.0,0.0,0.0,0.0,0.0,0.0,0.0,0.0,
5.695856999999844,0.0,0.0,false,4219403.505968331,,1.0,0.0,0.0,0.0,0.0,0.0,1.8457029360000001,0.0,0.0012207030000004337,12.0,0.0,0.0,-0.0,0.0,0.0,2.66113254,0.0,0.0,-1.0,0.0,0.0,0.0,0.0,0.0,3.97949178,0.0,0.0,11.0,0.0,0.0,-0.0,0.0,0.0,2.564697003,0.0,0.0012207029999999897,70.18000030517578,2.2200000286102295,-13.380000114440918,0.05072021484375,0.9727783203125,0.359619140625,34.15999984741211,0.0,14.0,-0.072540283203125,0.0159759521484375,Waiting,0.0,0.0,0.0,0.0,0.0,0.0,0.0,0.0,
5.748728999999818,0.0,0.0,false,4219470.1708856905,,1.0,0.0,0.0,0.0,0.0,0.0,1.8457029360000001,0.0,-0.0012207030000004337,12.0,0.0,0.0,-0.0,0.0,0.0,2.66113254,0.0,0.0,-1.0,0.0,0.0,0.0,0.0,0.0,3.9929195130000004,0.0,-0.0012207029999995456,11.0,0.0,0.0,-0.0,0.0,0.0,2.564697003,0.0,-0.0012207029999999897,70.19000244140625,2.259999990463257,-13.380000114440918,0.04266357421875,0.9583740234375,0.37994384765625,34.15999984741211,0.0,19.0,-0.072540283203125,0.015960693359375,Waiting,0.0,0.0,0.0,0.0,0.0,0.0,0.0,0.0,
5.793623999999836,0.0,0.0,false,4219534.585684706,,1.0,0.0,0.0,0.0,0.0,0.0,1.8457029360000001,0.0,-0.0012207030000004337,12.0,0.0,0.0,-0.0,0.0,0.0,2.66113254,0.0,0.0,-1.0,0.0,0.0,0.0,0.0,0.0,3.980712483,0.0,0.0012207029999995456,11.0,0.0,0.0,-0.0,0.0,0.0,2.565917706,0.0,0.0,70.0199966430664,2.259999990463257,-13.479999542236328,0.0406494140625,0.94036865234375,0.34088134765625,34.15999984741211,0.0,1.0,-0.0723876953125,0.01580810546875,Waiting,0.0,0.0,0.0,0.0,0.0,0.0,0.0,0.0,
5.838890000000131,0.0,0.0,false,4219598.164139415,,1.0,0.0,0.0,0.0,0.0,0.125,1.853027154,0.0,0.0012207030000004337,12.0,0.0,0.0,-0.0,0.0,0.0,2.662353243,0.0,0.0,-1.0,0.0,0.0,0.0,0.0,0.0,3.980712483,0.0,0.0,11.0,0.0,0.0,-0.0,0.0,0.0,2.564697003,0.0,0.0012207029999999897,69.91999816894531,2.2300000190734863,-13.529999732971191,0.038818359375,0.96392822265625,0.33203125,34.15999984741211,0.0,-9.0,-0.0723876953125,0.01580810546875,Waiting,0.0,0.0,0.0,0.0,0.0,0.0,0.0,0.0,
5.8878629999998955,0.0,0.0,false,4219660.072588502,,1.0,0.0,0.0,0.0,0.0,0.0,1.8457029360000001,0.0,-0.0012207030000004337,12.0,0.0,0.0,-0.0,0.0,0.0,2.662353243,0.0,0.0,-1.0,0.0,0.0,0.0,0.0,0.0,3.963622641,0.0,0.0,11.0,0.0,0.0,-0.0,0.0,0.0,2.564697003,0.0,-0.0012207029999999897,70.0199966430664,2.2300000190734863,-13.470000267028809,0.0281982421875,0.9427490234375,0.34698486328125,34.15999984741211,0.0,-6.0,-0.072509765625,0.0159912109375,Waiting,0.0,0.0,0.0,0.0,0.0,0.0,0.0,0.0,
5.9323909999998286,0.0,0.0,false,4219720.311133665,,1.0,0.0,0.0,0.0,0.0,0.0,1.8432615300000001,0.0,0.0,12.0,0.0,0.0,-0.0,0.0,0.0,2.66113254,0.0,0.0,-1.0,0.0,0.0,0.0,0.0,0.0,3.97949178,0.0,0.0,11.0,0.0,0.0,-0.0,0.0,0.0,2.565917706,0.0,-0.0012207029999999897,70.13999938964844,2.240000009536743,-13.399999618530273,0.0386962890625,0.9598388671875,0.357421875,34.15999984741211,0.0,5.0,-0.072509765625,0.0159912109375,Waiting,0.0,0.0,0.0,0.0,0.0,0.0,0.0,0.0,
5.979330000000075,0.0,0.0,false,4219779.713554987,,1.0,0.0,0.0,0.0,0.0,0.0,1.8457029360000001,0.0,0.0012207030000004337,12.0,0.0,0.0,-0.0,0.0,0.0,2.662353243,0.0,0.0,-1.0,0.0,0.0,0.0,0.0,0.0,3.97949178,0.0,0.0,11.0,0.0,0.0,-0.0,0.0,0.0,2.564697003,0.0,0.0012207029999999897,70.11000061035156,2.2300000190734863,-13.40999984741211,0.0382080078125,0.9595947265625,0.36187744140625,34.15999984741211,0.0,6.0,-0.072509765625,0.0159912109375,Waiting,0.0,0.0,0.0,0.0,0.0,0.0,0.0,0.0,
6.038240999999922,0.0,0.0,false,4219837.446241906,,1.0,0.0,0.0,0.0,0.0,0.125,1.8457029360000001,0.0,0.0012207030000004337,12.0,0.0,0.0,-0.0,0.0,0.0,2.662353243,0.0,0.0,-1.0,0.0,0.0,0.0,0.0,0.0,3.980712483,0.0,0.0,11.0,0.0,0.0,-0.0,0.0,0.0,2.564697003,0.0,0.0,69.98999786376953,2.2300000190734863,-13.479999542236328,0.04205322265625,0.94915771484375,0.33489990234375,34.15999984741211,0.0,-1.0,-0.072509765625,0.0159912109375,Waiting,0.0,0.0,0.0,0.0,0.0,0.0,0.0,0.0,
6.0862369999997314,0.0,0.0,false,4219893.509296095,,1.0,0.0,0.0,0.0,0.0,0.0,1.8457029360000001,0.0,-0.0012207030000004337,12.0,0.0,0.0,-0.0,0.0,0.0,2.662353243,0.0,0.0,-1.0,0.0,0.0,0.0,0.0,0.0,3.97949178,0.0,0.0,11.0,0.0,0.0,-0.0,0.0,0.0,2.565917706,0.0,0.0,69.97000122070312,2.2300000190734863,-13.5,0.04443359375,0.94427490234375,0.3323974609375,34.15999984741211,0.0,0.0,-0.072509765625,0.0159912109375,Waiting,0.0,0.0,0.0,0.0,0.0,0.0,0.0,0.0,
6.13380700000003,0.0,0.0,false,4219948.736446853,,1.0,0.0,0.0,0.0,0.0,0.125,1.8457029360000001,0.0,0.0012207030000004337,12.0,0.0,0.0,-0.0,0.0,0.0,2.66113254,0.0,0.0,-1.0,0.0,0.0,0.0,0.0,0.0,3.980712483,0.0,0.0,11.0,0.0,0.0,-0.0,0.0,0.0,2.569579815,0.0,0.0,70.04000091552734,2.240000009536743,-13.470000267028809,0.042724609375,0.95892333984375,0.3458251953125,34.15999984741211,0.0,2.0,-0.072509765625,0.0161285400390625,Waiting,0.0,0.0,0.0,0.0,0.0,0.0,0.0,0.0,
6.176919999999925,0.0,0.0,false,4220002.294134362,,1.0,0.0,0.0,0.0,0.0,0.125,1.8457029360000001,0.0,0.0,12.0,0.0,0.0,-0.0,0.0,0.0,2.66113254,0.0,0.0,-1.0,0.0,0.0,0.0,0.0,0.0,3.980712483,0.0,0.0,11.0,0.0,0.0,-0.0,0.0,0.0,2.5634763,0.0,-0.0012207029999999897,70.11000061035156,2.259999990463257,-13.430000305175781,0.04150390625,0.95703125,0.34521484375,34.15999984741211,0.0,1.0,-0.072509765625,0.0161285400390625,Waiting,0.0,0.0,0.0,0.0,0.0,0.0,0.0,0.0,
6.215285999999847,0.0,0.0,false,4220054.182460271,,1.0,0.0,0.0,0.0,0.0,0.125,1.8432615300000001,0.0,0.0,12.0,0.0,0.0,-0.0,0.0,0.0,2.662353243,0.0,0.0,-1.0,0.0,0.0,0.0,0.0,0.0,3.97949178,0.0,0.0,11.0,0.0,0.0,-0.0,0.0,0.0,2.564697003,0.0,0.0012207029999999897,70.11000061035156,2.240000009536743,-13.430000305175781,0.039306640625,0.96246337890625,0.3505859375,34.16999816894531,0.0,1.0,-0.072509765625,0.0161285400390625,Waiting,0.0,0.0,0.0,0.0,0.0,0.0,0.0,0.0,
6.268121999999974,0.0,0.0,false,4220105.2351031015,,1.0,0.0,0.0,0.0,0.0,0.125,1.8457029360000001,0.0,-0.0012207030000004337,12.0,0.0,0.0,-0.0,0.0,0.0,2.66113254,0.0,0.0,-1.0,0.0,0.0,0.0,0.0,0.0,3.97949178,0.0,0.0,11.0,0.0,0.0,-0.0,0.0,0.0,2.564697003,0.0,0.0,70.04000091552734,2.2300000190734863,-13.449999809265137,0.0386962890625,0.95611572265625,0.351806640625,34.16999816894531,0.0,2.0,-0.072509765625,0.0161285400390625,Waiting,0.0,0.0,0.0,0.0,0.0,0.0,0.0,0.0,
6.310422999999951,0.0,0.0,false,4220154.618553772,,1.0,0.0,0.0,0.0,0.0,0.0,1.8444822330000001,0.0,0.0,12.0,0.0,0.0,-0.0,0.0,0.0,2.662353243,0.0,0.0,-1.0,0.0,0.0,0.0,0.0,0.0,3.980712483,0.0,0.0,11.0,0.0,0.0,-0.0,0.0,0.0,2.564697003,0.0,-0.0012207029999999897,70.0,2.2200000286102295,-13.479999542236328,0.03753662109375,0.94818115234375,0.33551025390625,34.16999816894531,0.0,-4.0,-0.072509765625,0.0161285400390625,Waiting,0.0,0.0,0.0,0.0,0.0,0.0,0.0,0.0,
6.354018999999854,0.0,0.0,false,4220202.33291391,,1.0,0.0,0.0,0.0,0.0,0.0,1.8469236390000001,0.0,0.0,12.0,0.0,0.0,-0.0,0.0,0.0,2.66113254,0.0,0.0,-1.0,0.0,0.0,0.0,0.0,0.0,3.97949178,0.0,0.0,11.0,0.0,0.0,-0.0,0.0,0.0,2.552489973,0.0,0.0,70.04000091552734,2.2300000190734863,-13.460000038146973,0.04144287109375,0.95355224609375,0.340087890625,34.16999816894531,0.0,0.0,-0.072509765625,0.0161285400390625,Waiting,0.0,0.0,0.0,0.0,0.0,0.0,0.0,0.0,
6.3987859999998475,0.0,0.0,false,4220247.798518519,,1.0,0.0,0.0,0.0,0.0,0.0,1.8457029360000001,0.0,0.0,12.0,0.0,0.0,-0.0,0.0,0.0,2.66113254,0.0,0.0,-1.0,0.0,0.0,0.0,0.0,0.0,3.981933186,0.0,0.0,11.0,0.0,0.0,-0.0,0.0,0.0,2.564697003,0.0,0.0012207029999999897,70.08999633789062,2.2300000190734863,-13.430000305175781,0.04571533203125,0.958251953125,0.3551025390625,34.16999816894531,0.0,9.0,-0.072509765625,0.0161285400390625,Waiting,0.0,0.0,0.0,0.0,0.0,0.0,0.0,0.0,
6.442356000000145,0.0,0.0,false,4220292.428768569,,1.0,0.0,0.0,0.0,0.0,0.125,1.8457029360000001,0.0,0.0012207030000004337,12.0,0.0,0.0,-0.0,0.0,0.0,2.662353243,0.0,0.0,-1.0,0.0,0.0,0.0,0.0,0.0,3.980712483,0.0,0.0,11.0,0.0,0.0,-0.0,0.0,0.0,2.565917706,0.0,0.0,70.05999755859375,2.25,-13.460000038146973,0.0467529296875,0.954833984375,0.34637451171875,34.16999816894531,0.0,7.0,-0.072509765625,0.0161285400390625,Waiting,0.0,0.0,0.0,0.0,0.0,0.0,0.0,0.0,
6.488311999999918,0.0,0.0,false,4220335.390222619,,1.0,0.0,0.0,0.0,0.0,0.125,1.853027154,0.0,0.0,12.0,0.0,0.0,-0.0,0.0,0.0,2.662353243,0.0,0.0,-1.0,0.0,0.0,0.0,0.0,0.0,3.97949178,0.0,0.0,11.0,0.0,0.0,-0.0,0.0,0.0,2.564697003,0.0,0.0,70.0199966430664,2.25,-13.479999542236328,0.03692626953125,0.95745849609375,0.343017578125,34.16999816894531,0.0,-3.0,-0.072509765625,0.0161285400390625,Waiting,0.0,0.0,0.0,0.0,0.0,0.0,0.0,0.0,
