Time,ClimberA1,ClimberA2,FRpos,FRCurrent,FRspeed,FRsetpoint,FRApos,FRACurrent,FREncpos,FREncSetpoint,FREncSpeed,FLpos,FLCurrent,FLspeed,FLsetpoint,FLApos,FLACurrent,FLEncpos,FLEncSetpoint,FLEncSpeed,BRpos,BRCurrent,BRspeed,BRsetpoint,BRApos,BRACurrent,BREncpos,BREncSetpoint,BREncSpeed,BLpos,BLCurrent,BLspeed,BLsetpoint,BLApos,BLACurrent,BLEncpos,BLEncSetpoint,BLEncSpeed,navx_Pitch,navx_Roll,navx_Yaw,navx_XAcc,navx_YAcc,navx_ZAcc,navx_Temp,navx_Bar,navx_Alt,navx_XDis,navx_YDis,GearPlacerState,ShootOutputV,ShootOutputCurrent,ShootEncPos,ShootEncVelocity,ShootSpeed,ShootSetpoint,CarouselSetpoint,CarouselCurrent,
0.22622100000001955,0.0,0.0,0.0,0.0,0.0,0.0,0.0,0.0,0.043945308,0.01,0.0,4.0,0.0,0.0,0.0,0.0,0.0,0.6079100940000001,0.01,0.0,-35.0,0.0,0.0,0.0,0.0,0.0,4.324950729,0.01,0.0,-22.0,0.0,0.0,0.0,0.0,0.0,3.399657855,0.01,0.0,1.2400000095367432,0.30000001192092896,163.75,0.00531005859375,0.02203369140625,1.0057373046875,32.5,0.0,0.0,0.04840087890625,0.0543365478515625,Waiting,0.0,0.0,0.0,0.0,0.0,0.0,0.0,0.0,
0.2951019999999553,0.0,0.0,0.0,0.0,0.0,0.0,0.0,0.0,0.043945308,0.0,0.0,4.0,0.0,0.0,-0.0,0.0,0.0,0.6066893910000001,0.0,0.0,-35.0,0.0,0.0,0.0,0.0,0.0,4.326171432000001,0.0,0.0,-22.0,0.0,0.0,-0.0,0.0,0.0,3.398437152,0.0,0.0,1.2400000095367432,0.30000001192092896,163.75,0.00445556640625,0.0230712890625,0.995361328125,32.5,0.0,1.0,0.04840087890625,0.0543365478515625,Closing,0.0,0.0,0.0,0.0,0.0,0.0,0.0,0.0,
0.3238159999999916,0.0,0.0,0.0,0.0,0.0,0.0,0.0,0.0,0.043945308,0.0,1.1667246050000006,4.0,0.0,0.0,-0.0,0.0,0.0,0.601806579,0.0,-1.2443106090000002,-35.0,0.0,0.0,0.0,0.0,1.625,4.350585492,0.0,4.398950729,-22.0,0.0,0.0,-0.0,0.0,1.5,3.398437152,0.0,0.528437152,1.2400000095367432,0.30000001192092896,163.75999450683594,0.0052490234375,0.01953125,1.00439453125,32.5,0.0,0.0,0.04840087890625,0.0543365478515625,Closing,0.0,0.0,0.0,0.0,0.0,0.0,0.0,0.0,
0.3513260000000009,0.0,0.0,0.0,0.0,0.0,0.0,0.0,6.375,4.927978011,0.0,1.1667246050000006,4.0,0.0,0.0,-0.0,0.0,5.25,0.6848143830000001,0.0,-1.2443106090000002,-35.0,0.0,0.0,0.0,0.0,2.0,4.451903841,0.0,4.398950729,-22.0,0.0,0.0,-0.0,0.0,1.875,3.341064111,0.0,0.528437152,1.2400000095367432,0.3100000023841858,163.75,0.001953125,0.040283203125,1.00244140625,32.5,0.0,3.0,0.04840087890625,0.0543365478515625,Closing,0.0,0.0,0.0,0.0,0.0,0.0,0.0,0.0,
0.37882600000000094,0.0,0.0,0.0,0.0,0.0,0.0,0.0,7.25,4.720458501,0.0,-0.006103514999999948,4.0,0.0,0.0,-0.0,0.0,6.375,0.900878814,0.0,0.006103515000000392,-35.0,0.0,0.0,0.0,0.0,2.25,4.575194844,0.0,0.06835936800000031,-22.0,0.0,0.0,-0.0,0.0,1.875,3.236083653,0.0,0.0,1.2300000190734863,0.3100000023841858,163.75,0.0460205078125,0.0206298828125,0.95477294921875,32.5,0.0,-39.0,0.0483856201171875,0.0543365478515625,Closing,0.0,0.0,0.0,0.0,0.0,0.0,0.0,0.0,
0.4053179999999702,0.0,0.0,0.0,0.0,0.0,0.0,0.0,3.5,4.534911645,0.0,-0.006103514999999948,4.0,0.0,0.0,-0.0,0.0,4.75,1.0827635610000002,0.0,0.006103515000000392,-35.0,0.0,0.0,0.0,0.0,0.625,4.671630381,0.0,0.06835936800000031,-21.0,0.0,0.0,-0.0,0.0,0.75,3.138427413,0.0,-0.1696777169999999,1.2300000190734863,0.28999999165534973,163.6999969482422,-0.0281982421875,-0.0640869140625,1.07330322265625,32.5,0.0,7.0,0.0483856201171875,0.0544891357421875,Closing,0.0,0.0,0.0,0.0,0.0,0.0,0.0,0.0,
0.42993999999994414,0.0,0.0,0.0,0.0,0.0,0.0,0.0,1.75,4.366454631,0.0,-0.35462547199999994,4.0,0.0,0.0,-0.0,0.0,2.5,1.256103387,0.0,0.35034176100000014,-35.0,0.0,0.0,0.0,0.0,0.125,4.7607417000000005,0.0,0.20629880699999958,-21.0,0.0,0.0,-0.0,0.0,0.375,3.0651852330000002,0.0,-0.1696777169999999,1.190000057220459,0.30000001192092896,163.61000061035156,0.03033447265625,-0.02325439453125,0.9766845703125,32.5,0.0,-36.0,0.0483245849609375,0.0548858642578125,Closing,0.0,0.0,0.0,0.0,0.0,0.0,0.0,0.0,
0.45944499999994876,0.0,0.0,0.0,0.0,0.0,0.0,0.0,1.25,4.167480042,0.0,-0.35462547199999994,4.0,0.0,0.0,-0.0,0.0,2.125,1.5063475020000001,0.0,0.3930663660000002,-35.0,0.0,0.0,0.0,0.0,0.125,4.819335444,0.0,0.17456052899999985,-21.0,0.0,15.0,-0.0,0.0,0.375,2.987060241,0.0,-0.17822263799999982,1.2100000381469727,0.3199999928474426,163.52000427246094,0.022216796875,0.0081787109375,1.03741455078125,32.5,0.0,-19.0,0.048095703125,0.0553131103515625,Closing,0.0,0.0,0.0,0.0,0.0,0.0,0.0,0.0,
0.48972299999999813,0.0,0.0,0.0,0.0,0.0,0.0,0.0,0.875,4.018554276000001,0.0,-0.37841793000000035,4.0,0.0,0.0,-0.0,0.0,2.0,1.6564939710000002,0.0,0.3930663660000002,-35.0,0.0,0.0,0.0,0.0,0.125,4.835204583,0.0,0.17456052899999985,-21.0,0.0,22.5,-0.0,0.0,0.0,2.973632508,0.0,-0.17822263799999982,1.2300000190734863,0.3199999928474426,163.4600067138672,0.0322265625,0.04986572265625,1.00982666015625,32.5,0.0,-17.0,0.0479583740234375,0.0556640625,Closing,0.0,0.0,0.0,0.0,0.0,0.0,0.0,0.0,
0.5109429999999702,0.0,0.0,0.0,0.0,0.0,0.0,0.0,0.625,3.9453120960000003,0.0,-0.37841793000000035,4.0,0.0,0.0,-0.0,0.0,1.25,1.7626951320000002,0.0,0.3466796519999997,-35.0,0.0,0.0,0.0,0.0,0.0,4.838866692,0.0,0.0646972589999999,-21.0,0.0,22.5,-0.0,0.0,0.0,2.9602047750000002,0.0,-0.0817871010000002,1.25,0.33000001311302185,163.4199981689453,-0.0064697265625,0.0096435546875,0.99267578125,32.5,0.0,8.0,0.047882080078125,0.0558013916015625,Closing,0.0,0.0,0.0,0.0,0.0,0.0,0.0,0.0,
0.5375209999999497,0.0,0.0,0.0,0.0,0.0,0.0,0.0,0.25,3.8854976490000004,0.0,-0.2905273140000002,1.0,0.0,-15.0,-0.0,0.0,0.125,1.829833797,0.0,0.3466796519999997,-35.0,0.0,0.0,0.0,0.0,0.0,4.846190910000001,0.0,0.0646972589999999,-17.0,0.0,22.5,-0.0,0.0,0.0,2.9602047750000002,0.0,-0.0817871010000002,1.2300000190734863,0.33000001311302185,163.4199981689453,0.0074462890625,0.024658203125,0.92938232421875,32.5,0.0,0.0,0.0478363037109375,0.0558013916015625,Closing,0.0,0.0,0.0,0.0,0.0,0.0,0.0,0.0,
0.5599789999999338,0.0,0.0,0.0,0.0,0.0,0.0,0.0,0.125,3.873290619,0.0,-0.2905273140000002,1.0,0.0,-22.5,-0.0,0.0,0.25,1.849365045,0.0,0.13061522100000023,-35.0,0.0,0.0,0.0,0.0,0.0,4.842528801,0.0,0.0024414059999999793,-17.0,0.0,22.5,-0.0,0.0,0.0,2.9589840720000002,0.0,-0.009765623999999917,1.2300000190734863,0.3100000023841858,163.4499969482422,0.006103515625,-0.00537109375,1.01934814453125,32.5,0.0,-8.0,0.0478363037109375,0.055816650390625,Closing,0.0,0.0,0.0,0.0,0.0,0.0,0.0,0.0,
0.5860229999999282,0.0,0.0,0.0,0.0,0.0,0.0,0.0,0.0,3.870849213,0.0,-0.09765624000000006,1.0,0.0,-22.5,-0.0,0.0,0.0,1.848144342,0.0,0.13061522100000023,-35.0,0.0,0.0,0.0,0.0,0.0,4.843749504,0.0,0.0024414059999999793,-17.0,0.0,15.0,-0.0,0.0,0.0,2.9589840720000002,0.0,-0.009765623999999917,1.2100000381469727,0.3199999928474426,163.47000122070312,-2.44140625E-4,-0.00274658203125,0.9864501953125,32.5,0.0,-1.0,0.0478363037109375,0.0558624267578125,Closing,0.0,0.0,0.0,0.0,0.0,0.0,0.0,0.0,
0.6073319999999367,0.0,0.0,0.0,0.0,0.0,0.0,0.0,0.0,3.875732025,0.0,-0.09765624000000006,1.0,0.0,-15.0,-0.0,0.0,0.0,1.8432615300000001,0.0,0.13061522100000023,-35.0,0.0,0.0,0.0,0.0,0.0,4.844970207,0.0,0.0,-17.0,0.0,7.5,-0.0,0.0,0.0,2.9602047750000002,0.0,0.0,1.2000000476837158,0.3199999928474426,163.49000549316406,0.0087890625,0.027587890625,0.98480224609375,32.4900016784668,0.0,-1.0,0.0478363037109375,0.0559234619140625,Closing,0.0,0.0,0.0,0.0,0.0,0.0,0.0,0.0,
0.6330719999999274,0.0,0.0,0.0,0.0,0.0,0.0,0.0,0.0,3.876952728,0.0,-0.003662108999999969,1.0,0.0,-15.0,-0.0,0.0,0.0,1.8395994210000002,0.0,0.014648435999999876,-35.0,0.0,0.0,0.0,0.0,0.0,4.842528801,0.0,0.0,-17.0,0.0,0.0,-0.0,0.0,0.0,2.9589840720000002,0.0,0.0,1.2300000190734863,0.3199999928474426,163.47999572753906,0.00323486328125,0.04364013671875,1.03485107421875,32.4900016784668,0.0,8.0,0.0478363037109375,0.0559234619140625,Closing,0.0,0.0,0.0,0.0,0.0,0.0,0.0,0.0,
0.6555019999999786,0.0,0.0,0.0,0.0,0.0,0.0,0.0,0.0,3.875732025,0.0,-0.003662108999999969,0.0,0.0,-7.5,-0.0,0.0,0.0,1.834716609,0.0,-0.01342773300000033,-35.0,0.0,0.0,0.0,0.0,0.0,4.844970207,0.0,0.0024414059999999793,-17.0,0.0,0.0,-0.0,0.0,0.0,2.9589840720000002,0.0,0.0,1.2300000190734863,0.3199999928474426,163.47000122070312,0.01336669921875,0.03680419921875,1.02130126953125,32.4900016784668,0.0,-3.0,0.0478363037109375,0.0559234619140625,Closing,0.0,0.0,0.0,0.0,0.0,0.0,0.0,0.0,
0.6842809999999591,0.0,0.0,0.0,0.0,0.0,0.0,0.0,0.0,3.8940425700000003,0.0,0.0,0.0,0.0,0.0,-0.0,0.0,0.0,1.829833797,0.0,-0.01342773300000033,-35.0,0.0,0.0,0.0,0.0,0.0,4.846190910000001,0.0,0.0024414059999999793,-17.0,0.0,0.0,-0.0,0.0,0.0,2.963866884,0.0,0.0,1.2300000190734863,0.33000001311302185,163.4600067138672,0.01123046875,0.0185546875,0.99224853515625,32.4900016784668,0.0,-6.0,0.0478363037109375,0.0559234619140625,Closing,0.0,0.0,0.0,0.0,0.0,0.0,0.0,0.0,
0.7046479999999283,0.0,0.0,0.0,0.0,0.0,0.0,0.0,0.0,3.875732025,0.0,0.0,0.0,0.0,0.0,-0.0,0.0,0.0,1.829833797,0.0,-0.01342773300000033,-35.0,0.0,0.0,0.0,0.0,0.0,4.843749504,0.0,0.0024414059999999793,-17.0,0.0,0.0,-0.0,0.0,0.0,2.9577633690000003,0.0,0.0,1.2400000095367432,0.3199999928474426,163.4600067138672,0.001953125,0.00732421875,1.03448486328125,32.4900016784668,0.0,0.0,0.0478363037109375,0.0559234619140625,Closing,0.0,0.0,0.0,0.0,0.0,0.0,0.0,0.0,
0.7293519999999553,0.0,0.0,0.0,0.0,0.0,0.0,0.0,0.0,3.875732025,0.0,-0.0012207029999999897,0.0,0.0,0.0,-0.0,0.0,0.0,1.829833797,0.0,-0.006103514999999504,-35.0,0.0,0.0,0.0,0.0,0.0,4.844970207,0.0,0.0,-17.0,0.0,0.0,-0.0,0.0,0.0,2.9602047750000002,0.0,0.0,1.2100000381469727,0.33000001311302185,163.47000122070312,0.00299072265625,3.0517578125E-4,0.9617919921875,32.4900016784668,0.0,-3.0,0.0478363037109375,0.055938720703125,Closing,0.0,0.0,0.0,0.0,0.0,0.0,0.0,0.0,
0.7514000000000233,0.0,0.0,0.0,0.0,0.0,0.0,0.0,0.0,3.875732025,0.0,-0.0012207029999999897,0.0,0.0,0.0,-0.0,0.0,0.0,1.829833797,0.0,-0.006103514999999504,-35.0,0.0,0.0,0.0,0.0,0.0,4.840087395,0.0,0.0,-17.0,0.0,0.0,-0.0,0.0,0.0,2.9589840720000002,0.0,0.0,1.2100000381469727,0.3100000023841858,163.47000122070312,3.0517578125E-4,0.0205078125,1.01568603515625,32.4900016784668,0.0,4.0,0.0478363037109375,0.05596923828125,Closing,0.0,0.0,0.0,0.0,0.0,0.0,0.0,0.0,
0.7827129999999888,0.0,0.0,0.0,0.0,0.0,0.0,0.0,0.0,3.876952728,0.0,0.0,0.0,0.0,0.0,-0.0,0.0,0.0,1.828613094,0.0,0.0012207029999995456,-35.0,0.0,0.0,0.0,0.0,0.0,4.844970207,0.0,0.0,-17.0,0.0,0.0,-0.0,0.0,0.0,2.9589840720000002,0.0,0.0,1.2100000381469727,0.3199999928474426,163.47000122070312,0.0059814453125,0.03326416015625,0.9962158203125,32.4900016784668,0.0,3.0,0.0478363037109375,0.0560150146484375,Closing,0.0,0.0,0.0,0.0,0.0,0.0,0.0,0.0,
0.8085979999999982,0.0,0.0,0.0,0.0,0.0,0.0,0.0,0.125,3.875732025,0.0,0.0,0.0,0.0,0.0,-0.0,0.0,0.0,1.828613094,0.0,-0.0012207029999995456,-35.0,0.0,0.0,0.0,0.0,0.0,4.844970207,0.0,0.0,-17.0,0.0,0.0,-0.0,0.0,0.0,2.9602047750000002,0.0,0.0,1.2300000190734863,0.3199999928474426,163.4600067138672,0.01318359375,0.0289306640625,0.9930419921875,32.4900016784668,0.0,-5.0,0.0478363037109375,0.0560150146484375,Closing,0.0,0.0,0.0,0.0,0.0,0.0,0.0,0.0,
0.8349719999999506,0.0,0.0,0.0,0.0,0.0,0.0,0.0,0.0,3.874511322,0.0,0.0,0.0,0.0,0.0,-0.0,0.0,0.0,1.829833797,0.0,-0.0012207029999995456,-35.0,0.0,0.0,0.0,0.0,0.0,4.843749504,0.0,0.0,-17.0,0.0,0.0,-0.0,0.0,0.0,2.9589840720000002,0.0,0.0,1.2300000190734863,0.3199999928474426,163.47000122070312,0.00933837890625,0.0250244140625,1.01220703125,32.4900016784668,0.0,-2.0,0.0478363037109375,0.0560150146484375,Closing,0.0,0.0,0.0,0.0,0.0,0.0,0.0,0.0,
0.8554440000000177,0.0,0.0,0.0,0.0,0.0,0.0,0.0,0.0,3.875732025,0.0,0.0,0.0,0.0,0.0,-0.0,0.0,0.0,1.829833797,0.0,-0.0012207029999995456,-35.0,0.0,0.0,0.0,0.0,0.0,4.844970207,0.0,-0.0012207029999995456,-17.0,0.0,0.0,-0.0,0.0,0.0,2.9602047750000002,0.0,0.0,1.2300000190734863,0.3199999928474426,163.47000122070312,0.00189208984375,0.01947021484375,1.009521484375,32.4900016784668,0.0,3.0,0.0478363037109375,0.0560150146484375,Closing,0.0,0.0,0.0,0.0,0.0,0.0,0.0,0.0,
0.8907069999999366,0.0,0.0,0.0,0.0,0.0,0.0,0.0,0.0,3.875732025,0.0,0.0,0.0,0.0,0.0,-0.0,0.0,0.0,1.829833797,0.0,0.0,-35.0,0.0,0.0,0.0,0.0,0.0,4.844970207,0.0,-0.0012207029999995456,-17.0,0.0,0.0,-0.0,0.0,0.0,2.9602047750000002,0.0,0.0,1.2200000286102295,0.3199999928474426,163.47000122070312,0.0029296875,0.0238037109375,1.02630615234375,32.4900016784668,0.0,3.0,0.0478363037109375,0.0560150146484375,Closing,0.0,0.0,0.0,0.0,0.0,0.0,0.0,0.0,
0.9150399999999208,0.0,0.0,0.0,0.0,0.0,0.0,0.0,0.0,3.874511322,0.0,0.0012207029999999897,0.0,0.0,0.0,-0.0,0.0,0.0,1.829833797,0.0,0.0,-35.0,0.0,0.0,0.0,0.0,0.0,4.843749504,0.0,0.0012207029999995456,-17.0,0.0,0.0,-0.0,0.0,0.0,2.9602047750000002,0.0,0.0,1.2200000286102295,0.3199999928474426,163.47000122070312,0.005859375,0.024169921875,0.9921875,32.4900016784668,0.0,0.0,0.0478363037109375,0.0560150146484375,Closing,0.0,0.0,0.0,0.0,0.0,0.0,0.0,0.0,
0.944591000000015,0.0,0.0,0.0,0.0,0.0,0.0,0.0,0.0,3.875732025,0.0,0.0012207029999999897,0.0,0.0,0.0,-0.0,0.0,0.0,1.829833797,0.0,0.0,-35.0,0.0,0.0,0.0,0.0,0.0,4.832763177,0.0,0.0012207029999995456,-17.0,0.0,0.0,-0.0,0.0,0.0,2.9602047750000002,0.0,0.0,1.2300000190734863,0.3199999928474426,163.47000122070312,0.0059814453125,0.0262451171875,1.00762939453125,32.4900016784668,0.0,0.0,0.0478363037109375,0.0560150146484375,Closing,0.0,0.0,0.0,0.0,0.0,0.0,0.0,0.0,
0.9694409999999917,0.0,0.0,0.0,0.0,0.0,0.0,0.0,0.0,3.874511322,0.0,-0.0012207029999999897,0.0,0.0,0.0,-0.0,0.0,0.0,1.828613094,0.0,0.0,-35.0,0.0,0.0,0.0,0.0,0.0,4.843749504,0.0,0.0,-17.0,0.0,0.0,-0.0,0.0,0.0,2.9577633690000003,0.0,0.0,1.2300000190734863,0.3199999928474426,163.47000122070312,0.0030517578125,0.02392578125,1.01739501953125,32.4900016784668,0.0,3.0,0.0478363037109375,0.0560150146484375,Closing,0.0,0.0,0.0,0.0,0.0,0.0,0.0,0.0,
0.9879930000000168,0.0,0.0,0.0,0.0,0.0,0.0,0.0,0.0,3.875732025,0.0,-0.0012207029999999897,0.0,0.0,0.0,-0.0,0.0,0.0,1.829833797,0.0,0.0,-35.0,0.0,0.0,0.0,0.0,0.0,4.848632316000001,0.0,0.0,-17.0,0.0,0.0,-0.0,0.0,0.0,2.9602047750000002,0.0,0.0,1.2300000190734863,0.3199999928474426,163.47000122070312,0.0057373046875,0.0194091796875,1.001220703125,32.4900016784668,0.0,0.0,0.0478363037109375,0.0560150146484375,Closing,0.0,0.0,0.0,0.0,0.0,0.0,0.0,0.0,
1.0064749999999767,0.0,0.0,0.0,0.0,0.0,0.0,0.0,0.0,3.876952728,0.0,-0.0012207029999999897,0.0,0.0,0.0,-0.0,0.0,0.0,1.828613094,0.0,0.0,-35.0,0.0,0.0,0.0,0.0,0.0,4.843749504,0.0,0.0,-17.0,0.0,0.0,-0.0,0.0,0.0,2.9589840720000002,0.0,0.0,1.2300000190734863,0.33000001311302185,163.47000122070312,0.008544921875,0.01580810546875,0.9783935546875,32.4900016784668,0.0,-4.0,0.0478363037109375,0.0560150146484375,Closing,0.0,0.0,0.0,0.0,0.0,0.0,0.0,0.0,
1.0282119999999413,0.0,0.0,0.0,0.0,0.0,0.0,0.0,0.0,3.875732025,0.0,0.0,0.0,0.0,0.0,-0.0,0.0,0.0,1.829833797,0.0,0.0,-35.0,0.0,0.0,0.0,0.0,0.0,4.843749504,0.0,-0.0012207029999995456,-17.0,0.0,0.0,-0.0,0.0,0.0,2.9602047750000002,0.0,0.0,1.2300000190734863,0.33000001311302185,163.47000122070312,0.0037841796875,0.016845703125,1.01116943359375,32.4900016784668,0.0,0.0,0.0478363037109375,0.0560150146484375,Closing,0.0,0.0,0.0,0.0,0.0,0.0,0.0,0.0,
1.046496999999974,0.0,0.0,0.0,0.0,0.0,0.0,0.0,0.0,3.875732025,0.0,0.0,0.0,0.0,0.0,-0.0,0.0,0.0,1.828613094,0.0,0.0,-35.0,0.0,0.0,0.0,0.0,0.0,4.843749504,0.0,-0.0012207029999995456,-17.0,0.0,0.0,-0.0,0.0,0.0,2.9602047750000002,0.0,0.0,1.2200000286102295,0.33000001311302185,163.47000122070312,0.007568359375,0.01837158203125,0.99530029296875,32.4900016784668,0.0,-2.0,0.0478363037109375,0.0560150146484375,Closing,0.0,0.0,0.0,0.0,0.0,0.0,0.0,0.0,
1.065655999999959,0.0,0.0,0.0,0.0,0.0,0.0,0.0,0.0,3.875732025,0.0,0.0,0.0,0.0,0.0,-0.0,0.0,0.0,1.828613094,0.0,0.0,-35.0,0.0,0.0,0.0,0.0,0.0,4.843749504,0.0,0.0,-17.0,0.0,0.0,-0.0,0.0,0.0,2.9589840720000002,0.0,0.0,1.2200000286102295,0.33000001311302185,163.47000122070312,0.00799560546875,0.0279541015625,1.00079345703125,32.4900016784668,0.0,0.0,0.0478363037109375,0.0560150146484375,Closing,0.0,0.0,0.0,0.0,0.0,0.0,0.0,0.0,
1.0857129999999888,0.0,0.0,0.0,0.0,0.0,0.0,0.0,0.0,3.876952728,0.0,0.0,0.0,0.0,0.0,-0.0,0.0,0.0,1.829833797,0.0,0.0,-35.0,0.0,0.0,0.0,0.0,0.0,4.843749504,0.0,0.0,-17.0,0.0,0.0,-0.0,0.0,0.0,2.9589840720000002,0.0,0.0,1.2300000190734863,0.3199999928474426,163.47000122070312,0.00457763671875,0.02685546875,1.00238037109375,32.4900016784668,0.0,2.0,0.0478363037109375,0.0560150146484375,Closing,0.0,0.0,0.0,0.0,0.0,0.0,0.0,0.0,
1.1028530000000027,0.0,0.0,0.0,0.0,0.0,0.0,0.0,0.125,3.875732025,0.0,0.0,0.0,0.0,0.0,-0.0,0.0,0.0,1.828613094,0.0,0.0,-35.0,0.0,0.0,0.0,0.0,0.0,4.841308098,0.0,0.0,-17.0,0.0,0.0,-0.0,0.0,0.0,2.9589840720000002,0.0,0.0,1.2300000190734863,0.3199999928474426,163.47000122070312,0.00579833984375,0.02276611328125,1.0068359375,32.4900016784668,0.0,0.0,0.0478363037109375,0.0560150146484375,Closing,0.0,0.0,0.0,0.0,0.0,0.0,0.0,0.0,
1.1220169999999925,0.0,0.0,0.0,0.0,0.0,0.0,0.0,0.0,3.876952728,0.0,0.0012207029999999897,0.0,0.0,0.0,-0.0,0.0,0.0,1.829833797,0.0,0.0,-35.0,0.0,0.0,0.0,0.0,0.0,4.842528801,0.0,0.0012207029999995456,-17.0,0.0,0.0,-0.0,0.0,0.0,2.9589840720000002,0.0,0.0,1.2300000190734863,0.3199999928474426,163.47000122070312,0.00506591796875,0.0169677734375,0.98992919921875,32.4900016784668,0.0,0.0,0.0478363037109375,0.0560150146484375,Closing,0.0,0.0,0.0,0.0,0.0,0.0,0.0,0.0,
1.1405810000000056,0.0,0.0,0.0,0.0,0.0,0.0,0.0,0.0,3.875732025,0.0,0.0012207029999999897,0.0,0.0,0.0,-0.0,0.0,0.0,1.829833797,0.0,0.0,-35.0,0.0,0.0,0.0,0.0,0.0,4.843749504,0.0,0.0012207029999995456,-17.0,0.0,0.0,-0.0,0.0,0.0,2.9602047750000002,0.0,0.0,1.2200000286102295,0.3199999928474426,163.47000122070312,0.0086669921875,0.01190185546875,0.99188232421875,32.4900016784668,0.0,-5.0,0.0478363037109375,0.0560150146484375,Closing,0.0,0.0,0.0,0.0,0.0,0.0,0.0,0.0,
1.1596030000000028,0.0,0.0,0.0,0.0,0.0,0.0,0.0,0.0,3.863524995,0.0,0.0012207029999999897,0.0,0.0,0.0,-0.0,0.0,0.0,1.829833797,0.0,0.0,-35.0,0.0,0.0,0.0,0.0,0.0,4.843749504,0.0,0.0012207029999995456,-17.0,0.0,0.0,-0.0,0.0,0.0,2.9602047750000002,0.0,0.0,1.2200000286102295,0.3199999928474426,163.47000122070312,0.0052490234375,0.0189208984375,1.0184326171875,32.4900016784668,0.0,0.0,0.0478363037109375,0.0560150146484375,Closing,0.0,0.0,0.0,0.0,0.0,0.0,0.0,0.0,
1.1800139999999664,0.0,0.0,0.0,0.0,0.0,0.0,0.0,0.0,3.875732025,0.0,-0.0012207029999999897,0.0,0.0,0.0,-0.0,0.0,0.0,1.829833797,0.0,0.0,-35.0,0.0,0.0,0.0,0.0,0.0,4.842528801,0.0,0.0,-17.0,0.0,0.0,-0.0,0.0,0.0,2.9589840720000002,0.0,0.0,1.2200000286102295,0.3199999928474426,163.47000122070312,0.00634765625,0.0191650390625,0.992919921875,32.4900016784668,0.0,-1.0,0.0478363037109375,0.0560150146484375,Closing,0.0,0.0,0.0,0.0,0.0,0.0,0.0,0.0,
1.199511999999988,0.0,0.0,0.0,0.0,0.0,0.0,0.0,0.0,3.875732025,0.0,-0.0012207029999999897,0.0,0.0,0.0,-0.0,0.0,0.0,1.829833797,0.0,0.0,-35.0,0.0,0.0,0.0,0.0,0.0,4.843749504,0.0,0.0,-17.0,0.0,0.0,-0.0,0.0,0.0,2.9589840720000002,0.0,0.0,1.2200000286102295,0.3199999928474426,163.47000122070312,0.00689697265625,0.0224609375,0.9990234375,32.4900016784668,0.0,0.0,0.0478363037109375,0.0560150146484375,Closing,0.0,0.0,0.0,0.0,0.0,0.0,0.0,0.0,
1.2228580000000076,0.0,0.0,0.0,0.0,0.0,0.0,0.0,0.0,3.876952728,0.0,0.0012207029999999897,0.0,0.0,0.0,-0.0,0.0,0.0,1.829833797,0.0,0.0,-35.0,0.0,0.0,0.0,0.0,0.0,4.844970207,0.0,0.0,-17.0,0.0,0.0,-0.0,0.0,0.0,2.9602047750000002,0.0,0.0,1.2300000190734863,0.3199999928474426,163.47000122070312,0.0054931640625,0.0263671875,1.01123046875,32.4900016784668,0.0,1.0,0.0478363037109375,0.0560150146484375,Closing,0.0,0.0,0.0,0.0,0.0,0.0,0.0,0.0,
1.241030999999959,0.0,0.0,0.0,0.0,0.0,0.0,0.0,0.0,3.875732025,0.0,0.0012207029999999897,0.0,0.0,0.0,-0.0,0.0,0.0,1.829833797,0.0,0.0,-35.0,0.0,0.0,0.0,0.0,0.0,4.843749504,0.0,0.0,-17.0,0.0,0.0,-0.0,0.0,0.0,2.9577633690000003,0.0,0.0,1.2300000190734863,0.3199999928474426,163.47000122070312,0.00439453125,0.0194091796875,0.99383544921875,32.4900016784668,0.0,0.0,0.0478363037109375,0.0560150146484375,Closing,0.0,0.0,0.0,0.0,0.0,0.0,0.0,0.0,
1.259837999999989,0.0,0.0,0.0,0.0,0.0,0.0,0.0,0.0,3.875732025,0.0,0.0012207029999999897,0.0,0.0,0.0,-0.0,0.0,0.0,1.829833797,0.0,0.0,-35.0,0.0,0.0,0.0,0.0,0.0,4.843749504,0.0,0.0,-17.0,0.0,0.0,-0.0,0.0,0.0,2.9589840720000002,0.0,0.0,1.2300000190734863,0.3199999928474426,163.47000122070312,0.00439453125,0.01934814453125,0.99920654296875,32.4900016784668,0.0,0.0,0.0478363037109375,0.0560150146484375,Closing,0.0,0.0,0.0,0.0,0.0,0.0,0.0,0.0,
1.281,0.0,0.0,0.0,0.0,0.0,0.0,0.0,0.0,3.875732025,0.0,0.0,0.0,0.0,0.0,-0.0,0.0,0.0,1.829833797,0.0,0.0012207029999995456,-35.0,0.0,0.0,0.0,0.0,0.0,4.844970207,0.0,0.0,-17.0,0.0,0.0,-0.0,0.0,0.0,2.9589840720000002,0.0,0.0,1.2300000190734863,0.3199999928474426,163.47000122070312,0.00604248046875,0.02081298828125,1.0126953125,32.4900016784668,0.0,0.0,0.0478363037109375,0.0560150146484375,Closing,0.0,0.0,0.0,0.0,0.0,0.0,0.0,0.0,
1.3000860000000103,0.0,0.0,0.0,0.0,0.0,0.0,0.0,0.0,3.876952728,0.0,0.0,0.0,0.0,0.0,-0.0,0.0,0.0,1.829833797,0.0,0.0012207029999995456,-35.0,0.0,0.0,0.0,0.0,0.0,4.849853019,0.0,0.0,-17.0,0.0,0.0,-0.0,0.0,0.0,2.9589840720000002,0.0,0.0,1.2200000286102295,0.3199999928474426,163.47000122070312,0.0054931640625,0.019287109375,0.99407958984375,32.4900016784668,0.0,0.0,0.0478363037109375,0.0560150146484375,Closing,0.0,0.0,0.0,0.0,0.0,0.0,0.0,0.0,
1.3224830000000074,0.0,0.0,0.0,0.0,0.0,0.0,0.0,0.0,3.875732025,0.0,0.0,0.0,0.0,0.0,-0.0,0.0,0.0,1.829833797,0.0,-0.0012207029999995456,-35.0,0.0,0.0,0.0,0.0,0.0,4.846190910000001,0.0,0.0,-17.0,0.0,0.0,-0.0,0.0,0.0,2.9602047750000002,0.0,0.0,1.2200000286102295,0.3199999928474426,163.47000122070312,0.00689697265625,0.02056884765625,0.997802734375,32.4900016784668,0.0,-1.0,0.0478363037109375,0.0560150146484375,Closing,0.0,0.0,0.0,0.0,0.0,0.0,0.0,0.0,
1.3400039999999571,0.0,0.0,0.0,0.0,0.0,0.0,0.0,0.0,3.878173431,0.0,0.0,0.0,0.0,0.0,-0.0,0.0,0.0,1.829833797,0.0,-0.0012207029999995456,-35.0,0.0,0.0,0.0,0.0,0.0,4.838866692,0.0,0.0,-17.0,0.0,0.0,-0.0,0.0,0.0,2.9589840720000002,0.0,0.0,1.2200000286102295,0.3199999928474426,163.47000122070312,0.00518798828125,0.02362060546875,1.00994873046875,32.4900016784668,0.0,1.0,0.0478363037109375,0.0560150146484375,Closing,0.0,0.0,0.0,0.0,0.0,0.0,0.0,0.0,
1.361500999999931,0.0,0.0,0.0,0.0,0.0,0.0,0.0,0.0,3.875732025,0.0,0.0,0.0,0.0,0.0,-0.0,0.0,0.0,1.828613094,0.0,0.0,-35.0,0.0,0.0,0.0,0.0,0.0,4.843749504,0.0,0.0,-17.0,0.0,0.0,-0.0,0.0,0.0,2.9589840720000002,0.0,0.0,1.2200000286102295,0.3199999928474426,163.47000122070312,0.006103515625,0.0220947265625,0.99853515625,32.4900016784668,0.0,0.0,0.0478363037109375,0.0560150146484375,Closing,0.0,0.0,0.0,0.0,0.0,0.0,0.0,0.0,
1.3807099999999628,0.0,0.0,0.0,0.0,0.0,0.0,0.0,0.0,3.875732025,0.0,0.0,0.0,0.0,0.0,-0.0,0.0,0.0,1.829833797,0.0,0.0,-35.0,0.0,0.0,0.0,0.0,0.0,4.842528801,0.0,0.0,-17.0,0.0,0.0,-0.0,0.0,0.0,2.9589840720000002,0.0,0.0,1.2200000286102295,0.3199999928474426,163.47000122070312,0.003662109375,0.02239990234375,1.00439453125,32.4900016784668,0.0,2.0,0.0478363037109375,0.0560150146484375,Closing,0.0,0.0,0.0,0.0,0.0,0.0,0.0,0.0,
1.3992920000000157,0.0,0.0,0.0,0.0,0.0,0.0,0.0,0.0,3.875732025,0.0,0.0,0.0,0.0,0.0,-0.0,0.0,0.0,1.829833797,0.0,0.0,-35.0,0.0,0.0,0.0,0.0,0.0,4.843749504,0.0,0.0,-17.0,0.0,0.0,-0.0,0.0,0.0,2.9589840720000002,0.0,0.0,1.2200000286102295,0.3199999928474426,163.47000122070312,0.0050048828125,0.02239990234375,1.00531005859375,32.4900016784668,0.0,0.0,0.0478363037109375,0.0560150146484375,Closing,0.0,0.0,0.0,0.0,0.0,0.0,0.0,0.0,
1.422234999999986,0.0,0.0,0.0,0.0,0.0,0.0,0.0,0.0,3.874511322,0.0,0.0,0.0,0.0,0.0,-0.0,0.0,0.0,1.826171688,0.0,0.0,-35.0,0.0,0.0,0.0,0.0,0.0,4.843749504,0.0,0.0,-17.0,0.0,0.0,-0.0,0.0,0.0,2.9577633690000003,0.0,0.0,1.2200000286102295,0.3199999928474426,163.47000122070312,0.00421142578125,0.0179443359375,0.99774169921875,32.4900016784668,0.0,0.0,0.0478363037109375,0.0560150146484375,Closing,0.0,0.0,0.0,0.0,0.0,0.0,0.0,0.0,
1.4403040000000038,0.0,0.0,0.0,0.0,0.0,0.0,0.0,0.0,3.875732025,0.0,0.0,0.0,0.0,0.0,-0.0,0.0,0.0,1.829833797,0.0,0.0,-35.0,0.0,0.0,0.0,0.0,0.0,4.843749504,0.0,0.0,-17.0,0.0,0.0,-0.0,0.0,0.0,2.9589840720000002,0.0,0.0,1.2100000381469727,0.3199999928474426,163.47000122070312,0.00592041015625,0.02215576171875,0.9925537109375,32.4900016784668,0.0,0.0,0.0478363037109375,0.0560150146484375,Closing,0.0,0.0,0.0,0.0,0.0,0.0,0.0,0.0,
1.459917999999947,0.0,0.0,0.0,0.0,0.0,0.0,0.0,0.0,3.8842769460000004,0.0,0.0,0.0,0.0,0.0,-0.0,0.0,0.0,1.829833797,0.0,0.0,-35.0,0.0,0.0,0.0,0.0,0.0,4.843749504,0.0,0.0,-17.0,0.0,0.0,-0.0,0.0,0.0,2.9614254780000002,0.0,0.0,1.2200000286102295,0.3100000023841858,163.47000122070312,0.00494384765625,0.02593994140625,1.00677490234375,32.4900016784668,0.0,1.0,0.0478363037109375,0.0560150146484375,Closing,0.0,0.0,0.0,0.0,0.0,0.0,0.0,0.0,
1.4801979999999748,0.0,0.0,0.0,0.0,0.0,0.0,0.0,0.0,3.875732025,0.0,0.0,0.0,0.0,0.0,-0.0,0.0,0.0,1.829833797,0.0,0.0,-35.0,0.0,0.0,0.0,0.0,0.0,4.843749504,0.0,0.0,-17.0,0.0,0.0,-0.0,0.0,0.0,2.9589840720000002,0.0,0.0,1.2200000286102295,0.3100000023841858,163.47000122070312,0.0050048828125,0.0225830078125,0.9970703125,32.4900016784668,0.0,0.0,0.0478363037109375,0.0560150146484375,Closing,0.0,0.0,0.0,0.0,0.0,0.0,0.0,0.0,
1.4993919999999925,0.0,0.0,0.0,0.0,0.0,0.0,0.0,0.0,3.854980074,0.0,0.0,0.0,0.0,0.0,-0.0,0.0,0.0,1.829833797,0.0,0.0,-35.0,0.0,0.0,0.0,0.0,0.0,4.844970207,0.0,0.0,-17.0,0.0,0.0,-0.0,0.0,0.0,2.9602047750000002,0.0,0.0,1.2200000286102295,0.3100000023841858,163.47000122070312,0.00732421875,0.024658203125,0.9970703125,32.4900016784668,0.0,0.0,0.0478363037109375,0.0560150146484375,Closing,0.0,0.0,0.0,0.0,0.0,0.0,0.0,0.0,
1.5227850000000327,0.0,0.0,0.0,0.0,0.0,0.0,0.0,0.0,3.875732025,0.0,0.0,0.0,0.0,0.0,-0.0,0.0,0.0,1.829833797,0.0,0.0,-35.0,0.0,0.0,0.0,0.0,0.0,4.843749504,0.0,0.0,-17.0,0.0,0.0,-0.0,0.0,0.0,2.9589840720000002,0.0,0.0,1.2300000190734863,0.3199999928474426,163.47000122070312,0.003662109375,0.0211181640625,1.0008544921875,32.4900016784668,0.0,1.0,0.0478363037109375,0.0560150146484375,Closing,0.0,0.0,0.0,0.0,0.0,0.0,0.0,0.0,
1.5395810000000056,0.0,0.0,0.0,0.0,0.0,0.0,0.0,0.0,3.875732025,0.0,0.0,0.0,0.0,0.0,-0.0,0.0,0.0,1.8310545,0.0,0.0,-35.0,0.0,0.0,0.0,0.0,0.0,4.844970207,0.0,0.0,-17.0,0.0,0.0,-0.0,0.0,0.0,2.9589840720000002,0.0,0.0,1.2300000190734863,0.3199999928474426,163.47000122070312,0.003662109375,0.0211181640625,1.0008544921875,32.4900016784668,0.0,1.0,0.0478363037109375,0.0560150146484375,Closing,0.0,0.0,0.0,0.0,0.0,0.0,0.0,0.0,
1.5596259999999311,0.0,0.0,0.0,0.0,0.0,0.0,0.0,0.0,3.875732025,0.0,0.0,0.0,0.0,0.0,-0.0,0.0,0.0,1.828613094,0.0,0.0,-35.0,0.0,0.0,0.0,0.0,0.0,4.843749504,0.0,0.0,-17.0,0.0,0.0,-0.0,0.0,0.0,2.9589840720000002,0.0,0.0,1.2200000286102295,0.3100000023841858,163.47000122070312,0.00628662109375,0.020751953125,0.99664306640625,32.4900016784668,0.0,0.0,0.0478363037109375,0.0560150146484375,Closing,0.0,0.0,0.0,0.0,0.0,0.0,0.0,0.0,
1.5797029999999794,0.0,0.0,0.0,0.0,0.0,0.0,0.0,0.0,3.875732025,0.0,0.0,0.0,0.0,0.0,-0.0,0.0,0.0,1.829833797,0.0,0.0,-35.0,0.0,0.0,0.0,0.0,0.0,4.843749504,0.0,0.0,-17.0,0.0,0.0,-0.0,0.0,0.0,2.9589840720000002,0.0,0.0,1.2300000190734863,0.3100000023841858,163.47000122070312,0.0052490234375,0.0220947265625,1.00537109375,32.4900016784668,0.0,0.0,0.0478363037109375,0.0560150146484375,Closing,0.0,0.0,0.0,0.0,0.0,0.0,0.0,0.0,
1.600329000000027,0.0,0.0,0.0,0.0,0.0,0.0,0.0,0.0,3.875732025,0.0,0.0,0.0,0.0,0.0,-0.0,0.0,0.0,1.829833797,0.0,0.0,-35.0,0.0,0.0,0.0,0.0,0.0,4.843749504,0.0,0.0,-17.0,0.0,0.0,-0.0,0.0,0.0,2.9589840720000002,0.0,0.0,1.2300000190734863,0.3199999928474426,163.47000122070312,0.0067138671875,0.01995849609375,0.995361328125,32.4900016784668,0.0,-1.0,0.0478363037109375,0.0560150146484375,Closing,0.0,0.0,0.0,0.0,0.0,0.0,0.0,0.0,
1.622564000000013,0.0,0.0,0.0,0.0,0.0,0.0,0.0,0.0,3.878173431,0.0,0.0,0.0,0.0,0.0,-0.0,0.0,0.0,1.827392391,0.0,0.0,-35.0,0.0,0.0,0.0,0.0,0.0,4.842528801,0.0,0.0,-17.0,0.0,0.0,-0.0,0.0,0.0,2.9602047750000002,0.0,0.0,1.2300000190734863,0.3100000023841858,163.47000122070312,0.00396728515625,0.024658203125,1.00341796875,32.47999954223633,0.0,2.0,0.0478363037109375,0.0560150146484375,Closing,0.0,0.0,0.0,0.0,0.0,0.0,0.0,0.0,
1.640189000000013,0.0,0.0,0.0,0.0,0.0,0.0,0.0,0.0,3.875732025,0.0,0.0,0.0,0.0,0.0,-0.0,0.0,0.0,1.829833797,0.0,0.0,-35.0,0.0,0.0,0.0,0.0,0.0,4.844970207,0.0,0.0,-17.0,0.0,0.0,-0.0,0.0,0.0,2.9589840720000002,0.0,0.0,1.2300000190734863,0.3199999928474426,163.47000122070312,0.00750732421875,0.02093505859375,0.98468017578125,32.47999954223633,0.0,-1.0,0.0478363037109375,0.0560150146484375,Closing,0.0,0.0,0.0,0.0,0.0,0.0,0.0,0.0,
1.6595899999999675,0.0,0.0,0.0,0.0,0.0,0.0,0.0,0.0,3.876952728,0.0,0.0,0.0,0.0,0.0,-0.0,0.0,0.0,1.827392391,0.0,0.0,-35.0,0.0,0.0,0.0,0.0,0.0,4.838866692,0.0,0.0,-17.0,0.0,0.0,-0.0,0.0,0.0,2.9589840720000002,0.0,0.0,1.2400000095367432,0.3100000023841858,163.47000122070312,0.005859375,0.02093505859375,1.0064697265625,32.47999954223633,0.0,0.0,0.0478363037109375,0.0560150146484375,Closing,0.0,0.0,0.0,0.0,0.0,0.0,0.0,0.0,
1.6793730000000213,0.0,0.0,0.0,0.0,0.0,0.0,0.0,0.0,3.875732025,0.0,-0.0012207029999999897,0.0,0.0,0.0,-0.0,0.0,0.0,1.829833797,0.0,0.0,-35.0,0.0,0.0,0.0,0.0,0.0,4.848632316000001,0.0,0.0,-17.0,0.0,0.0,-0.0,0.0,0.0,2.9589840720000002,0.0,0.0,1.2400000095367432,0.3100000023841858,163.47000122070312,0.00335693359375,0.0201416015625,1.012451171875,32.47999954223633,0.0,1.0,0.0478363037109375,0.0560150146484375,Closing,0.0,0.0,0.0,0.0,0.0,0.0,0.0,0.0,
1.6996389999999664,0.0,0.0,0.0,0.0,0.0,0.0,0.0,0.0,3.873290619,0.0,-0.0012207029999999897,0.0,0.0,0.0,-0.0,0.0,0.0,1.829833797,0.0,0.0,-35.0,0.0,0.0,0.0,0.0,0.0,4.844970207,0.0,0.0,-17.0,0.0,0.0,-0.0,0.0,0.0,2.9589840720000002,0.0,0.0,1.2300000190734863,0.3100000023841858,163.47000122070312,0.00775146484375,0.01837158203125,0.99835205078125,32.47999954223633,0.0,-3.0,0.0478363037109375,0.0560150146484375,Closing,0.0,0.0,0.0,0.0,0.0,0.0,0.0,0.0,
1.7216180000000167,0.0,0.0,0.0,0.0,0.0,0.0,0.0,0.0,3.875732025,0.0,0.0,0.0,0.0,0.0,-0.0,0.0,0.0,1.829833797,0.0,0.0,-35.0,0.0,0.0,0.0,0.0,0.0,4.844970207,0.0,-0.0012207029999995456,-17.0,0.0,0.0,-0.0,0.0,0.0,2.9589840720000002,0.0,0.0,1.2300000190734863,0.3100000023841858,163.47000122070312,0.0048828125,0.02069091796875,1.00518798828125,32.47999954223633,0.0,0.0,0.0478363037109375,0.0560150146484375,Closing,0.0,0.0,0.0,0.0,0.0,0.0,0.0,0.0,
1.7397630000000355,0.0,0.0,0.0,0.0,0.0,0.0,0.0,0.0,3.878173431,0.0,0.0,0.0,0.0,0.0,-0.0,0.0,0.0,1.829833797,0.0,0.0,-35.0,0.0,0.0,0.0,0.0,0.0,4.844970207,0.0,-0.0012207029999995456,-17.0,0.0,0.0,-0.0,0.0,0.0,2.9602047750000002,0.0,0.0,1.2300000190734863,0.3100000023841858,163.4600067138672,0.00433349609375,0.02325439453125,1.00616455078125,32.47999954223633,0.0,1.0,0.0478363037109375,0.0560150146484375,Closing,0.0,0.0,0.0,0.0,0.0,0.0,0.0,0.0,
1.7604649999999673,0.0,0.0,0.0,0.0,0.0,0.0,0.0,0.0,3.876952728,0.0,0.0,0.0,0.0,0.0,-0.0,0.0,0.0,1.829833797,0.0,0.0,-35.0,0.0,0.0,0.0,0.0,0.0,4.844970207,0.0,-0.0012207029999995456,-17.0,0.0,0.0,-0.0,0.0,0.0,2.9602047750000002,0.0,0.0,1.2300000190734863,0.3100000023841858,163.4600067138672,0.0078125,0.025146484375,0.992919921875,32.47999954223633,0.0,-1.0,0.0478363037109375,0.0560150146484375,Closing,0.0,0.0,0.0,0.0,0.0,0.0,0.0,0.0,
1.7797519999999787,0.0,0.0,0.0,0.0,0.0,0.0,0.0,0.0,3.825683202,0.0,0.0012207029999999897,0.0,0.0,0.0,-0.0,0.0,0.0,1.827392391,0.0,0.0,-35.0,0.0,0.0,0.0,0.0,0.0,4.846190910000001,0.0,0.0,-17.0,0.0,0.0,-0.0,0.0,0.0,2.9602047750000002,0.0,0.0,1.2300000190734863,0.3100000023841858,163.47000122070312,0.0078125,0.023193359375,0.99676513671875,32.47999954223633,0.0,-1.0,0.0478363037109375,0.0560150146484375,Closing,0.0,0.0,0.0,0.0,0.0,0.0,0.0,0.0,
1.7998730000000214,0.0,0.0,0.0,0.0,0.0,0.0,0.0,0.0,3.875732025,0.0,0.0012207029999999897,0.0,0.0,0.0,-0.0,0.0,0.0,1.828613094,0.0,0.0,-35.0,0.0,0.0,0.0,0.0,0.0,4.846190910000001,0.0,0.0,-17.0,0.0,0.0,-0.0,0.0,0.0,2.9589840720000002,0.0,0.0,1.2300000190734863,0.3100000023841858,163.47000122070312,0.0047607421875,0.0224609375,1.0062255859375,32.47999954223633,0.0,0.0,0.0478363037109375,0.0560150146484375,Closing,0.0,0.0,0.0,0.0,0.0,0.0,0.0,0.0,
1.8218240000000223,0.0,0.0,0.0,0.0,0.0,0.0,0.0,0.0,3.875732025,0.0,0.0,0.0,0.0,0.0,-0.0,0.0,0.0,1.829833797,0.0,0.0,-35.0,0.0,0.0,0.0,0.0,0.0,4.843749504,0.0,0.0012207029999995456,-17.0,0.0,0.0,-0.0,0.0,0.0,2.9589840720000002,0.0,0.0,1.2300000190734863,0.3100000023841858,163.47000122070312,0.00579833984375,0.0205078125,0.9993896484375,32.47999954223633,0.0,0.0,0.0478363037109375,0.0560150146484375,Closing,0.0,0.0,0.0,0.0,0.0,0.0,0.0,0.0,
1.839265999999945,0.0,0.0,0.0,0.0,0.0,0.0,0.0,0.0,3.875732025,0.0,0.0,0.0,0.0,0.0,-0.0,0.0,0.0,1.829833797,0.0,0.0,-35.0,0.0,0.0,0.0,0.0,0.0,4.844970207,0.0,0.0012207029999995456,-17.0,0.0,0.0,-0.0,0.0,0.0,2.9602047750000002,0.0,0.0,1.2300000190734863,0.3100000023841858,163.4600067138672,0.00396728515625,0.01983642578125,0.998046875,32.47999954223633,0.0,0.0,0.0478363037109375,0.0560150146484375,Closing,0.0,0.0,0.0,0.0,0.0,0.0,0.0,0.0,
1.8591779999999563,0.0,0.0,0.0,0.0,0.0,0.0,0.0,0.0,3.874511322,0.0,0.0,0.0,0.0,0.0,-0.0,0.0,0.0,1.829833797,0.0,0.0,-35.0,0.0,0.0,0.0,0.0,0.0,4.843749504,0.0,0.0012207029999995456,-17.0,0.0,0.0,-0.0,0.0,0.0,2.9602047750000002,0.0,0.0,1.2400000095367432,0.3100000023841858,163.4600067138672,0.0037841796875,0.02447509765625,1.01348876953125,32.47999954223633,0.0,2.0,0.0478363037109375,0.0560150146484375,Closing,0.0,0.0,0.0,0.0,0.0,0.0,0.0,0.0,
1.8801820000000298,0.0,0.0,0.0,0.0,0.0,0.0,0.0,0.0,3.875732025,0.0,-0.0012207029999999897,0.0,0.0,0.0,-0.0,0.0,0.0,1.829833797,0.0,0.0,-35.0,0.0,0.0,0.0,0.0,0.0,4.844970207,0.0,0.0,-17.0,0.0,0.0,-0.0,0.0,0.0,2.9602047750000002,0.0,0.0,1.2400000095367432,0.3100000023841858,163.4600067138672,0.00439453125,0.01641845703125,0.99365234375,32.47999954223633,0.0,0.0,0.0478363037109375,0.0560150146484375,Closing,0.0,0.0,0.0,0.0,0.0,0.0,0.0,0.0,
1.8996570000000066,0.0,0.0,0.0,0.0,0.0,0.0,0.0,0.0,3.876952728,0.0,-0.0012207029999999897,0.0,0.0,0.0,-0.0,0.0,0.0,1.829833797,0.0,0.0,-35.0,0.0,0.0,0.0,0.0,0.0,4.843749504,0.0,0.0,-17.0,0.0,0.0,-0.0,0.0,0.0,2.9455563390000004,0.0,0.0,1.2400000095367432,0.3100000023841858,163.4600067138672,0.00421142578125,0.0235595703125,1.00177001953125,32.47999954223633,0.0,1.0,0.0478363037109375,0.0560150146484375,Closing,0.0,0.0,0.0,0.0,0.0,0.0,0.0,0.0,
1.9220529999999563,0.0,0.0,0.0,0.0,0.0,0.0,0.0,0.0,3.876952728,0.0,0.0,0.0,0.0,0.0,-0.0,0.0,0.0,1.829833797,0.0,0.0,-35.0,0.0,0.0,0.0,0.0,0.0,4.843749504,0.0,0.0,-17.0,0.0,0.0,-0.0,0.0,0.0,2.9577633690000003,0.0,0.0,1.2400000095367432,0.3100000023841858,163.4600067138672,0.0018310546875,0.02105712890625,0.9947509765625,32.47999954223633,0.0,3.0,0.0478363037109375,0.0560150146484375,Closing,0.0,0.0,0.0,0.0,0.0,0.0,0.0,0.0,
1.9407210000000195,0.0,0.0,0.0,0.0,0.0,0.0,0.0,0.0,3.874511322,0.0,0.0,0.0,0.0,0.0,-0.0,0.0,0.0,1.829833797,0.0,0.0,-35.0,0.0,0.0,0.0,0.0,0.0,4.835204583,0.0,0.0,-17.0,0.0,0.0,-0.0,0.0,0.0,2.9589840720000002,0.0,0.0,1.2400000095367432,0.3100000023841858,163.4600067138672,0.0050048828125,0.02044677734375,1.0008544921875,32.47999954223633,0.0,0.0,0.0478363037109375,0.0560150146484375,Closing,0.0,0.0,0.0,0.0,0.0,0.0,0.0,0.0,
1.9598839999999618,0.0,0.0,0.0,0.0,0.0,0.0,0.0,0.0,3.875732025,0.0,0.0,0.0,0.0,0.0,-0.0,0.0,0.0,1.829833797,0.0,0.0,-35.0,0.0,0.0,0.0,0.0,0.0,4.843749504,0.0,0.0,-17.0,0.0,0.0,-0.0,0.0,0.0,2.9602047750000002,0.0,0.0,1.2400000095367432,0.3100000023841858,163.4600067138672,0.00323486328125,0.02313232421875,1.012451171875,32.47999954223633,0.0,2.0,0.0478363037109375,0.0560150146484375,Closing,0.0,0.0,0.0,0.0,0.0,0.0,0.0,0.0,
1.9794419999999227,0.0,0.0,0.0,0.0,0.0,0.0,0.0,0.0,3.875732025,0.0,0.0,0.0,0.0,0.0,-0.0,0.0,0.0,1.829833797,0.0,0.0,-35.0,0.0,0.0,0.0,0.0,0.0,4.843749504,0.0,-0.0012207029999995456,-17.0,0.0,0.0,-0.0,0.0,0.0,2.9589840720000002,0.0,0.0,1.2400000095367432,0.3100000023841858,163.4600067138672,0.00457763671875,0.014892578125,0.99505615234375,32.47999954223633,0.0,-1.0,0.0478363037109375,0.0560150146484375,Closing,0.0,0.0,0.0,0.0,0.0,0.0,0.0,0.0,
1.9995829999999841,0.0,0.0,0.0,0.0,0.0,0.0,0.0,0.0,3.876952728,0.0,0.0,0.0,0.0,0.0,-0.0,0.0,0.0,1.829833797,0.0,0.0,-35.0,0.0,0.0,0.0,0.0,0.0,4.843749504,0.0,-0.0012207029999995456,-17.0,0.0,0.0,-0.0,0.0,0.0,2.9602047750000002,0.0,0.0,1.2400000095367432,0.3100000023841858,163.4600067138672,0.0068359375,0.02459716796875,1.0015869140625,32.47999954223633,0.0,0.0,0.0478363037109375,0.0560150146484375,Closing,0.0,0.0,0.0,0.0,0.0,0.0,0.0,0.0,
2.0222409999999216,0.0,0.0,0.0,0.0,0.0,0.0,0.0,0.0,3.875732025,0.0,0.0012207029999999897,0.0,0.0,0.0,-0.0,0.0,0.0,1.829833797,0.0,0.0,-35.0,0.0,0.0,0.0,0.0,0.0,4.843749504,0.0,0.0012207029999995456,-17.0,0.0,0.0,-0.0,0.0,0.0,2.9589840720000002,0.0,0.0,1.2400000095367432,0.3100000023841858,163.4600067138672,0.00543212890625,0.0211181640625,0.9969482421875,32.47999954223633,0.0,0.0,0.0478363037109375,0.0560150146484375,Closing,0.0,0.0,0.0,0.0,0.0,0.0,0.0,0.0,
2.0415389999999896,0.0,0.0,0.0,0.0,0.0,0.0,0.0,0.0,3.875732025,0.0,0.0012207029999999897,0.0,0.0,0.0,-0.0,0.0,0.0,1.828613094,0.0,0.0,-35.0,0.0,0.0,0.0,0.0,0.0,4.843749504,0.0,0.0012207029999995456,-17.0,0.0,0.0,-0.0,0.0,0.0,2.9589840720000002,0.0,0.0,1.2400000095367432,0.3100000023841858,163.4600067138672,0.0087890625,0.0223388671875,0.99700927734375,32.47999954223633,0.0,-2.0,0.0478363037109375,0.0560150146484375,Closing,0.0,0.0,0.0,0.0,0.0,0.0,0.0,0.0,
2.060714999999967,0.0,0.0,0.0,0.0,0.0,0.0,0.0,0.0,3.875732025,0.0,0.0012207029999999897,0.0,0.0,0.0,-0.0,0.0,0.0,1.829833797,0.0,0.0,-35.0,0.0,0.0,0.0,0.0,0.0,4.843749504,0.0,0.0012207029999995456,-17.0,0.0,0.0,-0.0,0.0,0.0,2.9589840720000002,0.0,0.0,1.2400000095367432,0.3100000023841858,163.4600067138672,0.00360107421875,0.0225830078125,1.00323486328125,32.47999954223633,0.0,2.0,0.0478363037109375,0.0560150146484375,Closing,0.0,0.0,0.0,0.0,0.0,0.0,0.0,0.0,
2.0811359999999404,0.0,0.0,0.0,0.0,0.0,0.0,0.0,0.0,3.875732025,0.0,-0.0012207029999999897,0.0,0.0,0.0,-0.0,0.0,0.0,1.829833797,0.0,0.0,-35.0,0.0,0.0,0.0,0.0,0.0,4.842528801,0.0,0.0,-17.0,0.0,0.0,-0.0,0.0,0.0,2.9589840720000002,0.0,0.0,1.2400000095367432,0.3100000023841858,163.4600067138672,0.00482177734375,0.0211181640625,1.0078125,32.47999954223633,0.0,0.0,0.0478363037109375,0.0560150146484375,Closing,0.0,0.0,0.0,0.0,0.0,0.0,0.0,0.0,
2.1008479999999983,0.0,0.0,0.0,0.0,0.0,0.0,0.0,0.0,3.875732025,0.0,-0.0012207029999999897,0.0,0.0,0.0,-0.0,0.0,0.0,1.828613094,0.0,0.0,-35.0,0.0,0.0,0.0,0.0,0.0,4.844970207,0.0,0.0,-17.0,0.0,0.0,-0.0,0.0,0.0,2.9589840720000002,0.0,0.0,1.2400000095367432,0.3100000023841858,163.4600067138672,0.0032958984375,0.0194091796875,1.0001220703125,32.47999954223633,0.0,1.0,0.0478363037109375,0.0560150146484375,Closing,0.0,0.0,0.0,0.0,0.0,0.0,0.0,0.0,
2.138180999999982,0.0,0.0,0.0,0.0,0.0,0.0,0.0,0.0,3.875732025,0.0,0.0,0.0,0.0,0.0,-0.0,0.0,0.0,1.828613094,0.0,0.0,-35.0,0.0,0.0,0.0,0.0,0.0,4.842528801,0.0,-0.0012207029999995456,-17.0,0.0,0.0,-0.0,0.0,0.0,2.9602047750000002,0.0,0.0,1.2400000095367432,0.3100000023841858,163.4600067138672,0.00787353515625,0.02313232421875,1.00732421875,32.47999954223633,0.0,-1.0,0.0478363037109375,0.0560150146484375,Closing,0.0,0.0,0.0,0.0,0.0,0.0,0.0,0.0,
2.1555599999999395,0.0,0.0,0.0,0.0,0.0,0.0,0.0,0.125,3.875732025,0.0,0.0,0.0,0.0,0.0,-0.0,0.0,0.0,1.828613094,0.0,0.0,-35.0,0.0,0.0,0.0,0.0,0.0,4.843749504,0.0,-0.0012207029999995456,-17.0,0.0,0.0,-0.0,0.0,0.0,2.9589840720000002,0.0,0.0,1.2400000095367432,0.3100000023841858,163.4600067138672,0.00787353515625,0.02313232421875,1.00732421875,32.47999954223633,0.0,-1.0,0.0478363037109375,0.0560150146484375,Closing,0.0,0.0,0.0,0.0,0.0,0.0,0.0,0.0,
2.178530999999959,0.0,0.0,0.0,0.0,0.0,0.0,0.0,0.125,3.875732025,0.0,0.0,0.0,0.0,0.0,-0.0,0.0,0.0,1.829833797,0.0,0.0,-35.0,0.0,0.0,0.0,0.0,0.0,4.843749504,0.0,0.0,-17.0,0.0,0.0,-0.0,0.0,0.0,2.9589840720000002,0.0,0.0,1.2400000095367432,0.3100000023841858,163.4600067138672,0.0068359375,0.0240478515625,1.0052490234375,32.47999954223633,0.0,0.0,0.0478363037109375,0.0560150146484375,Closing,0.0,0.0,0.0,0.0,0.0,0.0,0.0,0.0,
2.1962609999999403,0.0,0.0,0.0,0.0,0.0,0.0,0.0,0.125,3.874511322,0.0,0.0,0.0,0.0,0.0,-0.0,0.0,0.0,1.8310545,0.0,0.0,-35.0,0.0,0.0,0.0,0.0,0.0,4.844970207,0.0,0.0,-17.0,0.0,0.0,-0.0,0.0,0.0,2.9589840720000002,0.0,0.0,1.2400000095367432,0.3100000023841858,163.4600067138672,0.0057373046875,0.02020263671875,1.0015869140625,32.47999954223633,0.0,0.0,0.0478363037109375,0.0560150146484375,Closing,0.0,0.0,0.0,0.0,0.0,0.0,0.0,0.0,
2.214614999999991,0.0,0.0,0.0,0.0,0.0,0.0,0.0,0.0,3.875732025,0.0,0.0,0.0,0.0,0.0,-0.0,0.0,0.0,1.829833797,0.0,0.0,-35.0,0.0,0.0,0.0,0.0,0.0,4.843749504,0.0,0.0012207029999995456,-17.0,0.0,0.0,-0.0,0.0,0.0,2.9589840720000002,0.0,0.0,1.2400000095367432,0.3100000023841858,163.4600067138672,0.00506591796875,0.02197265625,1.00506591796875,32.47999954223633,0.0,0.0,0.0478363037109375,0.0560150146484375,Closing,0.0,0.0,0.0,0.0,0.0,0.0,0.0,0.0,
2.236677000000025,0.0,0.0,0.0,0.0,0.0,0.0,0.0,0.0,3.876952728,0.0,0.0,0.0,0.0,0.0,-0.0,0.0,0.0,1.828613094,0.0,0.0,-35.0,0.0,0.0,0.0,0.0,0.0,4.844970207,0.0,0.0012207029999995456,-17.0,0.0,0.0,-0.0,0.0,0.0,2.9589840720000002,0.0,0.0,1.2400000095367432,0.3100000023841858,163.4499969482422,0.007568359375,0.02313232421875,1.00006103515625,32.47999954223633,0.0,-1.0,0.0478363037109375,0.0560150146484375,Closing,0.0,0.0,0.0,0.0,0.0,0.0,0.0,0.0,
2.254594999999972,0.0,0.0,0.0,0.0,0.0,0.0,0.0,0.0,3.874511322,0.0,0.0,0.0,0.0,0.0,-0.0,0.0,0.0,1.829833797,0.0,0.0,-35.0,0.0,0.0,0.0,0.0,0.0,4.844970207,0.0,0.0012207029999995456,-17.0,0.0,0.0,-0.0,0.0,0.0,2.9589840720000002,0.0,0.0,1.2400000095367432,0.3100000023841858,163.4499969482422,7.9345703125E-4,0.02203369140625,0.99725341796875,32.47999954223633,0.0,4.0,0.0478363037109375,0.0560150146484375,Closing,0.0,0.0,0.0,0.0,0.0,0.0,0.0,0.0,
2.2817029999999794,0.0,0.0,0.0,0.0,0.0,0.0,0.0,0.0,3.875732025,0.0,0.0,0.0,0.0,0.0,-0.0,0.0,0.0,1.829833797,0.0,0.0,-35.0,0.0,0.0,0.0,0.0,0.0,4.842528801,0.0,-0.0012207029999995456,-17.0,0.0,0.0,-0.0,0.0,0.0,2.9577633690000003,0.0,-0.0012207029999999897,1.2400000095367432,0.3100000023841858,163.4499969482422,0.006103515625,0.0228271484375,1.00396728515625,32.47999954223633,0.0,0.0,0.0478363037109375,0.0560150146484375,Closing,0.0,0.0,0.0,0.0,0.0,0.0,0.0,0.0,
2.3019679999999934,0.0,0.0,0.0,0.0,0.0,0.0,0.0,0.0,3.875732025,0.0,0.0,0.0,0.0,0.0,-0.0,0.0,0.0,1.828613094,0.0,0.0,-35.0,0.0,0.0,0.0,0.0,0.0,4.842528801,0.0,-0.0012207029999995456,-17.0,0.0,0.0,-0.0,0.0,0.0,2.9589840720000002,0.0,-0.0012207029999999897,1.2400000095367432,0.3100000023841858,163.4499969482422,0.00604248046875,0.02301025390625,0.99871826171875,32.47999954223633,0.0,0.0,0.0478363037109375,0.0560150146484375,Closing,0.0,0.0,0.0,0.0,0.0,0.0,0.0,0.0,
2.3203859999999406,0.0,0.0,0.0,0.0,0.0,0.0,0.0,0.125,3.874511322,0.0,0.0,0.0,0.0,0.0,-0.0,0.0,0.0,1.828613094,0.0,0.0,-35.0,0.0,0.0,0.0,0.0,0.0,4.841308098,0.0,0.0012207029999995456,-17.0,0.0,0.0,-0.0,0.0,0.0,2.9589840720000002,0.0,0.0,1.2400000095367432,0.3100000023841858,163.4499969482422,0.00384521484375,0.021728515625,1.00927734375,32.47999954223633,0.0,1.0,0.0478363037109375,0.0560150146484375,Closing,0.0,0.0,0.0,0.0,0.0,0.0,0.0,0.0,
2.3455620000000343,0.0,0.0,0.0,0.0,0.0,0.0,0.0,0.125,3.874511322,0.0,0.0,0.0,0.0,0.0,-0.0,0.0,0.0,1.829833797,0.0,0.0,-35.0,0.0,0.0,0.0,0.0,0.0,4.843749504,0.0,0.0012207029999995456,-17.0,0.0,0.0,-0.0,0.0,0.0,2.9589840720000002,0.0,0.0,1.2400000095367432,0.3100000023841858,163.4499969482422,0.00567626953125,0.0208740234375,1.005615234375,32.47999954223633,0.0,0.0,0.0478363037109375,0.0560150146484375,Closing,0.0,0.0,0.0,0.0,0.0,0.0,0.0,0.0,
2.3636929999999703,0.0,0.0,0.0,0.0,0.0,0.0,0.0,0.125,3.874511322,0.0,0.0,0.0,0.0,0.0,-0.0,0.0,0.0,1.828613094,0.0,0.0,-35.0,0.0,0.0,0.0,0.0,0.0,4.843749504,0.0,0.0012207029999995456,-17.0,0.0,0.0,-0.0,0.0,0.0,2.9589840720000002,0.0,0.0,1.2400000095367432,0.3100000023841858,163.4499969482422,0.0015869140625,0.02264404296875,0.998291015625,32.47999954223633,0.0,4.0,0.0478363037109375,0.0560150146484375,Closing,0.0,0.0,0.0,0.0,0.0,0.0,0.0,0.0,
2.3888120000000344,0.0,0.0,0.0,0.0,0.0,0.0,0.0,0.125,3.874511322,0.0,0.0,0.0,0.0,0.0,-0.0,0.0,0.0,1.829833797,0.0,0.0,-35.0,0.0,0.0,0.0,0.0,0.0,4.843749504,0.0,0.0,-17.0,0.0,0.0,-0.0,0.0,0.0,2.9602047750000002,0.0,0.0,1.2400000095367432,0.3100000023841858,163.4499969482422,0.00738525390625,0.0225830078125,1.00897216796875,32.47999954223633,0.0,-1.0,0.0478363037109375,0.0560150146484375,Closing,0.0,0.0,0.0,0.0,0.0,0.0,0.0,0.0,
2.4072399999999905,0.0,0.0,0.0,0.0,0.0,0.0,0.0,0.125,3.875732025,0.0,0.0,0.0,0.0,0.0,-0.0,0.0,0.0,1.828613094,0.0,0.0,-35.0,0.0,0.0,0.0,0.0,0.0,4.842528801,0.0,0.0,-17.0,0.0,0.0,-0.0,0.0,0.0,2.9589840720000002,0.0,0.0,1.2400000095367432,0.3100000023841858,163.4499969482422,0.00335693359375,0.02001953125,1.00323486328125,32.47999954223633,0.0,1.0,0.0478363037109375,0.0560150146484375,Closing,0.0,0.0,0.0,0.0,0.0,0.0,0.0,0.0,
2.428265000000014,0.0,0.0,0.0,0.0,0.0,0.0,0.0,0.0,3.875732025,0.0,0.0,0.0,0.0,0.0,-0.0,0.0,0.0,1.829833797,0.0,0.0,-35.0,0.0,0.0,0.0,0.0,0.0,4.842528801,0.0,-0.0012207029999995456,-17.0,0.0,0.0,-0.0,0.0,0.0,2.9602047750000002,0.0,0.0012207029999999897,1.2400000095367432,0.3100000023841858,163.4499969482422,0.0064697265625,0.02154541015625,1.00042724609375,32.47999954223633,0.0,0.0,0.0478363037109375,0.0560150146484375,Closing,0.0,0.0,0.0,0.0,0.0,0.0,0.0,0.0,
2.4456790000000037,0.0,0.0,0.0,0.0,0.0,0.0,0.0,0.0,3.875732025,0.0,0.0,0.0,0.0,0.0,-0.0,0.0,0.0,1.828613094,0.0,0.0,-35.0,0.0,0.0,0.0,0.0,0.0,4.843749504,0.0,-0.0012207029999995456,-17.0,0.0,0.0,-0.0,0.0,0.0,2.9589840720000002,0.0,0.0012207029999999897,1.2400000095367432,0.3100000023841858,163.4499969482422,0.00408935546875,0.02020263671875,1.00299072265625,32.47999954223633,0.0,0.0,0.0478363037109375,0.0560150146484375,Closing,0.0,0.0,0.0,0.0,0.0,0.0,0.0,0.0,
2.4655999999999767,0.0,0.0,0.0,0.0,0.0,0.0,0.0,0.0,3.875732025,0.0,0.0,0.0,0.0,0.0,-0.0,0.0,0.0,1.827392391,0.0,0.0,-35.0,0.0,0.0,0.0,0.0,0.0,4.843749504,0.0,-0.0012207029999995456,-17.0,0.0,0.0,-0.0,0.0,0.0,2.9589840720000002,0.0,0.0012207029999999897,1.2400000095367432,0.3100000023841858,163.4499969482422,-0.00433349609375,0.0343017578125,1.00213623046875,32.47999954223633,0.0,13.0,0.0478363037109375,0.0560150146484375,Closing,0.0,0.0,0.0,0.0,0.0,0.0,0.0,0.0,
2.4876859999999867,0.0,0.0,0.0,0.0,0.0,0.0,0.0,0.125,3.875732025,0.0,0.0,0.0,0.0,0.0,-0.0,0.0,0.0,1.828613094,0.0,0.0,-35.0,0.0,0.0,0.0,0.0,0.0,4.843749504,0.0,0.0,-17.0,0.0,0.0,-0.0,0.0,0.0,2.9589840720000002,0.0,0.0,1.25,0.3100000023841858,163.4499969482422,0.00604248046875,0.00946044921875,0.989990234375,32.47999954223633,0.0,-4.0,0.0478363037109375,0.0560150146484375,Closing,0.0,0.0,0.0,0.0,0.0,0.0,0.0,0.0,
2.505440999999992,0.0,0.0,0.0,0.0,0.0,0.0,0.0,0.0,3.875732025,0.0,0.0,0.0,0.0,0.0,-0.0,0.0,0.0,1.829833797,0.0,0.0,-35.0,0.0,0.0,0.0,0.0,0.0,4.844970207,0.0,0.0,-17.0,0.0,0.0,-0.0,0.0,0.0,2.9589840720000002,0.0,0.0,1.2400000095367432,0.3199999928474426,163.4499969482422,0.00921630859375,0.01910400390625,0.98828125,32.47999954223633,0.0,-4.0,0.0478363037109375,0.0560150146484375,Closing,0.0,0.0,0.0,0.0,0.0,0.0,0.0,0.0,
2.525809000000008,0.0,0.0,0.0,0.0,0.0,0.0,0.0,0.0,3.875732025,0.0,0.0,0.0,0.0,0.0,-0.0,0.0,0.0,1.829833797,0.0,0.0,-35.0,0.0,0.0,0.0,0.0,0.0,4.843749504,0.0,0.0,-17.0,0.0,0.0,-0.0,0.0,0.0,2.9589840720000002,0.0,0.0,1.2400000095367432,0.3100000023841858,163.4499969482422,0.00970458984375,0.02923583984375,0.99090576171875,32.47999954223633,0.0,-1.0,0.0478363037109375,0.0560150146484375,Closing,0.0,0.0,0.0,0.0,0.0,0.0,0.0,0.0,
2.545006999999983,0.0,0.0,0.0,0.0,0.0,0.0,0.0,0.0,3.875732025,0.0,0.0,0.0,0.0,0.0,-0.0,0.0,0.0,1.828613094,0.0,0.0,-35.0,0.0,0.0,0.0,0.0,0.0,4.843749504,0.0,0.0,-17.0,0.0,0.0,-0.0,0.0,0.0,2.9602047750000002,0.0,0.0,1.25,0.30000001192092896,163.4499969482422,0.00579833984375,0.02105712890625,1.02154541015625,32.47999954223633,0.0,0.0,0.0478363037109375,0.0560150146484375,Closing,0.0,0.0,0.0,0.0,0.0,0.0,0.0,0.0,
2.562655999999959,0.0,0.0,0.0,0.0,0.0,0.0,0.0,0.125,3.876952728,0.0,0.0,0.0,0.0,0.0,-0.0,0.0,0.0,1.829833797,0.0,0.0,-35.0,0.0,0.0,0.0,0.0,0.0,4.843749504,0.0,0.0,-17.0,0.0,0.0,-0.0,0.0,0.0,2.9602047750000002,0.0,0.0,1.25,0.3100000023841858,163.4600067138672,0.00762939453125,0.025390625,0.99273681640625,32.47999954223633,0.0,-1.0,0.0478363037109375,0.0560150146484375,Closing,0.0,0.0,0.0,0.0,0.0,0.0,0.0,0.0,
2.584087999999989,0.0,0.0,0.0,0.0,0.0,0.0,0.0,0.125,3.876952728,0.0,0.0,0.0,0.0,0.0,-0.0,0.0,0.0,1.829833797,0.0,0.0,-35.0,0.0,0.0,0.0,0.0,0.0,4.843749504,0.0,0.0,-17.0,0.0,0.0,-0.0,0.0,0.0,2.97851532,0.0,0.0,1.2400000095367432,0.3100000023841858,163.4600067138672,0.00640869140625,0.0220947265625,1.001220703125,32.47999954223633,0.0,0.0,0.0478363037109375,0.0560150146484375,Closing,0.0,0.0,0.0,0.0,0.0,0.0,0.0,0.0,
2.6020109999999406,0.0,0.0,0.0,0.0,0.0,0.0,0.0,0.0,3.874511322,0.0,0.0,0.0,0.0,0.0,-0.0,0.0,0.0,1.829833797,0.0,0.0,-35.0,0.0,0.0,0.0,0.0,0.0,4.847411613,0.0,0.0,-17.0,0.0,0.0,-0.0,0.0,0.0,2.9565426660000003,0.0,0.0,1.25,0.3100000023841858,163.4600067138672,0.003662109375,0.021484375,0.99237060546875,32.47999954223633,0.0,1.0,0.0478363037109375,0.0560150146484375,Closing,0.0,0.0,0.0,0.0,0.0,0.0,0.0,0.0,
2.6196969999999276,0.0,0.0,0.0,0.0,0.0,0.0,0.0,0.0,3.874511322,0.0,0.0,0.0,0.0,0.0,-0.0,0.0,0.0,1.829833797,0.0,0.0,-35.0,0.0,0.0,0.0,0.0,0.0,4.840087395,0.0,0.0,-17.0,0.0,0.0,-0.0,0.0,0.0,2.9589840720000002,0.0,0.0,1.25,0.3100000023841858,163.4600067138672,0.006103515625,0.02423095703125,1.006591796875,32.47999954223633,0.0,0.0,0.0478363037109375,0.0560150146484375,Closing,0.0,0.0,0.0,0.0,0.0,0.0,0.0,0.0,
2.6403240000000223,0.0,0.0,0.0,0.0,0.0,0.0,0.0,0.0,3.8842769460000004,0.0,0.0,0.0,0.0,0.0,-0.0,0.0,0.0,1.829833797,0.0,0.0,-35.0,0.0,0.0,0.0,0.0,0.0,4.844970207,0.0,0.0,-17.0,0.0,0.0,-0.0,0.0,0.0,2.9577633690000003,0.0,0.0,1.25,0.3100000023841858,163.4600067138672,0.00555419921875,0.0159912109375,0.98883056640625,32.5099983215332,0.0,-1.0,0.0478363037109375,0.0560150146484375,Closing,0.0,0.0,0.0,0.0,0.0,0.0,0.0,0.0,
2.6613699999999954,0.0,0.0,0.0,0.0,0.0,0.0,0.0,0.0,3.875732025,0.0,0.0,0.0,0.0,0.0,-0.0,0.0,0.0,1.828613094,0.0,0.0,-35.0,0.0,0.0,0.0,0.0,0.0,4.843749504,0.0,0.0,-17.0,0.0,0.0,-0.0,0.0,0.0,2.9589840720000002,0.0,0.0,1.25,0.3100000023841858,163.4499969482422,0.00384521484375,0.0296630859375,1.00799560546875,32.5099983215332,0.0,3.0,0.0478363037109375,0.0560150146484375,Closing,0.0,0.0,0.0,0.0,0.0,0.0,0.0,0.0,
2.680305999999982,0.0,0.0,0.0,0.0,0.0,0.0,0.0,0.125,3.86962851,0.0,0.0012207029999999897,0.0,0.0,0.0,-0.0,0.0,0.0,1.827392391,0.0,0.0,-35.0,0.0,0.0,0.0,0.0,0.0,4.844970207,0.0,0.0012207029999995456,-17.0,0.0,0.0,-0.0,0.0,0.0,2.9589840720000002,0.0,0.0,1.25,0.3100000023841858,163.4499969482422,0.0052490234375,0.02020263671875,1.014892578125,32.5099983215332,0.0,0.0,0.0478363037109375,0.0560150146484375,Closing,0.0,0.0,0.0,0.0,0.0,0.0,0.0,0.0,
2.6996840000000084,0.0,0.0,0.0,0.0,0.0,0.0,0.0,0.0,3.875732025,0.0,0.0012207029999999897,0.0,0.0,0.0,-0.0,0.0,0.0,1.829833797,0.0,0.0,-35.0,0.0,0.0,0.0,0.0,0.0,4.848632316000001,0.0,0.0012207029999995456,-17.0,0.0,0.0,-0.0,0.0,0.0,2.9589840720000002,0.0,0.0,1.25,0.3100000023841858,163.4499969482422,0.006103515625,0.02337646484375,0.99786376953125,32.5099983215332,0.0,0.0,0.0478363037109375,0.0560150146484375,Closing,0.0,0.0,0.0,0.0,0.0,0.0,0.0,0.0,
2.719954000000027,0.0,0.0,0.0,0.0,0.0,0.0,0.0,0.0,3.875732025,0.0,0.0012207029999999897,0.0,0.0,0.0,-0.0,0.0,0.0,1.827392391,0.0,0.0,-35.0,0.0,0.0,0.0,0.0,0.0,4.843749504,0.0,0.0,-17.0,0.0,0.0,-0.0,0.0,0.0,2.9602047750000002,0.0,0.0,1.25,0.3100000023841858,163.4499969482422,0.0054931640625,0.02178955078125,1.0062255859375,32.5099983215332,0.0,0.0,0.0478363037109375,0.0560150146484375,Closing,0.0,0.0,0.0,0.0,0.0,0.0,0.0,0.0,
2.740084999999963,0.0,0.0,0.0,0.0,0.0,0.0,0.0,0.0,3.876952728,0.0,0.0,0.0,0.0,0.0,-0.0,0.0,0.0,1.829833797,0.0,0.0,-35.0,0.0,0.0,0.0,0.0,0.0,4.844970207,0.0,0.0,-17.0,0.0,0.0,-0.0,0.0,0.0,2.9602047750000002,0.0,0.0,1.25,0.3100000023841858,163.4499969482422,0.00537109375,0.019775390625,0.99713134765625,32.5099983215332,0.0,0.0,0.0478363037109375,0.0560150146484375,Closing,0.0,0.0,0.0,0.0,0.0,0.0,0.0,0.0,
2.760878999999957,0.0,0.0,0.0,0.0,0.0,0.0,0.0,0.0,3.875732025,0.0,0.0,0.0,0.0,0.0,-0.0,0.0,0.0,1.829833797,0.0,0.0,-35.0,0.0,0.0,0.0,0.0,0.0,4.842528801,0.0,0.0,-17.0,0.0,0.0,-0.0,0.0,0.0,2.9589840720000002,0.0,0.0,1.25,0.3100000023841858,163.4499969482422,0.00457763671875,0.02020263671875,1.0078125,32.5099983215332,0.0,0.0,0.0478363037109375,0.0560150146484375,Closing,0.0,0.0,0.0,0.0,0.0,0.0,0.0,0.0,
2.7809839999999384,0.0,0.0,0.0,0.0,0.0,0.0,0.0,0.0,3.875732025,0.0,0.0,0.0,0.0,0.0,-0.0,0.0,0.0,1.829833797,0.0,0.0,-35.0,0.0,0.0,0.0,0.0,0.0,4.844970207,0.0,-0.0012207029999995456,-17.0,0.0,0.0,-0.0,0.0,0.0,2.9589840720000002,0.0,0.0,1.25,0.3100000023841858,163.4499969482422,0.0091552734375,0.0225830078125,0.99725341796875,32.5099983215332,0.0,-3.0,0.0478363037109375,0.0560150146484375,Closing,0.0,0.0,0.0,0.0,0.0,0.0,0.0,0.0,
2.7995479999999517,0.0,0.0,0.0,0.0,0.0,0.0,0.0,0.0,3.875732025,0.0,0.0,0.0,0.0,0.0,-0.0,0.0,0.0,1.829833797,0.0,0.0,-35.0,0.0,0.0,0.0,0.0,0.0,4.843749504,0.0,-0.0012207029999995456,-17.0,0.0,0.0,-0.0,0.0,0.0,2.9553219630000003,0.0,0.0,1.25,0.3100000023841858,163.4499969482422,0.00830078125,0.02081298828125,0.99847412109375,32.5099983215332,0.0,-2.0,0.0478363037109375,0.0560150146484375,Closing,0.0,0.0,0.0,0.0,0.0,0.0,0.0,0.0,
2.8199490000000225,0.0,0.0,0.0,0.0,0.0,0.0,0.0,0.0,3.874511322,0.0,0.0,0.0,0.0,0.0,-0.0,0.0,0.0,1.829833797,0.0,0.0,-35.0,0.0,0.0,0.0,0.0,0.0,4.843749504,0.0,0.0012207029999995456,-17.0,0.0,0.0,-0.0,0.0,0.0,2.9602047750000002,0.0,0.0,1.25,0.3100000023841858,163.4499969482422,0.00457763671875,0.022705078125,1.00408935546875,32.5099983215332,0.0,1.0,0.0478363037109375,0.0560150146484375,Closing,0.0,0.0,0.0,0.0,0.0,0.0,0.0,0.0,
2.839677999999956,0.0,0.0,0.0,0.0,0.0,0.0,0.0,0.0,3.875732025,0.0,-0.0012207029999999897,0.0,0.0,0.0,-0.0,0.0,0.0,1.828613094,0.0,0.0,-35.0,0.0,0.0,0.0,0.0,0.0,4.843749504,0.0,0.0012207029999995456,-17.0,0.0,0.0,-0.0,0.0,0.0,2.9589840720000002,0.0,0.0,1.25,0.3100000023841858,163.4499969482422,0.00396728515625,0.0186767578125,1.003173828125,32.5099983215332,0.0,0.0,0.0478363037109375,0.0560150146484375,Closing,0.0,0.0,0.0,0.0,0.0,0.0,0.0,0.0,
2.8594419999999228,0.0,0.0,0.0,0.0,0.0,0.0,0.0,0.0,3.875732025,0.0,-0.0012207029999999897,0.0,0.0,0.0,-0.0,0.0,0.0,1.829833797,0.0,0.0,-35.0,0.0,0.0,0.0,0.0,0.0,4.844970207,0.0,0.0012207029999995456,-17.0,0.0,0.0,-0.0,0.0,0.0,2.9602047750000002,0.0,0.0,1.25,0.3100000023841858,163.4499969482422,0.00433349609375,0.0213623046875,0.998779296875,32.5099983215332,0.0,0.0,0.0478363037109375,0.0560150146484375,Closing,0.0,0.0,0.0,0.0,0.0,0.0,0.0,0.0,
2.8824490000000225,0.0,0.0,0.0,0.0,0.0,0.0,0.0,0.0,3.875732025,0.0,0.0,0.0,0.0,0.0,-0.0,0.0,0.0,1.829833797,0.0,0.0,-35.0,0.0,0.0,0.0,0.0,0.0,4.843749504,0.0,-0.0012207029999995456,-17.0,0.0,0.0,-0.0,0.0,0.0,2.9589840720000002,0.0,0.0,1.25,0.3100000023841858,163.4499969482422,0.00897216796875,0.026123046875,1.009521484375,32.5099983215332,0.0,-2.0,0.0478363037109375,0.0560150146484375,Closing,0.0,0.0,0.0,0.0,0.0,0.0,0.0,0.0,
2.8998730000000212,0.0,0.0,0.0,0.0,0.0,0.0,0.0,0.125,3.874511322,0.0,0.0,0.0,0.0,0.0,-0.0,0.0,0.0,1.829833797,0.0,0.0,-35.0,0.0,0.0,0.0,0.0,0.0,4.842528801,0.0,-0.0012207029999995456,-17.0,0.0,0.0,-0.0,0.0,0.0,2.9589840720000002,0.0,0.0,1.25,0.3199999928474426,163.4499969482422,0.00225830078125,0.02099609375,1.000732421875,32.5099983215332,0.0,2.0,0.0478363037109375,0.0560150146484375,Closing,0.0,0.0,0.0,0.0,0.0,0.0,0.0,0.0,
2.920084999999963,0.0,0.0,0.0,0.0,0.0,0.0,0.0,0.0,3.874511322,0.0,0.0,0.0,0.0,0.0,-0.0,0.0,0.0,1.828613094,0.0,0.0,-35.0,0.0,0.0,0.0,0.0,0.0,4.844970207,0.0,0.0012207029999995456,-17.0,0.0,0.0,-0.0,0.0,0.0,2.9589840720000002,0.0,0.0,1.2400000095367432,0.3100000023841858,163.4499969482422,0.00714111328125,0.021484375,1.00152587890625,32.5099983215332,0.0,-1.0,0.0478363037109375,0.0560150146484375,Closing,0.0,0.0,0.0,0.0,0.0,0.0,0.0,0.0,
2.9399899999999906,0.0,0.0,0.0,0.0,0.0,0.0,0.0,0.0,3.875732025,0.0,0.0,0.0,0.0,0.0,-0.0,0.0,0.0,1.829833797,0.0,0.0,-35.0,0.0,0.0,0.0,0.0,0.0,4.842528801,0.0,0.0012207029999995456,-17.0,0.0,0.0,-0.0,0.0,0.0,2.9602047750000002,0.0,0.0,1.2400000095367432,0.3199999928474426,163.4499969482422,0.00634765625,0.01959228515625,0.9976806640625,32.5099983215332,0.0,-1.0,0.0478363037109375,0.0560150146484375,Closing,0.0,0.0,0.0,0.0,0.0,0.0,0.0,0.0,
2.960548999999999,0.0,0.0,0.0,0.0,0.0,0.0,0.0,0.0,3.875732025,0.0,0.0,0.0,0.0,0.0,-0.0,0.0,0.0,1.828613094,0.0,0.0,-35.0,0.0,0.0,0.0,0.0,0.0,4.844970207,0.0,0.0012207029999995456,-17.0,0.0,0.0,-0.0,0.0,0.0,2.9589840720000002,0.0,0.0,1.25,0.3199999928474426,163.4499969482422,0.0040283203125,0.02362060546875,1.0118408203125,32.5099983215332,0.0,2.0,0.0478363037109375,0.0560150146484375,Closing,0.0,0.0,0.0,0.0,0.0,0.0,0.0,0.0,
2.9806919999999226,0.0,0.0,0.0,0.0,0.0,0.0,0.0,0.0,3.875732025,0.0,0.0,0.0,0.0,0.0,-0.0,0.0,0.0,1.8310545,0.0,0.0,-35.0,0.0,0.0,0.0,0.0,0.0,4.844970207,0.0,-0.0012207029999995456,-17.0,0.0,0.0,-0.0,0.0,0.0,2.9589840720000002,0.0,0.0,1.2400000095367432,0.3199999928474426,163.4499969482422,0.00469970703125,0.02301025390625,0.9971923828125,32.5099983215332,0.0,1.0,0.0478363037109375,0.0560150146484375,Closing,0.0,0.0,0.0,0.0,0.0,0.0,0.0,0.0,
2.9999619999999414,0.0,0.0,0.0,0.0,0.0,0.0,0.0,0.0,3.876952728,0.0,0.0,0.0,0.0,0.0,-0.0,0.0,0.0,1.829833797,0.0,0.0,-35.0,0.0,0.0,0.0,0.0,0.0,4.843749504,0.0,-0.0012207029999995456,-17.0,0.0,0.0,-0.0,0.0,0.0,2.9602047750000002,0.0,0.0,1.25,0.3199999928474426,163.4499969482422,0.00384521484375,0.02252197265625,1.00396728515625,32.5099983215332,0.0,1.0,0.0478363037109375,0.0560150146484375,Closing,0.0,0.0,0.0,0.0,0.0,0.0,0.0,0.0,
3.0203429999999933,0.0,0.0,0.0,0.0,0.0,0.0,0.0,0.0,3.875732025,0.0,0.0,0.0,0.0,0.0,-0.0,0.0,0.0,1.829833797,0.0,0.0,-35.0,0.0,0.0,0.0,0.0,0.0,4.843749504,0.0,0.0012207029999995456,-17.0,0.0,0.0,-0.0,0.0,0.0,2.9589840720000002,0.0,0.0,1.25,0.3199999928474426,163.4499969482422,0.00750732421875,0.02142333984375,1.00811767578125,32.5099983215332,0.0,-1.0,0.0478363037109375,0.0560150146484375,Closing,0.0,0.0,0.0,0.0,0.0,0.0,0.0,0.0,
3.0395,0.0,0.0,0.0,0.0,0.0,0.0,0.0,0.0,3.875732025,0.0,0.0,0.0,0.0,0.0,-0.0,0.0,0.0,1.829833797,0.0,0.0,-35.0,0.0,0.0,0.0,0.0,0.0,4.843749504,0.0,0.0012207029999995456,-17.0,0.0,0.0,-0.0,0.0,0.0,2.9589840720000002,0.0,0.0,1.2400000095367432,0.3100000023841858,163.4499969482422,0.00640869140625,0.0185546875,1.0059814453125,32.5099983215332,0.0,-1.0,0.0478363037109375,0.0560150146484375,Closing,0.0,0.0,0.0,0.0,0.0,0.0,0.0,0.0,
3.060086999999941,0.0,0.0,0.0,0.0,0.0,0.0,0.0,0.0,3.875732025,0.0,0.0,0.0,0.0,0.0,-0.0,0.0,0.0,1.829833797,0.0,0.0,-35.0,0.0,0.0,0.0,0.0,0.0,4.843749504,0.0,0.0012207029999995456,-17.0,0.0,0.0,-0.0,0.0,0.0,2.9589840720000002,0.0,0.0,1.2400000095367432,0.3199999928474426,163.4499969482422,0.00640869140625,0.02142333984375,0.99566650390625,32.5099983215332,0.0,0.0,0.0478363037109375,0.0560150146484375,Closing,0.0,0.0,0.0,0.0,0.0,0.0,0.0,0.0,
3.0806089999999386,0.0,0.0,0.0,0.0,0.0,0.0,0.0,0.0,3.875732025,0.0,0.0,0.0,0.0,0.0,-0.0,0.0,0.0,1.828613094,0.0,0.0,-35.0,0.0,0.0,0.0,0.0,0.0,4.842528801,0.0,-0.0012207029999995456,-17.0,0.0,0.0,-0.0,0.0,0.0,2.9589840720000002,0.0,0.0,1.2400000095367432,0.3199999928474426,163.4499969482422,0.00408935546875,0.0189208984375,0.9970703125,32.5099983215332,0.0,0.0,0.0478363037109375,0.0560150146484375,Closing,0.0,0.0,0.0,0.0,0.0,0.0,0.0,0.0,
3.099822999999975,0.0,0.0,0.0,0.0,0.0,0.0,0.0,0.0,3.875732025,0.0,0.0,0.0,0.0,0.0,-0.0,0.0,0.0,1.829833797,0.0,0.0,-35.0,0.0,0.0,0.0,0.0,0.0,4.843749504,0.0,-0.0012207029999995456,-17.0,0.0,0.0,-0.0,0.0,0.0,2.9602047750000002,0.0,0.0,1.2400000095367432,0.3199999928474426,163.4499969482422,0.0059814453125,0.0194091796875,1.0115966796875,32.5099983215332,0.0,-1.0,0.0478363037109375,0.0560150146484375,Closing,0.0,0.0,0.0,0.0,0.0,0.0,0.0,0.0,
