Time,ClimberA1,ClimberA2,FRpos,FRCurrent,FRspeed,FRsetpoint,FRApos,FRACurrent,FREncpos,FREncSetpoint,FREncSpeed,FLpos,FLCurrent,FLspeed,FLsetpoint,FLApos,FLACurrent,FLEncpos,FLEncSetpoint,FLEncSpeed,BRpos,BRCurrent,BRspeed,BRsetpoint,BRApos,BRACurrent,BREncpos,BREncSetpoint,BREncSpeed,BLpos,BLCurrent,BLspeed,BLsetpoint,BLApos,BLACurrent,BLEncpos,BLEncSetpoint,BLEncSpeed,navx_Pitch,navx_Roll,navx_Yaw,navx_XAcc,navx_YAcc,navx_ZAcc,navx_Temp,navx_Bar,navx_Alt,navx_XDis,navx_YDis,GearPlacerState,ShootOutputV,ShootOutputCurrent,ShootEncPos,ShootEncVelocity,ShootSpeed,ShootSetpoint,CarouselSetpoint,CarouselCurrent,
0.22820799999998417,0.0,0.0,410.0,0.0,0.0,0.0,0.0,0.0,3.77197227,0.0,0.0,-93.0,0.0,0.0,-0.0,0.0,0.0,1.824950985,0.0,0.0,251.0,0.0,0.0,0.0,0.0,0.0,4.921874496,0.0,0.0,-153.0,0.0,0.0,-0.0,0.0,0.0,3.510741828,0.0,0.0,0.8199999928474426,0.33000001311302185,177.66000366210938,0.03240966796875,-0.03729248046875,0.9990234375,27.440000534057617,0.0,-28.0,-0.243438720703125,-0.40869140625,Closing,0.0,0.0,0.0,0.0,0.0,0.0,0.0,0.0,
0.2923099999999977,0.0,0.0,410.0,0.0,0.0,0.0,0.0,0.0,3.77197227,0.0,0.0,-93.0,0.0,0.0,-0.0,0.0,0.0,1.824950985,0.0,0.0,251.0,0.0,0.0,0.0,0.0,0.0,4.9230951990000005,0.0,0.0,-153.0,0.0,0.0,-0.0,0.0,0.0,3.510741828,0.0,0.0,0.8100000023841858,0.3400000035762787,177.64999389648438,0.03375244140625,0.0201416015625,0.9923095703125,27.440000534057617,0.0,-27.0,-0.2436065673828125,-0.408447265625,Closing,0.0,0.0,0.0,0.0,0.0,0.0,0.0,0.0,
0.3213189999999886,0.0,0.0,410.0,0.0,0.0,0.0,0.0,0.0,3.77197227,0.0,-0.006103515000000392,-93.0,0.0,0.0,-0.0,0.0,0.0,1.824950985,0.0,0.003662109000000413,251.0,0.0,0.0,0.0,0.0,0.0,4.924315902,0.0,0.0183105449999994,-153.0,0.0,0.0,-0.0,0.0,0.0,3.510741828,0.0,-4.270009835,0.8199999928474426,0.3400000035762787,177.64999389648438,0.001953125,-0.01202392578125,1.00640869140625,27.440000534057617,0.0,3.0,-0.2439117431640625,-0.4081573486328125,Closing,0.0,0.0,0.0,0.0,0.0,0.0,0.0,0.0,
0.3507269999999844,0.0,0.0,410.0,0.0,0.0,0.0,0.0,0.0,3.77197227,0.0,-0.006103515000000392,-93.0,0.0,0.0,-0.0,0.0,0.0,1.826171688,0.0,0.003662109000000413,251.0,0.0,0.0,0.0,0.0,0.0,4.9206537930000005,0.0,0.0,-153.0,0.0,0.0,-0.0,0.0,3.75,3.409423479,0.0,0.0,0.8199999928474426,0.33000001311302185,177.64999389648438,0.01373291015625,-0.01226806640625,1.0291748046875,27.440000534057617,0.0,-8.0,-0.24407958984375,-0.407745361328125,Closing,0.0,0.0,0.0,0.0,0.0,0.0,0.0,0.0,
0.3795099999999802,0.0,0.0,410.0,0.0,0.0,0.0,0.0,0.0,3.77197227,0.0,0.0012207029999995456,-93.0,0.0,0.0,-0.0,0.0,0.0,1.824950985,0.0,0.0,251.0,0.0,0.0,0.0,0.0,0.0,4.924315902,0.0,0.0,-153.0,0.0,0.0,-0.0,0.0,4.125,3.292235991,0.0,0.0,0.8199999928474426,0.3499999940395355,177.64999389648438,-0.00994873046875,-0.06689453125,1.01507568359375,27.440000534057617,0.0,12.0,-0.24407958984375,-0.4074554443359375,Closing,0.0,0.0,0.0,0.0,0.0,0.0,0.0,0.0,
0.4073519999999844,0.0,0.0,410.0,0.0,0.0,0.0,0.0,0.0,3.77197227,0.0,-0.0012207029999995456,-93.0,0.0,0.0,-0.0,0.0,0.0,1.824950985,0.0,0.0,251.0,0.0,0.0,0.0,0.0,0.0,4.9206537930000005,0.0,0.0,-153.0,0.0,0.0,-0.0,0.0,0.75,3.143310225,0.0,-0.22827146099999984,0.800000011920929,0.3499999940395355,177.64999389648438,0.0050048828125,0.03326416015625,1.013916015625,27.440000534057617,0.0,-20.0,-0.243988037109375,-0.40625,Closing,0.0,0.0,0.0,0.0,0.0,0.0,0.0,0.0,
0.43394799999997485,0.0,0.0,410.0,0.0,0.0,0.0,0.0,0.0,3.770751567,0.0,-0.0012207029999995456,-93.0,0.0,0.0,-0.0,0.0,0.0,1.824950985,0.0,0.0,251.0,0.0,0.0,0.0,0.0,0.0,4.921874496,0.0,0.0,-153.0,0.0,0.0,-0.0,0.0,0.75,3.0566403120000003,0.0,-0.22827146099999984,0.800000011920929,0.3400000035762787,177.6300048828125,-8.544921875E-4,0.05621337890625,1.0035400390625,27.440000534057617,0.0,8.0,-0.24395751953125,-0.405853271484375,Closing,0.0,0.0,0.0,0.0,0.0,0.0,0.0,0.0,
0.4608070000000007,0.0,0.0,410.0,0.0,0.0,0.0,0.0,0.0,3.77197227,0.0,0.0,-93.0,0.0,0.0,-0.0,0.0,0.0,1.824950985,0.0,0.0,251.0,0.0,0.0,0.0,0.0,0.0,4.924315902,0.0,0.0,-153.0,0.0,0.0,-0.0,0.0,0.375,2.973632508,0.0,-0.22827146099999984,0.8199999928474426,0.33000001311302185,177.60000610351562,0.00537109375,0.01934814453125,1.01483154296875,27.440000534057617,0.0,0.0,-0.24395751953125,-0.405487060546875,Closing,0.0,0.0,0.0,0.0,0.0,0.0,0.0,0.0,
0.49057099999999626,0.0,0.0,410.0,0.0,0.0,0.0,0.0,0.0,3.770751567,0.0,0.0,-93.0,0.0,0.0,-0.0,0.0,0.0,1.824950985,0.0,0.0,251.0,0.0,0.0,0.0,0.0,0.0,4.9206537930000005,0.0,0.0,-152.0,0.0,7.5,-0.0,0.0,0.0,2.939452824,0.0,-0.22827146099999984,0.8299999833106995,0.33000001311302185,177.5800018310547,-0.0091552734375,0.0224609375,1.00933837890625,27.440000534057617,0.0,15.0,-0.24395751953125,-0.405487060546875,Closing,0.0,0.0,0.0,0.0,0.0,0.0,0.0,0.0,
0.5151109999999753,0.0,0.0,410.0,0.0,0.0,0.0,0.0,0.0,3.77197227,0.0,0.0,-93.0,0.0,0.0,-0.0,0.0,0.0,1.824950985,0.0,0.0,251.0,0.0,0.0,0.0,0.0,0.0,4.921874496,0.0,0.0,-152.0,0.0,7.5,-0.0,0.0,0.0,2.918700873,0.0,-0.11352537900000037,0.8299999833106995,0.3199999928474426,177.58999633789062,0.00848388671875,-0.0078125,0.9866943359375,27.440000534057617,0.0,-3.0,-0.24395751953125,-0.4054718017578125,Closing,0.0,0.0,0.0,0.0,0.0,0.0,0.0,0.0,
0.5474489999999933,0.0,0.0,410.0,0.0,0.0,0.0,0.0,0.0,3.77197227,0.0,0.0,-93.0,0.0,0.0,-0.0,0.0,0.0,1.824950985,0.0,0.0,251.0,0.0,0.0,0.0,0.0,0.0,4.924315902,0.0,0.0,-152.0,0.0,0.0,-0.0,0.0,0.0,2.930907903,0.0,-0.11352537900000037,0.8299999833106995,0.3100000023841858,177.60000610351562,0.0048828125,7.32421875E-4,1.04193115234375,27.440000534057617,0.0,0.0,-0.24395751953125,-0.4053955078125,Closing,0.0,0.0,0.0,0.0,0.0,0.0,0.0,0.0,
0.5734449999999779,0.0,0.0,410.0,0.0,0.0,0.0,0.0,0.0,3.77197227,0.0,0.0,-93.0,0.0,0.0,-0.0,0.0,0.0,1.824950985,0.0,0.0012207029999995456,251.0,0.0,0.0,0.0,0.0,0.0,4.921874496,0.0,0.0,-152.0,0.0,0.0,-0.0,0.0,0.0,2.930907903,0.0,-0.010986326999999907,0.8100000023841858,0.33000001311302185,177.60000610351562,0.01025390625,0.01751708984375,0.9923095703125,27.459999084472656,0.0,-4.0,-0.24395751953125,-0.4053955078125,Closing,0.0,0.0,0.0,0.0,0.0,0.0,0.0,0.0,
0.600752999999997,0.0,0.0,410.0,0.0,0.0,0.0,0.0,0.0,3.77197227,0.0,0.0,-93.0,0.0,0.0,-0.0,0.0,0.0,1.824950985,0.0,0.0012207029999995456,251.0,0.0,0.0,0.0,0.0,0.0,4.924315902,0.0,0.0,-152.0,0.0,0.0,-0.0,0.0,0.0,2.930907903,0.0,-0.010986326999999907,0.8199999928474426,0.33000001311302185,177.60000610351562,0.00445556640625,0.016845703125,0.9976806640625,27.459999084472656,0.0,1.0,-0.24395751953125,-0.4053955078125,Closing,0.0,0.0,0.0,0.0,0.0,0.0,0.0,0.0,
0.6294899999999907,0.0,0.0,410.0,0.0,0.0,0.0,0.0,0.0,3.77197227,0.0,0.0,-93.0,0.0,0.0,-0.0,0.0,0.0,1.824950985,0.0,-0.0012207029999995456,251.0,0.0,0.0,0.0,0.0,0.0,4.9230951990000005,0.0,0.0,-152.0,0.0,0.0,-0.0,0.0,0.0,2.930907903,0.0,0.0,0.8299999833106995,0.33000001311302185,177.58999633789062,0.01007080078125,0.0235595703125,1.02301025390625,27.459999084472656,0.0,-3.0,-0.24395751953125,-0.4053955078125,Closing,0.0,0.0,0.0,0.0,0.0,0.0,0.0,0.0,
0.6536469999999972,0.0,0.0,410.0,0.0,0.0,0.0,0.0,0.0,3.77197227,0.0,0.0012207029999995456,-93.0,0.0,0.0,-0.0,0.0,0.0,1.824950985,0.0,0.0,251.0,0.0,0.0,0.0,0.0,0.0,4.921874496,0.0,0.0,-152.0,0.0,0.0,-0.0,0.0,0.0,2.9296872,0.0,0.0,0.8299999833106995,0.33000001311302185,177.60000610351562,0.00628662109375,0.01214599609375,0.98748779296875,27.459999084472656,0.0,0.0,-0.24395751953125,-0.4053955078125,Closing,0.0,0.0,0.0,0.0,0.0,0.0,0.0,0.0,
0.6854709999999905,0.0,0.0,410.0,0.0,0.0,0.0,0.0,0.0,3.77197227,0.0,0.0012207029999995456,-93.0,0.0,0.0,-0.0,0.0,0.0,1.824950985,0.0,0.0,251.0,0.0,0.0,0.0,0.0,0.0,4.9230951990000005,0.0,0.0,-152.0,0.0,0.0,-0.0,0.0,0.0,2.9296872,0.0,0.0,0.8299999833106995,0.33000001311302185,177.60000610351562,-9.1552734375E-4,0.01361083984375,1.031982421875,27.459999084472656,0.0,6.0,-0.24395751953125,-0.4053955078125,Closing,0.0,0.0,0.0,0.0,0.0,0.0,0.0,0.0,
0.7097329999999783,0.0,0.0,410.0,0.0,0.0,0.0,0.0,0.0,3.77197227,0.0,-0.0012207029999995456,-93.0,0.0,0.0,-0.0,0.0,0.0,1.824950985,0.0,0.0,251.0,0.0,0.0,0.0,0.0,0.0,4.921874496,0.0,0.0,-152.0,0.0,0.0,-0.0,0.0,0.0,2.930907903,0.0,0.0,0.8199999928474426,0.33000001311302185,177.60000610351562,0.00689697265625,0.01080322265625,1.0006103515625,27.459999084472656,0.0,-1.0,-0.24395751953125,-0.4053955078125,Closing,0.0,0.0,0.0,0.0,0.0,0.0,0.0,0.0,
0.7360160000000032,0.0,0.0,410.0,0.0,0.0,0.0,0.0,0.0,3.770751567,0.0,-0.0012207029999995456,-93.0,0.0,0.0,-0.0,0.0,0.0,1.824950985,0.0,0.0,251.0,0.0,0.0,0.0,0.0,0.0,4.9230951990000005,0.0,0.0,-152.0,0.0,0.0,-0.0,0.0,0.0,2.9296872,0.0,0.0,0.8299999833106995,0.33000001311302185,177.60000610351562,0.006103515625,0.01971435546875,1.001220703125,27.459999084472656,0.0,0.0,-0.24395751953125,-0.4053955078125,Closing,0.0,0.0,0.0,0.0,0.0,0.0,0.0,0.0,
0.7665160000000033,0.0,0.0,410.0,0.0,0.0,0.0,0.0,0.0,3.773192973,0.0,0.0,-93.0,0.0,0.0,-0.0,0.0,0.0,1.824950985,0.0,0.0,251.0,0.0,0.0,0.0,0.0,0.0,4.9230951990000005,0.0,0.0,-152.0,0.0,0.0,-0.0,0.0,0.0,2.9296872,0.0,0.0,0.8399999737739563,0.33000001311302185,177.60000610351562,0.00244140625,0.0196533203125,1.0302734375,27.459999084472656,0.0,3.0,-0.24395751953125,-0.4053955078125,Closing,0.0,0.0,0.0,0.0,0.0,0.0,0.0,0.0,
0.793875,0.0,0.0,410.0,0.0,0.0,0.0,0.0,0.0,3.77197227,0.0,0.0,-93.0,0.0,0.0,-0.0,0.0,0.0,1.824950985,0.0,0.0,251.0,0.0,0.0,0.0,0.0,0.0,4.9230951990000005,0.0,0.0,-152.0,0.0,0.0,-0.0,0.0,0.0,2.9296872,0.0,0.0,0.8299999833106995,0.33000001311302185,177.60000610351562,0.00628662109375,0.01324462890625,0.9859619140625,27.459999084472656,0.0,0.0,-0.24395751953125,-0.4053955078125,Closing,0.0,0.0,0.0,0.0,0.0,0.0,0.0,0.0,
0.8239100000000035,0.0,0.0,410.0,0.0,0.0,0.0,0.0,0.0,3.77197227,0.0,0.0012207029999995456,-93.0,0.0,0.0,-0.0,0.0,0.0,1.824950985,0.0,0.0,251.0,0.0,0.0,0.0,0.0,0.0,4.924315902,0.0,0.0,-152.0,0.0,0.0,-0.0,0.0,0.0,2.9296872,0.0,0.0,0.8199999928474426,0.33000001311302185,177.60000610351562,0.00823974609375,0.01202392578125,1.0162353515625,27.459999084472656,0.0,-2.0,-0.24395751953125,-0.4053955078125,Closing,0.0,0.0,0.0,0.0,0.0,0.0,0.0,0.0,
0.8517669999999925,0.0,0.0,410.0,0.0,0.0,0.0,0.0,0.0,3.77197227,0.0,0.0,-93.0,0.0,0.0,-0.0,0.0,0.0,1.824950985,0.0,0.0,251.0,0.0,0.0,0.0,0.0,0.0,4.9230951990000005,0.0,0.0,-152.0,0.0,0.0,-0.0,0.0,0.0,2.9296872,0.0,0.0,0.8199999928474426,0.33000001311302185,177.58999633789062,0.0084228515625,0.0196533203125,1.00390625,27.459999084472656,0.0,-2.0,-0.24395751953125,-0.4053955078125,Closing,0.0,0.0,0.0,0.0,0.0,0.0,0.0,0.0,
0.8810109999999987,0.0,0.0,410.0,0.0,0.0,0.0,0.0,0.0,3.77197227,0.0,0.0,-93.0,0.0,0.0,-0.0,0.0,0.0,1.824950985,0.0,0.0,251.0,0.0,0.0,0.0,0.0,0.0,4.924315902,0.0,0.0,-152.0,0.0,0.0,-0.0,0.0,0.0,2.9296872,0.0,0.0,0.8299999833106995,0.33000001311302185,177.60000610351562,0.0101318359375,0.023681640625,1.01171875,27.459999084472656,0.0,-3.0,-0.24395751953125,-0.4053955078125,Closing,0.0,0.0,0.0,0.0,0.0,0.0,0.0,0.0,
0.9083910000000033,0.0,0.0,410.0,0.0,0.0,0.0,0.0,0.0,3.768310161,0.0,-0.0012207029999995456,-93.0,0.0,0.0,-0.0,0.0,0.0,1.826171688,0.0,0.0,251.0,0.0,0.0,0.0,0.0,0.0,4.9230951990000005,0.0,0.0,-152.0,0.0,0.0,-0.0,0.0,0.0,2.930907903,0.0,0.0,0.8299999833106995,0.33000001311302185,177.60000610351562,0.0145263671875,0.01678466796875,1.01043701171875,27.459999084472656,0.0,-8.0,-0.24395751953125,-0.4053955078125,Closing,0.0,0.0,0.0,0.0,0.0,0.0,0.0,0.0,
0.9352329999999783,0.0,0.0,410.0,0.0,0.0,0.0,0.0,0.0,3.773192973,0.0,-0.0012207029999995456,-93.0,0.0,0.0,-0.0,0.0,0.0,1.823730282,0.0,0.0,251.0,0.0,0.0,0.0,0.0,0.0,4.9230951990000005,0.0,0.0,-152.0,0.0,0.0,-0.0,0.0,0.0,2.930907903,0.0,0.0,0.8299999833106995,0.33000001311302185,177.58999633789062,-0.00439453125,0.0069580078125,1.0028076171875,27.459999084472656,0.0,9.0,-0.24395751953125,-0.4053955078125,Closing,0.0,0.0,0.0,0.0,0.0,0.0,0.0,0.0,
0.962978999999992,0.0,0.0,410.0,0.0,0.0,0.0,0.0,0.0,3.773192973,0.0,0.0012207029999995456,-93.0,0.0,0.0,-0.0,0.0,0.0,1.824950985,0.0,0.0,251.0,0.0,0.0,0.0,0.0,0.0,4.9206537930000005,0.0,0.0,-152.0,0.0,0.0,-0.0,0.0,0.0,2.9296872,0.0,0.0,0.8199999928474426,0.33000001311302185,177.58999633789062,0.0048828125,0.0205078125,1.02130126953125,27.459999084472656,0.0,1.0,-0.24395751953125,-0.4053955078125,Closing,0.0,0.0,0.0,0.0,0.0,0.0,0.0,0.0,
0.9930950000000012,0.0,0.0,410.0,0.0,0.0,0.0,0.0,0.0,3.77197227,0.0,0.0012207029999995456,-93.0,0.0,0.0,-0.0,0.0,0.0,1.824950985,0.0,0.0,251.0,0.0,0.0,0.0,0.0,0.0,4.9230951990000005,0.0,0.0,-152.0,0.0,0.0,-0.0,0.0,0.0,2.930907903,0.0,0.0,0.8299999833106995,0.33000001311302185,177.58999633789062,0.00701904296875,0.01513671875,0.992919921875,27.459999084472656,0.0,-1.0,-0.24395751953125,-0.4053955078125,Closing,0.0,0.0,0.0,0.0,0.0,0.0,0.0,0.0,
1.0184400000000022,0.0,0.0,410.0,0.0,0.0,0.0,0.0,0.0,3.77197227,0.0,-0.0012207029999995456,-93.0,0.0,0.0,-0.0,0.0,0.0,1.824950985,0.0,0.0,251.0,0.0,0.0,0.0,0.0,0.0,4.921874496,0.0,0.0,-152.0,0.0,0.0,-0.0,0.0,0.0,2.9296872,0.0,0.0,0.8299999833106995,0.33000001311302185,177.60000610351562,0.0037841796875,0.01708984375,1.008544921875,27.459999084472656,0.0,2.0,-0.24395751953125,-0.4053955078125,Closing,0.0,0.0,0.0,0.0,0.0,0.0,0.0,0.0,
1.0494829999999784,0.0,0.0,410.0,0.0,0.0,0.0,0.0,0.0,3.77197227,0.0,-0.0012207029999995456,-93.0,0.0,0.0,-0.0,0.0,0.0,1.823730282,0.0,0.0,251.0,0.0,0.0,0.0,0.0,0.0,4.9230951990000005,0.0,0.0,-152.0,0.0,0.0,-0.0,0.0,0.0,2.9296872,0.0,0.0,0.8299999833106995,0.33000001311302185,177.60000610351562,0.004638671875,0.00762939453125,1.0047607421875,27.459999084472656,0.0,0.0,-0.24395751953125,-0.4053955078125,Closing,0.0,0.0,0.0,0.0,0.0,0.0,0.0,0.0,
1.075859999999986,0.0,0.0,410.0,0.0,0.0,0.0,0.0,0.0,3.77197227,0.0,0.0,-93.0,0.0,0.0,-0.0,0.0,0.0,1.824950985,0.0,0.0,251.0,0.0,0.0,0.0,0.0,0.0,4.921874496,0.0,0.0,-152.0,0.0,0.0,-0.0,0.0,0.0,2.9296872,0.0,0.0,0.8199999928474426,0.33000001311302185,177.58999633789062,0.005126953125,0.01251220703125,1.00164794921875,27.459999084472656,0.0,0.0,-0.24395751953125,-0.4053955078125,Closing,0.0,0.0,0.0,0.0,0.0,0.0,0.0,0.0,
1.1060219999999972,0.0,0.0,410.0,0.0,0.0,0.0,0.0,0.0,3.773192973,0.0,0.0,-93.0,0.0,0.0,-0.0,0.0,0.0,1.824950985,0.0,0.0,251.0,0.0,0.0,0.0,0.0,0.0,4.924315902,0.0,0.0,-152.0,0.0,0.0,-0.0,0.0,0.0,2.9296872,0.0,0.0,0.8299999833106995,0.3199999928474426,177.60000610351562,0.01092529296875,0.01275634765625,1.010498046875,27.450000762939453,0.0,-5.0,-0.24395751953125,-0.4053955078125,Closing,0.0,0.0,0.0,0.0,0.0,0.0,0.0,0.0,
1.13218299999999,0.0,0.0,410.0,0.0,0.0,0.0,0.0,0.0,3.770751567,0.0,0.0,-93.0,0.0,0.0,-0.0,0.0,0.0,1.824950985,0.0,0.0,251.0,0.0,0.0,0.0,0.0,0.0,4.921874496,0.0,0.0,-152.0,0.0,0.0,-0.0,0.0,0.0,2.928466497,0.0,0.0,0.8199999928474426,0.33000001311302185,177.60000610351562,0.00848388671875,0.00830078125,0.9793701171875,27.450000762939453,0.0,-2.0,-0.24395751953125,-0.4053955078125,Closing,0.0,0.0,0.0,0.0,0.0,0.0,0.0,0.0,
1.1583859999999986,0.0,0.0,410.0,0.0,0.0,0.0,0.0,0.0,3.77197227,0.0,0.0,-93.0,0.0,0.0,-0.0,0.0,0.0,1.824950985,0.0,0.0,251.0,0.0,0.0,0.0,0.0,0.0,4.9230951990000005,0.0,0.0,-152.0,0.0,0.0,-0.0,0.0,0.0,2.930907903,0.0,0.0,0.8399999737739563,0.3199999928474426,177.60000610351562,0.00689697265625,0.01153564453125,0.96075439453125,27.450000762939453,0.0,-1.0,-0.24395751953125,-0.4053955078125,Closing,0.0,0.0,0.0,0.0,0.0,0.0,0.0,0.0,
1.1892390000000015,0.0,0.0,410.0,0.0,0.0,0.0,0.0,0.0,3.770751567,0.0,0.0,-93.0,0.0,0.0,-0.0,0.0,0.0,1.823730282,0.0,0.0,251.0,0.0,0.0,0.0,0.0,0.0,4.921874496,0.0,0.0,-152.0,0.0,0.0,-0.0,0.0,0.0,2.9296872,0.0,0.0,0.8199999928474426,0.33000001311302185,177.60000610351562,0.004638671875,0.010009765625,0.99560546875,27.450000762939453,0.0,0.0,-0.24395751953125,-0.4053955078125,Closing,0.0,0.0,0.0,0.0,0.0,0.0,0.0,0.0,
1.2131440000000002,0.0,0.0,410.0,0.0,0.0,0.0,0.0,0.0,3.77197227,0.0,0.0,-93.0,0.0,0.0,-0.0,0.0,0.0,1.824950985,0.0,0.0,251.0,0.0,0.0,0.0,0.0,0.0,4.921874496,0.0,0.0,-152.0,0.0,0.0,-0.0,0.0,0.0,2.9296872,0.0,0.0,0.8199999928474426,0.33000001311302185,177.60000610351562,0.0062255859375,0.008056640625,1.00299072265625,27.450000762939453,0.0,0.0,-0.24395751953125,-0.4053955078125,Closing,0.0,0.0,0.0,0.0,0.0,0.0,0.0,0.0,
1.2430840000000025,0.0,0.0,410.0,0.0,0.0,0.0,0.0,0.0,3.773192973,0.0,0.0,-93.0,0.0,0.0,-0.0,0.0,0.0,1.824950985,0.0,0.0,251.0,0.0,0.0,0.0,0.0,0.0,4.9206537930000005,0.0,0.0,-152.0,0.0,0.0,-0.0,0.0,0.0,2.930907903,0.0,0.0,0.8199999928474426,0.33000001311302185,177.60000610351562,0.00579833984375,0.015869140625,1.0166015625,27.450000762939453,0.0,0.0,-0.24395751953125,-0.4053955078125,Closing,0.0,0.0,0.0,0.0,0.0,0.0,0.0,0.0,
1.269036999999982,0.0,0.0,410.0,0.0,0.0,0.0,0.0,0.0,3.77197227,0.0,0.0012207029999995456,-93.0,0.0,0.0,-0.0,0.0,0.0,1.824950985,0.0,0.0,251.0,0.0,0.0,0.0,0.0,0.0,4.9230951990000005,0.0,0.0,-152.0,0.0,0.0,-0.0,0.0,0.0,2.9296872,0.0,0.0,0.8199999928474426,0.33000001311302185,177.60000610351562,0.005859375,0.01470947265625,1.0084228515625,27.450000762939453,0.0,0.0,-0.24395751953125,-0.4053955078125,Closing,0.0,0.0,0.0,0.0,0.0,0.0,0.0,0.0,
1.2960629999999946,0.0,0.0,410.0,0.0,0.0,0.0,0.0,0.0,3.77197227,0.0,0.0012207029999995456,-93.0,0.0,0.0,-0.0,0.0,0.0,1.824950985,0.0,0.0,251.0,0.0,0.0,0.0,0.0,0.0,4.9230951990000005,0.0,0.0,-152.0,0.0,0.0,-0.0,0.0,0.0,2.930907903,0.0,0.0,0.8199999928474426,0.33000001311302185,177.60000610351562,0.00909423828125,0.0177001953125,1.0230712890625,27.450000762939453,0.0,-3.0,-0.24395751953125,-0.4053955078125,Closing,0.0,0.0,0.0,0.0,0.0,0.0,0.0,0.0,
1.3296339999999909,0.0,0.0,410.0,0.0,0.0,0.0,0.0,0.0,3.77197227,0.0,-0.0012207029999995456,-93.0,0.0,0.0,-0.0,0.0,0.0,1.824950985,0.0,0.0,251.0,0.0,0.0,0.0,0.0,0.0,4.921874496,0.0,0.0,-152.0,0.0,0.0,-0.0,0.0,0.0,2.930907903,0.0,0.0,0.8199999928474426,0.33000001311302185,177.60000610351562,0.005615234375,0.01190185546875,1.02923583984375,27.450000762939453,0.0,0.0,-0.24395751953125,-0.4053955078125,Closing,0.0,0.0,0.0,0.0,0.0,0.0,0.0,0.0,
1.3545769999999902,0.0,0.0,410.0,0.0,0.0,0.0,0.0,0.0,3.770751567,0.0,0.0,-93.0,0.0,0.0,-0.0,0.0,0.0,1.824950985,0.0,0.0,251.0,0.0,0.0,0.0,0.0,0.0,4.924315902,0.0,0.0,-152.0,0.0,0.0,-0.0,0.0,0.0,2.930907903,0.0,0.0,0.8199999928474426,0.33000001311302185,177.60000610351562,0.00775146484375,0.01531982421875,1.01470947265625,27.450000762939453,0.0,-1.0,-0.24395751953125,-0.4053955078125,Closing,0.0,0.0,0.0,0.0,0.0,0.0,0.0,0.0,
1.4060629999999947,0.0,0.0,410.0,0.0,0.0,0.0,0.0,0.0,3.770751567,0.0,0.0,-93.0,0.0,0.0,-0.0,0.0,0.0,1.824950985,0.0,0.0,251.0,0.0,0.0,0.0,0.0,0.0,4.9230951990000005,0.0,0.0,-152.0,0.0,0.0,-0.0,0.0,0.0,2.9296872,0.0,0.0,0.8199999928474426,0.33000001311302185,177.60000610351562,0.00408935546875,0.0125732421875,1.01922607421875,27.450000762939453,0.0,1.0,-0.24395751953125,-0.4053955078125,Closing,0.0,0.0,0.0,0.0,0.0,0.0,0.0,0.0,
1.430087999999989,0.0,0.0,410.0,0.0,0.0,0.0,0.0,0.0,3.77197227,0.0,0.0,-93.0,0.0,0.0,-0.0,0.0,0.0,1.824950985,0.0,0.0,251.0,0.0,0.0,0.0,0.0,0.0,4.9230951990000005,0.0,0.0,-152.0,0.0,0.0,-0.0,0.0,0.0,2.930907903,0.0,0.0,0.8199999928474426,0.33000001311302185,177.60000610351562,0.01483154296875,0.02056884765625,1.00994873046875,27.450000762939453,0.0,-8.0,-0.24395751953125,-0.4053955078125,Closing,0.0,0.0,0.0,0.0,0.0,0.0,0.0,0.0,
1.456743999999977,0.0,0.0,410.0,0.0,0.0,0.0,0.0,0.0,3.77197227,0.0,0.0,-93.0,0.0,0.0,-0.0,0.0,0.0,1.824950985,0.0,0.0,251.0,0.0,0.0,0.0,0.0,0.0,4.9230951990000005,0.0,0.0,-152.0,0.0,0.0,-0.0,0.0,0.0,2.9296872,0.0,0.0,0.8399999737739563,0.33000001311302185,177.58999633789062,-0.002197265625,0.00372314453125,1.064453125,27.450000762939453,0.0,7.0,-0.24395751953125,-0.4053955078125,Closing,0.0,0.0,0.0,0.0,0.0,0.0,0.0,0.0,
1.4883940000000002,0.0,0.0,410.0,0.0,0.0,0.0,0.0,0.0,3.77197227,0.0,0.0,-93.0,0.0,0.0,-0.0,0.0,0.0,1.824950985,0.0,0.0,251.0,0.0,0.0,0.0,0.0,0.0,4.921874496,0.0,0.0,-152.0,0.0,0.0,-0.0,0.0,0.0,2.930907903,0.0,0.0,0.8199999928474426,0.33000001311302185,177.58999633789062,-4.2724609375E-4,0.015380859375,1.0634765625,27.450000762939453,0.0,6.0,-0.24395751953125,-0.4053955078125,Closing,0.0,0.0,0.0,0.0,0.0,0.0,0.0,0.0,
1.5143509999999951,0.0,0.0,410.0,0.0,0.0,0.0,0.0,0.0,3.77197227,0.0,0.0,-93.0,0.0,0.0,-0.0,0.0,0.0,1.824950985,0.0,0.0,251.0,0.0,0.0,0.0,0.0,0.0,4.9230951990000005,0.0,0.0,-152.0,0.0,0.0,-0.0,0.0,0.0,2.930907903,0.0,0.0,0.8199999928474426,0.33000001311302185,177.58999633789062,0.00469970703125,0.01409912109375,1.01806640625,27.450000762939453,0.0,1.0,-0.24395751953125,-0.4053955078125,Closing,0.0,0.0,0.0,0.0,0.0,0.0,0.0,0.0,
1.5444669999999752,0.0,0.0,410.0,0.0,0.0,0.0,0.0,0.0,3.77197227,0.0,0.0,-93.0,0.0,0.0,-0.0,0.0,0.0,1.824950985,0.0,0.0012207029999995456,251.0,0.0,0.0,0.0,0.0,0.0,4.921874496,0.0,0.0,-152.0,0.0,0.0,-0.0,0.0,0.0,2.930907903,0.0,0.0,0.8199999928474426,0.33000001311302185,177.60000610351562,0.006103515625,0.02886962890625,1.01580810546875,27.450000762939453,0.0,0.0,-0.24395751953125,-0.4053955078125,Closing,0.0,0.0,0.0,0.0,0.0,0.0,0.0,0.0,
1.5712090000000025,0.0,0.0,410.0,0.0,0.0,0.0,0.0,0.0,3.77197227,0.0,0.0012207029999995456,-93.0,0.0,0.0,-0.0,0.0,0.0,1.823730282,0.0,0.0012207029999995456,251.0,0.0,0.0,0.0,0.0,0.0,4.9230951990000005,0.0,0.0,-152.0,0.0,0.0,-0.0,0.0,0.0,2.9296872,0.0,0.0,0.8199999928474426,0.3400000035762787,177.60000610351562,0.010986328125,0.0184326171875,0.9991455078125,27.450000762939453,0.0,-4.0,-0.24395751953125,-0.4053955078125,Closing,0.0,0.0,0.0,0.0,0.0,0.0,0.0,0.0,
1.598566999999981,0.0,0.0,410.0,0.0,0.0,0.0,0.0,0.0,3.770751567,0.0,0.0012207029999995456,-93.0,0.0,0.0,-0.0,0.0,0.0,1.824950985,0.0,-0.0012207029999995456,251.0,0.0,0.0,0.0,0.0,0.0,4.9230951990000005,0.0,0.0,-152.0,0.0,0.0,-0.0,0.0,0.0,2.9296872,0.0,0.0,0.8199999928474426,0.33000001311302185,177.60000610351562,0.0074462890625,0.0096435546875,1.003662109375,27.440000534057617,0.0,-1.0,-0.24395751953125,-0.4053955078125,Closing,0.0,0.0,0.0,0.0,0.0,0.0,0.0,0.0,
1.6283989999999757,0.0,0.0,410.0,0.0,0.0,0.0,0.0,0.0,3.768310161,0.0,0.0,-93.0,0.0,0.0,-0.0,0.0,0.0,1.824950985,0.0,0.0,251.0,0.0,0.0,0.0,0.0,0.0,4.921874496,0.0,0.0,-152.0,0.0,0.0,-0.0,0.0,0.0,2.9296872,0.0,0.0,0.8199999928474426,0.33000001311302185,177.58999633789062,0.0057373046875,0.0135498046875,1.01666259765625,27.440000534057617,0.0,0.0,-0.24395751953125,-0.4053955078125,Closing,0.0,0.0,0.0,0.0,0.0,0.0,0.0,0.0,
1.654782999999996,0.0,0.0,410.0,0.0,0.0,0.0,0.0,0.0,3.77197227,0.0,0.0,-93.0,0.0,0.0,-0.0,0.0,0.0,1.824950985,0.0,0.0,251.0,0.0,0.0,0.0,0.0,0.0,4.921874496,0.0,0.0,-152.0,0.0,0.0,-0.0,0.0,0.0,2.930907903,0.0,0.0,0.8199999928474426,0.3400000035762787,177.58999633789062,0.00250244140625,0.01629638671875,1.010009765625,27.440000534057617,0.0,3.0,-0.24395751953125,-0.4053955078125,Closing,0.0,0.0,0.0,0.0,0.0,0.0,0.0,0.0,
1.6826809999999823,0.0,0.0,410.0,0.0,0.0,0.0,0.0,0.0,3.77197227,0.0,0.0,-93.0,0.0,0.0,-0.0,0.0,0.0,1.824950985,0.0,0.0,251.0,0.0,0.0,0.0,0.0,0.0,4.9230951990000005,0.0,0.0012207030000004337,-152.0,0.0,0.0,-0.0,0.0,0.0,2.930907903,0.0,0.0,0.8199999928474426,0.3400000035762787,177.58999633789062,0.00518798828125,0.0245361328125,1.01397705078125,27.440000534057617,0.0,1.0,-0.24395751953125,-0.4053955078125,Closing,0.0,0.0,0.0,0.0,0.0,0.0,0.0,0.0,
1.7107359999999754,0.0,0.0,410.0,0.0,0.0,0.0,0.0,0.0,3.77197227,0.0,-0.0012207029999995456,-93.0,0.0,0.0,-0.0,0.0,0.0,1.824950985,0.0,0.0,251.0,0.0,0.0,0.0,0.0,0.0,4.921874496,0.0,0.0012207030000004337,-152.0,0.0,0.0,-0.0,0.0,0.0,2.9296872,0.0,0.0,0.8199999928474426,0.33000001311302185,177.58999633789062,0.00396728515625,0.01348876953125,1.0224609375,27.440000534057617,0.0,2.0,-0.24395751953125,-0.4053955078125,Closing,0.0,0.0,0.0,0.0,0.0,0.0,0.0,0.0,
1.7354439999999887,0.0,0.0,410.0,0.0,0.0,0.0,0.0,0.0,3.77197227,0.0,-0.0012207029999995456,-93.0,0.0,0.0,-0.0,0.0,0.0,1.824950985,0.0,0.0,251.0,0.0,0.0,0.0,0.0,0.0,4.9230951990000005,0.0,-0.0012207030000004337,-152.0,0.0,0.0,-0.0,0.0,0.0,2.9296872,0.0,0.0,0.8199999928474426,0.3400000035762787,177.58999633789062,0.00732421875,0.00238037109375,1.008544921875,27.440000534057617,0.0,-1.0,-0.24395751953125,-0.4053955078125,Closing,0.0,0.0,0.0,0.0,0.0,0.0,0.0,0.0,
1.767188999999984,0.0,0.0,410.0,0.0,0.0,0.0,0.0,0.0,3.770751567,0.0,0.0,-93.0,0.0,0.0,-0.0,0.0,0.0,1.824950985,0.0,0.0,251.0,0.0,0.0,0.0,0.0,0.0,4.9230951990000005,0.0,-0.0012207030000004337,-152.0,0.0,0.0,-0.0,0.0,0.0,2.9296872,0.0,0.0,0.8199999928474426,0.3400000035762787,177.58999633789062,0.012451171875,-0.02294921875,0.97332763671875,27.440000534057617,0.0,-8.0,-0.24395751953125,-0.4054107666015625,Closing,0.0,0.0,0.0,0.0,0.0,0.0,0.0,0.0,
1.7942419999999983,0.0,0.0,410.0,0.0,0.0,0.0,0.0,0.0,3.770751567,0.0,0.0,-93.0,0.0,0.0,-0.0,0.0,0.0,1.824950985,0.0,0.0,251.0,0.0,0.0,0.0,0.0,0.0,4.921874496,0.0,0.0,-152.0,0.0,0.0,-0.0,0.0,0.0,2.930907903,0.0,0.0,0.8299999833106995,0.33000001311302185,177.58999633789062,0.00665283203125,0.016845703125,1.01617431640625,27.440000534057617,0.0,0.0,-0.24395751953125,-0.4053955078125,Closing,0.0,0.0,0.0,0.0,0.0,0.0,0.0,0.0,
1.8215689999999887,0.0,0.0,410.0,0.0,0.0,0.0,0.0,0.0,3.769530864,0.0,0.0,-93.0,0.0,0.0,-0.0,0.0,0.0,1.826171688,0.0,0.0,251.0,0.0,0.0,0.0,0.0,0.0,4.9230951990000005,0.0,0.0,-152.0,0.0,0.0,-0.0,0.0,0.0,2.932128606,0.0,0.0,0.8299999833106995,0.3400000035762787,177.58999633789062,0.00518798828125,0.02008056640625,1.054931640625,27.440000534057617,0.0,1.0,-0.24395751953125,-0.4053955078125,Closing,0.0,0.0,0.0,0.0,0.0,0.0,0.0,0.0,
1.8503239999999932,0.0,0.0,410.0,0.0,0.0,0.0,0.0,0.0,3.770751567,0.0,0.0,-93.0,0.0,0.0,-0.0,0.0,0.0,1.823730282,0.0,0.0,251.0,0.0,0.0,0.0,0.0,0.0,4.921874496,0.0,0.0,-152.0,0.0,0.0,-0.0,0.0,0.0,2.930907903,0.0,0.0,0.8199999928474426,0.3499999940395355,177.58999633789062,0.01312255859375,0.00738525390625,0.94476318359375,27.440000534057617,0.0,-7.0,-0.24395751953125,-0.4053955078125,Closing,0.0,0.0,0.0,0.0,0.0,0.0,0.0,0.0,
1.8740629999999947,0.0,0.0,410.0,0.0,0.0,0.0,0.0,0.0,3.77197227,0.0,0.0,-93.0,0.0,0.0,-0.0,0.0,0.0,1.824950985,0.0,0.0,251.0,0.0,0.0,0.0,0.0,0.0,4.921874496,0.0,0.0,-152.0,0.0,0.0,-0.0,0.0,0.0,2.930907903,0.0,0.0,0.8299999833106995,0.33000001311302185,177.58999633789062,0.0054931640625,0.02734375,1.0592041015625,27.440000534057617,0.0,1.0,-0.24395751953125,-0.4053955078125,Closing,0.0,0.0,0.0,0.0,0.0,0.0,0.0,0.0,
1.905185999999987,0.0,0.0,410.0,0.0,0.0,0.0,0.0,0.0,3.770751567,0.0,0.0,-93.0,0.0,0.0,-0.0,0.0,0.0,1.824950985,0.0,0.0,251.0,0.0,0.0,0.0,0.0,0.0,4.924315902,0.0,0.0,-152.0,0.0,0.0,-0.0,0.0,0.0,2.930907903,0.0,0.0,0.8199999928474426,0.3400000035762787,177.58999633789062,0.0126953125,0.006103515625,0.99053955078125,27.440000534057617,0.0,-7.0,-0.24395751953125,-0.4053955078125,Closing,0.0,0.0,0.0,0.0,0.0,0.0,0.0,0.0,
1.929868999999977,0.0,0.0,410.0,0.0,0.0,0.0,0.0,0.0,3.77197227,0.0,0.0,-93.0,0.0,0.0,-0.0,0.0,0.0,1.823730282,0.0,0.0,251.0,0.0,0.0,0.0,0.0,0.0,4.924315902,0.0,0.0,-152.0,0.0,0.0,-0.0,0.0,0.0,2.930907903,0.0,0.0,0.8199999928474426,0.33000001311302185,177.5800018310547,0.00152587890625,0.02667236328125,1.0302734375,27.440000534057617,0.0,5.0,-0.24395751953125,-0.4053955078125,Closing,0.0,0.0,0.0,0.0,0.0,0.0,0.0,0.0,
1.9559259999999776,0.0,0.0,410.0,0.0,0.0,0.0,0.0,0.0,3.77197227,0.0,0.0,-93.0,0.0,0.0,-0.0,0.0,0.0,1.824950985,0.0,0.0,251.0,0.0,0.0,0.0,0.0,0.0,4.9230951990000005,0.0,0.0,-152.0,0.0,0.0,-0.0,0.0,0.0,2.930907903,0.0,0.0,0.8199999928474426,0.3400000035762787,177.5800018310547,0.00848388671875,0.01824951171875,1.0078125,27.440000534057617,0.0,-2.0,-0.24395751953125,-0.4053955078125,Closing,0.0,0.0,0.0,0.0,0.0,0.0,0.0,0.0,
1.9864709999999905,0.0,0.0,410.0,0.0,0.0,0.0,0.0,0.0,3.77197227,0.0,0.0,-93.0,0.0,0.0,-0.0,0.0,0.0,1.824950985,0.0,0.0,251.0,0.0,0.0,0.0,0.0,0.0,4.924315902,0.0,0.0,-152.0,0.0,0.0,-0.0,0.0,0.0,2.928466497,0.0,0.0,0.8199999928474426,0.3400000035762787,177.5800018310547,0.00653076171875,0.01019287109375,0.99249267578125,27.440000534057617,0.0,0.0,-0.24395751953125,-0.4053955078125,Closing,0.0,0.0,0.0,0.0,0.0,0.0,0.0,0.0,
2.0129559999999764,0.0,0.0,410.0,0.0,0.0,0.0,0.0,0.0,3.77197227,0.0,0.0012207029999995456,-93.0,0.0,0.0,-0.0,0.0,0.0,1.824950985,0.0,0.0,251.0,0.0,0.0,0.0,0.0,0.0,4.9230951990000005,0.0,0.0,-152.0,0.0,0.0,-0.0,0.0,0.0,2.930907903,0.0,0.0,0.8199999928474426,0.33000001311302185,177.5800018310547,0.005126953125,0.013671875,1.02545166015625,27.440000534057617,0.0,0.0,-0.24395751953125,-0.4053955078125,Closing,0.0,0.0,0.0,0.0,0.0,0.0,0.0,0.0,
2.0418679999999876,0.0,0.0,410.0,0.0,0.0,0.0,0.0,0.0,3.77197227,0.0,0.0012207029999995456,-93.0,0.0,0.0,-0.0,0.0,0.0,1.824950985,0.0,0.0012207029999995456,251.0,0.0,0.0,0.0,0.0,0.0,4.921874496,0.0,0.0,-152.0,0.0,0.0,-0.0,0.0,0.0,2.9296872,0.0,0.0,0.8199999928474426,0.33000001311302185,177.5800018310547,0.0062255859375,0.01031494140625,1.0018310546875,27.440000534057617,0.0,0.0,-0.24395751953125,-0.4053955078125,Closing,0.0,0.0,0.0,0.0,0.0,0.0,0.0,0.0,
2.070407999999996,0.0,0.0,410.0,0.0,0.0,0.0,0.0,0.0,3.77197227,0.0,-0.0012207029999995456,-93.0,0.0,0.0,-0.0,0.0,0.0,1.824950985,0.0,0.0012207029999995456,251.0,0.0,0.0,0.0,0.0,0.0,4.9230951990000005,0.0,0.0,-152.0,0.0,0.0,-0.0,0.0,0.0,2.930907903,0.0,0.0,0.8199999928474426,0.33000001311302185,177.58999633789062,0.0076904296875,0.0147705078125,0.99871826171875,27.440000534057617,0.0,-1.0,-0.24395751953125,-0.4053955078125,Closing,0.0,0.0,0.0,0.0,0.0,0.0,0.0,0.0,
2.0966789999999746,0.0,0.0,410.0,0.0,0.0,0.0,0.0,0.0,3.77197227,0.0,-0.0012207029999995456,-93.0,0.0,0.0,-0.0,0.0,0.0,1.823730282,0.0,-0.0012207029999995456,251.0,0.0,0.0,0.0,0.0,0.0,4.9230951990000005,0.0,0.0,-152.0,0.0,0.0,-0.0,0.0,0.0,2.9296872,0.0,0.0,0.8199999928474426,0.33000001311302185,177.58999633789062,0.00421142578125,0.01470947265625,1.025634765625,27.459999084472656,0.0,1.0,-0.24395751953125,-0.4053955078125,Closing,0.0,0.0,0.0,0.0,0.0,0.0,0.0,0.0,
2.1250439999999946,0.0,0.0,410.0,0.0,0.0,0.0,0.0,0.0,3.77197227,0.0,0.0,-93.0,0.0,0.0,-0.0,0.0,0.0,1.824950985,0.0,-0.0012207029999995456,251.0,0.0,0.0,0.0,0.0,0.0,4.921874496,0.0,0.0,-152.0,0.0,0.0,-0.0,0.0,0.0,2.930907903,0.0,0.0,0.8199999928474426,0.3400000035762787,177.58999633789062,0.0035400390625,-0.01397705078125,0.98095703125,27.459999084472656,0.0,1.0,-0.24395751953125,-0.4053192138671875,Closing,0.0,0.0,0.0,0.0,0.0,0.0,0.0,0.0,
2.151744999999995,0.0,0.0,410.0,0.0,0.0,0.0,0.0,0.0,3.77197227,0.0,0.0,-93.0,0.0,0.0,-0.0,0.0,0.0,1.823730282,0.0,0.0,251.0,0.0,0.0,0.0,0.0,0.0,4.9230951990000005,0.0,0.0,-152.0,0.0,0.0,-0.0,0.0,0.0,2.9296872,0.0,0.0,0.8199999928474426,0.33000001311302185,177.58999633789062,0.00567626953125,0.02899169921875,1.00897216796875,27.459999084472656,0.0,0.0,-0.24395751953125,-0.4052581787109375,Closing,0.0,0.0,0.0,0.0,0.0,0.0,0.0,0.0,
2.176058999999979,0.0,0.0,410.0,0.0,0.0,0.0,0.0,0.0,3.773192973,0.0,0.0,-93.0,0.0,0.0,-0.0,0.0,0.0,1.824950985,0.0,0.0,251.0,0.0,0.0,0.0,0.0,0.0,4.924315902,0.0,0.0,-152.0,0.0,0.0,-0.0,0.0,0.0,2.9296872,0.0,0.0,0.8299999833106995,0.33000001311302185,177.58999633789062,0.0098876953125,0.0062255859375,0.9959716796875,27.459999084472656,0.0,-4.0,-0.24395751953125,-0.4052581787109375,Closing,0.0,0.0,0.0,0.0,0.0,0.0,0.0,0.0,
2.2075659999999915,0.0,0.0,410.0,0.0,0.0,0.0,0.0,0.0,3.77197227,0.0,0.0,-93.0,0.0,0.0,-0.0,0.0,0.0,1.824950985,0.0,0.0,251.0,0.0,0.0,0.0,0.0,0.0,4.9230951990000005,0.0,0.0,-152.0,0.0,0.0,-0.0,0.0,0.0,2.9296872,0.0,0.0,0.8199999928474426,0.33000001311302185,177.58999633789062,0.01617431640625,0.0150146484375,0.991455078125,27.459999084472656,0.0,-10.0,-0.24395751953125,-0.4052581787109375,Closing,0.0,0.0,0.0,0.0,0.0,0.0,0.0,0.0,
2.232595000000001,0.0,0.0,410.0,0.0,0.0,0.0,0.0,0.0,3.77197227,0.0,0.0,-93.0,0.0,0.0,-0.0,0.0,0.0,1.824950985,0.0,0.0,251.0,0.0,0.0,0.0,0.0,0.0,4.921874496,0.0,0.0,-152.0,0.0,0.0,-0.0,0.0,0.0,2.9296872,0.0,0.0,0.8299999833106995,0.33000001311302185,177.58999633789062,0.00384521484375,0.00518798828125,1.01129150390625,27.459999084472656,0.0,1.0,-0.24395751953125,-0.4052581787109375,Closing,0.0,0.0,0.0,0.0,0.0,0.0,0.0,0.0,
2.2596189999999767,0.0,0.0,410.0,0.0,0.0,0.0,0.0,0.0,3.77197227,0.0,0.0,-93.0,0.0,0.0,-0.0,0.0,0.0,1.826171688,0.0,0.0,251.0,0.0,0.0,0.0,0.0,0.0,4.921874496,0.0,0.0,-152.0,0.0,0.0,-0.0,0.0,0.0,2.930907903,0.0,0.0,0.8199999928474426,0.33000001311302185,177.58999633789062,0.006591796875,0.0045166015625,0.99273681640625,27.459999084472656,0.0,-1.0,-0.24395751953125,-0.4052581787109375,Closing,0.0,0.0,0.0,0.0,0.0,0.0,0.0,0.0,
2.288122000000003,0.0,0.0,410.0,0.0,0.0,0.0,0.0,0.0,3.770751567,0.0,0.0,-93.0,0.0,0.0,-0.0,0.0,0.0,1.824950985,0.0,0.0012207029999995456,251.0,0.0,0.0,0.0,0.0,0.0,4.9230951990000005,0.0,0.0,-152.0,0.0,0.0,-0.0,0.0,0.0,2.930907903,0.0,0.0,0.8199999928474426,0.3400000035762787,177.58999633789062,0.0052490234375,-0.015380859375,0.96728515625,27.459999084472656,0.0,0.0,-0.24395751953125,-0.405242919921875,Closing,0.0,0.0,0.0,0.0,0.0,0.0,0.0,0.0,
2.315404999999999,0.0,0.0,410.0,0.0,0.0,0.0,0.0,0.0,3.77197227,0.0,0.0012207029999995456,-93.0,0.0,0.0,-0.0,0.0,0.0,1.824950985,0.0,0.0012207029999995456,251.0,0.0,0.0,0.0,0.0,0.0,4.9230951990000005,0.0,0.0,-152.0,0.0,0.0,-0.0,0.0,0.0,2.9296872,0.0,0.0,0.8199999928474426,0.33000001311302185,177.58999633789062,0.01617431640625,0.0352783203125,1.0391845703125,27.459999084472656,0.0,-9.0,-0.24395751953125,-0.4052276611328125,Closing,0.0,0.0,0.0,0.0,0.0,0.0,0.0,0.0,
2.349185999999987,0.0,0.0,410.0,0.0,0.0,0.0,0.0,0.0,3.77197227,0.0,0.0012207029999995456,-93.0,0.0,0.0,-0.0,0.0,0.0,1.824950985,0.0,-0.0012207029999995456,251.0,0.0,0.0,0.0,0.0,0.0,4.9230951990000005,0.0,0.0,-152.0,0.0,0.0,-0.0,0.0,0.0,2.926025091,0.0,0.0,0.8100000023841858,0.3400000035762787,177.58999633789062,0.0152587890625,0.0172119140625,0.966552734375,27.459999084472656,0.0,-9.0,-0.24395751953125,-0.4051971435546875,Closing,0.0,0.0,0.0,0.0,0.0,0.0,0.0,0.0,
2.3741259999999893,0.0,0.0,410.0,0.0,0.0,0.0,0.0,0.0,3.77197227,0.0,0.0,-93.0,0.0,0.0,-0.0,0.0,0.0,1.824950985,0.0,0.0,251.0,0.0,0.0,0.0,0.0,0.0,4.921874496,0.0,0.0,-152.0,0.0,0.0,-0.0,0.0,0.0,2.930907903,0.0,-0.0012207029999999897,0.8299999833106995,0.33000001311302185,177.58999633789062,3.0517578125E-4,0.01947021484375,1.06884765625,27.459999084472656,0.0,6.0,-0.24395751953125,-0.4051971435546875,Closing,0.0,0.0,0.0,0.0,0.0,0.0,0.0,0.0,
2.4023839999999907,0.0,0.0,410.0,0.0,0.0,0.0,0.0,0.0,3.77197227,0.0,0.0,-93.0,0.0,0.0,-0.0,0.0,0.0,1.824950985,0.0,0.0,251.0,0.0,0.0,0.0,0.0,0.0,4.924315902,0.0,0.0,-152.0,0.0,0.0,-0.0,0.0,0.0,2.9296872,0.0,-0.0012207029999999897,0.8199999928474426,0.3400000035762787,177.58999633789062,0.010009765625,0.00213623046875,0.96990966796875,27.459999084472656,0.0,-4.0,-0.24395751953125,-0.4051971435546875,Closing,0.0,0.0,0.0,0.0,0.0,0.0,0.0,0.0,
2.430666999999987,0.0,0.0,410.0,0.0,0.0,0.0,0.0,0.0,3.770751567,0.0,0.0,-93.0,0.0,0.0,-0.0,0.0,0.0,1.824950985,0.0,0.0,251.0,0.0,0.0,0.0,0.0,0.0,4.924315902,0.0,0.0,-152.0,0.0,0.0,-0.0,0.0,0.0,2.9296872,0.0,0.0012207029999999897,0.8199999928474426,0.33000001311302185,177.58999633789062,0.00152587890625,0.0069580078125,1.02166748046875,27.459999084472656,0.0,4.0,-0.24395751953125,-0.4051971435546875,Closing,0.0,0.0,0.0,0.0,0.0,0.0,0.0,0.0,
2.455877999999997,0.0,0.0,410.0,0.0,0.0,0.0,0.0,0.0,3.77197227,0.0,-0.0012207029999995456,-93.0,0.0,0.0,-0.0,0.0,0.0,1.824950985,0.0,0.0,251.0,0.0,0.0,0.0,0.0,0.0,4.9230951990000005,0.0,0.0,-152.0,0.0,0.0,-0.0,0.0,0.0,2.9296872,0.0,0.0012207029999999897,0.8199999928474426,0.33000001311302185,177.58999633789062,0.0084228515625,0.01531982421875,1.01715087890625,27.459999084472656,0.0,-2.0,-0.24395751953125,-0.4051971435546875,Closing,0.0,0.0,0.0,0.0,0.0,0.0,0.0,0.0,
2.487131999999983,0.0,0.0,410.0,0.0,0.0,0.0,0.0,0.0,3.770751567,0.0,-0.0012207029999995456,-93.0,0.0,0.0,-0.0,0.0,0.0,1.824950985,0.0,0.0,251.0,0.0,0.0,0.0,0.0,0.0,4.921874496,0.0,0.0,-152.0,0.0,0.0,-0.0,0.0,0.0,2.9296872,0.0,0.0,0.8199999928474426,0.33000001311302185,177.58999633789062,0.0074462890625,0.0155029296875,0.99798583984375,27.459999084472656,0.0,-1.0,-0.24395751953125,-0.4051971435546875,Closing,0.0,0.0,0.0,0.0,0.0,0.0,0.0,0.0,
2.5159469999999855,0.0,0.0,410.0,0.0,0.0,0.0,0.0,0.0,3.77197227,0.0,0.0,-93.0,0.0,0.0,-0.0,0.0,0.0,1.823730282,0.0,0.0,251.0,0.0,0.0,0.0,0.0,0.0,4.921874496,0.0,0.0,-152.0,0.0,0.0,-0.0,0.0,0.0,2.930907903,0.0,0.0,0.8199999928474426,0.33000001311302185,177.58999633789062,0.00360107421875,0.01763916015625,1.02490234375,27.459999084472656,0.0,2.0,-0.24395751953125,-0.4051971435546875,Closing,0.0,0.0,0.0,0.0,0.0,0.0,0.0,0.0,
2.548581999999995,0.0,0.0,410.0,0.0,0.0,0.0,0.0,0.0,3.768310161,0.0,0.0,-93.0,0.0,0.0,-0.0,0.0,0.0,1.824950985,0.0,0.0,251.0,0.0,0.0,0.0,0.0,0.0,4.9206537930000005,0.0,0.0,-152.0,0.0,0.0,-0.0,0.0,0.0,2.930907903,0.0,-0.003662108999999969,0.8199999928474426,0.33000001311302185,177.58999633789062,0.01019287109375,0.00927734375,0.996826171875,27.459999084472656,0.0,-4.0,-0.24395751953125,-0.4051971435546875,Closing,0.0,0.0,0.0,0.0,0.0,0.0,0.0,0.0,
2.5722580000000015,0.0,0.0,410.0,0.0,0.0,0.0,0.0,0.0,3.77197227,0.0,0.0,-93.0,0.0,0.0,-0.0,0.0,0.0,1.824950985,0.0,0.0,251.0,0.0,0.0,0.0,0.0,0.0,4.9230951990000005,0.0,0.0,-152.0,0.0,0.0,-0.0,0.0,0.0,2.926025091,0.0,0.0024414059999999793,0.8199999928474426,0.33000001311302185,177.58999633789062,0.00811767578125,0.00750732421875,1.00982666015625,27.459999084472656,0.0,-2.0,-0.24395751953125,-0.4051971435546875,Closing,0.0,0.0,0.0,0.0,0.0,0.0,0.0,0.0,
2.599048999999999,0.0,0.0,410.0,0.0,0.0,0.0,0.0,0.0,3.77197227,0.0,0.0,-93.0,0.0,0.0,-0.0,0.0,0.0,1.824950985,0.0,0.0,251.0,0.0,0.0,0.0,0.0,0.0,4.924315902,0.0,0.0,-152.0,0.0,0.0,-0.0,0.0,0.0,2.921142279,0.0,0.0024414059999999793,0.8199999928474426,0.33000001311302185,177.58999633789062,0.01153564453125,0.0174560546875,0.9896240234375,27.459999084472656,0.0,-5.0,-0.24395751953125,-0.4051971435546875,Closing,0.0,0.0,0.0,0.0,0.0,0.0,0.0,0.0,
2.627225999999995,0.0,0.0,410.0,0.0,0.0,0.0,0.0,0.0,3.773192973,0.0,0.0012207029999995456,-93.0,0.0,0.0,-0.0,0.0,0.0,1.824950985,0.0,0.0,251.0,0.0,0.0,0.0,0.0,0.0,4.9230951990000005,0.0,0.0,-152.0,0.0,0.0,-0.0,0.0,0.0,2.930907903,0.0,0.0,0.8199999928474426,0.33000001311302185,177.5800018310547,0.00262451171875,0.018798828125,1.021240234375,27.479999542236328,0.0,3.0,-0.24395751953125,-0.4051971435546875,Closing,0.0,0.0,0.0,0.0,0.0,0.0,0.0,0.0,
2.6536989999999934,0.0,0.0,410.0,0.0,0.0,0.0,0.0,0.0,3.770751567,0.0,0.0012207029999995456,-93.0,0.0,0.0,-0.0,0.0,0.0,1.824950985,0.0,0.0,251.0,0.0,0.0,0.0,0.0,0.0,4.924315902,0.0,0.0,-152.0,0.0,0.0,-0.0,0.0,0.0,2.9296872,0.0,0.0,0.8199999928474426,0.33000001311302185,177.5800018310547,0.00555419921875,0.01336669921875,1.00469970703125,27.479999542236328,0.0,0.0,-0.24395751953125,-0.4051971435546875,Closing,0.0,0.0,0.0,0.0,0.0,0.0,0.0,0.0,
2.6827669999999926,0.0,0.0,410.0,0.0,0.0,0.0,0.0,0.0,3.77197227,0.0,-0.0012207029999995456,-93.0,0.0,0.0,-0.0,0.0,0.0,1.824950985,0.0,0.0012207029999995456,251.0,0.0,0.0,0.0,0.0,0.0,4.921874496,0.0,0.0,-152.0,0.0,0.0,-0.0,0.0,0.0,2.9296872,0.0,0.0012207029999999897,0.8199999928474426,0.33000001311302185,177.5800018310547,0.00653076171875,0.01434326171875,1.01580810546875,27.479999542236328,0.0,0.0,-0.24395751953125,-0.4051971435546875,Closing,0.0,0.0,0.0,0.0,0.0,0.0,0.0,0.0,
2.711408999999985,0.0,0.0,410.0,0.0,0.0,0.0,0.0,0.0,3.77197227,0.0,0.0,-93.0,0.0,0.0,-0.0,0.0,0.0,1.823730282,0.0,0.0012207029999995456,251.0,0.0,0.0,0.0,0.0,0.0,4.9230951990000005,0.0,0.0,-152.0,0.0,0.0,-0.0,0.0,0.0,2.924804388,0.0,0.0012207029999999897,0.8199999928474426,0.33000001311302185,177.5800018310547,0.00689697265625,0.01287841796875,0.99969482421875,27.479999542236328,0.0,-1.0,-0.24395751953125,-0.4051971435546875,Closing,0.0,0.0,0.0,0.0,0.0,0.0,0.0,0.0,
2.7367799999999987,0.0,0.0,410.0,0.0,0.0,0.0,0.0,0.0,3.77197227,0.0,0.0,-93.0,0.0,0.0,-0.0,0.0,0.0,1.824950985,0.0,-0.0012207029999995456,251.0,0.0,0.0,0.0,0.0,0.0,4.9230951990000005,0.0,0.0,-152.0,0.0,0.0,-0.0,0.0,0.0,2.926025091,0.0,-0.004882811999999959,0.8199999928474426,0.33000001311302185,177.5800018310547,0.01531982421875,0.04620361328125,1.0255126953125,27.479999542236328,0.0,-7.0,-0.24395751953125,-0.4052276611328125,Closing,0.0,0.0,0.0,0.0,0.0,0.0,0.0,0.0,
2.7679289999999748,0.0,0.0,410.0,0.0,0.0,0.0,0.0,0.0,3.773192973,0.0,0.0012207029999995456,-93.0,0.0,0.0,-0.0,0.0,0.0,1.824950985,0.0,-0.0012207029999995456,251.0,0.0,0.0,0.0,0.0,0.0,4.921874496,0.0,0.0,-152.0,0.0,0.0,-0.0,0.0,0.0,2.924804388,0.0,-0.004882811999999959,0.8299999833106995,0.33000001311302185,177.60000610351562,0.01385498046875,0.0157470703125,1.00732421875,27.479999542236328,0.0,-7.0,-0.24395751953125,-0.40533447265625,Closing,0.0,0.0,0.0,0.0,0.0,0.0,0.0,0.0,
2.795391000000003,0.0,0.0,410.0,0.0,0.0,0.0,0.0,0.0,3.77197227,0.0,0.0012207029999995456,-93.0,0.0,0.0,-0.0,0.0,0.0,1.824950985,0.0,0.0,251.0,0.0,0.0,0.0,0.0,0.0,4.921874496,0.0,0.0,-152.0,0.0,0.0,-0.0,0.0,0.0,2.926025091,0.0,0.0,0.8299999833106995,0.33000001311302185,177.60000610351562,0.00860595703125,0.00775146484375,1.0103759765625,27.479999542236328,0.0,-2.0,-0.24395751953125,-0.40533447265625,Closing,0.0,0.0,0.0,0.0,0.0,0.0,0.0,0.0,
2.824838999999978,0.0,0.0,410.0,0.0,0.0,0.0,0.0,0.0,3.77197227,0.0,0.0,-93.0,0.0,0.0,-0.0,0.0,0.0,1.824950985,0.0,0.0,251.0,0.0,0.0,0.0,0.0,0.0,4.921874496,0.0,0.0,-152.0,0.0,0.0,-0.0,0.0,0.0,2.921142279,0.0,0.0,0.8199999928474426,0.3400000035762787,177.61000061035156,9.765625E-4,0.00469970703125,1.00469970703125,27.479999542236328,0.0,4.0,-0.24395751953125,-0.40533447265625,Closing,0.0,0.0,0.0,0.0,0.0,0.0,0.0,0.0,
2.8523279999999795,0.0,0.0,410.0,0.0,0.0,0.0,0.0,0.0,3.77197227,0.0,0.0,-93.0,0.0,0.0,-0.0,0.0,0.0,1.824950985,0.0,0.0012207029999995456,251.0,0.0,0.0,0.0,0.0,0.0,4.921874496,0.0,0.0,-152.0,0.0,0.0,-0.0,0.0,0.0,2.921142279,0.0,0.0,0.8100000023841858,0.3400000035762787,177.60000610351562,0.01165771484375,0.01116943359375,1.0196533203125,27.479999542236328,0.0,-5.0,-0.24395751953125,-0.40533447265625,Closing,0.0,0.0,0.0,0.0,0.0,0.0,0.0,0.0,
2.877463999999978,0.0,0.0,410.0,0.0,0.0,0.0,0.0,0.0,3.77197227,0.0,-0.0012207029999995456,-93.0,0.0,0.0,-0.0,0.0,0.0,1.824950985,0.0,0.0,251.0,0.0,0.0,0.0,0.0,0.0,4.9230951990000005,0.0,0.0012207030000004337,-152.0,0.0,0.0,-0.0,0.0,0.0,2.919921576,0.0,-0.003662108999999969,0.8100000023841858,0.3400000035762787,177.60000610351562,0.027099609375,-0.0228271484375,1.0224609375,27.479999542236328,0.0,-22.0,-0.2439727783203125,-0.405303955078125,Closing,0.0,0.0,0.0,0.0,0.0,0.0,0.0,0.0,
2.9103559999999997,0.0,0.0,410.0,0.0,0.0,0.0,0.0,0.0,3.770751567,0.0,0.0012207029999995456,-93.0,0.0,0.0,-0.0,0.0,0.0,1.824950985,0.0,0.0,251.0,0.0,0.0,0.0,0.0,0.0,4.921874496,0.0,0.0012207030000004337,-152.0,0.0,0.0,-0.0,0.0,0.0,2.919921576,0.0,-0.003662108999999969,0.8199999928474426,0.33000001311302185,177.60000610351562,0.0078125,0.02001953125,0.99884033203125,27.479999542236328,0.0,-1.0,-0.2440032958984375,-0.4052276611328125,Closing,0.0,0.0,0.0,0.0,0.0,0.0,0.0,0.0,
2.9355899999999964,0.0,0.0,410.0,0.0,0.0,0.0,0.0,0.0,3.77197227,0.0,0.0012207029999995456,-93.0,0.0,0.0,-0.0,0.0,0.0,1.824950985,0.0,-0.0012207029999995456,251.0,0.0,0.0,0.0,0.0,0.0,4.924315902,0.0,-0.0012207030000004337,-152.0,0.0,0.0,-0.0,0.0,0.0,2.921142279,0.0,-0.0012207029999999897,0.8199999928474426,0.33000001311302185,177.58999633789062,0.01373291015625,0.008056640625,1.05377197265625,27.479999542236328,0.0,-7.0,-0.2440032958984375,-0.4052276611328125,Closing,0.0,0.0,0.0,0.0,0.0,0.0,0.0,0.0,
2.9679289999999745,0.0,0.0,410.0,0.0,0.0,0.0,0.0,0.0,3.774413676,0.0,-0.0012207029999995456,-93.0,0.0,0.0,-0.0,0.0,0.0,1.824950985,0.0,-0.0012207029999995456,251.0,0.0,0.0,0.0,0.0,0.0,4.9230951990000005,0.0,-0.0012207030000004337,-152.0,0.0,0.0,-0.0,0.0,0.0,2.919921576,0.0,-0.0012207029999999897,0.8199999928474426,0.33000001311302185,177.58999633789062,0.00482177734375,0.01861572265625,0.9891357421875,27.479999542236328,0.0,1.0,-0.2440032958984375,-0.4052276611328125,Closing,0.0,0.0,0.0,0.0,0.0,0.0,0.0,0.0,
2.9957519999999787,0.0,0.0,410.0,0.0,0.0,0.0,0.0,0.0,3.77197227,0.0,-0.0012207029999995456,-93.0,0.0,0.0,-0.0,0.0,0.0,1.824950985,0.0,0.0012207029999995456,251.0,0.0,0.0,0.0,0.0,0.0,4.921874496,0.0,0.0,-152.0,0.0,0.0,-0.0,0.0,0.0,2.921142279,0.0,0.0,0.8100000023841858,0.33000001311302185,177.5800018310547,0.01068115234375,0.00830078125,1.00311279296875,27.479999542236328,0.0,-5.0,-0.2440032958984375,-0.4052276611328125,Closing,0.0,0.0,0.0,0.0,0.0,0.0,0.0,0.0,
3.027076000000001,0.0,0.0,410.0,0.0,0.0,0.0,0.0,0.0,3.77197227,0.0,0.0,-93.0,0.0,0.0,-0.0,0.0,0.0,1.824950985,0.0,0.0,251.0,0.0,0.0,0.0,0.0,0.0,4.9206537930000005,0.0,0.0,-152.0,0.0,0.0,-0.0,0.0,0.0,2.921142279,0.0,0.0,0.8199999928474426,0.33000001311302185,177.58999633789062,0.01171875,0.0196533203125,1.01678466796875,27.479999542236328,0.0,-5.0,-0.2440032958984375,-0.4052276611328125,Closing,0.0,0.0,0.0,0.0,0.0,0.0,0.0,0.0,
3.054804999999993,0.0,0.0,410.0,0.0,0.0,0.0,0.0,0.0,3.77197227,0.0,0.0,-93.0,0.0,0.0,-0.0,0.0,0.0,1.826171688,0.0,0.0,251.0,0.0,0.0,0.0,0.0,0.0,4.9230951990000005,0.0,0.0,-152.0,0.0,0.0,-0.0,0.0,0.0,2.921142279,0.0,0.0,0.8199999928474426,0.33000001311302185,177.58999633789062,0.0098876953125,0.03533935546875,1.0145263671875,27.479999542236328,0.0,-3.0,-0.2440032958984375,-0.405242919921875,Closing,0.0,0.0,0.0,0.0,0.0,0.0,0.0,0.0,
3.0877969999999912,0.0,0.0,410.0,0.0,0.0,0.0,0.0,0.0,3.770751567,0.0,0.0012207029999995456,-93.0,0.0,0.0,-0.0,0.0,0.0,1.824950985,0.0,-0.0012207029999995456,251.0,0.0,0.0,0.0,0.0,0.0,4.9230951990000005,0.0,0.0,-152.0,0.0,0.0,-0.0,0.0,0.0,2.921142279,0.0,0.0,0.8299999833106995,0.33000001311302185,177.5800018310547,-0.0089111328125,0.025390625,1.0738525390625,27.479999542236328,0.0,15.0,-0.2440032958984375,-0.4052734375,Closing,0.0,0.0,0.0,0.0,0.0,0.0,0.0,0.0,
3.11491399999999,0.0,0.0,410.0,0.0,0.0,0.0,0.0,0.0,3.773192973,0.0,-0.0012207029999995456,-93.0,0.0,0.0,-0.0,0.0,0.0,1.824950985,0.0,-0.0012207029999995456,251.0,0.0,0.0,0.0,0.0,0.0,4.924315902,0.0,0.0,-152.0,0.0,0.0,-0.0,0.0,0.0,2.921142279,0.0,0.0,0.8199999928474426,0.33000001311302185,177.5800018310547,0.00848388671875,0.0032958984375,0.95684814453125,27.479999542236328,0.0,-3.0,-0.2440032958984375,-0.4052734375,Closing,0.0,0.0,0.0,0.0,0.0,0.0,0.0,0.0,
3.1500350000000035,0.0,0.0,410.0,0.0,0.0,0.0,0.0,0.0,3.77197227,0.0,-0.0012207029999995456,-93.0,0.0,0.0,-0.0,0.0,0.0,1.823730282,0.0,0.0,251.0,0.0,0.0,0.0,0.0,0.0,4.921874496,0.0,0.0,-152.0,0.0,0.0,-0.0,0.0,0.0,2.921142279,0.0,0.0,0.8299999833106995,0.3199999928474426,177.5800018310547,0.00408935546875,0.02386474609375,1.02899169921875,27.469999313354492,0.0,2.0,-0.2440032958984375,-0.4052734375,Closing,0.0,0.0,0.0,0.0,0.0,0.0,0.0,0.0,
3.175713999999978,0.0,0.0,410.0,0.0,0.0,0.0,0.0,0.0,3.77197227,0.0,0.0,-93.0,0.0,0.0,-0.0,0.0,0.0,1.824950985,0.0,0.0,251.0,0.0,0.0,0.0,0.0,0.0,4.9230951990000005,0.0,0.0,-152.0,0.0,0.0,-0.0,0.0,0.0,2.940673527,0.0,0.0,0.8199999928474426,0.33000001311302185,177.5800018310547,0.01043701171875,0.026611328125,1.0081787109375,27.469999313354492,0.0,-4.0,-0.2440032958984375,-0.4052734375,Closing,0.0,0.0,0.0,0.0,0.0,0.0,0.0,0.0,
3.2074590000000027,0.0,0.0,410.0,0.0,0.0,0.0,0.0,0.0,3.77197227,0.0,0.0,-93.0,0.0,0.0,-0.0,0.0,0.0,1.824950985,0.0,0.0,251.0,0.0,0.0,0.0,0.0,0.0,4.9230951990000005,0.0,0.0,-152.0,0.0,0.0,-0.0,0.0,0.0,2.921142279,0.0,0.0,0.8199999928474426,0.33000001311302185,177.5800018310547,0.01068115234375,0.005859375,1.00518798828125,27.469999313354492,0.0,-5.0,-0.2440032958984375,-0.4052734375,Closing,0.0,0.0,0.0,0.0,0.0,0.0,0.0,0.0,
3.2328919999999925,0.0,0.0,410.0,0.0,0.0,0.0,0.0,0.0,3.77197227,0.0,0.0,-93.0,0.0,0.0,-0.0,0.0,0.0,1.824950985,0.0,0.0012207029999995456,251.0,0.0,0.0,0.0,0.0,0.0,4.9230951990000005,0.0,0.0,-152.0,0.0,0.0,-0.0,0.0,0.0,2.921142279,0.0,0.0,0.8199999928474426,0.33000001311302185,177.5800018310547,0.0084228515625,0.0177001953125,1.0194091796875,27.469999313354492,0.0,-2.0,-0.2440032958984375,-0.4052734375,Closing,0.0,0.0,0.0,0.0,0.0,0.0,0.0,0.0,
3.2658279999999795,0.0,0.0,410.0,0.0,0.0,0.0,0.0,0.0,3.77197227,0.0,0.0,-93.0,0.0,0.0,-0.0,0.0,0.0,1.824950985,0.0,0.0012207029999995456,251.0,0.0,0.0,0.0,0.0,0.0,4.921874496,0.0,0.0,-152.0,0.0,0.0,-0.0,0.0,0.0,2.921142279,0.0,0.0,0.8199999928474426,0.33000001311302185,177.5800018310547,6.103515625E-4,0.02227783203125,1.0235595703125,27.469999313354492,0.0,5.0,-0.2440032958984375,-0.4052734375,Closing,0.0,0.0,0.0,0.0,0.0,0.0,0.0,0.0,
3.2947179999999934,0.0,0.0,410.0,0.0,0.0,0.0,0.0,0.0,3.77197227,0.0,0.0,-93.0,0.0,0.0,-0.0,0.0,0.0,1.824950985,0.0,-0.0012207029999995456,251.0,0.0,0.0,0.0,0.0,0.0,4.921874496,0.0,0.0,-152.0,0.0,0.0,-0.0,0.0,0.0,2.921142279,0.0,0.0,0.8199999928474426,0.33000001311302185,177.5800018310547,3.0517578125E-4,0.02099609375,1.0340576171875,27.469999313354492,0.0,6.0,-0.2440032958984375,-0.4052734375,Closing,0.0,0.0,0.0,0.0,0.0,0.0,0.0,0.0,
3.3245989999999876,0.0,0.0,410.0,0.0,0.0,0.0,0.0,0.0,3.770751567,0.0,0.0,-93.0,0.0,0.0,-0.0,0.0,0.0,1.824950985,0.0,-0.0012207029999995456,251.0,0.0,0.0,0.0,0.0,0.0,4.9230951990000005,0.0,0.0,-152.0,0.0,0.0,-0.0,0.0,0.0,2.919921576,0.0,0.0,0.8199999928474426,0.33000001311302185,177.5800018310547,0.0028076171875,0.01629638671875,1.02105712890625,27.469999313354492,0.0,3.0,-0.2440032958984375,-0.4052734375,Closing,0.0,0.0,0.0,0.0,0.0,0.0,0.0,0.0,
3.3540229999999864,0.0,0.0,410.0,0.0,0.0,0.0,0.0,0.0,3.77197227,0.0,0.0,-93.0,0.0,0.0,-0.0,0.0,0.0,1.824950985,0.0,0.0,251.0,0.0,0.0,0.0,0.0,0.0,4.921874496,0.0,0.0,-152.0,0.0,0.0,-0.0,0.0,0.0,2.919921576,0.0,0.0,0.8199999928474426,0.33000001311302185,177.5800018310547,0.00677490234375,0.0086669921875,1.01544189453125,27.469999313354492,0.0,-1.0,-0.2440032958984375,-0.4052734375,Closing,0.0,0.0,0.0,0.0,0.0,0.0,0.0,0.0,
3.3847299999999816,0.0,0.0,410.0,0.0,0.0,0.0,0.0,0.0,3.770751567,0.0,0.0012207029999995456,-93.0,0.0,0.0,-0.0,0.0,0.0,1.823730282,0.0,0.0,251.0,0.0,0.0,0.0,0.0,0.0,4.921874496,0.0,0.0,-152.0,0.0,0.0,-0.0,0.0,0.0,2.921142279,0.0,0.0,0.8199999928474426,0.33000001311302185,177.5800018310547,0.01031494140625,0.0120849609375,0.99066162109375,27.469999313354492,0.0,-4.0,-0.2440032958984375,-0.4052734375,Closing,0.0,0.0,0.0,0.0,0.0,0.0,0.0,0.0,
3.4141330000000014,0.0,0.0,410.0,0.0,0.0,0.0,0.0,0.0,3.77197227,0.0,-0.0012207029999995456,-93.0,0.0,0.0,-0.0,0.0,0.0,1.824950985,0.0,0.0,251.0,0.0,0.0,0.0,0.0,0.0,4.924315902,0.0,0.0,-152.0,0.0,0.0,-0.0,0.0,0.0,2.921142279,0.0,0.0,0.8199999928474426,0.33000001311302185,177.5800018310547,0.009033203125,0.01666259765625,1.02105712890625,27.469999313354492,0.0,-2.0,-0.2440032958984375,-0.4052734375,Closing,0.0,0.0,0.0,0.0,0.0,0.0,0.0,0.0,
3.4438209999999962,0.0,0.0,410.0,0.0,0.0,0.0,0.0,0.0,3.77197227,0.0,-0.0012207029999995456,-93.0,0.0,0.0,-0.0,0.0,0.0,1.824950985,0.0,0.0,251.0,0.0,0.0,0.0,0.0,0.0,4.9230951990000005,0.0,0.0,-152.0,0.0,0.0,-0.0,0.0,0.0,2.921142279,0.0,0.0,0.8199999928474426,0.3400000035762787,177.5800018310547,0.00616455078125,0.009521484375,0.99493408203125,27.469999313354492,0.0,0.0,-0.2440032958984375,-0.4052734375,Closing,0.0,0.0,0.0,0.0,0.0,0.0,0.0,0.0,
3.4716999999999825,0.0,0.0,410.0,0.0,0.0,0.0,0.0,0.0,3.770751567,0.0,0.0,-93.0,0.0,0.0,-0.0,0.0,0.0,1.824950985,0.0,0.0,251.0,0.0,0.0,0.0,0.0,0.0,4.924315902,0.0,0.0,-152.0,0.0,0.0,-0.0,0.0,0.0,2.921142279,0.0,0.0,0.8199999928474426,0.33000001311302185,177.5800018310547,0.0029296875,0.012451171875,1.01556396484375,27.469999313354492,0.0,2.0,-0.2440032958984375,-0.4052734375,Closing,0.0,0.0,0.0,0.0,0.0,0.0,0.0,0.0,
3.502875,0.0,0.0,410.0,0.0,0.0,0.0,0.0,0.0,3.770751567,0.0,0.0,-93.0,0.0,0.0,-0.0,0.0,0.0,1.824950985,0.0,0.0,251.0,0.0,0.0,0.0,0.0,0.0,4.924315902,0.0,0.0,-152.0,0.0,0.0,-0.0,0.0,0.0,2.919921576,0.0,0.0,0.8199999928474426,0.33000001311302185,177.5800018310547,0.004150390625,0.01336669921875,1.00787353515625,27.469999313354492,0.0,1.0,-0.2440032958984375,-0.4052734375,Closing,0.0,0.0,0.0,0.0,0.0,0.0,0.0,0.0,
3.531286999999982,0.0,0.0,410.0,0.0,0.0,0.0,0.0,0.0,3.77197227,0.0,0.0012207029999995456,-93.0,0.0,0.0,-0.0,0.0,0.0,1.824950985,0.0,0.0,251.0,0.0,0.0,0.0,0.0,0.0,4.9230951990000005,0.0,0.0,-152.0,0.0,0.0,-0.0,0.0,0.0,2.921142279,0.0,0.0,0.8199999928474426,0.33000001311302185,177.5800018310547,0.01080322265625,0.022216796875,1.0225830078125,27.469999313354492,0.0,-4.0,-0.2440032958984375,-0.4052734375,Closing,0.0,0.0,0.0,0.0,0.0,0.0,0.0,0.0,
3.5626499999999943,0.0,0.0,410.0,0.0,0.0,0.0,0.0,0.0,3.767089458,0.0,-0.0012207029999995456,-93.0,0.0,0.0,-0.0,0.0,0.0,1.824950985,0.0,0.0,251.0,0.0,0.0,0.0,0.0,0.0,4.9230951990000005,0.0,0.0,-152.0,0.0,0.0,-0.0,0.0,0.0,2.919921576,0.0,0.0,0.8199999928474426,0.33000001311302185,177.5800018310547,0.00823974609375,0.01593017578125,1.0277099609375,27.469999313354492,0.0,-2.0,-0.2440032958984375,-0.4052734375,Closing,0.0,0.0,0.0,0.0,0.0,0.0,0.0,0.0,
3.5901900000000024,0.0,0.0,410.0,0.0,0.0,0.0,0.0,0.0,3.77197227,0.0,-0.0012207029999995456,-93.0,0.0,0.0,-0.0,0.0,0.0,1.824950985,0.0,0.0,251.0,0.0,0.0,0.0,0.0,0.0,4.9230951990000005,0.0,0.0,-152.0,0.0,0.0,-0.0,0.0,0.0,2.921142279,0.0,0.0,0.8199999928474426,0.3400000035762787,177.5800018310547,0.011474609375,0.00677490234375,0.98797607421875,27.469999313354492,0.0,-5.0,-0.2440032958984375,-0.4052734375,Closing,0.0,0.0,0.0,0.0,0.0,0.0,0.0,0.0,
3.617962999999989,0.0,0.0,410.0,0.0,0.0,0.0,0.0,0.0,3.77197227,0.0,0.0012207029999995456,-93.0,0.0,0.0,-0.0,0.0,0.0,1.824950985,0.0,0.0,251.0,0.0,0.0,0.0,0.0,0.0,4.921874496,0.0,0.0,-152.0,0.0,0.0,-0.0,0.0,0.0,2.919921576,0.0,0.0,0.8199999928474426,0.33000001311302185,177.5800018310547,7.32421875E-4,0.0228271484375,1.05010986328125,27.469999313354492,0.0,5.0,-0.2440032958984375,-0.4052734375,Closing,0.0,0.0,0.0,0.0,0.0,0.0,0.0,0.0,
3.654427999999985,0.0,0.0,410.0,0.0,0.0,0.0,0.0,0.0,3.77197227,0.0,0.0012207029999995456,-93.0,0.0,0.0,-0.0,0.0,0.0,1.824950985,0.0,0.0012207029999995456,251.0,0.0,0.0,0.0,0.0,0.0,4.9206537930000005,0.0,0.0012207030000004337,-152.0,0.0,0.0,-0.0,0.0,0.0,2.921142279,0.0,0.0,0.8199999928474426,0.33000001311302185,177.5800018310547,-0.0078125,0.02557373046875,1.1002197265625,27.510000228881836,0.0,14.0,-0.2440032958984375,-0.4052734375,Closing,0.0,0.0,0.0,0.0,0.0,0.0,0.0,0.0,
3.686057000000001,0.0,0.0,410.0,0.0,0.0,0.0,0.0,0.0,3.77197227,0.0,-0.0012207029999995456,-93.0,0.0,0.0,-0.0,0.0,0.0,1.823730282,0.0,-0.0012207029999995456,251.0,0.0,0.0,0.0,0.0,0.0,4.9230951990000005,0.0,-0.0012207030000004337,-152.0,0.0,0.0,-0.0,0.0,0.0,2.919921576,0.0,0.0,0.800000011920929,0.3499999940395355,177.5800018310547,0.0164794921875,0.0032958984375,0.90008544921875,27.510000228881836,0.0,-11.0,-0.2440032958984375,-0.4052734375,Closing,0.0,0.0,0.0,0.0,0.0,0.0,0.0,0.0,
3.7124309999999823,0.0,0.0,410.0,0.0,0.0,0.0,0.0,0.0,3.77197227,0.0,0.0,-93.0,0.0,0.0,-0.0,0.0,0.0,1.824950985,0.0,-0.0012207029999995456,251.0,0.0,0.0,0.0,0.0,0.0,4.9230951990000005,0.0,-0.0012207030000004337,-152.0,0.0,0.0,-0.0,0.0,0.0,2.921142279,0.0,0.0,0.8299999833106995,0.33000001311302185,177.5800018310547,0.00128173828125,0.0306396484375,1.08856201171875,27.510000228881836,0.0,5.0,-0.2440032958984375,-0.4052734375,Closing,0.0,0.0,0.0,0.0,0.0,0.0,0.0,0.0,
3.741938999999984,0.0,0.0,410.0,0.0,0.0,0.0,0.0,0.0,3.77197227,0.0,0.0,-93.0,0.0,0.0,-0.0,0.0,0.0,1.824950985,0.0,0.0,251.0,0.0,0.0,0.0,0.0,0.0,4.921874496,0.0,0.0,-152.0,0.0,0.0,-0.0,0.0,0.0,2.921142279,0.0,0.0,0.8100000023841858,0.3400000035762787,177.5800018310547,0.01068115234375,0.012939453125,0.98077392578125,27.510000228881836,0.0,-4.0,-0.2440032958984375,-0.4052734375,Closing,0.0,0.0,0.0,0.0,0.0,0.0,0.0,0.0,
3.7712580000000018,0.0,0.0,410.0,0.0,0.0,0.0,0.0,0.0,3.770751567,0.0,0.0012207029999995456,-93.0,0.0,0.0,-0.0,0.0,0.0,1.824950985,0.0,0.0,251.0,0.0,0.0,0.0,0.0,0.0,4.924315902,0.0,0.0,-152.0,0.0,0.0,-0.0,0.0,0.0,2.921142279,0.0,0.0,0.8199999928474426,0.33000001311302185,177.57000732421875,0.00982666015625,0.0113525390625,1.00909423828125,27.510000228881836,0.0,-3.0,-0.2440032958984375,-0.4052734375,Closing,0.0,0.0,0.0,0.0,0.0,0.0,0.0,0.0,
3.8019649999999965,0.0,0.0,410.0,0.0,0.0,0.0,0.0,0.0,3.77197227,0.0,0.0012207029999995456,-93.0,0.0,0.0,-0.0,0.0,0.0,1.824950985,0.0,0.0,251.0,0.0,0.0,0.0,0.0,0.0,4.921874496,0.0,0.0,-152.0,0.0,0.0,-0.0,0.0,0.0,2.921142279,0.0,0.0,0.8199999928474426,0.33000001311302185,177.57000732421875,0.00665283203125,0.0205078125,1.0196533203125,27.510000228881836,0.0,0.0,-0.2440032958984375,-0.4052734375,Closing,0.0,0.0,0.0,0.0,0.0,0.0,0.0,0.0,
3.8299739999999876,0.0,0.0,410.0,0.0,0.0,0.0,0.0,0.0,3.77197227,0.0,0.0,-93.0,0.0,0.0,-0.0,0.0,0.0,1.824950985,0.0,0.0,251.0,0.0,0.0,0.0,0.0,0.0,4.921874496,0.0,0.0,-152.0,0.0,0.0,-0.0,0.0,0.0,2.921142279,0.0,0.0,0.8199999928474426,0.3400000035762787,177.5800018310547,0.00714111328125,0.0118408203125,0.99908447265625,27.510000228881836,0.0,-1.0,-0.2440032958984375,-0.4052734375,Closing,0.0,0.0,0.0,0.0,0.0,0.0,0.0,0.0,
3.862029999999999,0.0,0.0,410.0,0.0,0.0,0.0,0.0,0.0,3.77197227,0.0,-0.0012207029999995456,-93.0,0.0,0.0,-0.0,0.0,0.0,1.824950985,0.0,0.0,251.0,0.0,0.0,0.0,0.0,0.0,4.9230951990000005,0.0,0.0,-152.0,0.0,0.0,-0.0,0.0,0.0,2.919921576,0.0,0.0,0.8199999928474426,0.33000001311302185,177.5800018310547,0.00732421875,0.027587890625,1.01788330078125,27.510000228881836,0.0,0.0,-0.2440032958984375,-0.4052734375,Closing,0.0,0.0,0.0,0.0,0.0,0.0,0.0,0.0,
3.8899619999999997,0.0,0.0,410.0,0.0,0.0,0.0,0.0,0.0,3.770751567,0.0,-0.0012207029999995456,-93.0,0.0,0.0,-0.0,0.0,0.0,1.824950985,0.0,0.0,251.0,0.0,0.0,0.0,0.0,0.0,4.921874496,0.0,0.0,-152.0,0.0,0.0,-0.0,0.0,0.0,2.921142279,0.0,0.0,0.8199999928474426,0.33000001311302185,177.57000732421875,0.00927734375,0.02667236328125,1.0191650390625,27.510000228881836,0.0,-2.0,-0.2440032958984375,-0.4052734375,Closing,0.0,0.0,0.0,0.0,0.0,0.0,0.0,0.0,
3.9169379999999947,0.0,0.0,410.0,0.0,0.0,0.0,0.0,0.0,3.77197227,0.0,0.0012207029999995456,-93.0,0.0,0.0,-0.0,0.0,0.0,1.824950985,0.0,0.0,251.0,0.0,0.0,0.0,0.0,0.0,4.9230951990000005,0.0,0.0,-152.0,0.0,0.0,-0.0,0.0,0.0,2.919921576,0.0,0.0,0.8199999928474426,0.33000001311302185,177.57000732421875,0.0086669921875,0.0074462890625,1.012939453125,27.510000228881836,0.0,-2.0,-0.2440032958984375,-0.4052734375,Closing,0.0,0.0,0.0,0.0,0.0,0.0,0.0,0.0,
3.9493129999999947,0.0,0.0,410.0,0.0,0.0,0.0,0.0,0.0,3.77197227,0.0,0.0012207029999995456,-93.0,0.0,0.0,-0.0,0.0,0.0,1.822509579,0.0,0.0,251.0,0.0,0.0,0.0,0.0,0.0,4.9230951990000005,0.0,0.0,-152.0,0.0,0.0,-0.0,0.0,0.0,2.921142279,0.0,0.0,0.8199999928474426,0.33000001311302185,177.57000732421875,0.00555419921875,0.01287841796875,1.01300048828125,27.510000228881836,0.0,0.0,-0.2440032958984375,-0.4052734375,Closing,0.0,0.0,0.0,0.0,0.0,0.0,0.0,0.0,
3.975386999999988,0.0,0.0,410.0,0.0,0.0,0.0,0.0,0.0,3.770751567,0.0,-0.0012207029999995456,-93.0,0.0,0.0,-0.0,0.0,0.0,1.824950985,0.0,0.0,251.0,0.0,0.0,0.0,0.0,0.0,4.921874496,0.0,0.0,-152.0,0.0,0.0,-0.0,0.0,0.0,2.921142279,0.0,0.0,0.8199999928474426,0.33000001311302185,177.57000732421875,-0.0013427734375,0.0113525390625,1.015869140625,27.510000228881836,0.0,7.0,-0.2440032958984375,-0.4052734375,Closing,0.0,0.0,0.0,0.0,0.0,0.0,0.0,0.0,
4.008065000000002,0.0,0.0,410.0,0.0,0.0,0.0,0.0,0.0,3.77197227,0.0,-0.0012207029999995456,-93.0,0.0,0.0,-0.0,0.0,0.0,1.824950985,0.0,0.0,251.0,0.0,0.0,0.0,0.0,0.0,4.9230951990000005,0.0,0.0,-152.0,0.0,0.0,-0.0,0.0,0.0,2.921142279,0.0,0.0,0.8199999928474426,0.33000001311302185,177.57000732421875,0.0093994140625,0.01806640625,1.001953125,27.510000228881836,0.0,-3.0,-0.2440032958984375,-0.4052734375,Closing,0.0,0.0,0.0,0.0,0.0,0.0,0.0,0.0,
4.033446999999986,0.0,0.0,410.0,0.0,0.0,0.0,0.0,0.0,3.77197227,0.0,0.0,-93.0,0.0,0.0,-0.0,0.0,0.0,1.824950985,0.0,0.0,251.0,0.0,0.0,0.0,0.0,0.0,4.9230951990000005,0.0,0.0,-152.0,0.0,0.0,-0.0,0.0,0.0,2.921142279,0.0,0.0,0.8199999928474426,0.33000001311302185,177.57000732421875,0.00311279296875,0.02166748046875,1.02667236328125,27.510000228881836,0.0,3.0,-0.2440032958984375,-0.4052734375,Closing,0.0,0.0,0.0,0.0,0.0,0.0,0.0,0.0,
4.0675899999999965,0.0,0.0,410.0,0.0,0.0,0.0,0.0,0.0,3.77197227,0.0,0.0,-93.0,0.0,0.0,-0.0,0.0,0.0,1.824950985,0.0,0.0,251.0,0.0,0.0,0.0,0.0,0.0,4.9230951990000005,0.0,0.0,-152.0,0.0,0.0,-0.0,0.0,0.0,2.921142279,0.0,0.0,0.8199999928474426,0.33000001311302185,177.57000732421875,0.01019287109375,0.0108642578125,0.9818115234375,27.510000228881836,0.0,-4.0,-0.2440032958984375,-0.4052734375,Closing,0.0,0.0,0.0,0.0,0.0,0.0,0.0,0.0,
