Time,ClimberA1,ClimberA2,FRpos,FRCurrent,FRspeed,FRsetpoint,FRApos,FRACurrent,FREncpos,FREncSetpoint,FREncSpeed,FLpos,FLCurrent,FLspeed,FLsetpoint,FLApos,FLACurrent,FLEncpos,FLEncSetpoint,FLEncSpeed,BRpos,BRCurrent,BRspeed,BRsetpoint,BRApos,BRACurrent,BREncpos,BREncSetpoint,BREncSpeed,BLpos,BLCurrent,BLspeed,BLsetpoint,BLApos,BLACurrent,BLEncpos,BLEncSetpoint,BLEncSpeed,navx_Pitch,navx_Roll,navx_Yaw,navx_XAcc,navx_YAcc,navx_ZAcc,navx_Temp,navx_Bar,navx_Alt,navx_XDis,navx_YDis,GearPlacerState,ShootOutputV,ShootOutputCurrent,ShootEncPos,ShootEncVelocity,ShootSpeed,ShootSetpoint,CarouselSetpoint,CarouselCurrent,
0.21527800000000208,0.0,0.0,2190.0,0.0,0.0,0.0,0.0,0.0,3.80859336,0.01,0.0,-10211.0,0.0,0.0,0.0,0.0,0.0,1.824950985,0.01,0.0,2143.0,0.0,0.0,0.0,0.0,0.0,4.893798327,0.01,0.0,-10013.0,0.0,0.0,0.0,0.0,0.0,2.8515622080000003,0.01,0.0,1.100000023841858,0.6899999976158142,-20.729999542236328,0.0103759765625,0.01409912109375,0.99249267578125,34.11000061035156,0.0,0.0,-0.123565673828125,-0.6307373046875,Waiting,0.0,0.0,-4484.0,0.0,0.0,0.0,0.0,0.0,
0.271474000000002,0.0,0.0,2190.0,0.0,0.0,0.0,0.0,0.0,3.80859336,0.0,0.0,-10211.0,0.0,0.0,-0.0,0.0,0.0,1.824950985,0.0,0.0,2143.0,0.0,0.0,0.0,0.0,0.0,4.893798327,0.0,0.0,-10013.0,0.0,0.0,-0.0,0.0,0.0,2.8527829110000003,0.0,0.0,1.090000033378601,0.6899999976158142,-20.739999771118164,0.01226806640625,0.01910400390625,0.99920654296875,34.11000061035156,0.0,0.0,-0.123565673828125,-0.6307373046875,Closing,0.0,0.0,-4484.0,0.0,0.0,0.0,0.0,0.0,
0.2931480000000011,0.0,0.0,2190.0,0.0,0.0,0.0,0.0,0.0,3.80859336,0.0,0.0,-10211.0,0.0,0.0,-0.0,0.0,0.0,1.824950985,0.0,0.0,2143.0,0.0,0.0,0.0,0.0,0.0,4.892577624,0.0,0.0,-10013.0,0.0,0.0,-0.0,0.0,0.0,2.8515622080000003,0.0,4.9290622079999995,1.090000033378601,0.6899999976158142,-20.729999542236328,0.01019287109375,0.01690673828125,1.00067138671875,34.11000061035156,0.0,-1.0,-0.123565673828125,-0.6307373046875,Closing,0.0,0.0,-4484.0,0.0,0.0,0.0,0.0,0.0,
0.3248500000000022,0.0,0.0,2190.0,0.0,0.0,0.0,0.0,0.125,3.80859336,0.0,4.931372657000001,-10211.0,0.0,0.0,-0.0,0.0,0.0,1.824950985,0.0,-0.12726971800000086,2143.0,0.0,0.0,0.0,0.0,0.0,4.893798327,0.0,0.012577624000000398,-10013.0,0.0,0.0,-0.0,0.0,0.0,2.8527829110000003,0.0,4.9290622079999995,1.090000033378601,0.6899999976158142,-20.739999771118164,0.0146484375,0.022705078125,1.01361083984375,34.11000061035156,0.0,0.0,-0.123565673828125,-0.6307373046875,Closing,0.0,0.0,-4484.0,0.0,0.0,0.0,0.0,0.0,
0.34739700000000084,0.0,0.0,2190.0,0.0,0.0,0.0,0.0,0.125,3.804931251,0.0,4.931372657000001,-10211.0,0.0,0.0,-0.0,0.0,0.0,1.8383787180000002,0.0,-0.12726971800000086,2143.0,0.0,0.0,0.0,0.0,0.0,4.892577624,0.0,0.012577624000000398,-10013.0,0.0,0.0,-0.0,0.0,0.0,2.8540036140000002,0.0,0.0012207030000004337,1.090000033378601,0.6899999976158142,-20.729999542236328,0.01348876953125,0.0201416015625,1.00970458984375,34.11000061035156,0.0,0.0,-0.123565673828125,-0.6307373046875,Closing,0.0,0.0,-4484.0,0.0,0.0,0.0,0.0,0.0,
0.3720430000000015,0.0,0.0,2190.0,0.0,0.0,0.0,0.0,0.125,3.807372657,0.0,0.0,-10211.0,0.0,0.0,-0.0,0.0,0.0,1.8701169960000001,0.0,0.004882811999999959,2143.0,0.0,0.0,0.0,0.0,0.0,4.892577624,0.0,0.0,-10013.0,0.0,0.0,-0.0,0.0,0.0,2.8527829110000003,0.0,0.0012207030000004337,1.090000033378601,0.699999988079071,-20.729999542236328,0.015869140625,0.0201416015625,0.9951171875,34.11000061035156,0.0,2.0,-0.123565673828125,-0.6307373046875,Closing,0.0,0.0,-4484.0,0.0,0.0,0.0,0.0,0.0,
0.4163150000000023,0.0,0.0,2190.0,0.0,0.0,0.0,0.0,0.125,3.80859336,0.0,0.0,-10211.0,0.0,0.0,-0.0,0.0,0.0,1.901855274,0.0,0.03906249600000056,2143.0,0.0,0.0,0.0,0.0,0.0,4.892577624,0.0,0.0,-10013.0,0.0,0.0,-0.0,0.0,0.0,2.8540036140000002,0.0,0.0,1.100000023841858,0.699999988079071,-20.729999542236328,0.01251220703125,0.02276611328125,0.99383544921875,34.11000061035156,0.0,-1.0,-0.123565673828125,-0.6307373046875,Closing,0.0,0.0,-4484.0,0.0,0.0,0.0,0.0,0.0,
0.4435740000000005,0.0,0.0,2190.0,0.0,0.0,0.0,0.0,0.125,3.80859336,0.0,0.0,-10211.0,0.0,0.0,-0.0,0.0,0.0,1.9140623040000002,0.0,0.03906249600000056,2143.0,0.0,0.0,0.0,0.0,0.0,4.893798327,0.0,0.0,-10013.0,0.0,0.0,-0.0,0.0,0.0,2.8540036140000002,0.0,0.0,1.100000023841858,0.699999988079071,-20.729999542236328,0.00823974609375,0.021240234375,0.991455078125,34.11000061035156,0.0,-4.0,-0.123565673828125,-0.6307373046875,Closing,0.0,0.0,-4484.0,0.0,0.0,0.0,0.0,0.0,
0.46852100000000063,0.0,0.0,2190.0,0.0,0.0,0.0,0.0,0.125,3.80859336,0.0,0.0012207029999995456,-10211.0,0.0,0.0,-0.0,0.0,0.0,1.931152146,0.0,0.037841793000000123,2143.0,0.0,0.0,0.0,0.0,0.0,4.892577624,0.0,0.0,-10013.0,0.0,0.0,-0.0,0.0,0.0,2.8527829110000003,0.0,0.0,1.100000023841858,0.6899999976158142,-20.729999542236328,0.00848388671875,0.018310546875,0.9984130859375,34.11000061035156,0.0,-3.0,-0.123565673828125,-0.6307373046875,Closing,0.0,0.0,-4484.0,0.0,0.0,0.0,0.0,0.0,
0.4907230000000018,0.0,0.0,2190.0,0.0,0.0,0.0,0.0,0.125,3.807372657,0.0,0.0012207029999995456,-10211.0,0.0,0.0,-0.0,0.0,0.0,1.9409177700000002,0.0,0.037841793000000123,2143.0,0.0,0.0,0.0,0.0,0.0,4.893798327,0.0,0.0,-10013.0,0.0,0.0,-0.0,0.0,0.0,2.8540036140000002,0.0,0.0,1.100000023841858,0.6899999976158142,-20.729999542236328,0.0054931640625,0.01690673828125,1.00421142578125,34.11000061035156,0.0,-5.0,-0.123565673828125,-0.6307373046875,Closing,0.0,0.0,-4484.0,0.0,0.0,0.0,0.0,0.0,
0.5139630000000034,0.0,0.0,2190.0,0.0,0.0,0.0,0.0,0.125,3.807372657,0.0,-0.0012207029999995456,-10211.0,0.0,0.0,-0.0,0.0,0.0,1.9506833940000001,0.0,0.029296871999999752,2143.0,0.0,0.0,0.0,0.0,0.0,4.892577624,0.0,0.0,-10013.0,0.0,0.0,-0.0,0.0,0.0,2.8540036140000002,0.0,-0.0012207030000004337,1.100000023841858,0.6899999976158142,-20.729999542236328,0.0103759765625,0.01861572265625,1.00604248046875,34.11000061035156,0.0,-1.0,-0.123565673828125,-0.6307373046875,Closing,0.0,0.0,-4484.0,0.0,0.0,0.0,0.0,0.0,
0.5352490000000034,0.0,0.0,2190.0,0.0,0.0,0.0,0.0,0.125,3.807372657,0.0,-0.0012207029999995456,-10211.0,0.0,0.0,-0.0,0.0,0.0,1.9506833940000001,0.0,0.029296871999999752,2143.0,0.0,0.0,0.0,0.0,0.0,4.892577624,0.0,0.0,-10013.0,0.0,0.0,-0.0,0.0,0.0,2.8527829110000003,0.0,-0.0012207030000004337,1.100000023841858,0.6899999976158142,-20.729999542236328,0.01336669921875,0.0186767578125,0.99725341796875,34.11000061035156,0.0,1.0,-0.123565673828125,-0.6307373046875,Closing,0.0,0.0,-4484.0,0.0,0.0,0.0,0.0,0.0,
0.556640000000003,0.0,0.0,2190.0,0.0,0.0,0.0,0.0,0.125,3.80859336,0.0,0.0,-10211.0,0.0,0.0,-0.0,0.0,0.0,1.9506833940000001,0.0,0.014648435999999876,2143.0,0.0,0.0,0.0,0.0,0.0,4.893798327,0.0,0.0,-10013.0,0.0,0.0,-0.0,0.0,0.0,2.8540036140000002,0.0,0.0012207030000004337,1.100000023841858,0.6899999976158142,-20.729999542236328,0.01336669921875,0.02239990234375,1.00299072265625,34.11000061035156,0.0,0.0,-0.123565673828125,-0.6307373046875,Closing,0.0,0.0,-4484.0,0.0,0.0,0.0,0.0,0.0,
0.5858700000000027,0.0,0.0,2190.0,0.0,0.0,0.0,0.0,0.125,3.80859336,0.0,0.0,-10211.0,0.0,0.0,-0.0,0.0,0.0,1.9506833940000001,0.0,0.014648435999999876,2143.0,0.0,0.0,0.0,0.0,0.0,4.892577624,0.0,0.0,-10013.0,0.0,0.0,-0.0,0.0,0.0,2.8527829110000003,0.0,0.0012207030000004337,1.100000023841858,0.6899999976158142,-20.729999542236328,0.01483154296875,0.016357421875,0.997802734375,34.11000061035156,0.0,3.0,-0.123565673828125,-0.6307373046875,Closing,0.0,0.0,-4484.0,0.0,0.0,0.0,0.0,0.0,
0.6087750000000015,0.0,0.0,2190.0,0.0,0.0,0.0,0.0,0.125,3.80859336,0.0,0.0,-10211.0,0.0,0.0,-0.0,0.0,0.0,1.9494626910000001,0.0,0.0,2143.0,0.0,0.0,0.0,0.0,0.0,4.892577624,0.0,0.0,-10013.0,0.0,0.0,-0.0,0.0,0.0,2.8527829110000003,0.0,0.0,1.100000023841858,0.6899999976158142,-20.729999542236328,0.0125732421875,0.018310546875,0.99749755859375,34.11000061035156,0.0,0.0,-0.123565673828125,-0.6307373046875,Closing,0.0,0.0,-4484.0,0.0,0.0,0.0,0.0,0.0,
0.6322030000000013,0.0,0.0,2190.0,0.0,0.0,0.0,0.0,0.125,3.80859336,0.0,0.0,-10211.0,0.0,0.0,-0.0,0.0,0.0,1.9506833940000001,0.0,0.0,2143.0,0.0,0.0,0.0,0.0,0.0,4.893798327,0.0,0.0,-10013.0,0.0,0.0,-0.0,0.0,0.0,2.8527829110000003,0.0,0.0,1.100000023841858,0.6899999976158142,-20.729999542236328,0.0137939453125,0.01715087890625,0.99993896484375,34.11000061035156,0.0,2.0,-0.123565673828125,-0.6307373046875,Closing,0.0,0.0,-4484.0,0.0,0.0,0.0,0.0,0.0,
0.6525690000000032,0.0,0.0,2190.0,0.0,0.0,0.0,0.0,0.125,3.80859336,0.0,0.0,-10211.0,0.0,0.0,-0.0,0.0,0.0,1.9494626910000001,0.0,0.0,2143.0,0.0,0.0,0.0,0.0,0.0,4.892577624,0.0,0.0,-10013.0,0.0,0.0,-0.0,0.0,0.0,2.8527829110000003,0.0,-0.0012207030000004337,1.100000023841858,0.6899999976158142,-20.729999542236328,0.01171875,0.018310546875,1.014404296875,34.11000061035156,0.0,0.0,-0.123565673828125,-0.6307373046875,Closing,0.0,0.0,-4484.0,0.0,0.0,0.0,0.0,0.0,
0.6796060000000034,0.0,0.0,2190.0,0.0,0.0,0.0,0.0,0.125,3.80859336,0.0,0.0,-10211.0,0.0,0.0,-0.0,0.0,0.0,1.9494626910000001,0.0,0.0,2143.0,0.0,0.0,0.0,0.0,0.0,4.89501903,0.0,0.0,-10013.0,0.0,0.0,-0.0,0.0,0.0,2.8527829110000003,0.0,-0.0012207030000004337,1.100000023841858,0.6899999976158142,-20.729999542236328,0.01220703125,0.01434326171875,0.9793701171875,34.11000061035156,0.0,1.0,-0.123565673828125,-0.6307373046875,Closing,0.0,0.0,-4484.0,0.0,0.0,0.0,0.0,0.0,
0.7059170000000012,0.0,0.0,2190.0,0.0,0.0,0.0,0.0,0.125,3.80859336,0.0,0.0012207029999995456,-10211.0,0.0,0.0,-0.0,0.0,0.0,1.9494626910000001,0.0,0.0,2143.0,0.0,0.0,0.0,0.0,0.0,4.893798327,0.0,0.0,-10013.0,0.0,0.0,-0.0,0.0,0.0,2.8540036140000002,0.0,0.0012207030000004337,1.100000023841858,0.6899999976158142,-20.729999542236328,0.00982666015625,0.02227783203125,1.01788330078125,34.11000061035156,0.0,-3.0,-0.123565673828125,-0.6307373046875,Closing,0.0,0.0,-4484.0,0.0,0.0,0.0,0.0,0.0,
0.7357090000000026,0.0,0.0,2190.0,0.0,0.0,0.0,0.0,0.125,3.80859336,0.0,0.0012207029999995456,-10211.0,0.0,0.0,-0.0,0.0,0.0,1.9506833940000001,0.0,0.0,2143.0,0.0,0.0,0.0,0.0,0.0,4.892577624,0.0,0.0,-10013.0,0.0,0.0,-0.0,0.0,0.0,2.8527829110000003,0.0,0.0012207030000004337,1.100000023841858,0.6899999976158142,-20.729999542236328,0.0111083984375,0.0184326171875,0.99041748046875,34.08000183105469,0.0,0.0,-0.123565673828125,-0.6307373046875,Closing,0.0,0.0,-4484.0,0.0,0.0,0.0,0.0,0.0,
0.781166000000001,0.0,0.0,2190.0,0.0,0.0,0.0,0.0,0.125,3.80859336,0.0,0.0,-10211.0,0.0,0.0,-0.0,0.0,0.0,1.9506833940000001,0.0,0.0,2143.0,0.0,0.0,0.0,0.0,0.0,4.893798327,0.0,0.0,-10013.0,0.0,0.0,-0.0,0.0,0.0,2.8540036140000002,0.0,0.0,1.1100000143051147,0.6899999976158142,-20.729999542236328,0.00909423828125,0.02154541015625,1.02740478515625,34.08000183105469,0.0,-3.0,-0.123565673828125,-0.6307373046875,Closing,0.0,0.0,-4484.0,0.0,0.0,0.0,0.0,0.0,
0.8086190000000024,0.0,0.0,2190.0,0.0,0.0,0.0,0.0,0.125,3.80859336,0.0,0.0,-10211.0,0.0,0.0,-0.0,0.0,0.0,1.9519040970000001,0.0,0.0,2143.0,0.0,0.0,0.0,0.0,0.0,4.89501903,0.0,0.0,-10013.0,0.0,0.0,-0.0,0.0,0.0,2.8527829110000003,0.0,0.0,1.100000023841858,0.6899999976158142,-20.729999542236328,0.01483154296875,0.01947021484375,0.98162841796875,34.08000183105469,0.0,2.0,-0.123565673828125,-0.6307373046875,Closing,0.0,0.0,-4484.0,0.0,0.0,0.0,0.0,0.0,
0.831112000000001,0.0,0.0,2190.0,0.0,0.0,0.0,0.0,0.125,3.80859336,0.0,0.0,-10211.0,0.0,0.0,-0.0,0.0,0.0,1.9506833940000001,0.0,0.0,2143.0,0.0,0.0,0.0,0.0,0.0,4.892577624,0.0,0.0,-10013.0,0.0,0.0,-0.0,0.0,0.0,2.8527829110000003,0.0,0.0,1.100000023841858,0.699999988079071,-20.729999542236328,0.0123291015625,0.01708984375,1.0091552734375,34.08000183105469,0.0,0.0,-0.123565673828125,-0.6307373046875,Closing,0.0,0.0,-4484.0,0.0,0.0,0.0,0.0,0.0,
0.8510730000000003,0.0,0.0,2190.0,0.0,0.0,0.0,0.0,0.125,3.80859336,0.0,0.0,-10211.0,0.0,0.0,-0.0,0.0,0.0,1.9494626910000001,0.0,0.0,2143.0,0.0,0.0,0.0,0.0,0.0,4.893798327,0.0,0.0,-10013.0,0.0,0.0,-0.0,0.0,0.0,2.8540036140000002,0.0,0.0,1.100000023841858,0.6899999976158142,-20.729999542236328,0.0155029296875,0.01812744140625,0.99334716796875,34.08000183105469,0.0,3.0,-0.123565673828125,-0.6307373046875,Closing,0.0,0.0,-4484.0,0.0,0.0,0.0,0.0,0.0,
0.8863810000000012,0.0,0.0,2190.0,0.0,0.0,0.0,0.0,0.125,3.80859336,0.0,-0.0012207029999995456,-10211.0,0.0,0.0,-0.0,0.0,0.0,1.9506833940000001,0.0,0.0,2143.0,0.0,0.0,0.0,0.0,0.0,4.893798327,0.0,0.0,-10013.0,0.0,0.0,-0.0,0.0,0.0,2.8527829110000003,0.0,0.0,1.100000023841858,0.699999988079071,-20.729999542236328,0.013427734375,0.02215576171875,1.0240478515625,34.08000183105469,0.0,0.0,-0.123565673828125,-0.6307373046875,Closing,0.0,0.0,-4484.0,0.0,0.0,0.0,0.0,0.0,
0.9113680000000022,0.0,0.0,2190.0,0.0,0.0,0.0,0.0,0.125,3.807372657,0.0,0.0,-10211.0,0.0,0.0,-0.0,0.0,0.0,1.9506833940000001,0.0,0.0,2143.0,0.0,0.0,0.0,0.0,0.0,4.893798327,0.0,0.0,-10013.0,0.0,0.0,-0.0,0.0,0.0,2.8527829110000003,0.0,0.0,1.100000023841858,0.699999988079071,-20.729999542236328,0.012939453125,0.01519775390625,0.97698974609375,34.08000183105469,0.0,2.0,-0.123565673828125,-0.6307373046875,Closing,0.0,0.0,-4484.0,0.0,0.0,0.0,0.0,0.0,
0.9500110000000023,0.0,0.0,2190.0,0.0,0.0,0.0,0.0,0.125,3.80859336,0.0,0.0,-10211.0,0.0,0.0,-0.0,0.0,0.0,1.9494626910000001,0.0,0.0,2143.0,0.0,0.0,0.0,0.0,0.0,4.893798327,0.0,0.0,-10013.0,0.0,0.0,-0.0,0.0,0.0,2.8515622080000003,0.0,0.0,1.100000023841858,0.6899999976158142,-20.729999542236328,0.01055908203125,0.01629638671875,1.01458740234375,34.08000183105469,0.0,0.0,-0.123565673828125,-0.6307373046875,Closing,0.0,0.0,-4484.0,0.0,0.0,0.0,0.0,0.0,
0.971666000000001,0.0,0.0,2190.0,0.0,0.0,0.0,0.0,0.125,3.80859336,0.0,0.0012207029999995456,-10211.0,0.0,0.0,-0.0,0.0,0.0,1.9506833940000001,0.0,0.0,2143.0,0.0,0.0,0.0,0.0,0.0,4.893798327,0.0,0.0,-10013.0,0.0,0.0,-0.0,0.0,0.0,2.8515622080000003,0.0,0.0,1.100000023841858,0.6899999976158142,-20.729999542236328,0.0113525390625,0.01715087890625,0.9862060546875,34.08000183105469,0.0,0.0,-0.123565673828125,-0.6307373046875,Closing,0.0,0.0,-4484.0,0.0,0.0,0.0,0.0,0.0,
0.9910340000000033,0.0,0.0,2190.0,0.0,0.0,0.0,0.0,0.125,3.80859336,0.0,0.0012207029999995456,-10211.0,0.0,0.0,-0.0,0.0,0.0,1.9506833940000001,0.0,0.0,2143.0,0.0,0.0,0.0,0.0,0.0,4.893798327,0.0,0.0,-10013.0,0.0,0.0,-0.0,0.0,0.0,2.8540036140000002,0.0,0.0,1.100000023841858,0.6899999976158142,-20.729999542236328,0.0103759765625,0.021240234375,0.99615478515625,34.08000183105469,0.0,-2.0,-0.123565673828125,-0.6307373046875,Closing,0.0,0.0,-4484.0,0.0,0.0,0.0,0.0,0.0,
1.0130650000000023,0.0,0.0,2190.0,0.0,0.0,0.0,0.0,0.125,3.807372657,0.0,-0.0012207029999995456,-10211.0,0.0,0.0,-0.0,0.0,0.0,1.9506833940000001,0.0,0.0,2143.0,0.0,0.0,0.0,0.0,0.0,4.892577624,0.0,0.0,-10013.0,0.0,0.0,-0.0,0.0,0.0,2.8527829110000003,0.0,0.0,1.100000023841858,0.6899999976158142,-20.729999542236328,0.00970458984375,0.01824951171875,0.99102783203125,34.08000183105469,0.0,-1.0,-0.123565673828125,-0.6307373046875,Closing,0.0,0.0,-4484.0,0.0,0.0,0.0,0.0,0.0,
1.0321510000000016,0.0,0.0,2190.0,0.0,0.0,0.0,0.0,0.125,3.809814063,0.0,-0.0012207029999995456,-10211.0,0.0,0.0,-0.0,0.0,0.0,1.9506833940000001,0.0,0.0,2143.0,0.0,0.0,0.0,0.0,0.0,4.892577624,0.0,0.0,-10013.0,0.0,0.0,-0.0,0.0,0.0,2.8527829110000003,0.0,0.0,1.100000023841858,0.6899999976158142,-20.729999542236328,0.01324462890625,0.01922607421875,0.986572265625,34.08000183105469,0.0,1.0,-0.123565673828125,-0.6307373046875,Closing,0.0,0.0,-4484.0,0.0,0.0,0.0,0.0,0.0,
1.0526440000000001,0.0,0.0,2190.0,0.0,0.0,0.0,0.0,0.125,3.80859336,0.0,-0.0012207029999995456,-10211.0,0.0,0.0,-0.0,0.0,0.0,1.9506833940000001,0.0,0.0,2143.0,0.0,0.0,0.0,0.0,0.0,4.893798327,0.0,0.0,-10013.0,0.0,0.0,-0.0,0.0,0.0,2.8540036140000002,0.0,0.0,1.1100000143051147,0.6899999976158142,-20.729999542236328,0.01153564453125,0.019775390625,1.01531982421875,34.08000183105469,0.0,0.0,-0.123565673828125,-0.6307373046875,Closing,0.0,0.0,-4484.0,0.0,0.0,0.0,0.0,0.0,
1.0743190000000031,0.0,0.0,2190.0,0.0,0.0,0.0,0.0,0.125,3.80859336,0.0,0.0,-10211.0,0.0,0.0,-0.0,0.0,0.0,1.9506833940000001,0.0,0.0,2143.0,0.0,0.0,0.0,0.0,0.0,4.891356921,0.0,0.0,-10013.0,0.0,0.0,-0.0,0.0,0.0,2.8527829110000003,0.0,0.0,1.100000023841858,0.699999988079071,-20.729999542236328,0.01605224609375,0.01934814453125,0.97357177734375,34.08000183105469,0.0,3.0,-0.123565673828125,-0.6307373046875,Closing,0.0,0.0,-4484.0,0.0,0.0,0.0,0.0,0.0,
1.0929190000000018,0.0,0.0,2190.0,0.0,0.0,0.0,0.0,0.125,3.80859336,0.0,0.0,-10211.0,0.0,0.0,-0.0,0.0,0.0,1.9506833940000001,0.0,0.0,2143.0,0.0,0.0,0.0,0.0,0.0,4.893798327,0.0,0.0,-10013.0,0.0,0.0,-0.0,0.0,0.0,2.8527829110000003,0.0,0.0,1.100000023841858,0.699999988079071,-20.729999542236328,0.01239013671875,0.022216796875,0.9920654296875,34.08000183105469,0.0,0.0,-0.123565673828125,-0.6307373046875,Closing,0.0,0.0,-4484.0,0.0,0.0,0.0,0.0,0.0,
1.1143860000000023,0.0,0.0,2190.0,0.0,0.0,0.0,0.0,0.125,3.809814063,0.0,0.0,-10211.0,0.0,0.0,-0.0,0.0,0.0,1.9506833940000001,0.0,0.0,2143.0,0.0,0.0,0.0,0.0,0.0,4.892577624,0.0,0.0,-10013.0,0.0,0.0,-0.0,0.0,0.0,2.8527829110000003,0.0,-0.0012207030000004337,1.1100000143051147,0.6899999976158142,-20.729999542236328,0.0120849609375,0.02117919921875,1.01629638671875,34.08000183105469,0.0,0.0,-0.123565673828125,-0.6307373046875,Closing,0.0,0.0,-4484.0,0.0,0.0,0.0,0.0,0.0,
1.1329960000000028,0.0,0.0,2190.0,0.0,0.0,0.0,0.0,0.125,3.807372657,0.0,0.0,-10211.0,0.0,0.0,-0.0,0.0,0.0,1.9506833940000001,0.0,0.0,2143.0,0.0,0.0,0.0,0.0,0.0,4.892577624,0.0,0.0,-10013.0,0.0,0.0,-0.0,0.0,0.0,2.8527829110000003,0.0,-0.0012207030000004337,1.100000023841858,0.699999988079071,-20.729999542236328,0.01416015625,0.01287841796875,0.9744873046875,34.08000183105469,0.0,4.0,-0.123565673828125,-0.6307373046875,Closing,0.0,0.0,-4484.0,0.0,0.0,0.0,0.0,0.0,
1.152487000000001,0.0,0.0,2190.0,0.0,0.0,0.0,0.0,0.125,3.807372657,0.0,0.0,-10211.0,0.0,0.0,-0.0,0.0,0.0,1.9506833940000001,0.0,0.0,2143.0,0.0,0.0,0.0,0.0,0.0,4.893798327,0.0,0.0,-10013.0,0.0,0.0,-0.0,0.0,0.0,2.8527829110000003,0.0,0.0012207030000004337,1.100000023841858,0.699999988079071,-20.729999542236328,0.01983642578125,0.01788330078125,0.97625732421875,34.08000183105469,0.0,7.0,-0.123565673828125,-0.6307373046875,Closing,0.0,0.0,-4484.0,0.0,0.0,0.0,0.0,0.0,
1.1749180000000015,0.0,0.0,2190.0,0.0,0.0,0.0,0.0,0.125,3.80859336,0.0,0.0,-10211.0,0.0,0.0,-0.0,0.0,0.0,1.9494626910000001,0.0,0.0,2143.0,0.0,0.0,0.0,0.0,0.0,4.892577624,0.0,0.0,-10013.0,0.0,0.0,-0.0,0.0,0.0,2.8527829110000003,0.0,0.0012207030000004337,1.1100000143051147,0.6899999976158142,-20.729999542236328,0.009765625,0.0157470703125,1.017578125,34.08000183105469,0.0,0.0,-0.123565673828125,-0.6307373046875,Closing,0.0,0.0,-4484.0,0.0,0.0,0.0,0.0,0.0,
1.1945240000000013,0.0,0.0,2190.0,0.0,0.0,0.0,0.0,0.125,3.80859336,0.0,0.0,-10211.0,0.0,0.0,-0.0,0.0,0.0,1.9506833940000001,0.0,0.0,2143.0,0.0,0.0,0.0,0.0,0.0,4.892577624,0.0,0.0,-10013.0,0.0,0.0,-0.0,0.0,0.0,2.8527829110000003,0.0,0.0012207030000004337,1.100000023841858,0.6899999976158142,-20.729999542236328,0.0137939453125,0.0164794921875,0.97357177734375,34.08000183105469,0.0,2.0,-0.123565673828125,-0.6307373046875,Closing,0.0,0.0,-4484.0,0.0,0.0,0.0,0.0,0.0,
1.216152000000002,0.0,0.0,2190.0,0.0,0.0,0.0,0.0,0.125,3.80859336,0.0,0.0,-10211.0,0.0,0.0,-0.0,0.0,0.0,1.9506833940000001,0.0,0.0,2143.0,0.0,0.0,0.0,0.0,0.0,4.893798327,0.0,0.0,-10013.0,0.0,0.0,-0.0,0.0,0.0,2.8515622080000003,0.0,0.0,1.100000023841858,0.6899999976158142,-20.729999542236328,0.0145263671875,0.0169677734375,0.9903564453125,34.08000183105469,0.0,3.0,-0.123565673828125,-0.6307373046875,Closing,0.0,0.0,-4484.0,0.0,0.0,0.0,0.0,0.0,
1.2360750000000007,0.0,0.0,2190.0,0.0,0.0,0.0,0.0,0.125,3.80859336,0.0,0.0,-10211.0,0.0,0.0,-0.0,0.0,0.0,1.9506833940000001,0.0,0.0,2143.0,0.0,0.0,0.0,0.0,0.0,4.892577624,0.0,0.0,-10013.0,0.0,0.0,-0.0,0.0,0.0,2.8515622080000003,0.0,0.0,1.1100000143051147,0.6899999976158142,-20.729999542236328,0.01104736328125,0.01910400390625,1.00933837890625,34.099998474121094,0.0,0.0,-0.123565673828125,-0.6307373046875,Closing,0.0,0.0,-4484.0,0.0,0.0,0.0,0.0,0.0,
1.2560140000000029,0.0,0.0,2190.0,0.0,0.0,0.0,0.0,0.125,3.80859336,0.0,0.0,-10211.0,0.0,0.0,-0.0,0.0,0.0,1.9494626910000001,0.0,0.0,2143.0,0.0,0.0,0.0,0.0,0.0,4.892577624,0.0,0.0,-10013.0,0.0,0.0,-0.0,0.0,0.0,2.8527829110000003,0.0,0.0,1.100000023841858,0.6899999976158142,-20.729999542236328,0.0155029296875,0.01873779296875,0.982421875,34.099998474121094,0.0,3.0,-0.123565673828125,-0.6307373046875,Closing,0.0,0.0,-4484.0,0.0,0.0,0.0,0.0,0.0,
1.2805200000000005,0.0,0.0,2190.0,0.0,0.0,0.0,0.0,0.125,3.80859336,0.0,0.0,-10211.0,0.0,0.0,-0.0,0.0,0.0,1.9506833940000001,0.0,0.0,2143.0,0.0,0.0,0.0,0.0,0.0,4.893798327,0.0,0.0,-10013.0,0.0,0.0,-0.0,0.0,0.0,2.8527829110000003,0.0,0.0,1.1100000143051147,0.6899999976158142,-20.729999542236328,0.013671875,0.019775390625,1.020751953125,34.099998474121094,0.0,1.0,-0.123565673828125,-0.6307373046875,Closing,0.0,0.0,-4484.0,0.0,0.0,0.0,0.0,0.0,
1.2993780000000006,0.0,0.0,2190.0,0.0,0.0,0.0,0.0,0.125,3.80859336,0.0,0.0,-10211.0,0.0,0.0,-0.0,0.0,0.0,1.9506833940000001,0.0,0.0,2143.0,0.0,0.0,0.0,0.0,0.0,4.891356921,0.0,0.0,-10013.0,0.0,0.0,-0.0,0.0,0.0,2.8527829110000003,0.0,0.0,1.100000023841858,0.699999988079071,-20.729999542236328,0.01031494140625,0.01800537109375,1.0013427734375,34.099998474121094,0.0,-1.0,-0.123565673828125,-0.6307373046875,Closing,0.0,0.0,-4484.0,0.0,0.0,0.0,0.0,0.0,
1.3235390000000007,0.0,0.0,2190.0,0.0,0.0,0.0,0.0,0.125,3.80859336,0.0,0.0012207029999995456,-10211.0,0.0,0.0,-0.0,0.0,0.0,1.9494626910000001,0.0,0.0,2143.0,0.0,0.0,0.0,0.0,0.0,4.892577624,0.0,0.0,-10013.0,0.0,0.0,-0.0,0.0,0.0,2.8540036140000002,0.0,0.0,1.100000023841858,0.6899999976158142,-20.729999542236328,0.01019287109375,0.02166748046875,0.99310302734375,34.099998474121094,0.0,-2.0,-0.123565673828125,-0.6307373046875,Closing,0.0,0.0,-4484.0,0.0,0.0,0.0,0.0,0.0,
1.341956000000002,0.0,0.0,2190.0,0.0,0.0,0.0,0.0,0.125,3.80859336,0.0,0.0012207029999995456,-10211.0,0.0,0.0,-0.0,0.0,0.0,1.9506833940000001,0.0,0.0,2143.0,0.0,0.0,0.0,0.0,0.0,4.892577624,0.0,0.0,-10013.0,0.0,0.0,-0.0,0.0,0.0,2.8527829110000003,0.0,0.0,1.100000023841858,0.699999988079071,-20.729999542236328,0.0079345703125,0.0191650390625,1.00531005859375,34.099998474121094,0.0,-3.0,-0.123565673828125,-0.6307373046875,Closing,0.0,0.0,-4484.0,0.0,0.0,0.0,0.0,0.0,
1.366166000000001,0.0,0.0,2190.0,0.0,0.0,0.0,0.0,0.125,3.80859336,0.0,-0.0012207029999995456,-10211.0,0.0,0.0,-0.0,0.0,0.0,1.9506833940000001,0.0,0.0,2143.0,0.0,0.0,0.0,0.0,0.0,4.893798327,0.0,0.0,-10013.0,0.0,0.0,-0.0,0.0,0.0,2.8527829110000003,0.0,0.0,1.1100000143051147,0.6899999976158142,-20.729999542236328,0.01275634765625,0.0225830078125,1.00958251953125,34.099998474121094,0.0,0.0,-0.123565673828125,-0.6307373046875,Closing,0.0,0.0,-4484.0,0.0,0.0,0.0,0.0,0.0,
1.3884680000000007,0.0,0.0,2190.0,0.0,0.0,0.0,0.0,0.125,3.809814063,0.0,-0.0012207029999995456,-10211.0,0.0,0.0,-0.0,0.0,0.0,1.9494626910000001,0.0,0.0,2143.0,0.0,0.0,0.0,0.0,0.0,4.892577624,0.0,0.0,-10013.0,0.0,0.0,-0.0,0.0,0.0,2.8527829110000003,0.0,0.0,1.1100000143051147,0.6899999976158142,-20.729999542236328,0.01226806640625,0.0181884765625,0.99530029296875,34.099998474121094,0.0,0.0,-0.123565673828125,-0.6307373046875,Closing,0.0,0.0,-4484.0,0.0,0.0,0.0,0.0,0.0,
1.4118290000000016,0.0,0.0,2190.0,0.0,0.0,0.0,0.0,0.125,3.80859336,0.0,0.0012207029999995456,-10211.0,0.0,0.0,-0.0,0.0,0.0,1.9494626910000001,0.0,0.0,2143.0,0.0,0.0,0.0,0.0,0.0,4.89501903,0.0,0.0,-10013.0,0.0,0.0,-0.0,0.0,0.0,2.8527829110000003,0.0,0.0,1.1100000143051147,0.6899999976158142,-20.729999542236328,0.01214599609375,0.017822265625,0.99658203125,34.099998474121094,0.0,0.0,-0.123565673828125,-0.6307373046875,Closing,0.0,0.0,-4484.0,0.0,0.0,0.0,0.0,0.0,
1.4316000000000022,0.0,0.0,2190.0,0.0,0.0,0.0,0.0,0.125,3.80859336,0.0,0.0012207029999995456,-10211.0,0.0,0.0,-0.0,0.0,0.0,1.9506833940000001,0.0,0.0,2143.0,0.0,0.0,0.0,0.0,0.0,4.892577624,0.0,0.0,-10013.0,0.0,0.0,-0.0,0.0,0.0,2.8527829110000003,0.0,0.0,1.1100000143051147,0.6899999976158142,-20.729999542236328,0.0115966796875,0.01641845703125,1.00457763671875,34.099998474121094,0.0,0.0,-0.123565673828125,-0.6307373046875,Closing,0.0,0.0,-4484.0,0.0,0.0,0.0,0.0,0.0,
1.4506950000000034,0.0,0.0,2190.0,0.0,0.0,0.0,0.0,0.125,3.80859336,0.0,0.0012207029999995456,-10211.0,0.0,0.0,-0.0,0.0,0.0,1.9506833940000001,0.0,0.0,2143.0,0.0,0.0,0.0,0.0,0.0,4.892577624,0.0,0.0,-10013.0,0.0,0.0,-0.0,0.0,0.0,2.8527829110000003,0.0,0.0,1.1100000143051147,0.6899999976158142,-20.729999542236328,0.00927734375,0.01678466796875,1.01556396484375,34.099998474121094,0.0,-1.0,-0.123565673828125,-0.6307373046875,Closing,0.0,0.0,-4484.0,0.0,0.0,0.0,0.0,0.0,
1.4740280000000021,0.0,0.0,2190.0,0.0,0.0,0.0,0.0,0.125,3.807372657,0.0,-0.0012207029999995456,-10211.0,0.0,0.0,-0.0,0.0,0.0,1.9519040970000001,0.0,0.0,2143.0,0.0,0.0,0.0,0.0,0.0,4.892577624,0.0,0.0,-10013.0,0.0,0.0,-0.0,0.0,0.0,2.8527829110000003,0.0,0.0,1.100000023841858,0.6899999976158142,-20.729999542236328,0.0142822265625,0.01885986328125,0.98504638671875,34.099998474121094,0.0,2.0,-0.123565673828125,-0.6307373046875,Closing,0.0,0.0,-4484.0,0.0,0.0,0.0,0.0,0.0,
1.4927340000000004,0.0,0.0,2190.0,0.0,0.0,0.0,0.0,0.125,3.80859336,0.0,-0.0012207029999995456,-10211.0,0.0,0.0,-0.0,0.0,0.0,1.9494626910000001,0.0,0.0,2143.0,0.0,0.0,0.0,0.0,0.0,4.893798327,0.0,0.0,-10013.0,0.0,0.0,-0.0,0.0,0.0,2.8527829110000003,0.0,0.0,1.1100000143051147,0.6899999976158142,-20.729999542236328,0.00775146484375,0.02044677734375,1.0048828125,34.099998474121094,0.0,-4.0,-0.123565673828125,-0.6307373046875,Closing,0.0,0.0,-4484.0,0.0,0.0,0.0,0.0,0.0,
1.5143250000000008,0.0,0.0,2190.0,0.0,0.0,0.0,0.0,0.125,3.80859336,0.0,0.0,-10211.0,0.0,0.0,-0.0,0.0,0.0,1.9506833940000001,0.0,0.0,2143.0,0.0,0.0,0.0,0.0,0.0,4.892577624,0.0,0.0,-10013.0,0.0,0.0,-0.0,0.0,0.0,2.8527829110000003,0.0,0.0,1.1100000143051147,0.6899999976158142,-20.729999542236328,0.01385498046875,0.01971435546875,1.0015869140625,34.099998474121094,0.0,1.0,-0.123565673828125,-0.6307373046875,Closing,0.0,0.0,-4484.0,0.0,0.0,0.0,0.0,0.0,
1.5332410000000019,0.0,0.0,2190.0,0.0,0.0,0.0,0.0,0.125,3.80859336,0.0,0.0,-10211.0,0.0,0.0,-0.0,0.0,0.0,1.9494626910000001,0.0,0.0,2143.0,0.0,0.0,0.0,0.0,0.0,4.891356921,0.0,0.0,-10013.0,0.0,0.0,-0.0,0.0,0.0,2.8527829110000003,0.0,0.0,1.1100000143051147,0.6899999976158142,-20.729999542236328,0.0146484375,0.017822265625,1.0020751953125,34.099998474121094,0.0,2.0,-0.123565673828125,-0.6307373046875,Closing,0.0,0.0,-4484.0,0.0,0.0,0.0,0.0,0.0,
1.5531800000000002,0.0,0.0,2190.0,0.0,0.0,0.0,0.0,0.125,3.807372657,0.0,0.0,-10211.0,0.0,0.0,-0.0,0.0,0.0,1.9506833940000001,0.0,0.0,2143.0,0.0,0.0,0.0,0.0,0.0,4.891356921,0.0,0.0,-10013.0,0.0,0.0,-0.0,0.0,0.0,2.8527829110000003,0.0,-0.0012207030000004337,1.1100000143051147,0.6899999976158142,-20.729999542236328,0.0123291015625,0.02020263671875,1.01666259765625,34.099998474121094,0.0,0.0,-0.123565673828125,-0.6307373046875,Closing,0.0,0.0,-4484.0,0.0,0.0,0.0,0.0,0.0,
1.5765349999999998,0.0,0.0,2190.0,0.0,0.0,0.0,0.0,0.125,3.80859336,0.0,0.0,-10211.0,0.0,0.0,-0.0,0.0,0.0,1.9494626910000001,0.0,0.0,2143.0,0.0,0.0,0.0,0.0,0.0,4.891356921,0.0,0.0,-10013.0,0.0,0.0,-0.0,0.0,0.0,2.8527829110000003,0.0,-0.0012207030000004337,1.1100000143051147,0.6899999976158142,-20.729999542236328,0.0123291015625,0.01898193359375,0.9967041015625,34.099998474121094,0.0,0.0,-0.123565673828125,-0.6307373046875,Closing,0.0,0.0,-4484.0,0.0,0.0,0.0,0.0,0.0,
1.595349000000002,0.0,0.0,2190.0,0.0,0.0,0.0,0.0,0.125,3.80859336,0.0,0.0,-10211.0,0.0,0.0,-0.0,0.0,0.0,1.9506833940000001,0.0,0.0,2143.0,0.0,0.0,0.0,0.0,0.0,4.892577624,0.0,0.0,-10013.0,0.0,0.0,-0.0,0.0,0.0,2.8540036140000002,0.0,-0.0012207030000004337,1.1100000143051147,0.6899999976158142,-20.729999542236328,0.01336669921875,0.01995849609375,0.9959716796875,34.099998474121094,0.0,0.0,-0.123565673828125,-0.6307373046875,Closing,0.0,0.0,-4484.0,0.0,0.0,0.0,0.0,0.0,
1.6187960000000021,0.0,0.0,2190.0,0.0,0.0,0.0,0.0,0.125,3.80859336,0.0,0.0,-10211.0,0.0,0.0,-0.0,0.0,0.0,1.9506833940000001,0.0,0.0,2143.0,0.0,0.0,0.0,0.0,0.0,4.893798327,0.0,0.0,-10013.0,0.0,0.0,-0.0,0.0,0.0,2.8527829110000003,0.0,0.0012207030000004337,1.1100000143051147,0.6899999976158142,-20.729999542236328,0.01348876953125,0.02069091796875,1.0184326171875,34.099998474121094,0.0,0.0,-0.123565673828125,-0.6307373046875,Closing,0.0,0.0,-4484.0,0.0,0.0,0.0,0.0,0.0,
1.6372440000000024,0.0,0.0,2190.0,0.0,0.0,0.0,0.0,0.125,3.80859336,0.0,0.0,-10211.0,0.0,0.0,-0.0,0.0,0.0,1.9494626910000001,0.0,0.0,2143.0,0.0,0.0,0.0,0.0,0.0,4.893798327,0.0,0.0,-10013.0,0.0,0.0,-0.0,0.0,0.0,2.8527829110000003,0.0,0.0012207030000004337,1.1100000143051147,0.6899999976158142,-20.729999542236328,0.0111083984375,0.019775390625,1.00762939453125,34.099998474121094,0.0,-1.0,-0.123565673828125,-0.6307373046875,Closing,0.0,0.0,-4484.0,0.0,0.0,0.0,0.0,0.0,
1.6559660000000003,0.0,0.0,2190.0,0.0,0.0,0.0,0.0,0.125,3.80859336,0.0,0.0,-10211.0,0.0,0.0,-0.0,0.0,0.0,1.9494626910000001,0.0,0.0,2143.0,0.0,0.0,0.0,0.0,0.0,4.893798327,0.0,0.0,-10013.0,0.0,0.0,-0.0,0.0,0.0,2.8527829110000003,0.0,0.0,1.1100000143051147,0.6899999976158142,-20.729999542236328,0.01287841796875,0.0198974609375,0.98828125,34.099998474121094,0.0,0.0,-0.123565673828125,-0.6307373046875,Closing,0.0,0.0,-4484.0,0.0,0.0,0.0,0.0,0.0,
1.6894720000000016,0.0,0.0,2190.0,0.0,0.0,0.0,0.0,0.125,3.80859336,0.0,0.0,-10211.0,0.0,0.0,-0.0,0.0,0.0,1.9506833940000001,0.0,0.0,2143.0,0.0,0.0,0.0,0.0,0.0,4.89501903,0.0,0.0,-10013.0,0.0,0.0,-0.0,0.0,0.0,2.8540036140000002,0.0,0.0,1.1100000143051147,0.6899999976158142,-20.729999542236328,0.01025390625,0.01715087890625,1.00518798828125,34.099998474121094,0.0,0.0,-0.123565673828125,-0.6307373046875,Closing,0.0,0.0,-4484.0,0.0,0.0,0.0,0.0,0.0,
1.7089240000000028,0.0,0.0,2190.0,0.0,0.0,0.0,0.0,0.125,3.809814063,0.0,0.0,-10211.0,0.0,0.0,-0.0,0.0,0.0,1.9506833940000001,0.0,0.0,2143.0,0.0,0.0,0.0,0.0,0.0,4.893798327,0.0,0.0,-10013.0,0.0,0.0,-0.0,0.0,0.0,2.8540036140000002,0.0,0.0,1.1100000143051147,0.6899999976158142,-20.729999542236328,0.0126953125,0.02032470703125,1.00048828125,34.099998474121094,0.0,0.0,-0.123565673828125,-0.6307373046875,Closing,0.0,0.0,-4484.0,0.0,0.0,0.0,0.0,0.0,
1.7296560000000027,0.0,0.0,2190.0,0.0,0.0,0.0,0.0,0.125,3.807372657,0.0,0.0,-10211.0,0.0,0.0,-0.0,0.0,0.0,1.9494626910000001,0.0,0.0,2143.0,0.0,0.0,0.0,0.0,0.0,4.89501903,0.0,0.0,-10013.0,0.0,0.0,-0.0,0.0,0.0,2.8527829110000003,0.0,0.0,1.1100000143051147,0.6899999976158142,-20.729999542236328,0.01239013671875,0.02154541015625,0.99627685546875,34.099998474121094,0.0,0.0,-0.123565673828125,-0.6307373046875,Closing,0.0,0.0,-4484.0,0.0,0.0,0.0,0.0,0.0,
1.7476760000000031,0.0,0.0,2190.0,0.0,0.0,0.0,0.0,0.125,3.804931251,0.0,0.0,-10211.0,0.0,0.0,-0.0,0.0,0.0,1.9506833940000001,0.0,0.0,2143.0,0.0,0.0,0.0,0.0,0.0,4.892577624,0.0,0.0,-10013.0,0.0,0.0,-0.0,0.0,0.0,2.8527829110000003,0.0,0.0,1.1100000143051147,0.6899999976158142,-20.729999542236328,0.0133056640625,0.02154541015625,0.9921875,34.119998931884766,0.0,0.0,-0.123565673828125,-0.6307373046875,Closing,0.0,0.0,-4484.0,0.0,0.0,0.0,0.0,0.0,
1.771403000000002,0.0,0.0,2190.0,0.0,0.0,0.0,0.0,0.125,3.80859336,0.0,0.0,-10211.0,0.0,0.0,-0.0,0.0,0.0,1.9494626910000001,0.0,0.0,2143.0,0.0,0.0,0.0,0.0,0.0,4.892577624,0.0,0.0,-10013.0,0.0,0.0,-0.0,0.0,0.0,2.8527829110000003,0.0,0.0,1.1100000143051147,0.6899999976158142,-20.729999542236328,0.01007080078125,0.01953125,1.00482177734375,34.119998931884766,0.0,-1.0,-0.123565673828125,-0.6307373046875,Closing,0.0,0.0,-4484.0,0.0,0.0,0.0,0.0,0.0,
1.7889400000000024,0.0,0.0,2190.0,0.0,0.0,0.0,0.0,0.125,3.80859336,0.0,0.0,-10211.0,0.0,0.0,-0.0,0.0,0.0,1.9494626910000001,0.0,0.0,2143.0,0.0,0.0,0.0,0.0,0.0,4.892577624,0.0,0.0,-10013.0,0.0,0.0,-0.0,0.0,0.0,2.8527829110000003,0.0,0.0,1.100000023841858,0.699999988079071,-20.729999542236328,0.0137939453125,0.01776123046875,1.00494384765625,34.119998931884766,0.0,2.0,-0.123565673828125,-0.6307373046875,Closing,0.0,0.0,-4484.0,0.0,0.0,0.0,0.0,0.0,
1.8081599999999998,0.0,0.0,2190.0,0.0,0.0,0.0,0.0,0.125,3.807372657,0.0,0.0,-10211.0,0.0,0.0,-0.0,0.0,0.0,1.9506833940000001,0.0,0.0,2143.0,0.0,0.0,0.0,0.0,0.0,4.893798327,0.0,0.0,-10013.0,0.0,0.0,-0.0,0.0,0.0,2.8540036140000002,0.0,0.0,1.100000023841858,0.699999988079071,-20.729999542236328,0.0145263671875,0.0164794921875,0.9935302734375,34.119998931884766,0.0,3.0,-0.123565673828125,-0.6307373046875,Closing,0.0,0.0,-4484.0,0.0,0.0,0.0,0.0,0.0,
1.8295290000000022,0.0,0.0,2190.0,0.0,0.0,0.0,0.0,0.125,3.80859336,0.0,0.0012207029999995456,-10211.0,0.0,0.0,-0.0,0.0,0.0,1.9506833940000001,0.0,0.0,2143.0,0.0,0.0,0.0,0.0,0.0,4.893798327,0.0,0.0,-10013.0,0.0,0.0,-0.0,0.0,0.0,2.8540036140000002,0.0,0.0,1.100000023841858,0.699999988079071,-20.729999542236328,0.01544189453125,0.0172119140625,0.99420166015625,34.119998931884766,0.0,3.0,-0.123565673828125,-0.6307373046875,Closing,0.0,0.0,-4484.0,0.0,0.0,0.0,0.0,0.0,
1.8485380000000005,0.0,0.0,2190.0,0.0,0.0,0.0,0.0,0.125,3.80859336,0.0,0.0012207029999995456,-10211.0,0.0,0.0,-0.0,0.0,0.0,1.9506833940000001,0.0,0.0,2143.0,0.0,0.0,0.0,0.0,0.0,4.893798327,0.0,0.0,-10013.0,0.0,0.0,-0.0,0.0,0.0,2.8527829110000003,0.0,0.0,1.100000023841858,0.699999988079071,-20.729999542236328,0.01434326171875,0.0184326171875,1.0037841796875,34.119998931884766,0.0,2.0,-0.123565673828125,-0.6307373046875,Closing,0.0,0.0,-4484.0,0.0,0.0,0.0,0.0,0.0,
1.8714660000000003,0.0,0.0,2190.0,0.0,0.0,0.0,0.0,0.125,3.80859336,0.0,0.0,-10211.0,0.0,0.0,-0.0,0.0,0.0,1.9506833940000001,0.0,0.0,2143.0,0.0,0.0,0.0,0.0,0.0,4.892577624,0.0,0.0,-10013.0,0.0,0.0,-0.0,0.0,0.0,2.8527829110000003,0.0,0.0,1.100000023841858,0.6899999976158142,-20.729999542236328,0.0098876953125,0.01995849609375,0.9976806640625,34.119998931884766,0.0,-2.0,-0.123565673828125,-0.6307373046875,Closing,0.0,0.0,-4484.0,0.0,0.0,0.0,0.0,0.0,
1.8905200000000004,0.0,0.0,2190.0,0.0,0.0,0.0,0.0,0.125,3.809814063,0.0,0.0,-10211.0,0.0,0.0,-0.0,0.0,0.0,1.9494626910000001,0.0,0.0,2143.0,0.0,0.0,0.0,0.0,0.0,4.893798327,0.0,0.0,-10013.0,0.0,0.0,-0.0,0.0,0.0,2.8527829110000003,0.0,0.0,1.100000023841858,0.6899999976158142,-20.729999542236328,0.009521484375,0.0185546875,1.004150390625,34.119998931884766,0.0,-2.0,-0.123565673828125,-0.6307373046875,Closing,0.0,0.0,-4484.0,0.0,0.0,0.0,0.0,0.0,
1.9083230000000002,0.0,0.0,2190.0,0.0,0.0,0.0,0.0,0.125,3.80859336,0.0,0.0,-10211.0,0.0,0.0,-0.0,0.0,0.0,1.9506833940000001,0.0,0.0,2143.0,0.0,0.0,0.0,0.0,0.0,4.893798327,0.0,0.0,-10013.0,0.0,0.0,-0.0,0.0,0.0,2.8527829110000003,0.0,-0.0012207030000004337,1.100000023841858,0.6899999976158142,-20.729999542236328,0.00927734375,0.014892578125,1.00311279296875,34.119998931884766,0.0,-1.0,-0.123565673828125,-0.6307373046875,Closing,0.0,0.0,-4484.0,0.0,0.0,0.0,0.0,0.0,
1.9302220000000017,0.0,0.0,2190.0,0.0,0.0,0.0,0.0,0.125,3.80859336,0.0,-0.0012207029999995456,-10211.0,0.0,0.0,-0.0,0.0,0.0,1.9494626910000001,0.0,0.0,2143.0,0.0,0.0,0.0,0.0,0.0,4.893798327,0.0,0.0,-10013.0,0.0,0.0,-0.0,0.0,0.0,2.8527829110000003,0.0,-0.0012207030000004337,1.100000023841858,0.6899999976158142,-20.729999542236328,0.01251220703125,0.0208740234375,0.99578857421875,34.119998931884766,0.0,0.0,-0.123565673828125,-0.6307373046875,Closing,0.0,0.0,-4484.0,0.0,0.0,0.0,0.0,0.0,
1.949925000000003,0.0,0.0,2190.0,0.0,0.0,0.0,0.0,0.125,3.809814063,0.0,-0.0012207029999995456,-10211.0,0.0,0.0,-0.0,0.0,0.0,1.9506833940000001,0.0,0.0,2143.0,0.0,0.0,0.0,0.0,0.0,4.892577624,0.0,0.0,-10013.0,0.0,0.0,-0.0,0.0,0.0,2.8540036140000002,0.0,-0.0012207030000004337,1.100000023841858,0.6899999976158142,-20.729999542236328,0.0120849609375,0.0189208984375,1.01104736328125,34.119998931884766,0.0,0.0,-0.123565673828125,-0.6307373046875,Closing,0.0,0.0,-4484.0,0.0,0.0,0.0,0.0,0.0,
1.9720250000000015,0.0,0.0,2190.0,0.0,0.0,0.0,0.0,0.125,3.807372657,0.0,0.0,-10211.0,0.0,0.0,-0.0,0.0,0.0,1.9506833940000001,0.0,0.0,2143.0,0.0,0.0,0.0,0.0,0.0,4.89501903,0.0,0.0,-10013.0,0.0,0.0,-0.0,0.0,0.0,2.8527829110000003,0.0,0.0,1.100000023841858,0.6899999976158142,-20.729999542236328,0.013671875,0.01910400390625,0.9974365234375,34.119998931884766,0.0,1.0,-0.123565673828125,-0.6307373046875,Closing,0.0,0.0,-4484.0,0.0,0.0,0.0,0.0,0.0,
1.9904830000000002,0.0,0.0,2190.0,0.0,0.0,0.0,0.0,0.125,3.80859336,0.0,0.0,-10211.0,0.0,0.0,-0.0,0.0,0.0,1.9494626910000001,0.0,0.0,2143.0,0.0,0.0,0.0,0.0,0.0,4.893798327,0.0,0.0,-10013.0,0.0,0.0,-0.0,0.0,0.0,2.8527829110000003,0.0,0.0,1.100000023841858,0.6899999976158142,-20.729999542236328,0.01171875,0.02203369140625,1.005126953125,34.119998931884766,0.0,-1.0,-0.123565673828125,-0.6307373046875,Closing,0.0,0.0,-4484.0,0.0,0.0,0.0,0.0,0.0,
2.009800000000003,0.0,0.0,2190.0,0.0,0.0,0.0,0.0,0.125,3.809814063,0.0,0.0,-10211.0,0.0,0.0,-0.0,0.0,0.0,1.9506833940000001,0.0,0.0,2143.0,0.0,0.0,0.0,0.0,0.0,4.893798327,0.0,0.0,-10013.0,0.0,0.0,-0.0,0.0,0.0,2.8527829110000003,0.0,0.0,1.100000023841858,0.6899999976158142,-20.729999542236328,0.0111083984375,0.01947021484375,1.01220703125,34.119998931884766,0.0,-1.0,-0.123565673828125,-0.6307373046875,Closing,0.0,0.0,-4484.0,0.0,0.0,0.0,0.0,0.0,
2.0292510000000004,0.0,0.0,2190.0,0.0,0.0,0.0,0.0,0.125,3.80859336,0.0,0.0,-10211.0,0.0,0.0,-0.0,0.0,0.0,1.9494626910000001,0.0,0.0,2143.0,0.0,0.0,0.0,0.0,0.0,4.892577624,0.0,0.0,-10013.0,0.0,0.0,-0.0,0.0,0.0,2.8515622080000003,0.0,0.0,1.100000023841858,0.6899999976158142,-20.729999542236328,0.01513671875,0.02117919921875,1.02581787109375,34.119998931884766,0.0,1.0,-0.123565673828125,-0.6307373046875,Closing,0.0,0.0,-4484.0,0.0,0.0,0.0,0.0,0.0,
2.0487630000000028,0.0,0.0,2190.0,0.0,0.0,0.0,0.0,0.125,3.807372657,0.0,0.0,-10211.0,0.0,0.0,-0.0,0.0,0.0,1.9506833940000001,0.0,0.0,2143.0,0.0,0.0,0.0,0.0,0.0,4.893798327,0.0,0.0,-10013.0,0.0,0.0,-0.0,0.0,0.0,2.8540036140000002,0.0,0.0,1.100000023841858,0.699999988079071,-20.729999542236328,0.0150146484375,0.022216796875,0.99371337890625,34.119998931884766,0.0,1.0,-0.123565673828125,-0.6307373046875,Closing,0.0,0.0,-4484.0,0.0,0.0,0.0,0.0,0.0,
2.071009000000002,0.0,0.0,2190.0,0.0,0.0,0.0,0.0,0.125,3.80859336,0.0,0.0012207029999995456,-10211.0,0.0,0.0,-0.0,0.0,0.0,1.9506833940000001,0.0,0.0,2143.0,0.0,0.0,0.0,0.0,0.0,4.892577624,0.0,0.0,-10013.0,0.0,0.0,-0.0,0.0,0.0,2.8540036140000002,0.0,0.0012207030000004337,1.100000023841858,0.699999988079071,-20.729999542236328,0.01446533203125,0.01776123046875,0.9974365234375,34.119998931884766,0.0,2.0,-0.123565673828125,-0.6307373046875,Closing,0.0,0.0,-4484.0,0.0,0.0,0.0,0.0,0.0,
2.089089,0.0,0.0,2190.0,0.0,0.0,0.0,0.0,0.125,3.80859336,0.0,0.0012207029999995456,-10211.0,0.0,0.0,-0.0,0.0,0.0,1.9506833940000001,0.0,0.0,2143.0,0.0,0.0,0.0,0.0,0.0,4.892577624,0.0,0.0,-10013.0,0.0,0.0,-0.0,0.0,0.0,2.8527829110000003,0.0,0.0012207030000004337,1.100000023841858,0.6899999976158142,-20.729999542236328,0.0096435546875,0.01812744140625,1.01275634765625,34.119998931884766,0.0,-2.0,-0.123565673828125,-0.6307373046875,Closing,0.0,0.0,-4484.0,0.0,0.0,0.0,0.0,0.0,
2.116100000000002,0.0,0.0,2190.0,0.0,0.0,0.0,0.0,0.125,3.809814063,0.0,-0.0012207029999995456,-10211.0,0.0,0.0,-0.0,0.0,0.0,1.9506833940000001,0.0,0.0,2143.0,0.0,0.0,0.0,0.0,0.0,4.892577624,0.0,0.0,-10013.0,0.0,0.0,-0.0,0.0,0.0,2.8527829110000003,0.0,-0.0012207030000004337,1.100000023841858,0.699999988079071,-20.729999542236328,0.01068115234375,0.0194091796875,1.00860595703125,34.119998931884766,0.0,-1.0,-0.123565673828125,-0.6307373046875,Closing,0.0,0.0,-4484.0,0.0,0.0,0.0,0.0,0.0,
2.135443000000003,0.0,0.0,2190.0,0.0,0.0,0.0,0.0,0.125,3.80859336,0.0,-0.0012207029999995456,-10211.0,0.0,0.0,-0.0,0.0,0.0,1.9506833940000001,0.0,0.0,2143.0,0.0,0.0,0.0,0.0,0.0,4.893798327,0.0,0.0,-10013.0,0.0,0.0,-0.0,0.0,0.0,2.8527829110000003,0.0,-0.0012207030000004337,1.100000023841858,0.6899999976158142,-20.729999542236328,0.00836181640625,0.0155029296875,1.0009765625,34.119998931884766,0.0,-2.0,-0.123565673828125,-0.6307373046875,Closing,0.0,0.0,-4484.0,0.0,0.0,0.0,0.0,0.0,
2.1561200000000027,0.0,0.0,2190.0,0.0,0.0,0.0,0.0,0.125,3.80859336,0.0,-0.0012207029999995456,-10211.0,0.0,0.0,-0.0,0.0,0.0,1.9506833940000001,0.0,0.0,2143.0,0.0,0.0,0.0,0.0,0.0,4.892577624,0.0,0.0,-10013.0,0.0,0.0,-0.0,0.0,0.0,2.8527829110000003,0.0,0.0012207030000004337,1.100000023841858,0.6899999976158142,-20.729999542236328,0.01153564453125,0.0194091796875,0.99896240234375,34.119998931884766,0.0,0.0,-0.123565673828125,-0.6307373046875,Closing,0.0,0.0,-4484.0,0.0,0.0,0.0,0.0,0.0,
2.181542000000001,0.0,0.0,2190.0,0.0,0.0,0.0,0.0,0.125,3.80859336,0.0,0.0,-10211.0,0.0,0.0,-0.0,0.0,0.0,1.9506833940000001,0.0,0.0,2143.0,0.0,0.0,0.0,0.0,0.0,4.892577624,0.0,0.0,-10013.0,0.0,0.0,-0.0,0.0,0.0,2.8527829110000003,0.0,0.0012207030000004337,1.100000023841858,0.6899999976158142,-20.729999542236328,0.01495361328125,0.02227783203125,1.0052490234375,34.119998931884766,0.0,1.0,-0.123565673828125,-0.6307373046875,Closing,0.0,0.0,-4484.0,0.0,0.0,0.0,0.0,0.0,
2.199760000000002,0.0,0.0,2190.0,0.0,0.0,0.0,0.0,0.125,3.80859336,0.0,0.0,-10211.0,0.0,0.0,-0.0,0.0,0.0,1.9506833940000001,0.0,0.0,2143.0,0.0,0.0,0.0,0.0,0.0,4.891356921,0.0,0.0,-10013.0,0.0,0.0,-0.0,0.0,0.0,2.8527829110000003,0.0,0.0012207030000004337,1.100000023841858,0.6899999976158142,-20.729999542236328,0.01190185546875,0.02001953125,1.01666259765625,34.119998931884766,0.0,0.0,-0.123565673828125,-0.6307373046875,Closing,0.0,0.0,-4484.0,0.0,0.0,0.0,0.0,0.0,
2.2255560000000005,0.0,0.0,2190.0,0.0,0.0,0.0,0.0,0.125,3.807372657,0.0,0.0012207029999995456,-10211.0,0.0,0.0,-0.0,0.0,0.0,1.9506833940000001,0.0,0.0,2143.0,0.0,0.0,0.0,0.0,0.0,4.891356921,0.0,0.0,-10013.0,0.0,0.0,-0.0,0.0,0.0,2.8527829110000003,0.0,0.0,1.100000023841858,0.699999988079071,-20.729999542236328,0.01263427734375,0.02459716796875,0.9881591796875,34.119998931884766,0.0,-1.0,-0.123565673828125,-0.6307373046875,Closing,0.0,0.0,-4484.0,0.0,0.0,0.0,0.0,0.0,
2.2431370000000026,0.0,0.0,2190.0,0.0,0.0,0.0,0.0,0.125,3.80859336,0.0,0.0012207029999995456,-10211.0,0.0,0.0,-0.0,0.0,0.0,1.9506833940000001,0.0,0.0,2143.0,0.0,0.0,0.0,0.0,0.0,4.893798327,0.0,0.0,-10013.0,0.0,0.0,-0.0,0.0,0.0,2.8527829110000003,0.0,0.0,1.100000023841858,0.6899999976158142,-20.729999542236328,0.014892578125,0.01910400390625,0.994140625,34.119998931884766,0.0,2.0,-0.123565673828125,-0.6307373046875,Closing,0.0,0.0,-4484.0,0.0,0.0,0.0,0.0,0.0,
2.2661990000000007,0.0,0.0,2190.0,0.0,0.0,0.0,0.0,0.125,3.80859336,0.0,-0.0012207029999995456,-10211.0,0.0,0.0,-0.0,0.0,0.0,1.9506833940000001,0.0,0.0,2143.0,0.0,0.0,0.0,0.0,0.0,4.893798327,0.0,0.0,-10013.0,0.0,0.0,-0.0,0.0,0.0,2.8527829110000003,0.0,0.0,1.100000023841858,0.699999988079071,-20.729999542236328,0.0118408203125,0.0189208984375,1.00909423828125,34.130001068115234,0.0,0.0,-0.123565673828125,-0.6307373046875,Closing,0.0,0.0,-4484.0,0.0,0.0,0.0,0.0,0.0,
2.287346000000001,0.0,0.0,2190.0,0.0,0.0,0.0,0.0,0.125,3.80859336,0.0,-0.0012207029999995456,-10211.0,0.0,0.0,-0.0,0.0,0.0,1.9494626910000001,0.0,0.0,2143.0,0.0,0.0,0.0,0.0,0.0,4.892577624,0.0,0.0,-10013.0,0.0,0.0,-0.0,0.0,0.0,2.8527829110000003,0.0,0.0,1.100000023841858,0.699999988079071,-20.729999542236328,0.0133056640625,0.015869140625,1.0003662109375,34.130001068115234,0.0,2.0,-0.123565673828125,-0.6307373046875,Closing,0.0,0.0,-4484.0,0.0,0.0,0.0,0.0,0.0,
2.306576000000001,0.0,0.0,2190.0,0.0,0.0,0.0,0.0,0.125,3.80859336,0.0,-0.0012207029999995456,-10211.0,0.0,0.0,-0.0,0.0,0.0,1.9506833940000001,0.0,0.0,2143.0,0.0,0.0,0.0,0.0,0.0,4.892577624,0.0,0.0,-10013.0,0.0,0.0,-0.0,0.0,0.0,2.8527829110000003,0.0,0.0,1.100000023841858,0.699999988079071,-20.729999542236328,0.01318359375,0.01824951171875,1.00433349609375,34.130001068115234,0.0,1.0,-0.123565673828125,-0.6307373046875,Closing,0.0,0.0,-4484.0,0.0,0.0,0.0,0.0,0.0,
2.328107,0.0,0.0,2190.0,0.0,0.0,0.0,0.0,0.125,3.80859336,0.0,0.0,-10211.0,0.0,0.0,-0.0,0.0,0.0,1.9506833940000001,0.0,0.0,2143.0,0.0,0.0,0.0,0.0,0.0,4.893798327,0.0,0.0,-10013.0,0.0,0.0,-0.0,0.0,0.0,2.8527829110000003,0.0,0.0,1.100000023841858,0.699999988079071,-20.729999542236328,0.01202392578125,0.0174560546875,0.99951171875,34.130001068115234,0.0,0.0,-0.123565673828125,-0.6307373046875,Closing,0.0,0.0,-4484.0,0.0,0.0,0.0,0.0,0.0,
2.346042000000001,0.0,0.0,2190.0,0.0,0.0,0.0,0.0,0.125,3.807372657,0.0,0.0,-10211.0,0.0,0.0,-0.0,0.0,0.0,1.9494626910000001,0.0,0.0,2143.0,0.0,0.0,0.0,0.0,0.0,4.893798327,0.0,0.0,-10013.0,0.0,0.0,-0.0,0.0,0.0,2.8527829110000003,0.0,0.0,1.100000023841858,0.699999988079071,-20.729999542236328,0.01031494140625,0.01983642578125,1.00006103515625,34.130001068115234,0.0,-1.0,-0.123565673828125,-0.6307373046875,Closing,0.0,0.0,-4484.0,0.0,0.0,0.0,0.0,0.0,
2.3657880000000007,0.0,0.0,2190.0,0.0,0.0,0.0,0.0,0.125,3.80859336,0.0,0.0012207029999995456,-10211.0,0.0,0.0,-0.0,0.0,0.0,1.9506833940000001,0.0,0.0,2143.0,0.0,0.0,0.0,0.0,0.0,4.89501903,0.0,0.0,-10013.0,0.0,0.0,-0.0,0.0,0.0,2.8540036140000002,0.0,0.0,1.100000023841858,0.699999988079071,-20.729999542236328,0.01226806640625,0.01861572265625,1.0074462890625,34.130001068115234,0.0,0.0,-0.123565673828125,-0.6307373046875,Closing,0.0,0.0,-4484.0,0.0,0.0,0.0,0.0,0.0,
2.382372000000003,0.0,0.0,2190.0,0.0,0.0,0.0,0.0,0.125,3.807372657,0.0,0.0012207029999995456,-10211.0,0.0,0.0,-0.0,0.0,0.0,1.9494626910000001,0.0,0.0,2143.0,0.0,0.0,0.0,0.0,0.0,4.893798327,0.0,0.0,-10013.0,0.0,0.0,-0.0,0.0,0.0,2.8527829110000003,0.0,0.0,1.100000023841858,0.6899999976158142,-20.729999542236328,0.0098876953125,0.01641845703125,1.00286865234375,34.130001068115234,0.0,-1.0,-0.123565673828125,-0.6307373046875,Closing,0.0,0.0,-4484.0,0.0,0.0,0.0,0.0,0.0,
2.4007590000000016,0.0,0.0,2190.0,0.0,0.0,0.0,0.0,0.125,3.807372657,0.0,0.0012207029999995456,-10211.0,0.0,0.0,-0.0,0.0,0.0,1.9494626910000001,0.0,0.0,2143.0,0.0,0.0,0.0,0.0,0.0,4.893798327,0.0,0.0,-10013.0,0.0,0.0,-0.0,0.0,0.0,2.8527829110000003,0.0,0.0,1.100000023841858,0.6899999976158142,-20.729999542236328,0.0137939453125,0.01666259765625,0.99237060546875,34.130001068115234,0.0,2.0,-0.123565673828125,-0.6307373046875,Closing,0.0,0.0,-4484.0,0.0,0.0,0.0,0.0,0.0,
2.4209230000000024,0.0,0.0,2190.0,0.0,0.0,0.0,0.0,0.125,3.80859336,0.0,-0.0012207029999995456,-10211.0,0.0,0.0,-0.0,0.0,0.0,1.9506833940000001,0.0,0.0,2143.0,0.0,0.0,0.0,0.0,0.0,4.893798327,0.0,0.0,-10013.0,0.0,0.0,-0.0,0.0,0.0,2.8527829110000003,0.0,0.0,1.100000023841858,0.6899999976158142,-20.739999771118164,0.01214599609375,0.0181884765625,1.00543212890625,34.130001068115234,0.0,0.0,-0.123565673828125,-0.6307373046875,Closing,0.0,0.0,-4484.0,0.0,0.0,0.0,0.0,0.0,
2.440939000000002,0.0,0.0,2190.0,0.0,0.0,0.0,0.0,0.125,3.80859336,0.0,-0.0012207029999995456,-10211.0,0.0,0.0,-0.0,0.0,0.0,1.9506833940000001,0.0,0.0,2143.0,0.0,0.0,0.0,0.0,0.0,4.892577624,0.0,0.0,-10013.0,0.0,0.0,-0.0,0.0,0.0,2.8527829110000003,0.0,0.0,1.100000023841858,0.6899999976158142,-20.739999771118164,0.01318359375,0.02056884765625,1.01214599609375,34.130001068115234,0.0,0.0,-0.123565673828125,-0.6307373046875,Closing,0.0,0.0,-4484.0,0.0,0.0,0.0,0.0,0.0,
2.4622400000000018,0.0,0.0,2190.0,0.0,0.0,0.0,0.0,0.125,3.80859336,0.0,0.0,-10211.0,0.0,0.0,-0.0,0.0,0.0,1.9506833940000001,0.0,0.0,2143.0,0.0,0.0,0.0,0.0,0.0,4.89501903,0.0,0.0,-10013.0,0.0,0.0,-0.0,0.0,0.0,2.8540036140000002,0.0,0.0,1.100000023841858,0.699999988079071,-20.729999542236328,0.01141357421875,0.01904296875,1.003173828125,34.130001068115234,0.0,0.0,-0.123565673828125,-0.6307373046875,Closing,0.0,0.0,-4484.0,0.0,0.0,0.0,0.0,0.0,
2.480830000000002,0.0,0.0,2190.0,0.0,0.0,0.0,0.0,0.125,3.80859336,0.0,0.0,-10211.0,0.0,0.0,-0.0,0.0,0.0,1.9506833940000001,0.0,0.0,2143.0,0.0,0.0,0.0,0.0,0.0,4.892577624,0.0,0.0,-10013.0,0.0,0.0,-0.0,0.0,0.0,2.8527829110000003,0.0,0.0,1.100000023841858,0.699999988079071,-20.729999542236328,0.013427734375,0.01751708984375,0.99407958984375,34.130001068115234,0.0,1.0,-0.123565673828125,-0.6307373046875,Closing,0.0,0.0,-4484.0,0.0,0.0,0.0,0.0,0.0,
2.5001370000000023,0.0,0.0,2190.0,0.0,0.0,0.0,0.0,0.125,3.80859336,0.0,0.0,-10211.0,0.0,0.0,-0.0,0.0,0.0,1.9494626910000001,0.0,0.0,2143.0,0.0,0.0,0.0,0.0,0.0,4.892577624,0.0,0.0,-10013.0,0.0,0.0,-0.0,0.0,0.0,2.8527829110000003,0.0,0.0,1.100000023841858,0.699999988079071,-20.729999542236328,0.01123046875,0.0194091796875,0.99639892578125,34.130001068115234,0.0,-1.0,-0.123565673828125,-0.6307373046875,Closing,0.0,0.0,-4484.0,0.0,0.0,0.0,0.0,0.0,
2.5204090000000035,0.0,0.0,2190.0,0.0,0.0,0.0,0.0,0.125,3.80859336,0.0,0.0,-10211.0,0.0,0.0,-0.0,0.0,0.0,1.9494626910000001,0.0,0.0,2143.0,0.0,0.0,0.0,0.0,0.0,4.891356921,0.0,0.0,-10013.0,0.0,0.0,-0.0,0.0,0.0,2.8540036140000002,0.0,0.0,1.100000023841858,0.6899999976158142,-20.729999542236328,0.012451171875,0.01751708984375,1.00531005859375,34.130001068115234,0.0,0.0,-0.123565673828125,-0.6307373046875,Closing,0.0,0.0,-4484.0,0.0,0.0,0.0,0.0,0.0,
2.5409540000000015,0.0,0.0,2190.0,0.0,0.0,0.0,0.0,0.125,3.80859336,0.0,0.0,-10211.0,0.0,0.0,-0.0,0.0,0.0,1.9506833940000001,0.0,0.0,2143.0,0.0,0.0,0.0,0.0,0.0,4.892577624,0.0,0.0,-10013.0,0.0,0.0,-0.0,0.0,0.0,2.8527829110000003,0.0,0.0,1.100000023841858,0.699999988079071,-20.729999542236328,0.0118408203125,0.01531982421875,0.9879150390625,34.130001068115234,0.0,0.0,-0.123565673828125,-0.6307373046875,Closing,0.0,0.0,-4484.0,0.0,0.0,0.0,0.0,0.0,
2.5606030000000026,0.0,0.0,2190.0,0.0,0.0,0.0,0.0,0.125,3.80859336,0.0,0.0,-10211.0,0.0,0.0,-0.0,0.0,0.0,1.9494626910000001,0.0,0.0,2143.0,0.0,0.0,0.0,0.0,0.0,4.89501903,0.0,0.0,-10013.0,0.0,0.0,-0.0,0.0,0.0,2.8540036140000002,0.0,0.0,1.100000023841858,0.6899999976158142,-20.729999542236328,0.00970458984375,0.02166748046875,1.00103759765625,34.130001068115234,0.0,-3.0,-0.123565673828125,-0.6307373046875,Closing,0.0,0.0,-4484.0,0.0,0.0,0.0,0.0,0.0,
2.5808410000000004,0.0,0.0,2190.0,0.0,0.0,0.0,0.0,0.125,3.80859336,0.0,0.0,-10211.0,0.0,0.0,-0.0,0.0,0.0,1.9506833940000001,0.0,0.0,2143.0,0.0,0.0,0.0,0.0,0.0,4.893798327,0.0,0.0,-10013.0,0.0,0.0,-0.0,0.0,0.0,2.8527829110000003,0.0,0.0,1.100000023841858,0.6899999976158142,-20.729999542236328,0.01031494140625,0.016357421875,1.00897216796875,34.130001068115234,0.0,0.0,-0.123565673828125,-0.6307373046875,Closing,0.0,0.0,-4484.0,0.0,0.0,0.0,0.0,0.0,
2.600987000000001,0.0,0.0,2190.0,0.0,0.0,0.0,0.0,0.125,3.809814063,0.0,0.0,-10211.0,0.0,0.0,-0.0,0.0,0.0,1.9494626910000001,0.0,0.0,2143.0,0.0,0.0,0.0,0.0,0.0,4.892577624,0.0,0.0,-10013.0,0.0,0.0,-0.0,0.0,0.0,2.8527829110000003,0.0,0.0,1.100000023841858,0.6899999976158142,-20.729999542236328,0.01116943359375,0.02069091796875,1.0001220703125,34.130001068115234,0.0,-1.0,-0.123565673828125,-0.6307373046875,Closing,0.0,0.0,-4484.0,0.0,0.0,0.0,0.0,0.0,
2.620386000000002,0.0,0.0,2190.0,0.0,0.0,0.0,0.0,0.125,3.80859336,0.0,0.0,-10211.0,0.0,0.0,-0.0,0.0,0.0,1.9506833940000001,0.0,0.0,2143.0,0.0,0.0,0.0,0.0,0.0,4.892577624,0.0,0.0,-10013.0,0.0,0.0,-0.0,0.0,0.0,2.8527829110000003,0.0,-0.0012207030000004337,1.100000023841858,0.6899999976158142,-20.729999542236328,0.0108642578125,0.01763916015625,1.0020751953125,34.130001068115234,0.0,0.0,-0.123565673828125,-0.6307373046875,Closing,0.0,0.0,-4484.0,0.0,0.0,0.0,0.0,0.0,
2.6401680000000014,0.0,0.0,2190.0,0.0,0.0,0.0,0.0,0.125,3.80859336,0.0,0.0,-10211.0,0.0,0.0,-0.0,0.0,0.0,1.9506833940000001,0.0,0.0,2143.0,0.0,0.0,0.0,0.0,0.0,4.893798327,0.0,0.0,-10013.0,0.0,0.0,-0.0,0.0,0.0,2.8527829110000003,0.0,-0.0012207030000004337,1.100000023841858,0.6899999976158142,-20.729999542236328,0.01287841796875,0.022705078125,0.99664306640625,34.130001068115234,0.0,0.0,-0.123565673828125,-0.6307373046875,Closing,0.0,0.0,-4484.0,0.0,0.0,0.0,0.0,0.0,
2.661005000000001,0.0,0.0,2190.0,0.0,0.0,0.0,0.0,0.125,3.80859336,0.0,0.0,-10211.0,0.0,0.0,-0.0,0.0,0.0,1.9506833940000001,0.0,0.0,2143.0,0.0,0.0,0.0,0.0,0.0,4.892577624,0.0,0.0,-10013.0,0.0,0.0,-0.0,0.0,0.0,2.8527829110000003,0.0,0.0012207030000004337,1.100000023841858,0.6899999976158142,-20.729999542236328,0.01434326171875,0.01806640625,0.99005126953125,34.130001068115234,0.0,2.0,-0.123565673828125,-0.6307373046875,Closing,0.0,0.0,-4484.0,0.0,0.0,0.0,0.0,0.0,
2.680552000000003,0.0,0.0,2190.0,0.0,0.0,0.0,0.0,0.125,3.80859336,0.0,0.0,-10211.0,0.0,0.0,-0.0,0.0,0.0,1.9506833940000001,0.0,0.0,2143.0,0.0,0.0,0.0,0.0,0.0,4.892577624,0.0,0.0,-10013.0,0.0,0.0,-0.0,0.0,0.0,2.8527829110000003,0.0,0.0012207030000004337,1.100000023841858,0.6899999976158142,-20.729999542236328,0.01495361328125,0.01763916015625,1.00616455078125,34.130001068115234,0.0,3.0,-0.123565673828125,-0.6307373046875,Closing,0.0,0.0,-4484.0,0.0,0.0,0.0,0.0,0.0,
2.700616000000002,0.0,0.0,2190.0,0.0,0.0,0.0,0.0,0.125,3.80859336,0.0,0.0,-10211.0,0.0,0.0,-0.0,0.0,0.0,1.9506833940000001,0.0,0.0,2143.0,0.0,0.0,0.0,0.0,0.0,4.892577624,0.0,0.0,-10013.0,0.0,0.0,-0.0,0.0,0.0,2.8527829110000003,0.0,0.0012207030000004337,1.100000023841858,0.699999988079071,-20.729999542236328,0.0152587890625,0.0198974609375,0.99444580078125,34.130001068115234,0.0,2.0,-0.123565673828125,-0.6307373046875,Closing,0.0,0.0,-4484.0,0.0,0.0,0.0,0.0,0.0,
2.7207460000000028,0.0,0.0,2190.0,0.0,0.0,0.0,0.0,0.125,3.809814063,0.0,0.0,-10211.0,0.0,0.0,-0.0,0.0,0.0,1.9494626910000001,0.0,0.0,2143.0,0.0,0.0,0.0,0.0,0.0,4.892577624,0.0,0.0,-10013.0,0.0,0.0,-0.0,0.0,0.0,2.8527829110000003,0.0,0.0,1.100000023841858,0.699999988079071,-20.729999542236328,0.01190185546875,0.0166015625,0.99603271484375,34.130001068115234,0.0,0.0,-0.123565673828125,-0.6307373046875,Closing,0.0,0.0,-4484.0,0.0,0.0,0.0,0.0,0.0,
2.7408240000000004,0.0,0.0,2190.0,0.0,0.0,0.0,0.0,0.125,3.809814063,0.0,0.0,-10211.0,0.0,0.0,-0.0,0.0,0.0,1.9506833940000001,0.0,0.0,2143.0,0.0,0.0,0.0,0.0,0.0,4.893798327,0.0,0.0,-10013.0,0.0,0.0,-0.0,0.0,0.0,2.8527829110000003,0.0,0.0,1.100000023841858,0.699999988079071,-20.729999542236328,0.01416015625,0.019287109375,1.0010986328125,34.130001068115234,0.0,1.0,-0.123565673828125,-0.6307373046875,Closing,0.0,0.0,-4484.0,0.0,0.0,0.0,0.0,0.0,
2.7602250000000024,0.0,0.0,2190.0,0.0,0.0,0.0,0.0,0.125,3.80859336,0.0,0.0,-10211.0,0.0,0.0,-0.0,0.0,0.0,1.9506833940000001,0.0,0.0,2143.0,0.0,0.0,0.0,0.0,0.0,4.893798327,0.0,0.0,-10013.0,0.0,0.0,-0.0,0.0,0.0,2.8527829110000003,0.0,0.0,1.100000023841858,0.6899999976158142,-20.729999542236328,0.012939453125,0.0203857421875,1.0030517578125,34.130001068115234,0.0,0.0,-0.123565673828125,-0.6307373046875,Closing,0.0,0.0,-4484.0,0.0,0.0,0.0,0.0,0.0,
2.7808640000000016,0.0,0.0,2190.0,0.0,0.0,0.0,0.0,0.125,3.80859336,0.0,0.0,-10211.0,0.0,0.0,-0.0,0.0,0.0,1.9494626910000001,0.0,0.0,2143.0,0.0,0.0,0.0,0.0,0.0,4.892577624,0.0,0.0,-10013.0,0.0,0.0,-0.0,0.0,0.0,2.8527829110000003,0.0,0.0,1.100000023841858,0.6899999976158142,-20.729999542236328,0.010986328125,0.0179443359375,0.99945068359375,34.130001068115234,0.0,0.0,-0.123565673828125,-0.6307373046875,Closing,0.0,0.0,-4484.0,0.0,0.0,0.0,0.0,0.0,
2.8003820000000013,0.0,0.0,2190.0,0.0,0.0,0.0,0.0,0.125,3.807372657,0.0,0.0,-10211.0,0.0,0.0,-0.0,0.0,0.0,1.9494626910000001,0.0,0.0,2143.0,0.0,0.0,0.0,0.0,0.0,4.892577624,0.0,0.0,-10013.0,0.0,0.0,-0.0,0.0,0.0,2.8527829110000003,0.0,0.0,1.100000023841858,0.6899999976158142,-20.729999542236328,0.01055908203125,0.0172119140625,1.00189208984375,34.130001068115234,0.0,0.0,-0.123565673828125,-0.6307373046875,Closing,0.0,0.0,-4484.0,0.0,0.0,0.0,0.0,0.0,
2.820284000000003,0.0,0.0,2190.0,0.0,0.0,0.0,0.0,0.125,3.807372657,0.0,0.0,-10211.0,0.0,0.0,-0.0,0.0,0.0,1.9506833940000001,0.0,0.0,2143.0,0.0,0.0,0.0,0.0,0.0,4.893798327,0.0,0.0,-10013.0,0.0,0.0,-0.0,0.0,0.0,2.8527829110000003,0.0,0.0,1.100000023841858,0.6899999976158142,-20.729999542236328,0.01171875,0.01654052734375,1.00347900390625,34.130001068115234,0.0,0.0,-0.123565673828125,-0.6307373046875,Closing,0.0,0.0,-4484.0,0.0,0.0,0.0,0.0,0.0,
2.840331000000002,0.0,0.0,2190.0,0.0,0.0,0.0,0.0,0.125,3.80859336,0.0,0.0,-10211.0,0.0,0.0,-0.0,0.0,0.0,1.9506833940000001,0.0,0.0,2143.0,0.0,0.0,0.0,0.0,0.0,4.892577624,0.0,0.0,-10013.0,0.0,0.0,-0.0,0.0,0.0,2.8527829110000003,0.0,0.0,1.100000023841858,0.6899999976158142,-20.729999542236328,0.0115966796875,0.022216796875,1.00225830078125,34.130001068115234,0.0,-1.0,-0.123565673828125,-0.6307373046875,Closing,0.0,0.0,-4484.0,0.0,0.0,0.0,0.0,0.0,
2.8601190000000023,0.0,0.0,2190.0,0.0,0.0,0.0,0.0,0.125,3.80859336,0.0,0.0,-10211.0,0.0,0.0,-0.0,0.0,0.0,1.9494626910000001,0.0,0.0,2143.0,0.0,0.0,0.0,0.0,0.0,4.892577624,0.0,0.0,-10013.0,0.0,0.0,-0.0,0.0,0.0,2.8527829110000003,0.0,-0.0012207030000004337,1.100000023841858,0.6899999976158142,-20.729999542236328,0.01312255859375,0.0198974609375,1.0037841796875,34.130001068115234,0.0,0.0,-0.123565673828125,-0.6307373046875,Closing,0.0,0.0,-4484.0,0.0,0.0,0.0,0.0,0.0,
2.880380000000001,0.0,0.0,2190.0,0.0,0.0,0.0,0.0,0.125,3.80859336,0.0,0.0,-10211.0,0.0,0.0,-0.0,0.0,0.0,1.9494626910000001,0.0,0.0,2143.0,0.0,0.0,0.0,0.0,0.0,4.891356921,0.0,0.0,-10013.0,0.0,0.0,-0.0,0.0,0.0,2.8527829110000003,0.0,-0.0012207030000004337,1.100000023841858,0.6899999976158142,-20.729999542236328,0.01031494140625,0.01885986328125,0.99920654296875,34.130001068115234,0.0,-1.0,-0.123565673828125,-0.6307373046875,Closing,0.0,0.0,-4484.0,0.0,0.0,0.0,0.0,0.0,
2.9007030000000014,0.0,0.0,2190.0,0.0,0.0,0.0,0.0,0.125,3.80859336,0.0,0.0,-10211.0,0.0,0.0,-0.0,0.0,0.0,1.9506833940000001,0.0,0.0,2143.0,0.0,0.0,0.0,0.0,0.0,4.893798327,0.0,0.0,-10013.0,0.0,0.0,-0.0,0.0,0.0,2.8527829110000003,0.0,-0.0012207030000004337,1.100000023841858,0.6899999976158142,-20.729999542236328,0.01373291015625,0.017822265625,0.99664306640625,34.130001068115234,0.0,1.0,-0.123565673828125,-0.6307373046875,Closing,0.0,0.0,-4484.0,0.0,0.0,0.0,0.0,0.0,
2.920446,0.0,0.0,2190.0,0.0,0.0,0.0,0.0,0.125,3.80859336,0.0,0.0,-10211.0,0.0,0.0,-0.0,0.0,0.0,1.9506833940000001,0.0,0.0,2143.0,0.0,0.0,0.0,0.0,0.0,4.892577624,0.0,0.0,-10013.0,0.0,0.0,-0.0,0.0,0.0,2.8527829110000003,0.0,0.0012207030000004337,1.100000023841858,0.699999988079071,-20.729999542236328,0.01129150390625,0.0205078125,1.00762939453125,34.130001068115234,0.0,-1.0,-0.123565673828125,-0.6307373046875,Closing,0.0,0.0,-4484.0,0.0,0.0,0.0,0.0,0.0,
2.941183000000001,0.0,0.0,2190.0,0.0,0.0,0.0,0.0,0.125,3.80859336,0.0,0.0,-10211.0,0.0,0.0,-0.0,0.0,0.0,1.9506833940000001,0.0,0.0,2143.0,0.0,0.0,0.0,0.0,0.0,4.893798327,0.0,0.0,-10013.0,0.0,0.0,-0.0,0.0,0.0,2.8540036140000002,0.0,0.0012207030000004337,1.100000023841858,0.6899999976158142,-20.729999542236328,0.01385498046875,0.02197265625,1.00152587890625,34.130001068115234,0.0,0.0,-0.123565673828125,-0.6307373046875,Closing,0.0,0.0,-4484.0,0.0,0.0,0.0,0.0,0.0,
2.9644160000000013,0.0,0.0,2190.0,0.0,0.0,0.0,0.0,0.125,3.80859336,0.0,0.0012207029999995456,-10211.0,0.0,0.0,-0.0,0.0,0.0,1.9506833940000001,0.0,0.0,2143.0,0.0,0.0,0.0,0.0,0.0,4.892577624,0.0,0.0,-10013.0,0.0,0.0,-0.0,0.0,0.0,2.8527829110000003,0.0,0.0,1.1100000143051147,0.6899999976158142,-20.729999542236328,0.01409912109375,0.02142333984375,0.99432373046875,34.130001068115234,0.0,-1.0,-0.123565673828125,-0.6307373046875,Closing,0.0,0.0,-4484.0,0.0,0.0,0.0,0.0,0.0,
2.9810470000000024,0.0,0.0,2190.0,0.0,0.0,0.0,0.0,0.125,3.80859336,0.0,0.0012207029999995456,-10211.0,0.0,0.0,-0.0,0.0,0.0,1.9494626910000001,0.0,0.0,2143.0,0.0,0.0,0.0,0.0,0.0,4.893798327,0.0,0.0,-10013.0,0.0,0.0,-0.0,0.0,0.0,2.8540036140000002,0.0,0.0,1.1100000143051147,0.6899999976158142,-20.729999542236328,0.01434326171875,0.0150146484375,1.0067138671875,34.130001068115234,0.0,3.0,-0.123565673828125,-0.6307373046875,Closing,0.0,0.0,-4484.0,0.0,0.0,0.0,0.0,0.0,
3.000898000000001,0.0,0.0,2190.0,0.0,0.0,0.0,0.0,0.125,3.80859336,0.0,0.0012207029999995456,-10211.0,0.0,0.0,-0.0,0.0,0.0,1.9494626910000001,0.0,0.0,2143.0,0.0,0.0,0.0,0.0,0.0,4.89501903,0.0,0.0,-10013.0,0.0,0.0,-0.0,0.0,0.0,2.8527829110000003,0.0,0.0,1.1100000143051147,0.6899999976158142,-20.729999542236328,0.01470947265625,0.01715087890625,1.004150390625,34.130001068115234,0.0,3.0,-0.123565673828125,-0.6307373046875,Closing,0.0,0.0,-4484.0,0.0,0.0,0.0,0.0,0.0,
3.0207590000000017,0.0,0.0,2190.0,0.0,0.0,0.0,0.0,0.125,3.80859336,0.0,-0.0012207029999995456,-10211.0,0.0,0.0,-0.0,0.0,0.0,1.9494626910000001,0.0,0.0,2143.0,0.0,0.0,0.0,0.0,0.0,4.891356921,0.0,0.0,-10013.0,0.0,0.0,-0.0,0.0,0.0,2.8527829110000003,0.0,0.0,1.100000023841858,0.699999988079071,-20.729999542236328,0.01025390625,0.0181884765625,0.99969482421875,34.130001068115234,0.0,-1.0,-0.123565673828125,-0.6307373046875,Closing,0.0,0.0,-4484.0,0.0,0.0,0.0,0.0,0.0,
