Time,ClimberA1,ClimberA2,FRpos,FRCurrent,FRspeed,FRsetpoint,FRApos,FRACurrent,FREncpos,FREncSetpoint,FREncSpeed,FLpos,FLCurrent,FLspeed,FLsetpoint,FLApos,FLACurrent,FLEncpos,FLEncSetpoint,FLEncSpeed,BRpos,BRCurrent,BRspeed,BRsetpoint,BRApos,BRACurrent,BREncpos,BREncSetpoint,BREncSpeed,BLpos,BLCurrent,BLspeed,BLsetpoint,BLApos,BLACurrent,BLEncpos,BLEncSetpoint,BLEncSpeed,navx_Pitch,navx_Roll,navx_Yaw,navx_XAcc,navx_YAcc,navx_ZAcc,navx_Temp,navx_Bar,navx_Alt,navx_XDis,navx_YDis,GearPlacerState,ShootOutputV,ShootOutputCurrent,ShootEncPos,ShootEncVelocity,ShootSpeed,ShootSetpoint,CarouselSetpoint,CarouselCurrent,
0.1645010000000002,0.0,0.0,0.0,0.0,0.0,0.0,0.0,0.0,3.863524995,0.01,0.0,0.0,0.0,0.0,0.0,0.0,0.0,1.9165037100000002,0.01,0.0,0.0,0.0,0.0,0.0,0.0,0.0,4.228515192000001,0.01,0.0,0.0,0.0,0.0,0.0,0.0,0.0,2.886962595,0.01,0.0,1.2899999618530273,0.8299999833106995,-0.029999999329447746,0.0135498046875,0.0213623046875,1.01336669921875,28.309999465942383,0.0,-1.0,0.0,3.509521484375E-4,Waiting,0.0,0.0,0.0,0.0,0.0,0.0,0.0,0.0,
0.20678600000000005,0.0,0.0,0.0,0.0,0.0,0.0,0.0,0.0,3.863524995,0.0,0.02230429200000028,0.0,0.0,0.0,-0.0,0.0,0.0,1.9165037100000002,0.0,0.015283007000000293,0.0,0.0,0.0,0.0,0.0,0.0,4.227294489,0.0,4.952515192,0.0,0.0,0.0,-0.0,0.0,0.0,2.886962595,0.0,0.016962594999999858,1.2899999618530273,0.8299999833106995,-0.029999999329447746,0.013671875,0.021240234375,1.0147705078125,28.309999465942383,0.0,-1.0,0.0,3.509521484375E-4,Closing,0.0,0.0,0.0,0.0,0.0,0.0,0.0,0.0,
0.22867799999999988,0.0,0.0,0.0,0.0,0.0,0.0,0.0,0.0,3.863524995,0.0,0.02230429200000028,0.0,0.0,0.0,-0.0,0.0,0.0,1.9152830070000002,0.0,0.015283007000000293,0.0,0.0,0.0,0.0,0.0,0.0,4.229735895,0.0,4.952515192,0.0,0.0,0.0,-0.0,0.0,0.0,2.886962595,0.0,0.016962594999999858,1.2899999618530273,0.8299999833106995,-0.029999999329447746,0.01336669921875,0.02490234375,1.01092529296875,28.309999465942383,0.0,-1.0,0.0,3.509521484375E-4,Closing,0.0,0.0,0.0,0.0,0.0,0.0,0.0,0.0,
0.26031500000000235,0.0,0.0,0.0,0.0,0.0,0.0,0.0,0.0,3.863524995,0.0,0.0012207029999999897,0.0,0.0,0.0,-0.0,0.0,0.0,1.9165037100000002,0.0,0.0012207029999999897,0.0,0.0,0.0,0.0,0.0,0.0,4.228515192000001,0.0,0.0,0.0,0.0,0.0,-0.0,0.0,0.0,2.886962595,0.0,0.0,1.2899999618530273,0.8299999833106995,-0.029999999329447746,0.01409912109375,0.02203369140625,1.00958251953125,28.309999465942383,0.0,0.0,0.0,3.509521484375E-4,Closing,0.0,0.0,0.0,0.0,0.0,0.0,0.0,0.0,
0.2859390000000021,0.0,0.0,0.0,0.0,0.0,0.0,0.0,0.0,3.863524995,0.0,0.0012207029999999897,0.0,0.0,0.0,-0.0,0.0,0.0,1.9165037100000002,0.0,0.0012207029999999897,0.0,0.0,0.0,0.0,0.0,0.0,4.228515192000001,0.0,0.0,0.0,0.0,0.0,-0.0,0.0,0.0,2.886962595,0.0,0.0,1.2899999618530273,0.8299999833106995,-0.029999999329447746,0.01824951171875,0.02044677734375,1.01202392578125,28.309999465942383,0.0,3.0,0.0,3.509521484375E-4,Closing,0.0,0.0,0.0,0.0,0.0,0.0,0.0,0.0,
0.3107410000000018,0.0,0.0,0.0,0.0,0.0,0.0,0.0,0.0,3.863524995,0.0,0.0,0.0,0.0,0.0,-0.0,0.0,0.0,1.9165037100000002,0.0,-0.0012207029999999897,0.0,0.0,0.0,0.0,0.0,0.0,4.228515192000001,0.0,0.0,0.0,0.0,0.0,-0.0,0.0,0.0,2.888183298,0.0,0.0,1.2899999618530273,0.8299999833106995,-0.029999999329447746,0.01318359375,0.02294921875,1.0101318359375,28.309999465942383,0.0,-1.0,0.0,3.509521484375E-4,Closing,0.0,0.0,0.0,0.0,0.0,0.0,0.0,0.0,
0.33209400000000094,0.0,0.0,0.0,0.0,0.0,0.0,0.0,0.0,3.863524995,0.0,0.0,0.0,0.0,0.0,-0.0,0.0,0.0,1.9165037100000002,0.0,-0.0012207029999999897,0.0,0.0,0.0,0.0,0.0,0.0,4.229735895,0.0,0.0,0.0,0.0,0.0,-0.0,0.0,0.0,2.888183298,0.0,0.0,1.2899999618530273,0.8299999833106995,-0.03999999910593033,0.0130615234375,0.02203369140625,1.00836181640625,28.309999465942383,0.0,-1.0,0.0,3.509521484375E-4,Closing,0.0,0.0,0.0,0.0,0.0,0.0,0.0,0.0,
0.37840899999999966,0.0,0.0,0.0,0.0,0.0,0.0,0.0,0.0,3.863524995,0.0,0.0,0.0,0.0,0.0,-0.0,0.0,0.0,1.9165037100000002,0.0,0.0012207029999999897,0.0,0.0,0.0,0.0,0.0,0.0,4.228515192000001,0.0,0.0,0.0,0.0,0.0,-0.0,0.0,0.0,2.886962595,0.0,0.0,1.2899999618530273,0.8299999833106995,-0.03999999910593033,0.015380859375,0.0228271484375,1.01080322265625,28.309999465942383,0.0,0.0,0.0,3.509521484375E-4,Closing,0.0,0.0,0.0,0.0,0.0,0.0,0.0,0.0,
0.4072570000000014,0.0,0.0,0.0,0.0,0.0,0.0,0.0,0.0,3.863524995,0.0,-0.0012207029999999897,0.0,0.0,0.0,-0.0,0.0,0.0,1.9165037100000002,0.0,-0.0012207029999999897,0.0,0.0,0.0,0.0,0.0,0.0,4.229735895,0.0,0.0,0.0,0.0,0.0,-0.0,0.0,0.0,2.886962595,0.0,0.0,1.2899999618530273,0.8299999833106995,-0.03999999910593033,0.015380859375,0.0228271484375,1.01080322265625,28.309999465942383,0.0,0.0,0.0,3.509521484375E-4,Closing,0.0,0.0,0.0,0.0,0.0,0.0,0.0,0.0,
0.42838900000000285,0.0,0.0,0.0,0.0,0.0,0.0,0.0,0.0,3.863524995,0.0,-0.0012207029999999897,0.0,0.0,0.0,-0.0,0.0,0.0,1.9165037100000002,0.0,-0.0012207029999999897,0.0,0.0,0.0,0.0,0.0,0.0,4.228515192000001,0.0,0.0,0.0,0.0,0.0,-0.0,0.0,0.0,2.886962595,0.0,0.0,1.2899999618530273,0.8299999833106995,-0.03999999910593033,0.0157470703125,0.02276611328125,1.00775146484375,28.309999465942383,0.0,1.0,0.0,3.509521484375E-4,Closing,0.0,0.0,0.0,0.0,0.0,0.0,0.0,0.0,
0.45364800000000105,0.0,0.0,0.0,0.0,0.0,0.0,0.0,0.0,3.863524995,0.0,0.0012207029999999897,0.0,0.0,0.0,-0.0,0.0,0.0,1.9165037100000002,0.0,0.0012207029999999897,0.0,0.0,0.0,0.0,0.0,0.0,4.228515192000001,0.0,0.0,0.0,0.0,0.0,-0.0,0.0,0.0,2.888183298,0.0,0.0,1.2899999618530273,0.8299999833106995,-0.03999999910593033,0.0152587890625,0.0196533203125,1.0103759765625,28.309999465942383,0.0,0.0,0.0,3.509521484375E-4,Closing,0.0,0.0,0.0,0.0,0.0,0.0,0.0,0.0,
0.4775580000000009,0.0,0.0,0.0,0.0,0.0,0.0,0.0,0.0,3.863524995,0.0,0.0012207029999999897,0.0,0.0,0.0,-0.0,0.0,0.0,1.9165037100000002,0.0,0.0012207029999999897,0.0,0.0,0.0,0.0,0.0,0.0,4.229735895,0.0,0.0,0.0,0.0,0.0,-0.0,0.0,0.0,2.886962595,0.0,0.0,1.2899999618530273,0.8299999833106995,-0.03999999910593033,0.0155029296875,0.02197265625,1.0115966796875,28.309999465942383,0.0,0.0,0.0,3.509521484375E-4,Closing,0.0,0.0,0.0,0.0,0.0,0.0,0.0,0.0,
0.5022010000000009,0.0,0.0,0.0,0.0,0.0,0.0,0.0,0.0,3.863524995,0.0,0.0,0.0,0.0,0.0,-0.0,0.0,0.0,1.9165037100000002,0.0,-0.0012207029999999897,0.0,0.0,0.0,0.0,0.0,0.0,4.227294489,0.0,0.0,0.0,0.0,0.0,-0.0,0.0,0.0,2.886962595,0.0,0.0,1.2899999618530273,0.8299999833106995,-0.029999999329447746,0.0140380859375,0.0208740234375,1.00872802734375,28.309999465942383,0.0,0.0,0.0,3.509521484375E-4,Closing,0.0,0.0,0.0,0.0,0.0,0.0,0.0,0.0,
0.5273100000000013,0.0,0.0,0.0,0.0,0.0,0.0,0.0,0.0,3.863524995,0.0,0.0,0.0,0.0,0.0,-0.0,0.0,0.0,1.9165037100000002,0.0,-0.0012207029999999897,0.0,0.0,0.0,0.0,0.0,0.0,4.228515192000001,0.0,0.0,0.0,0.0,0.0,-0.0,0.0,0.0,2.888183298,0.0,0.0,1.2899999618530273,0.8299999833106995,-0.03999999910593033,0.016357421875,0.0208740234375,1.0128173828125,28.309999465942383,0.0,1.0,0.0,3.509521484375E-4,Closing,0.0,0.0,0.0,0.0,0.0,0.0,0.0,0.0,
0.5504550000000017,0.0,0.0,0.0,0.0,0.0,0.0,0.0,0.0,3.863524995,0.0,0.0,0.0,0.0,0.0,-0.0,0.0,0.0,1.9165037100000002,0.0,0.0012207029999999897,0.0,0.0,0.0,0.0,0.0,0.0,4.229735895,0.0,0.0,0.0,0.0,0.0,-0.0,0.0,0.0,2.888183298,0.0,0.0,1.2899999618530273,0.8299999833106995,-0.029999999329447746,0.01776123046875,0.0244140625,1.01141357421875,28.309999465942383,0.0,3.0,0.0,3.509521484375E-4,Closing,0.0,0.0,0.0,0.0,0.0,0.0,0.0,0.0,
0.576161,0.0,0.0,0.0,0.0,0.0,0.0,0.0,0.0,3.863524995,0.0,0.0,0.0,0.0,0.0,-0.0,0.0,0.0,1.9165037100000002,0.0,0.0012207029999999897,0.0,0.0,0.0,0.0,0.0,0.0,4.228515192000001,0.0,0.0,0.0,0.0,0.0,-0.0,0.0,0.0,2.886962595,0.0,0.0,1.2899999618530273,0.8299999833106995,-0.03999999910593033,0.0172119140625,0.02294921875,1.0093994140625,28.309999465942383,0.0,2.0,0.0,3.509521484375E-4,Closing,0.0,0.0,0.0,0.0,0.0,0.0,0.0,0.0,
0.607344000000001,0.0,0.0,0.0,0.0,0.0,0.0,0.0,0.0,3.863524995,0.0,-0.0012207029999999897,0.0,0.0,0.0,-0.0,0.0,0.0,1.9165037100000002,0.0,-0.0012207029999999897,0.0,0.0,0.0,0.0,0.0,0.0,4.227294489,0.0,0.0,0.0,0.0,0.0,-0.0,0.0,0.0,2.888183298,0.0,0.0,1.2899999618530273,0.8299999833106995,-0.03999999910593033,0.0142822265625,0.02105712890625,1.00592041015625,28.31999969482422,0.0,0.0,0.0,3.509521484375E-4,Closing,0.0,0.0,0.0,0.0,0.0,0.0,0.0,0.0,
0.6291160000000018,0.0,0.0,0.0,0.0,0.0,0.0,0.0,0.0,3.863524995,0.0,-0.0012207029999999897,0.0,0.0,0.0,-0.0,0.0,0.0,1.9165037100000002,0.0,-0.0012207029999999897,0.0,0.0,0.0,0.0,0.0,0.0,4.229735895,0.0,0.0,0.0,0.0,0.0,-0.0,0.0,0.0,2.886962595,0.0,0.0,1.2899999618530273,0.8299999833106995,-0.03999999910593033,0.01312255859375,0.01971435546875,1.01239013671875,28.31999969482422,0.0,-1.0,0.0,3.509521484375E-4,Closing,0.0,0.0,0.0,0.0,0.0,0.0,0.0,0.0,
0.650510000000002,0.0,0.0,0.0,0.0,0.0,0.0,0.0,0.0,3.864745698,0.0,0.0012207029999999897,0.0,0.0,0.0,-0.0,0.0,0.0,1.9165037100000002,0.0,0.0012207029999999897,0.0,0.0,0.0,0.0,0.0,0.0,4.228515192000001,0.0,0.0,0.0,0.0,0.0,-0.0,0.0,0.0,2.886962595,0.0,0.0,1.2899999618530273,0.8299999833106995,-0.03999999910593033,0.0147705078125,0.02239990234375,1.01177978515625,28.31999969482422,0.0,0.0,0.0,3.509521484375E-4,Closing,0.0,0.0,0.0,0.0,0.0,0.0,0.0,0.0,
0.6902489999999998,0.0,0.0,0.0,0.0,0.0,0.0,0.0,0.0,3.863524995,0.0,0.0012207029999999897,0.0,0.0,0.0,-0.0,0.0,0.0,1.9165037100000002,0.0,0.0012207029999999897,0.0,0.0,0.0,0.0,0.0,0.0,4.229735895,0.0,0.0,0.0,0.0,0.0,-0.0,0.0,0.0,2.886962595,0.0,0.0,1.2899999618530273,0.8299999833106995,-0.03999999910593033,0.01641845703125,0.02099609375,1.012451171875,28.31999969482422,0.0,1.0,0.0,3.509521484375E-4,Closing,0.0,0.0,0.0,0.0,0.0,0.0,0.0,0.0,
0.7295770000000011,0.0,0.0,0.0,0.0,0.0,0.0,0.0,0.0,3.863524995,0.0,0.0,0.0,0.0,0.0,-0.0,0.0,0.0,1.9177244130000002,0.0,0.0,0.0,0.0,0.0,0.0,0.0,0.0,4.228515192000001,0.0,0.0,0.0,0.0,0.0,-0.0,0.0,0.0,2.886962595,0.0,0.0,1.2899999618530273,0.8299999833106995,-0.03999999910593033,0.01422119140625,0.02142333984375,1.00823974609375,28.31999969482422,0.0,0.0,0.0,3.509521484375E-4,Closing,0.0,0.0,0.0,0.0,0.0,0.0,0.0,0.0,
0.7678899999999994,0.0,0.0,0.0,0.0,0.0,0.0,0.0,0.0,3.863524995,0.0,0.0,0.0,0.0,0.0,-0.0,0.0,0.0,1.9165037100000002,0.0,0.0,0.0,0.0,0.0,0.0,0.0,0.0,4.228515192000001,0.0,0.0,0.0,0.0,0.0,-0.0,0.0,0.0,2.886962595,0.0,0.0,1.2899999618530273,0.8299999833106995,-0.03999999910593033,0.0159912109375,0.0235595703125,1.00537109375,28.31999969482422,0.0,1.0,0.0,3.509521484375E-4,Closing,0.0,0.0,0.0,0.0,0.0,0.0,0.0,0.0,
0.7886409999999996,0.0,0.0,0.0,0.0,0.0,0.0,0.0,0.0,3.862304292,0.0,0.0,0.0,0.0,0.0,-0.0,0.0,0.0,1.9165037100000002,0.0,0.0,0.0,0.0,0.0,0.0,0.0,0.0,4.228515192000001,0.0,0.0,0.0,0.0,0.0,-0.0,0.0,0.0,2.886962595,0.0,0.0,1.2799999713897705,0.8299999833106995,-0.03999999910593033,0.014892578125,0.0225830078125,1.00933837890625,28.31999969482422,0.0,0.0,0.0,3.509521484375E-4,Closing,0.0,0.0,0.0,0.0,0.0,0.0,0.0,0.0,
0.8121030000000028,0.0,0.0,0.0,0.0,0.0,0.0,0.0,0.0,3.863524995,0.0,0.0,0.0,0.0,0.0,-0.0,0.0,0.0,1.9165037100000002,0.0,0.0,0.0,0.0,0.0,0.0,0.0,0.0,4.228515192000001,0.0,0.0,0.0,0.0,0.0,-0.0,0.0,0.0,2.886962595,0.0,0.0,1.2799999713897705,0.8299999833106995,-0.03999999910593033,0.014892578125,0.02117919921875,1.0098876953125,28.31999969482422,0.0,0.0,0.0,3.509521484375E-4,Closing,0.0,0.0,0.0,0.0,0.0,0.0,0.0,0.0,
0.8457570000000014,0.0,0.0,0.0,0.0,0.0,0.0,0.0,0.0,3.863524995,0.0,0.0,0.0,0.0,0.0,-0.0,0.0,0.0,1.9152830070000002,0.0,0.0,0.0,0.0,0.0,0.0,0.0,0.0,4.229735895,0.0,0.0,0.0,0.0,0.0,-0.0,0.0,0.0,2.886962595,0.0,0.0,1.2799999713897705,0.8299999833106995,-0.03999999910593033,0.01446533203125,0.024169921875,1.01092529296875,28.31999969482422,0.0,0.0,0.0,3.509521484375E-4,Closing,0.0,0.0,0.0,0.0,0.0,0.0,0.0,0.0,
0.8702230000000017,0.0,0.0,0.0,0.0,0.0,0.0,0.0,0.0,3.863524995,0.0,0.0,0.0,0.0,0.0,-0.0,0.0,0.0,1.9165037100000002,0.0,0.0,0.0,0.0,0.0,0.0,0.0,0.0,4.228515192000001,0.0,0.0,0.0,0.0,0.0,-0.0,0.0,0.0,2.888183298,0.0,0.0,1.2799999713897705,0.8299999833106995,-0.03999999910593033,0.017578125,0.0233154296875,1.00885009765625,28.31999969482422,0.0,2.0,0.0,3.509521484375E-4,Closing,0.0,0.0,0.0,0.0,0.0,0.0,0.0,0.0,
0.9135310000000026,0.0,0.0,0.0,0.0,0.0,0.0,0.0,0.0,3.863524995,0.0,0.0,0.0,0.0,0.0,-0.0,0.0,0.0,1.9165037100000002,0.0,0.0,0.0,0.0,0.0,0.0,0.0,0.0,4.229735895,0.0,0.0,0.0,0.0,0.0,-0.0,0.0,0.0,2.886962595,0.0,0.0,1.2799999713897705,0.8299999833106995,-0.03999999910593033,0.0147705078125,0.02325439453125,1.0108642578125,28.31999969482422,0.0,0.0,0.0,3.509521484375E-4,Closing,0.0,0.0,0.0,0.0,0.0,0.0,0.0,0.0,
0.9332180000000008,0.0,0.0,0.0,0.0,0.0,0.0,0.0,0.0,3.863524995,0.0,0.0,0.0,0.0,0.0,-0.0,0.0,0.0,1.9165037100000002,0.0,0.0,0.0,0.0,0.0,0.0,0.0,0.0,4.229735895,0.0,0.0,0.0,0.0,0.0,-0.0,0.0,0.0,2.886962595,0.0,0.0,1.2799999713897705,0.8299999833106995,-0.03999999910593033,0.01409912109375,0.0230712890625,1.00897216796875,28.31999969482422,0.0,0.0,0.0,3.509521484375E-4,Closing,0.0,0.0,0.0,0.0,0.0,0.0,0.0,0.0,
0.951304,0.0,0.0,0.0,0.0,0.0,0.0,0.0,0.0,3.862304292,0.0,0.0,0.0,0.0,0.0,-0.0,0.0,0.0,1.9165037100000002,0.0,0.0,0.0,0.0,0.0,0.0,0.0,0.0,4.229735895,0.0,0.0,0.0,0.0,0.0,-0.0,0.0,0.0,2.886962595,0.0,0.0,1.2799999713897705,0.8299999833106995,-0.03999999910593033,0.01495361328125,0.02276611328125,1.0125732421875,28.31999969482422,0.0,0.0,0.0,3.509521484375E-4,Closing,0.0,0.0,0.0,0.0,0.0,0.0,0.0,0.0,
0.9729799999999995,0.0,0.0,0.0,0.0,0.0,0.0,0.0,0.0,3.862304292,0.0,0.0,0.0,0.0,0.0,-0.0,0.0,0.0,1.9165037100000002,0.0,0.0,0.0,0.0,0.0,0.0,0.0,0.0,4.229735895,0.0,0.0,0.0,0.0,0.0,-0.0,0.0,0.0,2.886962595,0.0,0.0,1.2899999618530273,0.8299999833106995,-0.03999999910593033,0.012451171875,0.02142333984375,1.01141357421875,28.31999969482422,0.0,-2.0,0.0,3.509521484375E-4,Closing,0.0,0.0,0.0,0.0,0.0,0.0,0.0,0.0,
0.9916260000000002,0.0,0.0,0.0,0.0,0.0,0.0,0.0,0.0,3.863524995,0.0,0.0,0.0,0.0,0.0,-0.0,0.0,0.0,1.9165037100000002,0.0,0.0,0.0,0.0,0.0,0.0,0.0,0.0,4.229735895,0.0,0.0,0.0,0.0,0.0,-0.0,0.0,0.0,2.888183298,0.0,0.0,1.2899999618530273,0.8199999928474426,-0.03999999910593033,0.0125732421875,0.020751953125,1.014892578125,28.31999969482422,0.0,-2.0,0.0,3.509521484375E-4,Closing,0.0,0.0,0.0,0.0,0.0,0.0,0.0,0.0,
1.0250540000000001,0.0,0.0,0.0,0.0,0.0,0.0,0.0,0.0,3.864745698,0.0,0.0,0.0,0.0,0.0,-0.0,0.0,0.0,1.9165037100000002,0.0,0.0,0.0,0.0,0.0,0.0,0.0,0.0,4.229735895,0.0,0.0,0.0,0.0,0.0,-0.0,0.0,0.0,2.886962595,0.0,0.0,1.2899999618530273,0.8199999928474426,-0.03999999910593033,0.015869140625,0.0233154296875,1.00970458984375,28.31999969482422,0.0,1.0,0.0,3.509521484375E-4,Closing,0.0,0.0,0.0,0.0,0.0,0.0,0.0,0.0,
1.0409439999999994,0.0,0.0,0.0,0.0,0.0,0.0,0.0,0.0,3.863524995,0.0,0.0,0.0,0.0,0.0,-0.0,0.0,0.0,1.9165037100000002,0.0,0.0,0.0,0.0,0.0,0.0,0.0,0.0,4.229735895,0.0,0.0,0.0,0.0,0.0,-0.0,0.0,0.0,2.886962595,0.0,0.0,1.2899999618530273,0.8199999928474426,-0.03999999910593033,0.015869140625,0.0233154296875,1.00970458984375,28.31999969482422,0.0,1.0,0.0,3.509521484375E-4,Closing,0.0,0.0,0.0,0.0,0.0,0.0,0.0,0.0,
1.064175000000003,0.0,0.0,0.0,0.0,0.0,0.0,0.0,0.0,3.863524995,0.0,0.0,0.0,0.0,0.0,-0.0,0.0,0.0,1.9165037100000002,0.0,0.0,0.0,0.0,0.0,0.0,0.0,0.0,4.228515192000001,0.0,0.0,0.0,0.0,0.0,-0.0,0.0,0.0,2.886962595,0.0,0.0,1.2899999618530273,0.8199999928474426,-0.03999999910593033,0.015869140625,0.0233154296875,1.00970458984375,28.31999969482422,0.0,1.0,0.0,3.509521484375E-4,Closing,0.0,0.0,0.0,0.0,0.0,0.0,0.0,0.0,
1.0849940000000025,0.0,0.0,0.0,0.0,0.0,0.0,0.0,0.0,3.864745698,0.0,0.0,0.0,0.0,0.0,-0.0,0.0,0.0,1.9165037100000002,0.0,0.0,0.0,0.0,0.0,0.0,0.0,0.0,4.229735895,0.0,0.0,0.0,0.0,0.0,-0.0,0.0,0.0,2.886962595,0.0,0.0,1.2799999713897705,0.8199999928474426,-0.03999999910593033,0.012939453125,0.01971435546875,1.00958251953125,28.31999969482422,0.0,-1.0,0.0,3.509521484375E-4,Closing,0.0,0.0,0.0,0.0,0.0,0.0,0.0,0.0,
1.1020110000000023,0.0,0.0,0.0,0.0,0.0,0.0,0.0,0.0,3.862304292,0.0,-0.0012207029999999897,0.0,0.0,0.0,-0.0,0.0,0.0,1.9165037100000002,0.0,0.0,0.0,0.0,0.0,0.0,0.0,0.0,4.229735895,0.0,0.0,0.0,0.0,0.0,-0.0,0.0,0.0,2.886962595,0.0,0.0,1.2799999713897705,0.8199999928474426,-0.03999999910593033,0.01434326171875,0.02239990234375,1.0130615234375,28.31999969482422,0.0,0.0,0.0,3.509521484375E-4,Closing,0.0,0.0,0.0,0.0,0.0,0.0,0.0,0.0,
1.1261949999999996,0.0,0.0,0.0,0.0,0.0,0.0,0.0,0.0,3.863524995,0.0,-0.0012207029999999897,0.0,0.0,0.0,-0.0,0.0,0.0,1.9152830070000002,0.0,0.0,0.0,0.0,0.0,0.0,0.0,0.0,4.229735895,0.0,0.0,0.0,0.0,0.0,-0.0,0.0,0.0,2.888183298,0.0,0.0,1.2799999713897705,0.8199999928474426,-0.03999999910593033,0.01300048828125,0.02178955078125,1.00701904296875,28.360000610351562,0.0,-1.0,0.0,3.509521484375E-4,Closing,0.0,0.0,0.0,0.0,0.0,0.0,0.0,0.0,
1.1466100000000006,0.0,0.0,0.0,0.0,0.0,0.0,0.0,0.0,3.863524995,0.0,-0.0012207029999999897,0.0,0.0,0.0,-0.0,0.0,0.0,1.9165037100000002,0.0,0.0,0.0,0.0,0.0,0.0,0.0,0.0,4.228515192000001,0.0,0.0,0.0,0.0,0.0,-0.0,0.0,0.0,2.886962595,0.0,0.0,1.2799999713897705,0.8199999928474426,-0.03999999910593033,0.01605224609375,0.022705078125,1.01116943359375,28.360000610351562,0.0,1.0,0.0,3.509521484375E-4,Closing,0.0,0.0,0.0,0.0,0.0,0.0,0.0,0.0,
1.2204580000000023,0.0,0.0,0.0,0.0,0.0,0.0,0.0,0.0,3.863524995,0.0,-0.0012207029999999897,0.0,0.0,0.0,-0.0,0.0,0.0,1.9152830070000002,0.0,0.0,0.0,0.0,0.0,0.0,0.0,0.0,4.228515192000001,0.0,0.0,0.0,0.0,0.0,-0.0,0.0,0.0,2.886962595,0.0,0.0,1.2799999713897705,0.8199999928474426,-0.05000000074505806,0.01544189453125,0.0224609375,1.0086669921875,28.360000610351562,0.0,0.0,0.0,3.509521484375E-4,Closing,0.0,0.0,0.0,0.0,0.0,0.0,0.0,0.0,
1.2783760000000002,0.0,0.0,0.0,0.0,0.0,0.0,0.0,0.0,3.863524995,0.0,0.0,0.0,0.0,0.0,-0.0,0.0,0.0,1.9165037100000002,0.0,0.0,0.0,0.0,0.0,0.0,0.0,0.0,4.228515192000001,0.0,0.0,0.0,0.0,0.0,-0.0,0.0,0.0,2.886962595,0.0,0.0,1.2799999713897705,0.8199999928474426,-0.05000000074505806,0.0155029296875,0.0234375,1.00787353515625,28.360000610351562,0.0,0.0,0.0,3.509521484375E-4,Closing,0.0,0.0,0.0,0.0,0.0,0.0,0.0,0.0,
1.380818000000003,0.0,0.0,0.0,0.0,0.0,0.0,0.0,0.0,3.863524995,0.0,0.0,0.0,0.0,0.0,-0.0,0.0,0.0,1.9165037100000002,0.0,0.0012207029999999897,0.0,0.0,0.0,0.0,0.0,0.0,4.228515192000001,0.0,0.0,0.0,0.0,0.0,-0.0,0.0,0.0,2.886962595,0.0,0.0,1.2899999618530273,0.8299999833106995,-0.05000000074505806,0.01416015625,0.021240234375,1.00738525390625,28.360000610351562,0.0,0.0,0.0,3.509521484375E-4,Closing,0.0,0.0,0.0,0.0,0.0,0.0,0.0,0.0,
1.4607760000000016,0.0,0.0,0.0,0.0,0.0,0.0,0.0,0.0,3.863524995,0.0,0.0,0.0,0.0,0.0,-0.0,0.0,0.0,1.9165037100000002,0.0,-0.0012207029999999897,0.0,0.0,0.0,0.0,0.0,0.0,4.227294489,0.0,0.0,0.0,0.0,0.0,-0.0,0.0,0.0,2.888183298,0.0,0.0,1.2899999618530273,0.8199999928474426,-0.05000000074505806,0.0177001953125,0.0218505859375,1.01446533203125,28.360000610351562,0.0,3.0,0.0,3.509521484375E-4,Closing,0.0,0.0,0.0,0.0,0.0,0.0,0.0,0.0,
1.5136200000000026,0.0,0.0,0.0,0.0,0.0,0.0,0.0,0.0,3.863524995,0.0,0.0,0.0,0.0,0.0,-0.0,0.0,0.0,1.9165037100000002,0.0,0.0,0.0,0.0,0.0,0.0,0.0,0.0,4.228515192000001,0.0,-0.0012207030000004337,0.0,0.0,0.0,-0.0,0.0,0.0,2.886962595,0.0,0.0,1.2899999618530273,0.8199999928474426,-0.05000000074505806,0.01446533203125,0.02337646484375,1.01141357421875,28.360000610351562,0.0,0.0,0.0,3.509521484375E-4,Closing,0.0,0.0,0.0,0.0,0.0,0.0,0.0,0.0,
1.5764940000000025,0.0,0.0,0.0,0.0,0.0,0.0,0.0,0.0,3.862304292,0.0,0.0012207029999999897,0.0,0.0,0.0,-0.0,0.0,0.0,1.9165037100000002,0.0,0.0012207029999999897,0.0,0.0,0.0,0.0,0.0,0.0,4.229735895,0.0,0.0012207030000004337,0.0,0.0,0.0,-0.0,0.0,0.0,2.886962595,0.0,0.0,1.2899999618530273,0.8199999928474426,-0.05999999865889549,0.012451171875,0.02484130859375,1.00958251953125,28.360000610351562,0.0,-2.0,0.0,3.509521484375E-4,Closing,0.0,0.0,0.0,0.0,0.0,0.0,0.0,0.0,
1.6304060000000027,0.0,0.0,0.0,0.0,0.0,0.0,0.0,0.0,3.864745698,0.0,0.0,0.0,0.0,0.0,-0.0,0.0,0.0,1.9165037100000002,0.0,0.0,0.0,0.0,0.0,0.0,0.0,0.0,4.228515192000001,0.0,0.0,0.0,0.0,0.0,-0.0,0.0,0.0,2.888183298,0.0,0.0,1.2899999618530273,0.8199999928474426,-0.05999999865889549,0.0142822265625,0.02178955078125,1.0111083984375,28.3700008392334,0.0,0.0,0.0,3.509521484375E-4,Closing,0.0,0.0,0.0,0.0,0.0,0.0,0.0,0.0,
1.6728270000000012,0.0,0.0,0.0,0.0,0.0,0.0,0.0,0.0,3.863524995,0.0,-0.0012207029999999897,0.0,0.0,0.0,-0.0,0.0,0.0,1.9165037100000002,0.0,-0.0012207029999999897,0.0,0.0,0.0,0.0,0.0,0.0,4.229735895,0.0,0.0,0.0,0.0,0.0,-0.0,0.0,0.0,2.886962595,0.0,0.0,1.2899999618530273,0.8199999928474426,-0.05999999865889549,0.0159912109375,0.02349853515625,1.0115966796875,28.3700008392334,0.0,1.0,0.0,3.509521484375E-4,Closing,0.0,0.0,0.0,0.0,0.0,0.0,0.0,0.0,
1.7340220000000008,0.0,0.0,0.0,0.0,0.0,0.0,0.0,0.0,3.864745698,0.0,0.0,0.0,0.0,0.0,-0.0,0.0,0.0,1.9165037100000002,0.0,0.0012207029999999897,0.0,0.0,0.0,0.0,0.0,0.0,4.228515192000001,0.0,0.0,0.0,0.0,0.0,-0.0,0.0,0.0,2.886962595,0.0,0.0,1.2899999618530273,0.8199999928474426,-0.05999999865889549,0.0145263671875,0.02227783203125,1.008056640625,28.3700008392334,0.0,0.0,0.0,3.509521484375E-4,Closing,0.0,0.0,0.0,0.0,0.0,0.0,0.0,0.0,
1.794349000000002,0.0,0.0,0.0,0.0,0.0,0.0,0.0,0.0,3.863524995,0.0,0.0012207029999999897,0.0,0.0,0.0,-0.0,0.0,0.0,1.9165037100000002,0.0,0.0,0.0,0.0,0.0,0.0,0.0,0.0,4.228515192000001,0.0,0.0,0.0,0.0,0.0,-0.0,0.0,0.0,2.886962595,0.0,0.0,1.2899999618530273,0.8199999928474426,-0.05000000074505806,0.0147705078125,0.02227783203125,1.004150390625,28.3700008392334,0.0,0.0,0.0,3.509521484375E-4,Closing,0.0,0.0,0.0,0.0,0.0,0.0,0.0,0.0,
1.8459220000000023,0.0,0.0,0.0,0.0,0.0,0.0,0.0,0.0,3.862304292,0.0,0.0,0.0,0.0,0.0,-0.0,0.0,0.0,1.9165037100000002,0.0,0.0,0.0,0.0,0.0,0.0,0.0,0.0,4.227294489,0.0,0.0,0.0,0.0,0.0,-0.0,0.0,0.0,2.886962595,0.0,0.0,1.2899999618530273,0.8199999928474426,-0.05999999865889549,0.01495361328125,0.02484130859375,1.00823974609375,28.3700008392334,0.0,0.0,0.0,3.509521484375E-4,Closing,0.0,0.0,0.0,0.0,0.0,0.0,0.0,0.0,
1.9240020000000004,0.0,0.0,0.0,0.0,0.0,0.0,0.0,0.0,3.863524995,0.0,0.0,0.0,0.0,0.0,-0.0,0.0,0.0,1.9152830070000002,0.0,0.0,0.0,0.0,0.0,0.0,0.0,0.0,4.228515192000001,0.0,0.0,0.0,0.0,0.0,-0.0,0.0,0.0,2.886962595,0.0,0.0,1.2899999618530273,0.8199999928474426,-0.05000000074505806,0.0155029296875,0.020263671875,1.01678466796875,28.3700008392334,0.0,0.0,0.0,3.509521484375E-4,Closing,0.0,0.0,0.0,0.0,0.0,0.0,0.0,0.0,
1.9720699999999998,0.0,0.0,0.0,0.0,0.0,0.0,0.0,0.0,3.863524995,0.0,0.0,0.0,0.0,0.0,-0.0,0.0,0.0,1.9165037100000002,0.0,-0.0012207029999999897,0.0,0.0,0.0,0.0,0.0,0.0,4.229735895,0.0,0.0,0.0,0.0,0.0,-0.0,0.0,0.0,2.885741892,0.0,0.0,1.2899999618530273,0.8199999928474426,-0.05000000074505806,0.01416015625,0.023681640625,1.00885009765625,28.3700008392334,0.0,0.0,0.0,3.509521484375E-4,Closing,0.0,0.0,0.0,0.0,0.0,0.0,0.0,0.0,
2.0324079999999993,0.0,0.0,0.0,0.0,0.0,0.0,0.0,0.0,3.864745698,0.0,0.0,0.0,0.0,0.0,-0.0,0.0,0.0,1.9165037100000002,0.0,0.0,0.0,0.0,0.0,0.0,0.0,0.0,4.228515192000001,0.0,0.0,0.0,0.0,0.0,-0.0,0.0,0.0,2.886962595,0.0,0.0,1.2899999618530273,0.8199999928474426,-0.05000000074505806,0.01531982421875,0.02496337890625,1.0089111328125,28.3700008392334,0.0,0.0,0.0,3.509521484375E-4,Closing,0.0,0.0,0.0,0.0,0.0,0.0,0.0,0.0,
2.1092990000000027,0.0,0.0,0.0,0.0,0.0,0.0,0.0,0.0,3.862304292,0.0,0.0012207029999999897,0.0,0.0,0.0,-0.0,0.0,0.0,1.9165037100000002,0.0,0.0012207029999999897,0.0,0.0,0.0,0.0,0.0,0.0,4.228515192000001,0.0,0.0,0.0,0.0,0.0,-0.0,0.0,0.0,2.886962595,0.0,0.0,1.2899999618530273,0.8199999928474426,-0.05000000074505806,0.01580810546875,0.02294921875,1.0107421875,28.3700008392334,0.0,1.0,0.0,3.509521484375E-4,Closing,0.0,0.0,0.0,0.0,0.0,0.0,0.0,0.0,
2.1629840000000002,0.0,0.0,0.0,0.0,0.0,0.0,0.0,0.0,3.863524995,0.0,0.0,0.0,0.0,0.0,-0.0,0.0,0.0,1.9165037100000002,0.0,0.0,0.0,0.0,0.0,0.0,0.0,0.0,4.229735895,0.0,0.0,0.0,0.0,0.0,-0.0,0.0,0.0,2.886962595,0.0,0.0,1.2899999618530273,0.8199999928474426,-0.05000000074505806,0.01513671875,0.022705078125,1.005615234375,28.3700008392334,0.0,0.0,0.0,3.509521484375E-4,Closing,0.0,0.0,0.0,0.0,0.0,0.0,0.0,0.0,
2.215182000000001,0.0,0.0,0.0,0.0,0.0,0.0,0.0,0.0,3.863524995,0.0,-0.0012207029999999897,0.0,0.0,0.0,-0.0,0.0,0.0,1.9165037100000002,0.0,-0.0012207029999999897,0.0,0.0,0.0,0.0,0.0,0.0,4.229735895,0.0,0.0,0.0,0.0,0.0,-0.0,0.0,0.0,2.886962595,0.0,0.0,1.2899999618530273,0.8199999928474426,-0.05000000074505806,0.0150146484375,0.0208740234375,1.0120849609375,28.3700008392334,0.0,0.0,0.0,3.509521484375E-4,Closing,0.0,0.0,0.0,0.0,0.0,0.0,0.0,0.0,
2.2731779999999997,0.0,0.0,0.0,0.0,0.0,0.0,0.0,0.0,3.863524995,0.0,0.0,0.0,0.0,0.0,-0.0,0.0,0.0,1.9165037100000002,0.0,0.0012207029999999897,0.0,0.0,0.0,0.0,0.0,0.0,4.228515192000001,0.0,0.0,0.0,0.0,0.0,-0.0,0.0,0.0,2.886962595,0.0,0.0,1.2899999618530273,0.8199999928474426,-0.05999999865889549,0.01507568359375,0.021240234375,1.00677490234375,28.3700008392334,0.0,0.0,0.0,3.509521484375E-4,Closing,0.0,0.0,0.0,0.0,0.0,0.0,0.0,0.0,
2.335689000000002,0.0,0.0,0.0,0.0,0.0,0.0,0.0,0.0,3.863524995,0.0,0.0,0.0,0.0,0.0,-0.0,0.0,0.0,1.9152830070000002,0.0,0.0,0.0,0.0,0.0,0.0,0.0,0.0,4.228515192000001,0.0,0.0,0.0,0.0,0.0,-0.0,0.0,0.0,2.886962595,0.0,0.0,1.2899999618530273,0.8199999928474426,-0.05999999865889549,0.01800537109375,0.02166748046875,1.00860595703125,28.3700008392334,0.0,3.0,0.0,3.509521484375E-4,Closing,0.0,0.0,0.0,0.0,0.0,0.0,0.0,0.0,
2.4302700000000006,0.0,0.0,0.0,0.0,0.0,0.0,0.0,0.0,3.863524995,0.0,0.0,0.0,0.0,0.0,-0.0,0.0,0.0,1.9165037100000002,0.0,0.0,0.0,0.0,0.0,0.0,0.0,0.0,4.228515192000001,0.0,0.0,0.0,0.0,0.0,-0.0,0.0,0.0,2.886962595,0.0,0.0,1.2899999618530273,0.8199999928474426,-0.05999999865889549,0.01568603515625,0.02423095703125,1.01434326171875,28.3700008392334,0.0,0.0,0.0,3.509521484375E-4,Closing,0.0,0.0,0.0,0.0,0.0,0.0,0.0,0.0,
2.480778000000002,0.0,0.0,0.0,0.0,0.0,0.0,0.0,0.0,3.863524995,0.0,0.0,0.0,0.0,0.0,-0.0,0.0,0.0,1.9165037100000002,0.0,0.0,0.0,0.0,0.0,0.0,0.0,0.0,4.229735895,0.0,0.0,0.0,0.0,0.0,-0.0,0.0,0.0,2.888183298,0.0,0.0,1.2899999618530273,0.8199999928474426,-0.05999999865889549,0.01458740234375,0.02294921875,1.01031494140625,28.3700008392334,0.0,0.0,0.0,3.509521484375E-4,Closing,0.0,0.0,0.0,0.0,0.0,0.0,0.0,0.0,
2.5506720000000023,0.0,0.0,0.0,0.0,0.0,0.0,0.0,0.0,3.863524995,0.0,0.0,0.0,0.0,0.0,-0.0,0.0,0.0,1.9165037100000002,0.0,0.0,0.0,0.0,0.0,0.0,0.0,0.0,4.228515192000001,0.0,0.0,0.0,0.0,0.0,-0.0,0.0,0.0,2.888183298,0.0,0.0,1.2899999618530273,0.8199999928474426,-0.05999999865889549,0.01416015625,0.022216796875,1.00848388671875,28.3700008392334,0.0,0.0,0.0,3.509521484375E-4,Closing,0.0,0.0,0.0,0.0,0.0,0.0,0.0,0.0,
2.594004000000001,0.0,0.0,0.0,0.0,0.0,0.0,0.0,0.0,3.863524995,0.0,0.0,0.0,0.0,0.0,-0.0,0.0,0.0,1.9165037100000002,0.0,0.0012207029999999897,0.0,0.0,0.0,0.0,0.0,0.0,4.228515192000001,0.0,0.0,0.0,0.0,0.0,-0.0,0.0,0.0,2.886962595,0.0,0.0,1.2899999618530273,0.8299999833106995,-0.05999999865889549,0.01409912109375,0.0228271484375,1.01177978515625,28.3700008392334,0.0,0.0,0.0,3.509521484375E-4,Closing,0.0,0.0,0.0,0.0,0.0,0.0,0.0,0.0,
2.6538549999999996,0.0,0.0,0.0,0.0,0.0,0.0,0.0,0.0,3.863524995,0.0,0.0,0.0,0.0,0.0,-0.0,0.0,0.0,1.9165037100000002,0.0,0.0012207029999999897,0.0,0.0,0.0,0.0,0.0,0.0,4.229735895,0.0,0.0,0.0,0.0,0.0,-0.0,0.0,0.0,2.886962595,0.0,0.0,1.2899999618530273,0.8299999833106995,-0.05999999865889549,0.0115966796875,0.0240478515625,1.00494384765625,28.350000381469727,0.0,-3.0,0.0,3.509521484375E-4,Closing,0.0,0.0,0.0,0.0,0.0,0.0,0.0,0.0,
2.675611000000001,0.0,0.0,0.0,0.0,0.0,0.0,0.0,0.0,3.863524995,0.0,0.0,0.0,0.0,0.0,-0.0,0.0,0.0,1.9165037100000002,0.0,0.0,0.0,0.0,0.0,0.0,0.0,0.0,4.229735895,0.0,0.0,0.0,0.0,0.0,-0.0,0.0,0.0,2.886962595,0.0,0.0,1.2899999618530273,0.8199999928474426,-0.05999999865889549,0.01519775390625,0.02288818359375,1.0111083984375,28.350000381469727,0.0,0.0,0.0,3.509521484375E-4,Closing,0.0,0.0,0.0,0.0,0.0,0.0,0.0,0.0,
2.693797000000002,0.0,0.0,0.0,0.0,0.0,0.0,0.0,0.0,3.864745698,0.0,0.0,0.0,0.0,0.0,-0.0,0.0,0.0,1.9165037100000002,0.0,0.0,0.0,0.0,0.0,0.0,0.0,0.0,4.229735895,0.0,0.0,0.0,0.0,0.0,-0.0,0.0,0.0,2.886962595,0.0,0.0,1.2899999618530273,0.8199999928474426,-0.05999999865889549,0.0162353515625,0.02313232421875,1.0091552734375,28.350000381469727,0.0,1.0,0.0,3.509521484375E-4,Closing,0.0,0.0,0.0,0.0,0.0,0.0,0.0,0.0,
2.7148150000000024,0.0,0.0,0.0,0.0,0.0,0.0,0.0,0.0,3.863524995,0.0,0.0012207029999999897,0.0,0.0,0.0,-0.0,0.0,0.0,1.9165037100000002,0.0,0.0,0.0,0.0,0.0,0.0,0.0,0.0,4.229735895,0.0,0.0,0.0,0.0,0.0,-0.0,0.0,0.0,2.886962595,0.0,0.0,1.2899999618530273,0.8199999928474426,-0.05999999865889549,0.016357421875,0.0230712890625,1.00958251953125,28.350000381469727,0.0,2.0,0.0,3.509521484375E-4,Closing,0.0,0.0,0.0,0.0,0.0,0.0,0.0,0.0,
2.732703000000001,0.0,0.0,0.0,0.0,0.0,0.0,0.0,0.0,3.863524995,0.0,0.0012207029999999897,0.0,0.0,0.0,-0.0,0.0,0.0,1.9165037100000002,0.0,0.0,0.0,0.0,0.0,0.0,0.0,0.0,4.229735895,0.0,0.0,0.0,0.0,0.0,-0.0,0.0,0.0,2.886962595,0.0,0.0,1.2899999618530273,0.8199999928474426,-0.05999999865889549,0.0169677734375,0.02081298828125,1.0084228515625,28.350000381469727,0.0,2.0,0.0,3.509521484375E-4,Closing,0.0,0.0,0.0,0.0,0.0,0.0,0.0,0.0,
2.7512090000000025,0.0,0.0,0.0,0.0,0.0,0.0,0.0,0.0,3.863524995,0.0,0.0012207029999999897,0.0,0.0,0.0,-0.0,0.0,0.0,1.9165037100000002,0.0,0.0,0.0,0.0,0.0,0.0,0.0,0.0,4.229735895,0.0,0.0,0.0,0.0,0.0,-0.0,0.0,0.0,2.886962595,0.0,0.0,1.2899999618530273,0.8199999928474426,-0.05999999865889549,0.015869140625,0.0238037109375,1.01171875,28.350000381469727,0.0,1.0,0.0,3.509521484375E-4,Closing,0.0,0.0,0.0,0.0,0.0,0.0,0.0,0.0,
2.772402000000002,0.0,0.0,0.0,0.0,0.0,0.0,0.0,0.0,3.864745698,0.0,0.0,0.0,0.0,0.0,-0.0,0.0,0.0,1.9165037100000002,0.0,-0.0012207029999999897,0.0,0.0,0.0,0.0,0.0,0.0,4.229735895,0.0,0.0,0.0,0.0,0.0,-0.0,0.0,0.0,2.886962595,0.0,0.0,1.2899999618530273,0.8199999928474426,-0.05999999865889549,0.0152587890625,0.02264404296875,1.0118408203125,28.350000381469727,0.0,0.0,0.0,3.509521484375E-4,Closing,0.0,0.0,0.0,0.0,0.0,0.0,0.0,0.0,
2.789769,0.0,0.0,0.0,0.0,0.0,0.0,0.0,0.0,3.863524995,0.0,0.0,0.0,0.0,0.0,-0.0,0.0,0.0,1.9165037100000002,0.0,-0.0012207029999999897,0.0,0.0,0.0,0.0,0.0,0.0,4.228515192000001,0.0,0.0,0.0,0.0,0.0,-0.0,0.0,0.0,2.888183298,0.0,0.0,1.2899999618530273,0.8199999928474426,-0.05999999865889549,0.02813720703125,0.20111083984375,1.04486083984375,28.350000381469727,0.0,12.0,0.0,4.730224609375E-4,Closing,0.0,0.0,0.0,0.0,0.0,0.0,0.0,0.0,
2.8091500000000016,0.0,0.0,0.0,0.0,0.0,0.0,0.0,0.0,3.863524995,0.0,0.0,0.0,0.0,0.0,-0.0,0.0,0.0,1.9165037100000002,0.0,0.0012207029999999897,0.0,0.0,0.0,0.0,0.0,0.0,4.229735895,0.0,0.0,0.0,0.0,0.0,-0.0,0.0,0.0,2.886962595,0.0,0.0,1.309999942779541,0.8500000238418579,-0.05999999865889549,0.09991455078125,0.08544921875,0.93994140625,28.350000381469727,0.0,85.0,6.103515625E-5,9.1552734375E-4,Closing,0.0,0.0,0.0,0.0,0.0,0.0,0.0,0.0,
2.8299740000000018,0.0,0.0,0.0,0.0,0.0,0.0,0.0,0.0,3.863524995,0.0,0.0,0.0,0.0,0.0,-0.0,0.0,0.0,1.9165037100000002,0.0,0.0012207029999999897,0.0,0.0,0.0,0.0,0.0,0.0,4.228515192000001,0.0,0.0,0.0,0.0,0.0,-0.0,0.0,0.0,2.888183298,0.0,0.0,1.3700000047683716,0.8700000047683716,-0.05999999865889549,-0.14495849609375,0.0386962890625,0.95648193359375,28.350000381469727,0.0,-159.0,7.62939453125E-5,0.001190185546875,Closing,0.0,0.0,0.0,0.0,0.0,0.0,0.0,0.0,
2.847349000000002,0.0,0.0,0.0,0.0,0.0,0.0,0.0,0.0,3.863524995,0.0,0.0,0.0,0.0,0.0,-0.0,0.0,0.0,1.9165037100000002,0.0,0.0012207029999999897,0.0,0.0,0.0,0.0,0.0,0.0,4.229735895,0.0,0.0,0.0,0.0,0.0,-0.0,0.0,0.0,2.886962595,0.0,0.0,1.3899999856948853,0.8500000238418579,-0.05999999865889549,0.11883544921875,-0.04510498046875,1.00286865234375,28.350000381469727,0.0,103.0,6.103515625E-5,0.001434326171875,Closing,0.0,0.0,0.0,0.0,0.0,0.0,0.0,0.0,
2.8698500000000022,0.0,0.0,0.0,0.0,0.0,0.0,0.0,0.0,3.863524995,0.0,0.0,0.0,0.0,0.0,-0.0,0.0,0.0,1.9165037100000002,0.0,0.0,0.0,0.0,0.0,0.0,0.0,0.0,4.229735895,0.0,0.0,0.0,0.0,0.0,-0.0,0.0,0.0,2.886962595,0.0,0.0,1.2799999713897705,0.8700000047683716,-0.05999999865889549,0.04754638671875,0.0093994140625,1.04742431640625,28.350000381469727,0.0,31.0,-1.678466796875E-4,0.0015411376953125,Closing,0.0,0.0,0.0,0.0,0.0,0.0,0.0,0.0,
2.887607,0.0,0.0,0.0,0.0,0.0,0.0,0.0,0.0,3.864745698,0.0,0.0,0.0,0.0,0.0,-0.0,0.0,0.0,1.9177244130000002,0.0,0.0,0.0,0.0,0.0,0.0,0.0,0.0,4.227294489,0.0,0.0,0.0,0.0,0.0,-0.0,0.0,0.0,2.888183298,0.0,0.0,1.2599999904632568,0.9300000071525574,-0.05999999865889549,0.05078125,0.10894775390625,0.98187255859375,28.350000381469727,0.0,34.0,-2.899169921875E-4,0.0015869140625,Closing,0.0,0.0,0.0,0.0,0.0,0.0,0.0,0.0,
2.906072,0.0,0.0,0.0,0.0,0.0,0.0,0.0,0.0,3.863524995,0.0,0.0,0.0,0.0,0.0,-0.0,0.0,0.0,1.9165037100000002,0.0,0.0,0.0,0.0,0.0,0.0,0.0,0.0,4.229735895,0.0,0.0,0.0,0.0,0.0,-0.0,0.0,0.0,2.886962595,0.0,0.0,1.3600000143051147,0.9300000071525574,-0.07000000029802322,0.00970458984375,0.2607421875,0.9847412109375,28.350000381469727,0.0,-6.0,-3.814697265625E-4,0.001861572265625,Closing,0.0,0.0,0.0,0.0,0.0,0.0,0.0,0.0,
2.9274390000000023,0.0,0.0,0.0,0.0,0.0,0.0,0.0,0.0,3.863524995,0.0,0.0,0.0,0.0,0.0,-0.0,0.0,0.0,1.9165037100000002,0.0,0.0,0.0,0.0,0.0,0.0,0.0,0.0,4.228515192000001,0.0,0.0,0.0,0.0,0.0,-0.0,0.0,0.0,2.886962595,0.0,0.0,1.4500000476837158,0.9300000071525574,-0.07000000029802322,0.029541015625,0.07916259765625,0.96868896484375,28.350000381469727,0.0,13.0,-3.814697265625E-4,0.0023345947265625,Closing,0.0,0.0,0.0,0.0,0.0,0.0,0.0,0.0,
2.94509,0.0,0.0,0.0,0.0,0.0,0.0,0.0,0.0,3.863524995,0.0,0.0,0.0,0.0,0.0,-0.0,0.0,0.0,1.9165037100000002,0.0,0.0,0.0,0.0,0.0,0.0,0.0,0.0,4.227294489,0.0,0.0,0.0,0.0,0.0,-0.0,0.0,0.0,2.886962595,0.0,0.0,1.309999942779541,0.8999999761581421,-0.05999999865889549,0.08721923828125,0.0069580078125,0.9053955078125,28.350000381469727,0.0,72.0,-2.44140625E-4,0.0030975341796875,Closing,0.0,0.0,0.0,0.0,0.0,0.0,0.0,0.0,
2.9663330000000023,0.0,0.0,0.0,0.0,0.0,0.0,0.0,0.0,3.863524995,0.0,-0.0012207029999999897,0.0,0.0,0.0,-0.0,0.0,0.0,1.9165037100000002,0.0,-0.0012207029999999897,0.0,0.0,0.0,0.0,0.0,0.0,4.228515192000001,0.0,-0.0012207030000004337,0.0,0.0,0.0,-0.0,0.0,0.0,2.886962595,0.0,0.0,1.3300000429153442,0.949999988079071,-0.07000000029802322,0.01885986328125,0.09576416015625,1.12957763671875,28.350000381469727,0.0,0.0,-9.1552734375E-5,0.0034637451171875,Closing,0.0,0.0,0.0,0.0,0.0,0.0,0.0,0.0,
2.986302,0.0,0.0,0.0,0.0,0.0,0.0,0.0,0.0,3.862304292,0.0,-0.0012207029999999897,0.0,0.0,0.0,-0.0,0.0,0.0,1.9165037100000002,0.0,-0.0012207029999999897,0.0,0.0,0.0,0.0,0.0,0.0,4.229735895,0.0,-0.0012207030000004337,0.0,0.0,0.0,-0.0,0.0,0.0,2.886962595,0.0,0.0,1.3899999856948853,0.8899999856948853,-0.05999999865889549,0.105224609375,0.1036376953125,0.9639892578125,28.350000381469727,0.0,89.0,1.220703125E-4,0.0039520263671875,Closing,0.0,0.0,0.0,0.0,0.0,0.0,0.0,0.0,
3.0060250000000015,0.0,0.0,0.0,0.0,0.0,0.0,0.0,0.0,3.863524995,0.0,-0.0012207029999999897,0.0,0.0,0.0,-0.0,0.0,0.0,1.9165037100000002,0.0,-0.0012207029999999897,0.0,0.0,0.0,0.0,0.0,0.0,4.228515192000001,0.0,0.0012207030000004337,0.0,0.0,0.0,-0.0,0.0,0.0,2.888183298,0.0,0.0,1.25,0.8999999761581421,-0.05999999865889549,0.122314453125,0.102783203125,1.03912353515625,28.350000381469727,0.0,105.0,3.509521484375E-4,0.0045318603515625,Closing,0.0,0.0,0.0,0.0,0.0,0.0,0.0,0.0,
3.0278700000000027,0.0,0.0,0.0,0.0,0.0,0.0,0.0,0.0,3.863524995,0.0,0.0012207029999999897,0.0,0.0,0.0,-0.0,0.0,0.0,1.9165037100000002,0.0,0.0012207029999999897,0.0,0.0,0.0,0.0,0.0,0.0,4.228515192000001,0.0,0.0012207030000004337,0.0,0.0,0.0,-0.0,0.0,0.0,2.888183298,0.0,0.0,1.309999942779541,0.8899999856948853,-0.05999999865889549,0.12811279296875,0.21380615234375,1.0516357421875,28.350000381469727,0.0,111.0,5.950927734375E-4,0.0049591064453125,Closing,0.0,0.0,0.0,0.0,0.0,0.0,0.0,0.0,
3.046711000000003,0.0,0.0,0.0,0.0,0.0,0.0,0.0,0.0,3.864745698,0.0,0.0012207029999999897,0.0,0.0,0.0,-0.0,0.0,0.0,1.9165037100000002,0.0,0.0012207029999999897,0.0,0.0,0.0,0.0,0.0,0.0,4.227294489,0.0,0.0012207030000004337,0.0,0.0,0.0,-0.0,0.0,0.0,2.888183298,0.0,0.0,1.3899999856948853,0.9800000190734863,-0.07000000029802322,0.029052734375,-0.068115234375,0.99639892578125,28.350000381469727,0.0,12.0,9.1552734375E-4,0.00543212890625,Closing,0.0,0.0,0.0,0.0,0.0,0.0,0.0,0.0,
3.0684930000000024,0.0,0.0,0.0,0.0,0.0,0.0,0.0,0.0,3.863524995,0.0,0.0,0.0,0.0,0.0,-0.0,0.0,0.0,1.9165037100000002,0.0,0.0,0.0,0.0,0.0,0.0,0.0,0.0,4.228515192000001,0.0,0.0,0.0,0.0,0.0,-0.0,0.0,0.0,2.886962595,0.0,0.0,1.2599999904632568,0.8999999761581421,-0.05999999865889549,0.13922119140625,0.0594482421875,1.15411376953125,28.350000381469727,0.0,120.0,0.001007080078125,0.006134033203125,Closing,0.0,0.0,0.0,0.0,0.0,0.0,0.0,0.0,
3.0865709999999997,0.0,0.0,0.0,0.0,0.0,0.0,0.0,0.0,3.863524995,0.0,0.0,0.0,0.0,0.0,-0.0,0.0,0.0,1.9152830070000002,0.0,0.0,0.0,0.0,0.0,0.0,0.0,0.0,4.228515192000001,0.0,0.0,0.0,0.0,0.0,-0.0,0.0,0.0,2.886962595,0.0,0.0,1.340000033378601,0.9700000286102295,-0.07000000029802322,-0.17181396484375,0.00811767578125,0.8333740234375,28.350000381469727,0.0,-185.0,0.0010528564453125,0.0064849853515625,Closing,0.0,0.0,0.0,0.0,0.0,0.0,0.0,0.0,
3.1067340000000003,0.0,0.0,0.0,0.0,0.0,0.0,0.0,0.0,3.863524995,0.0,0.0,0.0,0.0,0.0,-0.0,0.0,0.0,1.9165037100000002,0.0,0.0,0.0,0.0,0.0,0.0,0.0,0.0,4.228515192000001,0.0,0.0,0.0,0.0,0.0,-0.0,0.0,0.0,2.886962595,0.0,0.0,1.2799999713897705,0.8899999856948853,-0.05999999865889549,0.10809326171875,-0.0518798828125,1.082275390625,28.350000381469727,0.0,91.0,0.0011444091796875,0.00701904296875,Closing,0.0,0.0,0.0,0.0,0.0,0.0,0.0,0.0,
3.1275,0.0,0.0,0.0,0.0,0.0,0.0,0.0,0.0,3.863524995,0.0,0.0,0.0,0.0,0.0,-0.0,0.0,0.0,1.9165037100000002,0.0,0.0,0.0,0.0,0.0,0.0,0.0,0.0,4.227294489,0.0,0.0,0.0,0.0,0.0,-0.0,0.0,0.0,2.886962595,0.0,0.0,1.2999999523162842,0.9399999976158142,-0.05999999865889549,-0.08782958984375,0.09332275390625,1.0382080078125,28.350000381469727,0.0,-105.0,0.0012359619140625,0.0072174072265625,Closing,0.0,0.0,0.0,0.0,0.0,0.0,0.0,0.0,
3.146656000000003,0.0,0.0,0.0,0.0,0.0,0.0,0.0,0.0,3.863524995,0.0,0.0,0.0,0.0,0.0,-0.0,0.0,0.0,1.9165037100000002,0.0,0.0,0.0,0.0,0.0,0.0,0.0,0.0,4.226073786000001,0.0,0.0,0.0,0.0,0.0,-0.0,0.0,0.0,2.886962595,0.0,0.0,1.3799999952316284,0.9200000166893005,-0.07000000029802322,-0.00146484375,0.0076904296875,0.96563720703125,28.350000381469727,0.0,-17.0,0.001251220703125,0.007476806640625,Closing,0.0,0.0,0.0,0.0,0.0,0.0,0.0,0.0,
3.1684120000000005,0.0,0.0,0.0,0.0,0.0,0.0,0.0,0.0,3.863524995,0.0,-0.0012207029999999897,0.0,0.0,0.0,-0.0,0.0,0.0,1.9165037100000002,0.0,-0.0012207029999999897,0.0,0.0,0.0,0.0,0.0,0.0,4.230956598000001,0.0,-0.0012207030000004337,0.0,0.0,0.0,-0.0,0.0,0.0,2.888183298,0.0,0.0,1.2100000381469727,0.9399999976158142,-0.05999999865889549,-0.09234619140625,0.1373291015625,1.09307861328125,28.3700008392334,0.0,-110.0,0.0010833740234375,0.0071563720703125,Closing,0.0,0.0,0.0,0.0,0.0,0.0,0.0,0.0,
3.1876500000000014,0.0,0.0,0.0,0.0,0.0,0.0,0.0,0.0,3.863524995,0.0,-0.0012207029999999897,0.0,0.0,0.0,-0.0,0.0,0.0,1.9165037100000002,0.0,-0.0012207029999999897,0.0,0.0,0.0,0.0,0.0,0.0,4.227294489,0.0,-0.0012207030000004337,0.0,0.0,0.0,-0.0,0.0,0.0,2.886962595,0.0,0.0,1.2599999904632568,0.9399999976158142,-0.05999999865889549,0.170166015625,0.1002197265625,0.98590087890625,28.3700008392334,0.0,153.0,9.918212890625E-4,0.0070343017578125,Closing,0.0,0.0,0.0,0.0,0.0,0.0,0.0,0.0,
3.2094490000000007,0.0,0.0,0.0,0.0,0.0,0.0,0.0,0.0,3.863524995,0.0,0.0012207029999999897,0.0,0.0,0.0,-0.0,0.0,0.0,1.9165037100000002,0.0,0.0,0.0,0.0,0.0,0.0,0.0,0.0,4.228515192000001,0.0,0.0012207030000004337,0.0,0.0,0.0,-0.0,0.0,0.0,2.886962595,0.0,0.0,1.2300000190734863,0.9399999976158142,-0.07000000029802322,-0.013671875,-0.0672607421875,1.07440185546875,28.3700008392334,0.0,-31.0,9.918212890625E-4,0.00665283203125,Closing,0.0,0.0,0.0,0.0,0.0,0.0,0.0,0.0,
3.231290000000001,0.0,0.0,0.0,0.0,0.0,0.0,0.0,0.0,3.863524995,0.0,0.0012207029999999897,0.0,0.0,0.0,-0.0,0.0,0.0,1.9165037100000002,0.0,0.0,0.0,0.0,0.0,0.0,0.0,0.0,4.229735895,0.0,0.0012207030000004337,0.0,0.0,0.0,-0.0,0.0,0.0,2.886962595,0.0,0.0,1.2000000476837158,0.8999999761581421,-0.05999999865889549,0.167724609375,0.0899658203125,1.110595703125,28.3700008392334,0.0,150.0,0.0010528564453125,0.0063934326171875,Closing,0.0,0.0,0.0,0.0,0.0,0.0,0.0,0.0,
3.250135000000002,0.0,0.0,0.0,0.0,0.0,0.0,0.0,0.0,3.863524995,0.0,0.0012207029999999897,0.0,0.0,0.0,-0.0,0.0,0.0,1.9165037100000002,0.0,0.0,0.0,0.0,0.0,0.0,0.0,0.0,4.228515192000001,0.0,0.0012207030000004337,0.0,0.0,0.0,-0.0,0.0,0.0,2.886962595,0.0,0.0,1.2799999713897705,0.9599999785423279,-0.07000000029802322,-0.056640625,0.0390625,0.88800048828125,28.3700008392334,0.0,-71.0,0.0011749267578125,0.006195068359375,Closing,0.0,0.0,0.0,0.0,0.0,0.0,0.0,0.0,
3.273528000000002,0.0,0.0,0.0,0.0,0.0,0.0,0.0,0.0,3.863524995,0.0,-0.0012207029999999897,0.0,0.0,0.0,-0.0,0.0,0.0,1.9165037100000002,0.0,0.0012207029999999897,0.0,0.0,0.0,0.0,0.0,0.0,4.227294489,0.0,0.0,0.0,0.0,0.0,-0.0,0.0,0.0,2.886962595,0.0,0.0,1.2400000095367432,0.9200000166893005,-0.07000000029802322,0.02752685546875,-0.0601806640625,1.1480712890625,28.3700008392334,0.0,9.0,0.001220703125,0.0055389404296875,Closing,0.0,0.0,0.0,0.0,0.0,0.0,0.0,0.0,
3.292032000000003,0.0,0.0,0.0,0.0,0.0,0.0,0.0,0.0,3.863524995,0.0,-0.0012207029999999897,0.0,0.0,0.0,-0.0,0.0,0.0,1.9165037100000002,0.0,0.0012207029999999897,0.0,0.0,0.0,0.0,0.0,0.0,4.229735895,0.0,0.0,0.0,0.0,0.0,-0.0,0.0,0.0,2.886962595,0.0,0.0,1.2799999713897705,0.9100000262260437,-0.07000000029802322,-0.0633544921875,0.13775634765625,0.86663818359375,28.3700008392334,0.0,-77.0,0.0011749267578125,0.0051727294921875,Closing,0.0,0.0,0.0,0.0,0.0,0.0,0.0,0.0,
3.3265730000000002,0.0,0.0,0.0,0.0,0.0,0.0,0.0,0.0,3.863524995,0.0,0.0012207029999999897,0.0,0.0,0.0,-0.0,0.0,0.0,1.9165037100000002,0.0,-0.0012207029999999897,0.0,0.0,0.0,0.0,0.0,0.0,4.228515192000001,0.0,0.0,0.0,0.0,0.0,-0.0,0.0,0.0,2.888183298,0.0,0.0,1.2899999618530273,0.9100000262260437,-0.07000000029802322,-0.00189208984375,-0.09014892578125,1.08245849609375,28.3700008392334,0.0,-18.0,8.087158203125E-4,0.0036163330078125,Closing,0.0,0.0,0.0,0.0,0.0,0.0,0.0,0.0,
3.3476690000000016,0.0,0.0,0.0,0.0,0.0,0.0,0.0,0.0,3.863524995,0.0,0.0012207029999999897,0.0,0.0,0.0,-0.0,0.0,0.0,1.9165037100000002,0.0,-0.0012207029999999897,0.0,0.0,0.0,0.0,0.0,0.0,4.228515192000001,0.0,0.0,0.0,0.0,0.0,-0.0,0.0,0.0,2.886962595,0.0,0.0,1.3200000524520874,0.8999999761581421,-0.07000000029802322,0.04376220703125,0.307373046875,1.1373291015625,28.3700008392334,0.0,25.0,6.561279296875E-4,0.0030517578125,Closing,0.0,0.0,0.0,0.0,0.0,0.0,0.0,0.0,
3.370343000000001,0.0,0.0,0.0,0.0,0.0,0.0,0.0,0.0,3.863524995,0.0,0.0,0.0,0.0,0.0,-0.0,0.0,0.0,1.9165037100000002,0.0,0.0012207029999999897,0.0,0.0,0.0,0.0,0.0,0.0,4.228515192000001,0.0,0.0,0.0,0.0,0.0,-0.0,0.0,0.0,2.886962595,0.0,0.0,1.2799999713897705,0.8999999761581421,-0.07000000029802322,-0.005615234375,-0.1702880859375,0.953857421875,28.3700008392334,0.0,-20.0,5.340576171875E-4,0.002105712890625,Closing,0.0,0.0,0.0,0.0,0.0,0.0,0.0,0.0,
3.388445,0.0,0.0,0.0,0.0,0.0,0.0,0.0,0.0,3.863524995,0.0,0.0,0.0,0.0,0.0,-0.0,0.0,0.0,1.9165037100000002,0.0,0.0012207029999999897,0.0,0.0,0.0,0.0,0.0,0.0,4.229735895,0.0,0.0,0.0,0.0,0.0,-0.0,0.0,0.0,2.888183298,0.0,0.0,1.2300000190734863,0.8899999856948853,-0.07000000029802322,0.15570068359375,0.1058349609375,1.09124755859375,28.3700008392334,0.0,138.0,5.645751953125E-4,0.001495361328125,Closing,0.0,0.0,0.0,0.0,0.0,0.0,0.0,0.0,
3.413813000000002,0.0,0.0,0.0,0.0,0.0,0.0,0.0,0.0,3.863524995,0.0,0.0,0.0,0.0,0.0,-0.0,0.0,0.0,1.9165037100000002,0.0,0.0,0.0,0.0,0.0,0.0,0.0,0.0,4.228515192000001,0.0,0.0,0.0,0.0,0.0,-0.0,0.0,0.0,2.888183298,0.0,0.0,1.2999999523162842,0.9200000166893005,-0.07000000029802322,-0.1368408203125,-0.164306640625,0.98773193359375,28.3700008392334,0.0,-152.0,8.087158203125E-4,1.983642578125E-4,Closing,0.0,0.0,0.0,0.0,0.0,0.0,0.0,0.0,
3.4329000000000014,0.0,0.0,0.0,0.0,0.0,0.0,0.0,0.0,3.863524995,0.0,0.0,0.0,0.0,0.0,-0.0,0.0,0.0,1.9165037100000002,0.0,0.0,0.0,0.0,0.0,0.0,0.0,0.0,4.229735895,0.0,0.0,0.0,0.0,0.0,-0.0,0.0,0.0,2.886962595,0.0,0.0,1.1799999475479126,0.8600000143051147,-0.07000000029802322,0.00286865234375,0.0078125,0.9527587890625,28.3700008392334,0.0,-11.0,7.781982421875E-4,-6.40869140625E-4,Closing,0.0,0.0,0.0,0.0,0.0,0.0,0.0,0.0,
3.452978000000003,0.0,0.0,0.0,0.0,0.0,0.0,0.0,0.0,3.863524995,0.0,0.0,0.0,0.0,0.0,-0.0,0.0,0.0,1.9165037100000002,0.0,0.0,0.0,0.0,0.0,0.0,0.0,0.0,4.228515192000001,0.0,0.0,0.0,0.0,0.0,-0.0,0.0,0.0,2.886962595,0.0,0.0,1.2999999523162842,0.8799999952316284,-0.07000000029802322,-0.0032958984375,0.21099853515625,0.79229736328125,28.3700008392334,0.0,-15.0,7.32421875E-4,-0.002105712890625,Closing,0.0,0.0,0.0,0.0,0.0,0.0,0.0,0.0,
3.473876,0.0,0.0,0.0,0.0,0.0,0.0,0.0,0.0,3.863524995,0.0,-0.0012207029999999897,0.0,0.0,0.0,-0.0,0.0,0.0,1.9165037100000002,0.0,-0.0012207029999999897,0.0,0.0,0.0,0.0,0.0,0.0,4.229735895,0.0,0.0,0.0,0.0,0.0,-0.0,0.0,0.0,2.888183298,0.0,0.0,1.2799999713897705,0.8500000238418579,-0.07000000029802322,0.07281494140625,-0.05340576171875,0.998046875,28.3700008392334,0.0,57.0,7.476806640625E-4,-0.002655029296875,Closing,0.0,0.0,0.0,0.0,0.0,0.0,0.0,0.0,
3.4927880000000004,0.0,0.0,0.0,0.0,0.0,0.0,0.0,0.0,3.863524995,0.0,-0.0012207029999999897,0.0,0.0,0.0,-0.0,0.0,0.0,1.9165037100000002,0.0,-0.0012207029999999897,0.0,0.0,0.0,0.0,0.0,0.0,4.229735895,0.0,0.0,0.0,0.0,0.0,-0.0,0.0,0.0,2.886962595,0.0,0.0,1.2599999904632568,0.8399999737739563,-0.07000000029802322,-0.06072998046875,-0.002197265625,1.1556396484375,28.3700008392334,0.0,-77.0,7.476806640625E-4,-0.0032806396484375,Closing,0.0,0.0,0.0,0.0,0.0,0.0,0.0,0.0,
3.513350000000002,0.0,0.0,0.0,0.0,0.0,0.0,0.0,0.0,3.863524995,0.0,0.0,0.0,0.0,0.0,-0.0,0.0,0.0,1.9165037100000002,0.0,0.0012207029999999897,0.0,0.0,0.0,0.0,0.0,0.0,4.228515192000001,0.0,0.0,0.0,0.0,0.0,-0.0,0.0,0.0,2.888183298,0.0,0.0,1.3700000047683716,0.8899999856948853,-0.05999999865889549,-0.01666259765625,0.06939697265625,0.950439453125,28.3700008392334,0.0,-31.0,8.697509765625E-4,-0.004302978515625,Closing,0.0,0.0,0.0,0.0,0.0,0.0,0.0,0.0,
3.533973000000002,0.0,0.0,0.0,0.0,0.0,0.0,0.0,0.0,3.863524995,0.0,0.0,0.0,0.0,0.0,-0.0,0.0,0.0,1.9165037100000002,0.0,0.0012207029999999897,0.0,0.0,0.0,0.0,0.0,0.0,4.229735895,0.0,0.0,0.0,0.0,0.0,-0.0,0.0,0.0,2.888183298,0.0,0.0,1.3200000524520874,0.8999999761581421,-0.07000000029802322,-0.04095458984375,-0.0753173828125,1.005126953125,28.3700008392334,0.0,-56.0,9.002685546875E-4,-0.0048065185546875,Closing,0.0,0.0,0.0,0.0,0.0,0.0,0.0,0.0,
3.551935000000001,0.0,0.0,0.0,0.0,0.0,0.0,0.0,0.0,3.864745698,0.0,0.0,0.0,0.0,0.0,-0.0,0.0,0.0,1.9165037100000002,0.0,0.0012207029999999897,0.0,0.0,0.0,0.0,0.0,0.0,4.228515192000001,0.0,0.0,0.0,0.0,0.0,-0.0,0.0,0.0,2.888183298,0.0,0.0,1.2300000190734863,0.8500000238418579,-0.05999999865889549,0.1553955078125,0.22198486328125,1.1722412109375,28.3700008392334,0.0,137.0,9.765625E-4,-0.005218505859375,Closing,0.0,0.0,0.0,0.0,0.0,0.0,0.0,0.0,
3.572957000000002,0.0,0.0,0.0,0.0,0.0,0.0,0.0,0.0,3.863524995,0.0,0.0012207029999999897,0.0,0.0,0.0,-0.0,0.0,0.0,1.9177244130000002,0.0,0.0,0.0,0.0,0.0,0.0,0.0,0.0,4.229735895,0.0,0.0,0.0,0.0,0.0,-0.0,0.0,0.0,2.888183298,0.0,0.0,1.350000023841858,0.8600000143051147,-0.05999999865889549,0.13507080078125,0.13165283203125,1.17730712890625,28.3700008392334,0.0,117.0,0.0012359619140625,-0.0054473876953125,Closing,0.0,0.0,0.0,0.0,0.0,0.0,0.0,0.0,
3.5910349999999998,0.0,0.0,0.0,0.0,0.0,0.0,0.0,0.0,3.864745698,0.0,0.0012207029999999897,0.0,0.0,0.0,-0.0,0.0,0.0,1.9165037100000002,0.0,0.0,0.0,0.0,0.0,0.0,0.0,0.0,4.229735895,0.0,0.0,0.0,0.0,0.0,-0.0,0.0,0.0,2.888183298,0.0,0.0,1.2999999523162842,0.8700000047683716,-0.05999999865889549,0.093505859375,-0.07208251953125,1.07037353515625,28.3700008392334,0.0,77.0,0.0016326904296875,-0.0059814453125,Closing,0.0,0.0,0.0,0.0,0.0,0.0,0.0,0.0,
3.609453000000001,0.0,0.0,0.0,0.0,0.0,0.0,0.0,0.0,3.863524995,0.0,0.0,0.0,0.0,0.0,-0.0,0.0,0.0,1.9165037100000002,0.0,0.0,0.0,0.0,0.0,0.0,0.0,0.0,4.228515192000001,0.0,0.0,0.0,0.0,0.0,-0.0,0.0,0.0,2.886962595,0.0,0.0,1.2699999809265137,0.8899999856948853,-0.07000000029802322,0.00299072265625,0.10968017578125,0.90277099609375,28.3700008392334,0.0,-11.0,0.0018463134765625,-0.006317138671875,Closing,0.0,0.0,0.0,0.0,0.0,0.0,0.0,0.0,
3.630152000000002,0.0,0.0,0.0,0.0,0.0,0.0,0.0,0.0,3.863524995,0.0,0.0,0.0,0.0,0.0,-0.0,0.0,0.0,1.9165037100000002,0.0,0.0,0.0,0.0,0.0,0.0,0.0,0.0,4.228515192000001,0.0,0.0,0.0,0.0,0.0,-0.0,0.0,0.0,2.888183298,0.0,0.0,1.3899999856948853,0.9399999976158142,-0.07000000029802322,-0.02520751953125,0.102783203125,1.01336669921875,28.3700008392334,0.0,-42.0,0.0020294189453125,-0.00653076171875,Closing,0.0,0.0,0.0,0.0,0.0,0.0,0.0,0.0,
3.6484340000000013,0.0,0.0,0.0,0.0,0.0,0.0,0.0,0.0,3.864745698,0.0,0.0,0.0,0.0,0.0,-0.0,0.0,0.0,1.9165037100000002,0.0,0.0,0.0,0.0,0.0,0.0,0.0,0.0,4.228515192000001,0.0,0.0,0.0,0.0,0.0,-0.0,0.0,0.0,2.886962595,0.0,0.0,1.3799999952316284,0.9300000071525574,-0.07000000029802322,0.07928466796875,-0.06781005859375,0.94879150390625,28.3700008392334,0.0,63.0,0.002227783203125,-0.0067596435546875,Closing,0.0,0.0,0.0,0.0,0.0,0.0,0.0,0.0,
3.668707000000002,0.0,0.0,0.0,0.0,0.0,0.0,0.0,0.0,3.862304292,0.0,0.0,0.0,0.0,0.0,-0.0,0.0,0.0,1.9165037100000002,0.0,-0.0012207029999999897,0.0,0.0,0.0,0.0,0.0,0.0,4.228515192000001,0.0,0.0,0.0,0.0,0.0,-0.0,0.0,0.0,2.886962595,0.0,0.0,1.2899999618530273,0.8899999856948853,-0.05999999865889549,-0.0880126953125,0.29034423828125,1.0946044921875,28.350000381469727,0.0,-105.0,0.0026397705078125,-0.0071258544921875,Closing,0.0,0.0,0.0,0.0,0.0,0.0,0.0,0.0,
3.686670000000002,0.0,0.0,0.0,0.0,0.0,0.0,0.0,0.0,3.863524995,0.0,0.0,0.0,0.0,0.0,-0.0,0.0,0.0,1.9165037100000002,0.0,-0.0012207029999999897,0.0,0.0,0.0,0.0,0.0,0.0,4.227294489,0.0,0.0,0.0,0.0,0.0,-0.0,0.0,0.0,2.888183298,0.0,0.0,1.3899999856948853,0.8700000047683716,-0.05999999865889549,0.11572265625,0.11102294921875,0.97784423828125,28.350000381469727,0.0,100.0,0.0027923583984375,-0.006988525390625,Closing,0.0,0.0,0.0,0.0,0.0,0.0,0.0,0.0,
3.7051769999999995,0.0,0.0,0.0,0.0,0.0,0.0,0.0,0.0,3.863524995,0.0,0.0,0.0,0.0,0.0,-0.0,0.0,0.0,1.9165037100000002,0.0,-0.0012207029999999897,0.0,0.0,0.0,0.0,0.0,0.0,4.228515192000001,0.0,0.0,0.0,0.0,0.0,-0.0,0.0,0.0,2.886962595,0.0,0.0,1.3700000047683716,0.8899999856948853,-0.05999999865889549,-0.05145263671875,-0.0262451171875,0.926025390625,28.350000381469727,0.0,-65.0,0.00299072265625,-0.006805419921875,Closing,0.0,0.0,0.0,0.0,0.0,0.0,0.0,0.0,
3.7283770000000005,0.0,0.0,0.0,0.0,0.0,0.0,0.0,0.0,3.864745698,0.0,-0.0012207029999999897,0.0,0.0,0.0,-0.0,0.0,0.0,1.9165037100000002,0.0,0.0,0.0,0.0,0.0,0.0,0.0,0.0,4.228515192000001,0.0,0.0,0.0,0.0,0.0,-0.0,0.0,0.0,2.886962595,0.0,0.0,1.3700000047683716,0.8700000047683716,-0.05999999865889549,0.1256103515625,0.18768310546875,0.99957275390625,28.350000381469727,0.0,110.0,0.003326416015625,-0.006591796875,Closing,0.0,0.0,0.0,0.0,0.0,0.0,0.0,0.0,
3.7468790000000007,0.0,0.0,0.0,0.0,0.0,0.0,0.0,0.0,3.862304292,0.0,-0.0012207029999999897,0.0,0.0,0.0,-0.0,0.0,0.0,1.9165037100000002,0.0,0.0,0.0,0.0,0.0,0.0,0.0,0.0,4.228515192000001,0.0,0.0,0.0,0.0,0.0,-0.0,0.0,0.0,2.886962595,0.0,0.0,1.5,0.8799999952316284,-0.07000000029802322,-0.010986328125,-0.11590576171875,0.9544677734375,28.350000381469727,0.0,-25.0,0.0035858154296875,-0.0064544677734375,Closing,0.0,0.0,0.0,0.0,0.0,0.0,0.0,0.0,
3.769848000000002,0.0,0.0,0.0,0.0,0.0,0.0,0.0,0.0,3.863524995,0.0,0.0,0.0,0.0,0.0,-0.0,0.0,0.0,1.9165037100000002,0.0,0.0012207029999999897,0.0,0.0,0.0,0.0,0.0,0.0,4.228515192000001,0.0,0.0,0.0,0.0,0.0,-0.0,0.0,0.0,2.886962595,0.0,0.0,1.3799999952316284,0.8899999856948853,-0.05999999865889549,-0.04571533203125,-0.199951171875,1.07220458984375,28.350000381469727,0.0,-62.0,0.0037841796875,-0.0065460205078125,Closing,0.0,0.0,0.0,0.0,0.0,0.0,0.0,0.0,
3.788786,0.0,0.0,0.0,0.0,0.0,0.0,0.0,0.0,3.863524995,0.0,0.0,0.0,0.0,0.0,-0.0,0.0,0.0,1.9165037100000002,0.0,0.0012207029999999897,0.0,0.0,0.0,0.0,0.0,0.0,4.227294489,0.0,0.0,0.0,0.0,0.0,-0.0,0.0,0.0,2.888183298,0.0,0.0,1.3799999952316284,0.9200000166893005,-0.07000000029802322,-0.4573974609375,0.00274658203125,0.77508544921875,28.350000381469727,0.0,-469.0,0.0039520263671875,-0.006988525390625,Closing,0.0,0.0,0.0,0.0,0.0,0.0,0.0,0.0,
3.806925000000003,0.0,0.0,0.0,0.0,0.0,0.0,0.0,0.0,3.863524995,0.0,0.0,0.0,0.0,0.0,-0.0,0.0,0.0,1.9165037100000002,0.0,0.0012207029999999897,0.0,0.0,0.0,0.0,0.0,0.0,4.229735895,0.0,0.0,0.0,0.0,0.0,-0.0,0.0,0.0,2.888183298,0.0,0.0,1.3899999856948853,0.8199999928474426,-0.05999999865889549,0.08056640625,0.22137451171875,1.19427490234375,28.350000381469727,0.0,63.0,0.0036163330078125,-0.007080078125,Closing,0.0,0.0,0.0,0.0,0.0,0.0,0.0,0.0,
3.8280869999999996,0.0,0.0,0.0,0.0,0.0,0.0,0.0,0.0,3.862304292,0.0,0.0012207029999999897,0.0,0.0,0.0,-0.0,0.0,0.0,1.9177244130000002,0.0,0.0,0.0,0.0,0.0,0.0,0.0,0.0,4.229735895,0.0,0.0,0.0,0.0,0.0,-0.0,0.0,0.0,2.886962595,0.0,0.0,1.4700000286102295,0.8500000238418579,-0.07000000029802322,0.09124755859375,0.07269287109375,0.9246826171875,28.350000381469727,0.0,77.0,0.003387451171875,-0.0070037841796875,Closing,0.0,0.0,0.0,0.0,0.0,0.0,0.0,0.0,
3.8463580000000004,0.0,0.0,0.0,0.0,0.0,0.0,0.0,0.0,3.862304292,0.0,0.0012207029999999897,0.0,0.0,0.0,-0.0,0.0,0.0,1.9165037100000002,0.0,0.0,0.0,0.0,0.0,0.0,0.0,0.0,4.228515192000001,0.0,0.0,0.0,0.0,0.0,-0.0,0.0,0.0,2.886962595,0.0,0.0,1.4800000190734863,0.8799999952316284,-0.07000000029802322,0.06378173828125,-0.0169677734375,1.01690673828125,28.350000381469727,0.0,48.0,0.00323486328125,-0.006927490234375,Closing,0.0,0.0,0.0,0.0,0.0,0.0,0.0,0.0,
3.8677810000000026,0.0,0.0,0.0,0.0,0.0,0.0,0.0,0.0,3.863524995,0.0,0.0,0.0,0.0,0.0,-0.0,0.0,0.0,1.9165037100000002,0.0,-0.0012207029999999897,0.0,0.0,0.0,0.0,0.0,0.0,4.228515192000001,0.0,0.0,0.0,0.0,0.0,-0.0,0.0,0.0,2.886962595,0.0,0.0,1.4900000095367432,0.8899999856948853,-0.07000000029802322,-0.05718994140625,-0.0145263671875,1.0335693359375,28.350000381469727,0.0,-73.0,0.00286865234375,-0.006866455078125,Closing,0.0,0.0,0.0,0.0,0.0,0.0,0.0,0.0,
3.8860509999999993,0.0,0.0,0.0,0.0,0.0,0.0,0.0,0.0,3.863524995,0.0,0.0,0.0,0.0,0.0,-0.0,0.0,0.0,1.9165037100000002,0.0,-0.0012207029999999897,0.0,0.0,0.0,0.0,0.0,0.0,4.229735895,0.0,0.0,0.0,0.0,0.0,-0.0,0.0,0.0,2.886962595,0.0,0.0,1.4800000190734863,0.8999999761581421,-0.07000000029802322,0.0152587890625,-0.00433349609375,1.05615234375,28.350000381469727,0.0,-1.0,0.002593994140625,-0.0068817138671875,Closing,0.0,0.0,0.0,0.0,0.0,0.0,0.0,0.0,
3.9028000000000027,0.0,0.0,0.0,0.0,0.0,0.0,0.0,0.0,3.864745698,0.0,0.0,0.0,0.0,0.0,-0.0,0.0,0.0,1.9165037100000002,0.0,-0.0012207029999999897,0.0,0.0,0.0,0.0,0.0,0.0,4.228515192000001,0.0,0.0,0.0,0.0,0.0,-0.0,0.0,0.0,2.886962595,0.0,0.0,1.4600000381469727,0.8700000047683716,-0.07000000029802322,0.07354736328125,0.00128173828125,1.0279541015625,28.350000381469727,0.0,57.0,0.002349853515625,-0.0069580078125,Closing,0.0,0.0,0.0,0.0,0.0,0.0,0.0,0.0,
3.9232030000000013,0.0,0.0,0.0,0.0,0.0,0.0,0.0,0.0,3.863524995,0.0,0.0,0.0,0.0,0.0,-0.0,0.0,0.0,1.9165037100000002,0.0,0.0,0.0,0.0,0.0,0.0,0.0,0.0,4.227294489,0.0,0.0,0.0,0.0,0.0,-0.0,0.0,0.0,2.888183298,0.0,0.0,1.4700000286102295,0.8899999856948853,-0.07000000029802322,0.025146484375,0.03607177734375,1.0086669921875,28.350000381469727,0.0,9.0,0.0019683837890625,-0.0070343017578125,Closing,0.0,0.0,0.0,0.0,0.0,0.0,0.0,0.0,
3.939282000000003,0.0,0.0,0.0,0.0,0.0,0.0,0.0,0.0,3.863524995,0.0,0.0,0.0,0.0,0.0,-0.0,0.0,0.0,1.9165037100000002,0.0,0.0,0.0,0.0,0.0,0.0,0.0,0.0,4.227294489,0.0,0.0,0.0,0.0,0.0,-0.0,0.0,0.0,2.886962595,0.0,0.0,1.4700000286102295,0.8799999952316284,-0.07000000029802322,-0.01947021484375,0.01751708984375,1.05029296875,28.350000381469727,0.0,-35.0,0.0017547607421875,-0.0070343017578125,Closing,0.0,0.0,0.0,0.0,0.0,0.0,0.0,0.0,
3.962019,0.0,0.0,0.0,0.0,0.0,0.0,0.0,0.0,3.863524995,0.0,0.0,0.0,0.0,0.0,-0.0,0.0,0.0,1.9165037100000002,0.0,0.0012207029999999897,0.0,0.0,0.0,0.0,0.0,0.0,4.227294489,0.0,0.0,0.0,0.0,0.0,-0.0,0.0,0.0,2.886962595,0.0,0.0,1.4700000286102295,0.8899999856948853,-0.07000000029802322,0.03863525390625,0.0367431640625,0.96160888671875,28.350000381469727,0.0,23.0,0.0015411376953125,-0.0070343017578125,Closing,0.0,0.0,0.0,0.0,0.0,0.0,0.0,0.0,
3.9808729999999994,0.0,0.0,0.0,0.0,0.0,0.0,0.0,0.0,3.864745698,0.0,0.0,0.0,0.0,0.0,-0.0,0.0,0.0,1.9165037100000002,0.0,0.0012207029999999897,0.0,0.0,0.0,0.0,0.0,0.0,4.228515192000001,0.0,0.0,0.0,0.0,0.0,-0.0,0.0,0.0,2.886962595,0.0,0.0,1.4600000381469727,0.8799999952316284,-0.07000000029802322,0.043701171875,0.0279541015625,1.0137939453125,28.350000381469727,0.0,28.0,0.001129150390625,-0.0070343017578125,Closing,0.0,0.0,0.0,0.0,0.0,0.0,0.0,0.0,
3.9997520000000004,0.0,0.0,0.0,0.0,0.0,0.0,0.0,0.0,3.863524995,0.0,0.0,0.0,0.0,0.0,-0.0,0.0,0.0,1.9165037100000002,0.0,0.0012207029999999897,0.0,0.0,0.0,0.0,0.0,0.0,4.228515192000001,0.0,0.0,0.0,0.0,0.0,-0.0,0.0,0.0,2.886962595,0.0,0.0,1.4600000381469727,0.8899999856948853,-0.07000000029802322,-0.00872802734375,0.0302734375,1.0113525390625,28.350000381469727,0.0,-24.0,9.307861328125E-4,-0.0070343017578125,Closing,0.0,0.0,0.0,0.0,0.0,0.0,0.0,0.0,
4.020524000000001,0.0,0.0,0.0,0.0,0.0,0.0,0.0,0.0,3.863524995,0.0,-0.0012207029999999897,0.0,0.0,0.0,-0.0,0.0,0.0,1.9177244130000002,0.0,-0.0012207029999999897,0.0,0.0,0.0,0.0,0.0,0.0,4.228515192000001,0.0,0.0,0.0,0.0,0.0,-0.0,0.0,0.0,2.886962595,0.0,0.0,1.4500000476837158,0.8799999952316284,-0.07000000029802322,0.00933837890625,0.0181884765625,0.99896240234375,28.350000381469727,0.0,-6.0,7.171630859375E-4,-0.0070343017578125,Closing,0.0,0.0,0.0,0.0,0.0,0.0,0.0,0.0,
4.040176,0.0,0.0,0.0,0.0,0.0,0.0,0.0,0.125,3.863524995,0.0,-0.0012207029999999897,0.0,0.0,0.0,-0.0,0.0,0.0,1.9165037100000002,0.0,-0.0012207029999999897,0.0,0.0,0.0,0.0,0.0,0.0,4.228515192000001,0.0,0.0,0.0,0.0,0.0,-0.0,0.0,0.0,2.886962595,0.0,0.0,1.4600000381469727,0.8700000047683716,-0.07000000029802322,0.0020751953125,0.02874755859375,1.02398681640625,28.350000381469727,0.0,-13.0,7.171630859375E-4,-0.0070343017578125,Closing,0.0,0.0,0.0,0.0,0.0,0.0,0.0,0.0,
4.061242000000002,0.0,0.0,0.0,0.0,0.0,0.0,0.0,0.0,3.863524995,0.0,0.0,0.0,0.0,0.0,-0.0,0.0,0.0,1.9165037100000002,0.0,0.0,0.0,0.0,0.0,0.0,0.0,0.0,4.228515192000001,0.0,0.0,0.0,0.0,0.0,-0.0,0.0,0.0,2.886962595,0.0,0.0,1.4500000476837158,0.8799999952316284,-0.07000000029802322,0.02215576171875,0.0179443359375,0.98876953125,28.350000381469727,0.0,6.0,7.171630859375E-4,-0.0070343017578125,Closing,0.0,0.0,0.0,0.0,0.0,0.0,0.0,0.0,
4.080656000000003,0.0,0.0,0.0,0.0,0.0,0.0,0.0,0.0,3.863524995,0.0,0.0,0.0,0.0,0.0,-0.0,0.0,0.0,1.9165037100000002,0.0,0.0,0.0,0.0,0.0,0.0,0.0,0.0,4.228515192000001,0.0,0.0,0.0,0.0,0.0,-0.0,0.0,0.0,2.888183298,0.0,0.0,1.4500000476837158,0.8799999952316284,-0.07000000029802322,0.01702880859375,0.01824951171875,1.01593017578125,28.350000381469727,0.0,1.0,7.171630859375E-4,-0.0070343017578125,Closing,0.0,0.0,0.0,0.0,0.0,0.0,0.0,0.0,
4.100104000000003,0.0,0.0,0.0,0.0,0.0,0.0,0.0,0.0,3.864745698,0.0,0.0,0.0,0.0,0.0,-0.0,0.0,0.0,1.9165037100000002,0.0,0.0,0.0,0.0,0.0,0.0,0.0,0.0,4.228515192000001,0.0,0.0,0.0,0.0,0.0,-0.0,0.0,0.0,2.884521189,0.0,0.0,1.4500000476837158,0.8799999952316284,-0.07000000029802322,0.01507568359375,0.01690673828125,0.99932861328125,28.350000381469727,0.0,0.0,7.171630859375E-4,-0.0070343017578125,Closing,0.0,0.0,0.0,0.0,0.0,0.0,0.0,0.0,
4.121487000000001,0.0,0.0,0.0,0.0,0.0,0.0,0.0,0.0,3.863524995,0.0,0.0,0.0,0.0,0.0,-0.0,0.0,0.0,1.9165037100000002,0.0,0.0,0.0,0.0,0.0,0.0,0.0,0.0,4.229735895,0.0,0.0,0.0,0.0,0.0,-0.0,0.0,0.0,2.886962595,0.0,0.0,1.440000057220459,0.8700000047683716,-0.07000000029802322,0.008056640625,0.0205078125,1.00146484375,28.350000381469727,0.0,-7.0,7.171630859375E-4,-0.0070343017578125,Closing,0.0,0.0,0.0,0.0,0.0,0.0,0.0,0.0,
4.139932000000001,0.0,0.0,0.0,0.0,0.0,0.0,0.0,0.0,3.864745698,0.0,0.0,0.0,0.0,0.0,-0.0,0.0,0.0,1.9165037100000002,0.0,0.0,0.0,0.0,0.0,0.0,0.0,0.0,4.228515192000001,0.0,0.0,0.0,0.0,0.0,-0.0,0.0,0.0,2.886962595,0.0,0.0,1.440000057220459,0.8700000047683716,-0.07000000029802322,0.008056640625,0.0205078125,1.00146484375,28.350000381469727,0.0,-7.0,7.171630859375E-4,-0.0070343017578125,Closing,0.0,0.0,0.0,0.0,0.0,0.0,0.0,0.0,
