Time,ClimberA1,ClimberA2,FRpos,FRCurrent,FRspeed,FRsetpoint,FRApos,FRACurrent,FREncpos,FREncSetpoint,FREncSpeed,FLpos,FLCurrent,FLspeed,FLsetpoint,FLApos,FLACurrent,FLEncpos,FLEncSetpoint,FLEncSpeed,BRpos,BRCurrent,BRspeed,BRsetpoint,BRApos,BRACurrent,BREncpos,BREncSetpoint,BREncSpeed,BLpos,BLCurrent,BLspeed,BLsetpoint,BLApos,BLACurrent,BLEncpos,BLEncSetpoint,BLEncSpeed,navx_Pitch,navx_Roll,navx_Yaw,navx_XAcc,navx_YAcc,navx_ZAcc,navx_Temp,navx_Bar,navx_Alt,navx_XDis,navx_YDis,GearPlacerState,ShootOutputV,ShootOutputCurrent,ShootEncPos,ShootEncVelocity,ShootSpeed,ShootSetpoint,CarouselSetpoint,CarouselCurrent,
0.13449400000000605,0.0,0.0,3056.0,3.625,262.5,840.0,0.0,0.0,3.80859336,0.07459793938530818,0.0,-2849.0,4.125,-232.5,-840.0,0.0,0.0,1.887206838,0.07437252256605362,0.0,2842.0,4.75,210.0,840.0,0.0,0.0,0.010986327,0.07444766150580513,0.0,-2919.0,7.375,-225.0,-840.0,0.0,0.0,2.912597358,0.07434998088412816,0.0,0.9100000262260437,1.5800000429153442,-176.24000549316406,0.1165771484375,0.1002197265625,1.20416259765625,28.149999618530273,0.0,-88.0,-0.1791839599609375,-0.41461181640625,Closing,0.0,0.0,0.0,0.0,0.0,0.0,0.0,0.0,
0.19507399999996414,0.0,0.0,3097.0,0.75,277.5,0.0,0.0,0.0,3.817138281,0.0,0.0,-2898.0,1.375,-300.0,-0.0,0.0,0.0,1.8920896500000002,0.0,-0.0012207029999995456,2889.0,1.5,307.5,0.0,0.0,0.0,0.01220703,0.0,0.0,-2964.0,2.375,-292.5,-0.0,0.0,0.0,2.911376655,0.0,0.0012207029999999897,0.8999999761581421,1.7599999904632568,-176.2100067138672,-0.25616455078125,0.02484130859375,1.06146240234375,28.149999618530273,0.0,287.0,-0.1940155029296875,-0.415496826171875,Closing,0.0,0.0,0.0,0.0,0.0,0.0,0.0,0.0,
0.2576790000000037,0.0,0.0,3097.0,0.125,180.0,0.0,0.0,0.0,3.814696875,0.0,0.006103514999999948,-2898.0,0.0,-262.5,-0.0,0.0,0.0,1.8920896500000002,0.0,0.006103514999999504,2889.0,0.0,210.0,0.0,0.0,0.0,0.010986327,0.0,0.0,-2964.0,0.0,-225.0,-0.0,0.0,0.0,2.911376655,0.0,-0.0012207029999999897,0.7699999809265137,1.1699999570846558,-176.49000549316406,-0.23101806640625,0.147705078125,1.1058349609375,28.149999618530273,0.0,245.0,-0.2022705078125,-0.415557861328125,Closing,0.0,0.0,0.0,0.0,0.0,0.0,0.0,0.0,
0.3223159999999916,0.0,0.0,3132.0,0.125,202.5,0.0,0.0,0.0,3.814696875,0.0,0.0,-2922.0,0.0,-157.5,-0.0,0.0,0.0,1.8920896500000002,0.0,-0.0012207029999995456,2917.0,0.0,180.0,0.0,0.0,0.0,0.01220703,0.0,0.0,-2994.0,0.0,-180.0,-0.0,0.0,0.0,2.910155952,0.0,0.0012207029999999897,0.8500000238418579,1.0700000524520874,-176.4199981689453,-0.03741455078125,-0.09906005859375,0.78607177734375,28.149999618530273,0.0,59.0,-0.206390380859375,-0.4158782958984375,Closing,0.0,0.0,0.0,0.0,0.0,0.0,0.0,0.0,
0.38833299999998416,0.0,0.0,3132.0,0.0,202.5,0.0,0.0,0.0,3.814696875,0.0,-0.0012207029999999897,-2922.0,0.0,-135.0,-0.0,0.0,0.0,1.8920896500000002,0.0,0.0012207029999995456,2917.0,0.0,157.5,0.0,0.0,0.0,4.942626447,0.0,0.0,-2994.0,0.0,-195.0,-0.0,0.0,0.0,2.910155952,0.0,-0.0012207029999999897,0.8199999928474426,0.8500000238418579,-176.16000366210938,-0.0662841796875,0.01129150390625,0.96051025390625,28.149999618530273,0.0,80.0,-0.2103424072265625,-0.4162445068359375,Closing,0.0,0.0,0.0,0.0,0.0,0.0,0.0,0.0,
0.44803499999997437,0.0,0.0,3146.0,0.0,97.5,0.0,0.0,0.0,3.814696875,0.0,0.0012207029999999897,-2948.0,0.0,-157.5,-0.0,0.0,0.0,1.8945310560000002,0.0,-0.0012207029999995456,2934.0,0.0,97.5,0.0,0.0,0.0,4.940185041,0.0,-0.02358058300000021,-3014.0,0.0,-127.5,-0.0,0.0,0.0,2.911376655,0.0,0.0,0.8299999833106995,0.6100000143051147,-176.13999938964844,-0.07489013671875,0.04412841796875,1.06927490234375,28.18000030517578,0.0,84.0,-0.2124176025390625,-0.4169921875,Closing,0.0,0.0,0.0,0.0,0.0,0.0,0.0,0.0,
0.508844999999972,0.0,0.0,3146.0,0.0,90.0,0.0,0.0,0.0,3.814696875,0.0,-0.0012207029999999897,-2948.0,0.0,-135.0,-0.0,0.0,0.0,1.8920896500000002,0.0,0.0012207029999995456,2934.0,0.0,97.5,0.0,0.0,0.0,4.941405744,0.0,0.0,-3014.0,0.0,-90.0,-0.0,0.0,0.0,2.911376655,0.0,0.0,0.8199999928474426,0.4399999976158142,-176.3300018310547,-0.05133056640625,0.00115966796875,0.92108154296875,28.18000030517578,0.0,59.0,-0.2127532958984375,-0.417449951171875,Closing,0.0,0.0,0.0,0.0,0.0,0.0,0.0,0.0,
0.5680799999999581,0.0,0.0,3154.0,0.0,75.0,0.0,0.0,0.0,3.811034766,0.0,0.0012207029999999897,-2953.0,0.0,-45.0,-0.0,0.0,0.0,1.8920896500000002,0.0,0.0,2941.0,0.0,60.0,0.0,0.0,0.0,4.941405744,0.0,0.0,-3030.0,0.0,-97.5,-0.0,0.0,0.0,2.911376655,0.0,0.0012207029999999897,0.8100000023841858,0.3100000023841858,-176.25999450683594,-0.0208740234375,0.01513671875,0.9654541015625,28.18000030517578,0.0,26.0,-0.211883544921875,-0.417449951171875,Closing,0.0,0.0,0.0,0.0,0.0,0.0,0.0,0.0,
0.6305689999999595,0.0,0.0,3154.0,0.0,7.5,0.0,0.0,0.0,3.815917578,0.0,-0.0012207029999999897,-2953.0,0.0,-15.0,-0.0,0.0,0.0,1.8920896500000002,0.0,0.0,2941.0,0.125,15.0,0.0,0.0,0.0,4.941405744,0.0,0.0,-3030.0,0.0,-45.0,-0.0,0.0,0.0,2.911376655,0.0,0.0,0.8100000023841858,0.25,-176.24000549316406,-1.220703125E-4,0.01885986328125,1.01861572265625,28.18000030517578,0.0,4.0,-0.2111968994140625,-0.417449951171875,Closing,0.0,0.0,0.0,0.0,0.0,0.0,0.0,0.0,
0.6927119999999996,0.0,0.0,3154.0,0.125,0.0,0.0,0.0,0.0,3.814696875,0.0,0.0012207029999999897,-2965.0,0.0,-60.0,-0.0,0.0,0.0,1.8920896500000002,0.0,0.0,2941.0,0.125,0.0,0.0,0.0,0.0,4.942626447,0.0,0.0,-3033.0,0.0,-15.0,-0.0,0.0,0.0,2.911376655,0.0,-0.0012207029999999897,0.8100000023841858,0.2800000011920929,-176.3000030517578,0.02252197265625,0.0115966796875,1.04681396484375,28.18000030517578,0.0,-17.0,-0.2111968994140625,-0.417449951171875,Closing,0.0,0.0,0.0,0.0,0.0,0.0,0.0,0.0,
0.7532779999999911,0.0,0.0,3154.0,0.125,0.0,0.0,0.0,0.0,3.815917578,0.0,-0.0012207029999999897,-2965.0,0.0,-60.0,-0.0,0.0,0.0,1.8920896500000002,0.0,0.0,2941.0,0.125,0.0,0.0,0.0,0.0,4.941405744,0.0,0.0,-3033.0,0.125,-15.0,-0.0,0.0,0.0,2.9028317340000003,0.0,0.0,0.8100000023841858,0.38999998569488525,-176.24000549316406,0.0185546875,0.0107421875,0.9873046875,28.18000030517578,0.0,-11.0,-0.2114715576171875,-0.417449951171875,Closing,0.0,0.0,0.0,0.0,0.0,0.0,0.0,0.0,
0.8153179999999702,0.0,0.0,3154.0,0.125,0.0,0.0,0.0,0.0,3.814696875,0.0,0.0012207029999999897,-2965.0,0.0,-7.5,-0.0,0.0,0.0,1.8920896500000002,0.0,0.0,2941.0,0.125,0.0,0.0,0.0,0.0,4.941405744,0.0,0.0,-3033.0,0.0,0.0,-0.0,0.0,0.0,2.911376655,0.0,0.0,0.800000011920929,0.38999998569488525,-176.2899932861328,-1.8310546875E-4,0.00555419921875,0.9830322265625,28.18000030517578,0.0,7.0,-0.2114715576171875,-0.417449951171875,Closing,0.0,0.0,0.0,0.0,0.0,0.0,0.0,0.0,
0.8757939999999944,0.0,0.0,3154.0,0.125,0.0,0.0,0.0,0.0,3.814696875,0.0,0.0,-2965.0,0.0,0.0,-0.0,0.0,0.0,1.8920896500000002,0.0,-0.0012207029999995456,2941.0,0.125,0.0,0.0,0.0,0.0,4.941405744,0.0,0.0,-3033.0,0.0,0.0,-0.0,0.0,0.0,2.9040524370000003,0.0,0.0,0.800000011920929,0.3700000047683716,-176.25999450683594,0.007568359375,0.0181884765625,0.99151611328125,28.18000030517578,0.0,-1.0,-0.2114715576171875,-0.417449951171875,Closing,0.0,0.0,0.0,0.0,0.0,0.0,0.0,0.0,
0.9375889999999781,0.0,0.0,3154.0,0.125,0.0,0.0,0.0,0.0,3.813476172,0.0,0.0,-2965.0,0.0,0.0,-0.0,0.0,0.0,1.8920896500000002,0.0,0.0012207029999995456,2941.0,0.125,0.0,0.0,0.0,0.0,4.942626447,0.0,0.0,-3034.0,0.0,-7.5,-0.0,0.0,0.0,2.911376655,0.0,-0.0012207029999999897,0.8100000023841858,0.3700000047683716,-176.25999450683594,0.017822265625,0.0128173828125,1.01025390625,28.190000534057617,0.0,-11.0,-0.2114715576171875,-0.417449951171875,Closing,0.0,0.0,0.0,0.0,0.0,0.0,0.0,0.0,
1.0026130000000122,0.0,0.0,3154.0,0.125,0.0,0.0,0.0,0.0,3.815917578,0.0,0.0,-2965.0,0.0,0.0,-0.0,0.0,0.0,1.887206838,0.0,0.0,2941.0,0.125,0.0,0.0,0.0,0.0,4.942626447,0.0,0.0,-3034.0,0.0,0.0,-0.0,0.0,0.0,2.911376655,0.0,0.0,0.800000011920929,0.38999998569488525,-176.25999450683594,0.0047607421875,0.0169677734375,0.99578857421875,28.190000534057617,0.0,1.0,-0.2114715576171875,-0.417449951171875,Closing,0.0,0.0,0.0,0.0,0.0,0.0,0.0,0.0,
1.065024999999965,0.0,0.0,3154.0,0.125,0.0,0.0,0.0,0.0,3.814696875,0.0,-0.0012207029999999897,-2965.0,0.0,0.0,-0.0,0.0,0.0,1.8920896500000002,0.0,0.0,2941.0,0.125,0.0,0.0,0.0,0.0,4.942626447,0.0,0.0,-3034.0,0.125,0.0,-0.0,0.0,0.0,2.8955075160000003,0.0,0.0,0.8100000023841858,0.38999998569488525,-176.25999450683594,0.008544921875,0.0123291015625,0.99072265625,28.190000534057617,0.0,-1.0,-0.2114715576171875,-0.417449951171875,Closing,0.0,0.0,0.0,0.0,0.0,0.0,0.0,0.0,
1.126880999999994,0.0,0.0,3154.0,0.125,0.0,0.0,0.0,0.0,3.814696875,0.0,0.0,-2965.0,0.0,0.0,-0.0,0.0,0.0,1.8920896500000002,0.0,-0.0012207029999995456,2941.0,0.125,0.0,0.0,0.0,0.0,4.941405744,0.0,0.0,-3034.0,0.125,-7.5,-0.0,0.0,0.0,2.910155952,0.0,0.0,0.8100000023841858,0.38999998569488525,-176.25999450683594,0.0093994140625,0.01654052734375,1.0262451171875,28.190000534057617,0.0,-2.0,-0.2114715576171875,-0.417449951171875,Closing,0.0,0.0,0.0,0.0,0.0,0.0,0.0,0.0,
1.1905669999999808,0.0,0.0,3154.0,0.125,0.0,0.0,0.0,0.0,3.814696875,0.0,0.0012207029999999897,-2966.0,0.0,-7.5,-0.0,0.0,0.0,1.8920896500000002,0.0,0.0,2941.0,0.125,0.0,0.0,0.0,0.0,4.941405744,0.0,0.0,-3035.0,0.125,0.0,-0.0,0.0,0.0,2.911376655,0.0,0.0,0.8100000023841858,0.4000000059604645,-176.25999450683594,0.013916015625,0.0108642578125,0.97967529296875,28.190000534057617,0.0,-6.0,-0.2114715576171875,-0.417449951171875,Closing,0.0,0.0,0.0,0.0,0.0,0.0,0.0,0.0,
1.258488000000012,0.0,0.0,3154.0,0.125,0.0,0.0,0.0,0.0,3.815917578,0.0,0.0,-2966.0,0.0,0.0,-0.0,0.0,0.0,1.8920896500000002,0.0,0.0012207029999995456,2941.0,0.125,0.0,0.0,0.0,0.0,4.941405744,0.0,0.0,-3035.0,0.125,0.0,-0.0,0.0,0.0,2.911376655,0.0,0.0,0.800000011920929,0.4000000059604645,-176.27000427246094,0.004150390625,0.01568603515625,1.0030517578125,28.190000534057617,0.0,2.0,-0.2114715576171875,-0.417449951171875,Closing,0.0,0.0,0.0,0.0,0.0,0.0,0.0,0.0,
1.3246290000000154,0.0,0.0,3154.0,0.125,0.0,0.0,0.0,0.0,3.813476172,0.0,-0.0012207029999999897,-2966.0,0.0,0.0,-0.0,0.0,0.0,1.8908689470000002,0.0,0.0,2941.0,0.125,0.0,0.0,0.0,0.0,4.938964338,0.0,0.0,-3035.0,0.125,0.0,-0.0,0.0,0.0,2.9077145460000002,0.0,0.0,0.800000011920929,0.4099999964237213,-176.27000427246094,0.007080078125,0.01214599609375,0.9952392578125,28.190000534057617,0.0,0.0,-0.2114715576171875,-0.417449951171875,Closing,0.0,0.0,0.0,0.0,0.0,0.0,0.0,0.0,
1.3891790000000037,0.0,0.0,3154.0,0.125,0.0,0.0,0.0,0.0,3.814696875,0.0,0.0012207029999999897,-2966.0,0.0,0.0,-0.0,0.0,0.0,1.8920896500000002,0.0,0.0,2941.0,0.125,0.0,0.0,0.0,0.0,4.941405744,0.0,0.0,-3035.0,0.125,0.0,-0.0,0.0,0.0,2.9040524370000003,0.0,0.0,0.800000011920929,0.4099999964237213,-176.27000427246094,0.00701904296875,0.01861572265625,0.99652099609375,28.190000534057617,0.0,0.0,-0.2114715576171875,-0.417449951171875,Closing,0.0,0.0,0.0,0.0,0.0,0.0,0.0,0.0,
1.4496419999999925,0.0,0.0,3154.0,0.125,0.0,0.0,0.0,0.0,3.803710548,0.0,-0.0012207029999999897,-2966.0,0.0,0.0,-0.0,0.0,0.0,1.8920896500000002,0.0,-0.0012207029999995456,2941.0,0.125,0.0,0.0,0.0,0.0,4.942626447,0.0,0.0,-3035.0,0.125,0.0,-0.0,0.0,0.0,2.911376655,0.0,0.0,0.800000011920929,0.41999998688697815,-176.27999877929688,0.00933837890625,0.00909423828125,0.99249267578125,28.15999984741211,0.0,-1.0,-0.2114715576171875,-0.417449951171875,Closing,0.0,0.0,0.0,0.0,0.0,0.0,0.0,0.0,
1.5109489999999641,0.0,0.0,3154.0,0.125,0.0,0.0,0.0,0.0,3.814696875,0.0,0.0012207029999999897,-2966.0,0.0,0.0,-0.0,0.0,0.0,1.8920896500000002,0.0,0.0012207029999995456,2941.0,0.125,0.0,0.0,0.0,0.0,4.941405744,0.0,0.0,-3035.0,0.125,0.0,-0.0,0.0,0.0,2.911376655,0.0,0.0,0.800000011920929,0.4300000071525574,-176.27999877929688,0.0096435546875,0.0113525390625,0.9935302734375,28.15999984741211,0.0,-1.0,-0.2114715576171875,-0.417449951171875,Closing,0.0,0.0,0.0,0.0,0.0,0.0,0.0,0.0,
1.5712149999999674,0.0,0.0,3154.0,0.125,0.0,0.0,0.0,0.0,3.814696875,0.0,0.0,-2966.0,0.0,0.0,-0.0,0.0,0.0,1.8920896500000002,0.0,0.0,2941.0,0.125,0.0,0.0,0.0,0.0,4.940185041,0.0,0.0,-3035.0,0.125,0.0,-0.0,0.0,0.0,2.911376655,0.0,0.0012207029999999897,0.800000011920929,0.4300000071525574,-176.27999877929688,0.00726318359375,0.0125732421875,1.00921630859375,28.15999984741211,0.0,0.0,-0.2114715576171875,-0.417449951171875,Closing,0.0,0.0,0.0,0.0,0.0,0.0,0.0,0.0,
1.6345569999999716,0.0,0.0,3154.0,0.125,0.0,0.0,0.0,0.0,3.8342281230000004,0.0,-0.0012207029999999897,-2966.0,0.0,0.0,-0.0,0.0,0.0,1.8920896500000002,0.0,0.0,2941.0,0.125,0.0,0.0,0.0,0.0,4.942626447,0.0,0.0,-3035.0,0.125,0.0,-0.0,0.0,0.0,2.916259467,0.0,0.0,0.800000011920929,0.4399999976158142,-176.27999877929688,0.0069580078125,0.01495361328125,1.0062255859375,28.15999984741211,0.0,0.0,-0.2114715576171875,-0.417449951171875,Closing,0.0,0.0,0.0,0.0,0.0,0.0,0.0,0.0,
1.6954919999999694,0.0,0.0,3154.0,0.125,0.0,0.0,0.0,0.0,3.814696875,0.0,0.0012207029999999897,-2966.0,0.0,0.0,-0.0,0.0,0.0,1.8920896500000002,0.0,0.0,2941.0,0.125,0.0,0.0,0.0,0.0,4.940185041,0.0,0.0,-3035.0,0.125,0.0,-0.0,0.0,0.0,2.9089352490000002,0.0,0.0,0.800000011920929,0.4399999976158142,-176.27999877929688,0.00872802734375,0.01361083984375,1.001708984375,28.15999984741211,0.0,0.0,-0.2114715576171875,-0.417449951171875,Closing,0.0,0.0,0.0,0.0,0.0,0.0,0.0,0.0,
1.7561549999999697,0.0,0.0,3154.0,0.125,0.0,0.0,0.0,0.0,3.823241796,0.0,-0.0012207029999999897,-2966.0,0.0,0.0,-0.0,0.0,0.0,1.877441214,0.0,0.0012207029999995456,2941.0,0.125,0.0,0.0,0.0,0.0,4.94384715,0.0,0.0,-3035.0,0.125,0.0,-0.0,0.0,0.0,2.911376655,0.0,0.0,0.800000011920929,0.4399999976158142,-176.27999877929688,0.0101318359375,0.0152587890625,1.0145263671875,28.15999984741211,0.0,-2.0,-0.2114715576171875,-0.417449951171875,Closing,0.0,0.0,0.0,0.0,0.0,0.0,0.0,0.0,
1.8159170000000158,0.0,0.0,3154.0,8.625,82.5,1805.669331550598,0.0,0.0,3.817138281,0.051294683498803846,0.0,-2966.0,10.25,-45.0,-1805.669331550598,0.0,0.0,1.8920896500000002,0.05113968344794122,0.0,2941.0,11.75,97.5,1805.669331550598,0.0,0.0,4.927978011,0.05119135013156209,0.0,-3035.0,14.25,-45.0,-1805.669331550598,0.0,0.0,2.911376655,0.05112418344285495,0.0,0.8199999928474426,0.46000000834465027,-176.27999877929688,0.6480712890625,-0.0477294921875,1.061767578125,28.15999984741211,0.0,-633.0,-0.2118988037109375,-0.4173736572265625,Closing,0.0,0.0,0.0,0.0,0.0,0.0,0.0,0.0,
1.8795109999999986,0.0,0.0,3271.0,11.5,637.5,1567.5590586662292,0.0,0.0,3.80859336,0.051294683498803846,0.0,-3101.0,10.875,-630.0,-1567.5590586662292,0.0,0.0,1.8920896500000002,0.05113968344794122,0.0,3012.0,25.0,390.0,1567.5590586662292,0.0,0.0,4.926757308,0.05119135013156209,0.0,-3089.0,35.875,-262.5,-1567.5590586662292,0.0,0.0,2.911376655,0.05112418344285495,0.0,0.8600000143051147,1.9800000190734863,-176.24000549316406,0.64404296875,-0.1129150390625,0.7586669921875,28.15999984741211,0.0,-607.0,-0.2227783203125,-0.4161529541015625,Closing,0.0,0.0,0.0,0.0,0.0,0.0,0.0,0.0,
1.9447849999999745,0.0,0.0,3271.0,3.125,772.5,0.0,0.0,0.0,3.814696875,0.051294683498803846,-0.006103514999999948,-3101.0,3.875,-967.5,0.0,0.0,0.0,1.8920896500000002,0.05113968344794122,0.0,3012.0,7.75,487.5,0.0,0.0,0.0,4.942626447,0.05119135013156209,0.0,-3089.0,11.375,-435.0,0.0,0.0,0.0,2.910155952,0.05112418344285495,0.0,0.8700000047683716,2.7300000190734863,-176.25999450683594,-0.09844970703125,0.07452392578125,0.81427001953125,28.190000534057617,0.0,132.0,-0.2486724853515625,-0.41253662109375,Closing,0.0,0.0,0.0,0.0,0.0,0.0,0.0,0.0,
2.0079830000000074,0.0,0.0,3337.0,0.0,397.5,0.0,0.0,0.0,3.814696875,0.051294683498803846,0.007324217999999938,-3164.0,0.0,-487.5,0.0,0.0,0.0,1.8920896500000002,0.05113968344794122,0.0,3081.0,0.0,390.0,0.0,0.0,0.0,0.017089842,0.05119135013156209,-4.939351564,-3172.0,0.0,-420.0,0.0,0.0,0.0,2.911376655,0.05112418344285495,-0.0012207029999999897,0.8700000047683716,2.390000104904175,-176.24000549316406,-0.16668701171875,-0.08013916015625,0.45672607421875,28.190000534057617,0.0,190.0,-0.266632080078125,-0.4107666015625,Closing,0.0,0.0,0.0,0.0,0.0,0.0,0.0,0.0,
2.0690959999999614,0.0,0.0,3337.0,0.0,487.5,0.0,0.0,0.0,3.814696875,0.051294683498803846,0.0,-3164.0,0.0,-427.5,0.0,0.0,0.0,1.8920896500000002,0.05113968344794122,0.0,3081.0,0.0,420.0,0.0,0.0,0.0,0.020751951,0.05119135013156209,0.03090480100000015,-3172.0,0.0,-607.5,0.0,0.0,0.0,2.911376655,0.05112418344285495,0.0,0.8700000047683716,1.8700000047683716,-176.16000366210938,-0.112060546875,0.0079345703125,0.71990966796875,28.190000534057617,0.0,135.0,-0.2802581787109375,-0.410064697265625,Closing,0.0,0.0,0.0,0.0,0.0,0.0,0.0,0.0,
2.12895199999999,0.0,0.0,3423.0,0.0,585.0,0.0,0.0,0.0,3.814696875,0.051294683498803846,0.0,-3250.0,0.0,-540.0,0.0,0.0,0.0,1.8920896500000002,0.05113968344794122,0.0,3149.0,0.0,427.5,0.0,0.0,0.0,0.020751951,0.05119135013156209,0.0024414059999999793,-3235.0,0.0,-420.0,0.0,0.0,0.0,2.910155952,0.05112418344285495,0.0,0.8999999761581421,1.5,-176.02000427246094,-0.11181640625,0.0067138671875,0.955810546875,28.190000534057617,0.0,137.0,-0.291168212890625,-0.4098663330078125,Closing,0.0,0.0,0.0,0.0,0.0,0.0,0.0,0.0,
2.191393999999971,0.0,0.0,3423.0,0.0,412.5,0.0,0.0,0.0,3.814696875,0.051294683498803846,0.0,-3250.0,0.0,-367.5,0.0,0.0,0.0,1.8920896500000002,0.05113968344794122,0.0,3149.0,0.0,375.0,0.0,0.0,0.0,0.021972654,0.05119135013156209,0.0,-3235.0,0.0,-337.5,0.0,0.0,0.0,2.911376655,0.05112418344285495,0.0,0.8600000143051147,1.090000033378601,-176.0500030517578,-0.06439208984375,-0.0045166015625,0.94842529296875,28.190000534057617,0.0,83.0,-0.301788330078125,-0.40936279296875,Closing,0.0,0.0,0.0,0.0,0.0,0.0,0.0,0.0,
2.2527149999999674,0.0,0.0,3464.0,0.0,247.5,0.0,0.0,0.0,3.814696875,0.051294683498803846,-0.0012207029999999897,-3298.0,0.0,-300.0,0.0,0.0,0.0,1.8920896500000002,0.05113968344794122,0.0,3193.0,0.0,285.0,0.0,0.0,0.0,0.021972654,0.05119135013156209,0.0,-3288.0,0.0,-322.5,0.0,0.0,0.0,2.911376655,0.05112418344285495,0.0,0.8500000238418579,0.7099999785423279,-175.89999389648438,-0.0946044921875,-0.02508544921875,0.91748046875,28.190000534057617,0.0,108.0,-0.3072509765625,-0.4095916748046875,Closing,0.0,0.0,0.0,0.0,0.0,0.0,0.0,0.0,
2.3134049999999697,0.0,0.0,3464.0,0.0,225.0,0.0,0.0,0.0,3.814696875,0.051294683498803846,0.0,-3298.0,0.0,-255.0,0.0,0.0,0.0,1.8920896500000002,0.05113968344794122,0.0,3193.0,0.0,202.5,0.0,0.0,0.0,0.020751951,0.05119135013156209,0.0,-3288.0,0.0,-240.0,0.0,0.0,0.0,2.912597358,0.05112418344285495,0.0,0.8199999928474426,0.5,-175.8800048828125,-0.08233642578125,-0.0164794921875,0.9708251953125,28.190000534057617,0.0,92.0,-0.310394287109375,-0.409698486328125,Closing,0.0,0.0,0.0,0.0,0.0,0.0,0.0,0.0,
2.376113000000012,0.0,0.0,3487.0,0.0,127.5,0.0,0.0,0.0,3.813476172,0.051294683498803846,0.0,-3324.0,0.0,-157.5,0.0,0.0,0.0,1.8920896500000002,0.05113968344794122,0.0,3219.0,0.0,157.5,0.0,0.0,0.0,0.021972654,0.05119135013156209,0.0,-3315.0,0.0,-157.5,0.0,0.0,0.0,2.911376655,0.05112418344285495,0.0,0.8399999737739563,0.1599999964237213,-175.91000366210938,-0.099853515625,0.03118896484375,1.09747314453125,28.190000534057617,0.0,101.0,-0.3112640380859375,-0.40985107421875,Closing,0.0,0.0,0.0,0.0,0.0,0.0,0.0,0.0,
2.451142999999982,0.0,0.0,3487.0,0.0,97.5,0.0,0.0,0.0,3.814696875,0.051294683498803846,0.0012207029999999897,-3324.0,0.0,-82.5,0.0,0.0,0.0,1.8920896500000002,0.05113968344794122,0.0,3219.0,0.0,67.5,0.0,0.0,0.0,0.020751951,0.05119135013156209,0.0,-3315.0,0.0,-82.5,0.0,0.0,0.0,2.910155952,0.05112418344285495,0.0,0.8199999928474426,-0.09000000357627869,-175.83999633789062,-0.079345703125,0.01983642578125,1.04302978515625,28.190000534057617,0.0,77.0,-0.3094482421875,-0.4099578857421875,Closing,0.0,0.0,0.0,0.0,0.0,0.0,0.0,0.0,
2.5146549999999697,0.0,0.0,3491.0,0.0,15.0,0.0,0.0,0.0,3.814696875,0.051294683498803846,0.0,-3329.0,0.0,-22.5,0.0,0.0,0.0,1.8920896500000002,0.05113968344794122,0.0,3222.0,0.0,7.5,0.0,0.0,0.0,0.021972654,0.05119135013156209,0.0,-3320.0,0.0,-22.5,0.0,0.0,0.0,2.911376655,0.05112418344285495,0.0,0.8100000023841858,-0.11999999731779099,-175.88999938964844,0.00885009765625,0.01617431640625,0.998046875,28.190000534057617,0.0,-11.0,-0.3072509765625,-0.4099578857421875,Closing,0.0,0.0,0.0,0.0,0.0,0.0,0.0,0.0,
2.582640000000014,0.0,0.0,3491.0,0.0,0.0,0.0,0.0,0.0,3.814696875,0.051294683498803846,0.0,-3329.0,0.0,0.0,0.0,0.0,0.0,1.8920896500000002,0.05113968344794122,0.0,3222.0,0.0,0.0,0.0,0.0,0.0,0.020751951,0.05119135013156209,0.0,-3320.0,0.0,0.0,0.0,0.0,0.0,2.911376655,0.05112418344285495,0.0,0.8199999928474426,-0.05000000074505806,-175.92999267578125,0.0352783203125,0.01385498046875,1.07861328125,28.190000534057617,0.0,-36.0,-0.3076934814453125,-0.4099578857421875,Closing,0.0,0.0,0.0,0.0,0.0,0.0,0.0,0.0,
2.6492849999999746,0.0,0.0,3491.0,0.0,0.0,0.0,0.0,0.0,3.814696875,0.051294683498803846,-0.0012207029999999897,-3329.0,0.0,0.0,0.0,0.0,0.0,1.8933103530000002,0.05113968344794122,0.0012207029999995456,3222.0,0.0,0.0,0.0,0.0,0.0,0.021972654,0.05119135013156209,0.0,-3320.0,0.0,0.0,0.0,0.0,0.0,2.910155952,0.05112418344285495,0.0,0.8100000023841858,0.05000000074505806,-175.89999389648438,0.03802490234375,0.014404296875,1.03216552734375,28.190000534057617,0.0,-36.0,-0.3088226318359375,-0.4099578857421875,Closing,0.0,0.0,0.0,0.0,0.0,0.0,0.0,0.0,
2.709935999999987,0.0,0.0,3491.0,0.0,0.0,0.0,0.0,0.0,3.814696875,0.051294683498803846,0.0012207029999999897,-3329.0,0.0,0.0,0.0,0.0,0.0,1.8920896500000002,0.05113968344794122,0.0,3222.0,0.0,0.0,0.0,0.0,0.0,0.020751951,0.05119135013156209,0.0,-3320.0,0.0,0.0,0.0,0.0,0.0,2.911376655,0.05112418344285495,0.0,0.800000011920929,0.11999999731779099,-175.92999267578125,0.00238037109375,0.01226806640625,1.01922607421875,28.190000534057617,0.0,0.0,-0.3101348876953125,-0.4099578857421875,Closing,0.0,0.0,0.0,0.0,0.0,0.0,0.0,0.0,
2.7817459999999845,0.0,0.0,3491.0,0.0,0.0,0.0,0.0,0.0,3.814696875,0.051294683498803846,0.0,-3329.0,0.0,0.0,0.0,0.0,0.0,1.8920896500000002,0.05113968344794122,0.0,3222.0,0.0,0.0,0.0,0.0,0.0,0.020751951,0.05119135013156209,0.0,-3320.0,0.0,0.0,0.0,0.0,0.0,2.910155952,0.05112418344285495,0.0,0.800000011920929,0.10999999940395355,-175.91000366210938,8.544921875E-4,0.015380859375,1.0084228515625,28.190000534057617,0.0,1.0,-0.3101348876953125,-0.4099578857421875,Closing,0.0,0.0,0.0,0.0,0.0,0.0,0.0,0.0,
2.850206000000006,0.0,0.0,3491.0,0.0,0.0,0.0,0.0,0.0,3.814696875,0.051294683498803846,0.0,-3329.0,0.0,0.0,0.0,0.0,0.0,1.8920896500000002,0.05113968344794122,0.0,3222.0,0.0,0.0,0.0,0.0,0.0,0.021972654,0.05119135013156209,0.0,-3320.0,0.0,0.0,0.0,0.0,0.0,2.911376655,0.05112418344285495,0.0,0.7900000214576721,0.10000000149011612,-175.9199981689453,0.00250244140625,0.0107421875,0.99676513671875,28.190000534057617,0.0,0.0,-0.3101348876953125,-0.4099578857421875,Closing,0.0,0.0,0.0,0.0,0.0,0.0,0.0,0.0,
2.9138499999999765,0.0,0.0,3491.0,0.125,0.0,-452.8125,0.0,0.0,3.815917578,0.05625869191487161,0.0,-3329.0,0.25,7.5,452.8125,0.0,0.0,1.8920896500000002,0.05608869183857766,0.0,3222.0,0.125,0.0,-452.8125,0.0,0.0,0.019531248,0.05614535853067565,0.0,-3320.0,0.375,0.0,452.8125,0.0,0.0,2.911376655,0.056071691830948275,0.0,0.800000011920929,0.11999999731779099,-175.91000366210938,-0.0380859375,0.00634765625,0.96954345703125,28.190000534057617,0.0,40.0,-0.31011962890625,-0.4099578857421875,Closing,0.0,0.0,0.0,0.0,0.0,0.0,0.0,0.0,
2.9759689999999828,0.0,0.0,3480.0,2.0,-67.5,-767.8124999999999,0.0,0.0,3.814696875,0.056396505059130804,0.0,-3316.0,2.25,82.5,767.8124999999999,0.0,0.0,1.8920896500000002,0.05622608854505204,0.0,3215.0,2.5,-30.0,-767.8124999999999,0.0,0.0,0.020751951,0.05628289404974496,0.0,-3306.0,5.625,112.5,767.8124999999999,0.0,0.0,2.9052731400000003,0.056209046893644164,0.0,0.8199999928474426,-0.41999998688697815,-176.00999450683594,-0.2357177734375,0.04827880859375,1.40850830078125,28.209999084472656,0.0,222.0,-0.307098388671875,-0.410186767578125,Closing,0.0,0.0,0.0,0.0,0.0,0.0,0.0,0.0,
3.049560999999987,0.0,0.0,3480.0,1.5,-105.0,0.0,0.0,0.0,3.815917578,0.056396505059130804,0.0,-3316.0,1.0,127.5,0.0,0.0,0.0,1.8920896500000002,0.05622608854505204,-0.0012207029999995456,3215.0,1.125,-112.5,0.0,0.0,0.0,0.020751951,0.05628289404974496,0.0,-3306.0,2.5,135.0,0.0,0.0,0.0,2.911376655,0.056209046893644164,-0.003662108999999969,0.800000011920929,-0.6100000143051147,-176.07000732421875,0.01177978515625,-0.10101318359375,1.08331298828125,28.209999084472656,0.0,-15.0,-0.3009185791015625,-0.4106597900390625,Closing,0.0,0.0,0.0,0.0,0.0,0.0,0.0,0.0,
3.113540999999968,0.0,0.0,3470.0,0.0,-37.5,0.0,0.0,0.0,3.814696875,0.056396505059130804,-0.0012207029999999897,-3302.0,0.0,52.5,0.0,0.0,0.0,1.8920896500000002,0.05622608854505204,0.0012207029999995456,3201.0,0.0,-60.0,0.0,0.0,0.0,0.021972654,0.05628289404974496,0.0,-3294.0,0.0,37.5,0.0,0.0,0.0,2.911376655,0.056209046893644164,0.003662108999999969,0.75,-0.33000001311302185,-175.99000549316406,0.1324462890625,0.00994873046875,0.89337158203125,28.209999084472656,0.0,-137.0,-0.295166015625,-0.4106292724609375,Closing,0.0,0.0,0.0,0.0,0.0,0.0,0.0,0.0,
3.1792330000000075,0.0,0.0,3470.0,0.0,-67.5,0.0,0.0,0.0,3.814696875,0.056396505059130804,0.0,-3302.0,0.0,22.5,0.0,0.0,0.0,1.8920896500000002,0.05622608854505204,0.0,3201.0,0.0,-22.5,0.0,0.0,0.0,0.021972654,0.05628289404974496,0.0,-3294.0,0.0,52.5,0.0,0.0,0.0,2.911376655,0.056209046893644164,0.0,0.7799999713897705,-0.019999999552965164,-176.0500030517578,0.14697265625,0.0546875,1.09228515625,28.209999084472656,0.0,-149.0,-0.293426513671875,-0.410552978515625,Closing,0.0,0.0,0.0,0.0,0.0,0.0,0.0,0.0,
3.2510799999999582,0.0,0.0,3452.0,0.0,-112.5,-177.18749999999997,0.0,0.0,3.814696875,0.05432825588649704,0.0,-3288.0,0.0,105.0,177.18749999999997,0.0,0.0,1.8920896500000002,0.054164089118105115,0.0,3193.0,0.0,-60.0,-177.18749999999997,0.0,0.0,0.020751951,0.05421881137423576,0.0,-3280.0,0.0,82.5,177.18749999999997,0.0,0.0,2.911376655,0.05414767244126593,0.0,0.7900000214576721,0.28999999165534973,-176.08999633789062,0.07427978515625,0.0096435546875,1.033203125,28.209999084472656,0.0,-68.0,-0.294036865234375,-0.4103546142578125,Closing,0.0,0.0,0.0,0.0,0.0,0.0,0.0,0.0,
3.315064000000013,0.0,0.0,3450.0,0.0,-22.5,-236.24999999999994,0.0,0.0,3.815917578,0.053914606051970126,0.0,-3286.0,0.0,52.5,236.24999999999994,0.0,0.0,1.8908689470000002,0.053751689232715574,0.0,3191.0,0.0,-7.5,-236.24999999999994,0.0,0.0,0.021972654,0.05380599483913376,0.0,-3271.0,0.125,37.5,236.24999999999994,0.0,0.0,2.910155952,0.053735397550790126,0.0,0.7799999713897705,0.4099999964237213,-176.11000061035156,0.0302734375,0.0084228515625,1.0377197265625,28.209999084472656,0.0,-22.0,-0.2957763671875,-0.4102783203125,Closing,0.0,0.0,0.0,0.0,0.0,0.0,0.0,0.0,
3.387844999999972,0.0,0.0,3450.0,0.25,-90.0,-452.8124999999999,0.0,0.0,3.806151954,0.053638769361703205,0.0,-3286.0,0.625,45.0,452.8124999999999,0.0,0.0,1.8920896500000002,0.05347668605380119,0.0,3191.0,0.875,-15.0,-452.8124999999999,0.0,0.0,0.021972654,0.05353071382310186,0.0,-3271.0,1.25,127.5,452.8124999999999,0.0,0.0,2.9064938430000002,0.05346047772301099,0.0,0.800000011920929,0.3700000047683716,-176.0399932861328,-0.15234375,0.03045654296875,0.9915771484375,28.209999084472656,0.0,157.0,-0.297027587890625,-0.4102325439453125,Closing,0.0,0.0,0.0,0.0,0.0,0.0,0.0,0.0,
3.4536410000000033,0.0,0.0,3429.0,1.0,-150.0,-472.5,0.0,0.0,3.814696875,0.05460409257676397,0.0,-3260.0,1.375,172.5,472.5,0.0,0.0,1.887206838,0.05443909229701951,0.0,3165.0,1.0,-150.0,-472.5,0.0,0.0,0.019531248,0.05449409239026766,0.0,-3250.0,2.375,135.0,472.5,0.0,0.0,2.9064938430000002,0.05442259226904506,0.0,0.7400000095367432,0.03999999910593033,-176.13999938964844,-0.160400390625,-0.05810546875,0.8648681640625,28.18000030517578,0.0,165.0,-0.294677734375,-0.4100341796875,Closing,0.0,0.0,0.0,0.0,0.0,0.0,0.0,0.0,
3.515265000000014,0.0,0.0,3429.0,1.5,-90.0,-472.5,0.0,0.0,3.815917578,0.05308730638291631,0.0,-3260.0,1.5,127.5,472.5,0.0,0.0,1.887206838,0.0529268894619365,0.0,3165.0,1.5,-180.0,-472.5,0.0,0.0,0.020751951,0.05298036176892977,0.0,-3250.0,3.625,97.5,472.5,0.0,0.0,2.9064938430000002,0.052910847769838516,0.0,0.7900000214576721,-0.2800000011920929,-176.14999389648438,-0.1224365234375,0.05303955078125,1.21429443359375,28.18000030517578,0.0,113.0,-0.288726806640625,-0.410430908203125,Closing,0.0,0.0,0.0,0.0,0.0,0.0,0.0,0.0,
3.5802449999999952,0.0,0.0,3400.0,2.0,-165.0,-472.5,0.0,0.0,3.815917578,0.05308730638291631,0.0,-3232.0,2.25,172.5,472.5,0.0,0.0,1.887206838,0.0529268894619365,0.0,3138.0,2.0,-195.0,-472.5,0.0,0.0,0.020751951,0.05298036176892977,0.0,-3220.0,4.25,210.0,472.5,0.0,0.0,2.9028317340000003,0.052910847769838516,0.0,0.7300000190734863,-0.5600000023841858,-176.1699981689453,-0.03570556640625,-0.00872802734375,0.90087890625,28.18000030517578,0.0,28.0,-0.279632568359375,-0.4110107421875,Closing,0.0,0.0,0.0,0.0,0.0,0.0,0.0,0.0,
3.654643999999971,0.0,0.0,3400.0,1.875,-247.5,-472.5,0.0,0.0,3.814696875,0.05281146969264938,0.0,-3232.0,1.875,277.5,472.5,0.0,0.0,1.878661917,0.05265188628302211,0.0,3138.0,1.75,-277.5,-472.5,0.0,0.0,0.021972654,0.05270508075289787,0.0,-3220.0,3.625,292.5,472.5,0.0,0.0,2.9064938430000002,0.05263592794205939,0.0,0.7300000190734863,-0.7400000095367432,-176.22999572753906,-0.03814697265625,-0.025390625,0.88800048828125,28.18000030517578,0.0,28.0,-0.2707061767578125,-0.4109954833984375,Closing,0.0,0.0,0.0,0.0,0.0,0.0,0.0,0.0,
3.7261179999999587,0.0,0.0,3350.0,1.625,-337.5,-472.49999999999994,0.0,0.0,3.813476172,0.051984170023595566,0.0,-3182.0,1.625,345.0,472.49999999999994,0.0,0.0,1.887206838,0.05182708651224303,0.0,3088.0,1.5,-337.5,-472.49999999999994,0.0,0.0,0.019531248,0.051879447682693876,0.0,-3166.0,3.125,360.0,472.49999999999994,0.0,0.0,2.9064938430000002,0.05181137816110778,0.0,0.7900000214576721,-0.8999999761581421,-176.2899932861328,-0.0430908203125,0.04290771484375,1.13360595703125,28.18000030517578,0.0,23.0,-0.258056640625,-0.410430908203125,Closing,0.0,0.0,0.0,0.0,0.0,0.0,0.0,0.0,
3.7951479999999864,0.0,0.0,3284.0,1.5,-397.5,-472.5,0.0,0.0,3.814696875,0.05088103366427403,0.0,-3112.0,1.375,405.0,472.5,0.0,0.0,1.8908689470000002,0.05072728356254878,0.0,3021.0,1.0,-397.5,-472.5,0.0,0.0,0.021972654,0.0507785335964572,0.0,-3096.0,2.625,412.5,472.5,0.0,0.0,2.9064938430000002,0.050711908552376256,0.0,0.7799999713897705,-0.9800000190734863,-176.41000366210938,0.01055908203125,0.037109375,1.0853271484375,28.18000030517578,0.0,-30.0,-0.2444305419921875,-0.40985107421875,Closing,0.0,0.0,0.0,0.0,0.0,0.0,0.0,0.0,
3.861070000000007,0.0,0.0,3284.0,0.75,-427.5,-315.0,0.0,0.0,3.814696875,0.04950206061468714,0.0,-3112.0,0.75,450.0,315.0,0.0,0.0,1.887206838,0.04935247743394171,0.0,3021.0,0.375,-420.0,-315.0,0.0,0.0,0.020751951,0.049402338494190186,0.0,-3096.0,1.625,450.0,315.0,0.0,0.0,2.9064938430000002,0.049337519115867166,0.0,0.75,-0.949999988079071,-176.47999572753906,-0.0050048828125,0.0587158203125,1.014892578125,28.18000030517578,0.0,-14.0,-0.2332916259765625,-0.4095306396484375,Closing,0.0,0.0,0.0,0.0,0.0,0.0,0.0,0.0,
3.9273459999999614,0.0,0.0,3213.0,0.125,-435.0,-295.3125,0.0,0.0,3.814696875,0.04853694780137334,0.0,-3039.0,0.125,450.0,295.3125,0.0,0.0,1.887206838,0.04839028095668747,0.0,2960.0,0.125,-397.5,-295.3125,0.0,0.0,0.020751951,0.0484391699049161,0.0,-3024.0,0.375,442.5,295.3125,0.0,0.0,2.9077145460000002,0.04837561427221889,0.0,0.7200000286102295,-0.7900000214576721,-176.52999877929688,0.04608154296875,0.0186767578125,0.87921142578125,28.18000030517578,0.0,-58.0,-0.22296142578125,-0.4092559814453125,Closing,0.0,0.0,0.0,0.0,0.0,0.0,0.0,0.0,
3.9931869999999763,0.0,0.0,3213.0,0.125,-427.5,-275.625,0.0,0.0,3.814696875,0.04770964813231874,0.0,-3039.0,0.0,442.5,275.625,0.0,0.0,1.887206838,0.047565481185907615,0.0,2960.0,0.125,-345.0,-275.625,0.0,0.0,0.020751951,0.04761353683471132,0.0,-3024.0,0.25,427.5,275.625,0.0,0.0,2.9064938430000002,0.047551064491266504,0.0,0.7400000095367432,-0.5400000214576721,-176.55999755859375,0.04718017578125,0.0029296875,1.03173828125,28.200000762939453,0.0,-56.0,-0.2122955322265625,-0.4091033935546875,Closing,0.0,0.0,0.0,0.0,0.0,0.0,0.0,0.0,
4.053866999999969,0.0,0.0,3150.0,0.125,-405.0,-275.625,0.0,0.0,3.817138281,0.04743381144205181,0.0,-2976.0,0.0,390.0,275.625,0.0,0.0,1.8884275410000002,0.04729047800699322,0.0,2907.0,0.125,-322.5,-275.625,0.0,0.0,0.021972654,0.04733825581867942,0.0,-2960.0,0.25,390.0,275.625,0.0,0.0,2.9064938430000002,0.04727614466348737,0.0,0.7799999713897705,-0.3400000035762787,-176.57000732421875,0.05767822265625,0.01861572265625,1.082763671875,28.200000762939453,0.0,-64.0,-0.2054901123046875,-0.40924072265625,Closing,0.0,0.0,0.0,0.0,0.0,0.0,0.0,0.0,
4.116538,0.0,0.0,3150.0,0.125,-367.5,-275.62499999999994,0.0,0.0,3.814696875,0.04729578789604487,0.0,-2976.0,0.0,352.5,275.62499999999994,0.0,0.0,1.887206838,0.04715287153455399,0.0,2907.0,0.0,-345.0,-275.62499999999994,0.0,0.0,0.021972654,0.04720051032171761,0.0,-2960.0,0.25,367.5,275.62499999999994,0.0,0.0,2.9052731400000003,0.047138579898404906,0.0,0.7900000214576721,-0.2199999988079071,-176.60000610351562,0.0628662109375,0.0068359375,0.9639892578125,28.200000762939453,0.0,-66.0,-0.2000885009765625,-0.40924072265625,Closing,0.0,0.0,0.0,0.0,0.0,0.0,0.0,0.0,
4.17886599999998,0.0,0.0,3096.0,0.125,-337.5,-275.625,0.0,0.0,3.817138281,0.04688213806151874,0.0,-2922.0,0.0,337.5,275.625,0.0,0.0,1.887206838,0.04674047164916523,0.0,2855.0,0.0,-337.5,-275.625,0.0,0.0,0.020751951,0.0467876937866164,0.0,-2906.0,0.375,345.0,275.625,0.0,0.0,2.9064938430000002,0.04672630500792988,0.0,0.800000011920929,-0.10000000149011612,-176.64999389648438,0.04888916015625,0.02410888671875,1.0531005859375,28.200000762939453,0.0,-51.0,-0.1959381103515625,-0.40924072265625,Closing,0.0,0.0,0.0,0.0,0.0,0.0,0.0,0.0,
4.244632999999973,0.0,0.0,3096.0,0.125,-315.0,-275.625,0.0,0.0,3.825683202,0.04619286193847108,0.0,-2922.0,0.0,337.5,275.625,0.0,0.0,1.887206838,0.04605327835082461,0.0,2855.0,0.125,-285.0,-275.625,0.0,0.0,0.019531248,0.04609980621337343,0.0,-2906.0,0.375,307.5,275.625,0.0,0.0,2.9064938430000002,0.04603931999205996,0.0,0.7900000214576721,0.0,-176.69000244140625,0.059326171875,-0.01129150390625,1.0360107421875,28.200000762939453,0.0,-57.0,-0.191802978515625,-0.40911865234375,Closing,0.0,0.0,0.0,0.0,0.0,0.0,0.0,0.0,
4.305968999999982,0.0,0.0,3050.0,0.125,-285.0,-275.625,0.0,0.0,3.814696875,0.04564118855793723,0.0,-2873.0,0.125,300.0,275.625,0.0,0.0,1.887206838,0.04550327199299583,0.0,2806.0,0.125,-292.5,-275.625,0.0,0.0,0.021972654,0.04554924418130963,0.0,-2859.0,0.5,292.5,275.625,0.0,0.0,2.9064938430000002,0.04548948033650169,0.0,0.7799999713897705,0.09000000357627869,-176.72000122070312,0.0225830078125,0.00439453125,0.9932861328125,28.200000762939453,0.0,-20.0,-0.189300537109375,-0.408843994140625,Closing,0.0,0.0,0.0,0.0,0.0,0.0,0.0,0.0,
4.368396000000008,0.0,0.0,3050.0,0.125,-270.0,-275.625,0.0,0.0,3.813476172,0.0452275387234111,0.0,-2873.0,0.125,270.0,275.625,0.0,0.0,1.8884275410000002,0.04509087210760707,0.0,2806.0,0.0,-300.0,-275.625,0.0,0.0,0.021972654,0.04513642764620841,0.0,-2859.0,0.625,270.0,275.625,0.0,0.0,2.9077145460000002,0.04507720544602667,0.0,0.7699999809265137,0.18000000715255737,-176.75,0.0157470703125,0.04443359375,0.9326171875,28.200000762939453,0.0,-14.0,-0.1873779296875,-0.408782958984375,Closing,0.0,0.0,0.0,0.0,0.0,0.0,0.0,0.0,
4.429653999999981,0.0,0.0,3009.0,0.25,-255.0,-275.62499999999994,0.0,0.0,3.813476172,0.04481388888888419,0.0,-2830.0,0.125,262.5,275.62499999999994,0.0,0.0,1.887206838,0.04467847222221753,0.0,2765.0,0.125,-255.0,-275.62499999999994,0.0,0.0,0.020751951,0.04472361111110642,0.0,-2815.0,0.75,270.0,275.62499999999994,0.0,0.0,2.9064938430000002,0.04466493055555087,0.0,0.7900000214576721,0.1899999976158142,-176.80999755859375,0.02532958984375,0.02081298828125,0.97607421875,28.200000762939453,0.0,-22.0,-0.1858978271484375,-0.4088134765625,Closing,0.0,0.0,0.0,0.0,0.0,0.0,0.0,0.0,
4.494095999999962,0.0,0.0,3009.0,0.5,-240.0,-452.8124999999999,0.0,0.0,3.824462499,0.04384856567382264,0.0,-2830.0,0.625,262.5,452.8124999999999,0.0,0.0,1.8884275410000002,0.043716065978998436,0.0,2765.0,0.625,-292.5,-452.8124999999999,0.0,0.0,0.020751951,0.043760232543939834,0.0,-2815.0,2.0,270.0,452.8124999999999,0.0,0.0,2.9064938430000002,0.04370281600951601,0.0,0.7599999904632568,0.14000000059604645,-176.86000061035156,-0.03515625,0.008056640625,1.06158447265625,28.190000534057617,0.0,38.0,-0.184326171875,-0.4087677001953125,Closing,0.0,0.0,0.0,0.0,0.0,0.0,0.0,0.0,
4.555983000000007,0.0,0.0,2965.0,1.5,-270.0,-472.5,0.0,0.0,3.815917578,0.04329710269503575,0.0,-2786.0,1.25,277.5,472.5,0.0,0.0,1.887206838,0.04316626938713374,0.0,2708.0,1.25,-360.0,-472.5,0.0,0.0,0.021972654,0.043209880489767746,0.0,-2770.0,2.75,292.5,472.5,0.0,0.0,2.9052731400000003,0.043153186056343544,0.0,0.7900000214576721,0.0,-176.89999389648438,-0.1287841796875,0.00921630859375,0.99249267578125,28.190000534057617,0.0,128.0,-0.1819000244140625,-0.408905029296875,Closing,0.0,0.0,0.0,0.0,0.0,0.0,0.0,0.0,
4.6200370000000115,0.0,0.0,2965.0,1.625,-300.0,-492.18750000000006,0.0,0.0,3.813476172,0.04274563971624886,0.0,-2786.0,1.5,315.0,492.18750000000006,0.0,0.0,1.887206838,0.04261647279526905,0.0,2708.0,1.5,-337.5,-492.18750000000006,0.0,0.0,0.021972654,0.04265952843559565,0.0,-2770.0,2.875,330.0,492.18750000000006,0.0,0.0,2.9064938430000002,0.04260355610317107,0.0,0.7900000214576721,-0.14000000059604645,-176.9499969482422,-0.05108642578125,-0.04229736328125,0.98797607421875,28.190000534057617,0.0,51.0,-0.1778411865234375,-0.409637451171875,Closing,0.0,0.0,0.0,0.0,0.0,0.0,0.0,0.0,
4.687497999999963,0.0,0.0,2912.0,1.75,-337.5,-492.1875,0.0,0.0,3.813476172,0.042056153191455024,0.0,-2729.0,1.375,360.0,492.1875,0.0,0.0,1.887206838,0.04192906973096512,0.0,2657.0,2.0,-337.5,-492.1875,0.0,0.0,0.019531248,0.04197143088446176,0.0,-2713.0,2.75,382.5,492.1875,0.0,0.0,2.9064938430000002,0.04191636138491613,0.0,0.800000011920929,-0.27000001072883606,-176.99000549316406,-0.1358642578125,0.09320068359375,0.99542236328125,28.190000534057617,0.0,126.0,-0.1724090576171875,-0.410247802734375,Closing,0.0,0.0,0.0,0.0,0.0,0.0,0.0,0.0,
4.750372999999963,0.0,0.0,2912.0,1.625,-405.0,-492.18749999999994,0.0,0.0,3.815917578,0.04150447981092117,0.0,-2658.0,1.0,427.5,492.18749999999994,0.0,0.0,1.887206838,0.04137906337313635,0.0,2589.0,1.75,-405.0,-492.18749999999994,0.0,0.0,0.021972654,0.04142086885239795,0.0,-2640.0,2.375,427.5,492.18749999999994,0.0,0.0,2.9064938430000002,0.04136652172935787,0.0,0.8199999928474426,-0.4399999976158142,-177.05999755859375,-1.220703125E-4,0.00384521484375,1.0213623046875,28.190000534057617,0.0,-7.0,-0.1638336181640625,-0.411468505859375,Closing,0.0,0.0,0.0,0.0,0.0,0.0,0.0,0.0,
4.815329999999958,0.0,0.0,2844.0,1.375,-450.0,-492.18749999999994,0.0,0.0,3.813476172,0.04053936699760815,0.0,-2658.0,0.875,457.5,492.18749999999994,0.0,0.0,1.887206838,0.0404168668958829,0.0,2589.0,1.5,-450.0,-492.18749999999994,0.0,0.0,0.020751951,0.040457700263124646,0.0,-2640.0,1.875,472.5,492.18749999999994,0.0,0.0,2.9064938430000002,0.04040461688571037,0.0,0.8100000023841858,-0.4699999988079071,-177.08999633789062,-0.0245361328125,-4.8828125E-4,0.9886474609375,28.190000534057617,0.0,17.0,-0.16357421875,-0.41253662109375,Closing,0.0,0.0,0.0,0.0,0.0,0.0,0.0,0.0,
4.879879000000015,0.0,0.0,2765.0,1.0,-480.0,-492.18750000000006,0.0,0.0,3.814696875,0.04012571716308124,0.0,-2579.0,0.75,480.0,492.18750000000006,0.0,0.0,1.887206838,0.04000446701049336,0.0,2511.0,0.875,-480.0,-492.18750000000006,0.0,0.0,0.020751951,0.04004488372802265,0.0,-2560.0,1.625,495.0,492.18750000000006,0.0,0.0,2.918700873,0.03999234199523457,0.0,0.8299999833106995,-0.4300000071525574,-177.14999389648438,-0.02911376953125,-0.04351806640625,0.97216796875,28.190000534057617,0.0,24.0,-0.163604736328125,-0.412750244140625,Closing,0.0,0.0,0.0,0.0,0.0,0.0,0.0,0.0,
4.948940999999992,0.0,0.0,2765.0,0.875,-495.0,-492.18750000000006,0.0,0.0,3.813476172,0.03929841749402742,0.0,-2579.0,0.625,502.5,492.18750000000006,0.0,0.0,1.8957517590000001,0.03917966723971428,0.0,2511.0,0.875,-495.0,-492.18750000000006,0.0,0.0,0.020751951,0.03921925065781866,0.0,-2560.0,1.375,510.0,492.18750000000006,0.0,0.0,2.9064938430000002,0.039167792214282966,0.0,0.8100000023841858,-0.3700000047683716,-177.19000244140625,-6.103515625E-5,0.0406494140625,0.96014404296875,28.190000534057617,0.0,-7.0,-0.1636505126953125,-0.412841796875,Closing,0.0,0.0,0.0,0.0,0.0,0.0,0.0,0.0,
5.010257999999973,0.0,0.0,2684.0,0.75,-502.5,-492.18750000000006,0.0,0.0,3.813476172,0.03874674411349357,0.0,-2495.0,0.375,517.5,492.18750000000006,0.0,0.0,1.887206838,0.0386296608818855,0.0,2431.0,0.875,-487.5,-492.18750000000006,0.0,0.0,0.020751951,0.03866868862575486,0.0,-2477.0,1.125,517.5,492.18750000000006,0.0,0.0,2.9064938430000002,0.038617952558724696,0.0,0.8500000238418579,-0.3799999952316284,-177.25,-0.00628662109375,0.08941650390625,1.08544921875,28.18000030517578,0.0,-4.0,-0.1638031005859375,-0.412933349609375,Closing,0.0,0.0,0.0,0.0,0.0,0.0,0.0,0.0,
5.073744000000006,0.0,0.0,2684.0,0.75,-502.5,-492.18749999999994,0.0,0.0,3.813476172,0.037919444444439745,0.0,-2495.0,0.25,532.5,492.18749999999994,0.0,0.0,1.887206838,0.03780486111110642,0.0,2431.0,0.875,-495.0,-492.18749999999994,0.0,0.0,0.021972654,0.03784305555555086,0.0,-2477.0,1.0,525.0,492.18749999999994,0.0,0.0,2.8967282190000003,0.03779340277777309,0.0,0.8199999928474426,-0.3199999928474426,-177.27999877929688,-0.0205078125,-0.03436279296875,0.9105224609375,28.18000030517578,0.0,17.0,-0.164093017578125,-0.41302490234375,Closing,0.0,0.0,0.0,0.0,0.0,0.0,0.0,0.0,
5.137599999999977,0.0,0.0,2602.0,0.75,-502.5,-492.1875,0.0,0.0,3.814696875,0.03750579460991284,0.0,-2412.0,0.25,517.5,492.1875,0.0,0.0,1.8737791050000001,0.03739246122571688,0.0,2350.0,0.875,-502.5,-492.1875,0.0,0.0,0.020751951,0.03743023902044887,0.0,-2394.0,1.0,510.0,492.1875,0.0,0.0,2.9064938430000002,0.037381127887297284,0.0,0.8799999952316284,-0.23999999463558197,-177.30999755859375,-0.00390625,-0.03265380859375,1.0294189453125,28.18000030517578,0.0,1.0,-0.1643524169921875,-0.412933349609375,Closing,0.0,0.0,0.0,0.0,0.0,0.0,0.0,0.0,
5.205717000000004,0.0,0.0,2602.0,0.75,-502.5,-492.1875,0.0,0.0,3.814696875,0.037092144775385145,0.0,-2412.0,0.375,502.5,492.1875,0.0,0.0,1.887206838,0.03698006134032656,0.0,2350.0,0.625,-502.5,-492.1875,0.0,0.0,0.020751951,0.037017422485346084,0.0,-2394.0,1.0,510.0,492.1875,0.0,0.0,2.9064938430000002,0.036968852996820706,0.0,0.8600000143051147,-0.23999999463558197,-177.32000732421875,0.0068359375,-0.0343017578125,1.0914306640625,28.18000030517578,0.0,-9.0,-0.1647491455078125,-0.41290283203125,Closing,0.0,0.0,0.0,0.0,0.0,0.0,0.0,0.0,
5.267218999999983,0.0,0.0,2525.0,0.0,-480.0,0.0,0.0,0.0,3.814696875,0.037092144775385145,0.0012207029999999897,-2333.0,0.0,495.0,0.0,0.0,0.0,1.887206838,0.03698006134032656,0.0,2272.0,0.0,-480.0,0.0,0.0,0.0,0.020751951,0.037017422485346084,0.0,-2313.0,0.5,502.5,0.0,0.0,0.0,2.9064938430000002,0.036968852996820706,0.0,0.8500000238418579,-0.1899999976158142,-177.38999938964844,0.0838623046875,-0.00830078125,0.99127197265625,28.18000030517578,0.0,-86.0,-0.1650238037109375,-0.4126739501953125,Closing,0.0,0.0,0.0,0.0,0.0,0.0,0.0,0.0,
5.327434999999998,0.0,0.0,2525.0,0.0,-330.0,0.0,0.0,0.0,3.814696875,0.037092144775385145,0.0,-2333.0,0.0,360.0,0.0,0.0,0.0,1.887206838,0.03698006134032656,0.0,2272.0,0.0,-307.5,0.0,0.0,0.0,0.020751951,0.037017422485346084,0.0,-2313.0,0.0,352.5,0.0,0.0,0.0,2.9064938430000002,0.036968852996820706,0.0012207029999999897,0.8899999856948853,0.10000000149011612,-177.44000244140625,0.32861328125,-0.138916015625,1.01019287109375,28.18000030517578,0.0,-319.0,-0.166748046875,-0.412506103515625,Closing,0.0,0.0,0.0,0.0,0.0,0.0,0.0,0.0,
5.393907999999996,0.0,0.0,2480.0,0.0,-270.0,0.0,0.0,0.0,3.814696875,0.037092144775385145,0.0,-2284.0,0.0,292.5,0.0,0.0,0.0,1.887206838,0.03698006134032656,0.0,2228.0,0.0,-277.5,0.0,0.0,0.0,0.020751951,0.037017422485346084,0.0,-2261.0,0.0,315.0,0.0,0.0,0.0,2.9064938430000002,0.036968852996820706,0.0,0.8500000238418579,0.47999998927116394,-177.52000427246094,0.0595703125,0.0968017578125,1.178466796875,28.18000030517578,0.0,-52.0,-0.1729278564453125,-0.411773681640625,Closing,0.0,0.0,0.0,0.0,0.0,0.0,0.0,0.0,
5.455208999999973,0.0,0.0,2480.0,0.0,-345.0,0.0,0.0,0.0,3.814696875,0.037092144775385145,0.0,-2284.0,0.0,352.5,0.0,0.0,0.0,1.887206838,0.03698006134032656,-0.0012207029999995456,2228.0,0.0,-315.0,0.0,0.0,0.0,0.020751951,0.037017422485346084,0.0,-2261.0,0.0,345.0,0.0,0.0,0.0,2.9064938430000002,0.036968852996820706,-0.0012207029999999897,0.8799999952316284,0.7400000095367432,-177.58999633789062,0.16741943359375,0.05035400390625,1.26959228515625,28.18000030517578,0.0,-152.0,-0.1797943115234375,-0.41156005859375,Closing,0.0,0.0,0.0,0.0,0.0,0.0,0.0,0.0,
5.514881999999983,0.0,0.0,2437.0,0.0,-240.0,0.0,0.0,0.0,3.814696875,0.037092144775385145,0.0,-2239.0,0.0,247.5,0.0,0.0,0.0,1.887206838,0.03698006134032656,0.0012207029999995456,2188.0,0.0,-240.0,0.0,0.0,0.0,0.020751951,0.037017422485346084,0.0,-2221.0,0.0,217.5,0.0,0.0,0.0,2.9064938430000002,0.036968852996820706,0.0,0.8799999952316284,1.0700000524520874,-177.6199951171875,0.079345703125,0.00433349609375,0.9781494140625,28.170000076293945,0.0,-60.0,-0.191558837890625,-0.4109344482421875,Closing,0.0,0.0,0.0,0.0,0.0,0.0,0.0,0.0,
5.577999000000011,0.0,0.0,2437.0,0.0,-172.5,0.0,0.0,0.0,3.814696875,0.037092144775385145,-0.0012207029999999897,-2239.0,0.0,187.5,0.0,0.0,0.0,1.887206838,0.03698006134032656,0.0,2188.0,0.0,-172.5,0.0,0.0,0.0,0.020751951,0.037017422485346084,0.0,-2221.0,0.0,187.5,0.0,0.0,0.0,2.9064938430000002,0.036968852996820706,0.0,0.8600000143051147,1.2799999713897705,-177.67999267578125,0.11431884765625,-0.01849365234375,0.95880126953125,28.170000076293945,0.0,-91.0,-0.2028350830078125,-0.4108123779296875,Closing,0.0,0.0,0.0,0.0,0.0,0.0,0.0,0.0,
5.648045999999973,0.0,0.0,2417.0,0.0,-105.0,0.0,0.0,0.0,3.814696875,0.037092144775385145,0.0012207029999999897,-2217.0,0.0,112.5,0.0,0.0,0.0,1.887206838,0.03698006134032656,0.0,2169.0,0.0,-97.5,0.0,0.0,0.0,0.020751951,0.037017422485346084,0.0,-2201.0,0.0,82.5,0.0,0.0,0.0,2.9064938430000002,0.036968852996820706,0.0,0.8600000143051147,1.5499999523162842,-177.67999267578125,0.11376953125,0.0230712890625,1.04290771484375,28.170000076293945,0.0,-85.0,-0.21923828125,-0.410797119140625,Closing,0.0,0.0,0.0,0.0,0.0,0.0,0.0,0.0,
5.709994999999996,0.0,0.0,2417.0,0.0,-45.0,0.0,0.0,0.0,3.815917578,0.037092144775385145,0.0,-2217.0,0.0,37.5,0.0,0.0,0.0,1.887206838,0.03698006134032656,0.0,2167.0,0.0,-37.5,0.0,0.0,0.0,0.021972654,0.037017422485346084,0.0,-2198.0,0.0,30.0,0.0,0.0,0.0,2.9077145460000002,0.036968852996820706,0.0,0.8700000047683716,1.6399999856948853,-177.69000244140625,0.01971435546875,0.0020751953125,0.92913818359375,28.170000076293945,0.0,7.0,-0.2303314208984375,-0.410675048828125,Closing,0.0,0.0,0.0,0.0,0.0,0.0,0.0,0.0,
5.773602000000014,0.0,0.0,2414.0,0.0,0.0,0.0,0.0,0.0,3.814696875,0.037092144775385145,0.0,-2215.0,0.0,0.0,0.0,0.0,0.0,1.887206838,0.03698006134032656,0.0,2167.0,0.0,0.0,0.0,0.0,0.0,0.021972654,0.037017422485346084,0.0,-2198.0,0.0,0.0,0.0,0.0,0.0,2.9064938430000002,0.036968852996820706,0.0,0.8700000047683716,1.5800000429153442,-177.63999938964844,-0.02972412109375,0.04498291015625,0.967529296875,28.170000076293945,0.0,55.0,-0.2299957275390625,-0.41064453125,Closing,0.0,0.0,0.0,0.0,0.0,0.0,0.0,0.0,
5.833790999999969,0.0,0.0,2414.0,0.0,0.0,0.0,0.0,0.0,3.815917578,0.037092144775385145,0.0,-2215.0,0.0,0.0,0.0,0.0,0.0,1.887206838,0.03698006134032656,0.0,2167.0,0.0,0.0,0.0,0.0,0.0,0.021972654,0.037017422485346084,0.0,-2198.0,0.0,0.0,0.0,0.0,0.0,2.9064938430000002,0.036968852996820706,0.0,0.8799999952316284,1.4600000381469727,-177.63999938964844,-0.0194091796875,0.01025390625,1.0087890625,28.170000076293945,0.0,45.0,-0.228759765625,-0.4109649658203125,Closing,0.0,0.0,0.0,0.0,0.0,0.0,0.0,0.0,
5.899475999999966,0.0,0.0,2414.0,0.0,0.0,0.0,0.0,0.0,3.814696875,0.037092144775385145,0.0,-2215.0,0.0,0.0,0.0,0.0,0.0,1.887206838,0.03698006134032656,0.0,2167.0,0.0,0.0,0.0,0.0,0.0,0.020751951,0.037017422485346084,0.0,-2198.0,0.0,0.0,0.0,0.0,0.0,2.9064938430000002,0.036968852996820706,0.0,0.8799999952316284,1.350000023841858,-177.63999938964844,0.0013427734375,0.03216552734375,1.02227783203125,28.170000076293945,0.0,22.0,-0.225982666015625,-0.4109649658203125,Closing,0.0,0.0,0.0,0.0,0.0,0.0,0.0,0.0,
5.968093999999983,0.0,0.0,2414.0,0.0,0.0,0.0,0.0,0.0,3.813476172,0.037092144775385145,0.0,-2215.0,0.0,0.0,0.0,0.0,0.0,1.8884275410000002,0.03698006134032656,0.0,2167.0,0.0,0.0,0.0,0.0,0.0,0.019531248,0.037017422485346084,0.0,-2198.0,0.0,0.0,0.0,0.0,0.0,2.9052731400000003,0.036968852996820706,0.0,0.8799999952316284,1.340000033378601,-177.64999389648438,0.02008056640625,0.01019287109375,0.98876953125,28.170000076293945,0.0,3.0,-0.224700927734375,-0.4109649658203125,Closing,0.0,0.0,0.0,0.0,0.0,0.0,0.0,0.0,
6.029492999999959,0.0,0.0,2414.0,0.0,0.0,0.0,0.0,0.0,3.814696875,0.037092144775385145,0.0,-2215.0,0.0,0.0,0.0,0.0,0.0,1.887206838,0.03698006134032656,0.0,2167.0,0.0,0.0,0.0,0.0,0.0,0.020751951,0.037017422485346084,0.0,-2198.0,0.0,0.0,0.0,0.0,0.0,2.9064938430000002,0.036968852996820706,0.0,0.8700000047683716,1.340000033378601,-177.66000366210938,0.01995849609375,0.017822265625,1.00146484375,28.170000076293945,0.0,3.0,-0.224700927734375,-0.4109649658203125,Closing,0.0,0.0,0.0,0.0,0.0,0.0,0.0,0.0,
6.091673999999999,0.0,0.0,2414.0,0.0,0.0,0.0,0.0,0.0,3.814696875,0.037092144775385145,0.0,-2215.0,0.0,0.0,0.0,0.0,0.0,1.887206838,0.03698006134032656,0.0,2167.0,0.0,0.0,0.0,0.0,0.0,0.020751951,0.037017422485346084,0.0,-2198.0,0.0,0.0,0.0,0.0,0.0,2.9064938430000002,0.036968852996820706,0.0,0.8799999952316284,1.2999999523162842,-177.64999389648438,0.0054931640625,0.01727294921875,0.9989013671875,28.170000076293945,0.0,17.0,-0.224578857421875,-0.4109649658203125,Closing,0.0,0.0,0.0,0.0,0.0,0.0,0.0,0.0,
6.151152999999991,0.0,0.0,2414.0,0.0,0.0,0.0,0.0,0.0,3.814696875,0.037092144775385145,0.0,-2215.0,0.0,0.0,0.0,0.0,0.0,1.887206838,0.03698006134032656,0.0,2167.0,0.0,0.0,0.0,0.0,0.0,0.020751951,0.037017422485346084,0.0,-2198.0,0.0,0.0,0.0,0.0,0.0,2.9052731400000003,0.036968852996820706,0.0,0.8700000047683716,1.25,-177.66000366210938,0.00653076171875,0.01824951171875,1.02227783203125,28.170000076293945,0.0,15.0,-0.224395751953125,-0.4109649658203125,Closing,0.0,0.0,0.0,0.0,0.0,0.0,0.0,0.0,
6.211117999999958,0.0,0.0,2414.0,0.0,0.0,0.0,0.0,0.0,3.814696875,0.037092144775385145,0.0,-2215.0,0.0,0.0,0.0,0.0,0.0,1.887206838,0.03698006134032656,0.0,2167.0,0.0,0.0,0.0,0.0,0.0,0.020751951,0.037017422485346084,0.0,-2198.0,0.0,0.0,0.0,0.0,0.0,2.9064938430000002,0.036968852996820706,0.0012207029999999897,0.8799999952316284,1.2200000286102295,-177.66000366210938,0.01806640625,0.02728271484375,1.0020751953125,28.170000076293945,0.0,2.0,-0.224395751953125,-0.4109649658203125,Closing,0.0,0.0,0.0,0.0,0.0,0.0,0.0,0.0,
6.272059999999998,0.0,0.0,2414.0,0.0,0.0,0.0,0.0,0.0,3.815917578,0.037092144775385145,0.0,-2215.0,0.0,0.0,0.0,0.0,0.0,1.8884275410000002,0.03698006134032656,0.0,2167.0,0.0,0.0,0.0,0.0,0.0,0.020751951,0.037017422485346084,0.0,-2198.0,0.0,0.0,0.0,0.0,0.0,2.9064938430000002,0.036968852996820706,0.0,0.8799999952316284,1.2000000476837158,-177.66000366210938,0.00799560546875,0.02301025390625,1.01812744140625,28.170000076293945,0.0,13.0,-0.224395751953125,-0.4109649658203125,Closing,0.0,0.0,0.0,0.0,0.0,0.0,0.0,0.0,
6.332977000000014,0.0,0.0,2414.0,0.0,0.0,0.0,0.0,0.0,3.814696875,0.037092144775385145,0.0,-2215.0,0.0,0.0,0.0,0.0,0.0,1.887206838,0.03698006134032656,0.0,2167.0,0.0,0.0,0.0,0.0,0.0,0.020751951,0.037017422485346084,0.0,-2198.0,0.0,0.0,0.0,0.0,0.0,2.9064938430000002,0.036968852996820706,0.0,0.8700000047683716,1.1699999570846558,-177.66000366210938,0.014404296875,0.0106201171875,1.01983642578125,28.170000076293945,0.0,6.0,-0.224395751953125,-0.4109649658203125,Closing,0.0,0.0,0.0,0.0,0.0,0.0,0.0,0.0,
6.396978999999992,0.0,0.0,2414.0,0.0,0.0,0.0,0.0,0.0,3.815917578,0.037092144775385145,-0.0012207029999999897,-2215.0,0.0,0.0,0.0,0.0,0.0,1.887206838,0.03698006134032656,-0.0012207029999995456,2167.0,0.0,0.0,0.0,0.0,0.0,0.020751951,0.037017422485346084,0.0,-2198.0,0.0,0.0,0.0,0.0,0.0,2.9064938430000002,0.036968852996820706,0.0,0.8799999952316284,1.1299999952316284,-177.66000366210938,0.01446533203125,0.01617431640625,1.03668212890625,28.170000076293945,0.0,6.0,-0.224395751953125,-0.4109649658203125,Closing,0.0,0.0,0.0,0.0,0.0,0.0,0.0,0.0,
6.462440000000003,0.0,0.0,2414.0,0.0,0.0,0.0,0.0,0.0,3.814696875,0.037092144775385145,0.0,-2215.0,0.0,0.0,0.0,0.0,0.0,1.887206838,0.03698006134032656,0.0012207029999995456,2167.0,0.0,0.0,0.0,0.0,0.0,0.020751951,0.037017422485346084,0.0,-2198.0,0.0,0.0,0.0,0.0,0.0,2.9064938430000002,0.036968852996820706,0.0,0.8700000047683716,1.1200000047683716,-177.66000366210938,0.006103515625,0.014892578125,1.01763916015625,28.170000076293945,0.0,13.0,-0.224395751953125,-0.4109649658203125,Closing,0.0,0.0,0.0,0.0,0.0,0.0,0.0,0.0,
6.52585699999996,0.0,0.0,2414.0,0.0,0.0,0.0,0.0,0.0,3.814696875,0.037092144775385145,0.0012207029999999897,-2215.0,0.0,0.0,0.0,0.0,0.0,1.887206838,0.03698006134032656,0.0,2167.0,0.0,0.0,0.0,0.0,0.0,0.020751951,0.037017422485346084,0.0,-2198.0,0.0,0.0,0.0,0.0,0.0,2.9064938430000002,0.036968852996820706,0.0,0.8700000047683716,1.0800000429153442,-177.6699981689453,0.00823974609375,0.01202392578125,1.01544189453125,28.18000030517578,0.0,11.0,-0.224395751953125,-0.4109649658203125,Closing,0.0,0.0,0.0,0.0,0.0,0.0,0.0,0.0,
6.586974999999977,0.0,0.0,2414.0,0.0,0.0,0.0,0.0,0.0,3.814696875,0.037092144775385145,0.0,-2215.0,0.0,0.0,0.0,0.0,0.0,1.887206838,0.03698006134032656,0.0,2167.0,0.0,0.0,0.0,0.0,0.0,0.020751951,0.037017422485346084,0.0,-2198.0,0.0,0.0,0.0,0.0,0.0,2.9064938430000002,0.036968852996820706,0.0,0.8700000047683716,1.059999942779541,-177.6699981689453,0.01141357421875,0.01129150390625,1.00543212890625,28.18000030517578,0.0,7.0,-0.224395751953125,-0.4109649658203125,Closing,0.0,0.0,0.0,0.0,0.0,0.0,0.0,0.0,
6.649708999999974,0.0,0.0,2414.0,0.0,0.0,0.0,0.0,0.0,3.814696875,0.037092144775385145,0.0,-2215.0,0.0,0.0,0.0,0.0,0.0,1.887206838,0.03698006134032656,0.0,2167.0,0.0,0.0,0.0,0.0,0.0,0.021972654,0.037017422485346084,0.0,-2198.0,0.0,0.0,0.0,0.0,0.0,2.9064938430000002,0.036968852996820706,0.0,0.8700000047683716,1.0399999618530273,-177.6699981689453,0.00274658203125,0.01141357421875,1.02850341796875,28.18000030517578,0.0,16.0,-0.224395751953125,-0.4109649658203125,Closing,0.0,0.0,0.0,0.0,0.0,0.0,0.0,0.0,
6.710555999999983,0.0,0.0,2414.0,0.0,0.0,0.0,0.0,0.0,3.814696875,0.037092144775385145,0.0,-2215.0,0.0,0.0,0.0,0.0,0.0,1.887206838,0.03698006134032656,0.0,2167.0,0.0,0.0,0.0,0.0,0.0,0.020751951,0.037017422485346084,0.0,-2198.0,0.0,0.0,0.0,0.0,0.0,2.9052731400000003,0.036968852996820706,0.0,0.8700000047683716,1.0199999809265137,-177.6699981689453,0.0185546875,0.0111083984375,0.96527099609375,28.18000030517578,0.0,-1.0,-0.224334716796875,-0.4109649658203125,Closing,0.0,0.0,0.0,0.0,0.0,0.0,0.0,0.0,
6.772004000000015,0.0,0.0,2414.0,0.0,0.0,0.0,0.0,0.0,3.815917578,0.037092144775385145,-0.0012207029999999897,-2215.0,0.0,0.0,0.0,0.0,0.0,1.887206838,0.03698006134032656,0.0,2167.0,0.0,0.0,0.0,0.0,0.0,0.020751951,0.037017422485346084,0.0,-2198.0,0.0,0.0,0.0,0.0,0.0,2.9064938430000002,0.036968852996820706,0.0,0.8700000047683716,1.0,-177.6699981689453,0.01123046875,0.00927734375,1.0050048828125,28.18000030517578,0.0,6.0,-0.2242889404296875,-0.4109649658203125,Closing,0.0,0.0,0.0,0.0,0.0,0.0,0.0,0.0,
6.83124900000001,0.0,0.0,2414.0,0.0,0.0,0.0,0.0,0.0,3.813476172,0.037092144775385145,0.0012207029999999897,-2215.0,0.0,0.0,0.0,0.0,0.0,1.887206838,0.03698006134032656,0.0,2167.0,0.0,0.0,0.0,0.0,0.0,0.019531248,0.037017422485346084,0.0,-2198.0,0.0,0.0,0.0,0.0,0.0,2.9064938430000002,0.036968852996820706,0.0012207029999999897,0.8700000047683716,0.9900000095367432,-177.67999267578125,0.012939453125,0.0189208984375,1.02532958984375,28.18000030517578,0.0,4.0,-0.2242889404296875,-0.4109649658203125,Closing,0.0,0.0,0.0,0.0,0.0,0.0,0.0,0.0,
6.893445000000007,0.0,0.0,2414.0,0.0,0.0,0.0,0.0,0.0,3.814696875,0.037092144775385145,0.0,-2215.0,0.0,0.0,0.0,0.0,0.0,1.887206838,0.03698006134032656,0.0,2167.0,0.0,0.0,0.0,0.0,0.0,0.021972654,0.037017422485346084,0.0,-2198.0,0.0,0.0,0.0,0.0,0.0,2.9064938430000002,0.036968852996820706,-0.0012207029999999897,0.8700000047683716,0.9700000286102295,-177.67999267578125,0.00323486328125,0.0213623046875,1.0186767578125,28.18000030517578,0.0,13.0,-0.2242889404296875,-0.4109649658203125,Closing,0.0,0.0,0.0,0.0,0.0,0.0,0.0,0.0,
6.953053000000015,0.0,0.0,2414.0,0.0,0.0,0.0,0.0,0.0,3.815917578,0.037092144775385145,0.0012207029999999897,-2215.0,0.0,0.0,0.0,0.0,0.0,1.887206838,0.03698006134032656,0.0012207029999995456,2167.0,0.0,0.0,0.0,0.0,0.0,0.020751951,0.037017422485346084,0.0,-2198.0,0.0,0.0,0.0,0.0,0.0,2.9064938430000002,0.036968852996820706,0.0,0.8700000047683716,0.9399999976158142,-177.67999267578125,0.01190185546875,0.0125732421875,1.012939453125,28.18000030517578,0.0,4.0,-0.2242889404296875,-0.4109649658203125,Closing,0.0,0.0,0.0,0.0,0.0,0.0,0.0,0.0,
7.013675999999978,0.0,0.0,2414.0,0.0,0.0,0.0,0.0,0.0,3.814696875,0.037092144775385145,-0.0012207029999999897,-2215.0,0.0,0.0,0.0,0.0,0.0,1.887206838,0.03698006134032656,0.0,2167.0,0.0,0.0,0.0,0.0,0.0,0.020751951,0.037017422485346084,0.0,-2198.0,0.0,0.0,0.0,0.0,0.0,2.9064938430000002,0.036968852996820706,0.0,0.8700000047683716,0.9200000166893005,-177.67999267578125,0.008544921875,0.01519775390625,1.02264404296875,28.229999542236328,0.0,8.0,-0.2242889404296875,-0.4109649658203125,Closing,0.0,0.0,0.0,0.0,0.0,0.0,0.0,0.0,
7.081826000000001,0.0,0.0,2414.0,0.0,0.0,0.0,0.0,0.0,3.813476172,0.037092144775385145,0.0,-2215.0,0.0,0.0,0.0,0.0,0.0,1.887206838,0.03698006134032656,-0.0012207029999995456,2167.0,0.0,0.0,0.0,0.0,0.0,0.019531248,0.037017422485346084,0.0,-2198.0,0.0,0.0,0.0,0.0,0.0,2.9064938430000002,0.036968852996820706,0.0,0.8700000047683716,0.9100000262260437,-177.67999267578125,0.0089111328125,0.01422119140625,1.00048828125,28.229999542236328,0.0,7.0,-0.2242889404296875,-0.4109649658203125,Closing,0.0,0.0,0.0,0.0,0.0,0.0,0.0,0.0,
7.149027000000002,0.0,0.0,2414.0,0.0,0.0,0.0,0.0,0.0,3.814696875,0.037092144775385145,0.0,-2215.0,0.0,0.0,0.0,0.0,0.0,1.887206838,0.03698006134032656,0.0,2167.0,0.0,0.0,0.0,0.0,0.0,0.020751951,0.037017422485346084,0.0,-2198.0,0.0,0.0,0.0,0.0,0.0,2.9064938430000002,0.036968852996820706,0.0,0.8700000047683716,0.8799999952316284,-177.67999267578125,0.0128173828125,0.0147705078125,1.010986328125,28.229999542236328,0.0,2.0,-0.2242889404296875,-0.4109649658203125,Closing,0.0,0.0,0.0,0.0,0.0,0.0,0.0,0.0,
7.210820999999997,0.0,0.0,2414.0,0.0,0.0,0.0,0.0,0.0,3.815917578,0.037092144775385145,0.0,-2215.0,0.0,0.0,0.0,0.0,0.0,1.887206838,0.03698006134032656,0.0,2167.0,0.0,0.0,0.0,0.0,0.0,0.020751951,0.037017422485346084,0.0,-2198.0,0.0,0.0,0.0,0.0,0.0,2.9064938430000002,0.036968852996820706,0.0,0.8700000047683716,0.8700000047683716,-177.67999267578125,0.01214599609375,0.01812744140625,1.016357421875,28.229999542236328,0.0,3.0,-0.2242889404296875,-0.4109649658203125,Closing,0.0,0.0,0.0,0.0,0.0,0.0,0.0,0.0,
7.270757999999972,0.0,0.0,2414.0,0.0,0.0,0.0,0.0,0.0,3.814696875,0.037092144775385145,0.0,-2215.0,0.0,0.0,0.0,0.0,0.0,1.884765432,0.03698006134032656,0.0,2167.0,0.0,0.0,0.0,0.0,0.0,0.020751951,0.037017422485346084,0.0,-2198.0,0.0,0.0,0.0,0.0,0.0,2.9052731400000003,0.036968852996820706,0.0012207029999999897,0.8700000047683716,0.8700000047683716,-177.69000244140625,0.010009765625,0.01983642578125,1.00799560546875,28.229999542236328,0.0,5.0,-0.2242889404296875,-0.4109649658203125,Closing,0.0,0.0,0.0,0.0,0.0,0.0,0.0,0.0,
7.330920999999973,0.0,0.0,2414.0,0.0,0.0,0.0,0.0,0.0,3.815917578,0.037092144775385145,0.0,-2215.0,0.0,0.0,0.0,0.0,0.0,1.8884275410000002,0.03698006134032656,0.0,2167.0,0.0,0.0,0.0,0.0,0.0,0.020751951,0.037017422485346084,0.0,-2198.0,0.0,0.0,0.0,0.0,0.0,2.9064938430000002,0.036968852996820706,-0.0012207029999999897,0.8700000047683716,0.8500000238418579,-177.69000244140625,0.00689697265625,0.01947021484375,1.02362060546875,28.229999542236328,0.0,8.0,-0.2242889404296875,-0.4109649658203125,Closing,0.0,0.0,0.0,0.0,0.0,0.0,0.0,0.0,
