Time,ClimberA1,ClimberA2,FRpos,FRCurrent,FRspeed,FRsetpoint,FRApos,FRACurrent,FREncpos,FREncSetpoint,FREncSpeed,FLpos,FLCurrent,FLspeed,FLsetpoint,FLApos,FLACurrent,FLEncpos,FLEncSetpoint,FLEncSpeed,BRpos,BRCurrent,BRspeed,BRsetpoint,BRApos,BRACurrent,BREncpos,BREncSetpoint,BREncSpeed,BLpos,BLCurrent,BLspeed,BLsetpoint,BLApos,BLACurrent,BLEncpos,BLEncSetpoint,BLEncSpeed,navx_Pitch,navx_Roll,navx_Yaw,navx_XAcc,navx_YAcc,navx_ZAcc,navx_Temp,navx_Bar,navx_Alt,navx_XDis,navx_YDis,GearPlacerState,ShootOutputV,ShootOutputCurrent,ShootEncPos,ShootEncVelocity,ShootSpeed,ShootSetpoint,CarouselSetpoint,CarouselCurrent,
0.1409790000000503,0.0,0.0,2.0,0.0,0.0,0.0,0.0,0.0,3.8439937470000003,0.0,0.0,0.0,0.0,0.0,-0.0,0.0,0.0,1.8688962930000002,0.0,0.0,0.0,0.0,0.0,0.0,0.0,0.0,4.884032703,0.0,0.0,0.0,0.0,0.0,-0.0,0.0,0.0,2.857665723,0.0,0.0,1.0499999523162842,0.7400000095367432,-18.260000228881836,0.0150146484375,0.0211181640625,1.0126953125,33.63999938964844,0.0,1.0,-0.1971893310546875,-0.77655029296875,Closing,0.0,0.0,-783.0,0.0,0.0,0.0,0.0,0.0,
0.18614299999992362,0.0,0.0,2.0,0.0,0.0,0.0,0.0,0.0,3.8439937470000003,0.0,0.0,0.0,0.0,0.0,-0.0,0.0,0.0,1.8676755900000002,0.0,0.0,0.0,0.0,0.0,0.0,0.0,0.0,4.884032703,0.0,0.0,0.0,0.0,0.0,-0.0,0.0,0.0,2.857665723,0.0,0.0,1.0399999618530273,0.7400000095367432,-18.260000228881836,0.01007080078125,0.01605224609375,1.00933837890625,33.63999938964844,0.0,-2.0,-0.1971893310546875,-0.77655029296875,Closing,0.0,0.0,-783.0,0.0,0.0,0.0,0.0,0.0,
0.22409700000006705,0.0,0.0,2.0,0.0,0.0,0.0,0.0,0.0,3.8439937470000003,0.0,-0.0012207029999999897,0.0,0.0,0.0,-0.0,0.0,0.0,1.8688962930000002,0.0,0.0,0.0,0.0,0.0,0.0,0.0,0.0,4.884032703,0.0,0.0,0.0,0.0,0.0,-0.0,0.0,0.0,2.857665723,0.0,0.0,1.0399999618530273,0.7400000095367432,-18.260000228881836,0.011962890625,0.0194091796875,0.99725341796875,33.63999938964844,0.0,-1.0,-0.1971893310546875,-0.77655029296875,Closing,0.0,0.0,-783.0,0.0,0.0,0.0,0.0,0.0,
0.26558799999998883,0.0,0.0,2.0,0.0,0.0,0.0,0.0,0.0,3.8452144500000003,0.0,0.0,0.0,0.0,0.0,-0.0,0.0,0.0,1.8664548870000002,0.0,0.0,0.0,0.0,0.0,0.0,0.0,0.0,4.884032703,0.0,0.0,0.0,0.0,0.0,-0.0,0.0,0.0,2.857665723,0.0,0.0,1.0399999618530273,0.7400000095367432,-18.260000228881836,0.01312255859375,0.016845703125,1.00897216796875,33.63999938964844,0.0,0.0,-0.1971893310546875,-0.77655029296875,Closing,0.0,0.0,-783.0,0.0,0.0,0.0,0.0,0.0,
0.30757099999999626,0.0,0.0,2.0,0.0,0.0,0.0,0.0,0.0,3.8439937470000003,0.0,0.0,0.0,0.0,0.0,-0.0,0.0,0.0,1.8688962930000002,0.0,0.0,0.0,0.0,0.0,0.0,0.0,0.0,4.881591297,0.0,0.0,0.0,0.0,0.0,-0.0,0.0,0.0,2.857665723,0.0,0.0,1.0399999618530273,0.7400000095367432,-18.260000228881836,0.0140380859375,0.0194091796875,1.0098876953125,33.63999938964844,0.0,0.0,-0.1971893310546875,-0.77655029296875,Closing,0.0,0.0,-783.0,0.0,0.0,0.0,0.0,0.0,
0.3490600000000559,0.0,0.0,2.0,0.0,0.0,0.0,0.0,0.0,3.8439937470000003,0.0,0.0,0.0,0.0,0.0,-0.0,0.0,0.0,1.8688962930000002,0.0,0.0,0.0,0.0,0.0,0.0,0.0,0.0,4.882812,0.0,0.0,0.0,0.0,0.0,-0.0,0.0,0.0,2.857665723,0.0,0.0,1.0399999618530273,0.7400000095367432,-18.260000228881836,0.01416015625,0.02069091796875,0.99261474609375,33.63999938964844,0.0,0.0,-0.1971893310546875,-0.77655029296875,Closing,0.0,0.0,-783.0,0.0,0.0,0.0,0.0,0.0,
0.38798300000000746,0.0,0.0,2.0,0.0,0.0,0.0,0.0,0.0,3.8464351530000003,0.0,0.0,0.0,0.0,0.0,-0.0,0.0,0.0,1.8676755900000002,0.0,0.0,0.0,0.0,0.0,0.0,0.0,0.0,4.882812,0.0,0.0,0.0,0.0,0.0,-0.0,0.0,0.0,2.857665723,0.0,-0.0012207030000004337,1.0399999618530273,0.7400000095367432,-18.260000228881836,0.0115966796875,0.01751708984375,1.0023193359375,33.63999938964844,0.0,-1.0,-0.1971893310546875,-0.77655029296875,Closing,0.0,0.0,-783.0,0.0,0.0,0.0,0.0,0.0,
0.42540500000002796,0.0,0.0,2.0,0.0,0.0,0.0,0.0,0.0,3.8439937470000003,0.0,0.0,0.0,0.0,0.0,-0.0,0.0,0.0,1.8676755900000002,0.0,0.0,0.0,0.0,0.0,0.0,0.0,0.0,4.882812,0.0,0.0,0.0,0.0,0.0,-0.0,0.0,0.0,2.857665723,0.0,0.0,1.0399999618530273,0.7400000095367432,-18.270000457763672,0.0120849609375,0.01715087890625,1.006591796875,33.63999938964844,0.0,0.0,-0.1971893310546875,-0.77655029296875,Closing,0.0,0.0,-783.0,0.0,0.0,0.0,0.0,0.0,
0.4662269999999553,0.0,0.0,2.0,0.0,0.0,0.0,0.0,0.0,3.8439937470000003,0.0,0.0,0.0,0.0,0.0,-0.0,0.0,0.0,1.8688962930000002,0.0,0.0,0.0,0.0,0.0,0.0,0.0,0.0,4.882812,0.0,0.0,0.0,0.0,0.0,-0.0,0.0,0.0,2.857665723,0.0,0.0012207030000004337,1.0399999618530273,0.7400000095367432,-18.260000228881836,0.01007080078125,0.0189208984375,1.0001220703125,33.63999938964844,0.0,-2.0,-0.1971893310546875,-0.77655029296875,Closing,0.0,0.0,-783.0,0.0,0.0,0.0,0.0,0.0,
0.5045900000000838,0.0,0.0,2.0,0.0,0.0,0.0,0.0,0.0,3.8439937470000003,0.0,0.0,0.0,0.0,0.0,-0.0,0.0,0.0,1.8688962930000002,0.0,0.0,0.0,0.0,0.0,0.0,0.0,0.0,4.884032703,0.0,0.0,0.0,0.0,0.0,-0.0,0.0,0.0,2.858886426,0.0,0.0012207030000004337,1.0399999618530273,0.7400000095367432,-18.260000228881836,0.015380859375,0.01983642578125,0.99871826171875,33.63999938964844,0.0,1.0,-0.1971893310546875,-0.77655029296875,Closing,0.0,0.0,-783.0,0.0,0.0,0.0,0.0,0.0,
0.54875,0.0,0.0,2.0,0.0,0.0,0.0,0.0,0.0,3.8439937470000003,0.0,0.0,0.0,0.0,0.0,-0.0,0.0,0.0,1.8688962930000002,0.0,0.0,0.0,0.0,0.0,0.0,0.0,0.0,4.882812,0.0,0.0,0.0,0.0,0.0,-0.0,0.0,0.0,2.857665723,0.0,0.0,1.0399999618530273,0.7400000095367432,-18.260000228881836,0.01300048828125,0.01983642578125,1.0032958984375,33.63999938964844,0.0,0.0,-0.1971893310546875,-0.77655029296875,Closing,0.0,0.0,-783.0,0.0,0.0,0.0,0.0,0.0,
0.5885119999998715,0.0,0.0,2.0,0.0,0.0,0.0,0.0,0.0,3.8439937470000003,0.0,0.0,0.0,0.0,0.0,-0.0,0.0,0.0,1.8676755900000002,0.0,0.0,0.0,0.0,0.0,0.0,0.0,0.0,4.882812,0.0,0.0,0.0,0.0,0.0,-0.0,0.0,0.0,2.857665723,0.0,-0.0012207030000004337,1.0399999618530273,0.7400000095367432,-18.260000228881836,0.01397705078125,0.01947021484375,1.003662109375,33.63999938964844,0.0,0.0,-0.1971893310546875,-0.77655029296875,Closing,0.0,0.0,-783.0,0.0,0.0,0.0,0.0,0.0,
0.6258789999999571,0.0,0.0,2.0,0.0,0.0,0.0,0.0,0.0,3.8439937470000003,0.0,0.0,0.0,0.0,0.0,-0.0,0.0,0.0,1.8688962930000002,0.0,0.0,0.0,0.0,0.0,0.0,0.0,0.0,4.881591297,0.0,0.0,0.0,0.0,0.0,-0.0,0.0,0.0,2.857665723,0.0,0.0012207030000004337,1.0399999618530273,0.7400000095367432,-18.260000228881836,0.01129150390625,0.01776123046875,0.99859619140625,33.63999938964844,0.0,-1.0,-0.1971893310546875,-0.77655029296875,Closing,0.0,0.0,-783.0,0.0,0.0,0.0,0.0,0.0,
0.6654769999999552,0.0,0.0,2.0,0.0,0.0,0.0,0.0,0.0,3.8439937470000003,0.0,0.0,0.0,0.0,0.0,-0.0,0.0,0.0,1.8688962930000002,0.0,0.0,0.0,0.0,0.0,0.0,0.0,0.0,4.884032703,0.0,0.0,0.0,0.0,0.0,-0.0,0.0,0.0,2.857665723,0.0,-0.0012207030000004337,1.0399999618530273,0.7400000095367432,-18.260000228881836,0.012451171875,0.0179443359375,1.0009765625,33.63999938964844,0.0,0.0,-0.1971893310546875,-0.77655029296875,Closing,0.0,0.0,-783.0,0.0,0.0,0.0,0.0,0.0,
0.704872999999905,0.0,0.0,2.0,0.0,0.0,0.0,0.0,0.0,3.8439937470000003,0.0,0.0,0.0,0.0,0.0,-0.0,0.0,0.0,1.8688962930000002,0.0,0.0,0.0,0.0,0.0,0.0,0.0,0.0,4.884032703,0.0,0.0,0.0,0.0,0.0,-0.0,0.0,0.0,2.857665723,0.0,-0.0012207030000004337,1.0499999523162842,0.75,-18.260000228881836,0.01373291015625,0.020751953125,1.0078125,33.63999938964844,0.0,0.0,-0.1971893310546875,-0.77655029296875,Closing,0.0,0.0,-783.0,0.0,0.0,0.0,0.0,0.0,
0.7436259999999311,0.0,0.0,2.0,0.0,0.0,0.0,0.0,0.0,3.8439937470000003,0.0,0.0,0.0,0.0,0.0,-0.0,0.0,0.0,1.8688962930000002,0.0,0.0,0.0,0.0,0.0,0.0,0.0,0.0,4.882812,0.0,0.0,0.0,0.0,0.0,-0.0,0.0,0.0,2.857665723,0.0,0.0012207030000004337,1.0499999523162842,0.7699999809265137,-18.260000228881836,0.01055908203125,0.02777099609375,0.99737548828125,33.63999938964844,0.0,-5.0,-0.1971893310546875,-0.77655029296875,Closing,0.0,0.0,-783.0,0.0,0.0,0.0,0.0,0.0,
0.7813159999998752,0.0,0.0,2.0,0.0,0.0,0.0,0.0,0.0,3.8439937470000003,0.0,0.0012207029999999897,0.0,0.0,0.0,-0.0,0.0,0.0,1.8688962930000002,0.0,0.0,0.0,0.0,0.0,0.0,0.0,0.0,4.882812,0.0,0.0,0.0,0.0,0.0,-0.0,0.0,0.0,2.8564450200000002,0.0,0.0,1.0700000524520874,0.7799999713897705,-18.260000228881836,0.00897216796875,0.01641845703125,1.001220703125,33.63999938964844,0.0,-3.0,-0.1971893310546875,-0.77655029296875,Closing,0.0,0.0,-783.0,0.0,0.0,0.0,0.0,0.0,
0.8231319999999832,0.0,0.0,2.0,0.0,0.0,0.0,0.0,0.0,3.8439937470000003,0.0,-0.0012207029999999897,0.0,0.0,0.0,-0.0,0.0,0.0,1.8688962930000002,0.0,0.0,0.0,0.0,0.0,0.0,0.0,0.0,4.884032703,0.0,0.0,0.0,0.0,0.0,-0.0,0.0,0.0,2.857665723,0.0,-0.0012207030000004337,1.0499999523162842,0.7699999809265137,-18.270000457763672,0.0074462890625,0.011474609375,1.0079345703125,33.63999938964844,0.0,-3.0,-0.1971893310546875,-0.77655029296875,Closing,0.0,0.0,-783.0,0.0,0.0,0.0,0.0,0.0,
0.8652039999999106,0.0,0.0,2.0,0.0,0.0,0.0,0.0,0.0,3.8439937470000003,0.0,0.0,0.0,0.0,0.0,-0.0,0.0,0.0,1.8688962930000002,0.0,0.0,0.0,0.0,0.0,0.0,0.0,0.0,4.884032703,0.0,0.0,0.0,0.0,0.0,-0.0,0.0,0.0,2.857665723,0.0,0.0,1.0499999523162842,0.7699999809265137,-18.270000457763672,0.0078125,0.0128173828125,1.00360107421875,33.63999938964844,0.0,-3.0,-0.1971893310546875,-0.77655029296875,Closing,0.0,0.0,-783.0,0.0,0.0,0.0,0.0,0.0,
0.9031639999998733,0.0,0.0,2.0,0.0,0.0,0.0,0.0,0.0,3.8439937470000003,0.0,0.0,0.0,0.0,0.0,-0.0,0.0,0.0,1.8688962930000002,0.0,0.0,0.0,0.0,0.0,0.0,0.0,0.0,4.884032703,0.0,0.0,0.0,0.0,0.0,-0.0,0.0,0.0,2.857665723,0.0,0.0,1.0299999713897705,0.7799999713897705,-18.260000228881836,0.022705078125,0.01446533203125,1.005859375,33.63999938964844,0.0,9.0,-0.1971893310546875,-0.77655029296875,Closing,0.0,0.0,-783.0,0.0,0.0,0.0,0.0,0.0,
0.9414820000000763,0.0,0.0,2.0,0.0,0.0,0.0,0.0,0.0,3.8439937470000003,0.0,0.0,0.0,0.0,0.0,-0.0,0.0,0.0,1.8688962930000002,0.0,0.0,0.0,0.0,0.0,0.0,0.0,0.0,4.884032703,0.0,0.0,0.0,0.0,0.0,-0.0,0.0,0.0,2.858886426,0.0,0.0012207030000004337,1.0299999713897705,0.800000011920929,-18.270000457763672,0.01788330078125,0.0191650390625,0.98822021484375,33.63999938964844,0.0,3.0,-0.1971893310546875,-0.77655029296875,Closing,0.0,0.0,-783.0,0.0,0.0,0.0,0.0,0.0,
0.9745770000000484,0.0,0.0,2.0,0.0,0.0,0.0,0.0,0.0,3.8439937470000003,0.0,0.0,0.0,0.0,0.0,-0.0,0.0,0.0,1.8688962930000002,0.0,0.0,0.0,0.0,0.0,0.0,0.0,0.0,4.882812,0.0,0.0,0.0,0.0,0.0,-0.0,0.0,0.0,2.858886426,0.0,0.0,1.0299999713897705,0.800000011920929,-18.270000457763672,0.02069091796875,0.02203369140625,1.0050048828125,33.63999938964844,0.0,5.0,-0.1971893310546875,-0.77655029296875,Closing,0.0,0.0,-783.0,0.0,0.0,0.0,0.0,0.0,
1.0130879999999889,0.0,0.0,2.0,0.0,0.0,0.0,0.0,0.0,3.8439937470000003,0.0,0.0012207029999999897,0.0,0.0,0.0,-0.0,0.0,0.0,1.8688962930000002,0.0,0.0,0.0,0.0,0.0,0.0,0.0,0.0,4.884032703,0.0,0.0,0.0,0.0,0.0,-0.0,0.0,0.0,2.857665723,0.0,0.0,1.0399999618530273,0.7900000214576721,-18.260000228881836,0.00750732421875,0.025390625,1.01611328125,33.63999938964844,0.0,-8.0,-0.1971893310546875,-0.77655029296875,Closing,0.0,0.0,-783.0,0.0,0.0,0.0,0.0,0.0,
1.0535770000000484,0.0,0.0,2.0,0.0,0.0,0.0,0.0,0.0,3.8439937470000003,0.0,0.0012207029999999897,0.0,0.0,0.0,-0.0,0.0,0.0,1.8688962930000002,0.0,0.0,0.0,0.0,0.0,0.0,0.0,0.0,4.885253406,0.0,0.0,0.0,0.0,0.0,-0.0,0.0,0.0,2.8564450200000002,0.0,0.0,1.0499999523162842,0.7799999713897705,-18.260000228881836,0.00726318359375,0.0206298828125,0.9954833984375,33.65999984741211,0.0,-6.0,-0.1971893310546875,-0.77655029296875,Closing,0.0,0.0,-783.0,0.0,0.0,0.0,0.0,0.0,
1.0923950000000187,0.0,0.0,2.0,0.0,0.0,0.0,0.0,0.0,3.8439937470000003,0.0,0.0,0.0,0.0,0.0,-0.0,0.0,0.0,1.8688962930000002,0.0,0.0,0.0,0.0,0.0,0.0,0.0,0.0,4.884032703,0.0,0.0,0.0,0.0,0.0,-0.0,0.0,0.0,2.857665723,0.0,0.0,1.0499999523162842,0.7699999809265137,-18.260000228881836,0.00732421875,0.01904296875,1.01251220703125,33.65999984741211,0.0,-6.0,-0.1971893310546875,-0.77655029296875,Closing,0.0,0.0,-783.0,0.0,0.0,0.0,0.0,0.0,
1.1296929999999703,0.0,0.0,2.0,0.0,0.0,0.0,0.0,0.0,3.8439937470000003,0.0,0.0,0.0,0.0,0.0,-0.0,0.0,0.0,1.8688962930000002,0.0,0.0,0.0,0.0,0.0,0.0,0.0,0.0,4.884032703,0.0,0.0,0.0,0.0,0.0,-0.0,0.0,0.0,2.858886426,0.0,0.0,1.0499999523162842,0.7699999809265137,-18.260000228881836,0.01458740234375,0.01470947265625,1.00390625,33.65999984741211,0.0,2.0,-0.1971893310546875,-0.77655029296875,Closing,0.0,0.0,-783.0,0.0,0.0,0.0,0.0,0.0,
1.168813000000082,0.0,0.0,2.0,0.0,0.0,0.0,0.0,0.0,3.8452144500000003,0.0,-0.0012207029999999897,0.0,0.0,0.0,-0.0,0.0,0.0,1.8688962930000002,0.0,0.0,0.0,0.0,0.0,0.0,0.0,0.0,4.882812,0.0,0.0,0.0,0.0,0.0,-0.0,0.0,0.0,2.857665723,0.0,0.0,1.0399999618530273,0.7900000214576721,-18.260000228881836,0.01904296875,0.0159912109375,0.99822998046875,33.65999984741211,0.0,5.0,-0.1971893310546875,-0.77655029296875,Closing,0.0,0.0,-783.0,0.0,0.0,0.0,0.0,0.0,
1.2081419999999925,0.0,0.0,2.0,0.0,0.0,0.0,0.0,0.0,3.8427730440000003,0.0,-0.0012207029999999897,0.0,0.0,0.0,-0.0,0.0,0.0,1.8676755900000002,0.0,0.0,0.0,0.0,0.0,0.0,0.0,0.0,4.884032703,0.0,0.0,0.0,0.0,0.0,-0.0,0.0,0.0,2.858886426,0.0,0.0,1.0399999618530273,0.7900000214576721,-18.260000228881836,0.01885986328125,0.01483154296875,0.993896484375,33.65999984741211,0.0,5.0,-0.1971893310546875,-0.77655029296875,Closing,0.0,0.0,-783.0,0.0,0.0,0.0,0.0,0.0,
1.247252000000095,0.0,0.0,2.0,0.0,0.0,0.0,0.0,0.0,3.8439937470000003,0.0,0.0,0.0,0.0,0.0,-0.0,0.0,0.0,1.8688962930000002,0.0,0.0,0.0,0.0,0.0,0.0,0.0,0.0,4.882812,0.0,0.0,0.0,0.0,0.0,-0.0,0.0,0.0,2.857665723,0.0,0.0,1.0399999618530273,0.800000011920929,-18.260000228881836,0.0169677734375,0.018310546875,1.00482177734375,33.65999984741211,0.0,2.0,-0.1971893310546875,-0.77655029296875,Closing,0.0,0.0,-783.0,0.0,0.0,0.0,0.0,0.0,
1.2849490000000223,0.0,0.0,2.0,0.0,0.0,0.0,0.0,0.0,3.8439937470000003,0.0,0.0,0.0,0.0,0.0,-0.0,0.0,0.0,1.8676755900000002,0.0,0.0,0.0,0.0,0.0,0.0,0.0,0.0,4.884032703,0.0,0.0,0.0,0.0,0.0,-0.0,0.0,0.0,2.858886426,0.0,-0.0012207030000004337,1.0399999618530273,0.7900000214576721,-18.260000228881836,0.01007080078125,0.02056884765625,0.99853515625,33.65999984741211,0.0,-4.0,-0.1971893310546875,-0.77655029296875,Closing,0.0,0.0,-783.0,0.0,0.0,0.0,0.0,0.0,
1.3306049999999814,0.0,0.0,2.0,0.0,0.0,0.0,0.0,0.0,3.8427730440000003,0.0,0.0012207029999999897,0.0,0.0,0.0,-0.0,0.0,0.0,1.8688962930000002,0.0,0.0,0.0,0.0,0.0,0.0,0.0,0.0,4.884032703,0.0,0.0,0.0,0.0,0.0,-0.0,0.0,0.0,2.857665723,0.0,0.0012207030000004337,1.0399999618530273,0.7799999713897705,-18.260000228881836,0.00830078125,0.02001953125,1.002685546875,33.65999984741211,0.0,-5.0,-0.1971893310546875,-0.77655029296875,Closing,0.0,0.0,-783.0,0.0,0.0,0.0,0.0,0.0,
1.3712509999999312,0.0,0.0,2.0,0.0,0.0,0.0,0.0,0.0,3.8439937470000003,0.0,-0.0012207029999999897,0.0,0.0,0.0,-0.0,0.0,0.0,1.8688962930000002,0.0,0.0,0.0,0.0,0.0,0.0,0.0,0.0,4.884032703,0.0,0.0,0.0,0.0,0.0,-0.0,0.0,0.0,2.857665723,0.0,0.0,1.0399999618530273,0.7799999713897705,-18.260000228881836,0.0108642578125,0.0198974609375,1.00823974609375,33.65999984741211,0.0,-3.0,-0.1971893310546875,-0.77655029296875,Closing,0.0,0.0,-783.0,0.0,0.0,0.0,0.0,0.0,
1.409658000000054,0.0,0.0,2.0,0.0,0.0,0.0,0.0,0.0,3.8439937470000003,0.0,-0.0012207029999999897,0.0,0.0,0.0,-0.0,0.0,0.0,1.8676755900000002,0.0,0.0,0.0,0.0,0.0,0.0,0.0,0.0,4.882812,0.0,0.0,0.0,0.0,0.0,-0.0,0.0,0.0,2.857665723,0.0,0.0,1.0399999618530273,0.7900000214576721,-18.260000228881836,0.01654052734375,0.0157470703125,1.006103515625,33.65999984741211,0.0,3.0,-0.1971893310546875,-0.77655029296875,Closing,0.0,0.0,-783.0,0.0,0.0,0.0,0.0,0.0,
1.4485470000000205,0.0,0.0,2.0,0.0,0.0,0.0,0.0,0.0,3.8439937470000003,0.0,0.0,0.0,0.0,0.0,-0.0,0.0,0.0,1.8688962930000002,0.0,0.0,0.0,0.0,0.0,0.0,0.0,0.0,4.884032703,0.0,0.0,0.0,0.0,0.0,-0.0,0.0,0.0,2.858886426,0.0,0.0,1.0399999618530273,0.7900000214576721,-18.260000228881836,0.01715087890625,0.0157470703125,1.005615234375,33.65999984741211,0.0,3.0,-0.1971893310546875,-0.77655029296875,Closing,0.0,0.0,-783.0,0.0,0.0,0.0,0.0,0.0,
1.4857579999999144,0.0,0.0,2.0,0.0,0.0,0.0,0.0,0.0,3.8439937470000003,0.0,0.0,0.0,0.0,0.0,-0.0,0.0,0.0,1.8688962930000002,0.0,0.0,0.0,0.0,0.0,0.0,0.0,0.0,4.881591297,0.0,0.0,0.0,0.0,0.0,-0.0,0.0,0.0,2.857665723,0.0,0.0,1.0299999713897705,0.800000011920929,-18.260000228881836,0.01708984375,0.0133056640625,0.978759765625,33.65999984741211,0.0,4.0,-0.1971893310546875,-0.77655029296875,Closing,0.0,0.0,-783.0,0.0,0.0,0.0,0.0,0.0,
1.5248889999999664,0.0,0.0,2.0,0.0,0.0,0.0,0.0,0.0,3.8427730440000003,0.0,0.0,0.0,0.0,0.0,-0.0,0.0,0.0,1.8676755900000002,0.0,0.0,0.0,0.0,0.0,0.0,0.0,0.0,4.882812,0.0,0.0,0.0,0.0,0.0,-0.0,0.0,0.0,2.857665723,0.0,0.0,1.0399999618530273,0.7900000214576721,-18.260000228881836,0.01190185546875,0.01861572265625,1.02117919921875,33.65999984741211,0.0,-2.0,-0.1971893310546875,-0.77655029296875,Closing,0.0,0.0,-783.0,0.0,0.0,0.0,0.0,0.0,
1.5650149999998975,0.0,0.0,2.0,0.0,0.0,0.0,0.0,0.0,3.8439937470000003,0.0,0.0,0.0,0.0,0.0,-0.0,0.0,0.0,1.8676755900000002,0.0,0.0,0.0,0.0,0.0,0.0,0.0,0.0,4.882812,0.0,0.0,0.0,0.0,0.0,-0.0,0.0,0.0,2.857665723,0.0,-0.0012207030000004337,1.0399999618530273,0.7900000214576721,-18.260000228881836,0.00921630859375,0.0186767578125,0.99713134765625,33.650001525878906,0.0,-4.0,-0.1971893310546875,-0.77655029296875,Closing,0.0,0.0,-783.0,0.0,0.0,0.0,0.0,0.0,
1.6052579999999144,0.0,0.0,2.0,0.0,0.0,0.0,0.0,0.0,3.8464351530000003,0.0,0.0,0.0,0.0,0.0,-0.0,0.0,0.0,1.8688962930000002,0.0,0.0,0.0,0.0,0.0,0.0,0.0,0.0,4.884032703,0.0,0.0,0.0,0.0,0.0,-0.0,0.0,0.0,2.857665723,0.0,-0.0012207030000004337,1.0399999618530273,0.7799999713897705,-18.260000228881836,0.0087890625,0.01739501953125,1.0023193359375,33.650001525878906,0.0,-4.0,-0.1971893310546875,-0.77655029296875,Closing,0.0,0.0,-783.0,0.0,0.0,0.0,0.0,0.0,
1.6427949999999254,0.0,0.0,2.0,0.0,0.0,0.0,0.0,0.0,3.8439937470000003,0.0,0.0,0.0,0.0,0.0,-0.0,0.0,0.0,1.8701169960000001,0.0,0.0,0.0,0.0,0.0,0.0,0.0,0.0,4.885253406,0.0,0.0,0.0,0.0,0.0,-0.0,0.0,0.0,2.858886426,0.0,0.0012207030000004337,1.0499999523162842,0.7799999713897705,-18.260000228881836,0.01141357421875,0.021240234375,1.01519775390625,33.650001525878906,0.0,-3.0,-0.1971893310546875,-0.77655029296875,Closing,0.0,0.0,-783.0,0.0,0.0,0.0,0.0,0.0,
1.6813500000000932,0.0,0.0,2.0,0.0,0.0,0.0,0.0,0.0,3.8452144500000003,0.0,0.0,0.0,0.0,0.0,-0.0,0.0,0.0,1.8676755900000002,0.0,0.0,0.0,0.0,0.0,0.0,0.0,0.0,4.882812,0.0,0.0,0.0,0.0,0.0,-0.0,0.0,0.0,2.857665723,0.0,0.0,1.059999942779541,0.7799999713897705,-18.260000228881836,-0.009765625,0.0389404296875,0.97662353515625,33.650001525878906,0.0,-28.0,-0.19720458984375,-0.77655029296875,Closing,0.0,0.0,-783.0,0.0,0.0,0.0,0.0,0.0,
1.7239369999999181,0.0,0.0,2.0,0.0,0.0,0.0,0.0,0.0,3.8439937470000003,0.0,0.0,0.0,0.0,0.0,-0.0,0.0,0.0,1.8688962930000002,0.0,0.0,0.0,0.0,0.0,0.0,0.0,0.0,4.882812,0.0,0.0,0.0,0.0,0.0,-0.0,0.0,0.0,2.857665723,0.0,0.0,0.9599999785423279,0.800000011920929,-18.260000228881836,-0.04656982421875,-0.089111328125,0.93585205078125,33.650001525878906,0.0,-23.0,-0.1976470947265625,-0.7774200439453125,Closing,0.0,0.0,-783.0,0.0,0.0,0.0,0.0,0.0,
1.7645409999999684,0.0,0.0,2.0,0.0,0.0,0.0,0.0,0.0,3.8439937470000003,0.0,0.0,0.0,0.0,0.0,-0.0,0.0,0.0,1.8688962930000002,0.0,0.0,0.0,0.0,0.0,0.0,0.0,0.0,4.882812,0.0,0.0,0.0,0.0,0.0,-0.0,0.0,0.0,2.860107129,0.0,0.0,0.8700000047683716,0.800000011920929,-18.260000228881836,-0.13006591796875,-0.06866455078125,0.93548583984375,33.650001525878906,0.0,-110.0,-0.1991424560546875,-0.780120849609375,Closing,0.0,0.0,-783.0,0.0,0.0,0.0,0.0,0.0,
1.8045290000000969,0.0,0.0,2.0,0.0,0.0,0.0,0.0,0.0,3.8439937470000003,0.0,0.0,0.0,0.0,0.0,-0.0,0.0,0.0,1.8688962930000002,0.0,0.0,0.0,0.0,0.0,0.0,0.0,0.0,4.882812,0.0,0.0,0.0,0.0,0.0,-0.0,0.0,0.0,2.858886426,0.0,0.0,0.800000011920929,0.8100000023841858,-18.260000228881836,-0.16790771484375,-0.1416015625,0.99298095703125,33.650001525878906,0.0,-124.0,-0.199920654296875,-0.7814178466796875,Closing,0.0,0.0,-783.0,0.0,0.0,0.0,0.0,0.0,
1.8417339999999385,0.0,0.0,2.0,0.0,0.0,0.0,0.0,0.0,3.8439937470000003,0.0,0.0,0.0,0.0,0.0,-0.0,0.0,0.0,1.8688962930000002,0.0,0.0,0.0,0.0,0.0,0.0,0.0,0.0,4.882812,0.0,0.0,0.0,0.0,0.0,-0.0,0.0,0.0,2.8564450200000002,0.0,0.0,0.6899999976158142,0.7900000214576721,-18.260000228881836,0.0118408203125,-0.10968017578125,1.00689697265625,33.650001525878906,0.0,36.0,-0.2018280029296875,-0.78594970703125,Closing,0.0,0.0,-783.0,0.0,0.0,0.0,0.0,0.0,
1.8818159999998751,0.0,0.0,2.0,0.0,0.0,0.0,0.0,0.0,3.8439937470000003,0.0,0.0,0.0,0.0,0.0,-0.0,0.0,0.0,1.8688962930000002,0.0,0.0,0.0,0.0,0.0,0.0,0.0,0.0,4.884032703,0.0,0.0,0.0,0.0,0.0,-0.0,0.0,0.0,2.857665723,0.0,0.0,0.7799999713897705,0.8399999737739563,-18.260000228881836,-0.028076171875,0.02325439453125,0.86004638671875,33.650001525878906,0.0,-42.0,-0.2031402587890625,-0.791229248046875,Closing,0.0,0.0,-783.0,0.0,0.0,0.0,0.0,0.0,
1.9250670000000392,0.0,0.0,2.0,0.0,0.0,0.0,0.0,0.0,3.8439937470000003,0.0,0.0,0.0,0.0,0.0,-0.0,0.0,0.0,1.8688962930000002,0.0,0.0,0.0,0.0,0.0,0.0,0.0,0.0,4.884032703,0.0,0.0,0.0,0.0,0.0,-0.0,0.0,0.0,2.857665723,0.0,-0.0012207030000004337,0.8299999833106995,0.800000011920929,-18.260000228881836,-0.004638671875,-0.0511474609375,1.03643798828125,33.650001525878906,0.0,2.0,-0.2036895751953125,-0.791290283203125,Closing,0.0,0.0,-783.0,0.0,0.0,0.0,0.0,0.0,
1.9643670000000857,0.0,0.0,2.0,0.0,0.0,0.0,0.0,0.0,3.8452144500000003,0.0,0.0,0.0,0.0,0.0,-0.0,0.0,0.0,1.8676755900000002,0.0,0.0,0.0,0.0,0.0,0.0,0.0,0.0,4.882812,0.0,0.0,0.0,0.0,0.0,-0.0,0.0,0.0,2.858886426,0.0,0.0012207030000004337,0.6200000047683716,0.8600000143051147,-18.260000228881836,0.0406494140625,-0.02362060546875,0.9984130859375,33.650001525878906,0.0,35.0,-0.2032012939453125,-0.7917327880859375,Closing,0.0,0.0,-783.0,0.0,0.0,0.0,0.0,0.0,
2.0055779999999794,0.0,0.0,2.0,0.0,0.0,0.0,0.0,0.0,3.8439937470000003,0.0,0.0,0.0,0.0,0.0,-0.0,0.0,0.0,1.8688962930000002,0.0,0.0,0.0,0.0,0.0,0.0,0.0,0.0,4.884032703,0.0,0.0,0.0,0.0,0.0,-0.0,0.0,0.0,2.857665723,0.0,0.0012207030000004337,0.8399999737739563,0.7300000190734863,-18.260000228881836,0.10821533203125,0.16986083984375,0.9727783203125,33.650001525878906,0.0,42.0,-0.202972412109375,-0.791778564453125,Closing,0.0,0.0,-783.0,0.0,0.0,0.0,0.0,0.0,
2.046244999999879,0.0,0.0,2.0,0.0,0.0,0.0,0.0,0.0,3.8427730440000003,0.0,0.0,0.0,0.0,0.0,-0.0,0.0,0.0,1.8688962930000002,0.0,0.0,0.0,0.0,0.0,0.0,0.0,0.0,4.884032703,0.0,0.0,0.0,0.0,0.0,-0.0,0.0,0.0,2.857665723,0.0,-0.0012207030000004337,0.8999999761581421,0.7400000095367432,-18.260000228881836,0.08367919921875,0.03662109375,1.04498291015625,33.650001525878906,0.0,60.0,-0.2027130126953125,-0.7913360595703125,Closing,0.0,0.0,-783.0,0.0,0.0,0.0,0.0,0.0,
2.083867000000086,0.0,0.0,2.0,0.0,0.0,0.0,0.0,0.0,3.8439937470000003,0.0,0.0,0.0,0.0,0.0,-0.0,0.0,0.0,1.8688962930000002,0.0,0.0,0.0,0.0,0.0,0.0,0.0,0.0,4.884032703,0.0,0.0,0.0,0.0,0.0,-0.0,0.0,0.0,2.8564450200000002,0.0,0.0,1.1200000047683716,0.7599999904632568,-18.260000228881836,0.0804443359375,0.1685791015625,0.99310302734375,33.689998626708984,0.0,17.0,-0.201751708984375,-0.78955078125,Closing,0.0,0.0,-783.0,0.0,0.0,0.0,0.0,0.0,
2.124335999999894,0.0,0.0,2.0,0.0,0.0,0.0,0.0,0.0,3.8439937470000003,0.0,0.0,0.0,0.0,0.0,-0.0,0.0,0.0,1.8688962930000002,0.0,0.0,0.0,0.0,0.0,0.0,0.0,0.0,4.881591297,0.0,0.0,0.0,0.0,0.0,-0.0,0.0,0.0,2.857665723,0.0,0.0012207030000004337,1.2599999904632568,0.75,-18.260000228881836,0.21856689453125,0.195068359375,1.0625,33.689998626708984,0.0,140.0,-0.2000579833984375,-0.7855682373046875,Closing,0.0,0.0,-783.0,0.0,0.0,0.0,0.0,0.0,
2.1661369999998716,0.0,0.0,2.0,0.0,0.0,0.0,0.0,0.0,3.8427730440000003,0.0,0.0,0.0,0.0,0.0,-0.0,0.0,0.0,1.8688962930000002,0.0,0.0,0.0,0.0,0.0,0.0,0.0,0.0,4.884032703,0.0,0.0,0.0,0.0,0.0,-0.0,0.0,0.0,2.8564450200000002,0.0,0.0,1.440000057220459,0.7699999809265137,-18.260000228881836,0.03338623046875,0.07476806640625,0.93048095703125,33.689998626708984,0.0,3.0,-0.1974945068359375,-0.7799224853515625,Closing,0.0,0.0,-783.0,0.0,0.0,0.0,0.0,0.0,
2.2067360000000336,0.0,0.0,2.0,0.0,0.0,0.0,0.0,0.0,3.8427730440000003,0.0,0.0,0.0,0.0,0.0,-0.0,0.0,0.0,1.8688962930000002,0.0,0.0,0.0,0.0,0.0,0.0,0.0,0.0,4.882812,0.0,0.0,0.0,0.0,0.0,-0.0,0.0,0.0,2.857665723,0.0,0.0,1.6200000047683716,0.75,-18.260000228881836,-0.0709228515625,-0.00811767578125,0.91253662109375,33.689998626708984,0.0,-68.0,-0.19586181640625,-0.7749176025390625,Closing,0.0,0.0,-783.0,0.0,0.0,0.0,0.0,0.0,
2.2461049999999814,0.0,0.0,2.0,0.0,0.0,0.0,0.0,0.0,3.8427730440000003,0.0,0.0,0.0,0.0,0.0,-0.0,0.0,0.0,1.8688962930000002,0.0,0.0,0.0,0.0,0.0,0.0,0.0,0.0,4.882812,0.0,0.0,0.0,0.0,0.0,-0.0,0.0,0.0,2.857665723,0.0,0.0,1.4500000476837158,0.699999988079071,-18.260000228881836,0.05706787109375,-0.06982421875,0.93975830078125,33.689998626708984,0.0,72.0,-0.1938018798828125,-0.7680511474609375,Closing,0.0,0.0,-783.0,0.0,0.0,0.0,0.0,0.0,
2.2854329999999607,0.0,0.0,2.0,0.0,0.0,0.0,0.0,0.0,3.8439937470000003,0.0,0.0,0.0,0.0,0.0,-0.0,0.0,0.0,1.8688962930000002,0.0,0.0,0.0,0.0,0.0,0.0,0.0,0.0,4.882812,0.0,0.0,0.0,0.0,0.0,-0.0,0.0,0.0,2.857665723,0.0,-0.0012207030000004337,1.4500000476837158,0.6100000143051147,-18.260000228881836,-0.1033935546875,0.09375,1.0272216796875,33.689998626708984,0.0,-129.0,-0.1920013427734375,-0.762237548828125,Closing,0.0,0.0,-783.0,0.0,0.0,0.0,0.0,0.0,
2.324931000000099,0.0,0.0,2.0,0.0,0.0,0.0,0.0,0.0,3.8439937470000003,0.0,0.0,0.0,0.0,0.0,-0.0,0.0,0.0,1.8688962930000002,0.0,0.0,0.0,0.0,0.0,0.0,0.0,0.0,4.882812,0.0,0.0,0.0,0.0,0.0,-0.0,0.0,0.0,2.857665723,0.0,0.0,1.2899999618530273,0.6200000047683716,-18.25,0.10247802734375,0.0439453125,1.17352294921875,33.689998626708984,0.0,79.0,-0.1909332275390625,-0.7589111328125,Closing,0.0,0.0,-783.0,0.0,0.0,0.0,0.0,0.0,
2.36580700000003,0.0,0.0,2.0,0.0,0.0,0.0,0.0,0.0,3.8439937470000003,0.0,0.0,0.0,0.0,0.0,-0.0,0.0,0.0,1.8676755900000002,0.0,0.0,0.0,0.0,0.0,0.0,0.0,0.0,4.881591297,0.0,0.0,0.0,0.0,0.0,-0.0,0.0,0.0,2.8564450200000002,0.0,0.0012207030000004337,1.2100000381469727,0.6399999856948853,-18.270000457763672,0.115234375,0.15289306640625,0.9796142578125,33.689998626708984,0.0,57.0,-0.1891937255859375,-0.7543182373046875,Closing,0.0,0.0,-783.0,0.0,0.0,0.0,0.0,0.0,
2.405993000000017,0.0,0.0,2.0,0.0,0.0,0.0,0.0,0.0,3.8439937470000003,0.0,0.0,0.0,0.0,0.0,-0.0,0.0,0.0,1.8688962930000002,0.0,0.0,0.0,0.0,0.0,0.0,0.0,0.0,4.884032703,0.0,0.0,0.0,0.0,0.0,-0.0,0.0,0.0,2.857665723,0.0,0.0012207030000004337,1.2300000190734863,0.6800000071525574,-18.270000457763672,0.03875732421875,0.02392578125,0.96978759765625,33.689998626708984,0.0,24.0,-0.1876220703125,-0.749420166015625,Closing,0.0,0.0,-783.0,0.0,0.0,0.0,0.0,0.0,
2.441712999999989,0.0,0.0,2.0,0.0,0.0,0.0,0.0,0.0,3.8452144500000003,0.0,0.0,0.0,0.0,0.0,-0.0,0.0,0.0,1.8676755900000002,0.0,0.0,0.0,0.0,0.0,0.0,0.0,0.0,4.884032703,0.0,0.0,0.0,0.0,0.0,-0.0,0.0,0.0,2.857665723,0.0,0.0,1.3300000429153442,0.7599999904632568,-18.270000457763672,0.0621337890625,0.1688232421875,0.93792724609375,33.689998626708984,0.0,1.0,-0.1858062744140625,-0.745025634765625,Closing,0.0,0.0,-783.0,0.0,0.0,0.0,0.0,0.0,
2.4855379999999423,0.0,0.0,2.0,0.0,0.0,0.0,0.0,0.0,3.8427730440000003,0.0,0.0,0.0,0.0,0.0,-0.0,0.0,0.0,1.8676755900000002,0.0,0.0,0.0,0.0,0.0,0.0,0.0,0.0,4.882812,0.0,0.0,0.0,0.0,0.0,-0.0,0.0,0.0,2.857665723,0.0,0.0,1.4900000095367432,0.7300000190734863,-18.260000228881836,0.0469970703125,-0.00286865234375,0.98834228515625,33.689998626708984,0.0,41.0,-0.1849517822265625,-0.74163818359375,Closing,0.0,0.0,-783.0,0.0,0.0,0.0,0.0,0.0,
2.525835999999894,0.0,0.0,2.0,0.0,0.0,0.0,0.0,0.0,3.8439937470000003,0.0,0.0,0.0,0.0,0.0,-0.0,0.0,0.0,1.8676755900000002,0.0,0.0,0.0,0.0,0.0,0.0,0.0,0.0,4.882812,0.0,0.0,0.0,0.0,0.0,-0.0,0.0,0.0,2.857665723,0.0,0.0,1.309999942779541,0.6600000262260437,-18.260000228881836,0.25390625,0.20147705078125,1.00872802734375,33.689998626708984,0.0,174.0,-0.1837158203125,-0.736724853515625,Closing,0.0,0.0,-783.0,0.0,0.0,0.0,0.0,0.0,
2.566070000000065,0.0,0.0,2.0,0.0,0.0,0.0,0.0,0.0,3.8439937470000003,0.0,0.0,0.0,0.0,0.0,-0.0,0.0,0.0,1.8688962930000002,0.0,0.0,0.0,0.0,0.0,0.0,0.0,0.0,4.882812,0.0,0.0,0.0,0.0,0.0,-0.0,0.0,0.0,2.8564450200000002,0.0,-0.0012207030000004337,1.340000033378601,0.6600000262260437,-18.270000457763672,-0.0167236328125,-0.01300048828125,1.018798828125,33.689998626708984,0.0,-15.0,-0.182159423828125,-0.732025146484375,Closing,0.0,0.0,-783.0,0.0,0.0,0.0,0.0,0.0,
2.606006999999983,0.0,0.0,2.0,0.0,0.0,0.0,0.0,0.0,3.8439937470000003,0.0,0.0,0.0,0.0,0.0,-0.0,0.0,0.0,1.8701169960000001,0.0,0.0,0.0,0.0,0.0,0.0,0.0,0.0,4.882812,0.0,0.0,0.0,0.0,0.0,-0.0,0.0,0.0,2.8564450200000002,0.0,-0.0012207030000004337,1.2699999809265137,0.6899999976158142,-18.270000457763672,0.0345458984375,-0.14971923828125,0.96881103515625,33.689998626708984,0.0,75.0,-0.1809539794921875,-0.7295379638671875,Closing,0.0,0.0,-783.0,0.0,0.0,0.0,0.0,0.0,
2.6465190000000876,0.0,0.0,2.0,0.0,0.0,0.0,0.0,0.0,3.8427730440000003,0.0,0.0012207029999999897,0.0,0.0,0.0,-0.0,0.0,0.0,1.8688962930000002,0.0,0.0,0.0,0.0,0.0,0.0,0.0,0.0,4.884032703,0.0,0.0,0.0,0.0,0.0,-0.0,0.0,0.0,2.857665723,0.0,0.0012207030000004337,1.309999942779541,0.7400000095367432,-18.260000228881836,0.15460205078125,0.2646484375,0.96337890625,33.689998626708984,0.0,58.0,-0.1786651611328125,-0.7264862060546875,Closing,0.0,0.0,-783.0,0.0,0.0,0.0,0.0,0.0,
2.684966999999946,0.0,0.0,2.0,0.0,0.0,0.0,0.0,0.0,3.8452144500000003,0.0,-0.0012207029999999897,0.0,0.0,0.0,-0.0,0.0,0.0,1.8676755900000002,0.0,0.0,0.0,0.0,0.0,0.0,0.0,0.0,4.884032703,0.0,0.0,0.0,0.0,0.0,-0.0,0.0,0.0,2.857665723,0.0,-0.0012207030000004337,1.4600000381469727,0.7200000286102295,-18.260000228881836,0.0228271484375,-0.17413330078125,0.9989013671875,33.689998626708984,0.0,72.0,-0.176727294921875,-0.722076416015625,Closing,0.0,0.0,-783.0,0.0,0.0,0.0,0.0,0.0,
2.7251359999999405,0.0,0.0,2.0,0.0,0.0,0.0,0.0,0.0,3.8439937470000003,0.0,0.0,0.0,0.0,0.0,-0.0,0.0,0.0,1.8688962930000002,0.0,0.0,0.0,0.0,0.0,0.0,0.0,0.0,4.881591297,0.0,0.0,0.0,0.0,0.0,-0.0,0.0,0.0,2.857665723,0.0,0.0012207030000004337,1.2899999618530273,0.7599999904632568,-18.260000228881836,-0.106201171875,-0.05535888671875,0.9906005859375,33.689998626708984,0.0,-88.0,-0.17431640625,-0.7184295654296875,Closing,0.0,0.0,-783.0,0.0,0.0,0.0,0.0,0.0,
2.7647060000000057,0.0,0.0,2.0,0.0,0.0,0.0,0.0,0.0,3.8439937470000003,0.0,0.0,0.0,0.0,0.0,-0.0,0.0,0.0,1.8676755900000002,0.0,0.0,0.0,0.0,0.0,0.0,0.0,0.0,4.884032703,0.0,0.0,0.0,0.0,0.0,-0.0,0.0,0.0,2.857665723,0.0,0.0,1.2999999523162842,0.7400000095367432,-18.260000228881836,0.00372314453125,0.1207275390625,0.92156982421875,33.689998626708984,0.0,-39.0,-0.173553466796875,-0.7172698974609375,Closing,0.0,0.0,-783.0,0.0,0.0,0.0,0.0,0.0,
2.804119999999879,0.0,0.0,2.0,0.0,0.0,0.0,0.0,0.0,3.8439937470000003,0.0,0.0,0.0,0.0,0.0,-0.0,0.0,0.0,1.8688962930000002,0.0,0.0,0.0,0.0,0.0,0.0,0.0,0.0,4.882812,0.0,0.0,0.0,0.0,0.0,-0.0,0.0,0.0,2.857665723,0.0,0.0,1.309999942779541,0.7300000190734863,-18.260000228881836,0.07489013671875,0.0552978515625,0.97528076171875,33.689998626708984,0.0,48.0,-0.1713409423828125,-0.71319580078125,Closing,0.0,0.0,-783.0,0.0,0.0,0.0,0.0,0.0,
2.8376389999999665,0.0,0.0,2.0,0.0,0.0,0.0,0.0,0.0,3.8439937470000003,0.0,0.0012207029999999897,0.0,0.0,0.0,-0.0,0.0,0.0,1.8688962930000002,0.0,0.0,0.0,0.0,0.0,0.0,0.0,0.0,4.885253406,0.0,0.0,0.0,0.0,0.0,-0.0,0.0,0.0,2.857665723,0.0,0.0,1.2899999618530273,0.7799999713897705,-18.260000228881836,0.0205078125,0.16082763671875,0.91796875,33.689998626708984,0.0,-36.0,-0.1693572998046875,-0.7102203369140625,Closing,0.0,0.0,-783.0,0.0,0.0,0.0,0.0,0.0,
2.8765169999999927,0.0,0.0,2.0,0.0,0.0,0.0,0.0,0.0,3.8439937470000003,0.0,-0.0012207029999999897,0.0,0.0,0.0,-0.0,0.0,0.0,1.8688962930000002,0.0,0.0,0.0,0.0,0.0,0.0,0.0,0.0,4.884032703,0.0,0.0,0.0,0.0,0.0,-0.0,0.0,0.0,2.857665723,0.0,0.0,1.3899999856948853,0.7300000190734863,-18.260000228881836,-0.0382080078125,-0.05633544921875,1.0609130859375,33.689998626708984,0.0,-23.0,-0.1664581298828125,-0.7056427001953125,Closing,0.0,0.0,-783.0,0.0,0.0,0.0,0.0,0.0,
2.917425000000047,0.0,0.0,2.0,0.0,0.0,0.0,0.0,0.0,3.8439937470000003,0.0,0.0012207029999999897,0.0,0.0,0.0,-0.0,0.0,0.0,1.8688962930000002,0.0,0.0,0.0,0.0,0.0,0.0,0.0,0.0,4.882812,0.0,0.0,0.0,0.0,0.0,-0.0,0.0,0.0,2.857665723,0.0,0.0,1.1399999856948853,0.800000011920929,-18.260000228881836,0.0299072265625,0.0780029296875,1.0892333984375,33.689998626708984,0.0,-3.0,-0.1634368896484375,-0.7018280029296875,Closing,0.0,0.0,-783.0,0.0,0.0,0.0,0.0,0.0,
2.957222000000067,0.0,0.0,2.0,0.0,0.0,0.0,0.0,0.0,3.8439937470000003,0.0,0.0012207029999999897,0.0,0.0,0.0,-0.0,0.0,0.0,1.8676755900000002,0.0,0.0,0.0,0.0,0.0,0.0,0.0,0.0,4.884032703,0.0,0.0,0.0,0.0,0.0,-0.0,0.0,0.0,2.8564450200000002,0.0,0.0,1.2899999618530273,0.800000011920929,-18.260000228881836,-0.02783203125,0.17095947265625,0.80694580078125,33.689998626708984,0.0,-85.0,-0.1605682373046875,-0.6975250244140625,Closing,0.0,0.0,-783.0,0.0,0.0,0.0,0.0,0.0,
3.00025,0.0,0.0,2.0,0.0,0.0,0.0,0.0,0.0,3.8439937470000003,0.0,0.0,0.0,0.0,0.0,-0.0,0.0,0.0,1.8676755900000002,0.0,0.0,0.0,0.0,0.0,0.0,0.0,0.0,4.884032703,0.0,0.0,0.0,0.0,0.0,-0.0,0.0,0.0,2.857665723,0.0,0.0,1.2999999523162842,0.800000011920929,-18.25,0.1002197265625,-0.05133056640625,1.068359375,33.689998626708984,0.0,104.0,-0.158782958984375,-0.694580078125,Closing,0.0,0.0,-783.0,0.0,0.0,0.0,0.0,0.0,
3.0342390000000594,0.0,0.0,2.0,0.0,0.0,0.0,0.0,0.0,3.8427730440000003,0.0,0.0,0.0,0.0,0.0,-0.0,0.0,0.0,1.8688962930000002,0.0,0.0,0.0,0.0,0.0,0.0,0.0,0.0,4.882812,0.0,0.0,0.0,0.0,0.0,-0.0,0.0,0.0,2.857665723,0.0,0.0,1.1200000047683716,0.8100000023841858,-18.260000228881836,0.05865478515625,0.07147216796875,0.9461669921875,33.689998626708984,0.0,26.0,-0.1554718017578125,-0.69073486328125,Closing,0.0,0.0,-783.0,0.0,0.0,0.0,0.0,0.0,
3.0747020000000482,0.0,0.0,2.0,0.0,0.0,0.0,0.0,0.0,3.8439937470000003,0.0,-0.0012207029999999897,0.0,0.0,0.0,-0.0,0.0,0.0,1.8676755900000002,0.0,0.0,0.0,0.0,0.0,0.0,0.0,0.0,4.882812,0.0,0.0,0.0,0.0,0.0,-0.0,0.0,0.0,2.8564450200000002,0.0,0.0,1.2400000095367432,0.7799999713897705,-18.260000228881836,0.1373291015625,-0.054931640625,1.10467529296875,33.689998626708984,0.0,140.0,-0.152069091796875,-0.6865386962890625,Closing,0.0,0.0,-783.0,0.0,0.0,0.0,0.0,0.0,
3.119621000000043,0.0,0.0,2.0,0.0,0.0,0.0,0.0,0.0,3.8427730440000003,0.0,0.0,0.0,0.0,0.0,-0.0,0.0,0.0,1.8688962930000002,0.0,0.0,0.0,0.0,0.0,0.0,0.0,0.0,4.882812,0.0,0.0,0.0,0.0,0.0,-0.0,0.0,0.0,2.8564450200000002,0.0,0.0,1.1699999570846558,0.8199999928474426,-18.260000228881836,0.0950927734375,0.0357666015625,0.92236328125,33.689998626708984,0.0,-63.0,-0.1484527587890625,-0.6827850341796875,Closing,0.0,0.0,-783.0,0.0,0.0,0.0,0.0,0.0,
3.159189000000013,0.0,0.0,2.0,0.0,0.0,0.0,0.0,0.0,3.8439937470000003,0.0,0.0,0.0,0.0,0.0,-0.0,0.0,0.0,1.8688962930000002,0.0,0.0,0.0,0.0,0.0,0.0,0.0,0.0,4.884032703,0.0,0.0,0.0,0.0,0.0,-0.0,0.0,0.0,2.857665723,0.0,0.0,1.2000000476837158,0.7799999713897705,-18.260000228881836,0.190185546875,0.06097412109375,0.970458984375,33.689998626708984,0.0,155.0,-0.146148681640625,-0.6802215576171875,Closing,0.0,0.0,-783.0,0.0,0.0,0.0,0.0,0.0,
3.1987009999998843,0.0,0.0,2.0,0.0,0.0,0.0,0.0,0.0,3.8439937470000003,0.0,0.0012207029999999897,0.0,0.0,0.0,-0.0,0.0,0.0,1.8688962930000002,0.0,0.0,0.0,0.0,0.0,0.0,0.0,0.0,4.884032703,0.0,0.0,0.0,0.0,0.0,-0.0,0.0,0.0,2.858886426,0.0,0.0,1.190000057220459,0.800000011920929,-18.260000228881836,0.09521484375,0.091552734375,0.95538330078125,33.689998626708984,0.0,55.0,-0.142120361328125,-0.6787872314453125,Closing,0.0,0.0,-783.0,0.0,0.0,0.0,0.0,0.0,
3.235973999999929,0.0,0.0,2.0,0.0,0.0,0.0,0.0,0.0,3.8427730440000003,0.0,0.0,0.0,0.0,0.0,-0.0,0.0,0.0,1.8676755900000002,0.0,0.0,0.0,0.0,0.0,0.0,0.0,0.0,4.884032703,0.0,0.0,0.0,0.0,0.0,-0.0,0.0,0.0,2.858886426,0.0,-0.0012207030000004337,1.1799999475479126,0.8899999856948853,-18.260000228881836,0.25347900390625,-0.08856201171875,0.90863037109375,33.689998626708984,0.0,260.0,-0.1378326416015625,-0.67828369140625,Closing,0.0,0.0,-783.0,0.0,0.0,0.0,0.0,0.0,
3.2780900000000837,0.0,0.0,2.0,0.0,0.0,0.0,0.0,0.0,3.8452144500000003,0.0,-0.0012207029999999897,0.0,0.0,0.0,-0.0,0.0,0.0,1.8676755900000002,0.0,0.0,0.0,0.0,0.0,0.0,0.0,0.0,4.884032703,0.0,0.0,0.0,0.0,0.0,-0.0,0.0,0.0,2.857665723,0.0,0.0012207030000004337,1.1399999856948853,0.9399999976158142,-18.25,0.1307373046875,0.0263671875,1.111083984375,33.689998626708984,0.0,105.0,-0.13409423828125,-0.6783447265625,Closing,0.0,0.0,-783.0,0.0,0.0,0.0,0.0,0.0,
3.3187749999999068,0.0,0.0,2.0,0.0,0.0,0.0,0.0,0.0,3.8452144500000003,0.0,0.0,0.0,0.0,0.0,-0.0,0.0,0.0,1.8688962930000002,0.0,0.0,0.0,0.0,0.0,0.0,0.0,0.0,4.882812,0.0,0.0,0.0,0.0,0.0,-0.0,0.0,0.0,2.858886426,0.0,0.0,1.149999976158142,0.949999988079071,-18.260000228881836,-0.02349853515625,-0.0496826171875,1.02532958984375,33.689998626708984,0.0,-16.0,-0.12762451171875,-0.678436279296875,Closing,0.0,0.0,-783.0,0.0,0.0,0.0,0.0,0.0,
3.357719000000041,0.0,0.0,2.0,0.0,0.0,0.0,0.0,0.0,3.8439937470000003,0.0,0.0,0.0,0.0,0.0,-0.0,0.0,0.0,1.8688962930000002,0.0,0.0,0.0,0.0,0.0,0.0,0.0,0.0,4.884032703,0.0,0.0,0.0,0.0,0.0,-0.0,0.0,0.0,2.857665723,0.0,0.0,1.1299999952316284,0.9399999976158142,-18.260000228881836,0.04229736328125,0.07281494140625,1.0123291015625,33.689998626708984,0.0,7.0,-0.121185302734375,-0.6785736083984375,Closing,0.0,0.0,-783.0,0.0,0.0,0.0,0.0,0.0,
3.3993179999999703,0.0,0.0,2.0,0.0,0.0,0.0,0.0,0.0,3.8439937470000003,0.0,0.0,0.0,0.0,0.0,-0.0,0.0,0.0,1.8688962930000002,0.0,0.0,0.0,0.0,0.0,0.0,0.0,0.0,4.882812,0.0,0.0,0.0,0.0,0.0,-0.0,0.0,0.0,2.857665723,0.0,0.0,1.1299999952316284,0.9399999976158142,-18.25,-0.0126953125,0.01318359375,0.98028564453125,33.689998626708984,0.0,-25.0,-0.1212005615234375,-0.6784210205078125,Closing,0.0,0.0,-783.0,0.0,0.0,0.0,0.0,0.0,
3.434125,0.0,0.0,2.0,0.0,0.0,0.0,0.0,0.0,3.8439937470000003,0.0,0.0,0.0,0.0,0.0,-0.0,0.0,0.0,1.8676755900000002,0.0,0.0,0.0,0.0,0.0,0.0,0.0,0.0,4.884032703,0.0,0.0,0.0,0.0,0.0,-0.0,0.0,0.0,2.857665723,0.0,0.0,1.1200000047683716,0.9200000166893005,-18.25,0.0364990234375,0.00921630859375,0.97857666015625,33.689998626708984,0.0,22.0,-0.1212921142578125,-0.678314208984375,Closing,0.0,0.0,-783.0,0.0,0.0,0.0,0.0,0.0,
3.4738559999999126,0.0,0.0,2.0,0.0,0.0,0.0,0.0,0.0,3.8439937470000003,0.0,0.0,0.0,0.0,0.0,-0.0,0.0,0.0,1.8676755900000002,0.0,0.0,0.0,0.0,0.0,0.0,0.0,0.0,4.882812,0.0,0.0,0.0,0.0,0.0,-0.0,0.0,0.0,2.857665723,0.0,0.0,1.1299999952316284,0.9100000262260437,-18.260000228881836,0.01947021484375,0.010986328125,1.03912353515625,33.689998626708984,0.0,5.0,-0.121337890625,-0.678314208984375,Closing,0.0,0.0,-783.0,0.0,0.0,0.0,0.0,0.0,
3.5129439999999015,0.0,0.0,2.0,0.0,0.0,0.0,0.0,0.0,3.8427730440000003,0.0,0.0,0.0,0.0,0.0,-0.0,0.0,0.0,1.8688962930000002,0.0,0.0,0.0,0.0,0.0,0.0,0.0,0.0,4.882812,0.0,0.0,0.0,0.0,0.0,-0.0,0.0,0.0,2.858886426,0.0,0.0,1.1200000047683716,0.9100000262260437,-18.270000457763672,0.02215576171875,0.02386474609375,1.00421142578125,33.689998626708984,0.0,4.0,-0.121337890625,-0.678314208984375,Closing,0.0,0.0,-783.0,0.0,0.0,0.0,0.0,0.0,
3.5529129999999425,0.0,0.0,2.0,0.0,0.0,0.0,0.0,0.0,3.8439937470000003,0.0,0.0,0.0,0.0,0.0,-0.0,0.0,0.0,1.8688962930000002,0.0,0.0,0.0,0.0,0.0,0.0,0.0,0.0,4.882812,0.0,0.0,0.0,0.0,0.0,-0.0,0.0,0.0,2.857665723,0.0,0.0,1.1200000047683716,0.9200000166893005,-18.260000228881836,0.00946044921875,0.035400390625,1.01092529296875,33.689998626708984,0.0,-11.0,-0.121337890625,-0.678314208984375,Closing,0.0,0.0,-783.0,0.0,0.0,0.0,0.0,0.0,
3.5932939999999944,0.0,0.0,2.0,0.0,0.0,0.0,0.0,0.0,3.8439937470000003,0.0,0.0,0.0,0.0,0.0,-0.0,0.0,0.0,1.8688962930000002,0.0,0.0,0.0,0.0,0.0,0.0,0.0,0.0,4.884032703,0.0,0.0,0.0,0.0,0.0,-0.0,0.0,0.0,2.857665723,0.0,0.0,1.1100000143051147,0.9300000071525574,-18.260000228881836,0.01812744140625,0.01715087890625,0.99169921875,33.70000076293945,0.0,2.0,-0.1212615966796875,-0.678314208984375,Closing,0.0,0.0,-783.0,0.0,0.0,0.0,0.0,0.0,
3.6335449999999256,0.0,0.0,2.0,0.0,0.0,0.0,0.0,0.0,3.8439937470000003,0.0,0.0,0.0,0.0,0.0,-0.0,0.0,0.0,1.8676755900000002,0.0,0.0,0.0,0.0,0.0,0.0,0.0,0.0,4.882812,0.0,0.0,0.0,0.0,0.0,-0.0,0.0,0.0,2.857665723,0.0,0.0,1.1100000143051147,0.9200000166893005,-18.260000228881836,-0.0028076171875,0.02325439453125,1.0037841796875,33.70000076293945,0.0,-19.0,-0.1212615966796875,-0.678314208984375,Closing,0.0,0.0,-783.0,0.0,0.0,0.0,0.0,0.0,
3.672908000000054,0.0,0.0,2.0,0.0,0.0,0.0,0.0,0.0,3.8452144500000003,0.0,0.0,0.0,0.0,0.0,-0.0,0.0,0.0,1.8688962930000002,0.0,0.0,0.0,0.0,0.0,0.0,0.0,0.0,4.882812,0.0,0.0,0.0,0.0,0.0,-0.0,0.0,0.0,2.857665723,0.0,0.0,1.1100000143051147,0.8899999856948853,-18.260000228881836,0.018310546875,0.016845703125,0.99700927734375,33.70000076293945,0.0,3.0,-0.1212921142578125,-0.678314208984375,Closing,0.0,0.0,-783.0,0.0,0.0,0.0,0.0,0.0,
3.7129490000000223,0.0,0.0,2.0,0.0,0.0,0.0,0.0,0.0,3.8427730440000003,0.0,0.0,0.0,0.0,0.0,-0.0,0.0,0.0,1.8688962930000002,0.0,0.0,0.0,0.0,0.0,0.0,0.0,0.0,4.882812,0.0,0.0,0.0,0.0,0.0,-0.0,0.0,0.0,2.857665723,0.0,0.0,1.1100000143051147,0.8700000047683716,-18.25,0.0037841796875,0.01983642578125,1.00408935546875,33.70000076293945,0.0,-11.0,-0.1213226318359375,-0.678314208984375,Closing,0.0,0.0,-783.0,0.0,0.0,0.0,0.0,0.0,
3.752820000000065,0.0,0.0,2.0,0.0,0.0,0.0,0.0,0.0,3.8439937470000003,0.0,0.0,0.0,0.0,0.0,-0.0,0.0,0.0,1.8676755900000002,0.0,0.0,0.0,0.0,0.0,0.0,0.0,0.0,4.884032703,0.0,0.0,0.0,0.0,0.0,-0.0,0.0,0.0,2.857665723,0.0,0.0,1.1100000143051147,0.8799999952316284,-18.239999771118164,0.0181884765625,0.0194091796875,0.9945068359375,33.70000076293945,0.0,2.0,-0.1213226318359375,-0.678314208984375,Closing,0.0,0.0,-783.0,0.0,0.0,0.0,0.0,0.0,
3.793504999999888,0.0,0.0,2.0,0.0,0.0,0.0,0.0,0.0,3.8439937470000003,0.0,0.0,0.0,0.0,0.0,-0.0,0.0,0.0,1.8676755900000002,0.0,0.0,0.0,0.0,0.0,0.0,0.0,0.0,4.884032703,0.0,0.0,0.0,0.0,0.0,-0.0,0.0,0.0,2.857665723,0.0,0.0,1.1100000143051147,0.8899999856948853,-18.25,0.01812744140625,0.02386474609375,0.97802734375,33.70000076293945,0.0,1.0,-0.1213226318359375,-0.678314208984375,Closing,0.0,0.0,-783.0,0.0,0.0,0.0,0.0,0.0,
3.8317420000000855,0.0,0.0,2.0,0.0,0.0,0.0,0.0,0.0,3.8427730440000003,0.0,0.0,0.0,0.0,0.0,-0.0,0.0,0.0,1.8688962930000002,0.0,0.0,0.0,0.0,0.0,0.0,0.0,0.0,4.884032703,0.0,0.0,0.0,0.0,0.0,-0.0,0.0,0.0,2.857665723,0.0,0.0,1.1100000143051147,0.8799999952316284,-18.260000228881836,0.01593017578125,0.01043701171875,1.0,33.70000076293945,0.0,3.0,-0.1213226318359375,-0.678314208984375,Closing,0.0,0.0,-783.0,0.0,0.0,0.0,0.0,0.0,
3.871590000000084,0.0,0.0,2.0,0.0,0.0,0.0,0.0,0.0,3.8439937470000003,0.0,0.0012207029999999897,0.0,0.0,0.0,-0.0,0.0,0.0,1.8676755900000002,0.0,0.0,0.0,0.0,0.0,0.0,0.0,0.0,4.884032703,0.0,0.0,0.0,0.0,0.0,-0.0,0.0,0.0,2.858886426,0.0,0.0,1.100000023841858,0.8799999952316284,-18.260000228881836,0.01593017578125,0.0185546875,0.99798583984375,33.70000076293945,0.0,0.0,-0.1213226318359375,-0.678314208984375,Closing,0.0,0.0,-783.0,0.0,0.0,0.0,0.0,0.0,
3.911097000000067,0.0,0.0,2.0,0.0,0.0,0.0,0.0,0.0,3.8439937470000003,0.0,0.0012207029999999897,0.0,0.0,0.0,-0.0,0.0,0.0,1.8688962930000002,0.0,0.0,0.0,0.0,0.0,0.0,0.0,0.0,4.884032703,0.0,0.0,0.0,0.0,0.0,-0.0,0.0,0.0,2.857665723,0.0,0.0,1.090000033378601,0.8799999952316284,-18.25,0.00946044921875,0.016357421875,0.9920654296875,33.70000076293945,0.0,-4.0,-0.1213226318359375,-0.678314208984375,Closing,0.0,0.0,-783.0,0.0,0.0,0.0,0.0,0.0,
3.950220999999903,0.0,0.0,2.0,0.0,0.0,0.0,0.0,0.0,3.8427730440000003,0.0,-0.0012207029999999897,0.0,0.0,0.0,-0.0,0.0,0.0,1.8688962930000002,0.0,0.0,0.0,0.0,0.0,0.0,0.0,0.0,4.885253406,0.0,0.0,0.0,0.0,0.0,-0.0,0.0,0.0,2.8564450200000002,0.0,0.0,1.090000033378601,0.8700000047683716,-18.25,0.00677490234375,0.0140380859375,1.000244140625,33.70000076293945,0.0,1.0,-0.1213226318359375,-0.678314208984375,Closing,0.0,0.0,-783.0,0.0,0.0,0.0,0.0,0.0,
3.986149999999907,0.0,0.0,2.0,0.0,0.0,0.0,0.0,0.0,3.8439937470000003,0.0,0.0012207029999999897,0.0,0.0,0.0,-0.0,0.0,0.0,1.8688962930000002,0.0,0.0,0.0,0.0,0.0,0.0,0.0,0.0,4.881591297,0.0,0.0,0.0,0.0,0.0,-0.0,0.0,0.0,2.8564450200000002,0.0,0.0,1.090000033378601,0.8600000143051147,-18.260000228881836,0.017333984375,0.01861572265625,0.99859619140625,33.70000076293945,0.0,2.0,-0.1213226318359375,-0.678314208984375,Closing,0.0,0.0,-783.0,0.0,0.0,0.0,0.0,0.0,
4.025527999999933,0.0,0.0,2.0,0.0,0.0,0.0,0.0,0.0,3.8439937470000003,0.0,-0.0012207029999999897,0.0,0.0,0.0,-0.0,0.0,0.0,1.8688962930000002,0.0,0.0,0.0,0.0,0.0,0.0,0.0,0.0,4.881591297,0.0,0.0,0.0,0.0,0.0,-0.0,0.0,0.0,2.858886426,0.0,0.0,1.090000033378601,0.8600000143051147,-18.260000228881836,0.01385498046875,0.020263671875,0.99755859375,33.70000076293945,0.0,-1.0,-0.1213226318359375,-0.678314208984375,Closing,0.0,0.0,-783.0,0.0,0.0,0.0,0.0,0.0,
4.064976000000025,0.0,0.0,2.0,0.0,0.0,0.0,0.0,0.0,3.8452144500000003,0.0,-0.0012207029999999897,0.0,0.0,0.0,-0.0,0.0,0.0,1.8676755900000002,0.0,0.0,0.0,0.0,0.0,0.0,0.0,0.0,4.882812,0.0,0.0,0.0,0.0,0.0,-0.0,0.0,0.0,2.857665723,0.0,0.0,1.090000033378601,0.8600000143051147,-18.260000228881836,0.01763916015625,0.0223388671875,1.000732421875,33.70000076293945,0.0,1.0,-0.1213226318359375,-0.678314208984375,Closing,0.0,0.0,-783.0,0.0,0.0,0.0,0.0,0.0,
4.104158999999985,0.0,0.0,2.0,0.0,0.0,0.0,0.0,0.0,3.8439937470000003,0.0,0.0,0.0,0.0,0.0,-0.0,0.0,0.0,1.8688962930000002,0.0,0.0,0.0,0.0,0.0,0.0,0.0,0.0,4.882812,0.0,0.0,0.0,0.0,0.0,-0.0,0.0,0.0,2.857665723,0.0,0.0,1.090000033378601,0.8700000047683716,-18.260000228881836,0.01348876953125,0.0159912109375,0.99700927734375,33.720001220703125,0.0,0.0,-0.1213226318359375,-0.678314208984375,Closing,0.0,0.0,-783.0,0.0,0.0,0.0,0.0,0.0,
4.135009000000078,0.0,0.0,2.0,0.0,0.0,0.0,0.0,0.0,3.8452144500000003,0.0,0.0,0.0,0.0,0.0,-0.0,0.0,0.0,1.8676755900000002,0.0,0.0,0.0,0.0,0.0,0.0,0.0,0.0,4.882812,0.0,0.0,0.0,0.0,0.0,-0.0,0.0,0.0,2.857665723,0.0,0.0,1.090000033378601,0.8600000143051147,-18.260000228881836,0.01220703125,0.015869140625,1.00238037109375,33.720001220703125,0.0,-1.0,-0.1213226318359375,-0.678314208984375,Closing,0.0,0.0,-783.0,0.0,0.0,0.0,0.0,0.0,
4.173955000000075,0.0,0.0,2.0,0.0,0.0,0.0,0.0,0.0,3.8452144500000003,0.0,0.0012207029999999897,0.0,0.0,0.0,-0.0,0.0,0.0,1.8676755900000002,0.0,0.0,0.0,0.0,0.0,0.0,0.0,0.0,4.882812,0.0,0.0,0.0,0.0,0.0,-0.0,0.0,0.0,2.858886426,0.0,0.0,1.0800000429153442,0.8600000143051147,-18.260000228881836,0.0135498046875,0.01251220703125,0.9996337890625,33.720001220703125,0.0,0.0,-0.1213226318359375,-0.678314208984375,Closing,0.0,0.0,-783.0,0.0,0.0,0.0,0.0,0.0,
4.21358899999992,0.0,0.0,2.0,0.0,0.0,0.0,0.0,0.0,3.8452144500000003,0.0,0.0012207029999999897,0.0,0.0,0.0,-0.0,0.0,0.0,1.8676755900000002,0.0,0.0,0.0,0.0,0.0,0.0,0.0,0.0,4.885253406,0.0,0.0,0.0,0.0,0.0,-0.0,0.0,0.0,2.857665723,0.0,0.0,1.0800000429153442,0.8500000238418579,-18.260000228881836,0.01275634765625,0.01593017578125,0.9935302734375,33.720001220703125,0.0,-1.0,-0.1213226318359375,-0.678314208984375,Closing,0.0,0.0,-783.0,0.0,0.0,0.0,0.0,0.0,
4.253232000000076,0.0,0.0,2.0,0.0,0.0,0.0,0.0,0.0,3.8439937470000003,0.0,0.0,0.0,0.0,0.0,-0.0,0.0,0.0,1.8688962930000002,0.0,0.0,0.0,0.0,0.0,0.0,0.0,0.0,4.884032703,0.0,0.0,0.0,0.0,0.0,-0.0,0.0,0.0,2.858886426,0.0,0.0,1.0800000429153442,0.8500000238418579,-18.260000228881836,0.0145263671875,0.02099609375,1.013427734375,33.720001220703125,0.0,-1.0,-0.1213226318359375,-0.678314208984375,Closing,0.0,0.0,-783.0,0.0,0.0,0.0,0.0,0.0,
4.290628999999957,0.0,0.0,2.0,0.0,0.0,0.0,0.0,0.0,3.8427730440000003,0.0,0.0,0.0,0.0,0.0,-0.0,0.0,0.0,1.8676755900000002,0.0,0.0,0.0,0.0,0.0,0.0,0.0,0.0,4.882812,0.0,0.0,0.0,0.0,0.0,-0.0,0.0,0.0,2.857665723,0.0,0.0,1.0800000429153442,0.8500000238418579,-18.260000228881836,0.013671875,0.02264404296875,0.9979248046875,33.720001220703125,0.0,-2.0,-0.1213226318359375,-0.678314208984375,Closing,0.0,0.0,-783.0,0.0,0.0,0.0,0.0,0.0,
4.329611000000034,0.0,0.0,2.0,0.0,0.0,0.0,0.0,0.0,3.8439937470000003,0.0,0.0,0.0,0.0,0.0,-0.0,0.0,0.0,1.8688962930000002,0.0,0.0,0.0,0.0,0.0,0.0,0.0,0.0,4.882812,0.0,0.0,0.0,0.0,0.0,-0.0,0.0,0.0,2.858886426,0.0,0.0,1.0800000429153442,0.8500000238418579,-18.260000228881836,0.0145263671875,0.01812744140625,1.002685546875,33.720001220703125,0.0,0.0,-0.1213226318359375,-0.678314208984375,Closing,0.0,0.0,-783.0,0.0,0.0,0.0,0.0,0.0,
4.368527000000002,0.0,0.0,2.0,0.0,0.0,0.0,0.0,0.0,3.8439937470000003,0.0,0.0,0.0,0.0,0.0,-0.0,0.0,0.0,1.8688962930000002,0.0,0.0,0.0,0.0,0.0,0.0,0.0,0.0,4.884032703,0.0,0.0,0.0,0.0,0.0,-0.0,0.0,0.0,2.857665723,0.0,0.0,1.0800000429153442,0.8500000238418579,-18.260000228881836,0.01727294921875,0.0169677734375,1.01025390625,33.720001220703125,0.0,2.0,-0.1213226318359375,-0.678314208984375,Closing,0.0,0.0,-783.0,0.0,0.0,0.0,0.0,0.0,
4.407923999999882,0.0,0.0,2.0,0.0,0.0,0.0,0.0,0.0,3.8439937470000003,0.0,0.0,0.0,0.0,0.0,-0.0,0.0,0.0,1.8688962930000002,0.0,0.0,0.0,0.0,0.0,0.0,0.0,0.0,4.884032703,0.0,0.0,0.0,0.0,0.0,-0.0,0.0,0.0,2.857665723,0.0,0.0,1.0800000429153442,0.8500000238418579,-18.260000228881836,0.015625,0.00994873046875,0.99127197265625,33.720001220703125,0.0,3.0,-0.1213226318359375,-0.678314208984375,Closing,0.0,0.0,-783.0,0.0,0.0,0.0,0.0,0.0,
4.447956999999937,0.0,0.0,2.0,0.0,0.0,0.0,0.0,0.0,3.8439937470000003,0.0,0.0,0.0,0.0,0.0,-0.0,0.0,0.0,1.8688962930000002,0.0,0.0,0.0,0.0,0.0,0.0,0.0,0.0,4.882812,0.0,0.0,0.0,0.0,0.0,-0.0,0.0,0.0,2.857665723,0.0,0.0,1.0800000429153442,0.8500000238418579,-18.260000228881836,0.01507568359375,0.015625,1.00445556640625,33.720001220703125,0.0,1.0,-0.1213226318359375,-0.678314208984375,Closing,0.0,0.0,-783.0,0.0,0.0,0.0,0.0,0.0,
4.486408000000054,0.0,0.0,2.0,0.0,0.0,0.0,0.0,0.0,3.8439937470000003,0.0,-0.0012207029999999897,0.0,0.0,0.0,-0.0,0.0,0.0,1.8676755900000002,0.0,0.0,0.0,0.0,0.0,0.0,0.0,0.0,4.882812,0.0,0.0,0.0,0.0,0.0,-0.0,0.0,0.0,2.857665723,0.0,0.0,1.0700000524520874,0.8399999737739563,-18.260000228881836,0.012451171875,0.01806640625,1.00103759765625,33.720001220703125,0.0,-1.0,-0.1213226318359375,-0.678314208984375,Closing,0.0,0.0,-783.0,0.0,0.0,0.0,0.0,0.0,
4.5266310000000525,0.0,0.0,2.0,0.0,0.0,0.0,0.0,0.0,3.8439937470000003,0.0,0.0,0.0,0.0,0.0,-0.0,0.0,0.0,1.8676755900000002,0.0,0.0,0.0,0.0,0.0,0.0,0.0,0.0,4.882812,0.0,0.0,0.0,0.0,0.0,-0.0,0.0,0.0,2.857665723,0.0,0.0,1.0800000429153442,0.8299999833106995,-18.260000228881836,0.01275634765625,0.01953125,1.0091552734375,33.720001220703125,0.0,-2.0,-0.1213226318359375,-0.678314208984375,Closing,0.0,0.0,-783.0,0.0,0.0,0.0,0.0,0.0,
4.567094999999972,0.0,0.0,2.0,0.0,0.0,0.0,0.0,0.0,3.8439937470000003,0.0,0.0,0.0,0.0,0.0,-0.0,0.0,0.0,1.8688962930000002,0.0,0.0,0.0,0.0,0.0,0.0,0.0,0.0,4.885253406,0.0,0.0,0.0,0.0,0.0,-0.0,0.0,0.0,2.857665723,0.0,0.0,1.0800000429153442,0.8299999833106995,-18.260000228881836,0.0133056640625,0.02008056640625,0.99658203125,33.720001220703125,0.0,-1.0,-0.1213226318359375,-0.678314208984375,Closing,0.0,0.0,-783.0,0.0,0.0,0.0,0.0,0.0,
4.60767100000009,0.0,0.0,2.0,0.0,0.0,0.0,0.0,0.0,3.8439937470000003,0.0,0.0,0.0,0.0,0.0,-0.0,0.0,0.0,1.8688962930000002,0.0,0.0,0.0,0.0,0.0,0.0,0.0,0.0,4.884032703,0.0,0.0,0.0,0.0,0.0,-0.0,0.0,0.0,2.857665723,0.0,0.0,1.0800000429153442,0.8299999833106995,-18.260000228881836,0.0142822265625,0.02001953125,1.01458740234375,33.66999816894531,0.0,0.0,-0.1213226318359375,-0.678314208984375,Closing,0.0,0.0,-783.0,0.0,0.0,0.0,0.0,0.0,
4.647247999999905,0.0,0.0,2.0,0.0,0.0,0.0,0.0,0.0,3.8439937470000003,0.0,0.0,0.0,0.0,0.0,-0.0,0.0,0.0,1.8676755900000002,0.0,0.0,0.0,0.0,0.0,0.0,0.0,0.0,4.882812,0.0,0.0,0.0,0.0,0.0,-0.0,0.0,0.0,2.858886426,0.0,0.0,1.0800000429153442,0.8299999833106995,-18.25,0.0128173828125,0.01806640625,1.00384521484375,33.66999816894531,0.0,-1.0,-0.1213226318359375,-0.678314208984375,Closing,0.0,0.0,-783.0,0.0,0.0,0.0,0.0,0.0,
4.683888999999967,0.0,0.0,2.0,0.0,0.0,0.0,0.0,0.0,3.8439937470000003,0.0,0.0,0.0,0.0,0.0,-0.0,0.0,0.0,1.8688962930000002,0.0,0.0,0.0,0.0,0.0,0.0,0.0,0.0,4.884032703,0.0,0.0,0.0,0.0,0.0,-0.0,0.0,0.0,2.857665723,0.0,0.0,1.0800000429153442,0.8199999928474426,-18.25,0.01019287109375,0.01806640625,1.00384521484375,33.66999816894531,0.0,-3.0,-0.1213226318359375,-0.678314208984375,Closing,0.0,0.0,-783.0,0.0,0.0,0.0,0.0,0.0,
4.722533000000054,0.0,0.0,2.0,0.0,0.0,0.0,0.0,0.0,3.8439937470000003,0.0,0.0,0.0,0.0,0.0,-0.0,0.0,0.0,1.8688962930000002,0.0,0.0,0.0,0.0,0.0,0.0,0.0,0.0,4.882812,0.0,0.0,0.0,0.0,0.0,-0.0,0.0,0.0,2.857665723,0.0,0.0,1.0700000524520874,0.8199999928474426,-18.260000228881836,0.0108642578125,0.01422119140625,1.0042724609375,33.66999816894531,0.0,-1.0,-0.1213226318359375,-0.678314208984375,Closing,0.0,0.0,-783.0,0.0,0.0,0.0,0.0,0.0,
4.761993000000016,0.0,0.0,2.0,0.0,0.0,0.0,0.0,0.0,3.8427730440000003,0.0,0.0,0.0,0.0,0.0,-0.0,0.0,0.0,1.8676755900000002,0.0,0.0,0.0,0.0,0.0,0.0,0.0,0.0,4.881591297,0.0,0.0,0.0,0.0,0.0,-0.0,0.0,0.0,2.857665723,0.0,0.0,1.0700000524520874,0.8100000023841858,-18.260000228881836,0.0115966796875,0.01715087890625,1.0145263671875,33.66999816894531,0.0,-2.0,-0.1213226318359375,-0.678314208984375,Closing,0.0,0.0,-783.0,0.0,0.0,0.0,0.0,0.0,
4.80797900000005,0.0,0.0,2.0,0.0,0.0,0.0,0.0,0.0,3.8452144500000003,0.0,0.0,0.0,0.0,0.0,-0.0,0.0,0.0,1.8676755900000002,0.0,0.0,0.0,0.0,0.0,0.0,0.0,0.0,4.882812,0.0,0.0,0.0,0.0,0.0,-0.0,0.0,0.0,2.857665723,0.0,0.0,1.0700000524520874,0.8100000023841858,-18.260000228881836,0.01617431640625,0.01953125,0.99591064453125,33.66999816894531,0.0,1.0,-0.1213226318359375,-0.678314208984375,Closing,0.0,0.0,-783.0,0.0,0.0,0.0,0.0,0.0,
4.8481019999999555,0.0,0.0,2.0,0.0,0.0,0.0,0.0,0.0,3.8427730440000003,0.0,0.0,0.0,0.0,0.0,-0.0,0.0,0.0,1.8688962930000002,0.0,0.0,0.0,0.0,0.0,0.0,0.0,0.0,4.884032703,0.0,0.0,0.0,0.0,0.0,-0.0,0.0,0.0,2.857665723,0.0,0.0,1.0700000524520874,0.8100000023841858,-18.260000228881836,0.01507568359375,0.01885986328125,1.00164794921875,33.66999816894531,0.0,0.0,-0.1213226318359375,-0.678314208984375,Closing,0.0,0.0,-783.0,0.0,0.0,0.0,0.0,0.0,
4.879628999999957,0.0,0.0,2.0,0.0,0.0,0.0,0.0,0.0,3.8439937470000003,0.0,0.0,0.0,0.0,0.0,-0.0,0.0,0.0,1.8676755900000002,0.0,0.0,0.0,0.0,0.0,0.0,0.0,0.0,4.882812,0.0,0.0,0.0,0.0,0.0,-0.0,0.0,0.0,2.857665723,0.0,-0.0012207030000004337,1.0700000524520874,0.8100000023841858,-18.260000228881836,0.01068115234375,0.0203857421875,1.00482177734375,33.66999816894531,0.0,-3.0,-0.1213226318359375,-0.678314208984375,Closing,0.0,0.0,-783.0,0.0,0.0,0.0,0.0,0.0,
4.914905999999959,0.0,0.0,2.0,0.0,0.0,0.0,0.0,0.0,3.8439937470000003,0.0,0.0,0.0,0.0,0.0,-0.0,0.0,0.0,1.8688962930000002,0.0,0.0,0.0,0.0,0.0,0.0,0.0,0.0,4.884032703,0.0,0.0,0.0,0.0,0.0,-0.0,0.0,0.0,2.8564450200000002,0.0,0.0,1.0700000524520874,0.8100000023841858,-18.260000228881836,0.012451171875,0.018310546875,0.998046875,33.66999816894531,0.0,-1.0,-0.1213226318359375,-0.678314208984375,Closing,0.0,0.0,-783.0,0.0,0.0,0.0,0.0,0.0,
4.955070000000065,0.0,0.0,2.0,0.0,0.0,0.0,0.0,0.0,3.8439937470000003,0.0,0.0,0.0,0.0,0.0,-0.0,0.0,0.0,1.8688962930000002,0.0,0.0,0.0,0.0,0.0,0.0,0.0,0.0,4.884032703,0.0,0.0,0.0,0.0,0.0,-0.0,0.0,0.0,2.857665723,0.0,0.0,1.0700000524520874,0.8100000023841858,-18.260000228881836,0.01312255859375,0.01629638671875,1.0069580078125,33.66999816894531,0.0,0.0,-0.1213226318359375,-0.678314208984375,Closing,0.0,0.0,-783.0,0.0,0.0,0.0,0.0,0.0,
4.99310999999987,0.0,0.0,2.0,0.0,0.0,0.0,0.0,0.0,3.8439937470000003,0.0,0.0,0.0,0.0,0.0,-0.0,0.0,0.0,1.8676755900000002,0.0,0.0,0.0,0.0,0.0,0.0,0.0,0.0,4.884032703,0.0,0.0,0.0,0.0,0.0,-0.0,0.0,0.0,2.857665723,0.0,0.0012207030000004337,1.059999942779541,0.8100000023841858,-18.270000457763672,0.01153564453125,0.01947021484375,1.0018310546875,33.66999816894531,0.0,-2.0,-0.1213226318359375,-0.678314208984375,Closing,0.0,0.0,-783.0,0.0,0.0,0.0,0.0,0.0,
5.0338540000000505,0.0,0.0,2.0,0.0,0.0,0.0,0.0,0.0,3.8439937470000003,0.0,0.0,0.0,0.0,0.0,-0.0,0.0,0.0,1.8676755900000002,0.0,0.0,0.0,0.0,0.0,0.0,0.0,0.0,4.884032703,0.0,0.0,0.0,0.0,0.0,-0.0,0.0,0.0,2.8564450200000002,0.0,0.0,1.059999942779541,0.800000011920929,-18.280000686645508,0.00958251953125,0.0223388671875,1.00799560546875,33.66999816894531,0.0,-5.0,-0.1213226318359375,-0.678314208984375,Closing,0.0,0.0,-783.0,0.0,0.0,0.0,0.0,0.0,
5.073127000000095,0.0,0.0,2.0,0.0,0.0,0.0,0.0,0.0,3.8439937470000003,0.0,0.0012207029999999897,0.0,0.0,0.0,-0.0,0.0,0.0,1.8688962930000002,0.0,0.0,0.0,0.0,0.0,0.0,0.0,0.0,4.882812,0.0,0.0,0.0,0.0,0.0,-0.0,0.0,0.0,2.858886426,0.0,0.0,1.0700000524520874,0.8100000023841858,-18.299999237060547,0.013671875,0.0216064453125,0.999755859375,33.66999816894531,0.0,-1.0,-0.1213226318359375,-0.678314208984375,Closing,0.0,0.0,-783.0,0.0,0.0,0.0,0.0,0.0,
5.112730999999912,0.0,0.0,2.0,0.0,0.0,0.0,0.0,0.0,3.8439937470000003,0.0,0.0012207029999999897,0.0,0.0,0.0,-0.0,0.0,0.0,1.8688962930000002,0.0,0.0,0.0,0.0,0.0,0.0,0.0,0.0,4.882812,0.0,0.0,0.0,0.0,0.0,-0.0,0.0,0.0,2.857665723,0.0,0.0,1.0700000524520874,0.8100000023841858,-18.309999465942383,0.01812744140625,0.0164794921875,1.00006103515625,33.70000076293945,0.0,4.0,-0.1213226318359375,-0.678314208984375,Closing,0.0,0.0,-783.0,0.0,0.0,0.0,0.0,0.0,
5.152601000000025,0.0,0.0,2.0,0.0,0.0,0.0,0.0,0.0,3.8427730440000003,0.0,0.0,0.0,0.0,0.0,-0.0,0.0,0.0,1.8676755900000002,0.0,0.0,0.0,0.0,0.0,0.0,0.0,0.0,4.884032703,0.0,0.0,0.0,0.0,0.0,-0.0,0.0,0.0,2.8564450200000002,0.0,0.0,1.059999942779541,0.8199999928474426,-18.309999465942383,0.019775390625,0.01129150390625,0.998291015625,33.70000076293945,0.0,7.0,-0.1213226318359375,-0.678314208984375,Closing,0.0,0.0,-783.0,0.0,0.0,0.0,0.0,0.0,
5.189972000000067,0.0,0.0,2.0,0.0,0.0,0.0,0.0,0.0,3.8439937470000003,0.0,0.0,0.0,0.0,0.0,-0.0,0.0,0.0,1.8688962930000002,0.0,0.0,0.0,0.0,0.0,0.0,0.0,0.0,4.884032703,0.0,0.0,0.0,0.0,0.0,-0.0,0.0,0.0,2.857665723,0.0,0.0,1.0399999618530273,0.8299999833106995,-18.309999465942383,0.020263671875,0.01348876953125,0.99853515625,33.70000076293945,0.0,6.0,-0.1213226318359375,-0.678314208984375,Closing,0.0,0.0,-783.0,0.0,0.0,0.0,0.0,0.0,
5.230148999999976,0.0,0.0,2.0,0.0,0.0,0.0,0.0,0.0,3.8439937470000003,0.0,0.0,0.0,0.0,0.0,-0.0,0.0,0.0,1.8688962930000002,0.0,0.0,0.0,0.0,0.0,0.0,0.0,0.0,4.884032703,0.0,0.0,0.0,0.0,0.0,-0.0,0.0,0.0,2.857665723,0.0,0.0,1.0399999618530273,0.8299999833106995,-18.309999465942383,0.01458740234375,0.01629638671875,1.0028076171875,33.70000076293945,0.0,0.0,-0.1213226318359375,-0.678314208984375,Closing,0.0,0.0,-783.0,0.0,0.0,0.0,0.0,0.0,
5.2702900000000374,0.0,0.0,2.0,0.0,0.0,0.0,0.0,0.0,3.8439937470000003,0.0,0.0,0.0,0.0,0.0,-0.0,0.0,0.0,1.8676755900000002,0.0,0.0,0.0,0.0,0.0,0.0,0.0,0.0,4.882812,0.0,0.0,0.0,0.0,0.0,-0.0,0.0,0.0,2.857665723,0.0,0.0,1.0399999618530273,0.8199999928474426,-18.309999465942383,0.0084228515625,0.02227783203125,1.00555419921875,33.70000076293945,0.0,-7.0,-0.1213226318359375,-0.678314208984375,Closing,0.0,0.0,-783.0,0.0,0.0,0.0,0.0,0.0,
5.309871999999974,0.0,0.0,2.0,0.0,0.0,0.0,0.0,0.0,3.8439937470000003,0.0,0.0,0.0,0.0,0.0,-0.0,0.0,0.0,1.8688962930000002,0.0,0.0,0.0,0.0,0.0,0.0,0.0,0.0,4.884032703,0.0,0.0,0.0,0.0,0.0,-0.0,0.0,0.0,2.857665723,0.0,0.0,1.0499999523162842,0.800000011920929,-18.309999465942383,0.0037841796875,0.02294921875,0.99371337890625,33.70000076293945,0.0,-11.0,-0.1213226318359375,-0.678314208984375,Closing,0.0,0.0,-783.0,0.0,0.0,0.0,0.0,0.0,
5.348355999999913,0.0,0.0,2.0,0.0,0.0,0.0,0.0,0.0,3.8439937470000003,0.0,0.0,0.0,0.0,0.0,-0.0,0.0,0.0,1.8688962930000002,0.0,0.0,0.0,0.0,0.0,0.0,0.0,0.0,4.885253406,0.0,0.0,0.0,0.0,0.0,-0.0,0.0,0.0,2.857665723,0.0,0.0,1.059999942779541,0.7900000214576721,-18.309999465942383,0.0103759765625,0.02105712890625,1.007080078125,33.70000076293945,0.0,-4.0,-0.1213226318359375,-0.678314208984375,Closing,0.0,0.0,-783.0,0.0,0.0,0.0,0.0,0.0,
5.384683999999892,0.0,0.0,2.0,0.0,0.0,0.0,0.0,0.0,3.8427730440000003,0.0,-0.0012207029999999897,0.0,0.0,0.0,-0.0,0.0,0.0,1.8688962930000002,0.0,0.0,0.0,0.0,0.0,0.0,0.0,0.0,4.885253406,0.0,0.0,0.0,0.0,0.0,-0.0,0.0,0.0,2.857665723,0.0,0.0,1.059999942779541,0.800000011920929,-18.309999465942383,0.01690673828125,0.0174560546875,1.0025634765625,33.70000076293945,0.0,3.0,-0.1213226318359375,-0.678314208984375,Closing,0.0,0.0,-783.0,0.0,0.0,0.0,0.0,0.0,
