Time,ClimberA1,ClimberA2,FRpos,FRCurrent,FRspeed,FRsetpoint,FRApos,FRACurrent,FREncpos,FREncSetpoint,FREncSpeed,FLpos,FLCurrent,FLspeed,FLsetpoint,FLApos,FLACurrent,FLEncpos,FLEncSetpoint,FLEncSpeed,BRpos,BRCurrent,BRspeed,BRsetpoint,BRApos,BRACurrent,BREncpos,BREncSetpoint,BREncSpeed,BLpos,BLCurrent,BLspeed,BLsetpoint,BLApos,BLACurrent,BLEncpos,BLEncSetpoint,BLEncSpeed,navx_Pitch,navx_Roll,navx_Yaw,navx_XAcc,navx_YAcc,navx_ZAcc,navx_Temp,navx_Bar,navx_Alt,navx_XDis,navx_YDis,GearPlacerState,ShootOutputV,ShootOutputCurrent,ShootEncPos,ShootEncVelocity,ShootSpeed,ShootSetpoint,CarouselSetpoint,CarouselCurrent,
0.5003709999999992,0.0,0.0,-75.0,0.0,0.0,0.0,0.0,0.0,3.867187104,0.0,0.0,146.0,0.0,0.0,0.0,0.0,0.0,1.848144342,0.0,0.0,232.0,0.0,0.0,0.0,0.0,0.0,4.888915515,0.0,0.0,-133.0,0.0,0.0,0.0,0.0,0.0,2.862548535,0.0,0.0,1.100000023841858,0.20999999344348907,103.73999786376953,0.0052490234375,0.01824951171875,1.0093994140625,31.3700008392334,0.0,-3.0,0.0550689697265625,0.07952880859375,Waiting,0.0,0.0,0.0,0.0,0.0,0.0,0.0,0.0,
0.5641349999999947,0.0,0.0,-75.0,0.0,0.0,0.0,0.0,0.125,3.867187104,0.0,0.0,146.0,0.0,0.0,-0.0,0.0,0.0,1.849365045,0.0,0.0,232.0,0.0,0.0,0.0,0.0,0.0,4.888915515,0.0,0.0,-133.0,0.0,0.0,-0.0,0.0,0.0,2.863769238,0.0,0.0,1.100000023841858,0.20999999344348907,103.73999786376953,0.005126953125,0.01953125,1.002197265625,31.3700008392334,0.0,0.0,0.0550689697265625,0.07952880859375,Waiting,0.0,0.0,0.0,0.0,0.0,-1600.0,0.0,0.0,
0.5826460000000007,7.875,0.0,-75.0,0.0,0.0,0.0,0.0,0.125,3.867187104,0.0,0.0,146.0,0.0,0.0,-0.0,0.0,0.0,1.849365045,0.0,0.0,232.0,0.0,0.0,0.0,0.0,0.0,4.888915515,0.0,0.0,-133.0,0.0,0.0,-0.0,0.0,0.0,2.862548535,0.0,0.0,1.100000023841858,0.20999999344348907,103.73999786376953,0.00201416015625,0.0220947265625,1.01220703125,31.3700008392334,0.0,2.0,0.0550689697265625,0.07952880859375,Waiting,-12.75,16.0,-1.0,0.0,0.0,-1600.0,0.0,0.0,
0.6050139999999956,7.875,0.0,-75.0,0.0,0.0,0.0,0.0,0.0,3.868407807,0.0,0.0,146.0,0.0,0.0,-0.0,0.0,0.0,1.850585748,0.0,0.0,232.0,0.0,0.0,0.0,0.0,0.0,4.890136218,0.0,0.0,-133.0,0.0,0.0,-0.0,0.0,0.0,2.863769238,0.0,0.0,1.090000033378601,0.2199999988079071,103.73999786376953,-0.00103759765625,0.03076171875,1.0419921875,31.3700008392334,0.0,11.0,0.0550689697265625,0.07952880859375,Waiting,-11.65,42.625,-1.0,0.0,0.0,-1600.0,0.0,0.0,
0.6228659999999945,7.875,0.0,-75.0,0.0,0.0,0.0,0.0,0.0,3.867187104,0.0,0.0,146.0,0.0,0.0,-0.0,0.0,0.0,1.849365045,0.0,0.0,232.0,0.0,0.0,0.0,0.0,0.0,4.890136218,0.0,0.0,-133.0,0.0,0.0,-0.0,0.0,0.0,2.863769238,0.0,0.0,1.090000033378601,0.20999999344348907,103.73999786376953,-0.0030517578125,0.01995849609375,0.99285888671875,31.3700008392334,0.0,2.0,0.0550689697265625,0.07952880859375,Waiting,-11.65,69.375,-1.0,0.0,-15.0,-1600.0,0.0,0.0,
0.6402449999999953,7.875,0.0,-75.0,0.0,0.0,0.0,0.0,0.0,3.867187104,0.0,0.0,146.0,0.0,0.0,-0.0,0.0,0.0,1.849365045,0.0,0.0,232.0,0.0,0.0,0.0,0.0,0.0,4.890136218,0.0,0.0,-133.0,0.0,0.0,-0.0,0.0,0.0,2.862548535,0.0,0.0,1.090000033378601,0.20999999344348907,103.73999786376953,-0.002685546875,0.01519775390625,1.024658203125,31.3700008392334,0.0,-2.0,0.0550689697265625,0.07952880859375,Waiting,-11.65,85.375,-1.0,0.0,-52.5,-1600.0,0.0,0.0,
0.6604340000000011,69.625,0.0,-75.0,0.0,0.0,0.0,0.0,0.0,3.867187104,0.0,0.0,146.0,0.0,0.0,-0.0,0.0,0.0,1.849365045,0.0,0.0,232.0,0.0,0.0,0.0,0.0,0.0,4.888915515,0.0,0.0,-133.0,0.0,0.0,-0.0,0.0,0.0,2.862548535,0.0,0.0,1.0800000429153442,0.2199999988079071,103.73999786376953,0.0113525390625,0.0179443359375,0.99493408203125,31.3700008392334,0.0,-2.0,0.0550689697265625,0.07952880859375,Waiting,-11.65,85.375,-1.0,0.0,-52.5,-1600.0,0.0,0.0,
0.6791919999999955,69.625,0.0,-75.0,0.0,0.0,0.0,0.0,0.125,3.868407807,0.0,0.0,146.0,0.0,0.0,-0.0,0.0,0.0,1.848144342,0.0,0.0,232.0,0.0,0.0,0.0,0.0,0.0,4.888915515,0.0,0.0,-133.0,0.0,0.0,-0.0,0.0,0.0,2.862548535,0.0,0.0,1.0800000429153442,0.2199999988079071,103.73999786376953,0.009765625,0.0128173828125,1.01513671875,31.3700008392334,0.0,-7.0,0.0550689697265625,0.07952880859375,Waiting,-11.65,80.375,-1.0,0.0,-157.5,-1600.0,0.0,0.0,
0.7109059999999954,69.625,0.0,-75.0,0.0,0.0,0.0,0.0,0.125,3.867187104,0.0,0.0,146.0,0.0,0.0,-0.0,0.0,0.0,1.848144342,0.0,0.0,232.0,0.0,0.0,0.0,0.0,0.0,4.887694812,0.0,0.0,-133.0,0.0,0.0,-0.0,0.0,0.0,2.861327832,0.0,0.0,1.100000023841858,0.2199999988079071,103.73999786376953,-0.0010986328125,-0.02001953125,0.99896240234375,31.3700008392334,0.0,-37.0,0.0550384521484375,0.07952880859375,Waiting,-10.600000000000001,78.25,-53.0,-31.0,-232.5,-1600.0,0.0,0.0,
0.7304850000000006,69.625,0.0,-75.0,0.0,0.0,0.0,0.0,0.125,3.868407807,0.0,0.0,146.0,0.0,0.0,-0.0,0.0,0.0,1.849365045,0.0,0.0,232.0,0.0,0.0,0.0,0.0,0.0,4.888915515,0.0,0.0,-133.0,0.0,0.0,-0.0,0.0,0.0,2.862548535,0.0,0.0,1.090000033378601,0.2199999988079071,103.73999786376953,0.02197265625,-0.011962890625,0.96917724609375,31.3700008392334,0.0,-33.0,0.054962158203125,0.07952880859375,Waiting,-10.600000000000001,76.625,-53.0,-31.0,-315.0,-1600.0,0.0,0.0,
0.7501429999999963,69.625,0.0,-75.0,0.0,0.0,0.0,0.0,0.125,3.868407807,0.0,0.0,146.0,0.0,0.0,-0.0,0.0,0.0,1.849365045,0.0,0.0,232.0,0.0,0.0,0.0,0.0,0.0,4.890136218,0.0,0.0,-133.0,0.0,0.0,-0.0,0.0,0.0,2.862548535,0.0,0.0,1.090000033378601,0.2199999988079071,103.73999786376953,0.005615234375,0.027587890625,1.01141357421875,31.3700008392334,0.0,7.0,0.05487060546875,0.07952880859375,Waiting,-10.600000000000001,75.25,-53.0,-31.0,-390.0,-1600.0,0.0,0.0,
0.7685109999999986,69.625,0.0,-75.0,0.0,0.0,0.0,0.0,0.125,3.86962851,0.0,0.0,146.0,0.0,0.0,-0.0,0.0,0.0,1.848144342,0.0,0.0,232.0,0.0,0.0,0.0,0.0,0.0,4.890136218,0.0,0.0,-133.0,0.0,0.0,-0.0,0.0,0.0,2.863769238,0.0,0.0,1.1100000143051147,0.2199999988079071,103.73999786376953,0.0225830078125,-0.0169677734375,1.04815673828125,31.3700008392334,0.0,-40.0,0.05474853515625,0.07952880859375,Waiting,-10.600000000000001,74.25,-53.0,-31.0,-472.5,-1600.0,0.0,0.0,
0.7863359999999957,69.625,0.0,-75.0,0.0,0.0,0.0,0.0,0.125,3.868407807,0.0,0.0,146.0,0.0,0.0,-0.0,0.0,0.0,1.849365045,0.0,0.0,232.0,0.0,0.0,0.0,0.0,0.0,4.888915515,0.0,0.0,-133.0,0.0,0.0,-0.0,0.0,0.0,2.862548535,0.0,0.0,1.100000023841858,0.2199999988079071,103.73999786376953,-0.0194091796875,0.02008056640625,1.00616455078125,31.3700008392334,0.0,6.0,0.054473876953125,0.0794525146484375,Waiting,-10.600000000000001,72.875,-53.0,-31.0,-547.5,-1600.0,0.0,0.0,
0.8116140000000014,69.625,0.0,-75.0,0.0,0.0,0.0,0.0,0.125,3.867187104,0.0,0.0,146.0,0.0,0.0,-0.0,0.0,0.0,1.849365045,0.0,0.0,232.0,0.0,0.0,0.0,0.0,0.0,4.888915515,0.0,0.0,-133.0,0.0,0.0,-0.0,0.0,0.0,2.863769238,0.0,0.0,1.100000023841858,0.2199999988079071,103.73999786376953,0.0020751953125,0.0048828125,0.97674560546875,31.3700008392334,0.0,-12.0,0.05413818359375,0.0794219970703125,Waiting,-10.600000000000001,71.625,-53.0,-31.0,-622.5,-1600.0,0.0,0.0,
0.8317309999999998,69.625,0.0,-75.0,0.0,0.0,0.0,0.0,0.125,3.868407807,0.0,0.0,146.0,0.0,0.0,-0.0,0.0,0.0,1.848144342,0.0,0.0,232.0,0.0,0.0,0.0,0.0,0.0,4.890136218,0.0,0.0,-133.0,0.0,0.0,-0.0,0.0,0.0,2.863769238,0.0,0.0,1.0700000524520874,0.2199999988079071,103.73999786376953,0.0211181640625,-0.00152587890625,1.0008544921875,31.3700008392334,0.0,-23.0,0.0539398193359375,0.0794219970703125,Waiting,-10.7,70.75,-174.0,-91.0,-705.0,-1600.0,0.0,0.0,
0.8540429999999979,69.625,0.0,-75.0,0.0,0.0,0.0,0.0,0.125,3.867187104,0.0,0.0,146.0,0.0,0.0,-0.0,0.0,0.0,1.849365045,0.0,0.0,232.0,0.0,0.0,0.0,0.0,0.0,4.887694812,0.0,0.0,-133.0,0.0,0.0,-0.0,0.0,0.0,2.863769238,0.0,0.0,1.0700000524520874,0.2199999988079071,103.73999786376953,-0.01751708984375,0.085205078125,1.01239013671875,31.3700008392334,0.0,69.0,0.05377197265625,0.0794219970703125,Waiting,-10.7,69.625,-174.0,-91.0,-780.0,-1600.0,0.0,0.0,
0.8737639999999955,69.625,0.0,-75.0,0.0,0.0,0.0,0.0,0.125,3.868407807,0.0,0.0,146.0,0.0,0.0,-0.0,0.0,0.0,1.849365045,0.0,0.0,232.0,0.0,0.0,0.0,0.0,0.0,4.887694812,0.0,0.0,-133.0,0.0,0.0,-0.0,0.0,0.0,2.861327832,0.0,0.0,1.090000033378601,0.2199999988079071,103.73999786376953,-0.009033203125,0.0401611328125,1.034423828125,31.3700008392334,0.0,22.0,0.0534515380859375,0.0793914794921875,Waiting,-10.7,68.25,-174.0,-91.0,-847.5,-1600.0,0.0,0.0,
0.8926199999999953,69.625,0.0,-75.0,0.0,0.0,0.0,0.0,0.125,3.867187104,0.0,0.0,146.0,0.0,0.0,-0.0,0.0,0.0,1.848144342,0.0,0.0,232.0,0.0,0.0,0.0,0.0,0.0,4.888915515,0.0,0.0,-133.0,0.0,0.0,-0.0,0.0,0.0,2.862548535,0.0,0.0,1.0800000429153442,0.2199999988079071,103.73999786376953,0.02423095703125,0.05511474609375,0.973876953125,31.420000076293945,0.0,30.0,0.0533294677734375,0.079345703125,Waiting,-10.7,66.75,-174.0,-91.0,-922.5,-1600.0,0.0,0.0,
0.9141169999999984,69.625,0.0,-75.0,0.0,0.0,0.0,0.0,0.125,3.868407807,0.0,0.0,146.0,0.0,0.0,-0.0,0.0,0.0,1.848144342,0.0,0.0,232.0,0.0,0.0,0.0,0.0,0.0,4.888915515,0.0,0.0,-133.0,0.0,0.0,-0.0,0.0,0.0,2.863769238,0.0,0.0,1.0800000429153442,0.2199999988079071,103.73999786376953,0.01458740234375,0.03851318359375,1.04473876953125,31.420000076293945,0.0,15.0,0.05322265625,0.07928466796875,Waiting,-10.7,65.375,-174.0,-91.0,-990.0,-1600.0,0.0,0.0,
0.9323849999999948,69.625,0.0,-75.0,0.0,0.0,0.0,0.0,0.125,3.867187104,0.0,0.0,146.0,0.0,0.0,-0.0,0.0,0.0,1.849365045,0.0,0.0,232.0,0.0,0.0,0.0,0.0,0.0,4.888915515,0.0,0.0,-133.0,0.0,0.0,-0.0,0.0,0.0,2.863769238,0.0,0.0,1.090000033378601,0.23000000417232513,103.73999786376953,-0.01983642578125,-0.01104736328125,1.00677490234375,31.420000076293945,0.0,-23.0,0.0531768798828125,0.0792236328125,Waiting,-10.7,64.375,-174.0,-91.0,-1057.5,-1600.0,0.0,0.0,
0.9581699999999983,69.625,0.0,-75.0,0.0,0.0,0.0,0.0,0.125,3.867187104,0.0,0.0,146.0,0.0,0.0,-0.0,0.0,0.0,1.849365045,0.0,0.0,232.0,0.0,0.0,0.0,0.0,0.0,4.888915515,0.0,0.0,-133.0,0.0,0.0,-0.0,0.0,0.0,2.863769238,0.0,0.0,1.100000023841858,0.23000000417232513,103.73999786376953,-0.00250244140625,0.00555419921875,0.9781494140625,31.420000076293945,0.0,-11.0,0.05316162109375,0.0791168212890625,Waiting,-10.050439882697948,61.75,-360.0,-145.0,-1192.5,-1600.0,0.0,0.0,
0.9936829999999973,69.0,0.0,-75.0,0.0,0.0,0.0,0.0,0.125,3.867187104,0.0,0.0,146.0,0.0,0.0,-0.0,0.0,0.0,1.848144342,0.0,0.0,232.0,0.0,0.0,0.0,0.0,0.0,4.888915515,0.0,0.0,-133.0,0.0,0.0,-0.0,0.0,0.0,2.862548535,0.0,0.0,1.0800000429153442,0.23000000417232513,103.73999786376953,-0.02410888671875,0.0150146484375,0.97674560546875,31.420000076293945,0.0,3.0,0.05316162109375,0.0791778564453125,Waiting,-10.8,58.625,-360.0,-145.0,-1252.5,-1600.0,0.0,0.0,
1.013665000000001,69.0,0.0,-75.0,0.0,0.0,0.0,0.0,0.125,3.868407807,0.0,0.0,146.0,0.0,0.0,-0.0,0.0,0.0,1.849365045,0.0,0.0,232.0,0.0,0.0,0.0,0.0,0.0,4.888915515,0.0,0.0,-133.0,0.0,0.0,-0.0,0.0,0.0,2.862548535,0.0,0.0,1.0800000429153442,0.23000000417232513,103.73999786376953,7.32421875E-4,0.0155029296875,0.997314453125,31.420000076293945,0.0,-2.0,0.05316162109375,0.0792694091796875,Waiting,-8.656891495601172,58.625,-360.0,-145.0,-1252.5,-1600.0,0.0,0.0,
1.0305190000000002,69.0,0.0,-75.0,0.0,0.0,0.0,0.0,0.125,3.868407807,0.0,0.0,146.0,0.0,0.0,-0.0,0.0,0.0,1.849365045,0.0,0.0,232.0,0.0,0.0,0.0,0.0,0.0,4.888915515,0.0,0.0,-133.0,0.0,0.0,-0.0,0.0,0.0,2.863769238,0.0,0.0,1.090000033378601,0.2199999988079071,103.73999786376953,0.01043701171875,-0.0084228515625,1.02850341796875,31.420000076293945,0.0,-28.0,0.053131103515625,0.07952880859375,Waiting,-6.798826979472142,47.0,-360.0,-145.0,-1380.0,-1600.0,0.0,0.0,
1.066165000000001,60.0,0.0,-75.0,0.0,0.0,0.0,0.0,0.0,3.868407807,0.0,0.0,146.0,0.0,0.0,-0.0,0.0,0.0,1.849365045,0.0,0.0,232.0,0.0,0.0,0.0,0.0,0.0,4.887694812,0.0,0.0,-133.0,0.0,0.0,-0.0,0.0,0.0,2.863769238,0.0,0.0,1.090000033378601,0.2199999988079071,103.73999786376953,0.00885009765625,-0.00677490234375,0.99365234375,31.420000076293945,0.0,-26.0,0.053070068359375,0.0796661376953125,Waiting,-9.179032258064517,39.25,-599.0,-192.0,-1432.5,-1600.0,0.0,0.0,
1.0855970000000015,60.0,0.0,-75.0,0.0,0.0,0.0,0.0,0.0,3.867187104,0.0,0.0,146.0,0.0,0.0,-0.0,0.0,0.0,1.849365045,0.0,0.0,232.0,0.0,0.0,0.0,0.0,0.0,4.888915515,0.0,0.0,-133.0,0.0,0.0,-0.0,0.0,0.0,2.862548535,0.0,0.0,1.0800000429153442,0.2199999988079071,103.73999786376953,-0.00732421875,-0.00982666015625,1.00189208984375,31.420000076293945,0.0,-25.0,0.0528717041015625,0.0796661376953125,Waiting,-5.938709677419355,30.875,-599.0,-192.0,-1485.0,-1600.0,0.0,0.0,
1.111125,34.375,0.0,-75.0,0.0,0.0,0.0,0.0,0.0,3.868407807,0.0,0.0,146.0,0.0,0.0,-0.0,0.0,0.0,1.848144342,0.0,0.0,232.0,0.0,0.0,0.0,0.0,0.0,4.887694812,0.0,0.0,-133.0,0.0,0.0,-0.0,0.0,0.0,2.862548535,0.0,0.0,1.0800000429153442,0.20999999344348907,103.73999786376953,0.01715087890625,0.025146484375,1.0125732421875,31.420000076293945,0.0,2.0,0.0525665283203125,0.0796661376953125,Waiting,-7.474193548387097,23.625,-599.0,-192.0,-1537.5,-1600.0,0.0,0.0,
1.1281659999999973,34.375,0.0,-75.0,0.0,0.0,0.0,0.0,0.0,3.85742148,0.0,0.0,146.0,0.0,0.0,-0.0,0.0,0.0,1.849365045,0.0,0.0,232.0,0.0,0.0,0.0,0.0,0.0,4.888915515,0.0,0.0,-133.0,0.0,0.0,-0.0,0.0,0.0,2.862548535,0.0,0.0,1.0800000429153442,0.20999999344348907,103.73999786376953,0.01715087890625,0.025146484375,1.0125732421875,31.420000076293945,0.0,2.0,0.0525665283203125,0.0796661376953125,Waiting,-4.708064516129032,18.0,-599.0,-192.0,-1575.0,-1600.0,0.0,0.0,
1.142951000000001,34.375,0.0,-75.0,0.0,0.0,0.0,0.0,0.125,3.868407807,0.0,0.0,146.0,0.0,0.0,-0.0,0.0,0.0,1.848144342,0.0,0.0,232.0,0.0,0.0,0.0,0.0,0.0,4.887694812,0.0,0.0,-133.0,0.0,0.0,-0.0,0.0,0.0,2.863769238,0.0,0.0,1.0800000429153442,0.23000000417232513,103.73999786376953,0.03814697265625,0.03668212890625,1.0067138671875,31.420000076293945,0.0,8.0,0.0525665283203125,0.07952880859375,Waiting,-6.345161290322581,13.625,-599.0,-192.0,-1612.5,-1600.0,0.0,0.0,
1.1604879999999975,14.125,0.0,-75.0,0.0,0.0,0.0,0.0,0.125,3.867187104,0.0,0.0,146.0,0.0,0.0,-0.0,0.0,0.0,1.848144342,0.0,0.0,232.0,0.0,0.0,0.0,0.0,0.0,4.888915515,0.0,0.0,-133.0,0.0,0.0,-0.0,0.0,0.0,2.862548535,0.0,0.0,1.090000033378601,0.23000000417232513,103.73999786376953,0.0054931640625,0.0235595703125,0.9910888671875,31.420000076293945,0.0,4.0,0.0525665283203125,0.07940673828125,Waiting,-6.096774193548387,13.625,-599.0,-192.0,-1612.5,-1600.0,0.0,0.0,
1.1775780000000013,14.125,0.0,-75.0,0.0,0.0,0.0,0.0,0.125,3.868407807,0.0,0.0,146.0,0.0,0.0,-0.0,0.0,0.0,1.848144342,0.0,0.0,232.0,0.0,0.0,0.0,0.0,0.0,4.887694812,0.0,0.0,-133.0,0.0,0.0,-0.0,0.0,0.0,2.863769238,0.0,0.0,1.090000033378601,0.23999999463558197,103.73999786376953,0.0267333984375,0.0352783203125,1.00384521484375,31.420000076293945,0.0,10.0,0.0525665283203125,0.0792694091796875,Waiting,-5.57741935483871,10.5,-599.0,-192.0,-1642.5,-1600.0,0.0,0.0,
1.2007690000000002,14.125,0.0,-75.0,0.0,0.0,0.0,0.0,0.125,3.867187104,0.0,0.0,146.0,0.0,0.0,-0.0,0.0,0.0,1.848144342,0.0,0.0,232.0,0.0,0.0,0.0,0.0,0.0,4.887694812,0.0,0.0,-133.0,0.0,0.0,-0.0,0.0,0.0,2.862548535,0.0,0.0,1.100000023841858,0.23999999463558197,103.73999786376953,-0.01483154296875,0.05780029296875,1.03448486328125,31.420000076293945,0.0,41.0,0.0525970458984375,0.0791168212890625,Waiting,-3.126099706744868,8.125,-868.0,-221.0,-1665.0,-1600.0,0.0,0.0,
1.2184170000000012,14.125,0.0,-75.0,0.0,0.0,0.0,0.0,0.125,3.867187104,0.0,0.0,146.0,0.0,0.0,-0.0,0.0,0.0,1.848144342,0.0,0.0,232.0,0.0,0.0,0.0,0.0,0.0,4.888915515,0.0,0.0,-133.0,0.0,0.0,-0.0,0.0,0.0,2.863769238,0.0,0.0,1.100000023841858,0.23999999463558197,103.73999786376953,0.0029296875,0.03179931640625,0.99169921875,31.420000076293945,0.0,12.0,0.05267333984375,0.0789794921875,Waiting,-5.362463343108504,6.625,-868.0,-221.0,-1680.0,-1600.0,0.0,0.0,
1.2386979999999967,7.75,0.0,-75.0,0.0,0.0,0.0,0.0,0.125,3.868407807,0.0,0.0,146.0,0.0,0.0,-0.0,0.0,0.0,1.849365045,0.0,0.0,232.0,0.0,0.0,0.0,0.0,0.0,4.887694812,0.0,0.0,-133.0,0.0,0.0,-0.0,0.0,0.0,2.862548535,0.0,0.0,1.100000023841858,0.23000000417232513,103.73999786376953,-0.0059814453125,0.020751953125,0.991943359375,31.420000076293945,0.0,3.0,0.0527496337890625,0.0789794921875,Waiting,-5.061876832844575,5.5,-868.0,-221.0,-1687.5,-1600.0,0.0,0.0,
1.258184000000001,7.75,0.0,-75.0,0.0,0.0,0.0,0.0,0.125,3.86962851,0.0,0.0,146.0,0.0,0.0,-0.0,0.0,0.0,1.848144342,0.0,0.0,232.0,0.0,0.0,0.0,0.0,0.0,4.888915515,0.0,0.0,-133.0,0.0,0.0,-0.0,0.0,0.0,2.863769238,0.0,0.0,1.100000023841858,0.23000000417232513,103.73999786376953,-0.02703857421875,0.01348876953125,1.012451171875,31.420000076293945,0.0,1.0,0.0527496337890625,0.079010009765625,Waiting,-5.0498533724340176,4.75,-868.0,-221.0,-1695.0,-1600.0,0.0,0.0,
1.277979999999996,7.75,0.0,-75.0,0.0,0.0,0.0,0.0,0.125,3.867187104,0.0,0.0,146.0,0.0,0.0,-0.0,0.0,0.0,1.848144342,0.0,0.0,232.0,0.0,0.0,0.0,0.0,0.0,4.888915515,0.0,0.0,-133.0,0.0,0.0,-0.0,0.0,0.0,2.862548535,0.0,0.0,1.100000023841858,0.2199999988079071,103.73999786376953,0.001708984375,-0.01055908203125,1.0040283203125,31.420000076293945,0.0,-28.0,0.052734375,0.0791778564453125,Waiting,-4.881524926686217,4.25,-868.0,-221.0,-1702.5,-1600.0,0.0,0.0,
1.3016299999999974,7.75,0.0,-75.0,0.0,0.0,0.0,0.0,0.125,3.867187104,0.0,0.0,146.0,0.0,0.0,-0.0,0.0,0.0,1.849365045,0.0,0.0,232.0,0.0,0.0,0.0,0.0,0.0,4.888915515,0.0,0.0,-133.0,0.0,0.0,-0.0,0.0,0.0,2.862548535,0.0,0.0,1.1100000143051147,0.20999999344348907,103.73999786376953,-0.01080322265625,-0.00323486328125,1.00408935546875,31.420000076293945,0.0,-18.0,0.0526885986328125,0.0791778564453125,Waiting,-4.845454545454546,3.875,-868.0,-221.0,-1702.5,-1600.0,0.0,0.0,
1.318400999999998,4.75,0.0,-75.0,0.0,0.0,0.0,0.0,0.125,3.868407807,0.0,0.0,146.0,0.0,0.0,-0.0,0.0,0.0,1.849365045,0.0,0.0,232.0,0.0,0.0,0.0,0.0,0.0,4.888915515,0.0,0.0,-133.0,0.0,0.0,-0.0,0.0,0.0,2.862548535,0.0,0.0,1.1100000143051147,0.20999999344348907,103.73999786376953,0.00115966796875,-0.0233154296875,0.977783203125,31.420000076293945,0.0,-40.0,0.0525970458984375,0.0791778564453125,Waiting,-4.860606060606061,3.75,-1140.0,-227.0,-1702.5,-1600.0,0.0,0.0,
1.3394909999999944,4.75,0.0,-75.0,0.0,0.0,0.0,0.0,0.125,3.867187104,0.0,0.0,146.0,0.0,0.0,-0.0,0.0,0.0,1.849365045,0.0,0.0,232.0,0.0,0.0,0.0,0.0,0.0,4.888915515,0.0,0.0,-133.0,0.0,0.0,-0.0,0.0,0.0,2.863769238,0.0,0.0,1.100000023841858,0.20999999344348907,103.73999786376953,-6.103515625E-4,0.017578125,0.98675537109375,31.420000076293945,0.0,0.0,0.05230712890625,0.0791778564453125,Waiting,-4.824242424242424,3.625,-1140.0,-227.0,-1702.5,-1600.0,0.0,0.0,
1.358278999999995,3.5,0.0,-75.0,0.0,0.0,0.0,0.0,0.125,3.867187104,0.0,0.0,146.0,0.0,0.0,-0.0,0.0,0.0,1.848144342,0.0,0.0,232.0,0.0,0.0,0.0,0.0,0.0,4.888915515,0.0,0.0,-133.0,0.0,0.0,-0.0,0.0,0.0,2.862548535,0.0,0.0,1.1100000143051147,0.20999999344348907,103.73999786376953,0.016357421875,0.0147705078125,0.97784423828125,31.420000076293945,0.0,-7.0,0.05230712890625,0.0791778564453125,Waiting,-4.945454545454545,3.75,-1140.0,-227.0,-1695.0,-1600.0,0.0,0.0,
1.3787099999999992,3.5,0.0,-75.0,0.0,0.0,0.0,0.0,0.125,3.868407807,0.0,0.0,146.0,0.0,0.0,-0.0,0.0,0.0,1.849365045,0.0,0.0,232.0,0.0,0.0,0.0,0.0,0.0,4.887694812,0.0,0.0,-133.0,0.0,0.0,-0.0,0.0,0.0,2.862548535,0.0,0.0,1.1200000047683716,0.20999999344348907,103.73999786376953,-0.00360107421875,0.02484130859375,1.02484130859375,31.420000076293945,0.0,6.0,0.05230712890625,0.0791778564453125,Waiting,-4.909090909090909,3.75,-1140.0,-227.0,-1695.0,-1600.0,0.0,0.0,
1.4016329999999944,3.5,0.0,-75.0,0.0,0.0,0.0,0.0,0.125,3.867187104,0.0,0.0,146.0,0.0,0.0,-0.0,0.0,0.0,1.848144342,0.0,0.0,232.0,0.0,0.0,0.0,0.0,0.0,4.888915515,0.0,0.0,-133.0,0.0,0.0,-0.0,0.0,0.0,2.863769238,0.0,0.0,1.1200000047683716,0.2199999988079071,103.73999786376953,-0.00714111328125,0.0135498046875,1.03424072265625,31.40999984741211,0.0,-3.0,0.05230712890625,0.0791778564453125,Waiting,-4.872727272727273,3.75,-1140.0,-227.0,-1687.5,-1600.0,0.0,0.0,
1.418042999999998,3.5,0.0,-75.0,0.0,0.0,0.0,0.0,0.0,3.867187104,0.0,0.0,146.0,0.0,0.0,-0.0,0.0,0.0,1.848144342,0.0,0.0,232.0,0.0,0.0,0.0,0.0,0.0,4.887694812,0.0,0.0,-133.0,0.0,0.0,-0.0,0.0,0.0,2.862548535,0.0,0.0,1.1100000143051147,0.2199999988079071,103.73999786376953,0.0013427734375,-0.00830078125,1.01513671875,31.40999984741211,0.0,-26.0,0.0522918701171875,0.0791778564453125,Waiting,-4.981818181818182,4.0,-1140.0,-227.0,-1687.5,-1600.0,0.0,0.0,
1.4387469999999958,4.625,0.0,-75.0,0.0,0.0,0.0,0.0,0.0,3.868407807,0.0,0.0,146.0,0.0,0.0,-0.0,0.0,0.0,1.848144342,0.0,0.0,232.0,0.0,0.0,0.0,0.0,0.0,4.887694812,0.0,0.0,-133.0,0.0,0.0,-0.0,0.0,0.0,2.862548535,0.0,0.0,1.1100000143051147,0.20999999344348907,103.73999786376953,-0.0281982421875,0.0096435546875,1.0113525390625,31.40999984741211,0.0,-2.0,0.05224609375,0.0792083740234375,Waiting,-4.957575757575758,4.0,-1411.0,-225.0,-1687.5,-1600.0,0.0,0.0,
1.4583689999999987,4.625,0.0,-75.0,0.0,0.0,0.0,0.0,0.0,3.868407807,0.0,0.0,146.0,0.0,0.0,-0.0,0.0,0.0,1.848144342,0.0,0.0,232.0,0.0,0.0,0.0,0.0,0.0,4.890136218,0.0,0.0,-133.0,0.0,0.0,-0.0,0.0,0.0,2.863769238,0.0,0.0,1.100000023841858,0.20000000298023224,103.73999786376953,0.00433349609375,-0.01898193359375,1.0526123046875,31.40999984741211,0.0,-38.0,0.05206298828125,0.0793609619140625,Waiting,-4.933333333333334,4.0,-1411.0,-225.0,-1687.5,-1600.0,0.0,0.0,
1.4783810000000013,4.625,0.0,-75.0,0.0,0.0,0.0,0.0,0.125,3.868407807,0.0,0.0,146.0,0.0,0.0,-0.0,0.0,0.0,1.8408201240000002,0.0,0.0,232.0,0.0,0.0,0.0,0.0,0.0,4.888915515,0.0,0.0,-133.0,0.0,0.0,-0.0,0.0,0.0,2.862548535,0.0,0.0,1.0800000429153442,0.1899999976158142,103.73999786376953,-0.0137939453125,-4.2724609375E-4,1.00927734375,31.40999984741211,0.0,-14.0,0.051910400390625,0.0794677734375,Waiting,-5.042424242424243,4.125,-1411.0,-225.0,-1687.5,-1600.0,0.0,0.0,
1.5009909999999946,4.375,0.0,-75.0,0.0,0.0,0.0,0.0,0.125,3.867187104,0.0,0.0,146.0,0.0,0.0,-0.0,0.0,0.0,1.848144342,0.0,0.0,232.0,0.0,0.0,0.0,0.0,0.0,4.887694812,0.0,0.0,-133.0,0.0,0.0,-0.0,0.0,0.0,2.862548535,0.0,0.0,1.0800000429153442,0.20000000298023224,103.73999786376953,-0.02099609375,0.03338623046875,1.03338623046875,31.40999984741211,0.0,19.0,0.051910400390625,0.0797119140625,Waiting,-5.0181818181818185,4.125,-1411.0,-225.0,-1680.0,-1600.0,0.0,0.0,
1.5179320000000007,4.375,0.0,-75.0,0.0,0.0,0.0,0.0,0.125,3.867187104,0.0,0.0,146.0,0.0,0.0,-0.0,0.0,0.0,1.849365045,0.0,0.0,232.0,0.0,0.0,0.0,0.0,0.0,4.887694812,0.0,0.0,-133.0,0.0,0.0,-0.0,0.0,0.0,2.862548535,0.0,0.0,1.0800000429153442,0.20999999344348907,103.73999786376953,0.024169921875,0.0272216796875,1.00506591796875,31.40999984741211,0.0,3.0,0.051910400390625,0.0798187255859375,Waiting,-4.993939393939394,4.125,-1411.0,-225.0,-1680.0,-1600.0,0.0,0.0,
1.5388050000000002,4.375,0.0,-75.0,0.0,0.0,0.0,0.0,0.125,3.867187104,0.0,0.0,146.0,0.0,0.0,-0.0,0.0,0.0,1.848144342,0.0,0.0,232.0,0.0,0.0,0.0,0.0,0.0,4.887694812,0.0,0.0,-133.0,0.0,0.0,-0.0,0.0,0.0,2.863769238,0.0,0.0,1.0800000429153442,0.2199999988079071,103.73999786376953,-0.00787353515625,0.01019287109375,1.04254150390625,31.40999984741211,0.0,-6.0,0.051910400390625,0.0799407958984375,Waiting,-4.96969696969697,4.125,-1411.0,-225.0,-1680.0,-1600.0,0.0,0.0,
1.5582999999999956,4.375,0.0,-75.0,0.0,0.0,0.0,0.0,0.125,3.867187104,0.0,0.0,146.0,0.0,0.0,-0.0,0.0,0.0,1.849365045,0.0,0.0,232.0,0.0,0.0,0.0,0.0,0.0,4.888915515,0.0,0.0,-133.0,0.0,0.0,-0.0,0.0,0.0,2.863769238,0.0,0.0,1.090000033378601,0.20999999344348907,103.73999786376953,-0.00311279296875,0.0208740234375,1.0003662109375,31.40999984741211,0.0,3.0,0.051910400390625,0.0799407958984375,Waiting,-5.078787878787879,4.0,-1682.0,-224.0,-1680.0,-1600.0,0.0,0.0,
1.5785239999999976,4.75,0.0,-75.0,0.0,0.0,0.0,0.0,0.125,3.868407807,0.0,0.0,146.0,0.0,0.0,-0.0,0.0,0.0,1.849365045,0.0,0.0,232.0,0.0,0.0,0.0,0.0,0.0,4.888915515,0.0,0.0,-133.0,0.0,0.0,-0.0,0.0,0.0,2.862548535,0.0,0.0,1.090000033378601,0.2199999988079071,103.73999786376953,0.01123046875,0.015625,1.0029296875,31.40999984741211,0.0,-5.0,0.051910400390625,0.0799407958984375,Waiting,-5.066666666666666,4.25,-1682.0,-224.0,-1672.5,-1600.0,0.0,0.0,
1.6005699999999996,4.75,0.0,-75.0,0.0,0.0,0.0,0.0,0.125,3.868407807,0.0,0.0,146.0,0.0,0.0,-0.0,0.0,0.0,1.849365045,0.0,0.0,232.0,0.0,0.0,0.0,0.0,0.0,4.888915515,0.0,0.0,-133.0,0.0,0.0,-0.0,0.0,0.0,2.863769238,0.0,0.0,1.090000033378601,0.20000000298023224,103.75,0.01214599609375,0.0345458984375,1.005615234375,31.40999984741211,0.0,12.0,0.051910400390625,0.0799407958984375,Waiting,-5.042424242424243,4.25,-1682.0,-224.0,-1672.5,-1600.0,0.0,0.0,
1.6180950000000012,4.0,0.0,-75.0,0.0,0.0,0.0,0.0,0.125,3.867187104,0.0,0.0,146.0,0.0,0.0,-0.0,0.0,0.0,1.8420408270000002,0.0,0.0,232.0,0.0,0.0,0.0,0.0,0.0,4.888915515,0.0,0.0,-133.0,0.0,0.0,-0.0,0.0,0.0,2.861327832,0.0,0.0,1.100000023841858,0.2199999988079071,103.73999786376953,0.01324462890625,0.05084228515625,0.9793701171875,31.40999984741211,0.0,28.0,0.05194091796875,0.0799407958984375,Waiting,-5.0181818181818185,4.25,-1682.0,-224.0,-1672.5,-1600.0,0.0,0.0,
1.638601999999999,4.0,0.0,-75.0,0.0,0.0,0.0,0.0,0.125,3.867187104,0.0,0.0,146.0,0.0,0.0,-0.0,0.0,0.0,1.848144342,0.0,0.0,232.0,0.0,0.0,0.0,0.0,0.0,4.887694812,0.0,0.0,-133.0,0.0,0.0,-0.0,0.0,0.0,2.862548535,0.0,0.0,1.1100000143051147,0.2199999988079071,103.73999786376953,0.0206298828125,0.02703857421875,0.98089599609375,31.40999984741211,0.0,3.0,0.052001953125,0.0799407958984375,Waiting,-4.993939393939394,4.25,-1682.0,-224.0,-1672.5,-1600.0,0.0,0.0,
1.6580380000000006,4.0,0.0,-75.0,0.0,0.0,0.0,0.0,0.125,3.868407807,0.0,0.0,146.0,0.0,0.0,-0.0,0.0,0.0,1.849365045,0.0,0.0,232.0,0.0,0.0,0.0,0.0,0.0,4.888915515,0.0,0.0,-133.0,0.0,0.0,-0.0,0.0,0.0,2.862548535,0.0,0.0,1.1200000047683716,0.2199999988079071,103.73999786376953,-0.00250244140625,0.02679443359375,1.04638671875,31.40999984741211,0.0,7.0,0.05206298828125,0.0799407958984375,Waiting,-4.981818181818182,4.125,-1682.0,-224.0,-1672.5,-1600.0,0.0,0.0,
1.6779389999999985,4.0,0.0,-75.0,0.0,0.0,0.0,0.0,0.125,3.868407807,0.0,0.0,146.0,0.0,0.0,-0.0,0.0,0.0,1.849365045,0.0,0.0,232.0,0.0,0.0,0.0,0.0,0.0,4.887694812,0.0,0.0,-133.0,0.0,0.0,-0.0,0.0,0.0,2.862548535,0.0,0.0,1.100000023841858,0.20999999344348907,103.73999786376953,-0.00750732421875,0.010009765625,0.9949951171875,31.40999984741211,0.0,-6.0,0.05206298828125,0.0799407958984375,Waiting,-5.1030303030303035,4.375,-1947.0,-222.0,-1665.0,-1600.0,0.0,0.0,
1.7010380000000005,4.5,0.0,-75.0,0.0,0.0,0.0,0.0,0.125,3.868407807,0.0,0.0,146.0,0.0,0.0,-0.0,0.0,0.0,1.8444822330000001,0.0,0.0,232.0,0.0,0.0,0.0,0.0,0.0,4.888915515,0.0,0.0,-133.0,0.0,0.0,-0.0,0.0,0.0,2.862548535,0.0,0.0,1.090000033378601,0.20000000298023224,103.73999786376953,-6.103515625E-5,0.0347900390625,1.0479736328125,31.40999984741211,0.0,15.0,0.05206298828125,0.0799407958984375,Waiting,-5.078787878787879,4.375,-1947.0,-222.0,-1665.0,-1600.0,0.0,0.0,
1.7190369999999966,4.5,0.0,-75.0,0.0,0.0,0.0,0.0,0.125,3.867187104,0.0,0.0,146.0,0.0,0.0,-0.0,0.0,0.0,1.849365045,0.0,0.0,232.0,0.0,0.0,0.0,0.0,0.0,4.888915515,0.0,0.0,-133.0,0.0,0.0,-0.0,0.0,0.0,2.863769238,0.0,0.0,1.090000033378601,0.20000000298023224,103.73999786376953,0.0059814453125,0.0086669921875,0.97491455078125,31.40999984741211,0.0,-10.0,0.05206298828125,0.0799407958984375,Waiting,-5.054545454545455,4.5,-1947.0,-222.0,-1665.0,-1600.0,0.0,0.0,
1.737729999999996,5.0,0.0,-75.0,0.0,0.0,0.0,0.0,0.125,3.858642183,0.0,0.0,146.0,0.0,0.0,-0.0,0.0,0.0,1.849365045,0.0,0.0,232.0,0.0,0.0,0.0,0.0,0.0,4.890136218,0.0,0.0,-133.0,0.0,0.0,-0.0,0.0,0.0,2.862548535,0.0,0.0,1.090000033378601,0.2199999988079071,103.73999786376953,0.00537109375,-0.00347900390625,1.07525634765625,31.40999984741211,0.0,-23.0,0.0519866943359375,0.07989501953125,Waiting,-5.03030303030303,4.25,-1947.0,-222.0,-1665.0,-1600.0,0.0,0.0,
1.7579569999999949,5.0,0.0,-75.0,0.0,0.0,0.0,0.0,0.125,3.868407807,0.0,0.0,146.0,0.0,0.0,-0.0,0.0,0.0,1.848144342,0.0,0.0,232.0,0.0,0.0,0.0,0.0,0.0,4.888915515,0.0,0.0,-133.0,0.0,0.0,-0.0,0.0,0.0,2.861327832,0.0,0.0,1.100000023841858,0.2199999988079071,103.73999786376953,0.01068115234375,-0.0093994140625,0.96697998046875,31.40999984741211,0.0,-28.0,0.0518951416015625,0.079864501953125,Waiting,-5.006060606060606,4.25,-1947.0,-222.0,-1665.0,-1600.0,0.0,0.0,
1.7776419999999997,5.0,0.0,-75.0,0.0,0.0,0.0,0.0,0.125,3.868407807,0.0,0.0,146.0,0.0,0.0,-0.0,0.0,0.0,1.849365045,0.0,0.0,232.0,0.0,0.0,0.0,0.0,0.0,4.888915515,0.0,0.0,-133.0,0.0,0.0,-0.0,0.0,0.0,2.862548535,0.0,0.0,1.090000033378601,0.2199999988079071,103.73999786376953,-0.01300048828125,0.00274658203125,0.98834228515625,31.40999984741211,0.0,-11.0,0.0517730712890625,0.0798492431640625,Waiting,-5.006060606060606,4.125,-1947.0,-222.0,-1665.0,-1600.0,0.0,0.0,
1.8011349999999948,5.0,0.0,-75.0,0.0,0.0,0.0,0.0,0.0,3.867187104,0.0,0.0,146.0,0.0,0.0,-0.0,0.0,0.0,1.849365045,0.0,0.0,232.0,0.0,0.0,0.0,0.0,0.0,4.888915515,0.0,0.0,-133.0,0.0,0.0,-0.0,0.0,0.0,2.862548535,0.0,0.0,1.090000033378601,0.2199999988079071,103.73999786376953,-0.00201416015625,0.01715087890625,0.9658203125,31.40999984741211,0.0,0.0,0.0516357421875,0.079864501953125,Waiting,-5.001906158357772,4.125,-2214.0,-222.0,-1665.0,-1600.0,0.0,0.0,
1.8267900000000008,4.75,0.0,-75.0,0.0,0.0,0.0,0.0,0.0,3.868407807,0.0,0.0,146.0,0.0,0.0,-0.0,0.0,0.0,1.849365045,0.0,0.0,232.0,0.0,0.0,0.0,0.0,0.0,4.890136218,0.0,0.0,-133.0,0.0,0.0,-0.0,0.0,0.0,2.862548535,0.0,0.0,1.100000023841858,0.2199999988079071,103.73999786376953,0.00433349609375,0.0247802734375,1.02435302734375,31.40999984741211,0.0,4.0,0.0516357421875,0.079864501953125,Waiting,-4.965395894428153,4.125,-2214.0,-222.0,-1665.0,-1600.0,0.0,0.0,
1.8408299999999944,4.75,0.0,-75.0,0.0,0.0,0.0,0.0,0.0,3.868407807,0.0,0.0,146.0,0.0,0.0,-0.0,0.0,0.0,1.848144342,0.0,0.0,232.0,0.0,0.0,0.0,0.0,0.0,4.887694812,0.0,0.0,-133.0,0.0,0.0,-0.0,0.0,0.0,2.862548535,0.0,0.0,1.100000023841858,0.2199999988079071,103.73999786376953,-0.0181884765625,0.00921630859375,0.99432373046875,31.40999984741211,0.0,-4.0,0.0516357421875,0.0798797607421875,Waiting,-4.953225806451614,4.0,-2214.0,-222.0,-1665.0,-1600.0,0.0,0.0,
1.8574530000000014,4.75,0.0,-75.0,0.0,0.0,0.0,0.0,0.0,3.868407807,0.0,0.0,146.0,0.0,0.0,-0.0,0.0,0.0,1.849365045,0.0,0.0,232.0,0.0,0.0,0.0,0.0,0.0,4.888915515,0.0,0.0,-133.0,0.0,0.0,-0.0,0.0,0.0,2.862548535,0.0,0.0,1.090000033378601,0.20999999344348907,103.73999786376953,-0.01104736328125,0.01849365234375,0.983154296875,31.40999984741211,0.0,3.0,0.0516357421875,0.079925537109375,Waiting,-7.496774193548387,4.0,-2214.0,-222.0,-1665.0,-1600.0,0.0,0.0,
1.8782819999999993,4.75,0.0,-75.0,0.0,0.0,0.0,0.0,0.0,3.865966401,0.0,0.0,146.0,0.0,0.0,-0.0,0.0,0.0,1.849365045,0.0,0.0,232.0,0.0,0.0,0.0,0.0,0.0,4.887694812,0.0,0.0,-133.0,0.0,0.0,-0.0,0.0,0.0,2.862548535,0.0,0.0,1.0800000429153442,0.20999999344348907,103.73999786376953,0.03497314453125,0.00830078125,1.00640869140625,31.40999984741211,0.0,-17.0,0.0516357421875,0.079986572265625,Waiting,-5.05058651026393,4.25,-2214.0,-222.0,-1657.5,-1600.0,0.0,0.0,
1.8998889999999955,4.0,0.0,-75.0,0.0,0.0,0.0,0.0,0.0,3.867187104,0.0,0.0,146.0,0.0,0.0,-0.0,0.0,0.0,1.849365045,0.0,0.0,232.0,0.0,0.0,0.0,0.0,0.0,4.888915515,0.0,0.0,-133.0,0.0,0.0,-0.0,0.0,0.0,2.862548535,0.0,0.0,1.0800000429153442,0.2199999988079071,103.73999786376953,0.03839111328125,0.00933837890625,1.03955078125,31.40999984741211,0.0,-18.0,0.0516357421875,0.0799560546875,Waiting,-5.0262463343108505,4.25,-2214.0,-222.0,-1657.5,-1600.0,0.0,0.0,
1.9186059999999998,4.0,0.0,-75.0,0.0,0.0,0.0,0.0,0.125,3.868407807,0.0,0.0,146.0,0.0,0.0,-0.0,0.0,0.0,1.848144342,0.0,0.0,232.0,0.0,0.0,0.0,0.0,0.0,4.887694812,0.0,0.0,-133.0,0.0,0.0,-0.0,0.0,0.0,2.862548535,0.0,0.0,1.0800000429153442,0.2199999988079071,103.73999786376953,0.0013427734375,0.0203857421875,0.98565673828125,31.420000076293945,0.0,2.0,0.0516357421875,0.079925537109375,Waiting,-4.993939393939394,4.375,-2480.0,-221.0,-1657.5,-1600.0,0.0,0.0,
1.938189999999995,4.75,0.0,-75.0,0.0,0.0,0.0,0.0,0.0,3.867187104,0.0,0.0,146.0,0.0,0.0,-0.0,0.0,0.0,1.848144342,0.0,0.0,232.0,0.0,0.0,0.0,0.0,0.0,4.887694812,0.0,0.0,-133.0,0.0,0.0,-0.0,0.0,0.0,2.862548535,0.0,0.0,1.0800000429153442,0.2199999988079071,103.73999786376953,0.01251220703125,0.0333251953125,0.993896484375,31.420000076293945,0.0,11.0,0.0516357421875,0.079925537109375,Waiting,-4.981818181818182,4.25,-2480.0,-221.0,-1657.5,-1600.0,0.0,0.0,
1.9579170000000012,4.75,0.0,-75.0,0.0,0.0,0.0,0.0,0.0,3.867187104,0.0,0.0,146.0,0.0,0.0,-0.0,0.0,0.0,1.848144342,0.0,0.0,232.0,0.0,0.0,0.0,0.0,0.0,4.888915515,0.0,0.0,-133.0,0.0,0.0,-0.0,0.0,0.0,2.862548535,0.0,0.0,1.090000033378601,0.2199999988079071,103.75,0.0255126953125,0.02960205078125,0.99237060546875,31.420000076293945,0.0,5.0,0.0516357421875,0.07989501953125,Waiting,-4.957575757575758,4.125,-2480.0,-221.0,-1657.5,-1600.0,0.0,0.0,
1.9774629999999962,4.75,0.0,-75.0,0.0,0.0,0.0,0.0,0.0,3.86962851,0.0,0.0,146.0,0.0,0.0,-0.0,0.0,0.0,1.848144342,0.0,0.0,232.0,0.0,0.0,0.0,0.0,0.0,4.887694812,0.0,0.0,-133.0,0.0,0.0,-0.0,0.0,0.0,2.863769238,0.0,0.0,1.100000023841858,0.2199999988079071,103.75,0.0166015625,0.02569580078125,1.01873779296875,31.420000076293945,0.0,2.0,0.0516357421875,0.0798492431640625,Waiting,-4.945454545454545,4.125,-2480.0,-221.0,-1657.5,-1600.0,0.0,0.0,
2.001390999999996,4.75,0.0,-75.0,0.0,0.0,0.0,0.0,0.0,3.859862886,0.0,0.0,146.0,0.0,0.0,-0.0,0.0,0.0,1.849365045,0.0,0.0,232.0,0.0,0.0,0.0,0.0,0.0,4.888915515,0.0,0.0,-133.0,0.0,0.0,-0.0,0.0,0.0,2.862548535,0.0,0.0,1.0800000429153442,0.2199999988079071,103.73999786376953,9.765625E-4,0.01202392578125,1.00909423828125,31.420000076293945,0.0,-6.0,0.0516357421875,0.07977294921875,Waiting,-5.054545454545455,4.125,-2480.0,-221.0,-1657.5,-1600.0,0.0,0.0,
2.018445,4.5,0.0,-75.0,0.0,0.0,0.0,0.0,0.0,3.868407807,0.0,0.0,146.0,0.0,0.0,-0.0,0.0,0.0,1.849365045,0.0,0.0,232.0,0.0,0.0,0.0,0.0,0.0,4.888915515,0.0,0.0,-133.0,0.0,0.0,-0.0,0.0,0.0,2.862548535,0.0,0.0,1.0800000429153442,0.20999999344348907,103.73999786376953,-0.01025390625,0.03326416015625,0.99664306640625,31.420000076293945,0.0,17.0,0.0516357421875,0.0797576904296875,Waiting,-5.054545454545455,4.25,-2480.0,-221.0,-1650.0,-1600.0,0.0,0.0,
2.0385079999999944,4.5,0.0,-75.0,0.0,0.0,0.0,0.0,0.0,3.86962851,0.0,0.0,146.0,0.0,0.0,-0.0,0.0,0.0,1.849365045,0.0,0.0,232.0,0.0,0.0,0.0,0.0,0.0,4.888915515,0.0,0.0,-133.0,0.0,0.0,-0.0,0.0,0.0,2.862548535,0.0,0.0,1.090000033378601,0.2199999988079071,103.73999786376953,0.01702880859375,0.020751953125,0.99908447265625,31.420000076293945,0.0,-1.0,0.0516357421875,0.0797576904296875,Waiting,-5.05058651026393,4.25,-2745.0,-220.0,-1650.0,-1600.0,0.0,0.0,
2.058339,4.875,0.0,-75.0,0.0,0.0,0.0,0.0,0.0,3.868407807,0.0,0.0,146.0,0.0,0.0,-0.0,0.0,0.0,1.848144342,0.0,0.0,232.0,0.0,0.0,0.0,0.0,0.0,4.888915515,0.0,0.0,-133.0,0.0,0.0,-0.0,0.0,0.0,2.862548535,0.0,0.0,1.0800000429153442,0.23000000417232513,103.73999786376953,-0.0086669921875,0.0208740234375,1.0306396484375,31.420000076293945,0.0,4.0,0.0516357421875,0.0797576904296875,Waiting,-5.038416422287391,4.25,-2745.0,-220.0,-1650.0,-1600.0,0.0,0.0,
2.078430999999997,4.875,0.0,-75.0,0.0,0.0,0.0,0.0,0.0,3.867187104,0.0,0.0,146.0,0.0,0.0,-0.0,0.0,0.0,1.848144342,0.0,0.0,232.0,0.0,0.0,0.0,0.0,0.0,4.888915515,0.0,0.0,-133.0,0.0,0.0,-0.0,0.0,0.0,2.862548535,0.0,0.0,1.0700000524520874,0.2199999988079071,103.73999786376953,0.00762939453125,0.044189453125,0.98297119140625,31.420000076293945,0.0,24.0,0.051666259765625,0.0797576904296875,Waiting,-5.014076246334311,4.25,-2745.0,-220.0,-1650.0,-1600.0,0.0,0.0,
2.100979999999996,4.875,0.0,-75.0,0.0,0.0,0.0,0.0,0.125,3.867187104,0.0,0.0,146.0,0.0,0.0,-0.0,0.0,0.0,1.848144342,0.0,0.0,232.0,0.0,0.0,0.0,0.0,0.0,4.888915515,0.0,0.0,-133.0,0.0,0.0,-0.0,0.0,0.0,2.862548535,0.0,0.0,1.090000033378601,0.2199999988079071,103.73999786376953,-0.00152587890625,0.04803466796875,0.9649658203125,31.420000076293945,0.0,30.0,0.0518035888671875,0.0797576904296875,Waiting,-5.001906158357772,4.125,-2745.0,-220.0,-1650.0,-1600.0,0.0,0.0,
2.118945999999996,4.875,0.0,-75.0,0.0,0.0,0.0,0.0,0.125,3.867187104,0.0,0.0,146.0,0.0,0.0,-0.0,0.0,0.0,1.849365045,0.0,0.0,232.0,0.0,0.0,0.0,0.0,0.0,4.890136218,0.0,0.0,-133.0,0.0,0.0,-0.0,0.0,0.0,2.862548535,0.0,0.0,1.090000033378601,0.23000000417232513,103.73999786376953,-0.0013427734375,0.02001953125,1.03851318359375,31.420000076293945,0.0,1.0,0.051910400390625,0.0797576904296875,Waiting,-4.989736070381231,4.125,-2745.0,-220.0,-1650.0,-1600.0,0.0,0.0,
2.138593999999997,4.0,0.0,-75.0,0.0,0.0,0.0,0.0,0.125,3.867187104,0.0,0.0,146.0,0.0,0.0,-0.0,0.0,0.0,1.848144342,0.0,0.0,232.0,0.0,0.0,0.0,0.0,0.0,4.888915515,0.0,0.0,-133.0,0.0,0.0,-0.0,0.0,0.0,2.862548535,0.0,0.0,1.100000023841858,0.20999999344348907,103.73999786376953,-0.008056640625,0.00726318359375,1.00836181640625,31.420000076293945,0.0,-8.0,0.052032470703125,0.0797576904296875,Waiting,-4.977565982404692,4.125,-2745.0,-220.0,-1650.0,-1600.0,0.0,0.0,
2.157959999999999,4.0,0.0,-75.0,0.0,0.0,0.0,0.0,0.125,3.868407807,0.0,0.0,146.0,0.0,0.0,-0.0,0.0,0.0,1.849365045,0.0,0.0,232.0,0.0,0.0,0.0,0.0,0.0,4.886474109,0.0,0.0,-133.0,0.0,0.0,-0.0,0.0,0.0,2.862548535,0.0,0.0,1.090000033378601,0.20999999344348907,103.73999786376953,0.01177978515625,-0.01220703125,0.9949951171875,31.420000076293945,0.0,-32.0,0.0521697998046875,0.0797576904296875,Waiting,-4.965395894428153,4.125,-3009.0,-220.0,-1650.0,-1600.0,0.0,0.0,
2.1790479999999954,4.0,0.0,-75.0,0.0,0.0,0.0,0.0,0.125,3.868407807,0.0,0.0,146.0,0.0,0.0,-0.0,0.0,0.0,1.849365045,0.0,0.0,232.0,0.0,0.0,0.0,0.0,0.0,4.885253406,0.0,0.0,-133.0,0.0,0.0,-0.0,0.0,0.0,2.862548535,0.0,0.0,1.090000033378601,0.2199999988079071,103.73999786376953,0.0135498046875,-0.00164794921875,1.071044921875,31.420000076293945,0.0,-23.0,0.0521697998046875,0.0797576904296875,Waiting,-5.074926686217009,4.25,-3009.0,-220.0,-1642.5,-1600.0,0.0,0.0,
2.199684999999998,4.5,0.0,-75.0,0.0,0.0,0.0,0.0,0.125,3.867187104,0.0,0.0,146.0,0.0,0.0,-0.0,0.0,0.0,1.848144342,0.0,0.0,232.0,0.0,0.0,0.0,0.0,0.0,4.888915515,0.0,0.0,-133.0,0.0,0.0,-0.0,0.0,0.0,2.863769238,0.0,0.0,1.0800000429153442,0.2199999988079071,103.73999786376953,-0.0283203125,0.0303955078125,0.98345947265625,31.420000076293945,0.0,19.0,0.0521392822265625,0.07977294921875,Waiting,-5.06275659824047,4.25,-3009.0,-220.0,-1642.5,-1600.0,0.0,0.0,
2.2186569999999994,4.5,0.0,-75.0,0.0,0.0,0.0,0.0,0.125,3.867187104,0.0,0.0,146.0,0.0,0.0,-0.0,0.0,0.0,1.848144342,0.0,0.0,232.0,0.0,0.0,0.0,0.0,0.0,4.888915515,0.0,0.0,-133.0,0.0,0.0,-0.0,0.0,0.0,2.862548535,0.0,0.0,1.0800000429153442,0.2199999988079071,103.73999786376953,0.0118408203125,0.034423828125,0.963623046875,31.420000076293945,0.0,13.0,0.0521392822265625,0.079803466796875,Waiting,-5.05058651026393,4.375,-3009.0,-220.0,-1642.5,-1600.0,0.0,0.0,
2.238834999999999,4.5,0.0,-75.0,0.0,0.0,0.0,0.0,0.0,3.867187104,0.0,0.0,146.0,0.0,0.0,-0.0,0.0,0.0,1.848144342,0.0,0.0,232.0,0.0,0.0,0.0,0.0,0.0,4.888915515,0.0,0.0,-133.0,0.0,0.0,-0.0,0.0,0.0,2.862548535,0.0,0.0,1.100000023841858,0.2199999988079071,103.73999786376953,-0.00775146484375,0.01580810546875,1.0294189453125,31.420000076293945,0.0,-1.0,0.0521392822265625,0.079833984375,Waiting,-5.038416422287391,4.375,-3009.0,-220.0,-1642.5,-1600.0,0.0,0.0,
2.2577200000000013,4.5,0.0,-75.0,0.0,0.0,0.0,0.0,0.0,3.867187104,0.0,0.0,146.0,0.0,0.0,-0.0,0.0,0.0,1.848144342,0.0,0.0,232.0,0.0,0.0,0.0,0.0,0.0,4.887694812,0.0,0.0,-133.0,0.0,0.0,-0.0,0.0,0.0,2.862548535,0.0,0.0,1.100000023841858,0.2199999988079071,103.73999786376953,0.0,-0.01361083984375,1.01129150390625,31.420000076293945,0.0,-31.0,0.0521240234375,0.079833984375,Waiting,-5.0262463343108505,4.375,-3009.0,-220.0,-1642.5,-1600.0,0.0,0.0,
2.2787079999999986,4.75,0.0,-75.0,0.0,0.0,0.0,0.0,0.0,3.868407807,0.0,0.0,146.0,0.0,0.0,-0.0,0.0,0.0,1.848144342,0.0,0.0,232.0,0.0,0.0,0.0,0.0,0.0,4.887694812,0.0,0.0,-133.0,0.0,0.0,-0.0,0.0,0.0,2.863769238,0.0,0.0,1.100000023841858,0.20000000298023224,103.73999786376953,0.02777099609375,0.03399658203125,0.97796630859375,31.420000076293945,0.0,9.0,0.052001953125,0.0798187255859375,Waiting,-4.993939393939394,4.25,-3272.0,-219.0,-1642.5,-1600.0,0.0,0.0,
2.3010839999999955,4.75,0.0,-75.0,0.0,0.0,0.0,0.0,0.0,3.868407807,0.0,0.0,146.0,0.0,0.0,-0.0,0.0,0.0,1.849365045,0.0,0.0,232.0,0.0,0.0,0.0,0.0,0.0,4.888915515,0.0,0.0,-133.0,0.0,0.0,-0.0,0.0,0.0,2.862548535,0.0,0.0,1.100000023841858,0.2199999988079071,103.73999786376953,0.03643798828125,0.027587890625,1.018798828125,31.420000076293945,0.0,0.0,0.052001953125,0.0797576904296875,Waiting,-4.981818181818182,4.125,-3272.0,-219.0,-1642.5,-1600.0,0.0,0.0,
2.317667999999998,4.75,0.0,-75.0,0.0,0.0,0.0,0.0,0.125,3.867187104,0.0,0.0,146.0,0.0,0.0,-0.0,0.0,0.0,1.848144342,0.0,0.0,232.0,0.0,0.0,0.0,0.0,0.0,4.888915515,0.0,0.0,-133.0,0.0,0.0,-0.0,0.0,0.0,2.862548535,0.0,0.0,1.090000033378601,0.20999999344348907,103.73999786376953,4.2724609375E-4,0.0465087890625,0.9796142578125,31.420000076293945,0.0,27.0,0.052093505859375,0.079681396484375,Waiting,-4.957575757575758,4.125,-3272.0,-219.0,-1642.5,-1600.0,0.0,0.0,
2.338453999999998,4.625,0.0,-75.0,0.0,0.0,0.0,0.0,0.125,3.867187104,0.0,0.0,146.0,0.0,0.0,-0.0,0.0,0.0,1.849365045,0.0,0.0,232.0,0.0,0.0,0.0,0.0,0.0,4.888915515,0.0,0.0,-133.0,0.0,0.0,-0.0,0.0,0.0,2.862548535,0.0,0.0,1.100000023841858,0.2199999988079071,103.73999786376953,0.02777099609375,0.01971435546875,0.98529052734375,31.420000076293945,0.0,-5.0,0.0521697998046875,0.0796661376953125,Waiting,-4.957575757575758,4.125,-3272.0,-219.0,-1642.5,-1600.0,0.0,0.0,
2.3579660000000002,4.625,0.0,-75.0,0.0,0.0,0.0,0.0,0.125,3.867187104,0.0,0.0,146.0,0.0,0.0,-0.0,0.0,0.0,1.849365045,0.0,0.0,232.0,0.0,0.0,0.0,0.0,0.0,4.887694812,0.0,0.0,-133.0,0.0,0.0,-0.0,0.0,0.0,2.862548535,0.0,0.0,1.100000023841858,0.2199999988079071,103.73999786376953,0.00128173828125,0.01654052734375,1.044189453125,31.420000076293945,0.0,-2.0,0.0521697998046875,0.0796356201171875,Waiting,-4.945454545454545,4.125,-3272.0,-219.0,-1642.5,-1600.0,0.0,0.0,
2.3779289999999964,4.625,0.0,-75.0,0.0,0.0,0.0,0.0,0.125,3.867187104,0.0,0.0,146.0,0.0,0.0,-0.0,0.0,0.0,1.848144342,0.0,0.0,232.0,0.0,0.0,0.0,0.0,0.0,4.888915515,0.0,0.0,-133.0,0.0,0.0,-0.0,0.0,0.0,2.863769238,0.0,0.0,1.090000033378601,0.20999999344348907,103.73999786376953,-0.01312255859375,0.02899169921875,1.0379638671875,31.420000076293945,0.0,12.0,0.0521697998046875,0.0796051025390625,Waiting,-5.078787878787879,3.5,-3272.0,-219.0,-1635.0,-1600.0,0.0,0.0,
2.4005049999999972,4.25,0.0,-75.0,0.0,0.0,0.0,0.0,0.125,3.867187104,0.0,0.0,146.0,0.0,0.0,-0.0,0.0,0.0,1.849365045,0.0,0.0,232.0,0.0,0.0,0.0,0.0,0.0,4.887694812,0.0,0.0,-133.0,0.0,0.0,-0.0,0.0,0.0,2.863769238,0.0,0.0,1.090000033378601,0.20999999344348907,103.73999786376953,0.01580810546875,0.02825927734375,1.0009765625,31.420000076293945,0.0,5.0,0.0521697998046875,0.0796051025390625,Waiting,-5.087096774193549,4.5,-3537.0,-218.0,-1635.0,-1600.0,0.0,0.0,
2.4186100000000006,4.25,0.0,-75.0,0.0,0.0,0.0,0.0,0.125,3.867187104,0.0,0.0,146.0,0.0,0.0,-0.0,0.0,0.0,1.849365045,0.0,0.0,232.0,0.0,0.0,0.0,0.0,0.0,4.887694812,0.0,0.0,-133.0,0.0,0.0,-0.0,0.0,0.0,2.863769238,0.0,0.0,1.090000033378601,0.2199999988079071,103.73999786376953,-0.0047607421875,0.0113525390625,1.04296875,31.420000076293945,0.0,-6.0,0.0521697998046875,0.0796051025390625,Waiting,-5.074926686217009,4.625,-3537.0,-218.0,-1635.0,-1600.0,0.0,0.0,
2.438451000000001,4.25,0.0,-75.0,0.0,0.0,0.0,0.0,0.125,3.867187104,0.0,0.0,146.0,0.0,0.0,-0.0,0.0,0.0,1.848144342,0.0,0.0,232.0,0.0,0.0,0.0,0.0,0.0,4.890136218,0.0,0.0,-133.0,0.0,0.0,-0.0,0.0,0.0,2.863769238,0.0,0.0,1.090000033378601,0.20999999344348907,103.73999786376953,0.0111083984375,0.0152587890625,0.98040771484375,31.399999618530273,0.0,-5.0,0.0521697998046875,0.0796051025390625,Waiting,-5.06275659824047,4.625,-3537.0,-218.0,-1635.0,-1600.0,0.0,0.0,
2.459106,4.75,0.0,-75.0,0.0,0.0,0.0,0.0,0.125,3.868407807,0.0,0.0,146.0,0.0,0.0,-0.0,0.0,0.0,1.848144342,0.0,0.0,232.0,0.0,0.0,0.0,0.0,0.0,4.888915515,0.0,0.0,-133.0,0.0,0.0,-0.0,0.0,0.0,2.863769238,0.0,0.0,1.090000033378601,0.2199999988079071,103.73999786376953,0.00372314453125,0.02984619140625,0.974365234375,31.399999618530273,0.0,10.0,0.0521697998046875,0.0796051025390625,Waiting,-5.05058651026393,4.375,-3537.0,-218.0,-1635.0,-1600.0,0.0,0.0,
2.478510999999999,4.75,0.0,-75.0,0.0,0.0,0.0,0.0,0.125,3.868407807,0.0,0.0,146.0,0.0,0.0,-0.0,0.0,0.0,1.849365045,0.0,0.0,232.0,0.0,0.0,0.0,0.0,0.0,4.890136218,0.0,0.0,-133.0,0.0,0.0,-0.0,0.0,0.0,2.863769238,0.0,0.0,1.100000023841858,0.2199999988079071,103.73999786376953,0.00634765625,0.00830078125,1.04400634765625,31.399999618530273,0.0,-11.0,0.0521697998046875,0.0796051025390625,Waiting,-5.038416422287391,4.375,-3537.0,-218.0,-1635.0,-1600.0,0.0,0.0,
2.4995959999999977,4.75,0.0,-75.0,0.0,0.0,0.0,0.0,0.0,3.868407807,0.0,0.0,146.0,0.0,0.0,-0.0,0.0,0.0,1.849365045,0.0,0.0,232.0,0.0,0.0,0.0,0.0,0.0,4.887694812,0.0,0.0,-133.0,0.0,0.0,-0.0,0.0,0.0,2.862548535,0.0,0.0,1.090000033378601,0.20000000298023224,103.73999786376953,0.00408935546875,0.0169677734375,1.03887939453125,31.399999618530273,0.0,-2.0,0.0521697998046875,0.0796051025390625,Waiting,-5.0262463343108505,4.25,-3537.0,-218.0,-1635.0,-1600.0,0.0,0.0,
2.518273000000001,4.75,0.0,-75.0,0.0,0.0,0.0,0.0,0.0,3.867187104,0.0,0.0,146.0,0.0,0.0,-0.0,0.0,0.0,1.849365045,0.0,0.0,232.0,0.0,0.0,0.0,0.0,0.0,4.888915515,0.0,0.0,-133.0,0.0,0.0,-0.0,0.0,0.0,2.862548535,0.0,0.0,1.090000033378601,0.20999999344348907,103.73999786376953,0.03631591796875,0.00714111328125,0.97515869140625,31.399999618530273,0.0,-18.0,0.0521697998046875,0.07958984375,Waiting,-4.993939393939394,4.25,-3797.0,-218.0,-1635.0,-1600.0,0.0,0.0,
2.5385859999999956,4.75,0.0,-75.0,0.0,0.0,0.0,0.0,0.0,3.865966401,0.0,0.0,146.0,0.0,0.0,-0.0,0.0,0.0,1.848144342,0.0,0.0,232.0,0.0,0.0,0.0,0.0,0.0,4.888915515,0.0,0.0,-133.0,0.0,0.0,-0.0,0.0,0.0,2.862548535,0.0,0.0,1.0800000429153442,0.2199999988079071,103.73999786376953,-5.4931640625E-4,0.01654052734375,0.95703125,31.399999618530273,0.0,0.0,0.0521697998046875,0.0795135498046875,Waiting,-4.981818181818182,4.25,-3797.0,-218.0,-1635.0,-1600.0,0.0,0.0,
2.558095000000001,4.75,0.0,-75.0,0.0,0.0,0.0,0.0,0.125,3.868407807,0.0,0.0,146.0,0.0,0.0,-0.0,0.0,0.0,1.849365045,0.0,0.0,232.0,0.0,0.0,0.0,0.0,0.0,4.887694812,0.0,0.0,-133.0,0.0,0.0,-0.0,0.0,0.0,2.863769238,0.0,0.0,1.090000033378601,0.20999999344348907,103.73999786376953,0.02215576171875,0.0340576171875,0.97637939453125,31.399999618530273,0.0,10.0,0.0521697998046875,0.0794677734375,Waiting,-4.981818181818182,4.25,-3797.0,-218.0,-1635.0,-1600.0,0.0,0.0,
2.578867999999995,4.75,0.0,-75.0,0.0,0.0,0.0,0.0,0.125,3.867187104,0.0,0.0,146.0,0.0,0.0,-0.0,0.0,0.0,1.848144342,0.0,0.0,232.0,0.0,0.0,0.0,0.0,0.0,4.888915515,0.0,0.0,-133.0,0.0,0.0,-0.0,0.0,0.0,2.862548535,0.0,0.0,1.090000033378601,0.2199999988079071,103.73999786376953,-0.00665283203125,0.02203369140625,1.0184326171875,31.399999618530273,0.0,4.0,0.0521697998046875,0.07940673828125,Waiting,-4.96969696969697,4.25,-3797.0,-218.0,-1635.0,-1600.0,0.0,0.0,
2.599557000000001,4.75,0.0,-75.0,0.0,0.0,0.0,0.0,0.125,3.867187104,0.0,0.0,146.0,0.0,0.0,-0.0,0.0,0.0,1.848144342,0.0,0.0,232.0,0.0,0.0,0.0,0.0,0.0,4.888915515,0.0,0.0,-133.0,0.0,0.0,-0.0,0.0,0.0,2.862548535,0.0,0.0,1.090000033378601,0.20000000298023224,103.73999786376953,-0.00921630859375,0.03662109375,0.9879150390625,31.399999618530273,0.0,20.0,0.05218505859375,0.079376220703125,Waiting,-4.957575757575758,4.125,-3797.0,-218.0,-1635.0,-1600.0,0.0,0.0,
2.6187350000000005,4.75,0.0,-75.0,0.0,0.0,0.0,0.0,0.125,3.868407807,0.0,0.0,146.0,0.0,0.0,-0.0,0.0,0.0,1.848144342,0.0,0.0,232.0,0.0,0.0,0.0,0.0,0.0,4.888915515,0.0,0.0,-133.0,0.0,0.0,-0.0,0.0,0.0,2.863769238,0.0,0.0,1.100000023841858,0.20999999344348907,103.73999786376953,0.01312255859375,0.03546142578125,0.97589111328125,31.399999618530273,0.0,13.0,0.0522308349609375,0.079376220703125,Waiting,-4.945454545454545,4.125,-3797.0,-218.0,-1635.0,-1600.0,0.0,0.0,
2.638581999999995,4.25,0.0,-75.0,0.0,0.0,0.0,0.0,0.125,3.868407807,0.0,0.0,146.0,0.0,0.0,-0.0,0.0,0.0,1.848144342,0.0,0.0,232.0,0.0,0.0,0.0,0.0,0.0,4.888915515,0.0,0.0,-133.0,0.0,0.0,-0.0,0.0,0.0,2.863769238,0.0,0.0,1.090000033378601,0.20999999344348907,103.7300033569336,0.0030517578125,0.04217529296875,1.05859375,31.399999618530273,0.0,21.0,0.0522918701171875,0.079376220703125,Waiting,-4.953225806451614,4.125,-4059.0,-218.0,-1635.0,-1600.0,0.0,0.0,
2.6580579999999974,4.25,0.0,-75.0,0.0,0.0,0.0,0.0,0.125,3.863524995,0.0,0.0,146.0,0.0,0.0,-0.0,0.0,0.0,1.848144342,0.0,0.0,232.0,0.0,0.0,0.0,0.0,0.0,4.888915515,0.0,0.0,-133.0,0.0,0.0,-0.0,0.0,0.0,2.862548535,0.0,0.0,1.090000033378601,0.2199999988079071,103.7300033569336,0.0133056640625,0.02545166015625,0.9884033203125,31.399999618530273,0.0,4.0,0.052459716796875,0.079376220703125,Waiting,-4.941055718475074,4.125,-4059.0,-218.0,-1635.0,-1600.0,0.0,0.0,
2.678809000000001,4.25,0.0,-75.0,0.0,0.0,0.0,0.0,0.125,3.868407807,0.0,0.0,146.0,0.0,0.0,-0.0,0.0,0.0,1.849365045,0.0,0.0,232.0,0.0,0.0,0.0,0.0,0.0,4.888915515,0.0,0.0,-133.0,0.0,0.0,-0.0,0.0,0.0,2.862548535,0.0,0.0,1.100000023841858,0.20999999344348907,103.7300033569336,-0.01263427734375,0.04052734375,1.03802490234375,31.399999618530273,0.0,23.0,0.0525665283203125,0.079376220703125,Waiting,-4.928885630498534,4.0,-4059.0,-218.0,-1635.0,-1600.0,0.0,0.0,
2.698487000000001,4.25,0.0,-75.0,0.0,0.0,0.0,0.0,0.0,3.867187104,0.0,0.0,146.0,0.0,0.0,-0.0,0.0,0.0,1.849365045,0.0,0.0,232.0,0.0,0.0,0.0,0.0,0.0,4.888915515,0.0,0.0,-133.0,0.0,0.0,-0.0,0.0,0.0,2.863769238,0.0,0.0,1.100000023841858,0.2199999988079071,103.7300033569336,-0.01507568359375,0.00775146484375,1.01080322265625,31.399999618530273,0.0,-6.0,0.05267333984375,0.0793914794921875,Waiting,-4.916715542521994,4.25,-4059.0,-218.0,-1627.5,-1600.0,0.0,0.0,
2.718523000000001,4.375,0.0,-75.0,0.0,0.0,0.0,0.0,0.0,3.868407807,0.0,0.0,146.0,0.0,0.0,-0.0,0.0,0.0,1.848144342,0.0,0.0,232.0,0.0,0.0,0.0,0.0,0.0,4.888915515,0.0,0.0,-133.0,0.0,0.0,-0.0,0.0,0.0,2.863769238,0.0,0.0,1.100000023841858,0.20999999344348907,103.7300033569336,0.02093505859375,0.01458740234375,1.0035400390625,31.399999618530273,0.0,-8.0,0.0527801513671875,0.07952880859375,Waiting,-5.038416422287391,4.25,-4059.0,-218.0,-1627.5,-1600.0,0.0,0.0,
2.7382779999999984,4.375,0.0,-75.0,0.0,0.0,0.0,0.0,0.0,3.865966401,0.0,0.0,146.0,0.0,0.0,-0.0,0.0,0.0,1.849365045,0.0,0.0,232.0,0.0,0.0,0.0,0.0,0.0,4.887694812,0.0,0.0,-133.0,0.0,0.0,-0.0,0.0,0.0,2.862548535,0.0,0.0,1.090000033378601,0.2199999988079071,103.7300033569336,0.006103515625,-0.00225830078125,1.03546142578125,31.399999618530273,0.0,-21.0,0.052764892578125,0.07952880859375,Waiting,-5.038416422287391,4.25,-4059.0,-218.0,-1627.5,-1600.0,0.0,0.0,
2.7583129999999945,4.875,0.0,-75.0,0.0,0.0,0.0,0.0,0.125,3.867187104,0.0,0.0,146.0,0.0,0.0,-0.0,0.0,0.0,1.848144342,0.0,0.0,232.0,0.0,0.0,0.0,0.0,0.0,4.887694812,0.0,0.0,-133.0,0.0,0.0,-0.0,0.0,0.0,2.862548535,0.0,0.0,1.090000033378601,0.20999999344348907,103.7300033569336,-0.01495361328125,0.00225830078125,1.00201416015625,31.399999618530273,0.0,-11.0,0.0527191162109375,0.0795440673828125,Waiting,-5.046432062561095,4.375,-4320.0,-217.0,-1627.5,-1600.0,0.0,0.0,
2.7785,4.875,0.0,-75.0,0.0,0.0,0.0,0.0,0.125,3.865966401,0.0,0.0,146.0,0.0,0.0,-0.0,0.0,0.0,1.849365045,0.0,0.0,232.0,0.0,0.0,0.0,0.0,0.0,4.888915515,0.0,0.0,-133.0,0.0,0.0,-0.0,0.0,0.0,2.863769238,0.0,0.0,1.100000023841858,0.2199999988079071,103.7300033569336,-0.01837158203125,0.023193359375,1.0802001953125,31.399999618530273,0.0,7.0,0.05267333984375,0.079620361328125,Waiting,-5.034213098729228,4.375,-4320.0,-217.0,-1627.5,-1600.0,0.0,0.0,
2.7989209999999947,4.875,0.0,-75.0,0.0,0.0,0.0,0.0,0.125,3.867187104,0.0,0.0,146.0,0.0,0.0,-0.0,0.0,0.0,1.849365045,0.0,0.0,232.0,0.0,0.0,0.0,0.0,0.0,4.888915515,0.0,0.0,-133.0,0.0,0.0,-0.0,0.0,0.0,2.862548535,0.0,0.0,1.100000023841858,0.2199999988079071,103.7300033569336,-0.00103759765625,-0.00421142578125,0.9620361328125,31.399999618530273,0.0,-21.0,0.05267333984375,0.079681396484375,Waiting,-5.034213098729228,4.25,-4320.0,-217.0,-1627.5,-1600.0,0.0,0.0,
2.8182649999999994,4.875,0.0,-75.0,0.0,0.0,0.0,0.0,0.125,3.867187104,0.0,0.0,146.0,0.0,0.0,-0.0,0.0,0.0,1.848144342,0.0,0.0,232.0,0.0,0.0,0.0,0.0,0.0,4.888915515,0.0,0.0,-133.0,0.0,0.0,-0.0,0.0,0.0,2.862548535,0.0,0.0,1.100000023841858,0.20999999344348907,103.7300033569336,4.8828125E-4,0.00372314453125,1.017333984375,31.399999618530273,0.0,-14.0,0.0526275634765625,0.0797576904296875,Waiting,-5.021994134897361,4.25,-4320.0,-217.0,-1627.5,-1600.0,0.0,0.0,
2.8387279999999957,4.75,0.0,-75.0,0.0,0.0,0.0,0.0,0.125,3.867187104,0.0,0.0,146.0,0.0,0.0,-0.0,0.0,0.0,1.849365045,0.0,0.0,232.0,0.0,0.0,0.0,0.0,0.0,4.888915515,0.0,0.0,-133.0,0.0,0.0,-0.0,0.0,0.0,2.862548535,0.0,0.0,1.090000033378601,0.2199999988079071,103.73999786376953,0.02777099609375,-0.02239990234375,0.98095703125,31.399999618530273,0.0,-45.0,0.0524444580078125,0.0797576904296875,Waiting,-5.009775171065494,4.25,-4320.0,-217.0,-1627.5,-1600.0,0.0,0.0,
2.8582739999999975,4.75,0.0,-75.0,0.0,0.0,0.0,0.0,0.125,3.867187104,0.0,0.0,146.0,0.0,0.0,-0.0,0.0,0.0,1.848144342,0.0,0.0,232.0,0.0,0.0,0.0,0.0,0.0,4.888915515,0.0,0.0,-133.0,0.0,0.0,-0.0,0.0,0.0,2.863769238,0.0,0.0,1.090000033378601,0.20999999344348907,103.73999786376953,-0.0042724609375,0.00946044921875,1.01275634765625,31.399999618530273,0.0,-7.0,0.0522918701171875,0.0797576904296875,Waiting,-4.997556207233626,4.125,-4320.0,-217.0,-1627.5,-1600.0,0.0,0.0,
2.8786809999999967,4.75,0.0,-75.0,0.0,0.0,0.0,0.0,0.125,3.86962851,0.0,0.0,146.0,0.0,0.0,-0.0,0.0,0.0,1.848144342,0.0,0.0,232.0,0.0,0.0,0.0,0.0,0.0,4.887694812,0.0,0.0,-133.0,0.0,0.0,-0.0,0.0,0.0,2.862548535,0.0,0.0,1.100000023841858,0.2199999988079071,103.73999786376953,0.00372314453125,0.00830078125,0.9744873046875,31.399999618530273,0.0,-10.0,0.0522918701171875,0.0797576904296875,Waiting,-4.957575757575758,4.25,-4580.0,-217.0,-1627.5,-1600.0,0.0,0.0,
2.9006709999999947,4.75,0.0,-75.0,0.0,0.0,0.0,0.0,0.125,3.867187104,0.0,0.0,146.0,0.0,0.0,-0.0,0.0,0.0,1.848144342,0.0,0.0,232.0,0.0,0.0,0.0,0.0,0.0,4.890136218,0.0,0.0,-133.0,0.0,0.0,-0.0,0.0,0.0,2.863769238,0.0,0.0,1.100000023841858,0.20000000298023224,103.73999786376953,0.00738525390625,0.02484130859375,0.9974365234375,31.399999618530273,0.0,4.0,0.0522918701171875,0.079803466796875,Waiting,-4.945454545454545,4.125,-4580.0,-217.0,-1627.5,-1600.0,0.0,0.0,
2.9185380000000003,4.375,0.0,-75.0,0.0,0.0,0.0,0.0,0.125,3.867187104,0.0,0.0,146.0,0.0,0.0,-0.0,0.0,0.0,1.849365045,0.0,0.0,232.0,0.0,0.0,0.0,0.0,0.0,4.888915515,0.0,0.0,-133.0,0.0,0.0,-0.0,0.0,0.0,2.862548535,0.0,0.0,1.090000033378601,0.20999999344348907,103.73999786376953,0.01849365234375,0.02886962890625,0.9921875,31.399999618530273,0.0,6.0,0.0522918701171875,0.0798187255859375,Waiting,-5.066666666666666,4.25,-4580.0,-217.0,-1620.0,-1600.0,0.0,0.0,
2.9378739999999963,4.375,0.0,-75.0,0.0,0.0,0.0,0.0,0.125,3.868407807,0.0,0.0,146.0,0.0,0.0,-0.0,0.0,0.0,1.849365045,0.0,0.0,232.0,0.0,0.0,0.0,0.0,0.0,4.888915515,0.0,0.0,-133.0,0.0,0.0,-0.0,0.0,0.0,2.862548535,0.0,0.0,1.090000033378601,0.20000000298023224,103.73999786376953,0.01513671875,0.0404052734375,1.0372314453125,31.440000534057617,0.0,17.0,0.0522918701171875,0.0798187255859375,Waiting,-4.933333333333334,4.375,-4580.0,-217.0,-1627.5,-1600.0,0.0,0.0,
2.9591039999999995,4.5,0.0,-75.0,0.0,0.0,0.0,0.0,0.125,3.867187104,0.0,0.0,146.0,0.0,0.0,-0.0,0.0,0.0,1.848144342,0.0,0.0,232.0,0.0,0.0,0.0,0.0,0.0,4.888915515,0.0,0.0,-133.0,0.0,0.0,-0.0,0.0,0.0,2.863769238,0.0,0.0,1.090000033378601,0.20999999344348907,103.73999786376953,0.02593994140625,0.03887939453125,1.01031494140625,31.440000534057617,0.0,13.0,0.0522918701171875,0.0797882080078125,Waiting,-5.054545454545455,4.625,-4580.0,-217.0,-1620.0,-1600.0,0.0,0.0,
2.978502999999997,4.5,0.0,-75.0,0.0,0.0,0.0,0.0,0.125,3.865966401,0.0,0.0,146.0,0.0,0.0,-0.0,0.0,0.0,1.849365045,0.0,0.0,232.0,0.0,0.0,0.0,0.0,0.0,4.887694812,0.0,0.0,-133.0,0.0,0.0,-0.0,0.0,0.0,2.863769238,0.0,0.0,1.100000023841858,0.20999999344348907,103.73999786376953,0.00311279296875,0.01068115234375,1.0296630859375,31.440000534057617,0.0,-8.0,0.0522918701171875,0.079742431640625,Waiting,-5.054545454545455,4.5,-4580.0,-217.0,-1620.0,-1600.0,0.0,0.0,
2.998417999999998,4.5,0.0,-75.0,0.0,0.0,0.0,0.0,0.125,3.867187104,0.0,0.0,146.0,0.0,0.0,-0.0,0.0,0.0,1.849365045,0.0,0.0,232.0,0.0,0.0,0.0,0.0,0.0,4.887694812,0.0,0.0,-133.0,0.0,0.0,-0.0,0.0,0.0,2.862548535,0.0,0.0,1.090000033378601,0.1899999976158142,103.73999786376953,0.011962890625,0.04443359375,1.0325927734375,31.440000534057617,0.0,21.0,0.05230712890625,0.0797119140625,Waiting,-5.042424242424243,4.5,-4840.0,-216.0,-1620.0,-1600.0,0.0,0.0,
3.0199279999999997,4.5,0.0,-75.0,0.0,0.0,0.0,0.0,0.125,3.86962851,0.0,0.0,146.0,0.0,0.0,-0.0,0.0,0.0,1.848144342,0.0,0.0,232.0,0.0,0.0,0.0,0.0,0.0,4.886474109,0.0,0.0,-133.0,0.0,0.0,-0.0,0.0,0.0,2.862548535,0.0,0.0,1.090000033378601,0.1899999976158142,103.73999786376953,0.011962890625,0.04443359375,1.0325927734375,31.440000534057617,0.0,21.0,0.05230712890625,0.0797119140625,Waiting,-5.042424242424243,4.5,-4840.0,-216.0,-1620.0,-1600.0,0.0,0.0,
3.037722999999998,4.75,0.0,-75.0,0.0,0.0,0.0,0.0,0.125,3.868407807,0.0,0.0,146.0,0.0,0.0,-0.0,0.0,0.0,1.849365045,0.0,0.0,232.0,0.0,0.0,0.0,0.0,0.0,4.888915515,0.0,0.0,-133.0,0.0,0.0,-0.0,0.0,0.0,2.862548535,0.0,0.0,1.0800000429153442,0.20999999344348907,103.73999786376953,-0.0179443359375,0.0361328125,1.01617431640625,31.440000534057617,0.0,21.0,0.0523834228515625,0.0796661376953125,Waiting,-5.03030303030303,4.375,-4840.0,-216.0,-1620.0,-1600.0,0.0,0.0,
3.0580509999999994,4.75,0.0,-75.0,0.0,0.0,0.0,0.0,0.125,3.867187104,0.0,0.0,146.0,0.0,0.0,-0.0,0.0,0.0,1.848144342,0.0,0.0,232.0,0.0,0.0,0.0,0.0,0.0,4.890136218,0.0,0.0,-133.0,0.0,0.0,-0.0,0.0,0.0,2.862548535,0.0,0.0,1.090000033378601,0.20000000298023224,103.73999786376953,0.007568359375,0.043212890625,0.9976806640625,31.440000534057617,0.0,22.0,0.0524749755859375,0.0796356201171875,Waiting,-5.0181818181818185,4.375,-4840.0,-216.0,-1620.0,-1600.0,0.0,0.0,
3.0782679999999965,4.75,0.0,-75.0,0.0,0.0,0.0,0.0,0.125,3.867187104,0.0,0.0,146.0,0.0,0.0,-0.0,0.0,0.0,1.848144342,0.0,0.0,232.0,0.0,0.0,0.0,0.0,0.0,4.890136218,0.0,0.0,-133.0,0.0,0.0,-0.0,0.0,0.0,2.863769238,0.0,0.0,1.090000033378601,0.20999999344348907,103.73999786376953,-0.01202392578125,0.037109375,1.00482177734375,31.440000534057617,0.0,21.0,0.052581787109375,0.0796356201171875,Waiting,-5.0181818181818185,4.25,-4840.0,-216.0,-1620.0,-1600.0,0.7,0.0,
3.098406999999999,5.0,0.0,-75.0,0.0,0.0,0.0,0.0,0.125,3.867187104,0.0,0.0,146.0,0.0,0.0,-0.0,0.0,0.0,1.849365045,0.0,0.0,232.0,0.0,0.0,0.0,0.0,0.0,4.888915515,0.0,0.0,-133.0,0.0,0.0,-0.0,0.0,0.0,2.862548535,0.0,0.0,1.090000033378601,0.20000000298023224,103.73999786376953,0.00836181640625,0.00543212890625,1.015380859375,31.440000534057617,0.0,-14.0,0.0527801513671875,0.0797119140625,Waiting,-5.006060606060606,4.25,-4840.0,-216.0,-1620.0,-1600.0,0.7,2.5,
3.118557000000001,5.0,0.0,-75.0,0.0,0.0,0.0,0.0,0.125,3.868407807,0.0,0.0,146.0,0.0,0.0,-0.0,0.0,0.0,1.848144342,0.0,0.0,232.0,0.0,0.0,0.0,0.0,0.0,4.887694812,0.0,0.0,-133.0,0.0,0.0,-0.0,0.0,0.0,2.862548535,0.0,0.0,1.090000033378601,0.20000000298023224,103.73999786376953,0.0225830078125,0.0184326171875,1.01220703125,31.440000534057617,0.0,-5.0,0.0527801513671875,0.0797576904296875,Waiting,-4.965689149560117,4.25,-5101.0,-216.0,-1620.0,-1600.0,0.7,2.5,
3.1389959999999992,5.0,0.0,-75.0,0.0,0.0,0.0,0.0,0.125,3.868407807,0.0,0.0,146.0,0.0,0.0,-0.0,0.0,0.0,1.848144342,0.0,0.0,232.0,0.0,0.0,0.0,0.0,0.0,4.888915515,0.0,0.0,-133.0,0.0,0.0,-0.0,0.0,0.0,2.863769238,0.0,0.0,1.090000033378601,0.20999999344348907,103.73999786376953,0.00390625,0.0023193359375,1.0120849609375,31.440000534057617,0.0,-16.0,0.0527801513671875,0.0797576904296875,Waiting,-4.821407624633431,4.125,-5101.0,-216.0,-1627.5,-1600.0,0.7,2.875,
3.158387999999999,4.125,0.0,-75.0,0.0,0.0,0.0,0.0,0.0,3.867187104,0.0,0.0,146.0,0.0,0.0,-0.0,0.0,0.0,1.849365045,0.0,0.0,232.0,0.0,0.0,0.0,0.0,0.0,4.888915515,0.0,0.0,-133.0,0.0,0.0,-0.0,0.0,0.0,2.866210644,0.0,0.0,1.0800000429153442,0.20999999344348907,103.73999786376953,-0.01141357421875,0.0146484375,0.97052001953125,31.440000534057617,0.0,0.0,0.0527801513671875,0.0797576904296875,Waiting,-4.809384164222874,4.0,-5101.0,-216.0,-1627.5,-1600.0,0.7,3.0,
