Time,ClimberA1,ClimberA2,FRpos,FRCurrent,FRspeed,FRsetpoint,FRApos,FRACurrent,FREncpos,FREncSetpoint,FREncSpeed,FLpos,FLCurrent,FLspeed,FLsetpoint,FLApos,FLACurrent,FLEncpos,FLEncSetpoint,FLEncSpeed,BRpos,BRCurrent,BRspeed,BRsetpoint,BRApos,BRACurrent,BREncpos,BREncSetpoint,BREncSpeed,BLpos,BLCurrent,BLspeed,BLsetpoint,BLApos,BLACurrent,BLEncpos,BLEncSetpoint,BLEncSpeed,navx_Pitch,navx_Roll,navx_Yaw,navx_XAcc,navx_YAcc,navx_ZAcc,navx_Temp,navx_Bar,navx_Alt,navx_XDis,navx_YDis,GearPlacerState,ShootOutputV,ShootOutputCurrent,ShootEncPos,ShootEncVelocity,ShootSpeed,ShootSetpoint,CarouselSetpoint,CarouselCurrent,
0.156125,0.0,0.0,-321.0,0.0,0.0,0.0,0.0,0.0,3.8000484390000002,0.0,0.0,583.0,0.0,0.0,0.0,0.0,0.0,1.853027154,0.0,0.0,-581.0,0.0,0.0,0.0,0.0,0.0,4.90722606,0.0,0.0,629.0,0.0,0.0,0.0,0.0,0.0,2.8527829110000003,0.0,0.0,0.8199999928474426,0.20000000298023224,175.97000122070312,0.00445556640625,0.01751708984375,1.01568603515625,29.229999542236328,0.0,0.0,-0.087615966796875,-0.389404296875,Closing,0.0,0.0,0.0,0.0,0.0,0.0,0.0,0.0,
0.2693040000000037,0.0,0.0,-321.0,3.5,67.5,840.0,0.0,0.0,3.802489845,0.0,0.0,583.0,4.5,-120.0,-840.0,0.0,0.0,1.854247857,0.0,0.0,-581.0,3.625,120.0,840.0,0.0,0.0,4.90722606,-0.0,0.0,629.0,7.625,-97.5,-840.0,0.0,0.0,2.861327832,-0.0,0.0,0.8899999856948853,0.7799999713897705,176.07000732421875,0.23583984375,0.0296630859375,1.04168701171875,29.229999542236328,0.0,-220.0,-0.090850830078125,-0.390106201171875,Closing,0.0,0.0,0.0,0.0,0.0,0.0,0.0,0.0,
0.3767469999999739,0.0,0.0,-293.0,5.25,262.5,840.0,0.0,0.0,3.7951656270000003,0.0013789730495876737,0.0,550.0,5.25,-277.5,-840.0,0.0,0.0,1.853027154,0.0013748061286078558,0.0,-549.0,4.75,262.5,840.0,0.0,0.0,4.908446763000001,0.0013761951022677951,0.0,600.0,9.125,-270.0,-840.0,0.0,0.0,2.862548535,0.0013743894365098742,0.0,0.8500000238418579,1.7899999618530273,175.9600067138672,0.16949462890625,0.002197265625,0.9881591796875,29.229999542236328,0.0,-139.0,-0.109527587890625,-0.3923797607421875,Closing,0.0,0.0,0.0,0.0,0.0,0.0,0.0,0.0,
0.4922829999999958,0.0,0.0,-221.0,4.125,540.0,840.0,0.0,0.0,3.7951656270000003,4.96386218685574,0.0,479.0,4.25,-532.5,-840.0,0.0,0.0,1.854247857,4.948862603293525,0.0,-480.0,4.0,532.5,840.0,0.0,0.0,4.908446763000001,4.95386246448093,0.0,530.0,7.625,-540.0,-840.0,0.0,0.0,2.863769238,4.947362644937304,0.0,0.8199999928474426,2.450000047683716,175.8800048828125,0.0938720703125,0.01531982421875,0.97723388671875,29.200000762939453,0.0,-51.0,-0.138397216796875,-0.39263916015625,Closing,0.0,0.0,0.0,0.0,0.0,0.0,0.0,0.0,
0.6107010000000009,0.0,0.0,-110.0,2.625,765.0,840.0,0.0,0.0,3.7963863300000003,4.96289686364068,0.0,368.0,2.5,-750.0,-840.0,0.0,0.0,1.854247857,4.9479001970503065,0.0,-370.0,2.375,750.0,840.0,0.0,0.0,4.910888169000001,4.9528990859137645,0.0,417.0,4.625,-772.5,-840.0,0.0,0.0,2.863769238,4.946400530391269,0.0,0.8999999761581421,2.740000009536743,175.77000427246094,0.0631103515625,-0.0125732421875,1.09619140625,29.200000762939453,0.0,-12.0,-0.1728363037109375,-0.3937530517578125,Closing,0.0,0.0,0.0,0.0,0.0,0.0,0.0,0.0,
0.7257149999999674,0.0,0.0,25.0,2.0,855.0,840.0,0.0,0.0,3.7939449240000003,4.9609664276123056,0.0,237.0,1.5,-862.5,-840.0,0.0,0.0,1.854247857,4.945975594329834,0.0,-239.0,1.125,847.5,840.0,0.0,0.0,4.909667466,4.950972538757324,0.0,283.0,2.875,-870.0,-840.0,0.0,0.0,2.863769238,4.944476511001587,0.0,0.8600000143051147,2.809999942779541,175.66000366210938,-6.7138671875E-4,0.06689453125,1.23577880859375,29.200000762939453,0.0,64.0,-0.215057373046875,-0.3946533203125,Closing,0.0,0.0,0.0,0.0,0.0,0.0,0.0,0.0,
0.8370009999999893,0.0,0.0,167.0,1.375,892.5,840.0,0.0,0.0,3.8415523410000003,4.959725478108725,0.0,95.0,0.75,-885.0,-840.0,0.0,0.0,1.857909966,4.944738394673665,0.0,-99.0,0.75,877.5,840.0,0.0,0.0,4.908446763000001,4.9497340891520185,0.0,139.0,2.125,-900.0,-840.0,0.0,0.0,2.863769238,4.943239686330159,0.0,0.8700000047683716,2.690000057220459,175.6300048828125,0.0908203125,-0.0084228515625,0.84765625,29.200000762939453,0.0,-52.0,-0.2550048828125,-0.3967437744140625,Closing,0.0,0.0,0.0,0.0,0.0,0.0,0.0,0.0,
0.951969999999972,0.0,0.0,310.0,1.0,900.0,840.0,0.0,0.0,3.812255469,4.959311828274197,0.0,-48.0,0.625,-892.5,-840.0,0.0,0.0,1.859130669,4.944325994788276,0.0,42.0,0.5,870.0,840.0,0.0,0.0,4.908446763000001,4.949321272616916,0.0,-6.0,1.75,-892.5,-840.0,0.0,0.0,2.861327832,4.9428274114396835,0.0,0.8999999761581421,2.440000057220459,175.50999450683594,-0.02862548828125,0.08831787109375,1.30792236328125,29.229999542236328,0.0,89.0,-0.3000640869140625,-0.3989410400390625,Closing,0.0,0.0,0.0,0.0,0.0,0.0,0.0,0.0,
1.1262119999999995,0.0,0.0,736.0,1.0,855.0,840.0000000000001,0.0,0.0,3.7951656270000003,4.957657018534343,0.0,-468.0,0.625,-840.0,-840.0000000000001,0.0,0.0,1.859130669,4.942676185480753,0.0,460.0,0.75,855.0,840.0000000000001,0.0,0.0,4.908446763000001,4.947669796498617,0.0,-428.0,1.875,-847.5,-840.0000000000001,0.0,0.0,2.860107129,4.941178102175394,0.0,0.8299999833106995,1.9500000476837158,175.13999938964844,0.01007080078125,0.0687255859375,0.7581787109375,29.229999542236328,0.0,20.0,-0.3827056884765625,-0.40118408203125,Closing,0.0,0.0,0.0,0.0,0.0,0.0,0.0,0.0,
1.4827409999999799,0.0,0.0,1143.0,1.0,840.0,840.0,0.0,0.0,3.7988277360000002,4.952279360283746,0.0,-869.0,0.75,-825.0,-840.0,0.0,0.0,1.8627927780000002,4.937314777204725,0.0,860.0,1.0,832.5,840.0,0.0,0.0,4.909667466,4.9423029715643985,0.0,-831.0,2.125,-832.5,-840.0,0.0,0.0,2.863769238,4.935818318896823,0.0,0.8799999952316284,1.7300000190734863,174.6999969482422,0.04083251953125,-0.036865234375,0.7279052734375,29.229999542236328,0.0,-23.0,-0.439483642578125,-0.4034271240234375,Closing,0.0,0.0,0.0,0.0,0.0,0.0,0.0,0.0,
1.8204589999999734,0.0,0.0,1278.0,1.125,832.5,840.0,0.0,0.0,3.801269142,4.946212215508355,0.0,-1002.0,1.0,-832.5,-840.0,0.0,0.0,1.8640134810000002,4.931265965864394,0.0,995.0,1.0,825.0,840.0,0.0,0.0,4.909667466,4.9362480490790475,0.0,-965.0,2.25,-832.5,-840.0,0.0,0.0,2.8527829110000003,4.929771340899997,0.0,0.8299999833106995,1.5700000524520874,174.60000610351562,-0.01336669921875,-0.049560546875,0.6568603515625,29.229999542236328,0.0,25.0,-0.455078125,-0.4035491943359375,Closing,0.0,0.0,0.0,0.0,0.0,0.0,0.0,0.0,
1.9487939999999944,0.0,0.0,1412.0,1.125,847.5,840.0,0.0,0.0,3.7951656270000003,4.9448334528605145,0.0,-1135.0,0.75,-832.5,-840.0,0.0,0.0,1.8640134810000002,4.92989136950175,0.0,1127.0,1.0,832.5,840.0,0.0,0.0,4.909667466,4.934872063954671,0.0,-1099.0,2.125,-840.0,-840.0,0.0,0.0,2.862548535,4.928397161165873,0.0,0.8500000238418579,1.4500000476837158,174.52999877929688,0.050048828125,-0.01983642578125,1.11468505859375,29.229999542236328,0.0,-25.0,-0.460357666015625,-0.403778076171875,Closing,0.0,0.0,0.0,0.0,0.0,0.0,0.0,0.0,
2.0642479999999632,0.0,0.0,1548.0,1.0,840.0,840.0,0.0,0.0,3.7951656270000003,4.944143966335721,-0.0012207029999995456,-1270.0,0.75,-840.0,-840.0,0.0,0.0,1.8627927780000002,4.929203966437446,0.0,1261.0,1.0,832.5,840.0,0.0,0.0,4.909667466,4.934183966403538,0.0,-1235.0,2.125,-840.0,-840.0,0.0,0.0,2.860107129,4.927709966447618,0.0,0.8799999952316284,1.4299999475479126,174.4499969482422,-0.0465087890625,-0.02166748046875,0.9351806640625,29.229999542236328,0.0,66.0,-0.4589080810546875,-0.40435791015625,Closing,0.0,0.0,0.0,0.0,0.0,0.0,0.0,0.0,
2.1725039999999574,0.0,0.0,1683.0,1.0,847.5,840.0,0.0,0.0,3.7951656270000003,4.94290301683214,0.0,-1406.0,1.0,-840.0,-840.0,0.0,0.0,1.8627927780000002,4.927966766781277,0.0,1395.0,1.0,840.0,840.0,0.0,0.0,4.908446763000001,4.932945516798231,0.0,-1370.0,2.125,-847.5,-840.0,0.0,0.0,2.863769238,4.9264731417761904,0.0,0.8299999833106995,1.3600000143051147,174.36000061035156,0.01617431640625,0.01373291015625,0.7474365234375,29.229999542236328,0.0,1.0,-0.45672607421875,-0.4045257568359375,Closing,0.0,0.0,0.0,0.0,0.0,0.0,0.0,0.0,
2.2771369999999878,0.0,0.0,1818.0,1.0,840.0,840.0,0.0,0.0,3.7976070330000002,4.94179988047282,0.0,-1542.0,1.0,-840.0,-840.0,0.0,0.0,1.8640134810000002,4.926866963831583,0.0,1530.0,1.125,840.0,840.0,0.0,0.0,4.906005357000001,4.931844602711996,0.0,-1506.0,2.125,-840.0,-840.0,0.0,0.0,2.862548535,4.92537367216746,0.0,0.8299999833106995,1.2300000190734863,174.2899932861328,-0.02618408203125,-0.05682373046875,0.85675048828125,29.229999542236328,0.0,37.0,-0.45501708984375,-0.4037322998046875,Closing,0.0,0.0,0.0,0.0,0.0,0.0,0.0,0.0,
2.388866999999969,0.0,0.0,1954.0,1.0,840.0,840.0,0.0,0.0,3.7988277360000002,4.940834557257759,0.0,-1675.0,1.0,-832.5,-840.0,0.0,0.0,1.8640134810000002,4.925904557588365,0.0,1663.0,1.125,832.5,840.0,0.0,0.0,4.908446763000001,4.930881224144829,0.0,-1641.0,2.125,-840.0,-840.0,0.0,0.0,2.862548535,4.924411557621426,0.0,0.8100000023841858,1.2000000476837158,174.22999572753906,-0.08984375,0.0257568359375,0.81793212890625,29.229999542236328,0.0,107.0,-0.45458984375,-0.40203857421875,Closing,0.0,0.0,0.0,0.0,0.0,0.0,0.0,0.0,
2.4927309999999707,0.0,0.0,2089.0,1.0,840.0,840.0,0.0,0.0,3.7976070330000002,4.940007257588705,0.0,-1810.0,1.0,-840.0,-840.0,0.0,0.0,1.8640134810000002,4.925079757817586,0.0,1798.0,1.125,840.0,840.0,0.0,0.0,4.90722606,4.930055591074626,0.0,-1777.0,2.0,-847.5,-840.0,0.0,0.0,2.863769238,4.923587007840474,0.0,0.7799999713897705,1.2000000476837158,174.17999267578125,0.037841796875,0.06396484375,0.7529296875,29.229999542236328,0.0,-16.0,-0.4541015625,-0.4007415771484375,Closing,0.0,0.0,0.0,0.0,0.0,0.0,0.0,0.0,
2.59686599999998,0.0,0.0,2224.0,1.0,840.0,840.0,0.0,0.0,3.7951656270000003,4.939317771063911,0.0,-1944.0,1.0,-832.5,-840.0,0.0,0.0,1.8640134810000002,4.924392354753282,0.0,1932.0,1.125,832.5,840.0,0.0,0.0,4.909667466,4.9293674935234915,0.0,-1912.0,2.0,-840.0,-840.0,0.0,0.0,2.863769238,4.9228998131222195,0.0,0.7699999809265137,1.090000033378601,174.0500030517578,-0.01141357421875,0.12530517578125,0.9986572265625,29.229999542236328,0.0,41.0,-0.45343017578125,-0.40008544921875,Closing,0.0,0.0,0.0,0.0,0.0,0.0,0.0,0.0,
2.707182999999961,0.0,0.0,2360.0,1.0,847.5,840.0,0.0,0.0,3.7988277360000002,4.937249521891276,0.0,-2079.0,1.0,-840.0,-840.0,0.0,0.0,1.8676755900000002,4.922330355326334,0.0,2067.0,1.125,840.0,840.0,0.0,0.0,4.908446763000001,4.927303410847982,0.0,-2047.0,2.0,-840.0,-840.0,0.0,0.0,2.877196971,4.920838438669841,0.0,0.8100000023841858,1.1100000143051147,173.9199981689453,-0.10931396484375,0.097900390625,0.99945068359375,29.229999542236328,0.0,136.0,-0.45147705078125,-0.3991241455078125,Closing,0.0,0.0,0.0,0.0,0.0,0.0,0.0,0.0,
2.8163279999999795,0.0,0.0,2360.0,1.0,832.5,840.0,0.0,0.0,3.7939449240000003,4.935732735697429,0.0,-2079.0,1.0,-832.5,-840.0,0.0,0.0,1.8676755900000002,4.920818152491251,0.004882811999999959,2067.0,1.125,832.5,840.0,0.0,0.0,4.910888169000001,4.925789680226644,0.0,-2181.0,2.125,-832.5,-840.0,0.0,0.0,2.862548535,4.919326694170634,0.0,0.8700000047683716,1.0700000524520874,173.77000427246094,0.02142333984375,-0.0626220703125,0.98236083984375,29.229999542236328,0.0,-11.0,-0.4496917724609375,-0.3978424072265625,Closing,0.0,0.0,0.0,0.0,0.0,0.0,0.0,0.0,
2.9277219999999504,0.0,0.0,2495.0,1.0,855.0,839.9999999999999,0.0,0.0,3.7988277360000002,4.933388649834527,0.0,-2213.0,1.0,-847.5,-839.9999999999999,0.0,0.0,1.8676755900000002,4.918481149885389,0.0,2201.0,1.0,847.5,839.9999999999999,0.0,0.0,4.904784654,4.923450316535102,0.0,-2181.0,2.0,-847.5,-839.9999999999999,0.0,0.0,2.862548535,4.916990399890476,0.0,0.8799999952316284,0.9599999785423279,173.6699981689453,0.0380859375,0.09503173828125,1.3272705078125,29.229999542236328,0.0,-7.0,-0.4479522705078125,-0.396728515625,Closing,0.0,0.0,0.0,0.0,0.0,0.0,0.0,0.0,
3.033875,0.0,0.0,2632.0,0.875,847.5,839.9999999999999,0.0,0.0,3.8000484390000002,4.932285513475207,0.0,-2349.0,1.0,-847.5,-839.9999999999999,0.0,0.0,1.8688962930000002,4.917381346935696,0.0,2337.0,1.125,840.0,839.9999999999999,0.0,0.0,4.909667466,4.922349402448866,0.0,-2317.0,2.0,-840.0,-839.9999999999999,0.0,0.0,2.863769238,4.915890930281745,0.0,0.8999999761581421,0.9200000166893005,173.52000427246094,0.0015869140625,0.01531982421875,1.2296142578125,29.219999313354492,0.0,17.0,-0.4456939697265625,-0.3971710205078125,Closing,0.0,0.0,0.0,0.0,0.0,0.0,0.0,0.0,
3.143237999999954,0.0,0.0,2769.0,0.875,855.0,840.0,0.0,0.0,3.814696875,4.930217264302573,0.0,-2484.0,1.0,-840.0,-840.0,0.0,0.0,1.8688962930000002,4.915319347508748,0.0,2471.0,1.0,847.5,840.0,0.0,0.0,4.908446763000001,4.920285319773356,0.0,-2453.0,2.0,-847.5,-840.0,0.0,0.0,2.862548535,4.913829555829366,0.0,0.8399999737739563,0.9800000190734863,173.42999267578125,0.02337646484375,0.01434326171875,0.92132568359375,29.219999313354492,0.0,-44.0,-0.4426116943359375,-0.39703369140625,Closing,0.0,0.0,0.0,0.0,0.0,0.0,0.0,0.0,
3.2527099999999627,0.0,0.0,2905.0,1.0,832.5,840.0000000000001,0.0,0.0,3.8000484390000002,4.928838291252984,0.0,-2618.0,1.0,-825.0,-840.0000000000001,0.0,0.0,1.8688962930000002,4.913944541380141,0.0,2607.0,1.125,832.5,840.0000000000001,0.0,0.0,4.90722606,4.918909124671089,0.0,-2587.0,2.125,-832.5,-840.0000000000001,0.0,0.0,2.863769238,4.912455166392856,0.0,0.8899999856948853,0.7799999713897705,173.2899932861328,0.10223388671875,-0.0836181640625,1.0733642578125,29.219999313354492,0.0,-98.0,-0.4394683837890625,-0.3967437744140625,Closing,0.0,0.0,0.0,0.0,0.0,0.0,0.0,0.0,
3.3587249999999766,0.0,0.0,3040.0,1.0,847.5,840.0,0.0,0.0,3.801269142,4.92704566836887,0.0,-2752.0,1.0,-840.0,-840.0,0.0,0.0,1.8676755900000002,4.9121573353661425,0.0,2741.0,1.125,832.5,840.0,0.0,0.0,4.90722606,4.917120113033718,0.0,-2722.0,2.0,-840.0,-840.0,0.0,0.0,2.8552243170000002,4.91066850206587,0.0,0.8500000238418579,0.7699999809265137,173.1999969482422,0.0137939453125,6.7138671875E-4,1.20733642578125,29.219999313354492,0.0,0.0,-0.4382476806640625,-0.396026611328125,Closing,0.0,0.0,0.0,0.0,0.0,0.0,0.0,0.0,
3.470268999999971,0.0,0.0,3154.0,0.0,720.0,0.0,0.0,0.0,3.7976070330000002,0.0,0.0,-2867.0,0.0,-630.0,-0.0,0.0,0.0,1.8664548870000002,0.0,-0.0012207029999995456,2858.0,0.0,645.0,0.0,0.0,0.0,4.909667466,0.0,0.0,-2830.0,0.25,-615.0,-0.0,0.0,0.0,2.86865205,0.0,0.0,0.7699999809265137,-0.029999999329447746,173.05999755859375,-0.23046875,0.0648193359375,1.15582275390625,29.219999313354492,0.0,234.0,-0.4341278076171875,-0.39642333984375,Closing,0.0,0.0,0.0,0.0,0.0,0.0,0.0,0.0,
3.5745009999999895,0.0,0.0,3236.0,0.0,517.5,0.0,0.0,0.0,3.7988277360000002,0.0,0.0,-2941.0,0.0,-465.0,-0.0,0.0,0.0,1.8688962930000002,0.0,0.0,2928.0,0.0,450.0,0.0,0.0,0.0,4.909667466,0.0,0.0,-2911.0,0.125,-480.0,-0.0,0.0,0.0,2.867431347,0.0,0.0,0.75,-0.9300000071525574,172.85000610351562,-0.18280029296875,-0.0152587890625,0.51202392578125,29.239999771118164,0.0,170.0,-0.412200927734375,-0.395965576171875,Closing,0.0,0.0,0.0,0.0,0.0,0.0,0.0,0.0,
3.6860909999999567,0.0,0.0,3268.0,0.0,210.0,0.0,0.0,0.0,3.7988277360000002,0.0,0.0,-2980.0,0.0,-255.0,-0.0,0.0,0.0,1.8688962930000002,0.0,0.0,2961.0,0.0,217.5,0.0,0.0,0.0,4.90722606,0.0,0.0,-2950.0,0.0,-247.5,-0.0,0.0,0.0,2.867431347,0.0,0.0,0.8199999928474426,-1.690000057220459,173.0800018310547,-0.14923095703125,0.07830810546875,1.17364501953125,29.239999771118164,0.0,121.0,-0.3724517822265625,-0.3952789306640625,Closing,0.0,0.0,0.0,0.0,0.0,0.0,0.0,0.0,
3.790070999999996,0.0,0.0,3279.0,0.0,97.5,0.0,0.0,0.0,3.7988277360000002,0.0,0.0,-2984.0,0.0,-45.0,-0.0,0.0,0.0,1.8688962930000002,0.0,0.0,2971.0,0.0,82.5,0.0,0.0,0.0,4.909667466,0.0,0.0,-2953.0,0.0,-45.0,-0.0,0.0,0.0,2.867431347,0.0,0.0,0.8600000143051147,-1.909999966621399,172.8300018310547,-0.039794921875,0.0093994140625,1.05548095703125,29.239999771118164,0.0,3.0,-0.33154296875,-0.39471435546875,Closing,0.0,0.0,0.0,0.0,0.0,0.0,0.0,0.0,
3.8931149999999906,0.0,0.0,3279.0,0.0,0.0,0.0,0.0,0.0,3.8000484390000002,0.0,0.0,-2984.0,0.0,0.0,-0.0,0.0,0.0,1.8688962930000002,0.0,0.0,2971.0,0.0,0.0,0.0,0.0,0.0,4.909667466,0.0,0.0,-2953.0,0.0,0.0,-0.0,0.0,0.0,2.86865205,0.0,0.0,0.8299999833106995,-1.75,172.92999267578125,0.03118896484375,0.0299072265625,0.973876953125,29.239999771118164,0.0,-58.0,-0.3322601318359375,-0.394622802734375,Closing,0.0,0.0,0.0,0.0,0.0,0.0,0.0,0.0,
3.9946790000000036,0.0,0.0,3279.0,0.0,0.0,0.0,0.0,0.0,3.80859336,0.0,0.0,-2984.0,0.0,0.0,-0.0,0.0,0.0,1.8676755900000002,0.0,0.0,2971.0,0.0,0.0,0.0,0.0,0.0,4.908446763000001,0.0,0.0,-2953.0,0.0,0.0,-0.0,0.0,0.0,2.867431347,0.0,0.0,0.8199999928474426,-1.4600000381469727,172.89999389648438,0.03399658203125,0.01446533203125,1.017333984375,29.219999313354492,0.0,-59.0,-0.3364105224609375,-0.3948516845703125,Closing,0.0,0.0,0.0,0.0,0.0,0.0,0.0,0.0,
4.10605899999995,0.0,0.0,3279.0,0.0,0.0,0.0,0.0,0.0,3.7976070330000002,0.0,0.0,-2984.0,0.0,0.0,-0.0,0.0,0.0,1.861572075,0.0,0.0,2971.0,0.0,0.0,0.0,0.0,0.0,4.908446763000001,0.0,0.0,-2953.0,0.0,0.0,-0.0,0.0,0.0,2.86865205,0.0,0.0,0.8299999833106995,-1.2799999713897705,172.8800048828125,0.0,0.00604248046875,1.0040283203125,29.219999313354492,0.0,-23.0,-0.344085693359375,-0.3948516845703125,Closing,0.0,0.0,0.0,0.0,0.0,0.0,0.0,0.0,
4.210021999999997,0.0,0.0,3279.0,0.0,0.0,0.0,0.0,0.0,3.7988277360000002,0.0,0.0,-2984.0,0.0,0.0,-0.0,0.0,0.0,1.8688962930000002,0.0,0.0,2971.0,0.0,0.0,0.0,0.0,0.0,4.909667466,0.0,0.0,-2953.0,0.0,0.0,-0.0,0.0,0.0,2.86865205,0.0,0.0,0.8299999833106995,-1.1799999475479126,172.89999389648438,-1.8310546875E-4,0.01861572265625,0.994384765625,29.219999313354492,0.0,-19.0,-0.3467864990234375,-0.3948516845703125,Closing,0.0,0.0,0.0,0.0,0.0,0.0,0.0,0.0,
4.315293999999994,0.0,0.0,3279.0,0.0,0.0,0.0,0.0,0.0,3.7988277360000002,0.0,0.0,-2984.0,0.0,0.0,-0.0,0.0,0.0,1.8688962930000002,0.0,0.0,2971.0,0.0,0.0,0.0,0.0,0.0,4.908446763000001,0.0,0.0,-2953.0,0.0,0.0,-0.0,0.0,0.0,2.867431347,0.0,0.0,0.8199999928474426,-1.0199999809265137,172.89999389648438,0.0128173828125,0.01763916015625,0.99566650390625,29.219999313354492,0.0,-29.0,-0.3489990234375,-0.3948516845703125,Closing,0.0,0.0,0.0,0.0,0.0,0.0,0.0,0.0,
4.430578999999969,0.0,0.0,3279.0,0.0,0.0,0.0,0.0,0.0,3.7963863300000003,0.0,0.0,-2984.0,0.0,0.0,-0.0,0.0,0.0,1.8676755900000002,0.0,0.0,2971.0,0.0,0.0,0.0,0.0,0.0,4.909667466,0.0,0.0,-2953.0,0.0,0.0,-0.0,0.0,0.0,2.867431347,0.0,0.0,0.8199999928474426,-0.8999999761581421,172.89999389648438,0.00732421875,0.01849365234375,1.01312255859375,29.219999313354492,0.0,-22.0,-0.35296630859375,-0.3948516845703125,Closing,0.0,0.0,0.0,0.0,0.0,0.0,0.0,0.0,
4.542813999999955,0.0,0.0,3279.0,0.0,0.0,0.0,0.0,0.0,3.7976070330000002,0.0,0.0,-2984.0,0.0,0.0,-0.0,0.0,0.0,1.8688962930000002,0.0,0.0,2971.0,0.0,0.0,0.0,0.0,0.0,4.90722606,0.0,0.0,-2953.0,0.0,0.0,-0.0,0.0,0.0,2.867431347,0.0,0.0,0.8100000023841858,-0.7699999809265137,172.88999938964844,0.00897216796875,0.01275634765625,1.02801513671875,29.219999313354492,0.0,-22.0,-0.3594207763671875,-0.3948516845703125,Closing,0.0,0.0,0.0,0.0,0.0,0.0,0.0,0.0,
4.648486999999965,0.0,0.0,3279.0,0.0,0.0,0.0,0.0,0.0,3.7939449240000003,0.0,0.0,-2984.0,0.0,0.0,-0.0,0.0,0.0,1.8676755900000002,0.0,0.0,2971.0,0.0,0.0,0.0,0.0,0.0,4.909667466,0.0,0.0,-2953.0,0.0,0.0,-0.0,0.0,0.0,2.867431347,0.0,0.0,0.8100000023841858,-0.6800000071525574,172.88999938964844,0.009033203125,0.010986328125,0.98870849609375,29.219999313354492,0.0,-21.0,-0.36676025390625,-0.3948516845703125,Opening,0.0,0.0,0.0,0.0,0.0,0.0,0.0,0.0,
4.751525999999954,0.0,0.0,3279.0,0.0,0.0,0.0,0.0,0.0,3.7988277360000002,0.0,0.0,-2984.0,0.0,0.0,-0.0,0.0,0.0,1.8688962930000002,0.0,0.0,2971.0,0.0,0.0,0.0,0.0,0.0,4.909667466,0.0,0.0,-2953.0,0.0,0.0,-0.0,0.0,0.0,2.86865205,0.0,0.0,0.8100000023841858,-0.5899999737739563,172.88999938964844,0.00653076171875,0.0146484375,1.02056884765625,29.219999313354492,0.0,-16.0,-0.3728485107421875,-0.3948516845703125,Opening,0.0,0.0,0.0,0.0,0.0,0.0,0.0,0.0,
4.856190999999992,0.0,0.0,3279.0,0.0,0.0,0.0,0.0,0.0,3.7988277360000002,0.0,0.0,-2984.0,0.0,0.0,-0.0,0.0,0.0,1.8688962930000002,0.0,0.0,2971.0,0.0,0.0,0.0,0.0,0.0,4.90722606,0.0,0.0,-2953.0,0.0,0.0,-0.0,0.0,0.0,2.867431347,0.0,0.0,0.8100000023841858,-0.5,172.8800048828125,0.00823974609375,0.00909423828125,0.99835205078125,29.219999313354492,0.0,-17.0,-0.37298583984375,-0.394927978515625,Opening,0.0,0.0,0.0,0.0,0.0,0.0,0.0,0.0,
4.968055999999982,0.0,0.0,3279.0,0.0,0.0,0.0,0.0,0.0,3.7976070330000002,0.0,0.0,-2984.0,0.0,0.0,-0.0,0.0,0.0,1.8688962930000002,0.0,0.0,2971.0,0.0,0.0,0.0,0.0,0.0,4.908446763000001,0.0,0.0,-2953.0,0.0,0.0,-0.0,0.0,0.0,2.867431347,0.0,0.0,0.800000011920929,-0.41999998688697815,172.88999938964844,0.00701904296875,0.00848388671875,0.95037841796875,29.219999313354492,0.0,-14.0,-0.373382568359375,-0.394989013671875,Opening,0.0,0.0,0.0,0.0,0.0,0.0,0.0,0.0,
5.0744369999999765,0.0,0.0,3279.0,0.0,0.0,0.0,0.0,0.0,3.7963863300000003,0.0,0.0,-2984.0,0.0,0.0,-0.0,0.0,0.0,1.8688962930000002,0.0,0.0,2971.0,0.0,0.0,0.0,0.0,0.0,4.90722606,0.0,0.0,-2953.0,0.0,0.0,-0.0,0.0,0.0,2.867431347,0.0,0.0,0.800000011920929,-0.33000001311302185,172.88999938964844,-0.00445556640625,-0.0098876953125,0.9208984375,29.190000534057617,0.0,-3.0,-0.3750152587890625,-0.3947906494140625,Opening,0.0,0.0,0.0,0.0,0.0,0.0,0.0,0.0,
5.189501999999979,0.0,0.0,3279.0,0.0,0.0,0.0,0.0,0.0,3.7988277360000002,0.0,0.0,-2984.0,0.0,0.0,-0.0,0.0,0.0,1.8725584020000001,0.0,0.0,2971.0,0.0,0.0,0.0,0.0,0.0,4.908446763000001,0.0,0.0,-2953.0,0.0,0.0,-0.0,0.0,0.0,2.867431347,0.0,0.0,0.7699999809265137,-0.27000001072883606,172.8800048828125,-0.00872802734375,0.04119873046875,0.9859619140625,29.190000534057617,0.0,7.0,-0.3766326904296875,-0.3953399658203125,Opening,0.0,0.0,0.0,0.0,0.0,0.0,0.0,0.0,
5.292400999999955,0.0,0.0,3279.0,0.0,0.0,0.0,0.0,0.0,3.7988277360000002,0.0,0.0,-2984.0,0.0,0.0,-0.0,0.0,0.0,1.8676755900000002,0.0,0.0,2971.0,0.0,0.0,0.0,0.0,0.0,4.90722606,0.0,0.0,-2953.0,0.0,0.0,-0.0,0.0,0.0,2.86865205,0.0,0.0,0.8299999833106995,-0.23000000417232513,172.8800048828125,0.07696533203125,-0.15472412109375,0.9051513671875,29.190000534057617,0.0,-100.0,-0.376678466796875,-0.39630126953125,Opening,0.0,0.0,0.0,0.0,0.0,0.0,0.0,0.0,
5.392588999999978,0.0,0.0,3279.0,0.0,0.0,0.0,0.0,0.0,3.7988277360000002,0.0,0.0,-2984.0,0.0,0.0,-0.0,0.0,0.0,1.857909966,0.0,0.0,2971.0,0.0,0.0,0.0,0.0,0.0,4.908446763000001,0.0,0.0,-2953.0,0.0,0.0,-0.0,0.0,0.0,2.869872753,0.0,0.0,0.7799999713897705,-0.2199999988079071,172.88999938964844,-0.0975341796875,-0.05206298828125,0.99810791015625,29.190000534057617,0.0,84.0,-0.3798065185546875,-0.3954925537109375,Opening,0.0,0.0,0.0,0.0,0.0,0.0,0.0,0.0,
5.494531999999948,0.0,0.0,3279.0,0.0,0.0,0.0,0.0,0.0,3.801269142,0.0,0.0,-2984.0,0.0,0.0,-0.0,0.0,0.0,1.8652341840000002,0.0,0.0,2971.0,0.0,0.0,0.0,0.0,0.0,4.909667466,0.0,0.0,-2953.0,0.0,0.0,-0.0,0.0,0.0,2.867431347,0.0,0.0,0.8299999833106995,-0.18000000715255737,172.8800048828125,-0.0782470703125,-0.1063232421875,1.04522705078125,29.190000534057617,0.0,59.0,-0.3817901611328125,-0.3952484130859375,Opening,0.0,0.0,0.0,0.0,0.0,0.0,0.0,0.0,
5.6071279999999675,0.0,0.0,3279.0,0.0,0.0,0.0,0.0,0.0,3.7988277360000002,0.0,0.0,-2984.0,0.0,0.0,-0.0,0.0,0.0,1.8688962930000002,0.0,0.0,2971.0,0.0,0.0,0.0,0.0,0.0,4.90722606,0.0,0.0,-2953.0,0.0,0.0,-0.0,0.0,0.0,2.867431347,0.0,0.0,0.8399999737739563,-0.20000000298023224,172.8000030517578,0.17388916015625,-0.451416015625,0.864013671875,29.15999984741211,0.0,-233.0,-0.3827362060546875,-0.3902740478515625,Opening,0.0,0.0,0.0,0.0,0.0,0.0,0.0,0.0,
5.709315999999991,0.0,0.0,3279.0,0.0,0.0,0.0,0.0,0.0,3.8000484390000002,0.0,0.0,-2984.0,0.0,0.0,-0.0,0.0,0.0,1.8688962930000002,0.0,0.0,2971.0,0.0,0.0,0.0,0.0,0.0,4.908446763000001,0.0,0.0,-2953.0,0.0,0.0,-0.0,0.0,0.0,2.86865205,0.0,0.0,0.75,-0.019999999552965164,172.94000244140625,-0.01190185546875,0.0047607421875,1.09039306640625,29.15999984741211,0.0,10.0,-0.3931884765625,-0.3783416748046875,Opening,0.0,0.0,0.0,0.0,0.0,0.0,0.0,0.0,
5.812626999999979,0.0,0.0,3279.0,0.0,0.0,0.0,0.0,0.0,3.801269142,0.0,0.0,-2984.0,0.0,0.0,-0.0,0.0,0.0,1.8688962930000002,0.0,0.0,2971.0,0.0,0.0,0.0,0.0,0.0,4.90722606,0.0,0.0,-2953.0,0.0,0.0,-0.0,0.0,0.0,2.871093456,0.0,0.0,0.6200000047683716,0.029999999329447746,172.85000610351562,0.02490234375,0.04107666015625,0.929443359375,29.15999984741211,0.0,-20.0,-0.407989501953125,-0.3657073974609375,Opening,0.0,0.0,0.0,0.0,0.0,0.0,0.0,0.0,
5.913947999999975,0.0,0.0,3279.0,0.0,0.0,0.0,0.0,0.0,3.7988277360000002,0.0,0.0,-2984.0,0.0,0.0,-0.0,0.0,0.0,1.8688962930000002,0.0,0.0,2971.0,0.0,0.0,0.0,0.0,0.0,4.909667466,0.0,0.0,-2953.0,0.0,0.0,-0.0,0.0,0.0,2.867431347,0.0,0.0,0.7099999785423279,-0.009999999776482582,172.89999389648438,0.03173828125,0.14306640625,1.04888916015625,29.15999984741211,0.0,-15.0,-0.4230499267578125,-0.352081298828125,Opening,0.0,0.0,0.0,0.0,0.0,0.0,0.0,0.0,
6.020682999999961,0.0,0.0,3279.0,0.0,0.0,0.0,0.0,0.0,3.7878414090000003,0.0,0.0,-2984.0,0.0,0.0,-0.0,0.0,0.0,1.8676755900000002,0.0,0.0,2971.0,0.0,0.0,0.0,0.0,0.0,4.908446763000001,0.0,0.0,-2953.0,0.0,0.0,-0.0,0.0,0.0,2.867431347,0.0,0.0,0.6700000166893005,0.05000000074505806,172.88999938964844,0.0313720703125,-0.0645751953125,1.05517578125,29.15999984741211,0.0,-39.0,-0.4356231689453125,-0.3399505615234375,Opening,0.0,0.0,0.0,0.0,0.0,0.0,0.0,0.0,
6.1229780000000025,0.0,0.0,3279.0,0.0,0.0,0.0,0.0,0.0,3.7988277360000002,0.0,0.0,-2984.0,0.0,0.0,-0.0,0.0,0.0,1.8688962930000002,0.0,0.0,2971.0,0.0,0.0,0.0,0.0,0.0,4.908446763000001,0.0,0.0,-2953.0,0.0,0.0,-0.0,0.0,0.0,2.867431347,0.0,0.0,0.6700000166893005,0.07999999821186066,172.8800048828125,0.027099609375,-0.033203125,1.0318603515625,29.15999984741211,0.0,-31.0,-0.450958251953125,-0.324615478515625,Opening,0.0,0.0,0.0,0.0,0.0,0.0,0.0,0.0,
6.223969999999972,0.0,0.0,3279.0,0.0,0.0,0.0,0.0,0.0,3.8000484390000002,0.0,0.0,-2984.0,0.0,0.0,-0.0,0.0,0.0,1.8676755900000002,0.0,0.0,2971.0,0.0,0.0,0.0,0.0,0.0,4.909667466,0.0,0.0,-2953.0,0.0,0.0,-0.0,0.0,0.0,2.866210644,0.0,0.0,0.6899999976158142,0.10999999940395355,172.89999389648438,-0.11981201171875,0.11676025390625,0.96405029296875,29.15999984741211,0.0,133.0,-0.4648590087890625,-0.3109893798828125,Opening,0.0,0.0,0.0,0.0,0.0,0.0,0.0,0.0,
6.3273489999999875,0.0,0.0,3279.0,0.0,0.0,0.0,0.0,0.0,3.7988277360000002,0.0,0.0,-2984.0,0.0,0.0,-0.0,0.0,0.0,1.8688962930000002,0.0,0.0,2971.0,0.0,0.0,0.0,0.0,0.0,4.909667466,0.0,0.0,-2953.0,0.0,0.0,-0.0,0.0,0.0,2.869872753,0.0,0.0,0.699999988079071,0.12999999523162842,172.88999938964844,0.011962890625,-0.13531494140625,1.07513427734375,29.15999984741211,0.0,-27.0,-0.481109619140625,-0.2957916259765625,Opening,0.0,0.0,0.0,0.0,0.0,0.0,0.0,0.0,
6.42980899999995,0.0,0.0,3279.0,0.0,0.0,0.0,0.0,0.0,3.7988277360000002,0.0,0.0,-2984.0,0.0,0.0,-0.0,0.0,0.0,1.8688962930000002,0.0,0.0,2971.0,0.0,0.0,0.0,0.0,0.0,4.910888169000001,0.0,0.0,-2953.0,0.0,0.0,-0.0,0.0,0.0,2.86865205,0.0,0.0,0.699999988079071,0.14000000059604645,172.88999938964844,-0.1156005859375,-0.00836181640625,0.82470703125,29.15999984741211,0.0,114.0,-0.50091552734375,-0.2798919677734375,Opening,0.0,0.0,0.0,0.0,0.0,0.0,0.0,0.0,
6.533670999999973,0.0,0.0,3279.0,0.0,0.0,0.0,0.0,0.0,3.802489845,0.0,0.0,-2984.0,0.0,0.0,-0.0,0.0,0.0,1.8676755900000002,0.0,0.0,2971.0,0.0,0.0,0.0,0.0,0.0,4.906005357000001,0.0,0.0,-2953.0,0.0,0.0,-0.0,0.0,0.0,2.86865205,0.0,0.0,0.6600000262260437,0.17000000178813934,172.88999938964844,-0.169921875,0.12725830078125,1.0484619140625,29.170000076293945,0.0,186.0,-0.517822265625,-0.266815185546875,Opening,0.0,0.0,0.0,0.0,0.0,0.0,0.0,0.0,
6.639503999999957,0.0,0.0,3279.0,0.0,0.0,0.0,0.0,0.0,3.7878414090000003,0.0,0.0,-2984.0,0.0,0.0,-0.0,0.0,0.0,1.8676755900000002,0.0,0.0,2971.0,0.0,0.0,0.0,0.0,0.0,4.909667466,0.0,0.0,-2953.0,0.0,0.0,-0.0,0.0,0.0,2.86865205,0.0,0.0,0.7300000190734863,0.17000000178813934,172.88999938964844,-0.15673828125,0.003173828125,0.9244384765625,29.170000076293945,0.0,157.0,-0.5322723388671875,-0.2545166015625,Opening,0.0,0.0,0.0,0.0,0.0,0.0,0.0,0.0,
6.747617999999958,0.0,0.0,3279.0,0.0,0.0,0.0,0.0,0.0,3.8000484390000002,0.0,0.0,-2984.0,0.0,0.0,-0.0,0.0,0.0,1.8688962930000002,0.0,0.0,2971.0,0.0,0.0,0.0,0.0,0.0,4.909667466,0.0,0.0,-2953.0,0.0,0.0,-0.0,0.0,0.0,2.867431347,0.0,0.0,0.699999988079071,0.1899999976158142,172.88999938964844,0.07861328125,0.04583740234375,1.06646728515625,29.170000076293945,0.0,-70.0,-0.5457763671875,-0.24114990234375,Opening,0.0,0.0,0.0,0.0,0.0,0.0,0.0,0.0,
6.848796999999962,0.0,0.0,3279.0,0.0,0.0,0.0,0.0,0.0,3.7988277360000002,0.0,0.0,-2984.0,0.0,0.0,-0.0,0.0,0.0,1.8652341840000002,0.0,0.0,2971.0,0.0,0.0,0.0,0.0,0.0,4.908446763000001,0.0,0.0,-2953.0,0.0,0.0,-0.0,0.0,0.0,2.879638377,0.0,0.0,0.7699999809265137,0.20999999344348907,172.88999938964844,-0.00347900390625,0.096435546875,0.972412109375,29.170000076293945,0.0,17.0,-0.5484771728515625,-0.226318359375,Opening,0.0,0.0,0.0,0.0,0.0,0.0,0.0,0.0,
6.950043000000005,0.0,0.0,3279.0,0.0,0.0,0.0,0.0,0.0,3.7988277360000002,0.0,0.0,-2984.0,0.0,0.0,-0.0,0.0,0.0,1.8688962930000002,0.0,0.0,2971.0,0.0,0.0,0.0,0.0,0.0,4.909667466,0.0,0.0,-2953.0,0.0,0.0,-0.0,0.0,0.0,2.86865205,0.0,0.0,0.75,0.1899999976158142,172.88999938964844,0.0213623046875,0.06402587890625,1.1226806640625,29.170000076293945,0.0,-11.0,-0.549560546875,-0.21075439453125,Opening,0.0,0.0,0.0,0.0,0.0,0.0,0.0,0.0,
7.0512339999999964,0.0,0.0,3279.0,0.0,0.0,0.0,0.0,0.0,3.8000484390000002,0.0,0.0,-2984.0,0.0,0.0,-0.0,0.0,0.0,1.8652341840000002,0.0,0.0,2971.0,0.0,0.0,0.0,0.0,0.0,4.90722606,0.0,0.0,-2953.0,0.0,0.0,-0.0,0.0,0.0,2.867431347,0.0,0.0,0.7599999904632568,0.23000000417232513,172.88999938964844,-0.04803466796875,0.03009033203125,1.0225830078125,29.18000030517578,0.0,53.0,-0.5498504638671875,-0.1975555419921875,Opening,0.0,0.0,0.0,0.0,0.0,0.0,0.0,0.0,
7.153864999999991,0.0,0.0,3279.0,0.0,0.0,0.0,0.0,0.0,3.8000484390000002,0.0,0.0,-2984.0,0.0,0.0,-0.0,0.0,0.0,1.8688962930000002,0.0,0.0,2971.0,0.0,0.0,0.0,0.0,0.0,4.908446763000001,0.0,0.0,-2953.0,0.0,0.0,-0.0,0.0,0.0,2.866210644,0.0,0.0,0.7799999713897705,0.27000001072883606,172.88999938964844,0.062255859375,0.17584228515625,0.99493408203125,29.18000030517578,0.0,-37.0,-0.550323486328125,-0.19830322265625,Opening,0.0,0.0,0.0,0.0,0.0,0.0,0.0,0.0,
7.255528999999981,0.0,0.0,3279.0,0.0,0.0,0.0,0.0,0.0,3.7988277360000002,0.0,0.0,-2984.0,0.0,0.0,-0.0,0.0,0.0,1.8676755900000002,0.0,0.0,2971.0,0.0,0.0,0.0,0.0,0.0,4.908446763000001,0.0,0.0,-2953.0,0.0,0.0,-0.0,0.0,0.0,2.867431347,0.0,0.0,0.7799999713897705,0.28999999165534973,172.88999938964844,-0.0177001953125,-0.026611328125,0.98199462890625,29.18000030517578,0.0,17.0,-0.5496978759765625,-0.1997833251953125,Opening,0.0,0.0,0.0,0.0,0.0,0.0,0.0,0.0,
7.364136999999988,0.0,0.0,3279.0,0.5,67.5,420.0,0.0,4.5,3.392333637,2.4820000000000024,0.0,-2984.0,0.25,-105.0,-420.0,0.0,6.125,2.3254392150000003,2.474500000000002,0.0,2971.0,1.0,75.0,420.0,0.0,7.75,4.464110871,2.4770000000000025,0.0,-2953.0,1.125,-82.5,-420.0,0.0,9.5,2.451171624,2.473750000000002,0.0,0.7599999904632568,0.2800000011920929,172.88999938964844,0.14910888671875,-0.03387451171875,1.029541015625,29.18000030517578,0.0,-147.0,-0.5493927001953125,-0.20123291015625,Opening,0.0,0.0,0.0,0.0,0.0,0.0,0.0,0.0,
7.468520999999949,0.0,0.0,3310.0,0.625,165.0,420.0,0.0,1.5,2.615966529,2.4821378131442575,0.0,-3019.0,0.625,-172.5,-420.0,0.0,2.0,3.1640621760000003,2.474637396706472,0.0,2998.0,1.5,172.5,420.0,0.0,0.625,3.615722286,2.4771375355190672,0.0,-2973.0,3.125,-52.5,-420.0,0.0,2.25,1.702880685,2.473887355062694,0.0,0.5899999737739563,0.550000011920929,172.8000030517578,-0.0579833984375,-0.02874755859375,0.9029541015625,29.18000030517578,0.0,61.0,-0.5524444580078125,-0.2007293701171875,Opening,0.0,0.0,0.0,0.0,0.0,0.0,0.0,0.0,
7.579123999999952,0.0,0.0,3325.0,1.75,127.5,420.0,0.0,1.75,1.8212888760000001,2.480759050496422,0.0,-3034.0,2.75,-90.0,-420.0,0.0,1.625,3.975829671,2.473262800343834,0.0,3024.0,2.0,187.5,420.0,0.0,0.375,2.761230186,2.475761550394697,0.0,-2984.0,5.375,-90.0,-420.0,0.0,2.625,0.9570311520000001,2.4725131753285754,0.0,0.4699999988079071,0.1599999964237213,172.4199981689453,-0.03399658203125,0.04345703125,0.98980712890625,29.260000228881836,0.0,41.0,-0.551910400390625,-0.198089599609375,Opening,0.0,0.0,0.0,0.0,0.0,0.0,0.0,0.0,
7.690054999999993,0.0,0.0,3346.0,3.0,105.0,420.0,0.0,0.125,1.220703,2.475519205390085,0.0,-3050.0,2.875,-172.5,-420.0,0.0,0.125,4.56542922,2.4680387887742805,0.0,3055.0,3.375,150.0,420.0,0.0,0.0,2.1630857160000003,2.4705322609795486,0.0,-3006.0,5.875,-187.5,-420.0,0.0,0.75,0.333251919,2.4672907471127004,0.0,0.8199999928474426,-0.28999999165534973,171.16000366210938,-0.13873291015625,0.040283203125,0.84423828125,29.260000228881836,0.0,137.0,-0.545562744140625,-0.1969451904296875,Opening,0.0,0.0,0.0,0.0,0.0,0.0,0.0,0.0,
7.8051589999999855,0.0,0.0,3366.0,3.375,187.5,420.0,0.0,0.25,1.125488166,2.455387545437286,0.0,-3103.0,2.75,-307.5,-420.0,0.0,0.0,4.628905776,2.4479679617987764,0.0,3073.0,3.625,232.5,420.0,0.0,0.125,2.1679685280000003,2.4504411563449464,0.0,-3050.0,5.875,-270.0,-420.0,0.0,0.0,0.133056627,2.447226003434926,0.0,1.0,-0.6200000047683716,171.22000122070312,-0.09576416015625,0.09619140625,1.0010986328125,29.260000228881836,0.0,95.0,-0.531097412109375,-0.1972198486328125,Opening,0.0,0.0,0.0,0.0,0.0,0.0,0.0,0.0,
7.914641999999993,0.0,0.0,3430.0,2.0,397.5,420.0,0.0,0.125,1.207275267,2.458972580803768,0.0,-3142.0,4.25,-262.5,-420.0,0.0,0.75,4.442138217,2.4515421640608066,0.0,3144.0,2.25,450.0,420.0,0.0,0.0,2.387695068,2.454018969641794,0.0,-3093.0,5.875,-345.0,-420.0,0.0,0.0,0.216064431,2.4507991223865107,0.0,1.0499999523162842,-0.8399999737739563,172.3800048828125,-0.0701904296875,-0.00848388671875,0.9635009765625,29.260000228881836,0.0,51.0,-0.519195556640625,-0.198699951171875,Opening,0.0,0.0,0.0,0.0,0.0,0.0,0.0,0.0,
8.040887999999978,0.0,0.0,3498.0,1.625,435.0,420.0,0.0,0.125,1.285400259,2.474967742411298,0.0,-3201.0,3.0,-412.5,-420.0,0.0,0.0,4.326171432000001,2.467488992182416,0.0,3217.0,1.875,472.5,420.0,0.0,0.0,2.515868883,2.4699819089253765,0.0,-3161.0,4.0,-457.5,-420.0,0.0,0.0,0.36987300900000003,2.4667411171595277,0.0,0.8999999761581421,-1.1100000143051147,172.91000366210938,-0.01861572265625,0.04327392578125,1.008056640625,29.260000228881836,0.0,2.0,-0.515960693359375,-0.1985931396484375,Opening,0.0,0.0,0.0,0.0,0.0,0.0,0.0,0.0,
8.15282699999999,0.0,0.0,3581.0,0.875,517.5,420.0,0.0,0.0,1.331786973,2.4822758366902646,0.0,-3285.0,1.25,-555.0,-420.0,0.0,0.0,4.299315966,2.4747750031789115,0.0,3296.0,1.125,502.5,420.0,0.0,0.0,2.501220447,2.4772752810160292,0.0,-3249.0,2.0,-570.0,-420.0,0.0,0.0,0.46020503100000004,2.474024919827776,0.0,0.8199999928474426,-1.2100000381469727,172.52000427246094,-0.01531982421875,0.0020751953125,1.0631103515625,29.25,0.0,-8.0,-0.5128326416015625,-0.1963348388671875,Opening,0.0,0.0,0.0,0.0,0.0,0.0,0.0,0.0,
8.268607999999949,0.0,0.0,3668.0,0.5,540.0,420.0,0.0,0.0,1.339111191,2.475795042080352,0.0,-3384.0,0.125,-607.5,-420.0,0.0,0.0,4.300536669,2.4683137919531952,0.0,3382.0,0.5,540.0,420.0,0.0,0.0,2.470702872,2.4708075419955806,0.0,-3344.0,0.75,-585.0,-420.0,0.0,0.0,0.46020503100000004,2.4675656669404793,0.0,0.8299999833106995,-1.0399999618530273,172.0,0.050048828125,-0.01861572265625,0.9830322265625,29.25,0.0,-71.0,-0.51416015625,-0.1950225830078125,Opening,0.0,0.0,0.0,0.0,0.0,0.0,0.0,0.0,
8.387995999999985,0.0,0.0,3752.0,0.375,525.0,420.0,0.0,0.0,1.337890488,2.468900597635908,0.0,-3477.0,0.0,-577.5,-420.0,0.0,0.0,4.300536669,2.4614401808420845,0.0,3467.0,0.375,517.5,420.0,0.0,0.0,2.449950921,2.4639269864400255,0.0,-3437.0,0.375,-562.5,-420.0,0.0,0.0,0.468749952,2.460694139162702,0.0,0.8500000238418579,-0.6700000166893005,171.58999633789062,0.04425048828125,0.00579833984375,0.947998046875,29.25,0.0,-56.0,-0.5192108154296875,-0.1953125,Opening,0.0,0.0,0.0,0.0,0.0,0.0,0.0,0.0,
8.497915999999968,0.0,0.0,3831.0,0.375,487.5,420.0,0.0,0.0,1.339111191,2.4640744023640977,0.0,-3563.0,0.0,-525.0,-420.0,0.0,0.0,4.301757372,2.4566285691579206,0.0,3545.0,0.375,480.0,420.0,0.0,0.0,2.447509515,2.45911051355998,0.0,-3522.0,0.375,-517.5,-420.0,0.0,0.0,0.42724605000000004,2.455883985837303,0.0,0.8899999856948853,-0.4000000059604645,171.3000030517578,-0.00250244140625,0.01727294921875,1.1114501953125,29.25,0.0,-5.0,-0.5287628173828125,-0.1965179443359375,Opening,0.0,0.0,0.0,0.0,0.0,0.0,0.0,0.0,
8.61096299999999,0.0,0.0,3905.0,0.375,450.0,420.0,0.0,0.0,1.333007676,2.460075717163089,0.0,-3642.0,0.0,-480.0,-420.0,0.0,0.0,4.300536669,2.452641967010501,0.0,3618.0,0.5,450.0,420.0,0.0,0.0,2.442626703,2.45511988372803,0.0,-3599.0,0.5,-472.5,-420.0,0.0,0.0,0.412597614,2.451898591995242,0.0,0.8500000238418579,-0.23999999463558197,171.13999938964844,0.049072265625,0.04156494140625,0.96575927734375,29.219999313354492,0.0,-48.0,-0.53997802734375,-0.197998046875,Opening,0.0,0.0,0.0,0.0,0.0,0.0,0.0,0.0,
8.72990499999997,0.0,0.0,3974.0,0.375,427.5,420.0,0.0,0.0,1.387939311,2.45759360775418,0.0,-3713.0,0.125,-435.0,-420.0,0.0,0.0,4.300536669,2.450167357932199,0.0,3688.0,0.5,427.5,420.0,0.0,0.0,2.442626703,2.452642774539526,0.0,-3669.0,0.75,-435.0,-420.0,0.0,0.0,0.40771480200000004,2.4494247329500007,0.0,0.8799999952316284,-0.14000000059604645,171.08999633789062,0.00482177734375,0.0235595703125,1.0057373046875,29.219999313354492,0.0,-6.0,-0.5532379150390625,-0.1997833251953125,Opening,0.0,0.0,0.0,0.0,0.0,0.0,0.0,0.0,
8.844789999999978,0.0,0.0,4041.0,0.5,412.5,420.0,0.0,0.0,1.339111191,2.4571799579196534,0.0,-3780.0,0.125,-420.0,-420.0,0.0,0.0,4.300536669,2.4497549580468094,0.0,3753.0,0.75,405.0,420.0,0.0,0.0,2.442626703,2.4522299580044242,0.0,-3737.0,0.875,-420.0,-420.0,0.0,0.0,0.412597614,2.449012458059525,0.0,0.9200000166893005,-0.019999999552965164,171.00999450683594,0.00146484375,0.02880859375,1.033447265625,29.219999313354492,0.0,0.0,-0.5636444091796875,-0.20111083984375,Opening,0.0,0.0,0.0,0.0,0.0,0.0,0.0,0.0,
8.957649999999965,0.0,0.0,4108.0,0.5,412.5,420.0,0.0,0.0,1.337890488,2.4560768215603326,0.0,-3847.0,0.125,-412.5,-420.0,0.0,0.0,4.300536669,2.448655155097116,0.0,3820.0,0.75,412.5,420.0,0.0,0.0,2.4340817820000002,2.451129043918188,0.0,-3805.0,0.875,-420.0,-420.0,0.0,0.0,0.412597614,2.447912988450794,0.0,0.8899999856948853,0.05000000074505806,171.0,-0.022705078125,0.00640869140625,1.089111328125,29.219999313354492,0.0,21.0,-0.5644989013671875,-0.2009429931640625,Opening,0.0,0.0,0.0,0.0,0.0,0.0,0.0,0.0,
9.070877999999968,0.0,0.0,4175.0,0.5,412.5,420.0,0.0,0.0,1.339111191,2.455939008416073,0.0,-3915.0,0.125,-420.0,-420.0,0.0,0.0,4.299315966,2.4485177583906412,0.0,3885.0,1.0,412.5,420.0,0.0,0.0,2.438964594,2.4509915083991185,0.0,-3872.0,0.875,-412.5,-420.0,0.0,0.0,0.412597614,2.447775633388098,0.0,0.8700000047683716,0.10999999940395355,170.94000244140625,0.016845703125,-0.00872802734375,0.9625244140625,29.219999313354492,0.0,-18.0,-0.5648193359375,-0.2010955810546875,Opening,0.0,0.0,0.0,0.0,0.0,0.0,0.0,0.0,
9.188533999999985,0.0,0.0,4241.0,0.5,412.5,420.0,0.0,0.0,1.339111191,2.455111708747019,0.0,-3983.0,0.125,-420.0,-420.0,0.0,0.0,4.301757372,2.447692958619862,0.0,3953.0,1.0,420.0,420.0,0.0,0.0,2.437743891,2.4501658753289144,0.0,-3939.0,0.875,-420.0,-420.0,0.0,0.0,0.41381831700000005,2.4469510836071464,0.0,0.9300000071525574,0.15000000596046448,170.8699951171875,0.03759765625,0.021240234375,1.0845947265625,29.190000534057617,0.0,-33.0,-0.564849853515625,-0.2010040283203125,Opening,0.0,0.0,0.0,0.0,0.0,0.0,0.0,0.0,
9.305896999999998,0.0,0.0,4307.0,0.625,412.5,420.0,0.0,0.0,1.339111191,2.4540085723876985,0.0,-4051.0,0.125,-420.0,-420.0,0.0,0.0,4.300536669,2.4465931556701688,0.0,4018.0,1.0,397.5,420.0,0.0,0.0,2.4328610790000003,2.4490649612426787,0.0,-4007.0,0.875,-420.0,-420.0,0.0,0.0,0.40771480200000004,2.445851613998416,0.0,0.9300000071525574,0.20000000298023224,170.7899932861328,0.001708984375,0.0311279296875,1.13653564453125,29.190000534057617,0.0,4.0,-0.5655670166015625,-0.2010955810546875,Opening,0.0,0.0,0.0,0.0,0.0,0.0,0.0,0.0,
9.414382999999972,0.0,0.0,4307.0,0.5,412.5,420.0,0.0,0.0,1.337890488,2.4530432491726373,0.0,-4051.0,0.125,-412.5,-420.0,0.0,0.0,4.300536669,2.44563074942695,0.0,4018.0,1.0,405.0,420.0,0.0,0.0,2.4328610790000003,2.448101582675512,0.0,-4074.0,1.0,-412.5,-420.0,0.0,0.0,0.410156208,2.444889499452381,0.0,0.9100000262260437,0.25999999046325684,170.82000732421875,-0.02166748046875,0.01824951171875,0.93475341796875,29.190000534057617,0.0,26.0,-0.5655364990234375,-0.2011260986328125,Opening,0.0,0.0,0.0,0.0,0.0,0.0,0.0,0.0,
9.525492999999958,0.0,0.0,4374.0,0.625,412.5,419.99999999999994,0.0,0.0,1.3439940030000002,2.453457109408911,0.0,-4118.0,0.125,-435.0,-419.99999999999994,0.0,0.0,4.300536669,2.4460433590783035,0.0,4084.0,1.0,420.0,419.99999999999994,0.0,0.0,2.4328610790000003,2.448514609188506,0.0,-4074.0,1.0,-420.0,-419.99999999999994,0.0,0.0,0.40893550500000003,2.445301984045243,0.0,0.9100000262260437,0.23999999463558197,170.74000549316406,0.0126953125,-0.01263427734375,1.03009033203125,29.190000534057617,0.0,-12.0,-0.565460205078125,-0.201080322265625,Opening,0.0,0.0,0.0,0.0,0.0,0.0,0.0,0.0,
9.630788,0.0,0.0,4442.0,0.5,427.5,420.00000000000006,0.0,0.0,1.337890488,2.4523539730495902,0.0,-4188.0,0.125,-420.0,-420.00000000000006,0.0,0.0,4.300536669,2.44494355612861,0.0,4152.0,1.0,427.5,420.00000000000006,0.0,0.0,2.4328610790000003,2.44741369510227,0.0,-4142.0,1.0,-412.5,-420.00000000000006,0.0,0.0,0.40771480200000004,2.4442025144365123,0.0,0.8999999761581421,0.25999999046325684,170.72999572753906,0.01654052734375,0.0552978515625,1.0543212890625,29.170000076293945,0.0,-5.0,-0.5658416748046875,-0.201080322265625,Opening,0.0,0.0,0.0,0.0,0.0,0.0,0.0,0.0,
9.739076999999991,0.0,0.0,4510.0,0.625,412.5,420.0,0.0,0.0,1.339111191,2.4522159495035836,0.0,-4257.0,0.125,-420.0,-420.0,0.0,0.0,4.300536669,2.444805949656171,0.0,4220.0,1.0,412.5,420.0,0.0,0.0,2.4328610790000003,2.447275949605309,0.0,-4210.0,0.875,-427.5,-420.0,0.0,0.0,0.40771480200000004,2.44406494967143,0.0,0.8700000047683716,0.28999999165534973,170.66000366210938,0.0308837890625,-0.01483154296875,0.97601318359375,29.170000076293945,0.0,-30.0,-0.565887451171875,-0.2012939453125,Opening,0.0,0.0,0.0,0.0,0.0,0.0,0.0,0.0,
9.848213999999977,0.0,0.0,4578.0,0.5,420.0,420.00000000000006,0.0,0.0,1.339111191,2.45125083669027,0.0,-4325.0,0.125,-427.5,-420.00000000000006,0.0,0.0,4.301757372,2.4438437531789168,0.0,4286.0,1.0,412.5,420.00000000000006,0.0,0.0,2.4328610790000003,2.4463127810160348,0.0,-4278.0,0.875,-427.5,-420.00000000000006,0.0,0.0,0.40771480200000004,2.4431030448277817,0.0,0.8999999761581421,0.3199999928474426,170.60000610351562,0.01171875,-0.00927734375,0.96209716796875,29.170000076293945,0.0,-10.0,-0.5660247802734375,-0.2016448974609375,Opening,0.0,0.0,0.0,0.0,0.0,0.0,0.0,0.0,
9.956016999999992,0.0,0.0,4646.0,0.5,435.0,419.99999999999994,0.0,0.0,1.337890488,2.450423537021216,0.0,-4394.0,0.125,-435.0,-419.99999999999994,0.0,0.0,4.300536669,2.4430189534081377,0.0,4353.0,1.0,420.0,419.99999999999994,0.0,0.0,2.4316403760000003,2.4454871479458307,0.0,-4346.0,0.875,-427.5,-419.99999999999994,0.0,0.0,0.40893550500000003,2.44227849504683,0.0,0.8799999952316284,0.33000001311302185,170.60000610351562,0.04046630859375,-0.0196533203125,0.8553466796875,29.170000076293945,0.0,-40.0,-0.566131591796875,-0.2024688720703125,Opening,0.0,0.0,0.0,0.0,0.0,0.0,0.0,0.0,
10.067207999999985,0.0,0.0,4716.0,0.5,427.5,419.99999999999994,0.0,0.0,1.339111191,2.450423537021216,0.0,-4465.0,0.125,-435.0,-419.99999999999994,0.0,0.0,4.301757372,2.4430189534081377,0.0,4421.0,1.0,420.0,419.99999999999994,0.0,0.0,2.4328610790000003,2.4454871479458307,0.0,-4415.0,0.75,-427.5,-419.99999999999994,0.0,0.0,0.40771480200000004,2.44227849504683,0.0,0.9100000262260437,0.28999999165534973,170.55999755859375,0.01959228515625,0.0498046875,1.0543212890625,29.170000076293945,0.0,-8.0,-0.5663299560546875,-0.2029266357421875,Opening,0.0,0.0,0.0,0.0,0.0,0.0,0.0,0.0,
10.174828999999969,0.0,0.0,4783.0,0.5,420.0,420.0,0.0,0.0,1.359863142,2.4497340504964225,0.0,-4533.0,0.125,-427.5,-420.0,0.0,0.0,4.301757372,2.442331550343834,0.0,4489.0,1.0,420.0,420.0,0.0,0.0,2.4328610790000003,2.4447990503946966,0.0,-4483.0,0.75,-420.0,-420.0,0.0,0.0,0.40893550500000003,2.441591300328575,0.0,0.8899999856948853,0.33000001311302185,170.52000427246094,0.03759765625,0.01947021484375,1.0408935546875,29.209999084472656,0.0,-30.0,-0.566192626953125,-0.20306396484375,Opening,0.0,0.0,0.0,0.0,0.0,0.0,0.0,0.0,
10.289976999999956,0.0,0.0,4850.0,0.5,412.5,420.0,0.0,0.0,1.36718736,2.449320400661895,0.0,-4602.0,0.125,-427.5,-420.0,0.0,0.0,4.300536669,2.441919150458444,0.0,4554.0,1.125,405.0,420.0,0.0,0.0,2.4328610790000003,2.4443862338595945,0.0,-4552.0,0.75,-427.5,-420.0,0.0,0.0,0.40771480200000004,2.441179025438099,0.0,0.8999999761581421,0.41999998688697815,170.50999450683594,-7.9345703125E-4,0.0234375,0.97393798828125,29.209999084472656,0.0,9.0,-0.566741943359375,-0.2031402587890625,Opening,0.0,0.0,0.0,0.0,0.0,0.0,0.0,0.0,
10.39662699999998,0.0,0.0,4897.0,0.0,315.0,0.0,0.0,6.75,1.071777234,0.0,0.0,-4654.0,0.0,-337.5,-0.0,0.0,6.625,3.923339442,0.0,0.0,4599.0,0.0,300.0,0.0,0.0,7.75,2.09960916,0.0,0.0,-4594.0,0.0,-292.5,-0.0,0.0,8.0,0.666503838,0.0,0.0,0.8999999761581421,0.5899999737739563,170.39999389648438,0.1787109375,0.08514404296875,1.184326171875,29.209999084472656,0.0,-152.0,-0.56842041015625,-0.20343017578125,Opening,0.0,0.0,0.0,0.0,0.0,0.0,0.0,0.0,
10.509919999999983,0.0,0.0,4940.0,0.0,270.0,0.0,0.0,0.875,0.24658200600000002,0.0,0.0,-4671.0,0.0,-97.5,-0.0,0.0,1.5,3.1164547590000002,0.0,0.0,4637.0,0.0,262.5,0.0,0.0,0.875,1.329345567,0.0,0.0,-4636.0,0.0,-285.0,-0.0,0.0,1.75,1.408691262,0.0,0.0,0.9100000262260437,1.7699999809265137,170.27000427246094,0.32501220703125,-0.0018310546875,1.03533935546875,29.209999084472656,0.0,-291.0,-0.5802154541015625,-0.20513916015625,Opening,0.0,0.0,0.0,0.0,0.0,0.0,0.0,0.0,
10.613694999999948,0.0,0.0,4940.0,0.0,82.5,0.0,0.0,1.5,4.422606969,0.0,0.0,-4671.0,0.0,-67.5,-0.0,0.0,2.0,2.348632572,0.0,0.0,4637.0,0.0,75.0,0.0,0.0,0.875,0.521240181,0.0,0.0,-4644.0,0.0,-67.5,-0.0,0.0,1.375,2.1740720430000002,0.0,0.0,0.8700000047683716,1.940000057220459,170.27000427246094,-0.1104736328125,0.1180419921875,0.85760498046875,29.190000534057617,0.0,155.0,-0.603759765625,-0.2073211669921875,Opening,0.0,0.0,0.0,0.0,0.0,0.0,0.0,0.0,
10.724516999999993,0.0,0.0,4947.0,0.0,60.0,0.0,0.0,0.25,3.878173431,0.0,0.0,-4675.0,0.0,0.0,-0.0,0.0,0.0,1.849365045,0.0,0.0,4651.0,0.0,82.5,0.0,0.0,0.0,4.876708485,0.0,0.0,-4644.0,0.0,0.0,-0.0,0.0,0.5,2.813720415,0.0,0.0,0.9300000071525574,1.659999966621399,170.1300048828125,9.1552734375E-4,-0.05340576171875,1.09808349609375,29.190000534057617,0.0,17.0,-0.62420654296875,-0.2078704833984375,Opening,0.0,0.0,0.0,0.0,0.0,0.0,0.0,0.0,
10.829835999999952,0.0,0.0,4954.0,0.0,0.0,0.0,0.0,0.25,3.498534798,0.0,0.0,-4675.0,0.0,0.0,-0.0,0.0,0.125,1.5588377310000001,0.0,0.0,4660.0,0.125,15.0,0.0,0.0,0.0,4.79736279,0.0,0.0,-4647.0,0.0,-22.5,-0.0,0.0,0.0,2.988280944,0.0,0.0,0.8199999928474426,1.590000033378601,170.3300018310547,0.025634765625,0.042724609375,0.96112060546875,29.190000534057617,0.0,5.0,-0.6312255859375,-0.2065277099609375,Opening,0.0,0.0,0.0,0.0,0.0,0.0,0.0,0.0,
10.935664999999979,0.0,0.0,4955.0,0.0,7.5,0.0,0.0,0.5,3.5729976810000004,0.0,0.0,-4675.0,0.0,0.0,-0.0,0.0,0.375,1.6345213170000001,0.0,0.0,4661.0,0.125,0.0,0.0,0.0,0.0,4.875487782,0.0,0.0,-4648.0,0.0,0.0,-0.0,0.0,0.0,2.930907903,0.0,0.0,0.8199999928474426,1.5199999809265137,170.30999755859375,0.021728515625,0.0103759765625,1.05291748046875,29.190000534057617,0.0,5.0,-0.63104248046875,-0.2065582275390625,Opening,0.0,0.0,0.0,0.0,0.0,0.0,0.0,0.0,
11.046592000000004,0.0,0.0,4955.0,0.125,0.0,0.0,0.0,0.125,3.765868755,0.0,0.0,-4676.0,0.0,-7.5,-0.0,0.0,0.0,1.80664044,0.0,0.0,4661.0,0.125,0.0,0.0,0.0,0.0,4.942626447,0.0,0.0,-4648.0,0.0,0.0,-0.0,0.0,0.0,2.910155952,0.0,0.0,0.8199999928474426,1.4600000381469727,170.33999633789062,0.0103759765625,0.0633544921875,1.0140380859375,29.190000534057617,0.0,23.0,-0.629974365234375,-0.2067108154296875,Opening,0.0,0.0,0.0,0.0,0.0,0.0,0.0,0.0,
11.149223999999988,0.0,0.0,4955.0,0.125,0.0,0.0,0.0,0.125,3.867187104,0.0,0.0,-4677.0,0.0,0.0,-0.0,0.0,0.0,1.848144342,0.0,0.0,4661.0,0.125,0.0,0.0,0.0,0.0,0.015869139,0.0,0.0,-4648.0,0.0,0.0,-0.0,0.0,0.0,2.8918454070000004,0.0,0.0,0.8100000023841858,1.3799999952316284,170.27999877929688,-0.00103759765625,0.01812744140625,1.041259765625,29.219999313354492,0.0,26.0,-0.6295166015625,-0.206695556640625,Opening,0.0,0.0,0.0,0.0,0.0,0.0,0.0,0.0,
11.252737999999955,0.0,0.0,4955.0,0.125,0.0,0.0,0.0,0.0,3.872069916,0.0,0.0,-4678.0,0.0,0.0,-0.0,0.0,0.0,1.849365045,0.0,0.0,4661.0,0.125,0.0,0.0,0.0,0.0,0.015869139,0.0,0.0,-4648.0,0.0,0.0,-0.0,0.0,0.0,2.8918454070000004,0.0,0.0,0.8199999928474426,1.309999942779541,170.3000030517578,0.01190185546875,0.01055908203125,0.99774169921875,29.219999313354492,0.0,10.0,-0.6293792724609375,-0.206695556640625,Opening,0.0,0.0,0.0,0.0,0.0,0.0,0.0,0.0,
11.356824999999953,0.0,0.0,4955.0,0.125,0.0,0.0,0.0,0.0,3.868407807,0.0,0.0,-4678.0,0.0,0.0,-0.0,0.0,0.0,1.848144342,0.0,0.0,4661.0,0.125,0.0,0.0,0.0,0.0,4.940185041,0.0,0.0,-4648.0,0.0,0.0,-0.0,0.0,0.0,2.8918454070000004,0.0,0.0,0.8199999928474426,1.2599999904632568,170.2899932861328,0.007080078125,0.02099609375,1.03033447265625,29.219999313354492,0.0,16.0,-0.6293792724609375,-0.206695556640625,Opening,0.0,0.0,0.0,0.0,0.0,0.0,0.0,0.0,
11.465538999999989,0.0,0.0,4955.0,0.125,0.0,0.0,0.0,0.0,3.868407807,0.0,0.0,-4678.0,0.0,0.0,-0.0,0.0,0.0,1.849365045,0.0,0.0,4661.0,0.125,0.0,0.0,0.0,0.0,4.935302229,0.0,0.0,-4648.0,0.0,0.0,-0.0,0.0,0.0,2.8918454070000004,0.0,0.0,0.8199999928474426,1.2000000476837158,170.2899932861328,0.01202392578125,0.01788330078125,1.01458740234375,29.219999313354492,0.0,9.0,-0.6293792724609375,-0.206695556640625,Opening,0.0,0.0,0.0,0.0,0.0,0.0,0.0,0.0,
11.57001999999996,0.0,0.0,4955.0,0.125,0.0,0.0,0.0,0.0,3.868407807,0.0,0.0,-4678.0,0.0,0.0,-0.0,0.0,0.0,1.848144342,0.0,0.0,4661.0,0.125,0.0,0.0,0.0,0.0,4.936522932,0.0,0.0,-4648.0,0.0,0.0,-0.0,0.0,0.0,2.8906247040000004,0.0,0.0,0.8100000023841858,1.159999966621399,170.2899932861328,0.01312255859375,0.0206298828125,1.00054931640625,29.219999313354492,0.0,8.0,-0.6293792724609375,-0.206695556640625,Opening,0.0,0.0,0.0,0.0,0.0,0.0,0.0,0.0,
11.678293999999994,0.0,0.0,4955.0,0.125,0.0,0.0,0.0,0.0,3.865966401,0.0,0.0,-4678.0,0.0,0.0,-0.0,0.0,0.0,1.848144342,0.0,0.0,4661.0,0.125,0.0,0.0,0.0,0.0,4.937743635,0.0,0.0,-4648.0,0.0,0.0,-0.0,0.0,0.0,2.8930661100000004,0.0,0.0,0.8100000023841858,1.1200000047683716,170.2899932861328,0.01287841796875,0.01275634765625,0.9974365234375,29.229999542236328,0.0,6.0,-0.6293792724609375,-0.206695556640625,Opening,0.0,0.0,0.0,0.0,0.0,0.0,0.0,0.0,
11.787226999999955,0.0,0.0,4955.0,0.125,0.0,0.0,0.0,0.0,3.867187104,0.0,0.0,-4678.0,0.0,0.0,-0.0,0.0,0.0,1.849365045,0.0,0.0,4661.0,0.125,0.0,0.0,0.0,0.0,4.937743635,0.0,0.0,-4648.0,0.0,0.0,-0.0,0.0,0.0,2.8918454070000004,0.0,0.0,0.8199999928474426,1.0700000524520874,170.2899932861328,0.0140380859375,0.00762939453125,1.0020751953125,29.229999542236328,0.0,3.0,-0.6293792724609375,-0.206695556640625,Opening,0.0,0.0,0.0,0.0,0.0,0.0,0.0,0.0,
11.89191399999999,0.0,0.0,4955.0,0.125,0.0,0.0,0.0,0.0,3.864745698,0.0,0.0,-4678.0,0.0,0.0,-0.0,0.0,0.0,1.849365045,0.0,0.0,4661.0,0.125,0.0,0.0,0.0,0.0,4.936522932,0.0,0.0,-4648.0,0.0,0.0,-0.0,0.0,0.0,2.8930661100000004,0.0,0.0,0.8299999833106995,1.0299999713897705,170.2899932861328,0.01080322265625,0.01776123046875,1.0218505859375,29.229999542236328,0.0,7.0,-0.6293792724609375,-0.206695556640625,Opening,0.0,0.0,0.0,0.0,0.0,0.0,0.0,0.0,
11.996204999999959,0.0,0.0,4955.0,0.125,0.0,0.0,0.0,0.0,3.867187104,0.0,0.0,-4678.0,0.0,0.0,-0.0,0.0,0.0,1.848144342,0.0,0.0,4661.0,0.125,0.0,0.0,0.0,0.0,4.938964338,0.0,0.0,-4648.0,0.0,0.0,-0.0,0.0,0.0,2.8918454070000004,0.0,0.0,0.8299999833106995,0.9900000095367432,170.2899932861328,0.0101318359375,0.0135498046875,1.0074462890625,29.229999542236328,0.0,7.0,-0.6293792724609375,-0.206695556640625,Opening,0.0,0.0,0.0,0.0,0.0,0.0,0.0,0.0,
12.109829999999958,0.0,0.0,4955.0,0.125,0.0,0.0,0.0,0.0,3.868407807,0.0,0.0,-4678.0,0.0,0.0,-0.0,0.0,0.0,1.848144342,0.0,0.0,4661.0,0.125,0.0,0.0,0.0,0.0,4.936522932,0.0,0.0,-4648.0,0.0,0.0,-0.0,0.0,0.0,2.8918454070000004,0.0,0.0,0.8299999833106995,0.9599999785423279,170.2899932861328,0.0087890625,0.01007080078125,1.01251220703125,29.229999542236328,0.0,7.0,-0.6293792724609375,-0.206695556640625,Opening,0.0,0.0,0.0,0.0,0.0,0.0,0.0,0.0,
12.21148199999996,0.0,0.0,4955.0,0.125,0.0,0.0,0.0,0.0,3.868407807,0.0,0.0,-4678.0,0.0,0.0,-0.0,0.0,0.0,1.848144342,0.0,0.0,4661.0,0.125,0.0,0.0,0.0,0.0,4.938964338,0.0,0.0,-4648.0,0.0,0.0,-0.0,0.0,0.0,2.8918454070000004,0.0,0.0,0.8199999928474426,0.9300000071525574,170.2899932861328,0.00933837890625,0.0133056640625,1.008056640625,29.209999084472656,0.0,6.0,-0.6293792724609375,-0.206695556640625,Opening,0.0,0.0,0.0,0.0,0.0,0.0,0.0,0.0,
12.315027999999991,0.0,0.0,4955.0,0.125,0.0,0.0,0.0,0.0,3.86962851,0.0,0.0,-4678.0,0.0,0.0,-0.0,0.0,0.0,1.848144342,0.0,0.0,4661.0,0.125,0.0,0.0,0.0,0.0,4.937743635,0.0,0.0,-4648.0,0.0,0.0,-0.0,0.0,0.0,2.8918454070000004,0.0,0.0,0.8299999833106995,0.8899999856948853,170.2899932861328,0.0037841796875,0.013916015625,1.022705078125,29.209999084472656,0.0,11.0,-0.6293792724609375,-0.206695556640625,Opening,0.0,0.0,0.0,0.0,0.0,0.0,0.0,0.0,
12.424193999999959,0.0,0.0,4955.0,0.125,0.0,0.0,0.0,0.0,3.868407807,0.0,0.0,-4678.0,0.0,0.0,-0.0,0.0,0.0,1.848144342,0.0,0.0,4661.0,0.125,0.0,0.0,0.0,0.0,4.938964338,0.0,0.0,-4648.0,0.0,0.0,-0.0,0.0,0.0,2.8918454070000004,0.0,0.0,0.8299999833106995,0.8700000047683716,170.2899932861328,0.01202392578125,0.0146484375,1.01666259765625,29.209999084472656,0.0,3.0,-0.6293792724609375,-0.206695556640625,Opening,0.0,0.0,0.0,0.0,0.0,0.0,0.0,0.0,
12.52904999999999,0.0,0.0,4955.0,0.125,0.0,0.0,0.0,0.0,3.86962851,0.0,0.0,-4678.0,0.0,0.0,-0.0,0.0,0.0,1.849365045,0.0,0.0,4661.0,0.125,0.0,0.0,0.0,0.0,4.935302229,0.0,0.0,-4648.0,0.0,0.0,-0.0,0.0,0.0,2.8918454070000004,0.0,0.0,0.8299999833106995,0.8399999737739563,170.2899932861328,0.009765625,0.01177978515625,0.9949951171875,29.209999084472656,0.0,4.0,-0.6293792724609375,-0.206695556640625,Opening,0.0,0.0,0.0,0.0,0.0,0.0,0.0,0.0,
12.633897999999986,0.0,0.0,4955.0,0.125,0.0,0.0,0.0,0.0,3.867187104,0.0,0.0,-4678.0,0.0,0.0,-0.0,0.0,0.0,1.848144342,0.0,0.0,4661.0,0.125,0.0,0.0,0.0,0.0,4.937743635,0.0,0.0,-4648.0,0.0,0.0,-0.0,0.0,0.0,2.882079783,0.0,0.0,0.8299999833106995,0.8199999928474426,170.2899932861328,0.0078125,0.01629638671875,1.02191162109375,29.209999084472656,0.0,7.0,-0.6293792724609375,-0.206695556640625,Opening,0.0,0.0,0.0,0.0,0.0,0.0,0.0,0.0,
12.74149099999998,0.0,0.0,4955.0,0.125,0.0,0.0,0.0,0.0,3.867187104,0.0,0.0,-4678.0,0.0,0.0,-0.0,0.0,0.0,1.848144342,0.0,0.0,4661.0,0.125,0.0,0.0,0.0,0.0,4.938964338,0.0,0.0,-4648.0,0.0,0.0,-0.0,0.0,0.0,2.8906247040000004,0.0,0.0,0.8299999833106995,0.800000011920929,170.2899932861328,0.00604248046875,0.01763916015625,1.00933837890625,29.209999084472656,0.0,8.0,-0.6293792724609375,-0.206695556640625,Opening,0.0,0.0,0.0,0.0,0.0,0.0,0.0,0.0,
12.850291999999957,0.0,0.0,4955.0,0.125,0.0,0.0,0.0,0.0,3.867187104,0.0,0.0,-4678.0,0.0,0.0,-0.0,0.0,0.0,1.849365045,0.0,0.0,4661.0,0.125,0.0,0.0,0.0,0.0,4.936522932,0.0,0.0,-4648.0,0.0,0.0,-0.0,0.0,0.0,2.8967282190000003,0.0,0.0,0.8299999833106995,0.7900000214576721,170.2899932861328,0.01043701171875,0.01116943359375,0.99957275390625,29.209999084472656,0.0,2.0,-0.6293792724609375,-0.206695556640625,Opening,0.0,0.0,0.0,0.0,0.0,0.0,0.0,0.0,
12.956245999999984,0.0,0.0,4955.0,0.125,0.0,0.0,0.0,0.0,3.867187104,0.0,0.0,-4678.0,0.0,0.0,-0.0,0.0,0.0,1.848144342,0.0,0.0,4661.0,0.125,0.0,0.0,0.0,0.0,4.937743635,0.0,0.0,-4648.0,0.0,0.0,-0.0,0.0,0.0,2.8918454070000004,0.0,0.0,0.8299999833106995,0.7699999809265137,170.27999877929688,0.01141357421875,0.0120849609375,0.9891357421875,29.209999084472656,0.0,1.0,-0.6293792724609375,-0.206695556640625,Opening,0.0,0.0,0.0,0.0,0.0,0.0,0.0,0.0,
13.060543000000004,0.0,0.0,4955.0,0.125,0.0,0.0,0.0,0.0,3.867187104,0.0,0.0,-4678.0,0.0,0.0,-0.0,0.0,0.0,1.849365045,0.0,0.0,4661.0,0.125,0.0,0.0,0.0,0.0,4.938964338,0.0,0.0,-4648.0,0.0,0.0,-0.0,0.0,0.0,2.8918454070000004,0.0,0.0,0.8299999833106995,0.7599999904632568,170.2899932861328,0.01165771484375,0.009521484375,0.994384765625,29.209999084472656,0.0,0.0,-0.6293792724609375,-0.206695556640625,Opening,0.0,0.0,0.0,0.0,0.0,0.0,0.0,0.0,
13.165271999999998,0.0,0.0,4955.0,0.125,0.0,0.0,0.0,0.0,3.868407807,0.0,0.0,-4678.0,0.0,0.0,-0.0,0.0,0.0,1.849365045,0.0,0.0,4661.0,0.125,0.0,0.0,0.0,0.0,4.938964338,0.0,0.0,-4648.0,0.0,0.0,-0.0,0.0,0.0,2.8930661100000004,0.0,0.0,0.8299999833106995,0.7400000095367432,170.2899932861328,0.00897216796875,0.01373291015625,0.99896240234375,29.239999771118164,0.0,3.0,-0.6293792724609375,-0.206695556640625,Opening,0.0,0.0,0.0,0.0,0.0,0.0,0.0,0.0,
13.270061999999976,0.0,0.0,4955.0,0.125,0.0,0.0,0.0,0.0,3.852538668,0.0,0.0,-4678.0,0.0,0.0,-0.0,0.0,0.0,1.849365045,0.0,0.0,4661.0,0.125,0.0,0.0,0.0,0.0,4.935302229,0.0,0.0,-4648.0,0.0,0.0,-0.0,0.0,0.0,2.8918454070000004,0.0,0.0,0.8299999833106995,0.7300000190734863,170.27999877929688,0.0098876953125,0.0113525390625,0.9910888671875,29.239999771118164,0.0,2.0,-0.6293792724609375,-0.206695556640625,Opening,0.0,0.0,0.0,0.0,0.0,0.0,0.0,0.0,
13.372630999999995,0.0,0.0,4955.0,0.125,0.0,0.0,0.0,0.0,3.867187104,0.0,0.0,-4678.0,0.0,0.0,-0.0,0.0,0.0,1.849365045,0.0,0.0,4661.0,0.125,0.0,0.0,0.0,0.0,4.937743635,0.0,0.0,-4648.0,0.0,0.0,-0.0,0.0,0.0,2.8930661100000004,0.0,0.0,0.8299999833106995,0.7200000286102295,170.27999877929688,0.013671875,0.0142822265625,0.98626708984375,29.239999771118164,0.0,-1.0,-0.6293792724609375,-0.206695556640625,Opening,0.0,0.0,0.0,0.0,0.0,0.0,0.0,0.0,
13.479733999999997,0.0,0.0,4955.0,0.125,0.0,0.0,0.0,0.0,3.85742148,0.0,0.0,-4678.0,0.0,0.0,-0.0,0.0,0.0,1.849365045,0.0,0.0,4661.0,0.125,0.0,0.0,0.0,0.0,4.936522932,0.0,0.0,-4648.0,0.0,0.0,-0.0,0.0,0.0,2.8918454070000004,0.0,0.0,0.8299999833106995,0.699999988079071,170.27999877929688,0.00787353515625,0.0111083984375,1.01019287109375,29.239999771118164,0.0,3.0,-0.6293792724609375,-0.206695556640625,Opening,0.0,0.0,0.0,0.0,0.0,0.0,0.0,0.0,
13.588491999999968,0.0,0.0,4955.0,0.125,0.0,0.0,0.0,0.0,3.867187104,0.0,0.0024414059999999793,-4678.0,0.0,0.0,-0.0,0.0,0.0,1.848144342,0.0,0.0,4661.0,0.125,0.0,0.0,0.0,0.0,4.937743635,0.0,0.0,-4648.0,0.0,0.0,-0.0,0.0,0.0,2.8918454070000004,0.0,0.0,0.8299999833106995,0.6899999976158142,170.27999877929688,0.0078125,0.0118408203125,1.008544921875,29.239999771118164,0.0,3.0,-0.6293792724609375,-0.206695556640625,Opening,0.0,0.0,0.0,0.0,0.0,0.0,0.0,0.0,
13.690918999999994,0.0,0.0,4955.0,0.125,0.0,0.0,0.0,0.0,3.867187104,0.0,0.0,-4678.0,0.0,0.0,-0.0,0.0,0.0,1.849365045,0.0,0.0,4661.0,0.125,0.0,0.0,0.0,0.0,4.936522932,0.0,0.0,-4648.0,0.0,0.0,-0.0,0.0,0.0,2.8918454070000004,0.0,0.0,0.8399999737739563,0.6700000166893005,170.27999877929688,0.009033203125,0.015625,1.02801513671875,29.260000228881836,0.0,3.0,-0.6293792724609375,-0.206695556640625,Opening,0.0,0.0,0.0,0.0,0.0,0.0,0.0,0.0,
13.798046999999963,0.0,0.0,4955.0,0.125,0.0,0.0,0.0,0.0,3.867187104,0.0,0.0,-4678.0,0.0,0.0,-0.0,0.0,0.0,1.849365045,0.0,0.0,4661.0,0.125,0.0,0.0,0.0,0.0,4.936522932,0.0,0.0,-4648.0,0.0,0.0,-0.0,0.0,0.0,2.8918454070000004,0.0,0.0,0.8399999737739563,0.6700000166893005,170.27999877929688,0.00921630859375,0.0164794921875,1.0135498046875,29.260000228881836,0.0,3.0,-0.6293792724609375,-0.206695556640625,Opening,0.0,0.0,0.0,0.0,0.0,0.0,0.0,0.0,
13.902522999999986,0.0,0.0,4955.0,0.125,0.0,0.0,0.0,0.0,3.867187104,0.0,0.0,-4678.0,0.0,0.0,-0.0,0.0,0.0,1.848144342,0.0,0.0,4661.0,0.125,0.0,0.0,0.0,0.0,4.937743635,0.0,0.0,-4648.0,0.0,0.0,-0.0,0.0,0.0,2.8918454070000004,0.0,0.0,0.8399999737739563,0.6700000166893005,170.27999877929688,0.010986328125,0.01556396484375,1.006591796875,29.260000228881836,0.0,0.0,-0.6293792724609375,-0.206695556640625,Opening,0.0,0.0,0.0,0.0,0.0,0.0,0.0,0.0,
14.005572999999975,0.0,0.0,4955.0,0.125,0.0,0.0,0.0,0.0,3.868407807,0.0,0.0,-4678.0,0.0,0.0,-0.0,0.0,0.0,1.849365045,0.0,0.0,4661.0,0.125,0.0,0.0,0.0,0.0,4.936522932,0.0,0.0,-4648.0,0.0,0.0,-0.0,0.0,0.0,2.8918454070000004,0.0,0.0,0.8399999737739563,0.6600000262260437,170.27999877929688,0.0081787109375,0.0150146484375,1.01141357421875,29.260000228881836,0.0,3.0,-0.6293792724609375,-0.206695556640625,Opening,0.0,0.0,0.0,0.0,0.0,0.0,0.0,0.0,
