Time,ClimberA1,ClimberA2,FRpos,FRCurrent,FRspeed,FRsetpoint,FRApos,FRACurrent,FREncpos,FREncSetpoint,FREncSpeed,FLpos,FLCurrent,FLspeed,FLsetpoint,FLApos,FLACurrent,FLEncpos,FLEncSetpoint,FLEncSpeed,BRpos,BRCurrent,BRspeed,BRsetpoint,BRApos,BRACurrent,BREncpos,BREncSetpoint,BREncSpeed,BLpos,BLCurrent,BLspeed,BLsetpoint,BLApos,BLACurrent,BLEncpos,BLEncSetpoint,BLEncSpeed,navx_Pitch,navx_Roll,navx_Yaw,navx_XAcc,navx_YAcc,navx_ZAcc,navx_Temp,navx_Bar,navx_Alt,navx_XDis,navx_YDis,GearPlacerState,ShootOutputV,ShootOutputCurrent,ShootEncPos,ShootEncVelocity,ShootSpeed,ShootSetpoint,CarouselSetpoint,CarouselCurrent,
0.25858899999999996,0.0,0.0,0.0,0.0,0.0,0.0,0.0,0.0,3.8342281230000004,0.01,0.0,0.0,0.0,0.0,0.0,0.0,0.0,1.887206838,0.01,0.0,0.0,0.0,0.0,0.0,0.0,0.0,4.882812,0.01,0.0,0.0,0.0,0.0,0.0,0.0,0.0,2.8479000990000003,0.01,0.0,1.340000033378601,0.9700000286102295,0.10000000149011612,0.0169677734375,0.02239990234375,0.99853515625,33.779998779296875,0.0,0.0,0.0,-1.068115234375E-4,Waiting,0.0,0.0,0.0,0.0,0.0,0.0,0.0,0.0,
0.30947899999999934,0.0,0.0,0.0,0.0,0.0,0.0,0.0,0.0,3.8342281230000004,0.0,0.0,0.0,0.0,0.0,-0.0,0.0,0.0,1.8884275410000002,0.0,0.0,0.0,0.0,0.0,0.0,0.0,0.0,4.882812,0.0,0.0,0.0,0.0,0.0,-0.0,0.0,0.0,2.8479000990000003,0.0,0.0,1.340000033378601,0.9800000190734863,0.10000000149011612,0.01812744140625,0.0262451171875,1.005126953125,33.779998779296875,0.0,0.0,0.0,-1.068115234375E-4,Closing,0.0,0.0,0.0,0.0,0.0,0.0,0.0,0.0,
0.33124399999999876,0.0,0.0,0.0,0.0,0.0,0.0,0.0,0.0,3.8342281230000004,0.0,0.0,0.0,0.0,0.0,-0.0,0.0,0.0,1.8884275410000002,0.0,-0.02379316200000048,0.0,0.0,0.0,0.0,0.0,0.0,4.882812,0.0,0.0028120000000004808,0.0,0.0,0.0,-0.0,0.0,0.0,2.8491208020000003,0.0,4.925400099,1.340000033378601,0.9700000286102295,0.10000000149011612,0.018310546875,0.02215576171875,1.00439453125,33.779998779296875,0.0,1.0,0.0,-1.068115234375E-4,Closing,0.0,0.0,0.0,0.0,0.0,0.0,0.0,0.0,
0.3671029999999955,0.0,0.0,0.0,0.0,0.0,0.0,0.0,0.0,3.8342281230000004,0.0,4.958228123000001,0.0,0.0,0.0,-0.0,0.0,0.0,1.887206838,0.0,-0.02379316200000048,0.0,0.0,0.0,0.0,0.0,0.0,4.884032703,0.0,0.0028120000000004808,0.0,0.0,0.0,-0.0,0.0,0.0,2.8479000990000003,0.0,4.925400099,1.3300000429153442,0.9800000190734863,0.10000000149011612,0.01568603515625,0.0201416015625,1.0009765625,33.779998779296875,0.0,-1.0,0.0,-1.068115234375E-4,Closing,0.0,0.0,0.0,0.0,0.0,0.0,0.0,0.0,
0.3919179999999978,0.0,0.0,0.0,0.0,0.0,0.0,0.0,0.0,3.8342281230000004,0.0,0.0,0.0,0.0,0.0,-0.0,0.0,0.0,1.887206838,0.0,0.0,0.0,0.0,0.0,0.0,0.0,0.0,4.884032703,0.0,0.0,0.0,0.0,0.0,-0.0,0.0,0.0,2.8479000990000003,0.0,0.0,1.3300000429153442,0.9800000190734863,0.10000000149011612,0.0181884765625,0.02423095703125,1.002197265625,33.779998779296875,0.0,0.0,0.0,-1.068115234375E-4,Closing,0.0,0.0,0.0,0.0,0.0,0.0,0.0,0.0,
0.41346199999999955,0.0,0.0,0.0,0.0,0.0,0.0,0.0,0.0,3.8342281230000004,0.0,0.0,0.0,0.0,0.0,-0.0,0.0,0.0,1.887206838,0.0,0.0,0.0,0.0,0.0,0.0,0.0,0.0,4.882812,0.0,0.0,0.0,0.0,0.0,-0.0,0.0,0.0,2.8491208020000003,0.0,0.0,1.340000033378601,0.9800000190734863,0.10000000149011612,0.01727294921875,0.02655029296875,0.99835205078125,33.779998779296875,0.0,0.0,0.0,-1.068115234375E-4,Closing,0.0,0.0,0.0,0.0,0.0,0.0,0.0,0.0,
0.436125,0.0,0.0,0.0,0.0,0.0,0.0,0.0,0.0,3.8354488260000004,0.0,0.0,0.0,0.0,0.0,-0.0,0.0,0.0,1.887206838,0.0,-0.0012207029999995456,0.0,0.0,0.0,0.0,0.0,0.0,4.885253406,0.0,0.0,0.0,0.0,0.0,-0.0,0.0,0.0,2.8479000990000003,0.0,0.0,1.340000033378601,0.9800000190734863,0.10000000149011612,0.01873779296875,0.02532958984375,1.00482177734375,33.779998779296875,0.0,1.0,0.0,-1.068115234375E-4,Closing,0.0,0.0,0.0,0.0,0.0,0.0,0.0,0.0,
0.48398599999999714,0.0,0.0,0.0,0.0,0.0,0.0,0.0,0.0,3.8342281230000004,0.0,0.0,0.0,0.0,0.0,-0.0,0.0,0.0,1.887206838,0.0,0.0012207029999995456,0.0,0.0,0.0,0.0,0.0,0.0,4.884032703,0.0,0.0,0.0,0.0,0.0,-0.0,0.0,0.0,2.8479000990000003,0.0,0.0,1.340000033378601,0.9800000190734863,0.10000000149011612,0.0146484375,0.02276611328125,0.9991455078125,33.79999923706055,0.0,-2.0,0.0,-1.068115234375E-4,Closing,0.0,0.0,0.0,0.0,0.0,0.0,0.0,0.0,
0.5081469999999972,0.0,0.0,0.0,0.0,0.0,0.0,0.0,0.0,3.8342281230000004,0.0,0.0,0.0,0.0,0.0,-0.0,0.0,0.0,1.887206838,0.0,0.0012207029999995456,0.0,0.0,0.0,0.0,0.0,0.0,4.885253406,0.0,0.0,0.0,0.0,0.0,-0.0,0.0,0.0,2.8479000990000003,0.0,0.0,1.340000033378601,0.9800000190734863,0.10000000149011612,0.01800537109375,0.02130126953125,0.99920654296875,33.79999923706055,0.0,0.0,0.0,-1.068115234375E-4,Closing,0.0,0.0,0.0,0.0,0.0,0.0,0.0,0.0,
0.5287739999999976,0.0,0.0,0.0,0.0,0.0,0.0,0.0,0.0,3.8342281230000004,0.0,0.0,0.0,0.0,0.0,-0.0,0.0,0.0,1.887206838,0.0,0.0012207029999995456,0.0,0.0,0.0,0.0,0.0,0.0,4.884032703,0.0,0.0,0.0,0.0,0.0,-0.0,0.0,0.0,2.8479000990000003,0.0,0.0,1.340000033378601,0.9800000190734863,0.10000000149011612,0.01922607421875,0.02166748046875,1.0040283203125,33.79999923706055,0.0,1.0,0.0,-1.068115234375E-4,Closing,0.0,0.0,0.0,0.0,0.0,0.0,0.0,0.0,
0.5534449999999997,0.0,0.0,0.0,0.0,0.0,0.0,0.0,0.0,3.8354488260000004,0.0,0.0,0.0,0.0,0.0,-0.0,0.0,0.0,1.887206838,0.0,0.0,0.0,0.0,0.0,0.0,0.0,0.0,4.888915515,0.0,0.0,0.0,0.0,0.0,-0.0,0.0,0.0,2.8479000990000003,0.0,0.0,1.340000033378601,0.9800000190734863,0.10000000149011612,0.016845703125,0.02337646484375,1.0015869140625,33.79999923706055,0.0,0.0,0.0,-1.068115234375E-4,Closing,0.0,0.0,0.0,0.0,0.0,0.0,0.0,0.0,
0.5759759999999952,0.0,0.0,0.0,0.0,0.0,0.0,0.0,0.0,3.8342281230000004,0.0,0.0,0.0,0.0,0.0,-0.0,0.0,0.0,1.887206838,0.0,0.0,0.0,0.0,0.0,0.0,0.0,0.0,4.884032703,0.0,0.0,0.0,0.0,0.0,-0.0,0.0,0.0,2.8479000990000003,0.0,0.0,1.340000033378601,0.9800000190734863,0.10000000149011612,0.0179443359375,0.02301025390625,0.99993896484375,33.79999923706055,0.0,0.0,0.0,-1.068115234375E-4,Closing,0.0,0.0,0.0,0.0,0.0,0.0,0.0,0.0,
0.6026489999999977,0.0,0.0,0.0,0.0,0.0,0.0,0.0,0.0,3.8354488260000004,0.0,0.0,0.0,0.0,0.0,-0.0,0.0,0.0,1.887206838,0.0,0.0,0.0,0.0,0.0,0.0,0.0,0.0,4.882812,0.0,0.0,0.0,0.0,0.0,-0.0,0.0,0.0,2.8479000990000003,0.0,0.0,1.340000033378601,0.9800000190734863,0.10000000149011612,0.01654052734375,0.025146484375,1.00250244140625,33.79999923706055,0.0,0.0,0.0,-1.068115234375E-4,Closing,0.0,0.0,0.0,0.0,0.0,0.0,0.0,0.0,
0.6236109999999971,0.0,0.0,0.0,0.0,0.0,0.0,0.0,0.0,3.8342281230000004,0.0,0.0,0.0,0.0,0.0,-0.0,0.0,0.0,1.887206838,0.0,0.0,0.0,0.0,0.0,0.0,0.0,0.0,4.882812,0.0,0.0,0.0,0.0,0.0,-0.0,0.0,0.0,2.8479000990000003,0.0,0.0,1.340000033378601,0.9800000190734863,0.10000000149011612,0.01568603515625,0.025146484375,0.99859619140625,33.79999923706055,0.0,-1.0,0.0,-1.068115234375E-4,Closing,0.0,0.0,0.0,0.0,0.0,0.0,0.0,0.0,
0.6505099999999948,0.0,0.0,0.0,0.0,0.0,0.0,0.0,0.0,3.8354488260000004,0.0,0.0,0.0,0.0,0.0,-0.0,0.0,0.0,1.887206838,0.0,0.0,0.0,0.0,0.0,0.0,0.0,0.0,4.884032703,0.0,0.0,0.0,0.0,0.0,-0.0,0.0,0.0,2.8503415050000003,0.0,0.0,1.340000033378601,0.9800000190734863,0.10000000149011612,0.0194091796875,0.02001953125,1.00848388671875,33.79999923706055,0.0,2.0,0.0,-1.068115234375E-4,Closing,0.0,0.0,0.0,0.0,0.0,0.0,0.0,0.0,
0.6719300000000002,0.0,0.0,0.0,0.0,0.0,0.0,0.0,0.0,3.8342281230000004,0.0,0.0,0.0,0.0,0.0,-0.0,0.0,0.0,1.887206838,0.0,0.0,0.0,0.0,0.0,0.0,0.0,0.0,4.885253406,0.0,0.0,0.0,0.0,0.0,-0.0,0.0,0.0,2.8479000990000003,0.0,0.0,1.340000033378601,0.9800000190734863,0.10000000149011612,0.022705078125,0.0263671875,1.00408935546875,33.79999923706055,0.0,5.0,0.0,-1.068115234375E-4,Closing,0.0,0.0,0.0,0.0,0.0,0.0,0.0,0.0,
0.6976259999999965,0.0,0.0,0.0,0.0,0.0,0.0,0.0,0.0,3.8342281230000004,0.0,0.0,0.0,0.0,0.0,-0.0,0.0,0.0,1.887206838,0.0,0.0,0.0,0.0,0.0,0.0,0.0,0.0,4.882812,0.0,0.0,0.0,0.0,0.0,-0.0,0.0,0.0,2.8479000990000003,0.0,0.0,1.340000033378601,0.9800000190734863,0.10999999940395355,0.016357421875,0.02423095703125,1.0040283203125,33.79999923706055,0.0,0.0,0.0,-1.068115234375E-4,Closing,0.0,0.0,0.0,0.0,0.0,0.0,0.0,0.0,
0.7202809999999954,0.0,0.0,0.0,0.0,0.0,0.0,0.0,0.0,3.8354488260000004,0.0,0.0,0.0,0.0,0.0,-0.0,0.0,0.0,1.887206838,0.0,0.0,0.0,0.0,0.0,0.0,0.0,0.0,4.884032703,0.0,0.0,0.0,0.0,0.0,-0.0,0.0,0.0,2.8479000990000003,0.0,0.0,1.340000033378601,0.9800000190734863,0.10999999940395355,0.01751708984375,0.024658203125,1.00775146484375,33.79999923706055,0.0,1.0,0.0,-1.068115234375E-4,Closing,0.0,0.0,0.0,0.0,0.0,0.0,0.0,0.0,
0.7457710000000006,0.0,0.0,0.0,0.0,0.0,0.0,0.0,0.0,3.8354488260000004,0.0,-0.0012207030000004337,0.0,0.0,0.0,-0.0,0.0,0.0,1.887206838,0.0,-0.0012207029999995456,0.0,0.0,0.0,0.0,0.0,0.0,4.884032703,0.0,0.0,0.0,0.0,0.0,-0.0,0.0,0.0,2.8479000990000003,0.0,0.0,1.340000033378601,0.9800000190734863,0.10000000149011612,0.017822265625,0.02154541015625,0.9996337890625,33.79999923706055,0.0,0.0,0.0,-1.068115234375E-4,Closing,0.0,0.0,0.0,0.0,0.0,0.0,0.0,0.0,
0.7681290000000008,0.0,0.0,0.0,0.0,0.0,0.0,0.0,0.0,3.8342281230000004,0.0,-0.0012207030000004337,0.0,0.0,0.0,-0.0,0.0,0.0,1.887206838,0.0,-0.0012207029999995456,0.0,0.0,0.0,0.0,0.0,0.0,4.882812,0.0,0.0,0.0,0.0,0.0,-0.0,0.0,0.0,2.8479000990000003,0.0,0.0,1.340000033378601,0.9800000190734863,0.10000000149011612,0.0185546875,0.02545166015625,1.0,33.79999923706055,0.0,1.0,0.0,-1.068115234375E-4,Closing,0.0,0.0,0.0,0.0,0.0,0.0,0.0,0.0,
0.803887999999999,0.0,0.0,0.0,0.0,0.0,0.0,0.0,0.0,3.8330074200000004,0.0,0.0012207030000004337,0.0,0.0,0.0,-0.0,0.0,0.0,1.887206838,0.0,0.0012207029999995456,0.0,0.0,0.0,0.0,0.0,0.0,4.882812,0.0,0.0,0.0,0.0,0.0,-0.0,0.0,0.0,2.8479000990000003,0.0,0.0,1.340000033378601,0.9800000190734863,0.10999999940395355,0.01654052734375,0.02581787109375,1.0029296875,33.79999923706055,0.0,0.0,0.0,-1.068115234375E-4,Closing,0.0,0.0,0.0,0.0,0.0,0.0,0.0,0.0,
0.8298999999999942,0.0,0.0,0.0,0.0,0.0,0.0,0.0,0.0,3.8354488260000004,0.0,0.0012207030000004337,0.0,0.0,0.0,-0.0,0.0,0.0,1.887206838,0.0,0.0,0.0,0.0,0.0,0.0,0.0,0.0,4.884032703,0.0,0.0,0.0,0.0,0.0,-0.0,0.0,0.0,2.8479000990000003,0.0,0.0,1.340000033378601,0.9800000190734863,0.10999999940395355,0.015625,0.0250244140625,1.0025634765625,33.79999923706055,0.0,-1.0,0.0,-1.068115234375E-4,Closing,0.0,0.0,0.0,0.0,0.0,0.0,0.0,0.0,
0.8570869999999995,0.0,0.0,0.0,0.0,0.0,0.0,0.0,0.0,3.8342281230000004,0.0,0.0,0.0,0.0,0.0,-0.0,0.0,0.0,1.887206838,0.0,0.0,0.0,0.0,0.0,0.0,0.0,0.0,4.881591297,0.0,0.0,0.0,0.0,0.0,-0.0,0.0,0.0,2.8479000990000003,0.0,0.0,1.340000033378601,0.9800000190734863,0.10000000149011612,0.01641845703125,0.02227783203125,1.00225830078125,33.79999923706055,0.0,0.0,0.0,-1.068115234375E-4,Closing,0.0,0.0,0.0,0.0,0.0,0.0,0.0,0.0,
0.8763379999999961,0.0,0.0,0.0,0.0,0.0,0.0,0.0,0.0,3.8342281230000004,0.0,0.0,0.0,0.0,0.0,-0.0,0.0,0.0,1.887206838,0.0,0.0,0.0,0.0,0.0,0.0,0.0,0.0,4.884032703,0.0,0.0,0.0,0.0,0.0,-0.0,0.0,0.0,2.8491208020000003,0.0,0.0,1.340000033378601,0.9800000190734863,0.10000000149011612,0.0155029296875,0.0235595703125,1.00244140625,33.79999923706055,0.0,-1.0,0.0,-1.068115234375E-4,Closing,0.0,0.0,0.0,0.0,0.0,0.0,0.0,0.0,
0.9116139999999942,0.0,0.0,0.0,0.0,0.0,0.0,0.0,0.0,3.8354488260000004,0.0,0.0,0.0,0.0,0.0,-0.0,0.0,0.0,1.887206838,0.0,-0.0012207029999995456,0.0,0.0,0.0,0.0,0.0,0.0,4.884032703,0.0,0.0,0.0,0.0,0.0,-0.0,0.0,0.0,2.8491208020000003,0.0,0.0,1.340000033378601,0.9700000286102295,0.10000000149011612,0.01715087890625,0.02301025390625,1.00225830078125,33.79999923706055,0.0,0.0,0.0,-1.068115234375E-4,Closing,0.0,0.0,0.0,0.0,0.0,0.0,0.0,0.0,
0.9332309999999998,0.0,0.0,0.0,0.0,0.0,0.0,0.0,0.0,3.8354488260000004,0.0,0.0,0.0,0.0,0.0,-0.0,0.0,0.0,1.887206838,0.0,0.0,0.0,0.0,0.0,0.0,0.0,0.0,4.881591297,0.0,0.0,0.0,0.0,0.0,-0.0,0.0,0.0,2.8491208020000003,0.0,0.0,1.340000033378601,0.9800000190734863,0.10000000149011612,0.01702880859375,0.023193359375,1.002685546875,33.79999923706055,0.0,0.0,0.0,-1.068115234375E-4,Closing,0.0,0.0,0.0,0.0,0.0,0.0,0.0,0.0,
0.9629759999999951,0.0,0.0,0.0,0.0,0.0,0.0,0.0,0.0,3.8342281230000004,0.0,0.0,0.0,0.0,0.0,-0.0,0.0,0.0,1.887206838,0.0,0.0,0.0,0.0,0.0,0.0,0.0,0.0,4.882812,0.0,0.0,0.0,0.0,0.0,-0.0,0.0,0.0,2.8491208020000003,0.0,0.0,1.340000033378601,0.9800000190734863,0.10000000149011612,0.01812744140625,0.02716064453125,1.00140380859375,33.79999923706055,0.0,0.0,0.0,-1.068115234375E-4,Closing,0.0,0.0,0.0,0.0,0.0,0.0,0.0,0.0,
0.9846559999999954,0.0,0.0,0.0,0.0,0.0,0.0,0.0,0.0,3.8342281230000004,0.0,0.0,0.0,0.0,0.0,-0.0,0.0,0.0,1.885986135,0.0,0.0012207029999995456,0.0,0.0,0.0,0.0,0.0,0.0,4.884032703,0.0,0.0,0.0,0.0,0.0,-0.0,0.0,0.0,2.8491208020000003,0.0,0.0,1.340000033378601,0.9800000190734863,0.10000000149011612,0.01715087890625,0.02301025390625,1.0035400390625,33.790000915527344,0.0,0.0,0.0,-1.068115234375E-4,Closing,0.0,0.0,0.0,0.0,0.0,0.0,0.0,0.0,
1.0052449999999953,0.0,0.0,0.0,0.0,0.0,0.0,0.0,0.0,3.8342281230000004,0.0,0.0,0.0,0.0,0.0,-0.0,0.0,0.0,1.887206838,0.0,0.0012207029999995456,0.0,0.0,0.0,0.0,0.0,0.0,4.884032703,0.0,0.0,0.0,0.0,0.0,-0.0,0.0,0.0,2.8466793960000003,0.0,0.0,1.340000033378601,0.9800000190734863,0.10000000149011612,0.01544189453125,0.02447509765625,1.001708984375,33.790000915527344,0.0,-1.0,0.0,-1.068115234375E-4,Closing,0.0,0.0,0.0,0.0,0.0,0.0,0.0,0.0,
1.0243449999999938,0.0,0.0,0.0,0.0,0.0,0.0,0.0,0.0,3.8330074200000004,0.0,0.0,0.0,0.0,0.0,-0.0,0.0,0.0,1.887206838,0.0,0.0012207029999995456,0.0,0.0,0.0,0.0,0.0,0.0,4.884032703,0.0,0.0,0.0,0.0,0.0,-0.0,0.0,0.0,2.8479000990000003,0.0,0.0,1.340000033378601,0.9700000286102295,0.10000000149011612,0.01727294921875,0.0223388671875,1.0054931640625,33.790000915527344,0.0,0.0,0.0,-1.068115234375E-4,Closing,0.0,0.0,0.0,0.0,0.0,0.0,0.0,0.0,
1.0458489999999947,0.0,0.0,0.0,0.0,0.0,0.0,0.0,0.0,3.8354488260000004,0.0,0.0,0.0,0.0,0.0,-0.0,0.0,0.0,1.887206838,0.0,0.0,0.0,0.0,0.0,0.0,0.0,0.0,4.884032703,0.0,0.0,0.0,0.0,0.0,-0.0,0.0,0.0,2.8479000990000003,0.0,0.0,1.340000033378601,0.9700000286102295,0.10000000149011612,0.0185546875,0.025146484375,1.00372314453125,33.790000915527344,0.0,1.0,0.0,-1.068115234375E-4,Closing,0.0,0.0,0.0,0.0,0.0,0.0,0.0,0.0,
1.0649089999999997,0.0,0.0,0.0,0.0,0.0,0.0,0.0,0.0,3.8342281230000004,0.0,0.0,0.0,0.0,0.0,-0.0,0.0,0.0,1.887206838,0.0,0.0,0.0,0.0,0.0,0.0,0.0,0.0,4.882812,0.0,0.0,0.0,0.0,0.0,-0.0,0.0,0.0,2.8479000990000003,0.0,0.0,1.340000033378601,0.9700000286102295,0.10000000149011612,0.01873779296875,0.02197265625,1.00189208984375,33.790000915527344,0.0,1.0,0.0,-1.068115234375E-4,Closing,0.0,0.0,0.0,0.0,0.0,0.0,0.0,0.0,
1.0835009999999965,0.0,0.0,0.0,0.0,0.0,0.0,0.0,0.0,3.8342281230000004,0.0,0.0,0.0,0.0,0.0,-0.0,0.0,0.0,1.887206838,0.0,0.0,0.0,0.0,0.0,0.0,0.0,0.0,4.884032703,0.0,0.0,0.0,0.0,0.0,-0.0,0.0,0.0,2.8491208020000003,0.0,0.0,1.340000033378601,0.9700000286102295,0.10000000149011612,0.0172119140625,0.02496337890625,1.0067138671875,33.790000915527344,0.0,0.0,0.0,-1.068115234375E-4,Closing,0.0,0.0,0.0,0.0,0.0,0.0,0.0,0.0,
1.1049349999999978,0.0,0.0,0.0,0.0,0.0,0.0,0.0,0.0,3.8342281230000004,0.0,0.0,0.0,0.0,0.0,-0.0,0.0,0.0,1.887206838,0.0,0.0,0.0,0.0,0.0,0.0,0.0,0.0,4.884032703,0.0,0.0,0.0,0.0,0.0,-0.0,0.0,0.0,2.8479000990000003,0.0,0.0,1.340000033378601,0.9700000286102295,0.10000000149011612,0.0186767578125,0.02496337890625,1.00323486328125,33.790000915527344,0.0,1.0,0.0,-1.068115234375E-4,Closing,0.0,0.0,0.0,0.0,0.0,0.0,0.0,0.0,
1.123038999999997,0.0,0.0,0.0,0.0,0.0,0.0,0.0,0.0,3.8342281230000004,0.0,0.0,0.0,0.0,0.0,-0.0,0.0,0.0,1.887206838,0.0,0.0,0.0,0.0,0.0,0.0,0.0,0.0,4.882812,0.0,0.0,0.0,0.0,0.0,-0.0,0.0,0.0,2.8479000990000003,0.0,0.0,1.340000033378601,0.9700000286102295,0.10000000149011612,0.01800537109375,0.0244140625,1.00518798828125,33.790000915527344,0.0,0.0,0.0,-1.068115234375E-4,Closing,0.0,0.0,0.0,0.0,0.0,0.0,0.0,0.0,
1.1435229999999938,0.0,0.0,0.0,0.0,0.0,0.0,0.0,0.0,3.8342281230000004,0.0,0.0,0.0,0.0,0.0,-0.0,0.0,0.0,1.887206838,0.0,0.0,0.0,0.0,0.0,0.0,0.0,0.0,4.882812,0.0,0.0,0.0,0.0,0.0,-0.0,0.0,0.0,2.8491208020000003,0.0,0.0,1.340000033378601,0.9700000286102295,0.10000000149011612,0.0150146484375,0.02337646484375,1.00482177734375,33.790000915527344,0.0,-2.0,0.0,-1.068115234375E-4,Closing,0.0,0.0,0.0,0.0,0.0,0.0,0.0,0.0,
1.1619320000000006,0.0,0.0,0.0,0.0,0.0,0.0,0.0,0.0,3.8354488260000004,0.0,0.0,0.0,0.0,0.0,-0.0,0.0,0.0,1.887206838,0.0,0.0,0.0,0.0,0.0,0.0,0.0,0.0,4.882812,0.0,0.0,0.0,0.0,0.0,-0.0,0.0,0.0,2.8479000990000003,0.0,0.0,1.340000033378601,0.9700000286102295,0.10000000149011612,0.01446533203125,0.022705078125,1.00189208984375,33.790000915527344,0.0,-2.0,0.0,-1.068115234375E-4,Closing,0.0,0.0,0.0,0.0,0.0,0.0,0.0,0.0,
1.180447,0.0,0.0,0.0,0.0,0.0,0.0,0.0,0.0,3.8342281230000004,0.0,0.0,0.0,0.0,0.0,-0.0,0.0,0.0,1.887206838,0.0,0.0,0.0,0.0,0.0,0.0,0.0,0.0,4.882812,0.0,0.0,0.0,0.0,0.0,-0.0,0.0,0.0,2.8479000990000003,0.0,0.0,1.340000033378601,0.9700000286102295,0.10000000149011612,0.015869140625,0.02447509765625,1.0023193359375,33.790000915527344,0.0,-1.0,0.0,-1.068115234375E-4,Closing,0.0,0.0,0.0,0.0,0.0,0.0,0.0,0.0,
1.2045550000000003,0.0,0.0,0.0,0.0,0.0,0.0,0.0,0.0,3.8342281230000004,0.0,-0.0012207030000004337,0.0,0.0,0.0,-0.0,0.0,0.0,1.887206838,0.0,-0.0012207029999995456,0.0,0.0,0.0,0.0,0.0,0.0,4.882812,0.0,0.0,0.0,0.0,0.0,-0.0,0.0,0.0,2.8479000990000003,0.0,0.0,1.350000023841858,0.9800000190734863,0.10000000149011612,0.020263671875,0.02294921875,0.99981689453125,33.790000915527344,0.0,3.0,0.0,-1.068115234375E-4,Closing,0.0,0.0,0.0,0.0,0.0,0.0,0.0,0.0,
1.2244719999999942,0.0,0.0,0.0,0.0,0.0,0.0,0.0,0.0,3.8354488260000004,0.0,-0.0012207030000004337,0.0,0.0,0.0,-0.0,0.0,0.0,1.887206838,0.0,-0.0012207029999995456,0.0,0.0,0.0,0.0,0.0,0.0,4.884032703,0.0,0.0,0.0,0.0,0.0,-0.0,0.0,0.0,2.8491208020000003,0.0,0.0,1.350000023841858,0.9800000190734863,0.10000000149011612,0.0167236328125,0.02276611328125,1.0037841796875,33.790000915527344,0.0,0.0,0.0,-1.068115234375E-4,Closing,0.0,0.0,0.0,0.0,0.0,0.0,0.0,0.0,
1.2501299999999973,0.0,0.0,0.0,0.0,0.0,0.0,0.0,0.0,3.8342281230000004,0.0,0.0012207030000004337,0.0,0.0,0.0,-0.0,0.0,0.0,1.887206838,0.0,0.0012207029999995456,0.0,0.0,0.0,0.0,0.0,0.0,4.884032703,0.0,0.0,0.0,0.0,0.0,-0.0,0.0,0.0,2.8479000990000003,0.0,0.0,1.350000023841858,0.9800000190734863,0.10000000149011612,0.0177001953125,0.0244140625,1.00848388671875,33.790000915527344,0.0,0.0,0.0,-1.068115234375E-4,Closing,0.0,0.0,0.0,0.0,0.0,0.0,0.0,0.0,
1.2680760000000009,0.0,0.0,0.0,0.0,0.0,0.0,0.0,0.0,3.8342281230000004,0.0,0.0012207030000004337,0.0,0.0,0.0,-0.0,0.0,0.0,1.887206838,0.0,0.0012207029999995456,0.0,0.0,0.0,0.0,0.0,0.0,4.882812,0.0,0.0,0.0,0.0,0.0,-0.0,0.0,0.0,2.8491208020000003,0.0,0.0,1.350000023841858,0.9800000190734863,0.10000000149011612,0.01654052734375,0.02410888671875,1.00738525390625,33.790000915527344,0.0,0.0,0.0,-1.068115234375E-4,Closing,0.0,0.0,0.0,0.0,0.0,0.0,0.0,0.0,
1.2862749999999943,0.0,0.0,0.0,0.0,0.0,0.0,0.0,0.0,3.8342281230000004,0.0,0.0,0.0,0.0,0.0,-0.0,0.0,0.0,1.887206838,0.0,0.0,0.0,0.0,0.0,0.0,0.0,0.0,4.885253406,0.0,0.0,0.0,0.0,0.0,-0.0,0.0,0.0,2.8479000990000003,0.0,0.0,1.350000023841858,0.9800000190734863,0.10000000149011612,0.01983642578125,0.01922607421875,0.999755859375,33.790000915527344,0.0,2.0,0.0,-1.068115234375E-4,Closing,0.0,0.0,0.0,0.0,0.0,0.0,0.0,0.0,
1.3063129999999947,0.0,0.0,0.0,0.0,0.0,0.0,0.0,0.0,3.8342281230000004,0.0,0.0,0.0,0.0,0.0,-0.0,0.0,0.0,1.887206838,0.0,0.0,0.0,0.0,0.0,0.0,0.0,0.0,4.884032703,0.0,0.0,0.0,0.0,0.0,-0.0,0.0,0.0,2.8491208020000003,0.0,0.0,1.350000023841858,0.9800000190734863,0.10000000149011612,0.01763916015625,0.02099609375,1.00042724609375,33.790000915527344,0.0,0.0,0.0,-1.068115234375E-4,Closing,0.0,0.0,0.0,0.0,0.0,0.0,0.0,0.0,
1.3240699999999996,0.0,0.0,0.0,0.0,0.0,0.0,0.0,0.0,3.8342281230000004,0.0,0.0,0.0,0.0,0.0,-0.0,0.0,0.0,1.887206838,0.0,0.0,0.0,0.0,0.0,0.0,0.0,0.0,4.884032703,0.0,0.0,0.0,0.0,0.0,-0.0,0.0,0.0,2.8479000990000003,0.0,0.0,1.350000023841858,0.9800000190734863,0.10000000149011612,0.01837158203125,0.0233154296875,1.00909423828125,33.790000915527344,0.0,0.0,0.0,-1.068115234375E-4,Closing,0.0,0.0,0.0,0.0,0.0,0.0,0.0,0.0,
1.3441199999999953,0.0,0.0,0.0,0.0,0.0,0.0,0.0,0.0,3.8342281230000004,0.0,0.0,0.0,0.0,0.0,-0.0,0.0,0.0,1.887206838,0.0,-0.0012207029999995456,0.0,0.0,0.0,0.0,0.0,0.0,4.882812,0.0,0.0,0.0,0.0,0.0,-0.0,0.0,0.0,2.8479000990000003,0.0,0.0,1.350000023841858,0.9800000190734863,0.10000000149011612,0.01678466796875,0.02264404296875,0.99822998046875,33.790000915527344,0.0,0.0,0.0,-1.068115234375E-4,Closing,0.0,0.0,0.0,0.0,0.0,0.0,0.0,0.0,
1.3729150000000008,0.0,0.0,0.0,0.0,0.0,0.0,0.0,0.0,3.8342281230000004,0.0,0.0,0.0,0.0,0.0,-0.0,0.0,0.0,1.887206838,0.0,-0.0012207029999995456,0.0,0.0,0.0,0.0,0.0,0.0,4.884032703,0.0,0.0,0.0,0.0,0.0,-0.0,0.0,0.0,2.8479000990000003,0.0,0.0,1.350000023841858,0.9800000190734863,0.10000000149011612,0.01708984375,0.02191162109375,1.0115966796875,33.790000915527344,0.0,0.0,0.0,-1.068115234375E-4,Closing,0.0,0.0,0.0,0.0,0.0,0.0,0.0,0.0,
1.3960939999999973,0.0,0.0,0.0,0.0,0.0,0.0,0.0,0.0,3.8342281230000004,0.0,0.0,0.0,0.0,0.0,-0.0,0.0,0.0,1.887206838,0.0,0.0,0.0,0.0,0.0,0.0,0.0,0.0,4.882812,0.0,0.0,0.0,0.0,0.0,-0.0,0.0,0.0,2.8479000990000003,0.0,0.0,1.350000023841858,0.9800000190734863,0.10000000149011612,0.01708984375,0.02191162109375,1.0115966796875,33.790000915527344,0.0,0.0,0.0,-1.068115234375E-4,Closing,0.0,0.0,0.0,0.0,0.0,0.0,0.0,0.0,
1.4130579999999973,0.0,0.0,0.0,0.0,0.0,0.0,0.0,0.0,3.8342281230000004,0.0,0.0,0.0,0.0,0.0,-0.0,0.0,0.0,1.887206838,0.0,0.0,0.0,0.0,0.0,0.0,0.0,0.0,4.884032703,0.0,0.0,0.0,0.0,0.0,-0.0,0.0,0.0,2.8479000990000003,0.0,0.0,1.350000023841858,0.9800000190734863,0.10000000149011612,0.0162353515625,0.0245361328125,0.9996337890625,33.790000915527344,0.0,0.0,0.0,-1.068115234375E-4,Closing,0.0,0.0,0.0,0.0,0.0,0.0,0.0,0.0,
1.4313709999999993,0.0,0.0,0.0,0.0,0.0,0.0,0.0,0.0,3.8342281230000004,0.0,0.0,0.0,0.0,0.0,-0.0,0.0,0.0,1.8884275410000002,0.0,0.0,0.0,0.0,0.0,0.0,0.0,0.0,4.884032703,0.0,0.0,0.0,0.0,0.0,-0.0,0.0,0.0,2.8479000990000003,0.0,0.0,1.350000023841858,0.9800000190734863,0.10000000149011612,0.0152587890625,0.02630615234375,1.00335693359375,33.790000915527344,0.0,-2.0,0.0,-1.068115234375E-4,Closing,0.0,0.0,0.0,0.0,0.0,0.0,0.0,0.0,
1.4526599999999963,0.0,0.0,0.0,0.0,0.0,0.0,0.0,0.0,3.8342281230000004,0.0,0.0,0.0,0.0,0.0,-0.0,0.0,0.0,1.885986135,0.0,0.0012207029999995456,0.0,0.0,0.0,0.0,0.0,0.0,4.884032703,0.0,0.0,0.0,0.0,0.0,-0.0,0.0,0.0,2.8491208020000003,0.0,0.0,1.350000023841858,0.9800000190734863,0.10000000149011612,0.0169677734375,0.02410888671875,1.00531005859375,33.790000915527344,0.0,0.0,0.0,-1.068115234375E-4,Closing,0.0,0.0,0.0,0.0,0.0,0.0,0.0,0.0,
1.4722180000000007,0.0,0.0,0.0,0.0,0.0,0.0,0.0,0.0,3.8354488260000004,0.0,0.0,0.0,0.0,0.0,-0.0,0.0,0.0,1.887206838,0.0,0.0012207029999995456,0.0,0.0,0.0,0.0,0.0,0.0,4.884032703,0.0,0.0,0.0,0.0,0.0,-0.0,0.0,0.0,2.8491208020000003,0.0,0.0,1.350000023841858,0.9800000190734863,0.10000000149011612,0.01922607421875,0.02520751953125,1.00225830078125,33.790000915527344,0.0,1.0,0.0,-1.068115234375E-4,Closing,0.0,0.0,0.0,0.0,0.0,0.0,0.0,0.0,
1.4929329999999972,0.0,0.0,0.0,0.0,0.0,0.0,0.0,0.0,3.8354488260000004,0.0,0.0,0.0,0.0,0.0,-0.0,0.0,0.0,1.887206838,0.0,0.0,0.0,0.0,0.0,0.0,0.0,0.0,4.882812,0.0,0.0,0.0,0.0,0.0,-0.0,0.0,0.0,2.8491208020000003,0.0,0.0,1.350000023841858,0.9800000190734863,0.10000000149011612,0.01605224609375,0.02471923828125,1.005126953125,33.790000915527344,0.0,-1.0,0.0,-1.068115234375E-4,Closing,0.0,0.0,0.0,0.0,0.0,0.0,0.0,0.0,
1.5105459999999948,0.0,0.0,0.0,0.0,0.0,0.0,0.0,0.0,3.8354488260000004,0.0,0.0,0.0,0.0,0.0,-0.0,0.0,0.0,1.887206838,0.0,0.0,0.0,0.0,0.0,0.0,0.0,0.0,4.882812,0.0,0.0,0.0,0.0,0.0,-0.0,0.0,0.0,2.8491208020000003,0.0,0.0,1.350000023841858,0.9800000190734863,0.10000000149011612,0.01812744140625,0.02264404296875,1.00665283203125,33.790000915527344,0.0,0.0,0.0,-1.068115234375E-4,Closing,0.0,0.0,0.0,0.0,0.0,0.0,0.0,0.0,
1.5273079999999972,0.0,0.0,0.0,0.0,0.0,0.0,0.0,0.0,3.8342281230000004,0.0,0.0,0.0,0.0,0.0,-0.0,0.0,0.0,1.887206838,0.0,0.0,0.0,0.0,0.0,0.0,0.0,0.0,4.884032703,0.0,0.0,0.0,0.0,0.0,-0.0,0.0,0.0,2.8491208020000003,0.0,0.0,1.350000023841858,0.9800000190734863,0.10000000149011612,0.0162353515625,0.02099609375,1.0054931640625,33.790000915527344,0.0,-1.0,0.0,-1.068115234375E-4,Closing,0.0,0.0,0.0,0.0,0.0,0.0,0.0,0.0,
1.5480609999999941,0.0,0.0,0.0,0.0,0.0,0.0,0.0,0.0,3.8342281230000004,0.0,0.0,0.0,0.0,0.0,-0.0,0.0,0.0,1.887206838,0.0,0.0,0.0,0.0,0.0,0.0,0.0,0.0,4.885253406,0.0,0.0,0.0,0.0,0.0,-0.0,0.0,0.0,2.8479000990000003,0.0,0.0,1.350000023841858,0.9800000190734863,0.10000000149011612,0.01922607421875,0.0238037109375,1.0020751953125,33.790000915527344,0.0,1.0,0.0,-1.068115234375E-4,Closing,0.0,0.0,0.0,0.0,0.0,0.0,0.0,0.0,
1.566140999999996,0.0,0.0,0.0,0.0,0.0,0.0,0.0,0.0,3.8342281230000004,0.0,0.0,0.0,0.0,0.0,-0.0,0.0,0.0,1.887206838,0.0,0.0,0.0,0.0,0.0,0.0,0.0,0.0,4.885253406,0.0,0.0,0.0,0.0,0.0,-0.0,0.0,0.0,2.8491208020000003,0.0,0.0,1.350000023841858,0.9800000190734863,0.10000000149011612,0.0185546875,0.02349853515625,1.00262451171875,33.790000915527344,0.0,1.0,0.0,-1.068115234375E-4,Closing,0.0,0.0,0.0,0.0,0.0,0.0,0.0,0.0,
1.5851800000000003,0.0,0.0,0.0,0.0,0.0,0.0,0.0,0.0,3.8342281230000004,0.0,0.0,0.0,0.0,0.0,-0.0,0.0,0.0,1.887206838,0.0,0.0,0.0,0.0,0.0,0.0,0.0,0.0,4.882812,0.0,0.0,0.0,0.0,0.0,-0.0,0.0,0.0,2.8466793960000003,0.0,0.0,1.350000023841858,0.9800000190734863,0.10000000149011612,0.01812744140625,0.02398681640625,1.00189208984375,33.790000915527344,0.0,0.0,0.0,-1.068115234375E-4,Closing,0.0,0.0,0.0,0.0,0.0,0.0,0.0,0.0,
1.6055699999999997,0.0,0.0,0.0,0.0,0.0,0.0,0.0,0.0,3.8330074200000004,0.0,0.0,0.0,0.0,0.0,-0.0,0.0,0.0,1.887206838,0.0,0.0,0.0,0.0,0.0,0.0,0.0,0.0,4.882812,0.0,0.0,0.0,0.0,0.0,-0.0,0.0,0.0,2.8479000990000003,0.0,0.0,1.350000023841858,0.9800000190734863,0.10000000149011612,0.017822265625,0.0240478515625,1.00006103515625,33.790000915527344,0.0,0.0,0.0,-1.068115234375E-4,Closing,0.0,0.0,0.0,0.0,0.0,0.0,0.0,0.0,
1.6236460000000006,0.0,0.0,0.0,0.0,0.0,0.0,0.0,0.0,3.8342281230000004,0.0,0.0,0.0,0.0,0.0,-0.0,0.0,0.0,1.887206838,0.0,0.0,0.0,0.0,0.0,0.0,0.0,0.0,4.884032703,0.0,0.0,0.0,0.0,0.0,-0.0,0.0,0.0,2.8491208020000003,0.0,0.0,1.350000023841858,0.9800000190734863,0.10000000149011612,0.01806640625,0.0240478515625,1.0029296875,33.790000915527344,0.0,0.0,0.0,-1.068115234375E-4,Closing,0.0,0.0,0.0,0.0,0.0,0.0,0.0,0.0,
1.6437489999999961,0.0,0.0,0.0,0.0,0.0,0.0,0.0,0.0,3.8342281230000004,0.0,0.0,0.0,0.0,0.0,-0.0,0.0,0.0,1.887206838,0.0,0.0,0.0,0.0,0.0,0.0,0.0,0.0,4.885253406,0.0,0.0,0.0,0.0,0.0,-0.0,0.0,0.0,2.8479000990000003,0.0,0.0,1.350000023841858,0.9800000190734863,0.10000000149011612,0.01739501953125,0.02557373046875,1.0,33.790000915527344,0.0,0.0,0.0,-1.068115234375E-4,Closing,0.0,0.0,0.0,0.0,0.0,0.0,0.0,0.0,
1.6618989999999976,0.0,0.0,0.0,0.0,0.0,0.0,0.0,0.0,3.8354488260000004,0.0,0.0,0.0,0.0,0.0,-0.0,0.0,0.0,1.887206838,0.0,0.0,0.0,0.0,0.0,0.0,0.0,0.0,4.882812,0.0,0.0,0.0,0.0,0.0,-0.0,0.0,0.0,2.8479000990000003,0.0,0.0,1.350000023841858,0.9800000190734863,0.10000000149011612,0.0152587890625,0.02337646484375,1.00537109375,33.790000915527344,0.0,-2.0,0.0,-1.068115234375E-4,Closing,0.0,0.0,0.0,0.0,0.0,0.0,0.0,0.0,
1.678462999999996,0.0,0.0,0.0,0.0,0.0,0.0,0.0,0.0,3.8354488260000004,0.0,0.0,0.0,0.0,0.0,-0.0,0.0,0.0,1.887206838,0.0,0.0,0.0,0.0,0.0,0.0,0.0,0.0,4.884032703,0.0,0.0,0.0,0.0,0.0,-0.0,0.0,0.0,2.8479000990000003,0.0,0.0,1.350000023841858,0.9800000190734863,0.10000000149011612,0.01678466796875,0.02459716796875,1.005859375,33.790000915527344,0.0,0.0,0.0,-1.068115234375E-4,Closing,0.0,0.0,0.0,0.0,0.0,0.0,0.0,0.0,
1.698862000000001,0.0,0.0,0.0,0.0,0.0,0.0,0.0,0.0,3.8342281230000004,0.0,0.0,0.0,0.0,0.0,-0.0,0.0,0.0,1.887206838,0.0,0.0,0.0,0.0,0.0,0.0,0.0,0.0,4.882812,0.0,0.0,0.0,0.0,0.0,-0.0,0.0,0.0,2.8479000990000003,0.0,0.0,1.350000023841858,0.9800000190734863,0.10000000149011612,0.01513671875,0.0240478515625,1.00726318359375,33.790000915527344,0.0,-2.0,0.0,-1.068115234375E-4,Closing,0.0,0.0,0.0,0.0,0.0,0.0,0.0,0.0,
1.7178539999999993,0.0,0.0,0.0,0.0,0.0,0.0,0.0,0.0,3.8354488260000004,0.0,0.0,0.0,0.0,0.0,-0.0,0.0,0.0,1.887206838,0.0,0.0,0.0,0.0,0.0,0.0,0.0,0.0,4.885253406,0.0,0.0,0.0,0.0,0.0,-0.0,0.0,0.0,2.8479000990000003,0.0,0.0,1.350000023841858,0.9800000190734863,0.10000000149011612,0.01922607421875,0.02392578125,1.000244140625,33.790000915527344,0.0,1.0,0.0,-1.068115234375E-4,Closing,0.0,0.0,0.0,0.0,0.0,0.0,0.0,0.0,
1.738791999999994,0.0,0.0,0.0,0.0,0.0,0.0,0.0,0.0,3.8354488260000004,0.0,0.0,0.0,0.0,0.0,-0.0,0.0,0.0,1.887206838,0.0,0.0,0.0,0.0,0.0,0.0,0.0,0.0,4.885253406,0.0,0.0,0.0,0.0,0.0,-0.0,0.0,0.0,2.8479000990000003,0.0,0.0,1.350000023841858,0.9800000190734863,0.10000000149011612,0.01641845703125,0.02496337890625,1.00225830078125,33.790000915527344,0.0,0.0,0.0,-1.068115234375E-4,Closing,0.0,0.0,0.0,0.0,0.0,0.0,0.0,0.0,
1.7573940000000001,0.0,0.0,0.0,0.0,0.0,0.0,0.0,0.0,3.8342281230000004,0.0,0.0,0.0,0.0,0.0,-0.0,0.0,0.0,1.8884275410000002,0.0,0.0,0.0,0.0,0.0,0.0,0.0,0.0,4.886474109,0.0,0.0,0.0,0.0,0.0,-0.0,0.0,0.0,2.8479000990000003,0.0,0.0,1.350000023841858,0.9800000190734863,0.10000000149011612,0.015869140625,0.023681640625,1.00347900390625,33.790000915527344,0.0,-1.0,0.0,-1.068115234375E-4,Closing,0.0,0.0,0.0,0.0,0.0,0.0,0.0,0.0,
1.7782999999999956,0.0,0.0,0.0,0.0,0.0,0.0,0.0,0.0,3.8342281230000004,0.0,0.0,0.0,0.0,0.0,-0.0,0.0,0.0,1.887206838,0.0,0.0,0.0,0.0,0.0,0.0,0.0,0.0,4.884032703,0.0,0.0,0.0,0.0,0.0,-0.0,0.0,0.0,2.8479000990000003,0.0,0.0,1.350000023841858,0.9800000190734863,0.10000000149011612,0.0185546875,0.02337646484375,0.9964599609375,33.790000915527344,0.0,1.0,0.0,-1.068115234375E-4,Closing,0.0,0.0,0.0,0.0,0.0,0.0,0.0,0.0,
1.798237000000001,0.0,0.0,0.0,0.0,0.0,0.0,0.0,0.0,3.8342281230000004,0.0,0.0,0.0,0.0,0.0,-0.0,0.0,0.0,1.887206838,0.0,0.0,0.0,0.0,0.0,0.0,0.0,0.0,4.882812,0.0,0.0,0.0,0.0,0.0,-0.0,0.0,0.0,2.8479000990000003,0.0,0.0,1.350000023841858,0.9800000190734863,0.10000000149011612,0.01861572265625,0.02325439453125,1.0032958984375,33.790000915527344,0.0,1.0,0.0,-1.068115234375E-4,Closing,0.0,0.0,0.0,0.0,0.0,0.0,0.0,0.0,
1.8182419999999984,0.0,0.0,0.0,0.0,0.0,0.0,0.0,0.0,3.8342281230000004,0.0,0.0,0.0,0.0,0.0,-0.0,0.0,0.0,1.887206838,0.0,0.0,0.0,0.0,0.0,0.0,0.0,0.0,4.882812,0.0,0.0,0.0,0.0,0.0,-0.0,0.0,0.0,2.8479000990000003,0.0,0.0,1.350000023841858,0.9800000190734863,0.10000000149011612,0.01776123046875,0.02252197265625,1.00506591796875,33.790000915527344,0.0,0.0,0.0,-1.068115234375E-4,Closing,0.0,0.0,0.0,0.0,0.0,0.0,0.0,0.0,
1.8373220000000001,0.0,0.0,0.0,0.0,0.0,0.0,0.0,0.0,3.8354488260000004,0.0,0.0,0.0,0.0,0.0,-0.0,0.0,0.0,1.887206838,0.0,0.0,0.0,0.0,0.0,0.0,0.0,0.0,4.882812,0.0,0.0,0.0,0.0,0.0,-0.0,0.0,0.0,2.8479000990000003,0.0,0.0,1.350000023841858,0.9800000190734863,0.10000000149011612,0.0166015625,0.0234375,1.002685546875,33.790000915527344,0.0,0.0,0.0,-1.068115234375E-4,Closing,0.0,0.0,0.0,0.0,0.0,0.0,0.0,0.0,
1.8584359999999942,0.0,0.0,0.0,0.0,0.0,0.0,0.0,0.0,3.8354488260000004,0.0,0.0,0.0,0.0,0.0,-0.0,0.0,0.0,1.887206838,0.0,0.0,0.0,0.0,0.0,0.0,0.0,0.0,4.882812,0.0,0.0,0.0,0.0,0.0,-0.0,0.0,0.0,2.8479000990000003,0.0,0.0,1.350000023841858,0.9800000190734863,0.10000000149011612,0.02020263671875,0.02679443359375,1.00030517578125,33.790000915527344,0.0,3.0,0.0,-1.068115234375E-4,Closing,0.0,0.0,0.0,0.0,0.0,0.0,0.0,0.0,
1.8776399999999993,0.0,0.0,0.0,0.0,0.0,0.0,0.0,0.0,3.8342281230000004,0.0,0.0,0.0,0.0,0.0,-0.0,0.0,0.0,1.887206838,0.0,0.0,0.0,0.0,0.0,0.0,0.0,0.0,4.882812,0.0,0.0,0.0,0.0,0.0,-0.0,0.0,0.0,2.8479000990000003,0.0,0.0,1.350000023841858,0.9800000190734863,0.10000000149011612,0.01605224609375,0.024658203125,1.00592041015625,33.790000915527344,0.0,-1.0,0.0,-1.068115234375E-4,Closing,0.0,0.0,0.0,0.0,0.0,0.0,0.0,0.0,
1.8979389999999985,0.0,0.0,0.0,0.0,0.0,0.0,0.0,0.0,3.8342281230000004,0.0,0.0,0.0,0.0,0.0,-0.0,0.0,0.0,1.887206838,0.0,0.0,0.0,0.0,0.0,0.0,0.0,0.0,4.884032703,0.0,0.0,0.0,0.0,0.0,-0.0,0.0,0.0,2.8491208020000003,0.0,0.0,1.350000023841858,0.9800000190734863,0.10000000149011612,0.01513671875,0.02203369140625,1.00177001953125,33.790000915527344,0.0,-2.0,0.0,-1.068115234375E-4,Closing,0.0,0.0,0.0,0.0,0.0,0.0,0.0,0.0,
1.9179229999999952,0.0,0.0,0.0,0.0,0.0,0.0,0.0,0.0,3.8342281230000004,0.0,0.0,0.0,0.0,0.0,-0.0,0.0,0.0,1.887206838,0.0,0.0,0.0,0.0,0.0,0.0,0.0,0.0,4.884032703,0.0,0.0,0.0,0.0,0.0,-0.0,0.0,0.0,2.8491208020000003,0.0,0.0,1.350000023841858,0.9800000190734863,0.10000000149011612,0.01708984375,0.025146484375,1.00286865234375,33.790000915527344,0.0,0.0,0.0,-1.068115234375E-4,Closing,0.0,0.0,0.0,0.0,0.0,0.0,0.0,0.0,
1.9386759999999994,0.0,0.0,0.0,0.0,0.0,0.0,0.0,0.0,3.8342281230000004,0.0,0.0,0.0,0.0,0.0,-0.0,0.0,0.0,1.887206838,0.0,0.0,0.0,0.0,0.0,0.0,0.0,0.0,4.882812,0.0,0.0,0.0,0.0,0.0,-0.0,0.0,0.0,2.8479000990000003,0.0,0.0,1.350000023841858,0.9800000190734863,0.10000000149011612,0.0206298828125,0.02166748046875,1.0001220703125,33.790000915527344,0.0,3.0,0.0,-1.068115234375E-4,Closing,0.0,0.0,0.0,0.0,0.0,0.0,0.0,0.0,
1.957436999999998,0.0,0.0,0.0,0.0,0.0,0.0,0.0,0.0,3.8342281230000004,0.0,0.0,0.0,0.0,0.0,-0.0,0.0,0.0,1.887206838,0.0,0.0,0.0,0.0,0.0,0.0,0.0,0.0,4.884032703,0.0,0.0,0.0,0.0,0.0,-0.0,0.0,0.0,2.8491208020000003,0.0,0.0,1.350000023841858,0.9800000190734863,0.10000000149011612,0.01873779296875,0.0238037109375,1.00750732421875,33.790000915527344,0.0,1.0,0.0,-1.068115234375E-4,Closing,0.0,0.0,0.0,0.0,0.0,0.0,0.0,0.0,
1.9782039999999979,0.0,0.0,0.0,0.0,0.0,0.0,0.0,0.0,3.8354488260000004,0.0,0.0,0.0,0.0,0.0,-0.0,0.0,0.0,1.887206838,0.0,0.0,0.0,0.0,0.0,0.0,0.0,0.0,4.882812,0.0,0.0,0.0,0.0,0.0,-0.0,0.0,0.0,2.8479000990000003,0.0,0.0,1.350000023841858,0.9800000190734863,0.10000000149011612,0.01751708984375,0.0224609375,1.0078125,33.790000915527344,0.0,0.0,0.0,-1.068115234375E-4,Closing,0.0,0.0,0.0,0.0,0.0,0.0,0.0,0.0,
1.9977589999999983,0.0,0.0,0.0,0.0,0.0,0.0,0.0,0.0,3.8342281230000004,0.0,0.0,0.0,0.0,0.0,-0.0,0.0,0.0,1.887206838,0.0,0.0,0.0,0.0,0.0,0.0,0.0,0.0,4.884032703,0.0,0.0,0.0,0.0,0.0,-0.0,0.0,0.0,2.8491208020000003,0.0,0.0,1.350000023841858,0.9800000190734863,0.10000000149011612,0.0184326171875,0.02545166015625,1.000732421875,33.849998474121094,0.0,1.0,0.0,-1.068115234375E-4,Closing,0.0,0.0,0.0,0.0,0.0,0.0,0.0,0.0,
2.0190839999999954,0.0,0.0,0.0,0.0,0.0,0.0,0.0,0.0,3.8342281230000004,0.0,0.0,0.0,0.0,0.0,-0.0,0.0,0.0,1.887206838,0.0,0.0,0.0,0.0,0.0,0.0,0.0,0.0,4.884032703,0.0,0.0,0.0,0.0,0.0,-0.0,0.0,0.0,2.8479000990000003,0.0,0.0,1.350000023841858,0.9800000190734863,0.10000000149011612,0.0164794921875,0.02166748046875,1.00384521484375,33.849998474121094,0.0,0.0,0.0,-1.068115234375E-4,Closing,0.0,0.0,0.0,0.0,0.0,0.0,0.0,0.0,
2.0378329999999987,0.0,0.0,0.0,0.0,0.0,0.0,0.0,0.0,3.8342281230000004,0.0,0.0,0.0,0.0,0.0,-0.0,0.0,0.0,1.887206838,0.0,0.0,0.0,0.0,0.0,0.0,0.0,0.0,4.884032703,0.0,0.0,0.0,0.0,0.0,-0.0,0.0,0.0,2.8491208020000003,0.0,0.0,1.350000023841858,0.9800000190734863,0.10000000149011612,0.01666259765625,0.024658203125,1.0052490234375,33.849998474121094,0.0,0.0,0.0,-1.068115234375E-4,Closing,0.0,0.0,0.0,0.0,0.0,0.0,0.0,0.0,
2.0591489999999975,0.0,0.0,0.0,0.0,0.0,0.0,0.0,0.0,3.8354488260000004,0.0,0.0,0.0,0.0,0.0,-0.0,0.0,0.0,1.887206838,0.0,0.0,0.0,0.0,0.0,0.0,0.0,0.0,4.882812,0.0,0.0,0.0,0.0,0.0,-0.0,0.0,0.0,2.8479000990000003,0.0,0.0,1.350000023841858,0.9800000190734863,0.10000000149011612,0.01885986328125,0.0279541015625,1.0032958984375,33.849998474121094,0.0,1.0,0.0,-1.068115234375E-4,Closing,0.0,0.0,0.0,0.0,0.0,0.0,0.0,0.0,
2.077843999999997,0.0,0.0,0.0,0.0,0.0,0.0,0.0,0.0,3.8342281230000004,0.0,0.0,0.0,0.0,0.0,-0.0,0.0,0.0,1.887206838,0.0,0.0,0.0,0.0,0.0,0.0,0.0,0.0,4.884032703,0.0,0.0,0.0,0.0,0.0,-0.0,0.0,0.0,2.8491208020000003,0.0,0.0,1.340000033378601,0.9700000286102295,0.10000000149011612,0.01318359375,0.025634765625,1.004150390625,33.849998474121094,0.0,-3.0,0.0,-1.068115234375E-4,Closing,0.0,0.0,0.0,0.0,0.0,0.0,0.0,0.0,
2.098147999999994,0.0,0.0,0.0,0.0,0.0,0.0,0.0,0.0,3.8354488260000004,0.0,0.0,0.0,0.0,0.0,-0.0,0.0,0.0,1.887206838,0.0,0.0,0.0,0.0,0.0,0.0,0.0,0.0,4.882812,0.0,0.0,0.0,0.0,0.0,-0.0,0.0,0.0,2.8491208020000003,0.0,0.0,1.350000023841858,0.9800000190734863,0.10000000149011612,0.01605224609375,0.02239990234375,1.0023193359375,33.849998474121094,0.0,-1.0,0.0,-1.068115234375E-4,Closing,0.0,0.0,0.0,0.0,0.0,0.0,0.0,0.0,
2.118201000000001,0.0,0.0,0.0,0.0,0.0,0.0,0.0,0.0,3.8342281230000004,0.0,0.0,0.0,0.0,0.0,-0.0,0.0,0.0,1.887206838,0.0,0.0,0.0,0.0,0.0,0.0,0.0,0.0,4.884032703,0.0,0.0,0.0,0.0,0.0,-0.0,0.0,0.0,2.8479000990000003,0.0,0.0,1.350000023841858,0.9800000190734863,0.10000000149011612,0.0242919921875,0.02716064453125,1.00909423828125,33.849998474121094,0.0,7.0,0.0,-1.068115234375E-4,Closing,0.0,0.0,0.0,0.0,0.0,0.0,0.0,0.0,
2.137680999999997,0.0,0.0,0.0,0.0,0.0,0.0,0.0,0.0,3.8342281230000004,0.0,0.0,0.0,0.0,0.0,-0.0,0.0,0.0,1.887206838,0.0,-0.0012207029999995456,0.0,0.0,0.0,0.0,0.0,0.0,4.884032703,0.0,0.0,0.0,0.0,0.0,-0.0,0.0,0.0,2.8479000990000003,0.0,0.0,1.350000023841858,0.9800000190734863,0.10000000149011612,0.01922607421875,0.020263671875,0.9957275390625,33.849998474121094,0.0,2.0,0.0,-1.068115234375E-4,Closing,0.0,0.0,0.0,0.0,0.0,0.0,0.0,0.0,
2.157199999999997,0.0,0.0,0.0,0.0,0.0,0.0,0.0,0.0,3.8342281230000004,0.0,0.0,0.0,0.0,0.0,-0.0,0.0,0.0,1.887206838,0.0,-0.0012207029999995456,0.0,0.0,0.0,0.0,0.0,0.0,4.884032703,0.0,0.0,0.0,0.0,0.0,-0.0,0.0,0.0,2.8491208020000003,0.0,0.0,1.340000033378601,0.9800000190734863,0.10000000149011612,0.02215576171875,0.02947998046875,1.006103515625,33.849998474121094,0.0,4.0,0.0,-1.068115234375E-4,Closing,0.0,0.0,0.0,0.0,0.0,0.0,0.0,0.0,
2.178476999999999,0.0,0.0,0.0,0.0,0.0,0.0,0.0,0.0,3.8342281230000004,0.0,0.0,0.0,0.0,0.0,-0.0,0.0,0.0,1.887206838,0.0,-0.0012207029999995456,0.0,0.0,0.0,0.0,0.0,0.0,4.884032703,0.0,0.0,0.0,0.0,0.0,-0.0,0.0,0.0,2.8491208020000003,0.0,0.0,1.340000033378601,0.9800000190734863,0.10000000149011612,0.018310546875,0.0194091796875,0.99566650390625,33.849998474121094,0.0,1.0,0.0,-1.068115234375E-4,Closing,0.0,0.0,0.0,0.0,0.0,0.0,0.0,0.0,
2.198416999999994,0.0,0.0,0.0,0.0,0.0,0.0,0.0,0.0,3.8354488260000004,0.0,0.0,0.0,0.0,0.0,-0.0,0.0,0.0,1.887206838,0.0,0.0012207029999995456,0.0,0.0,0.0,0.0,0.0,0.0,4.885253406,0.0,0.0,0.0,0.0,0.0,-0.0,0.0,0.0,2.8479000990000003,0.0,0.0,1.340000033378601,0.9800000190734863,0.10000000149011612,0.020263671875,0.0242919921875,0.9976806640625,33.849998474121094,0.0,3.0,0.0,-1.068115234375E-4,Closing,0.0,0.0,0.0,0.0,0.0,0.0,0.0,0.0,
2.2178799999999974,0.0,0.0,0.0,0.0,0.0,0.0,0.0,0.0,3.8342281230000004,0.0,0.0,0.0,0.0,0.0,-0.0,0.0,0.0,1.887206838,0.0,0.0012207029999995456,0.0,0.0,0.0,0.0,0.0,0.0,4.882812,0.0,0.0,0.0,0.0,0.0,-0.0,0.0,0.0,2.8479000990000003,0.0,0.0,1.340000033378601,0.9800000190734863,0.10000000149011612,0.01422119140625,0.02435302734375,1.00848388671875,33.849998474121094,0.0,-3.0,0.0,-1.068115234375E-4,Closing,0.0,0.0,0.0,0.0,0.0,0.0,0.0,0.0,
2.238649999999994,0.0,0.0,0.0,0.0,0.0,0.0,0.0,0.0,3.8354488260000004,0.0,0.0,0.0,0.0,0.0,-0.0,0.0,0.0,1.8884275410000002,0.0,-0.0012207029999995456,0.0,0.0,0.0,0.0,0.0,0.0,4.884032703,0.0,0.0,0.0,0.0,0.0,-0.0,0.0,0.0,2.8479000990000003,0.0,0.0,1.340000033378601,0.9700000286102295,0.10000000149011612,0.01806640625,0.02239990234375,0.99908447265625,33.849998474121094,0.0,0.0,0.0,-1.068115234375E-4,Closing,0.0,0.0,0.0,0.0,0.0,0.0,0.0,0.0,
2.2605769999999974,0.0,0.0,0.0,0.0,0.0,0.0,0.0,0.0,3.8342281230000004,0.0,0.0,0.0,0.0,0.0,-0.0,0.0,0.0,1.887206838,0.0,-0.0012207029999995456,0.0,0.0,0.0,0.0,0.0,0.0,4.882812,0.0,0.0,0.0,0.0,0.0,-0.0,0.0,0.0,2.8491208020000003,0.0,0.0,1.340000033378601,0.9700000286102295,0.10000000149011612,0.015625,0.023681640625,0.9945068359375,33.849998474121094,0.0,-1.0,0.0,-1.068115234375E-4,Closing,0.0,0.0,0.0,0.0,0.0,0.0,0.0,0.0,
2.2780859999999956,0.0,0.0,0.0,0.0,0.0,0.0,0.0,0.0,3.8354488260000004,0.0,0.0,0.0,0.0,0.0,-0.0,0.0,0.0,1.887206838,0.0,-0.0012207029999995456,0.0,0.0,0.0,0.0,0.0,0.0,4.882812,0.0,0.0,0.0,0.0,0.0,-0.0,0.0,0.0,2.8479000990000003,0.0,0.0,1.350000023841858,0.9800000190734863,0.10000000149011612,0.01556396484375,0.0303955078125,1.00506591796875,33.849998474121094,0.0,-1.0,0.0,-1.068115234375E-4,Closing,0.0,0.0,0.0,0.0,0.0,0.0,0.0,0.0,
2.3012699999999966,0.0,0.0,0.0,0.0,0.0,0.0,0.0,0.0,3.8342281230000004,0.0,0.0,0.0,0.0,0.0,-0.0,0.0,0.0,1.885986135,0.0,0.0,0.0,0.0,0.0,0.0,0.0,0.0,4.882812,0.0,0.0,0.0,0.0,0.0,-0.0,0.0,0.0,2.8479000990000003,0.0,0.0,1.350000023841858,0.9800000190734863,0.10000000149011612,0.02294921875,0.02069091796875,0.9931640625,33.849998474121094,0.0,5.0,0.0,-1.068115234375E-4,Closing,0.0,0.0,0.0,0.0,0.0,0.0,0.0,0.0,
2.320682999999997,0.0,0.0,0.0,0.0,0.0,0.0,0.0,0.0,3.8342281230000004,0.0,0.0,0.0,0.0,0.0,-0.0,0.0,0.0,1.887206838,0.0,0.0,0.0,0.0,0.0,0.0,0.0,0.0,4.882812,0.0,0.0,0.0,0.0,0.0,-0.0,0.0,0.0,2.8479000990000003,0.0,0.0,1.340000033378601,0.9700000286102295,0.10000000149011612,0.0142822265625,0.01922607421875,1.0069580078125,33.849998474121094,0.0,-2.0,0.0,-1.068115234375E-4,Closing,0.0,0.0,0.0,0.0,0.0,0.0,0.0,0.0,
2.3376749999999955,0.0,0.0,0.0,0.0,0.0,0.0,0.0,0.0,3.8354488260000004,0.0,0.0,0.0,0.0,0.0,-0.0,0.0,0.0,1.885986135,0.0,0.0,0.0,0.0,0.0,0.0,0.0,0.0,4.884032703,0.0,0.0,0.0,0.0,0.0,-0.0,0.0,0.0,2.8479000990000003,0.0,0.0,1.340000033378601,0.9800000190734863,0.10000000149011612,0.023193359375,0.03271484375,1.005126953125,33.849998474121094,0.0,5.0,0.0,-1.068115234375E-4,Closing,0.0,0.0,0.0,0.0,0.0,0.0,0.0,0.0,
2.3578669999999984,0.0,0.0,0.0,0.0,0.0,0.0,0.0,0.0,3.8342281230000004,0.0,-0.0012207030000004337,0.0,0.0,0.0,-0.0,0.0,0.0,1.887206838,0.0,0.0,0.0,0.0,0.0,0.0,0.0,0.0,4.884032703,0.0,0.0,0.0,0.0,0.0,-0.0,0.0,0.0,2.8491208020000003,0.0,0.0,1.340000033378601,0.9800000190734863,0.10000000149011612,0.0166015625,0.01593017578125,1.002685546875,33.849998474121094,0.0,-1.0,0.0,-1.068115234375E-4,Closing,0.0,0.0,0.0,0.0,0.0,0.0,0.0,0.0,
2.3785709999999964,0.0,0.0,0.0,0.0,0.0,0.0,0.0,0.0,3.8354488260000004,0.0,-0.0012207030000004337,0.0,0.0,0.0,-0.0,0.0,0.0,1.887206838,0.0,0.0,0.0,0.0,0.0,0.0,0.0,0.0,4.884032703,0.0,0.0,0.0,0.0,0.0,-0.0,0.0,0.0,2.8479000990000003,0.0,0.0,1.340000033378601,0.9800000190734863,0.10000000149011612,0.01666259765625,0.02813720703125,0.9974365234375,33.849998474121094,0.0,0.0,0.0,-1.068115234375E-4,Closing,0.0,0.0,0.0,0.0,0.0,0.0,0.0,0.0,
2.398261999999995,0.0,0.0,0.0,0.0,0.0,0.0,0.0,0.0,3.8330074200000004,0.0,0.0012207030000004337,0.0,0.0,0.0,-0.0,0.0,0.0,1.887206838,0.0,0.0,0.0,0.0,0.0,0.0,0.0,0.0,4.884032703,0.0,0.0,0.0,0.0,0.0,-0.0,0.0,0.0,2.8491208020000003,0.0,0.0,1.340000033378601,0.9800000190734863,0.10000000149011612,0.01153564453125,0.0233154296875,1.00653076171875,33.849998474121094,0.0,-5.0,0.0,-1.068115234375E-4,Closing,0.0,0.0,0.0,0.0,0.0,0.0,0.0,0.0,
2.4174789999999993,0.0,0.0,0.0,0.0,0.0,0.0,0.0,0.0,3.8354488260000004,0.0,0.0012207030000004337,0.0,0.0,0.0,-0.0,0.0,0.0,1.887206838,0.0,0.0,0.0,0.0,0.0,0.0,0.0,0.0,4.882812,0.0,0.0,0.0,0.0,0.0,-0.0,0.0,0.0,2.8479000990000003,0.0,0.0,1.340000033378601,0.9800000190734863,0.10000000149011612,0.0179443359375,0.0167236328125,1.003662109375,33.849998474121094,0.0,0.0,0.0,-1.068115234375E-4,Closing,0.0,0.0,0.0,0.0,0.0,0.0,0.0,0.0,
2.4386199999999953,0.0,0.0,0.0,0.0,0.0,0.0,0.0,0.0,3.8403316380000003,0.0,0.0012207030000004337,0.0,0.0,0.0,-0.0,0.0,0.0,1.887206838,0.0,0.0012207029999995456,0.0,0.0,0.0,0.0,0.0,0.0,4.882812,0.0,0.0012207029999995456,0.0,0.0,0.0,-0.0,0.0,0.0,2.8479000990000003,0.0,0.0,1.3300000429153442,0.9800000190734863,0.10000000149011612,0.01177978515625,0.01739501953125,0.9996337890625,33.849998474121094,0.0,-5.0,0.0,-1.068115234375E-4,Closing,0.0,0.0,0.0,0.0,0.0,0.0,0.0,0.0,
2.4582119999999996,0.0,0.0,0.0,0.0,0.0,0.0,0.0,0.0,3.853759371,0.0,0.0,0.0,0.0,0.0,-0.0,0.0,0.0,1.8884275410000002,0.0,0.0012207029999995456,0.0,0.0,0.0,0.0,0.0,0.0,4.884032703,0.0,0.0012207029999995456,0.0,0.0,0.0,-0.0,0.0,0.0,2.8479000990000003,0.0,0.0,1.340000033378601,0.9700000286102295,0.10000000149011612,0.00244140625,0.033447265625,1.00897216796875,33.849998474121094,0.0,-14.0,0.0,-1.068115234375E-4,Closing,0.0,0.0,0.0,0.0,0.0,0.0,0.0,0.0,
2.4782609999999985,0.0,0.0,0.0,0.0,0.0,0.0,0.0,0.0,3.8476558560000003,0.0,0.0,0.0,0.0,0.0,-0.0,0.0,0.0,1.887206838,0.0,0.0012207029999995456,0.0,0.0,0.0,0.0,0.0,0.0,4.885253406,0.0,0.0012207029999995456,0.0,0.0,0.0,-0.0,0.0,0.0,2.8479000990000003,0.0,0.0,1.340000033378601,0.9800000190734863,0.10000000149011612,0.01318359375,0.04241943359375,0.97381591796875,33.849998474121094,0.0,-3.0,0.0,-1.068115234375E-4,Closing,0.0,0.0,0.0,0.0,0.0,0.0,0.0,0.0,
2.4985449999999982,0.0,0.0,0.0,0.0,0.0,0.0,0.0,0.0,3.8403316380000003,0.0,-4.955455079000001,0.0,0.0,0.0,-0.0,0.0,0.0,1.887206838,0.0,0.0,0.0,0.0,0.0,0.0,0.0,0.0,4.884032703,0.0,-0.0012207029999995456,0.0,0.0,0.0,-0.0,0.0,0.0,2.8479000990000003,0.0,0.0,1.340000033378601,0.9900000095367432,0.10000000149011612,0.00616455078125,0.02264404296875,0.96832275390625,33.849998474121094,0.0,-10.0,0.0,-1.068115234375E-4,Closing,0.0,0.0,0.0,0.0,0.0,0.0,0.0,0.0,
2.5181889999999987,0.0,0.0,0.0,0.0,0.0,0.0,0.0,0.0,3.8391109350000003,0.0,-4.955455079000001,0.0,0.0,0.0,-0.0,0.0,0.0,1.887206838,0.0,0.0,0.0,0.0,0.0,0.0,0.0,0.0,4.884032703,0.0,-0.0012207029999995456,0.0,0.0,0.0,-0.0,0.0,0.0,2.8491208020000003,0.0,0.0,1.340000033378601,0.9900000095367432,0.10000000149011612,0.018798828125,0.0264892578125,1.05767822265625,33.849998474121094,0.0,0.0,0.0,-1.068115234375E-4,Closing,0.0,0.0,0.0,0.0,0.0,0.0,0.0,0.0,
2.5383319999999947,0.0,0.0,0.0,0.0,0.0,0.0,0.0,0.0,3.8378902320000003,0.0,-4.955455079000001,0.0,0.0,0.0,-0.0,0.0,0.0,1.887206838,0.0,0.0,0.0,0.0,0.0,0.0,0.0,0.0,4.884032703,0.0,0.0,0.0,0.0,0.0,-0.0,0.0,0.0,2.8479000990000003,0.0,0.0,1.3200000524520874,1.0,0.10000000149011612,0.02996826171875,0.01507568359375,0.91864013671875,33.849998474121094,0.0,13.0,6.103515625E-5,-1.068115234375E-4,Closing,0.0,0.0,0.0,0.0,0.0,0.0,0.0,0.0,
2.5585879999999963,0.0,0.0,0.0,0.0,0.0,0.0,0.0,0.0,3.8305660140000004,0.0,4.960337891000001,0.0,0.0,0.0,-0.0,0.0,0.0,1.887206838,0.0,0.0,0.0,0.0,0.0,0.0,0.0,0.0,4.884032703,0.0,0.0,0.0,0.0,0.0,-0.0,0.0,0.0,2.8479000990000003,0.0,0.0,1.3300000429153442,1.0,0.10000000149011612,0.01849365234375,0.03009033203125,0.9678955078125,33.849998474121094,0.0,1.0,1.373291015625E-4,-1.068115234375E-4,Closing,0.0,0.0,0.0,0.0,0.0,0.0,0.0,0.0,
2.5782279999999953,0.0,0.0,0.0,0.0,0.0,0.0,0.0,0.0,3.809814063,0.0,4.960337891000001,0.0,0.0,0.0,-0.0,0.0,0.0,1.887206838,0.0,0.0,0.0,0.0,0.0,0.0,0.0,0.0,4.884032703,0.0,0.0,0.0,0.0,0.0,-0.0,0.0,0.0,2.8479000990000003,0.0,0.0,1.340000033378601,0.9700000286102295,0.10000000149011612,0.01031494140625,0.02496337890625,1.05169677734375,33.849998474121094,0.0,-7.0,1.373291015625E-4,-1.068115234375E-4,Closing,0.0,0.0,0.0,0.0,0.0,0.0,0.0,0.0,
2.5980729999999967,0.0,0.0,0.0,0.0,0.0,0.0,0.0,0.0,3.753661725,0.0,-0.04150390200000054,0.0,0.0,0.0,-0.0,0.0,0.0,1.887206838,0.0,0.0,0.0,0.0,0.0,0.0,0.0,0.0,4.884032703,0.0,0.0,0.0,0.0,0.0,-0.0,0.0,0.0,2.8491208020000003,0.0,0.0,1.3300000429153442,0.9900000095367432,0.10000000149011612,0.02203369140625,0.006103515625,0.95733642578125,33.849998474121094,0.0,5.0,1.373291015625E-4,-1.068115234375E-4,Closing,0.0,0.0,0.0,0.0,0.0,0.0,0.0,0.0,
2.617837999999996,0.0,0.0,0.0,0.0,0.0,0.0,0.0,0.125,3.7951656270000003,0.0,-0.04150390200000054,0.0,0.0,0.0,-0.0,0.0,0.0,1.887206838,0.0,0.0,0.0,0.0,0.0,0.0,0.0,0.0,4.884032703,0.0,0.0,0.0,0.0,0.0,-0.0,0.0,0.0,2.8491208020000003,0.0,0.0,1.3300000429153442,0.9900000095367432,0.10999999940395355,0.013427734375,0.01922607421875,0.97161865234375,33.849998474121094,0.0,-3.0,1.373291015625E-4,-1.068115234375E-4,Closing,0.0,0.0,0.0,0.0,0.0,0.0,0.0,0.0,
2.6381419999999998,0.0,0.0,0.0,0.0,0.0,0.0,0.0,0.125,3.7951656270000003,0.0,-0.04150390200000054,0.0,0.0,0.0,-0.0,0.0,0.0,1.887206838,0.0,0.0,0.0,0.0,0.0,0.0,0.0,0.0,4.882812,0.0,0.0,0.0,0.0,0.0,-0.0,0.0,0.0,2.8491208020000003,0.0,0.0,1.3300000429153442,0.9700000286102295,0.10999999940395355,0.030517578125,0.02099609375,1.021728515625,33.849998474121094,0.0,13.0,1.373291015625E-4,-1.068115234375E-4,Closing,0.0,0.0,0.0,0.0,0.0,0.0,0.0,0.0,
2.6582409999999945,0.0,0.0,0.0,0.0,0.0,0.0,0.0,0.125,3.7927242210000003,0.0,-0.0024414059999999793,0.0,0.0,0.0,-0.0,0.0,0.0,1.887206838,0.0,0.0,0.0,0.0,0.0,0.0,0.0,0.0,4.884032703,0.0,0.0,0.0,0.0,0.0,-0.0,0.0,0.0,2.8491208020000003,0.0,0.0,1.3200000524520874,0.9800000190734863,0.10999999940395355,0.0281982421875,0.00250244140625,0.98492431640625,33.849998474121094,0.0,11.0,1.373291015625E-4,-1.220703125E-4,Closing,0.0,0.0,0.0,0.0,0.0,0.0,0.0,0.0,
2.678839,0.0,0.0,0.0,0.0,0.0,0.0,0.0,0.125,3.7854000030000003,0.0,-0.0024414059999999793,0.0,0.0,0.0,-0.0,0.0,0.0,1.8884275410000002,0.0,0.0,0.0,0.0,0.0,0.0,0.0,0.0,4.885253406,0.0,0.0,0.0,0.0,0.0,-0.0,0.0,0.0,2.8479000990000003,0.0,0.0,1.3200000524520874,0.9900000095367432,0.11999999731779099,0.02337646484375,0.0384521484375,1.00457763671875,33.849998474121094,0.0,6.0,1.373291015625E-4,-1.373291015625E-4,Closing,0.0,0.0,0.0,0.0,0.0,0.0,0.0,0.0,
2.6988469999999944,0.0,0.0,0.0,0.0,0.0,0.0,0.0,0.125,3.7805171910000004,0.0,-0.009765623999999917,0.0,0.0,0.0,-0.0,0.0,0.0,1.887206838,0.0,-0.0012207029999995456,0.0,0.0,0.0,0.0,0.0,0.0,4.882812,0.0,0.0,0.0,0.0,0.0,-0.0,0.0,0.0,2.8479000990000003,0.0,0.0,1.3300000429153442,1.0,0.10999999940395355,0.00958251953125,0.03558349609375,1.0108642578125,33.849998474121094,0.0,-8.0,1.373291015625E-4,-1.52587890625E-4,Closing,0.0,0.0,0.0,0.0,0.0,0.0,0.0,0.0,
2.7189490000000007,0.0,0.0,0.0,0.0,0.0,0.0,0.0,0.125,3.7817378940000004,0.0,-0.009765623999999917,0.0,0.0,0.0,-0.0,0.0,0.0,1.887206838,0.0,-0.0012207029999995456,0.0,0.0,0.0,0.0,0.0,0.0,4.884032703,0.0,0.0,0.0,0.0,0.0,-0.0,0.0,0.0,2.8491208020000003,0.0,0.0,1.340000033378601,0.9700000286102295,0.10999999940395355,0.01092529296875,0.028076171875,1.0361328125,33.849998474121094,0.0,-6.0,1.373291015625E-4,-1.52587890625E-4,Closing,0.0,0.0,0.0,0.0,0.0,0.0,0.0,0.0,
2.738536,0.0,0.0,0.0,0.0,0.0,0.0,0.0,0.125,3.7805171910000004,0.0,-0.009765623999999917,0.0,0.0,0.0,-0.0,0.0,0.0,1.887206838,0.0,0.0,0.0,0.0,0.0,0.0,0.0,0.0,4.884032703,0.0,0.0,0.0,0.0,0.0,-0.0,0.0,0.0,2.8491208020000003,0.0,0.0,1.3300000429153442,0.9700000286102295,0.10999999940395355,0.01763916015625,0.0157470703125,1.00860595703125,33.849998474121094,0.0,0.0,1.373291015625E-4,-1.52587890625E-4,Closing,0.0,0.0,0.0,0.0,0.0,0.0,0.0,0.0,
2.7588059999999968,0.0,0.0,0.0,0.0,0.0,0.0,0.0,0.125,3.7768550820000004,0.0,-0.004882811999999959,0.0,0.0,0.0,-0.0,0.0,0.0,1.887206838,0.0,0.0,0.0,0.0,0.0,0.0,0.0,0.0,4.882812,0.0,0.0,0.0,0.0,0.0,-0.0,0.0,0.0,2.8454586930000003,0.0,0.0,1.3300000429153442,0.9800000190734863,0.12999999523162842,0.01568603515625,0.01898193359375,1.0054931640625,33.849998474121094,0.0,-1.0,1.373291015625E-4,-1.52587890625E-4,Closing,0.0,0.0,0.0,0.0,0.0,0.0,0.0,0.0,
2.7783859999999985,0.0,0.0,0.0,0.0,0.0,0.0,0.0,0.125,3.7768550820000004,0.0,-0.004882811999999959,0.0,0.0,0.0,-0.0,0.0,0.0,1.887206838,0.0,0.0,0.0,0.0,0.0,0.0,0.0,0.0,4.884032703,0.0,0.0,0.0,0.0,0.0,-0.0,0.0,0.0,2.8479000990000003,0.0,0.0,1.340000033378601,0.9800000190734863,0.12999999523162842,0.00830078125,0.0347900390625,1.0401611328125,33.849998474121094,0.0,-9.0,1.373291015625E-4,-1.52587890625E-4,Closing,0.0,0.0,0.0,0.0,0.0,0.0,0.0,0.0,
2.7985989999999945,0.0,0.0,0.0,0.0,0.0,0.0,0.0,0.125,3.7768550820000004,0.0,-0.004882812000000847,0.0,0.0,0.0,-0.0,0.0,0.0,1.887206838,0.0,0.0,0.0,0.0,0.0,0.0,0.0,0.0,4.884032703,0.0,0.0,0.0,0.0,0.0,-0.0,0.0,0.0,2.8491208020000003,0.0,0.0,1.3300000429153442,0.9800000190734863,0.12999999523162842,0.01812744140625,0.0262451171875,0.99298095703125,33.849998474121094,0.0,1.0,1.373291015625E-4,-1.52587890625E-4,Closing,0.0,0.0,0.0,0.0,0.0,0.0,0.0,0.0,
2.818265999999996,0.0,0.0,0.0,0.0,0.0,0.0,0.0,0.125,3.7768550820000004,0.0,-0.004882812000000847,0.0,0.0,0.0,-0.0,0.0,0.0,1.8884275410000002,0.0,0.0,0.0,0.0,0.0,0.0,0.0,0.0,4.882812,0.0,0.0,0.0,0.0,0.0,-0.0,0.0,0.0,2.8491208020000003,0.0,0.0,1.3300000429153442,0.9700000286102295,0.12999999523162842,0.02783203125,0.02484130859375,1.02056884765625,33.849998474121094,0.0,10.0,1.373291015625E-4,-1.52587890625E-4,Closing,0.0,0.0,0.0,0.0,0.0,0.0,0.0,0.0,
2.8380819999999947,0.0,0.0,0.0,0.0,0.0,0.0,0.0,0.125,3.7817378940000004,0.0,-0.004882812000000847,0.0,0.0,0.0,-0.0,0.0,0.0,1.887206838,0.0,0.0,0.0,0.0,0.0,0.0,0.0,0.0,4.882812,0.0,0.0,0.0,0.0,0.0,-0.0,0.0,0.0,2.8479000990000003,0.0,0.0,1.3300000429153442,0.9800000190734863,0.12999999523162842,0.01837158203125,0.0206298828125,1.02435302734375,33.849998474121094,0.0,0.0,1.373291015625E-4,-1.52587890625E-4,Closing,0.0,0.0,0.0,0.0,0.0,0.0,0.0,0.0,
2.8584320000000005,0.0,0.0,0.0,0.0,0.0,0.0,0.0,0.125,3.7768550820000004,0.0,0.0,0.0,0.0,0.0,-0.0,0.0,0.0,1.8884275410000002,0.0,0.0,0.0,0.0,0.0,0.0,0.0,0.0,4.884032703,0.0,0.0,0.0,0.0,0.0,-0.0,0.0,0.0,2.8479000990000003,0.0,0.0,1.3300000429153442,0.9900000095367432,0.12999999523162842,0.01202392578125,0.02545166015625,0.993896484375,33.849998474121094,0.0,-5.0,1.373291015625E-4,-1.52587890625E-4,Closing,0.0,0.0,0.0,0.0,0.0,0.0,0.0,0.0,
2.877964,0.0,0.0,0.0,0.0,0.0,0.0,0.0,0.125,3.7805171910000004,0.0,0.0,0.0,0.0,0.0,-0.0,0.0,0.0,1.887206838,0.0,0.0,0.0,0.0,0.0,0.0,0.0,0.0,4.884032703,0.0,0.0,0.0,0.0,0.0,-0.0,0.0,0.0,2.8479000990000003,0.0,0.0,1.350000023841858,0.9800000190734863,0.12999999523162842,0.01275634765625,0.0338134765625,1.0174560546875,33.849998474121094,0.0,-4.0,1.373291015625E-4,-1.52587890625E-4,Closing,0.0,0.0,0.0,0.0,0.0,0.0,0.0,0.0,
2.8998359999999956,0.0,0.0,0.0,0.0,0.0,0.0,0.0,0.125,3.7805171910000004,0.0,0.004882812000000847,0.0,0.0,0.0,-0.0,0.0,0.0,1.887206838,0.0,0.0,0.0,0.0,0.0,0.0,0.0,0.0,4.885253406,0.0,0.0,0.0,0.0,0.0,-0.0,0.0,0.0,2.8479000990000003,0.0,0.0,1.350000023841858,0.9800000190734863,0.11999999731779099,0.0189208984375,0.0328369140625,1.0057373046875,33.849998474121094,0.0,1.0,1.373291015625E-4,-1.52587890625E-4,Closing,0.0,0.0,0.0,0.0,0.0,0.0,0.0,0.0,
2.9186259999999966,0.0,0.0,0.0,0.0,0.0,0.0,0.0,0.125,3.7854000030000003,0.0,0.004882812000000847,0.0,0.0,0.0,-0.0,0.0,0.0,1.8884275410000002,0.0,0.0,0.0,0.0,0.0,0.0,0.0,0.0,4.884032703,0.0,0.0,0.0,0.0,0.0,-0.0,0.0,0.0,2.8479000990000003,0.0,0.0,1.350000023841858,0.9800000190734863,0.11999999731779099,0.0189208984375,0.0328369140625,1.0057373046875,33.849998474121094,0.0,1.0,1.373291015625E-4,-1.52587890625E-4,Closing,0.0,0.0,0.0,0.0,0.0,0.0,0.0,0.0,
2.938958999999995,0.0,0.0,0.0,0.0,0.0,0.0,0.0,0.125,3.7915035180000003,0.0,0.004882812000000847,0.0,0.0,0.0,-0.0,0.0,0.0,1.887206838,0.0,0.0,0.0,0.0,0.0,0.0,0.0,0.0,4.885253406,0.0,0.0,0.0,0.0,0.0,-0.0,0.0,0.0,2.8479000990000003,0.0,0.0,1.350000023841858,0.9800000190734863,0.10999999940395355,0.01629638671875,0.0174560546875,0.9859619140625,33.849998474121094,0.0,0.0,1.373291015625E-4,-1.52587890625E-4,Closing,0.0,0.0,0.0,0.0,0.0,0.0,0.0,0.0,
2.9582279999999956,0.0,0.0,0.0,0.0,0.0,0.0,0.0,0.125,3.7988277360000002,0.0,0.006103515000000392,0.0,0.0,0.0,-0.0,0.0,0.0,1.887206838,0.0,0.0,0.0,0.0,0.0,0.0,0.0,0.0,4.884032703,0.0,0.0,0.0,0.0,0.0,-0.0,0.0,0.0,2.8479000990000003,0.0,0.0,1.350000023841858,0.9800000190734863,0.10999999940395355,0.01629638671875,0.0174560546875,0.9859619140625,33.849998474121094,0.0,0.0,1.373291015625E-4,-1.52587890625E-4,Closing,0.0,0.0,0.0,0.0,0.0,0.0,0.0,0.0,
2.977545999999995,0.0,0.0,0.0,0.0,0.0,0.0,0.0,0.125,3.803710548,0.0,0.006103515000000392,0.0,0.0,0.0,-0.0,0.0,0.0,1.887206838,0.0,0.0,0.0,0.0,0.0,0.0,0.0,0.0,4.882812,0.0,0.0,0.0,0.0,0.0,-0.0,0.0,0.0,2.8479000990000003,0.0,0.0,1.340000033378601,0.9800000190734863,0.10999999940395355,0.0155029296875,0.0108642578125,0.979736328125,33.849998474121094,0.0,-1.0,1.373291015625E-4,-1.52587890625E-4,Closing,0.0,0.0,0.0,0.0,0.0,0.0,0.0,0.0,
3.0007469999999956,0.0,0.0,0.0,0.0,0.0,0.0,0.0,0.125,3.80859336,0.0,0.017089841999998967,0.0,0.0,0.0,-0.0,0.0,0.0,1.885986135,0.0,0.0012207029999995456,0.0,0.0,0.0,0.0,0.0,0.0,4.884032703,0.0,0.0,0.0,0.0,0.0,-0.0,0.0,0.0,2.8491208020000003,0.0,0.0,1.3300000429153442,0.9700000286102295,0.10000000149011612,0.01776123046875,0.0203857421875,1.0191650390625,33.849998474121094,0.0,0.0,1.373291015625E-4,-1.52587890625E-4,Closing,0.0,0.0,0.0,0.0,0.0,0.0,0.0,0.0,
3.018917999999998,0.0,0.0,0.0,0.0,0.0,0.0,0.0,0.125,3.815917578,0.0,0.017089841999998967,0.0,0.0,0.0,-0.0,0.0,0.0,1.887206838,0.0,0.0012207029999995456,0.0,0.0,0.0,0.0,0.0,0.0,4.884032703,0.0,0.0,0.0,0.0,0.0,-0.0,0.0,0.0,2.8479000990000003,0.0,0.0,1.3300000429153442,0.9800000190734863,0.10000000149011612,0.02569580078125,0.0223388671875,0.98956298828125,33.849998474121094,0.0,8.0,1.373291015625E-4,-1.52587890625E-4,Closing,0.0,0.0,0.0,0.0,0.0,0.0,0.0,0.0,
3.0373940000000004,0.0,0.0,0.0,0.0,0.0,0.0,0.0,0.125,3.819579687,0.0,0.017089841999998967,0.0,0.0,0.0,-0.0,0.0,0.0,1.887206838,0.0,0.0,0.0,0.0,0.0,0.0,0.0,0.0,4.884032703,0.0,0.0,0.0,0.0,0.0,-0.0,0.0,0.0,2.8479000990000003,0.0,0.0,1.3300000429153442,0.9800000190734863,0.10000000149011612,0.0140380859375,0.02557373046875,1.0294189453125,33.86000061035156,0.0,-3.0,1.373291015625E-4,-1.52587890625E-4,Closing,0.0,0.0,0.0,0.0,0.0,0.0,0.0,0.0,
3.0578729999999994,0.0,0.0,0.0,0.0,0.0,0.0,0.0,0.125,3.819579687,0.0,0.010986327000000351,0.0,0.0,0.0,-0.0,0.0,0.0,1.887206838,0.0,0.0,0.0,0.0,0.0,0.0,0.0,0.0,4.885253406,0.0,0.0,0.0,0.0,0.0,-0.0,0.0,0.0,2.8491208020000003,0.0,0.0,1.3300000429153442,0.9700000286102295,0.10000000149011612,0.01763916015625,0.024169921875,1.01116943359375,33.86000061035156,0.0,0.0,1.373291015625E-4,-1.52587890625E-4,Closing,0.0,0.0,0.0,0.0,0.0,0.0,0.0,0.0,
3.0785219999999973,0.0,0.0,0.0,0.0,0.0,0.0,0.0,0.125,3.82080039,0.0,0.010986327000000351,0.0,0.0,0.0,-0.0,0.0,0.0,1.887206838,0.0,0.0,0.0,0.0,0.0,0.0,0.0,0.0,4.884032703,0.0,0.0,0.0,0.0,0.0,-0.0,0.0,0.0,2.8479000990000003,0.0,0.0,1.3300000429153442,0.9800000190734863,0.10000000149011612,0.01898193359375,0.0216064453125,0.98358154296875,33.86000061035156,0.0,2.0,1.373291015625E-4,-1.52587890625E-4,Closing,0.0,0.0,0.0,0.0,0.0,0.0,0.0,0.0,
3.1006789999999964,0.0,0.0,0.0,0.0,0.0,0.0,0.0,0.125,3.82080039,0.0,0.004882811999999959,0.0,0.0,0.0,-0.0,0.0,0.0,1.887206838,0.0,0.0,0.0,0.0,0.0,0.0,0.0,0.0,4.884032703,0.0,0.0,0.0,0.0,0.0,-0.0,0.0,0.0,2.8466793960000003,0.0,0.0,1.3300000429153442,0.9700000286102295,0.10000000149011612,0.01544189453125,0.0257568359375,1.0120849609375,33.86000061035156,0.0,-1.0,1.373291015625E-4,-1.52587890625E-4,Closing,0.0,0.0,0.0,0.0,0.0,0.0,0.0,0.0,
3.1181859999999944,0.0,0.0,0.0,0.0,0.0,0.0,0.0,0.125,3.819579687,0.0,0.004882811999999959,0.0,0.0,0.0,-0.0,0.0,0.0,1.887206838,0.0,0.0,0.0,0.0,0.0,0.0,0.0,0.0,4.884032703,0.0,0.0,0.0,0.0,0.0,-0.0,0.0,0.0,2.8479000990000003,0.0,0.0,1.3300000429153442,0.9700000286102295,0.10000000149011612,0.01666259765625,0.02520751953125,1.00439453125,33.86000061035156,0.0,0.0,1.373291015625E-4,-1.52587890625E-4,Closing,0.0,0.0,0.0,0.0,0.0,0.0,0.0,0.0,
3.1384379999999945,0.0,0.0,0.0,0.0,0.0,0.0,0.0,0.125,3.819579687,0.0,0.004882811999999959,0.0,0.0,0.0,-0.0,0.0,0.0,1.887206838,0.0,-0.0012207029999995456,0.0,0.0,0.0,0.0,0.0,0.0,4.882812,0.0,0.0,0.0,0.0,0.0,-0.0,0.0,0.0,2.8479000990000003,0.0,0.0,1.3300000429153442,0.9700000286102295,0.10000000149011612,0.01800537109375,0.02349853515625,1.00250244140625,33.86000061035156,0.0,0.0,1.373291015625E-4,-1.52587890625E-4,Closing,0.0,0.0,0.0,0.0,0.0,0.0,0.0,0.0,
3.1583179999999995,0.0,0.0,0.0,0.0,0.0,0.0,0.0,0.125,3.822021093,0.0,0.0,0.0,0.0,0.0,-0.0,0.0,0.0,1.887206838,0.0,-0.0012207029999995456,0.0,0.0,0.0,0.0,0.0,0.0,4.882812,0.0,0.0,0.0,0.0,0.0,-0.0,0.0,0.0,2.8479000990000003,0.0,0.0,1.3300000429153442,0.9700000286102295,0.10000000149011612,0.01983642578125,0.02618408203125,0.99554443359375,33.86000061035156,0.0,2.0,1.373291015625E-4,-1.52587890625E-4,Closing,0.0,0.0,0.0,0.0,0.0,0.0,0.0,0.0,
3.1788539999999994,0.0,0.0,0.0,0.0,0.0,0.0,0.0,0.125,3.819579687,0.0,0.0,0.0,0.0,0.0,-0.0,0.0,0.0,1.8884275410000002,0.0,-0.0012207029999995456,0.0,0.0,0.0,0.0,0.0,0.0,4.884032703,0.0,0.0,0.0,0.0,0.0,-0.0,0.0,0.0,2.8491208020000003,0.0,0.0,1.340000033378601,0.9800000190734863,0.10000000149011612,0.01788330078125,0.0235595703125,1.00701904296875,33.86000061035156,0.0,0.0,1.373291015625E-4,-1.52587890625E-4,Closing,0.0,0.0,0.0,0.0,0.0,0.0,0.0,0.0,
