Time,ClimberA1,ClimberA2,FRpos,FRCurrent,FRspeed,FRsetpoint,FRApos,FRACurrent,FREncpos,FREncSetpoint,FREncSpeed,FLpos,FLCurrent,FLspeed,FLsetpoint,FLApos,FLACurrent,FLEncpos,FLEncSetpoint,FLEncSpeed,BRpos,BRCurrent,BRspeed,BRsetpoint,BRApos,BRACurrent,BREncpos,BREncSetpoint,BREncSpeed,BLpos,BLCurrent,BLspeed,BLsetpoint,BLApos,BLACurrent,BLEncpos,BLEncSetpoint,BLEncSpeed,navx_Pitch,navx_Roll,navx_Yaw,navx_XAcc,navx_YAcc,navx_ZAcc,navx_Temp,navx_Bar,navx_Alt,navx_XDis,navx_YDis,GearPlacerState,ShootOutputV,ShootOutputCurrent,ShootEncPos,ShootEncVelocity,ShootSpeed,ShootSetpoint,CarouselSetpoint,CarouselCurrent,
0.11008499999999186,0.0,0.0,3635.0,0.0,0.0,0.0,0.0,0.0,3.8354488260000004,0.0,0.0,-3580.0,0.0,0.0,-0.0,0.0,0.0,1.9506833940000001,0.0,0.0,303.0,89.125,0.0,0.0,0.0,0.0,4.196776914,0.0,0.0,-3590.0,0.0,0.0,-0.0,0.0,0.0,2.918700873,0.0,0.0,0.5699999928474426,0.4300000071525574,75.4000015258789,0.00439453125,0.0184326171875,1.008056640625,27.6200008392334,0.0,7.0,0.0955047607421875,0.250579833984375,Waiting,0.0,0.0,-27264.0,0.0,0.0,0.0,0.0,0.0,
0.1468500000000058,0.0,0.0,3635.0,0.0,0.0,0.0,0.0,0.0,3.8354488260000004,0.0,-0.0012207029999995456,-3580.0,0.0,0.0,-0.0,0.0,0.0,1.933593552,0.0,0.0,303.0,89.125,0.0,0.0,0.0,0.0,4.195556211,0.0,-0.0012207030000004337,-3590.0,0.0,0.0,-0.0,0.0,0.0,2.915038764,0.0,0.0,0.5899999737739563,0.41999998688697815,75.4000015258789,0.0059814453125,0.01568603515625,1.0133056640625,27.6200008392334,0.0,4.0,0.0955047607421875,0.250579833984375,Closing,0.0,0.0,-27264.0,0.0,0.0,0.0,0.0,0.0,
0.17585899999999674,0.0,0.0,3635.0,0.0,0.0,0.0,0.0,0.0,3.8354488260000004,0.0,-0.0012207029999995456,-3580.0,0.0,0.0,-0.0,0.0,0.0,1.9506833940000001,0.0,0.0,303.0,89.125,0.0,0.0,0.0,0.0,4.194335508,0.0,-0.0012207030000004337,-3590.0,0.0,0.0,-0.0,0.0,0.0,2.921142279,0.0,0.0,0.5899999737739563,0.41999998688697815,75.4000015258789,0.00537109375,0.0137939453125,1.0,27.600000381469727,0.0,2.0,0.0955047607421875,0.250579833984375,Closing,0.0,0.0,-27264.0,0.0,0.0,0.0,0.0,0.0,
0.21236199999999372,0.0,0.0,3635.0,0.0,0.0,0.0,0.0,0.0,3.8317867170000004,0.0,0.0,-3580.0,0.0,0.0,-0.0,0.0,0.0,1.9506833940000001,0.0,-0.0012207029999999897,303.0,89.125,0.0,0.0,0.0,0.0,4.195556211,0.0,0.0,-3590.0,0.0,0.0,-0.0,0.0,0.0,2.921142279,0.0,0.0,0.6100000143051147,0.4099999964237213,75.4000015258789,0.00323486328125,0.0238037109375,1.02020263671875,27.600000381469727,0.0,11.0,0.0955047607421875,0.250579833984375,Closing,0.0,0.0,-27264.0,0.0,0.0,0.0,0.0,0.0,
0.24011900000000605,0.0,0.0,3635.0,0.0,0.0,0.0,0.0,0.0,3.8391109350000003,0.0,0.0,-3580.0,0.0,0.0,-0.0,0.0,0.0,1.9506833940000001,0.0,0.0,303.0,89.125,0.0,0.0,0.0,0.0,4.194335508,0.0,0.0,-3590.0,0.0,0.0,-0.0,0.0,0.0,2.924804388,0.0,0.0,0.6200000047683716,0.4099999964237213,75.4000015258789,0.0064697265625,0.01983642578125,1.00390625,27.600000381469727,0.0,8.0,0.0955047607421875,0.250579833984375,Closing,0.0,0.0,-27264.0,0.0,0.0,0.0,0.0,0.0,
0.2726440000000002,0.0,0.0,3635.0,0.0,0.0,0.0,0.0,0.0,3.8342281230000004,0.0,0.0,-3580.0,0.0,0.0,-0.0,0.0,0.0,1.9506833940000001,0.0,0.0,303.0,89.125,0.0,0.0,0.0,0.0,4.194335508,0.0,0.0,-3590.0,0.0,0.0,-0.0,0.0,0.0,2.923583685,0.0,0.0,0.6299999952316284,0.4099999964237213,75.4000015258789,0.001708984375,0.01898193359375,1.01025390625,27.600000381469727,0.0,6.0,0.0955047607421875,0.250579833984375,Closing,0.0,0.0,-27264.0,0.0,0.0,0.0,0.0,0.0,
0.30102900000000954,0.0,0.0,3635.0,0.0,0.0,0.0,0.0,0.0,3.8342281230000004,0.0,0.0,-3580.0,0.0,0.0,-0.0,0.0,0.0,1.9506833940000001,0.0,0.0,303.0,89.125,0.0,0.0,0.0,0.0,4.196776914,0.0,0.0,-3590.0,0.0,0.0,-0.0,0.0,0.0,2.921142279,0.0,0.0,0.6399999856948853,0.4000000059604645,75.4000015258789,0.00762939453125,0.0146484375,1.010986328125,27.600000381469727,0.0,3.0,0.0955047607421875,0.250579833984375,Closing,0.0,0.0,-27264.0,0.0,0.0,0.0,0.0,0.0,
0.3332730000000156,0.0,0.0,3635.0,0.0,0.0,0.0,0.0,0.0,3.8366695290000004,0.0,0.0,-3580.0,0.0,0.0,-0.0,0.0,0.0,1.9470212850000002,0.0,0.0,303.0,89.125,0.0,0.0,0.0,0.0,4.195556211,0.0,0.0,-3590.0,0.0,0.0,-0.0,0.0,0.0,2.921142279,0.0,0.0,0.6399999856948853,0.4000000059604645,75.4000015258789,0.00311279296875,0.0179443359375,1.017333984375,27.600000381469727,0.0,5.0,0.0955047607421875,0.250579833984375,Closing,0.0,0.0,-27264.0,0.0,0.0,0.0,0.0,0.0,
0.36908699999999955,0.0,0.0,3635.0,0.0,0.0,0.0,0.0,0.0,3.8354488260000004,0.0,0.0,-3580.0,0.0,0.0,-0.0,0.0,0.0,1.9506833940000001,0.0,0.0012207029999999897,303.0,89.125,0.0,0.0,0.0,0.0,4.196776914,0.0,0.0012207030000004337,-3590.0,0.0,0.0,-0.0,0.0,0.0,2.921142279,0.0,0.0012207029999999897,0.6499999761581421,0.4000000059604645,75.4000015258789,0.0081787109375,0.01898193359375,0.99578857421875,27.600000381469727,0.0,7.0,0.0955047607421875,0.250579833984375,Closing,0.0,0.0,-27264.0,0.0,0.0,0.0,0.0,0.0,
0.39539000000001395,0.0,0.0,3635.0,0.0,0.0,0.0,0.0,0.0,3.8354488260000004,0.0,0.0,-3580.0,0.0,0.0,-0.0,0.0,0.0,1.9531248,0.0,-0.0012207029999999897,303.0,89.125,0.0,0.0,0.0,0.0,4.195556211,0.0,-0.0012207030000004337,-3590.0,0.0,0.0,-0.0,0.0,0.0,2.919921576,0.0,-0.0012207029999999897,0.6700000166893005,0.4000000059604645,75.4000015258789,0.0032958984375,0.0191650390625,1.0113525390625,27.600000381469727,0.0,6.0,0.0955047607421875,0.250579833984375,Closing,0.0,0.0,-27264.0,0.0,0.0,0.0,0.0,0.0,
0.4289899999999907,0.0,0.0,3635.0,0.0,0.0,0.0,0.0,0.0,3.8366695290000004,0.0,0.0,-3580.0,0.0,0.0,-0.0,0.0,0.0,1.9470212850000002,0.0,-0.0012207029999999897,303.0,89.125,0.0,0.0,0.0,0.0,4.195556211,0.0,-0.0012207030000004337,-3590.0,0.0,0.0,-0.0,0.0,0.0,2.921142279,0.0,-0.0012207029999999897,0.6700000166893005,0.38999998569488525,75.4000015258789,0.0074462890625,0.015869140625,1.00579833984375,27.600000381469727,0.0,3.0,0.0955047607421875,0.250579833984375,Closing,0.0,0.0,-27264.0,0.0,0.0,0.0,0.0,0.0,
0.45619099999999163,0.0,0.0,3635.0,0.0,0.0,0.0,0.0,0.0,3.8354488260000004,0.0,0.0,-3580.0,0.0,0.0,-0.0,0.0,0.0,1.9506833940000001,0.0,0.0,303.0,89.125,0.0,0.0,0.0,0.0,4.201659726,0.0,0.0,-3590.0,0.0,0.0,-0.0,0.0,0.0,2.933349309,0.0,0.0012207029999999897,0.6899999976158142,0.38999998569488525,75.4000015258789,0.00396728515625,0.01812744140625,1.0283203125,27.600000381469727,0.0,4.0,0.0955047607421875,0.250579833984375,Closing,0.0,0.0,-27264.0,0.0,0.0,0.0,0.0,0.0,
0.4895469999999914,0.0,0.0,3635.0,0.0,0.0,0.0,0.0,0.0,3.8354488260000004,0.0,0.0,-3580.0,0.0,0.0,-0.0,0.0,0.0,1.9506833940000001,0.0,0.0012207029999999897,303.0,89.125,0.0,0.0,0.0,0.0,4.195556211,0.0,0.0012207030000004337,-3590.0,0.0,0.0,-0.0,0.0,0.0,2.921142279,0.0,-0.0012207029999999897,0.699999988079071,0.38999998569488525,75.4000015258789,0.00634765625,0.01959228515625,1.00115966796875,27.600000381469727,0.0,6.0,0.0955047607421875,0.250579833984375,Closing,0.0,0.0,-27264.0,0.0,0.0,0.0,0.0,0.0,
0.5172680000000109,0.0,0.0,3635.0,0.0,0.0,0.0,0.0,0.0,3.8342281230000004,0.0,0.0,-3580.0,0.0,0.0,-0.0,0.0,0.0,1.9506833940000001,0.0,0.0012207029999999897,303.0,89.125,0.0,0.0,0.0,0.0,4.195556211,0.0,0.0012207030000004337,-3590.0,0.0,0.0,-0.0,0.0,0.0,2.921142279,0.0,-0.0012207029999999897,0.699999988079071,0.38999998569488525,75.4000015258789,0.00634765625,0.01959228515625,1.00115966796875,27.600000381469727,0.0,6.0,0.0955047607421875,0.250579833984375,Closing,0.0,0.0,-27264.0,0.0,0.0,0.0,0.0,0.0,
0.5477669999999926,0.0,0.0,3635.0,0.0,0.0,0.0,0.0,0.0,3.8354488260000004,0.0,0.0,-3580.0,0.0,0.0,-0.0,0.0,0.0,1.9519040970000001,0.0,0.0,303.0,89.125,0.0,0.0,0.0,0.0,4.195556211,0.0,0.0,-3590.0,0.0,0.0,-0.0,0.0,0.0,2.921142279,0.0,0.0012207029999999897,0.7099999785423279,0.38999998569488525,75.4000015258789,0.00537109375,0.018310546875,1.00579833984375,27.600000381469727,0.0,5.0,0.0955047607421875,0.250579833984375,Closing,0.0,0.0,-27264.0,0.0,0.0,0.0,0.0,0.0,
0.5758470000000089,0.0,0.0,3635.0,0.0,0.0,0.0,0.0,0.0,3.8354488260000004,0.0,0.0,-3580.0,0.0,0.0,-0.0,0.0,0.0,1.9506833940000001,0.0,0.0,303.0,89.125,0.0,0.0,0.0,0.0,4.195556211,0.0,0.0,-3590.0,0.0,0.0,-0.0,0.0,0.0,2.921142279,0.0,0.0012207029999999897,0.7099999785423279,0.38999998569488525,75.4000015258789,0.006103515625,0.0157470703125,1.00579833984375,27.600000381469727,0.0,2.0,0.0955047607421875,0.250579833984375,Closing,0.0,0.0,-27264.0,0.0,0.0,0.0,0.0,0.0,
0.6078660000000091,0.0,0.0,3635.0,0.0,0.0,0.0,0.0,0.0,3.8342281230000004,0.0,0.0,-3580.0,0.0,0.0,-0.0,0.0,0.0,1.9506833940000001,0.0,-0.0012207029999999897,303.0,89.125,0.0,0.0,0.0,0.0,4.195556211,0.0,0.0,-3590.0,0.0,0.0,-0.0,0.0,0.0,2.921142279,0.0,0.0,0.7200000286102295,0.3799999952316284,75.4000015258789,0.0042724609375,0.01739501953125,1.01300048828125,27.600000381469727,0.0,3.0,0.0955047607421875,0.250579833984375,Closing,0.0,0.0,-27264.0,0.0,0.0,0.0,0.0,0.0,
0.6341559999999882,0.0,0.0,3635.0,0.0,0.0,0.0,0.0,0.0,3.8342281230000004,0.0,0.0,-3580.0,0.0,0.0,-0.0,0.0,0.0,1.9506833940000001,0.0,-0.0012207029999999897,303.0,89.125,0.0,0.0,0.0,0.0,4.194335508,0.0,0.0,-3590.0,0.0,0.0,-0.0,0.0,0.0,2.921142279,0.0,0.0,0.7300000190734863,0.3799999952316284,75.4000015258789,0.00872802734375,0.01934814453125,1.004150390625,27.600000381469727,0.0,6.0,0.0955047607421875,0.250579833984375,Closing,0.0,0.0,-27264.0,0.0,0.0,0.0,0.0,0.0,
0.6670050000000046,0.0,0.0,3635.0,0.0,0.0,0.0,0.0,0.0,3.8354488260000004,0.0,0.0,-3580.0,0.0,0.0,-0.0,0.0,0.0,1.9506833940000001,0.0,0.0,303.0,89.125,0.0,0.0,0.0,0.0,4.194335508,0.0,-0.0012207030000004337,-3590.0,0.0,0.0,-0.0,0.0,0.0,2.921142279,0.0,-0.0012207029999999897,0.7400000095367432,0.3700000047683716,75.4000015258789,0.00494384765625,0.01824951171875,1.01397705078125,27.600000381469727,0.0,4.0,0.0955047607421875,0.250579833984375,Closing,0.0,0.0,-27264.0,0.0,0.0,0.0,0.0,0.0,
0.6934759999999951,0.0,0.0,3635.0,0.0,0.0,0.0,0.0,0.0,3.8342281230000004,0.0,0.0,-3580.0,0.0,0.0,-0.0,0.0,0.0,1.9519040970000001,0.0,0.0012207029999999897,303.0,89.125,0.0,0.0,0.0,0.0,4.195556211,0.0,0.0,-3590.0,0.0,0.0,-0.0,0.0,0.0,2.921142279,0.0,0.0012207029999999897,0.75,0.3799999952316284,75.4000015258789,0.00860595703125,0.01959228515625,1.00360107421875,27.600000381469727,0.0,6.0,0.0955047607421875,0.250579833984375,Closing,0.0,0.0,-27264.0,0.0,0.0,0.0,0.0,0.0,
0.7264459999999963,0.0,0.0,3635.0,0.0,0.0,0.0,0.0,0.0,3.8342281230000004,0.0,0.0,-3580.0,0.0,0.0,-0.0,0.0,0.0,1.9494626910000001,0.0,0.0012207029999999897,303.0,89.125,0.0,0.0,0.0,0.0,4.196776914,0.0,0.0,-3590.0,0.0,0.0,-0.0,0.0,0.0,2.922362982,0.0,0.0012207029999999897,0.75,0.3700000047683716,75.4000015258789,0.004150390625,0.0191650390625,1.01910400390625,27.610000610351562,0.0,4.0,0.0955047607421875,0.250579833984375,Closing,0.0,0.0,-27264.0,0.0,0.0,0.0,0.0,0.0,
0.7525409999999975,0.0,0.0,3635.0,0.0,0.0,0.0,0.0,0.0,3.8354488260000004,0.0,0.0,-3580.0,0.0,0.0,-0.0,0.0,0.0,1.9506833940000001,0.0,0.0,303.0,89.125,0.0,0.0,0.0,0.0,4.195556211,0.0,0.0012207030000004337,-3590.0,0.0,0.0,-0.0,0.0,0.0,2.921142279,0.0,-0.0012207029999999897,0.7599999904632568,0.3700000047683716,75.4000015258789,0.00775146484375,0.01898193359375,1.00604248046875,27.610000610351562,0.0,5.0,0.0955047607421875,0.250579833984375,Closing,0.0,0.0,-27264.0,0.0,0.0,0.0,0.0,0.0,
0.7841719999999914,0.0,0.0,3635.0,0.0,0.0,0.0,0.0,0.0,3.8354488260000004,0.0,0.0,-3580.0,0.0,0.0,-0.0,0.0,0.0,1.9506833940000001,0.0,0.0,303.0,89.125,0.0,0.0,0.0,0.0,4.196776914,0.0,0.0012207030000004337,-3590.0,0.0,0.0,-0.0,0.0,0.0,2.921142279,0.0,-0.0012207029999999897,0.7699999809265137,0.36000001430511475,75.4000015258789,0.005859375,0.02105712890625,1.01287841796875,27.610000610351562,0.0,7.0,0.0955047607421875,0.250579833984375,Closing,0.0,0.0,-27264.0,0.0,0.0,0.0,0.0,0.0,
0.8133379999999888,0.0,0.0,3635.0,0.0,0.0,0.0,0.0,0.0,3.8342281230000004,0.0,0.0,-3580.0,0.0,0.0,-0.0,0.0,0.0,1.9506833940000001,0.0,0.0,303.0,89.125,0.0,0.0,0.0,0.0,4.194335508,0.0,0.0,-3590.0,0.0,0.0,-0.0,0.0,0.0,2.921142279,0.0,0.0,0.7699999809265137,0.3700000047683716,75.4000015258789,0.00799560546875,0.014892578125,1.0052490234375,27.610000610351562,0.0,1.0,0.0955047607421875,0.250579833984375,Closing,0.0,0.0,-27264.0,0.0,0.0,0.0,0.0,0.0,
0.8396460000000079,0.0,0.0,3635.0,0.0,0.0,0.0,0.0,0.0,3.8342281230000004,0.0,0.0,-3580.0,0.0,0.0,-0.0,0.0,0.0,1.9494626910000001,0.0,-0.0012207029999999897,303.0,89.125,0.0,0.0,0.0,0.0,4.195556211,0.0,-0.0012207030000004337,-3590.0,0.0,0.0,-0.0,0.0,0.0,2.921142279,0.0,0.0,0.7799999713897705,0.36000001430511475,75.4000015258789,0.0042724609375,0.02001953125,1.02294921875,27.610000610351562,0.0,5.0,0.0955047607421875,0.250579833984375,Closing,0.0,0.0,-27264.0,0.0,0.0,0.0,0.0,0.0,
0.8716119999999937,0.0,0.0,3635.0,0.0,0.0,0.0,0.0,0.0,3.8342281230000004,0.0,0.0,-3580.0,0.0,0.0,-0.0,0.0,0.0,1.9506833940000001,0.0,-0.0012207029999999897,303.0,89.125,0.0,0.0,0.0,0.0,4.195556211,0.0,-0.0012207030000004337,-3590.0,0.0,0.0,-0.0,0.0,0.0,2.921142279,0.0,0.0,0.7900000214576721,0.3700000047683716,75.4000015258789,0.00823974609375,0.01593017578125,1.0015869140625,27.610000610351562,0.0,2.0,0.0955047607421875,0.250579833984375,Closing,0.0,0.0,-27264.0,0.0,0.0,0.0,0.0,0.0,
0.8961279999999969,0.0,0.0,3635.0,0.0,0.0,0.0,0.0,0.0,3.8354488260000004,0.0,0.0,-3580.0,0.0,0.0,-0.0,0.0,0.0,1.9519040970000001,0.0,0.0,303.0,89.125,0.0,0.0,0.0,0.0,4.196776914,0.0,0.0,-3590.0,0.0,0.0,-0.0,0.0,0.0,2.921142279,0.0,0.0,0.7900000214576721,0.36000001430511475,75.4000015258789,0.0059814453125,0.02008056640625,1.011474609375,27.610000610351562,0.0,5.0,0.0955047607421875,0.250579833984375,Closing,0.0,0.0,-27264.0,0.0,0.0,0.0,0.0,0.0,
0.928869000000006,0.0,0.0,3635.0,0.0,0.0,0.0,0.0,0.0,3.8354488260000004,0.0,0.0,-3580.0,0.0,0.0,-0.0,0.0,0.0,1.9519040970000001,0.0,0.0,303.0,89.125,0.0,0.0,0.0,0.0,4.195556211,0.0,0.0,-3590.0,0.0,0.0,-0.0,0.0,0.0,2.921142279,0.0,0.0,0.800000011920929,0.36000001430511475,75.4000015258789,0.0054931640625,0.01934814453125,1.01214599609375,27.610000610351562,0.0,4.0,0.0955047607421875,0.250579833984375,Closing,0.0,0.0,-27264.0,0.0,0.0,0.0,0.0,0.0,
0.9541330000000017,0.0,0.0,3635.0,0.0,0.0,0.0,0.0,0.0,3.8342281230000004,0.0,0.0,-3580.0,0.0,0.0,-0.0,0.0,0.0,1.9506833940000001,0.0,0.0,303.0,89.125,0.0,0.0,0.0,0.0,4.195556211,0.0,0.0012207030000004337,-3590.0,0.0,0.0,-0.0,0.0,0.0,2.921142279,0.0,0.0012207029999999897,0.8100000023841858,0.36000001430511475,75.4000015258789,0.00152587890625,0.01434326171875,1.00946044921875,27.610000610351562,0.0,-1.0,0.0955047607421875,0.250579833984375,Closing,0.0,0.0,-27264.0,0.0,0.0,0.0,0.0,0.0,
0.9870009999999892,0.0,0.0,3635.0,0.0,0.0,0.0,0.0,0.0,3.8342281230000004,0.0,0.0,-3580.0,0.0,0.0,-0.0,0.0,0.0,1.9519040970000001,0.0,0.0,303.0,89.125,0.0,0.0,0.0,0.0,4.196776914,0.0,0.0012207030000004337,-3590.0,0.0,0.0,-0.0,0.0,0.0,2.921142279,0.0,0.0012207029999999897,0.8100000023841858,0.3499999940395355,75.4000015258789,0.0048828125,0.0189208984375,1.01422119140625,27.610000610351562,0.0,3.0,0.0955047607421875,0.250579833984375,Closing,0.0,0.0,-27264.0,0.0,0.0,0.0,0.0,0.0,
1.013497000000003,0.0,0.0,3635.0,0.0,0.0,0.0,0.0,0.0,3.8342281230000004,0.0,0.0,-3580.0,0.0,0.0,-0.0,0.0,0.0,1.9494626910000001,0.0,0.0012207029999999897,303.0,89.125,0.0,0.0,0.0,0.0,4.195556211,0.0,0.0,-3590.0,0.0,0.0,-0.0,0.0,0.0,2.921142279,0.0,-0.0012207029999999897,0.8100000023841858,0.3499999940395355,75.4000015258789,0.00445556640625,0.018310546875,1.00567626953125,27.610000610351562,0.0,3.0,0.0955047607421875,0.250579833984375,Closing,0.0,0.0,-27264.0,0.0,0.0,0.0,0.0,0.0,
1.0407580000000016,0.0,0.0,3635.0,0.0,0.0,0.0,0.0,0.0,3.8342281230000004,0.0,0.0,-3580.0,0.0,0.0,-0.0,0.0,0.0,1.9506833940000001,0.0,-0.0012207029999999897,303.0,89.125,0.0,0.0,0.0,0.0,4.1931148050000004,0.0,-0.0012207030000004337,-3590.0,0.0,0.0,-0.0,0.0,0.0,2.922362982,0.0,0.0,0.8199999928474426,0.36000001430511475,75.4000015258789,0.00225830078125,0.0191650390625,1.01348876953125,27.610000610351562,0.0,3.0,0.0955047607421875,0.250579833984375,Closing,0.0,0.0,-27264.0,0.0,0.0,0.0,0.0,0.0,
1.0717870000000111,0.0,0.0,3635.0,0.0,0.0,0.0,0.0,0.0,3.8342281230000004,0.0,0.0,-3580.0,0.0,0.0,-0.0,0.0,0.0,1.9506833940000001,0.0,-0.0012207029999999897,303.0,89.125,0.0,0.0,0.0,0.0,4.195556211,0.0,-0.0012207030000004337,-3590.0,0.0,0.0,-0.0,0.0,0.0,2.921142279,0.0,0.0,0.8299999833106995,0.3499999940395355,75.4000015258789,0.00390625,0.0166015625,1.007080078125,27.610000610351562,0.0,1.0,0.0955047607421875,0.250579833984375,Closing,0.0,0.0,-27264.0,0.0,0.0,0.0,0.0,0.0,
1.0967980000000097,0.0,0.0,3635.0,0.0,0.0,0.0,0.0,0.0,3.8330074200000004,0.0,0.0,-3580.0,0.0,0.0,-0.0,0.0,0.0,1.9519040970000001,0.0,0.0012207029999999897,303.0,89.125,0.0,0.0,0.0,0.0,4.195556211,0.0,0.0,-3590.0,0.0,0.0,-0.0,0.0,0.0,2.921142279,0.0,0.0012207029999999897,0.8299999833106995,0.3499999940395355,75.4000015258789,0.006103515625,0.01702880859375,1.0103759765625,27.610000610351562,0.0,2.0,0.0955047607421875,0.250579833984375,Closing,0.0,0.0,-27264.0,0.0,0.0,0.0,0.0,0.0,
1.1311270000000078,0.0,0.0,3635.0,0.0,0.0,0.0,0.0,0.0,3.8354488260000004,0.0,0.0,-3580.0,0.0,0.0,-0.0,0.0,0.0,1.9506833940000001,0.0,0.0012207029999999897,303.0,89.125,0.0,0.0,0.0,0.0,4.195556211,0.0,0.0,-3590.0,0.0,0.0,-0.0,0.0,0.0,2.921142279,0.0,0.0012207029999999897,0.8299999833106995,0.3499999940395355,75.4000015258789,0.0025634765625,0.0189208984375,1.004638671875,27.610000610351562,0.0,3.0,0.0955047607421875,0.250579833984375,Closing,0.0,0.0,-27264.0,0.0,0.0,0.0,0.0,0.0,
1.1560130000000064,0.0,0.0,3635.0,0.0,0.0,0.0,0.0,0.0,3.8342281230000004,0.0,0.0,-3580.0,0.0,0.0,-0.0,0.0,0.0,1.9519040970000001,0.0,-0.0012207029999999897,303.0,89.125,0.0,0.0,0.0,0.0,4.196776914,0.0,0.0012207030000004337,-3590.0,0.0,0.0,-0.0,0.0,0.0,2.921142279,0.0,-0.0012207029999999897,0.8399999737739563,0.3499999940395355,75.4000015258789,0.00555419921875,0.01873779296875,1.0128173828125,27.610000610351562,0.0,3.0,0.0955047607421875,0.250579833984375,Closing,0.0,0.0,-27264.0,0.0,0.0,0.0,0.0,0.0,
1.1907639999999955,0.0,0.0,3635.0,1.0,0.0,1082.8125,0.0,0.0,3.8366695290000004,0.5533560492066917,0.0,-3580.0,0.25,0.0,1082.8125,0.0,0.0,1.9470212850000002,4.397316058113637,0.0,303.0,0.0,0.0,1082.8125,0.0,0.0,4.196776914,4.40175868900686,0.0,-3590.0,0.0,0.0,1082.8125,0.0,0.0,2.919921576,0.5515167311543303,0.0,0.8500000238418579,0.3400000035762787,75.4000015258789,0.00567626953125,0.01751708984375,1.00360107421875,27.610000610351562,0.0,2.0,0.0955047607421875,0.250579833984375,Closing,0.0,0.0,-27264.0,0.0,0.0,0.0,0.0,0.0,
1.2218619999999938,0.0,0.0,3635.0,2.375,22.5,1607.8125,0.0,0.625,3.865966401,0.5533560492066917,0.0,-3580.0,2.875,7.5,1607.8125,0.0,0.0,1.905517383,4.397316058113637,-0.004882811999999959,303.0,0.0,0.0,1607.8125,0.0,0.0,4.194335508,4.40175868900686,-0.0012207030000004337,-3575.0,1.875,0.0,1607.8125,0.0,1.125,2.924804388,0.5515167311543303,0.0,0.8600000143051147,0.3199999928474426,75.37999725341797,-0.0689697265625,-0.00347900390625,1.05926513671875,27.6299991607666,0.0,-37.0,0.0954132080078125,0.2506256103515625,Closing,0.0,0.0,-27264.0,0.0,0.0,0.0,0.0,0.0,
1.2492630000000062,0.0,0.0,3672.0,11.375,210.0,2100.0,0.0,1.875,3.8952632730000003,0.5533560492066917,0.0,-3572.0,16.375,52.5,2100.0,0.0,2.125,1.781005677,4.397316058113637,0.0,0.0,0.0,0.0,2100.0,0.0,1.125,4.10156208,4.40175868900686,0.0,-3575.0,17.0,75.0,2100.0,0.0,1.125,2.97851532,0.5515167311543303,0.0,0.8700000047683716,0.23999999463558197,75.18000030517578,-0.21343994140625,-0.12451171875,1.0987548828125,27.6299991607666,0.0,-192.0,0.0948638916015625,0.25146484375,Closing,0.0,0.0,-27264.0,0.0,0.0,0.0,0.0,0.0,
1.279780999999988,0.0,0.0,3672.0,18.875,300.0,2100.0,0.0,1.375,3.97949178,0.5533560492066917,0.06225585299999992,-3572.0,26.625,82.5,2100.0,0.0,2.125,1.691894358,4.397316058113637,-0.11230467599999905,0.0,0.0,0.0,2100.0,0.0,1.25,4.018554276000001,4.40175868900686,-0.08666991299999971,-3575.0,28.125,135.0,2100.0,0.0,1.125,3.043212579,0.5515167311543303,0.05126952600000001,0.9100000262260437,0.10999999940395355,74.68000030517578,-0.01190185546875,-0.038330078125,1.05572509765625,27.6299991607666,0.0,-56.0,0.093841552734375,0.252960205078125,Closing,0.0,0.0,-27264.0,0.0,0.0,0.0,0.0,0.0,
1.3122419999999984,0.0,0.0,3672.0,29.125,337.5,2100.0,0.0,0.875,4.0759273170000005,0.5533560492066917,0.0,-3572.0,41.75,172.5,2100.0,0.0,0.5,1.600341633,4.397316058113637,0.0,0.0,0.0,0.0,2100.0,0.0,0.0,3.928222254,4.40175868900686,0.0,-3575.0,39.25,270.0,2100.0,0.0,0.875,3.1140133530000003,0.5515167311543303,0.0,0.7799999713897705,-0.05000000074505806,74.01000213623047,-0.1357421875,0.02130126953125,0.887939453125,27.6299991607666,0.0,-28.0,0.092437744140625,0.2545623779296875,Closing,0.0,0.0,-27264.0,0.0,0.0,0.0,0.0,0.0,
1.3371609999999927,0.0,0.0,3672.0,31.25,307.5,2100.0,0.0,0.875,4.086913644,0.5533560492066917,0.0805663980000002,-3572.0,45.375,240.0,2100.0,0.0,0.5,1.560058434,4.397316058113637,-0.07812499199999934,0.0,0.0,0.0,2100.0,0.0,0.0,3.8952632730000003,4.40175868900686,-0.07934569500000066,-3493.0,39.625,360.0,2100.0,0.0,0.875,3.148193037,0.5515167311543303,0.0,0.9300000071525574,-0.1899999976158142,73.19000244140625,-0.187744140625,0.15887451171875,1.2415771484375,27.6299991607666,0.0,79.0,0.0910186767578125,0.256622314453125,Closing,0.0,0.0,-27264.0,0.0,0.0,0.0,0.0,0.0,
1.37081700000001,0.0,0.0,3717.0,33.5,285.0,2100.0,0.0,0.625,4.16259723,0.5533560492066917,0.05981444699999994,-3519.0,49.5,300.0,2100.0,0.0,0.0,1.507568205,4.397316058113637,-0.05615233800000041,0.0,0.0,0.0,2100.0,0.0,0.125,3.879394134,4.40175868900686,-0.0366210899999988,-3493.0,39.625,592.5,2100.0,0.0,0.25,3.192138345,0.5515167311543303,0.05371093199999999,1.2100000381469727,-0.25999999046325684,72.12999725341797,0.0628662109375,0.16888427734375,1.0950927734375,27.6299991607666,0.0,159.0,0.0904083251953125,0.2595062255859375,Closing,0.0,0.0,-27264.0,0.0,0.0,0.0,0.0,0.0,
1.3956290000000153,0.0,0.0,3717.0,40.0,405.0,2100.0,0.0,0.625,4.1833491810000005,0.5533560492066917,0.0,-3519.0,55.25,457.5,2100.0,0.0,0.0,1.4721678180000002,4.397316058113637,0.0,0.0,0.0,0.0,2100.0,0.0,0.375,3.872069916,4.40175868900686,0.0,-3493.0,38.75,735.0,2100.0,0.0,0.25,3.2153317020000003,0.5515167311543303,0.0,1.2699999809265137,-0.33000001311302185,70.91000366210938,0.002685546875,0.20343017578125,0.83233642578125,27.6299991607666,0.0,177.0,0.09027099609375,0.2628326416015625,Closing,0.0,0.0,-27264.0,0.0,0.0,0.0,0.0,0.0,
1.4286179999999877,0.0,0.0,3717.0,42.375,517.5,2100.0,0.0,0.625,4.201659726,0.5533560492066917,0.024414059999999793,-3519.0,55.625,547.5,2100.0,0.0,0.0,1.4526365700000001,4.397316058113637,-0.035400386999999256,0.0,0.0,0.0,2100.0,0.0,0.375,3.875732025,4.40175868900686,-0.004882811999999959,-3493.0,38.625,855.0,2100.0,0.0,0.25,3.231200841,0.5515167311543303,0.026855466000000217,1.4299999475479126,-0.47999998927116394,69.43000030517578,-0.2711181640625,0.00244140625,1.142822265625,27.6299991607666,0.0,-116.0,0.0906524658203125,0.2664337158203125,Closing,0.0,0.0,-27264.0,0.0,0.0,0.0,0.0,0.0,
1.4543010000000067,0.0,0.0,3717.0,42.5,630.0,2100.0,0.0,0.375,4.200439023,0.5533560492066917,0.0,-3519.0,56.875,727.5,2100.0,0.0,0.0,1.4270018070000001,4.397316058113637,0.0,0.0,0.0,0.0,2100.0,0.0,0.125,3.874511322,4.40175868900686,0.0,-3325.0,39.625,997.5,2100.0,0.0,0.25,3.23486295,0.5515167311543303,0.0,1.4600000381469727,-0.5600000023841858,67.69000244140625,0.0831298828125,0.2421875,0.84075927734375,27.6299991607666,0.0,238.0,0.0909423828125,0.2711334228515625,Closing,0.0,0.0,-27264.0,0.0,0.0,0.0,0.0,0.0,
1.487597000000009,0.0,0.0,3859.0,41.25,862.5,2100.0,0.0,0.375,4.216308162,0.5533560492066917,0.008544921000000372,-3381.0,56.125,832.5,2100.0,0.0,0.0,1.4221189950000002,4.397316058113637,-0.019531247999999835,0.0,0.0,0.0,2100.0,0.0,0.125,3.875732025,4.40175868900686,-0.0012207030000004337,-3325.0,40.625,1035.0,2100.0,0.0,0.25,3.239745762,0.5515167311543303,0.004882811999999959,1.5700000524520874,-0.5299999713897705,66.69999694824219,-0.05120849609375,-0.15252685546875,1.03228759765625,27.6299991607666,0.0,-182.0,0.0911712646484375,0.2735748291015625,Closing,0.0,0.0,-27264.0,0.0,0.0,0.0,0.0,0.0,
1.5154370000000053,0.0,0.0,3859.0,40.875,975.0,2100.0,0.0,0.375,4.221190974000001,0.5533560492066917,0.0,-3381.0,55.0,945.0,2100.0,0.0,0.0,1.390380717,4.397316058113637,-0.014648436000000764,0.0,0.0,0.0,2100.0,0.0,0.125,3.864745698,4.40175868900686,-0.004882811999999959,-3325.0,41.875,1095.0,2100.0,0.0,0.25,3.239745762,0.5515167311543303,0.004882811999999959,1.590000033378601,-0.5699999928474426,63.279998779296875,0.1212158203125,-0.13018798828125,0.458251953125,27.6299991607666,0.0,-71.0,0.0919342041015625,0.28106689453125,Closing,0.0,0.0,-27264.0,0.0,0.0,0.0,0.0,0.0,
1.5464130000000005,0.0,0.0,3859.0,38.375,1192.5,2100.0,0.0,0.375,4.219970271,0.5533560492066917,0.004882811999999959,-3381.0,52.375,1162.5,2100.0,0.0,0.0,1.40380845,4.397316058113637,0.0,0.0,0.0,0.0,2100.0,0.0,0.0,3.8500972620000002,4.40175868900686,0.0,-3325.0,41.75,1155.0,2100.0,0.0,0.25,3.228759435,0.5515167311543303,0.0,1.5,-0.47999998927116394,61.939998626708984,-0.0357666015625,-0.25537109375,0.4033203125,27.6299991607666,0.0,-249.0,0.0920257568359375,0.2832794189453125,Closing,0.0,0.0,-27264.0,0.0,0.0,0.0,0.0,0.0,
1.574591000000015,0.0,0.0,3859.0,36.875,1290.0,2100.0,0.0,0.375,4.221190974000001,0.5533560492066917,0.0,-3381.0,49.625,1260.0,2100.0,0.0,0.0,1.365966657,4.397316058113637,-0.004882811999999959,0.0,0.0,0.0,2100.0,0.0,0.0,3.8305660140000004,4.40175868900686,-0.0183105449999994,-3106.0,42.625,1305.0,2100.0,0.0,0.25,3.244628574,0.5515167311543303,0.0,1.4900000095367432,-0.49000000953674316,57.349998474121094,0.00732421875,-0.078857421875,0.6810302734375,27.6299991607666,0.0,-74.0,0.091583251953125,0.2899932861328125,Closing,0.0,0.0,-27264.0,0.0,0.0,0.0,0.0,0.0,
1.6125100000000092,0.0,0.0,4091.0,35.125,1462.5,2100.0,0.0,0.25,4.221190974000001,0.5533560492066917,0.0,-3150.0,45.625,1455.0,2100.0,0.0,0.0,1.3732908750000001,4.397316058113637,-0.014648435999999876,0.0,0.0,0.0,2100.0,0.0,0.0,3.807372657,4.40175868900686,0.0,-3106.0,41.75,1387.5,2100.0,0.0,0.25,3.244628574,0.5515167311543303,0.0,1.4500000476837158,-0.5199999809265137,53.810001373291016,0.12530517578125,-0.0130615234375,1.4195556640625,27.6299991607666,0.0,42.0,0.0907440185546875,0.29437255859375,Closing,0.0,0.0,-27264.0,0.0,0.0,0.0,0.0,0.0,
1.6396749999999884,0.0,0.0,4091.0,34.625,1545.0,2100.0,0.0,0.25,4.224853083,0.5533560492066917,0.0,-3150.0,43.125,1552.5,2100.0,0.0,0.0,1.3696287660000002,4.397316058113637,0.0,0.0,0.0,0.0,2100.0,0.0,0.0,3.7866207060000003,4.40175868900686,0.0,-3106.0,39.125,1545.0,2100.0,0.0,0.25,3.244628574,0.5515167311543303,0.0,1.4500000476837158,-0.49000000953674316,49.900001525878906,0.23797607421875,-0.23828125,1.07293701171875,27.6299991607666,0.0,-43.0,0.090362548828125,0.29833984375,Closing,0.0,0.0,-27264.0,0.0,0.0,0.0,0.0,0.0,
1.6720910000000149,0.0,0.0,4091.0,33.25,1665.0,2100.0,0.0,0.25,4.224853083,0.5533560492066917,0.004882811999999959,-3150.0,37.875,1747.5,2100.0,0.0,0.0,1.359863142,4.397316058113637,-0.004882812000000847,0.0,0.0,0.0,2100.0,0.0,0.0,3.768310161,4.40175868900686,-0.023193357000000248,-3106.0,37.75,1627.5,2100.0,0.0,0.25,3.253173495,0.5515167311543303,-0.0012207029999999897,1.2899999618530273,-0.36000001430511475,45.630001068115234,-0.078857421875,0.0062255859375,1.10791015625,27.6299991607666,0.0,-63.0,0.0893402099609375,0.3017730712890625,Closing,0.0,0.0,-27264.0,0.0,0.0,0.0,0.0,0.0,
1.6991590000000143,0.0,0.0,4091.0,32.5,1717.5,2100.0,0.0,0.25,4.230956598000001,0.5533560492066917,0.0,-3150.0,36.125,1830.0,2100.0,0.0,0.0,1.359863142,4.397316058113637,0.0,0.0,0.0,7.5,2100.0,0.0,0.0,3.748778913,4.40175868900686,0.0,-2815.0,36.125,1710.0,2100.0,0.0,0.25,3.2604977130000004,0.5515167311543303,0.0,1.2200000286102295,-0.3400000035762787,41.0099983215332,0.01226806640625,-0.3623046875,1.062255859375,27.6299991607666,0.0,-238.0,0.087799072265625,0.3054656982421875,Closing,0.0,0.0,-27264.0,0.0,0.0,0.0,0.0,0.0,
1.729426999999996,0.0,0.0,4384.0,31.0,1777.5,2100.0,0.0,0.375,4.218749568,0.5533560492066917,0.004882811999999959,-2838.0,33.125,1905.0,2100.0,0.0,0.0,1.35498033,4.397316058113637,0.0012207029999995456,2.0,0.0,7.5,2100.0,0.0,0.0,3.7341304770000003,4.40175868900686,-0.01586913899999942,-2815.0,33.0,1845.0,2100.0,0.0,0.0,3.2641598220000003,0.5515167311543303,0.007324218000000382,1.1699999570846558,-0.23999999463558197,36.11000061035156,0.051025390625,0.1072998046875,0.82452392578125,27.6299991607666,0.0,97.0,0.085693359375,0.309326171875,Closing,0.0,0.0,-27264.0,0.0,0.0,0.0,0.0,0.0,
1.7559530000000085,0.0,0.0,4384.0,30.375,1897.5,2100.0,0.0,0.375,4.2431636280000005,0.5533560492066917,0.0,-2838.0,28.875,2032.5,2100.0,0.0,0.0,1.351318221,4.397316058113637,0.0,2.0,0.0,7.5,2100.0,0.0,0.0,3.720702744,4.40175868900686,0.0,-2815.0,31.5,1905.0,2100.0,0.0,0.0,3.2739254460000002,0.5515167311543303,0.0,0.8700000047683716,-0.3499999940395355,30.889999389648438,-0.2650146484375,-0.26763916015625,1.17218017578125,27.6299991607666,0.0,-367.0,0.08355712890625,0.313140869140625,Closing,0.0,0.0,-27264.0,0.0,0.0,0.0,0.0,0.0,
1.7891879999999947,0.0,0.0,4384.0,28.625,1950.0,2100.0,0.0,0.375,4.244384331,0.5533560492066917,0.01586913900000031,-2838.0,27.625,2085.0,2100.0,0.0,0.0,1.3488768150000001,4.397316058113637,0.0,2.0,0.0,0.0,2100.0,0.0,0.0,3.709716417,4.40175868900686,-0.014648435999999876,-2815.0,30.25,2002.5,2100.0,0.0,0.0,3.28369107,0.5515167311543303,0.0,0.800000011920929,-0.12999999523162842,28.209999084472656,-0.12799072265625,0.01904296875,0.831787109375,27.6299991607666,0.0,-107.0,0.0820465087890625,0.31494140625,Closing,0.0,0.0,-27264.0,0.0,0.0,0.0,0.0,0.0,
1.8163429999999934,0.0,0.0,4384.0,27.625,2010.0,2100.0,0.0,0.25,4.250487846,0.5533560492066917,-0.0012207030000004337,-2838.0,23.875,2197.5,2100.0,0.0,0.0,1.3488768150000001,4.397316058113637,0.0012207029999995456,2.0,0.0,0.0,2100.0,0.0,0.0,3.706054308,4.40175868900686,-0.009765623999999917,-2479.0,27.5,2047.5,2100.0,0.0,0.0,3.292235991,0.5515167311543303,0.008544920999999928,0.8600000143051147,-0.20999999344348907,22.639999389648438,-0.20330810546875,-0.13238525390625,1.01116943359375,27.6299991607666,0.0,-240.0,0.0788116455078125,0.3191375732421875,Closing,0.0,0.0,-27264.0,0.0,0.0,0.0,0.0,0.0,
1.8477280000000027,0.0,0.0,4720.0,25.75,2092.5,2100.0,0.0,0.25,4.26025347,0.5533560492066917,0.0,-2476.0,22.375,2242.5,2100.0,0.0,0.0,1.350097518,4.397316058113637,0.0,3.0,0.0,0.0,2100.0,0.0,0.0,3.699950793,4.40175868900686,0.0,-2479.0,26.0,2092.5,2100.0,0.0,0.0,3.3081051300000004,0.5515167311543303,0.0,0.7799999713897705,-0.25999999046325684,16.8799991607666,0.13275146484375,0.1744384765625,1.80255126953125,27.6299991607666,0.0,178.0,0.074310302734375,0.3227691650390625,Closing,0.0,0.0,-27264.0,0.0,0.0,0.0,0.0,0.0,
1.8760750000000117,0.0,0.0,4720.0,24.75,2130.0,2100.0,0.0,0.25,4.252929252,0.5533560492066917,0.003662109000000413,-2476.0,21.125,2287.5,2100.0,0.0,0.0,1.3452147060000001,4.397316058113637,0.0,3.0,0.0,7.5,2100.0,0.0,0.0,3.699950793,4.40175868900686,-0.004882811999999959,-2479.0,23.25,2167.5,2100.0,0.0,0.0,3.3190914570000003,0.5515167311543303,0.014648435999999876,0.4399999976158142,-0.09000000357627869,10.890000343322754,0.103515625,-0.28802490234375,-0.02447509765625,27.6299991607666,0.0,47.0,0.070098876953125,0.3260650634765625,Closing,0.0,0.0,-27264.0,0.0,0.0,0.0,0.0,0.0,
1.9069470000000146,0.0,0.0,4720.0,22.75,2197.5,2100.0,0.0,0.25,4.255370658,0.5533560492066917,0.0,-2476.0,17.75,2370.0,2100.0,0.0,0.0,1.3415525970000002,4.397316058113637,0.0,3.0,0.0,0.0,2100.0,0.0,0.0,3.703612902,4.40175868900686,0.0,-2479.0,21.625,2205.0,2100.0,0.0,0.0,3.331298487,0.5515167311543303,0.0,0.6200000047683716,-0.27000001072883606,4.679999828338623,-0.2520751953125,-0.19158935546875,1.5498046875,27.6299991607666,0.0,-260.0,0.065704345703125,0.3281707763671875,Closing,0.0,0.0,-27264.0,0.0,0.0,0.0,0.0,0.0,
1.9348679999999876,0.0,0.0,4720.0,21.625,2227.5,2100.0,0.0,0.25,4.254149955,0.5533560492066917,0.0,-2476.0,16.75,2400.0,2100.0,0.0,0.0,1.3452147060000001,4.397316058113637,0.0,3.0,0.0,0.0,2100.0,0.0,0.0,3.701171496,4.40175868900686,0.0,-2479.0,20.75,2242.5,2100.0,0.0,0.0,3.331298487,0.5515167311543303,0.009765623999999917,0.28999999165534973,-0.029999999329447746,-1.6699999570846558,0.016845703125,-0.009765625,0.662353515625,27.6299991607666,0.0,17.0,0.06060791015625,0.3294677734375,Closing,0.0,0.0,-27264.0,0.0,0.0,0.0,0.0,0.0,
1.968423999999999,0.0,0.0,5091.0,18.25,2295.0,1443.75,0.0,0.25,4.256591361,0.5533560492066917,0.0,-2081.0,13.25,2445.0,1443.75,0.0,0.0,1.3452147060000001,4.397316058113637,0.0,4.0,0.0,0.0,1443.75,0.0,0.0,3.699950793,4.40175868900686,0.0,-2111.0,17.875,2295.0,1443.75,0.0,0.0,3.345946923,0.5515167311543303,0.009765623999999917,0.3100000023841858,-0.20000000298023224,-8.180000305175781,-0.06610107421875,-0.06292724609375,1.64935302734375,27.6299991607666,0.0,-49.0,0.055694580078125,0.3304901123046875,Closing,0.0,0.0,-27264.0,0.0,0.0,0.0,0.0,0.0,
1.9934619999999996,0.0,0.0,5091.0,14.25,2317.5,393.75,0.0,0.25,4.256591361,0.5533560492066917,0.0,-2081.0,8.5,2460.0,393.75,0.0,0.0,1.335449082,4.397316058113637,0.0,4.0,0.0,7.5,393.75,0.0,0.0,3.702392199,4.40175868900686,0.0,-2111.0,13.5,2317.5,393.75,0.0,0.0,3.35693325,0.5515167311543303,0.0,-0.03999999910593033,0.20000000298023224,-14.819999694824219,0.0570068359375,-0.11260986328125,-0.140380859375,27.6299991607666,0.0,84.0,0.05084228515625,0.3311767578125,Closing,0.0,0.0,-27264.0,0.0,0.0,0.0,0.0,0.0,
2.0279310000000113,0.0,0.0,5091.0,8.0,2317.5,0.0,0.0,0.25,4.267577688,0.5533560492066917,0.0,-2081.0,0.625,2242.5,0.0,0.0,0.0,1.339111191,4.397316058113637,0.0,4.0,0.0,0.0,0.0,0.0,0.0,3.701171496,4.40175868900686,0.0,-2111.0,2.375,2250.0,0.0,0.0,0.0,3.3703609830000003,0.5515167311543303,0.0,0.20000000298023224,-0.11999999731779099,-21.479999542236328,0.0648193359375,0.0032958984375,1.99993896484375,27.6299991607666,0.0,65.0,0.04644775390625,0.33154296875,Closing,0.0,0.0,-27264.0,0.0,0.0,0.0,0.0,0.0,
2.0526540000000097,0.0,0.0,5091.0,0.375,2167.5,0.0,0.0,0.25,4.279784718,0.5533560492066917,0.007324217999999938,-2081.0,0.0,2047.5,0.0,0.0,0.0,1.340331894,4.397316058113637,-0.006103514999999504,4.0,0.0,0.0,0.0,0.0,0.0,3.701171496,4.40175868900686,0.0,-2111.0,0.5,2137.5,0.0,0.0,0.0,3.3752437950000003,0.5515167311543303,0.024414060000000237,-0.46000000834465027,0.36000001430511475,-27.93000030517578,0.29595947265625,-0.05828857421875,0.1595458984375,27.6299991607666,0.0,287.0,0.042572021484375,0.3316192626953125,Closing,0.0,0.0,-27264.0,0.0,0.0,0.0,0.0,0.0,
2.0850050000000047,0.0,0.0,5392.0,0.0,2017.5,0.0,0.0,0.25,4.274901906,0.5533560492066917,0.007324217999999938,-1773.0,0.0,1912.5,0.0,0.0,0.0,1.340331894,4.397316058113637,-0.006103514999999504,5.0,0.0,0.0,0.0,0.0,0.0,3.699950793,4.40175868900686,0.0,-1797.0,0.0,1897.5,0.0,0.0,0.0,3.38134731,0.5515167311543303,0.024414060000000237,-0.23000000417232513,0.25999999046325684,-34.0,-0.0810546875,-0.1351318359375,1.2060546875,27.6299991607666,0.0,0.0,0.038726806640625,0.332763671875,Closing,0.0,0.0,-27264.0,0.0,0.0,0.0,0.0,0.0,
2.114024999999994,0.0,0.0,5392.0,0.0,1740.0,0.0,0.0,0.25,4.289550342,0.5533560492066917,0.010986327000000351,-1773.0,0.0,1867.5,0.0,0.0,0.0,1.340331894,4.397316058113637,0.0012207029999995456,5.0,0.0,0.0,0.0,0.0,0.0,3.701171496,4.40175868900686,0.0,-1797.0,0.0,1837.5,0.0,0.0,0.0,3.3801266070000002,0.5515167311543303,0.004882811999999959,-0.5699999928474426,0.14000000059604645,-39.79999923706055,0.1441650390625,-0.0994873046875,0.85052490234375,27.6299991607666,0.0,167.0,0.034698486328125,0.3339691162109375,Closing,0.0,0.0,-27264.0,0.0,0.0,0.0,0.0,0.0,
2.143122000000003,0.0,0.0,5392.0,0.0,1680.0,0.0,0.0,0.125,4.2907710450000005,0.5533560492066917,0.010986327000000351,-1773.0,0.0,1897.5,0.0,0.0,0.0,1.3415525970000002,4.397316058113637,-0.0012207029999995456,5.0,0.0,7.5,0.0,0.0,0.0,3.699950793,4.40175868900686,0.0,-1797.0,0.0,1837.5,0.0,0.0,0.0,3.386230122,0.5515167311543303,0.003662108999999969,-0.6499999761581421,0.3799999952316284,-48.11000061035156,-0.0853271484375,-0.33428955078125,0.30419921875,27.6299991607666,0.0,187.0,0.029205322265625,0.3361053466796875,Closing,0.0,0.0,-27264.0,0.0,0.0,0.0,0.0,0.0,
2.1750650000000022,0.0,0.0,5392.0,0.0,1702.5,0.0,0.0,0.125,4.2724605,0.5533560492066917,0.012207029999999897,-1773.0,0.0,1875.0,0.0,0.0,0.0,1.3415525970000002,4.397316058113637,-0.0012207029999995456,5.0,0.0,0.0,0.0,0.0,0.0,3.6938472780000002,4.40175868900686,0.0,-1797.0,0.0,1845.0,0.0,0.0,0.0,3.385009419,0.5515167311543303,0.003662108999999969,-0.7900000214576721,0.30000001192092896,-50.779998779296875,0.09844970703125,-7.32421875E-4,0.5904541015625,27.6299991607666,0.0,54.0,0.027557373046875,0.3366851806640625,Closing,0.0,0.0,-27264.0,0.0,0.0,0.0,0.0,0.0,
2.2072039999999977,0.0,0.0,5664.0,0.0,1702.5,0.0,0.0,0.125,4.2883296390000005,0.5533560492066917,-0.0012207029999995456,-1492.0,0.0,1785.0,0.0,0.0,0.0,1.336669785,4.397316058113637,0.0012207029999995456,5.0,0.0,0.0,0.0,0.0,0.0,3.699950793,4.40175868900686,-0.004882811999999959,-1508.0,0.0,1762.5,0.0,0.0,0.0,3.385009419,0.5515167311543303,0.0024414059999999793,-0.5400000214576721,0.23999999463558197,-58.4900016784668,0.175048828125,-0.2103271484375,0.87664794921875,27.6299991607666,0.0,261.0,0.0232696533203125,0.339019775390625,Closing,0.0,0.0,-27264.0,0.0,0.0,0.0,0.0,0.0,
2.2350940000000117,0.0,0.0,5664.0,0.0,1635.0,0.0,0.0,0.125,4.2883296390000005,0.5533560492066917,-0.0012207029999995456,-1492.0,0.0,1635.0,0.0,0.0,0.0,1.340331894,4.397316058113637,0.0012207029999995456,5.0,0.0,0.0,0.0,0.0,0.0,3.6938472780000002,4.40175868900686,-0.004882811999999959,-1508.0,0.0,1710.0,0.0,0.0,0.0,3.382568013,0.5515167311543303,0.0024414059999999793,-0.8399999737739563,0.3700000047683716,-60.97999954223633,0.02337646484375,-0.290283203125,0.2689208984375,27.6299991607666,0.0,260.0,0.022308349609375,0.339813232421875,Closing,0.0,0.0,-27264.0,0.0,0.0,0.0,0.0,0.0,
2.2692429999999875,0.0,0.0,5664.0,0.0,1582.5,0.0,0.0,0.125,4.2956538570000005,0.5533560492066917,0.0,-1492.0,0.0,1597.5,0.0,0.0,0.0,1.340331894,4.397316058113637,0.0,5.0,0.0,0.0,0.0,0.0,0.0,3.701171496,4.40175868900686,0.004882811999999959,-1508.0,0.0,1665.0,0.0,0.0,0.0,3.385009419,0.5515167311543303,0.0024414059999999793,-0.6100000143051147,0.20000000298023224,-68.02999877929688,0.12371826171875,-0.14117431640625,1.4278564453125,27.6299991607666,0.0,161.0,0.0193328857421875,0.3421783447265625,Closing,0.0,0.0,-27264.0,0.0,0.0,0.0,0.0,0.0,
2.2946330000000015,0.0,0.0,5664.0,0.0,1537.5,757.6490803176956,0.0,0.125,4.294433154,0.33875399565406966,0.0,-1492.0,5.875,1537.5,-757.6490803176956,0.0,0.0,1.362304548,0.33773036351571123,0.0,5.0,0.0,0.0,757.6490803176956,0.0,0.0,3.6950679810000002,0.3380715742284974,0.0,-1280.0,6.875,1567.5,-757.6490803176956,0.0,0.0,3.391112934,0.3376280003018754,0.0,-0.949999988079071,0.3799999952316284,-72.4800033569336,-0.03228759765625,0.14837646484375,0.48016357421875,27.6299991607666,0.0,-159.0,0.01727294921875,0.3441314697265625,Closing,0.0,0.0,-27264.0,0.0,0.0,0.0,0.0,0.0,
2.3278630000000122,0.0,0.0,5887.0,1.875,1417.5,1887.6401282835268,0.0,0.125,4.294433154,0.4142370292501382,0.003662108999999525,-1259.0,17.625,1462.5,-1887.6401282835268,0.0,3.125,1.385497905,0.41298530575320985,0.0,5.0,0.0,0.0,1887.6401282835268,0.0,3.875,3.7329097740000003,0.41340254691885264,-0.004882811999999959,-1280.0,21.125,1447.5,-1887.6401282835268,0.0,0.0,3.383788716,0.412860133403517,0.004882811999999959,-0.8199999928474426,0.38999998569488525,-76.52999877929688,-0.03802490234375,0.46240234375,1.740234375,27.6299991607666,0.0,-485.0,0.013824462890625,0.3469085693359375,Closing,0.0,0.0,-27264.0,0.0,0.0,0.0,0.0,0.0,
2.3527639999999956,0.0,0.0,5887.0,2.0,1290.0,3563.8181771801997,0.0,0.0,4.294433154,0.6205000000000006,0.0,-1259.0,39.375,1267.5,-3563.8181771801997,0.0,4.0,1.5051267990000001,0.6186250000000005,0.0,5.0,11.0,0.0,3563.8181771801997,0.0,4.375,3.8916011640000003,0.6192500000000006,0.0,-1280.0,69.5,937.5,-3563.8181771801997,0.0,0.0,3.386230122,0.6184375000000005,0.0,-0.7799999713897705,1.0299999713897705,-79.58999633789062,-0.0721435546875,0.025390625,0.72418212890625,27.6299991607666,0.0,-50.0,0.0084075927734375,0.3511199951171875,Closing,0.0,0.0,-27264.0,0.0,0.0,0.0,0.0,0.0,
2.386636999999988,0.0,0.0,5887.0,6.25,1057.5,3563.8181771801997,0.0,0.0,4.294433154,0.6205000000000006,0.0012207029999995456,-1259.0,52.625,427.5,-3563.8181771801997,0.0,1.25,1.644286941,0.6186250000000005,0.19409177700000058,5.0,24.0,0.0,3563.8181771801997,0.0,1.0,4.051513257,0.6192500000000006,0.1452636570000001,-1280.0,83.125,615.0,-3563.8181771801997,0.0,0.0,3.385009419,0.6184375000000005,0.0,-0.8600000143051147,1.2999999523162842,-81.91999816894531,0.5635986328125,0.3336181640625,1.1785888671875,27.6299991607666,0.0,-272.0,0.002899169921875,0.35760498046875,Closing,0.0,0.0,-27264.0,0.0,0.0,0.0,0.0,0.0,
2.415489999999991,0.0,0.0,5887.0,10.25,1057.5,3563.8181771801997,0.0,0.125,4.298095263,0.6205000000000006,-0.0012207029999995456,-1259.0,43.5,-150.0,-3563.8181771801997,0.0,0.625,1.8103025490000002,0.6186250000000005,0.1452636570000001,5.0,37.125,7.5,3563.8181771801997,0.0,0.625,4.205321835,0.6192500000000006,0.1757812320000003,-1285.0,83.625,307.5,-3563.8181771801997,0.0,0.0,3.383788716,0.6184375000000005,-0.0012207029999999897,-0.4099999964237213,2.0999999046325684,-83.83999633789062,0.299072265625,0.39862060546875,0.69097900390625,27.6299991607666,0.0,-371.0,-0.0042266845703125,0.367950439453125,Closing,0.0,0.0,-27264.0,0.0,0.0,0.0,0.0,0.0,
2.446676999999996,0.0,0.0,6079.0,15.75,1147.5,3563.8181771801997,0.0,0.125,4.312743699,0.6205000000000006,0.010986326999999463,-1436.0,36.5,-1147.5,-3563.8181771801997,0.0,0.75,1.979980266,0.6186250000000005,0.0,7.0,46.875,7.5,3563.8181771801997,0.0,0.625,4.374999552,0.6192500000000006,0.0,-1285.0,81.125,-30.0,-3563.8181771801997,0.0,0.0,3.385009419,0.6184375000000005,0.0,0.0,2.309999942779541,-85.47000122070312,0.6148681640625,0.19256591796875,1.2083740234375,27.6299991607666,0.0,-147.0,-0.0132904052734375,0.380340576171875,Closing,0.0,0.0,-27264.0,0.0,0.0,0.0,0.0,0.0,
2.4746330000000016,0.0,0.0,6079.0,25.75,1357.5,3563.8181771801997,0.0,0.125,4.317626511,0.6205000000000006,0.008544921000000372,-1436.0,37.125,-1425.0,-3563.8181771801997,0.0,0.625,2.1142575960000003,0.6186250000000005,-4.800074234,7.0,46.375,7.5,3563.8181771801997,0.0,0.625,4.493407743000001,0.6192500000000006,-4.803853531,-1285.0,76.5,-97.5,-3563.8181771801997,0.0,0.0,3.385009419,0.6184375000000005,-0.0012207029999999897,0.46000000834465027,3.049999952316284,-86.7699966430664,0.40582275390625,0.23699951171875,0.35125732421875,27.6299991607666,0.0,-211.0,-0.0243988037109375,0.3955078125,Closing,0.0,0.0,-27264.0,0.0,0.0,0.0,0.0,0.0,
2.5064320000000007,0.0,0.0,6079.0,27.625,1402.5,3563.8181771801997,0.0,0.125,4.323730026000001,0.6205000000000006,0.0,-1436.0,38.0,-1567.5,-3563.8181771801997,0.0,0.125,2.248534926,0.6186250000000005,0.0,7.0,45.375,7.5,3563.8181771801997,0.0,0.125,4.609374528,0.6192500000000006,0.0,-1285.0,66.0,-292.5,-3563.8181771801997,0.0,0.0,3.389892231,0.6184375000000005,0.0,1.0800000429153442,3.119999885559082,-87.79000091552734,0.28662109375,0.38092041015625,1.75152587890625,27.6299991607666,0.0,-340.0,-0.0367889404296875,0.4127960205078125,Closing,0.0,0.0,-27264.0,0.0,0.0,0.0,0.0,0.0,
2.534097999999998,0.0,0.0,6079.0,31.25,1417.5,3563.8181771801997,0.0,0.125,4.328612838000001,0.6205000000000006,0.0,-1436.0,38.75,-1605.0,-3563.8181771801997,0.0,0.0,2.305907967,0.6186250000000005,0.13305662699999976,7.0,44.625,7.5,3563.8181771801997,0.0,0.0,4.665526866,0.6192500000000006,0.12207029999999985,-1285.0,63.375,-442.5,-3563.8181771801997,0.0,0.0,3.389892231,0.6184375000000005,0.0,1.399999976158142,3.9000000953674316,-88.52999877929688,0.46923828125,0.0853271484375,0.24444580078125,27.6299991607666,0.0,-67.0,-0.050628662109375,0.4317474365234375,Closing,0.0,0.0,-27264.0,0.0,0.0,0.0,0.0,0.0,
2.5680780000000087,0.0,0.0,6325.0,32.75,1470.0,3563.8181771801997,0.0,0.125,4.329833541,0.6205000000000006,0.0,-1700.0,38.125,-1612.5,-3563.8181771801997,0.0,0.25,2.358398196,0.6186250000000005,0.04882812000000003,8.0,42.125,0.0,3563.8181771801997,0.0,0.0,4.725341313,0.6192500000000006,0.0,-1406.0,54.625,-817.5,-3563.8181771801997,0.0,0.0,3.394775043,0.6184375000000005,0.0,1.8899999856948853,3.9000000953674316,-89.0999984741211,0.1820068359375,0.40985107421875,1.435302734375,27.6299991607666,0.0,-360.0,-0.066009521484375,0.4524078369140625,Closing,0.0,0.0,-27264.0,0.0,0.0,0.0,0.0,0.0,
2.593075000000012,0.0,0.0,6325.0,32.0,1642.5,3563.8181771801997,0.0,0.125,4.333495650000001,0.6205000000000006,0.0024414059999999793,-1700.0,35.875,-1650.0,-3563.8181771801997,0.0,0.25,2.397460692,0.6186250000000005,0.0,8.0,40.5,0.0,3563.8181771801997,0.0,0.0,4.743651858000001,0.6192500000000006,0.0,-1406.0,50.125,-1012.5,-3563.8181771801997,0.0,0.0,3.399657855,0.6184375000000005,0.0,2.4200000762939453,4.46999979019165,-89.4800033569336,0.2913818359375,0.228515625,1.27789306640625,27.6299991607666,0.0,-172.0,-0.0837554931640625,0.474365234375,Closing,0.0,0.0,-27264.0,0.0,0.0,0.0,0.0,0.0,
2.626543999999994,0.0,0.0,6325.0,30.75,1725.0,3563.8181771801997,0.0,0.125,4.333495650000001,0.6205000000000006,0.0012207029999995456,-1700.0,34.875,-1710.0,-3563.8181771801997,0.0,0.0,2.4316403760000003,0.6186250000000005,0.036621090000000134,8.0,39.75,0.0,3563.8181771801997,0.0,0.0,4.759520997,0.6192500000000006,0.019531247999999835,-1406.0,47.25,-1192.5,-3563.8181771801997,0.0,0.0,3.410644182,0.6184375000000005,0.004882811999999959,2.559999942779541,4.769999980926514,-89.76000213623047,0.376220703125,0.4232177734375,0.54656982421875,27.6299991607666,0.0,-396.0,-0.10296630859375,0.4971466064453125,Closing,0.0,0.0,-27264.0,0.0,0.0,0.0,0.0,0.0,
2.6515780000000087,0.0,0.0,6325.0,30.0,1807.5,3563.8181771801997,0.0,0.125,4.337157759,0.6205000000000006,0.0,-1700.0,32.0,-1912.5,-3563.8181771801997,0.0,0.0,2.454833733,0.6186250000000005,0.0,8.0,37.375,7.5,3563.8181771801997,0.0,0.0,4.77294873,0.6192500000000006,0.0,-1406.0,43.25,-1530.0,-3563.8181771801997,0.0,0.0,3.4155269940000004,0.6184375000000005,0.0,3.0,4.800000190734863,-90.02999877929688,0.1668701171875,0.2744140625,1.26513671875,27.6299991607666,0.0,-207.0,-0.1242218017578125,0.5210418701171875,Closing,0.0,0.0,-27264.0,0.0,0.0,0.0,0.0,0.0,
2.6855810000000058,0.0,0.0,6644.0,28.5,1972.5,3246.9456801739075,0.0,0.125,4.3408198680000005,0.5390608764201207,0.003662108999999525,-2024.0,31.5,-2032.5,-3246.9456801739075,0.0,0.0,2.464599357,0.5374319656331944,0.019531247999999835,10.0,35.5,7.5,3246.9456801739075,0.0,0.0,4.771728027,0.5379749358955032,0.009765623999999917,-1680.0,41.875,-1665.0,-3246.9456801739075,0.0,0.0,3.4277340240000003,0.5372690745545018,0.009765624000000361,3.4100000858306885,5.199999809265137,-90.2699966430664,0.34100341796875,0.2255859375,1.13739013671875,27.6299991607666,0.0,-158.0,-0.1464691162109375,0.5457916259765625,Closing,0.0,0.0,-27264.0,0.0,0.0,0.0,0.0,0.0,
2.713866000000009,0.0,0.0,6644.0,27.875,2062.5,2563.9142438857034,0.0,0.125,4.351806195,0.14643324664120597,0.0,-2024.0,30.5,-2145.0,-2563.9142438857034,0.0,0.0,2.4743649810000004,0.14599076100469946,0.014648435999999876,10.0,33.25,7.5,2563.9142438857034,0.0,0.125,4.777831542,0.1461382562168683,0.0,-1680.0,39.125,-1912.5,-2563.9142438857034,0.0,0.0,3.433837539,0.14594651244104884,0.0,3.4000000953674316,5.5,-90.51000213623047,0.2100830078125,0.43524169921875,0.2052001953125,27.6299991607666,0.0,-423.0,-0.169921875,0.571502685546875,Closing,0.0,0.0,-27264.0,0.0,0.0,0.0,0.0,0.0,
2.743573000000004,0.0,0.0,6644.0,26.75,2152.5,2520.0,0.0,0.375,4.3481440860000005,-0.0,0.003662108999999525,-2024.0,27.75,-2370.0,-2520.0,0.0,0.0,2.4755856840000003,-0.0,0.0,10.0,32.25,7.5,2520.0,0.0,0.125,4.742431155,0.0,0.004882811999999959,-1680.0,36.5,-2025.0,-2520.0,0.0,0.0,3.438720351,0.0,0.0,4.050000190734863,5.449999809265137,-90.81999969482422,0.0501708984375,0.2159423828125,1.99993896484375,27.600000381469727,0.0,-71.0,-0.1953277587890625,0.5980987548828125,Closing,0.0,0.0,-27264.0,0.0,0.0,0.0,0.0,0.0,
2.772804999999993,0.0,0.0,6644.0,25.125,2340.0,2520.0,0.0,0.375,4.3383784620000005,-0.0,-0.008544920999999484,-2024.0,27.625,-2445.0,-2520.0,0.0,0.5,2.469482169,-0.0,0.0,10.0,30.625,7.5,2520.0,0.0,0.375,4.671630381,0.0,-0.03662108999999969,-1680.0,35.375,-2115.0,-2520.0,0.0,0.75,3.4289547270000003,0.0,0.004882811999999959,3.9200000762939453,5.989999771118164,-91.12999725341797,0.300048828125,0.1185302734375,-0.1588134765625,27.600000381469727,0.0,-135.0,-0.221527099609375,0.624725341796875,Closing,0.0,0.0,-27264.0,0.0,0.0,0.0,0.0,0.0,
2.7972969999999915,0.0,0.0,7050.0,22.75,2512.5,2535.2653144326864,0.0,0.25,4.2382808160000005,4.877258639990174,0.0,-2451.0,24.5,-2610.0,-2535.2653144326864,0.0,1.5,2.4353024850000002,4.862520751271428,0.0,12.0,28.875,7.5,2535.2653144326864,0.0,0.0,4.515380397,4.867433380844343,0.0,-2047.0,33.125,-2287.5,-2535.2653144326864,0.0,1.5,3.33251919,4.861046962399553,0.0,4.199999809265137,5.880000114440918,-91.55000305175781,0.1231689453125,0.51531982421875,1.73431396484375,27.600000381469727,0.0,-384.0,-0.2487945556640625,0.6524658203125,Closing,0.0,0.0,-27264.0,0.0,0.0,0.0,0.0,0.0,
2.8339770000000133,0.0,0.0,7050.0,21.0,2595.0,2795.6131649724775,0.0,0.375,4.139403873,4.610236800937691,-0.1171874879999999,-2451.0,24.0,-2655.0,-2795.6131649724775,0.0,1.125,2.338866948,4.5963057872362265,-0.0354003869999997,12.0,29.25,7.5,2795.6131649724775,0.0,0.0,4.436034702000001,4.6009494584700485,-0.16479490499999994,-2047.0,33.75,-2340.0,-2795.6131649724775,0.0,0.75,3.238525059,4.59491268586608,-0.10131834900000003,4.059999942779541,6.139999866485596,-92.0999984741211,0.1397705078125,-0.0523681640625,1.46807861328125,27.600000381469727,0.0,157.0,-0.2763519287109375,0.68060302734375,Closing,0.0,0.0,-27264.0,0.0,0.0,0.0,0.0,0.0,
2.8658850000000093,0.0,0.0,7050.0,19.75,2670.0,3439.8597028159684,0.0,0.375,4.031982009,4.372509033289783,0.0,-2451.0,24.625,-2685.0,-3439.8597028159684,0.0,1.125,2.229003678,4.359296375050591,0.0,12.0,27.375,7.5,3439.8597028159684,0.0,0.125,4.306640184,4.363700594463655,0.0,-2047.0,33.75,-2407.5,-3439.8597028159684,0.0,1.875,3.084716481,4.357975109226672,0.0,3.450000047683716,6.630000114440918,-92.83999633789062,0.2706298828125,-0.554443359375,0.22845458984375,27.600000381469727,0.0,554.0,-0.3031463623046875,0.70989990234375,Closing,0.0,0.0,-27264.0,0.0,0.0,0.0,0.0,0.0,
2.8930109999999987,0.0,0.0,7050.0,18.25,2835.0,3563.8181771801997,0.0,1.5,3.872069916,4.3435,-0.12695311200000026,-2451.0,23.625,-2752.5,-3563.8181771801997,0.0,2.0,2.0703122880000002,4.330374999999999,0.0,12.0,26.125,15.0,3563.8181771801997,0.0,0.375,4.097899971,4.33475,0.0,-2047.0,34.0,-2415.0,-3563.8181771801997,0.0,2.25,2.937011418,4.329062499999999,0.0,3.180000066757202,6.840000152587891,-93.68000030517578,0.21588134765625,-0.0091552734375,1.6839599609375,27.600000381469727,0.0,102.0,-0.327850341796875,0.74017333984375,Closing,0.0,0.0,-27264.0,0.0,0.0,0.0,0.0,0.0,
2.9256449999999896,0.0,0.0,7526.0,17.625,2925.0,3387.680475473779,0.0,1.75,3.715819932,4.301274463633539,-0.15136717200000005,-2861.0,23.875,-2730.0,-3387.680475473779,0.0,2.375,1.9152830070000002,4.288277058928763,-0.156249984,27.0,25.75,60.0,3387.680475473779,0.0,0.0,3.913573818,4.292609527163688,4.7660117379999996,-2431.0,33.5,-2400.0,-3387.680475473779,0.0,2.25,2.7966305730000003,4.286977318458286,-0.14648435999999965,3.0,6.760000228881836,-94.1500015258789,0.28643798828125,-0.59228515625,1.9412841796875,27.600000381469727,0.0,687.0,-0.3394622802734375,0.75543212890625,Closing,0.0,0.0,-27264.0,0.0,0.0,0.0,0.0,0.0,
2.951548999999999,0.0,0.0,7526.0,18.125,3045.0,3003.4247541608643,0.0,0.625,3.542480106,4.1774940207112925,0.0,-2861.0,26.875,-2467.5,-3003.4247541608643,0.0,2.125,1.74560529,4.164870650382793,0.0,27.0,24.375,97.5,3003.4247541608643,0.0,0.0,3.768310161,4.169078440492292,0.0,-2431.0,32.875,-2385.0,-3003.4247541608643,0.0,2.25,2.670898164,4.163608313349942,0.0,1.2699999809265137,7.230000019073486,-95.05999755859375,0.42926025390625,-0.39520263671875,0.26544189453125,27.600000381469727,0.0,364.0,-0.359649658203125,0.7867431640625,Closing,0.0,0.0,-27264.0,0.0,0.0,0.0,0.0,0.0,
2.982454999999987,0.0,0.0,7526.0,19.25,3067.5,2910.822008578504,0.0,0.375,3.4265133210000003,4.137125566900777,-0.14282225100000012,-2861.0,29.0,-2160.0,-2910.822008578504,0.0,1.75,1.6101072570000001,4.124624180215943,-0.16601560800000037,27.0,22.125,135.0,2910.822008578504,0.0,0.0,3.653564079,4.128791309110888,-0.12817381500000025,-2431.0,32.875,-2370.0,-2910.822008578504,0.0,2.25,2.554931379,4.123374041547461,-0.11718748800000078,0.6499999761581421,6.980000019073486,-95.93000030517578,0.05517578125,-0.673095703125,1.27783203125,27.600000381469727,0.0,694.0,-0.3764495849609375,0.819091796875,Closing,0.0,0.0,-27264.0,0.0,0.0,0.0,0.0,0.0,
3.0109720000000086,0.0,0.0,7526.0,19.375,3045.0,2774.8202538914566,0.0,0.25,3.292235991,4.064230161465211,0.0,-2861.0,33.75,-1560.0,-2774.8202538914566,0.0,0.875,1.4782713330000001,4.051949046956351,0.0,27.0,17.875,195.0,2774.8202538914566,0.0,0.0,3.55224573,4.056042751792638,0.0,-2431.0,34.0,-2347.5,-2774.8202538914566,0.0,1.875,2.460937248,4.050720935505465,0.0,-0.5400000214576721,6.880000114440918,-96.79000091552734,-0.3983154296875,-0.71441650390625,0.9232177734375,27.600000381469727,0.0,760.0,-0.389190673828125,0.8515777587890625,Closing,0.0,0.0,-27264.0,0.0,0.0,0.0,0.0,0.0,
3.0448869999999877,0.0,0.0,8000.0,19.125,3000.0,2750.6192484602443,0.0,0.125,3.199462563,4.048822864041612,-0.11108397300000039,-3086.0,35.625,-1387.5,-2750.6192484602443,0.0,1.0,1.406249856,4.036588306636167,0.0,65.0,17.25,217.5,2750.6192484602443,0.0,0.0,3.459472302,4.040666492437982,0.0,-2806.0,33.75,-2347.5,-2750.6192484602443,0.0,1.5,2.362060305,4.035364850895623,0.0,-2.049999952316284,6.110000133514404,-97.91999816894531,-0.16387939453125,-0.99627685546875,1.47216796875,27.600000381469727,0.0,978.0,-0.4009857177734375,0.8977203369140625,Closing,0.0,0.0,-27264.0,0.0,0.0,0.0,0.0,0.0,
3.0745840000000024,0.0,0.0,8000.0,19.25,2947.5,2735.0749104229303,0.0,0.0,3.1115719470000003,4.038402427795197,-0.10864256699999952,-3086.0,37.375,-1312.5,-2735.0749104229303,0.0,1.125,1.334228379,4.026199358412253,-0.08911131899999969,65.0,14.5,240.0,2735.0749104229303,0.0,0.0,3.399657855,4.030267048206568,-0.0927734280000001,-2806.0,34.0,-2355.0,-2735.0749104229303,0.0,1.5,2.302245858,4.024979051473959,-0.10375975500000045,-3.0899999141693115,5.900000095367432,-98.61000061035156,-0.6346435546875,-0.6336669921875,0.251953125,27.600000381469727,0.0,711.0,-0.40350341796875,0.9272613525390625,Closing,0.0,0.0,-27264.0,0.0,0.0,0.0,0.0,0.0,
3.1049090000000144,0.0,0.0,8000.0,21.25,2820.0,2727.4826885621565,0.0,0.125,3.0505367970000004,4.03314812629702,0.0,-3086.0,38.0,-1297.5,-2727.4826885621565,0.0,1.5,1.271972526,4.020960934134558,0.0,65.0,15.125,255.0,2727.4826885621565,0.0,0.0,3.341064111,4.025023331522045,0.0,-2806.0,33.125,-2370.0,-2727.4826885621565,0.0,1.125,2.235107193,4.019742214918312,0.0,-3.759999990463257,4.920000076293945,-99.19999694824219,-0.33514404296875,-0.71124267578125,1.6300048828125,27.600000381469727,0.0,671.0,-0.4024505615234375,0.95428466796875,Closing,0.0,0.0,-27264.0,0.0,0.0,0.0,0.0,0.0,
3.134937000000005,0.0,0.0,8000.0,22.875,2745.0,2727.4826885621565,0.0,0.0,3.01513641,4.03314812629702,-0.0646972589999999,-3086.0,37.5,-1215.0,-2727.4826885621565,0.0,1.375,1.231689327,4.020960934134558,-0.06591796200000033,65.0,17.625,277.5,2727.4826885621565,0.0,0.0,3.3142086450000003,4.025023331522045,-0.059814447000000825,-2806.0,31.25,-2407.5,-2727.4826885621565,0.0,0.75,2.20947243,4.019742214918312,-0.07568358600000025,-4.599999904632568,4.480000019073486,-99.66999816894531,-0.1171875,-0.53363037109375,0.462890625,27.600000381469727,0.0,513.0,-0.3980560302734375,0.9798583984375,Closing,0.0,0.0,-27264.0,0.0,0.0,0.0,0.0,0.0,
3.1671380000000062,0.0,0.0,8419.0,25.5,2625.0,2712.663175535483,0.0,0.0,3.0017086770000003,4.022552462813939,0.0,-3264.0,35.625,-1012.5,-2712.663175535483,0.0,0.75,1.179199098,4.010397288168046,0.0,110.0,17.875,285.0,2712.663175535483,0.0,0.0,3.291015288,4.014449013050011,0.0,-3199.0,31.5,-2437.5,-2712.663175535483,0.0,0.375,2.1643064190000003,4.009181770703457,0.0,-5.110000133514404,3.8399999141693115,-99.97000122070312,-0.1461181640625,-0.50830078125,1.26422119140625,27.600000381469727,0.0,427.0,-0.391021728515625,1.00384521484375,Closing,0.0,0.0,-27264.0,0.0,0.0,0.0,0.0,0.0,
3.1952479999999923,0.0,0.0,8419.0,26.375,2580.0,2617.7712968286587,0.0,0.0,2.9956051620000004,3.9396046616200944,0.0,-3264.0,34.5,-945.0,-2617.7712968286587,0.0,0.375,1.151122929,3.9277001350438847,0.0,110.0,19.0,277.5,2617.7712968286587,0.0,0.0,3.2714840400000003,3.9316683105692882,0.0,-3199.0,31.0,-2497.5,-2617.7712968286587,0.0,0.0,2.142333765,3.926509682386264,0.0,-5.760000228881836,3.5,-100.11000061035156,-0.29608154296875,-0.140869140625,0.48980712890625,27.600000381469727,0.0,146.0,-0.3819427490234375,1.0265045166015625,Closing,0.0,0.0,-27264.0,0.0,0.0,0.0,0.0,0.0,
3.2279880000000123,0.0,0.0,8419.0,26.0,2542.5,2560.359185769889,0.0,0.0,2.97851532,3.863462305912127,-0.004882811999999959,-3264.0,31.0,-877.5,-2560.359185769889,0.0,0.125,1.118163948,3.851787863005462,-0.02929687200000064,110.0,20.875,270.0,2560.359185769889,0.0,0.0,3.2568356040000004,3.85567934397435,-0.019531247999999835,-3199.0,30.625,-2527.5,-2560.359185769889,0.0,0.0,2.1166990020000003,3.8506204187147954,-0.023193357000000248,-6.179999828338623,3.0199999809265137,-100.04000091552734,-0.37603759765625,-0.72247314453125,1.404052734375,27.600000381469727,0.0,636.0,-0.3703765869140625,1.0476226806640625,Closing,0.0,0.0,-27264.0,0.0,0.0,0.0,0.0,0.0,
3.2527080000000135,0.0,0.0,8419.0,25.125,2550.0,2580.5194938736404,0.0,0.0,2.971191102,3.5515595020807282,0.0,-3264.0,29.25,-870.0,-2580.5194938736404,0.0,0.125,1.075439343,3.540827553545028,0.0,110.0,22.625,277.5,2580.5194938736404,0.0,0.0,3.237304356,3.544404869723595,0.0,-3199.0,29.875,-2550.0,-2580.5194938736404,0.0,0.375,2.0678708820000002,3.5397543586914586,0.0,-6.070000171661377,2.690000057220459,-99.9000015258789,-0.24566650390625,-0.2083740234375,1.99993896484375,27.59000015258789,0.0,53.0,-0.3636474609375,1.0574951171875,Closing,0.0,0.0,-27264.0,0.0,0.0,0.0,0.0,0.0,
3.286016000000003,0.0,0.0,8835.0,24.75,2565.0,2778.661313252173,0.0,0.375,2.933349309,3.3794081645852296,-0.014648435999999876,-3415.0,28.0,-892.5,-2778.661313252173,0.0,1.625,1.00097646,3.369196415498046,-0.043945308000000516,159.0,24.5,300.0,2778.661313252173,0.0,0.125,3.178710612,3.3726003318604403,-0.01831054500000029,-3617.0,27.75,-2610.0,-2778.661313252173,0.0,2.25,1.964111127,3.3681752405893275,-0.05371093200000043,-6.690000057220459,2.5,-99.69000244140625,-0.617431640625,0.32965087890625,-0.0181884765625,27.59000015258789,0.0,-217.0,-0.3492431640625,1.07568359375,Closing,0.0,0.0,-27264.0,0.0,0.0,0.0,0.0,0.0,
3.3141630000000006,0.0,0.0,8835.0,28.25,2572.5,3381.679991467041,0.0,1.75,2.860107129,3.0926659009763506,0.0,-3415.0,35.25,-1207.5,-3381.679991467041,0.0,2.25,0.8959960020000001,3.083320617230451,0.0,159.0,23.125,300.0,3381.679991467041,0.0,0.125,3.092040699,3.0864357118124173,0.0,-3617.0,27.125,-2625.0,-3381.679991467041,0.0,2.25,1.8383787180000002,3.082386088855861,0.0,-5.300000190734863,0.11999999731779099,-100.69000244140625,-2.0,1.094970703125,1.70635986328125,27.59000015258789,0.0,-856.0,-0.33734130859375,1.08636474609375,Closing,0.0,0.0,-27264.0,0.0,0.0,0.0,0.0,0.0,
3.3443859999999987,0.0,0.0,8835.0,35.75,2460.0,3359.9544241239214,0.0,4.625,2.729491908,3.052980526704727,-0.0695800710000003,-3415.0,38.375,-1455.0,-3359.9544241239214,0.0,2.0,0.786132732,3.043755162502355,-0.09521483400000008,159.0,18.0,292.5,3359.9544241239214,0.0,0.625,2.9443356360000004,3.046830283903146,0.0,-3617.0,19.5,-2700.0,-3359.9544241239214,0.0,1.125,1.651611159,3.0428326260821184,0.0,-3.880000114440918,-2.4100000858306885,-104.94999694824219,-0.2498779296875,-0.2860107421875,1.34234619140625,27.59000015258789,0.0,237.0,-0.3286590576171875,1.0877838134765625,Closing,0.0,0.0,-27264.0,0.0,0.0,0.0,0.0,0.0,
