Time,ClimberA1,ClimberA2,FRpos,FRCurrent,FRspeed,FRsetpoint,FRApos,FRACurrent,FREncpos,FREncSetpoint,FREncSpeed,FLpos,FLCurrent,FLspeed,FLsetpoint,FLApos,FLACurrent,FLEncpos,FLEncSetpoint,FLEncSpeed,BRpos,BRCurrent,BRspeed,BRsetpoint,BRApos,BRACurrent,BREncpos,BREncSetpoint,BREncSpeed,BLpos,BLCurrent,BLspeed,BLsetpoint,BLApos,BLACurrent,BLEncpos,BLEncSetpoint,BLEncSpeed,navx_Pitch,navx_Roll,navx_Yaw,navx_XAcc,navx_YAcc,navx_ZAcc,navx_Temp,navx_Bar,navx_Alt,navx_XDis,navx_YDis,GearPlacerState,ShootOutputV,ShootOutputCurrent,ShootEncPos,ShootEncVelocity,ShootSpeed,ShootSetpoint,CarouselSetpoint,CarouselCurrent,
0.12230299999999988,0.0,0.0,2719.0,0.0,0.0,0.0,0.0,0.125,3.865966401,0.0,0.0,-2735.0,0.0,0.0,-0.0,0.0,0.0,1.854247857,0.0,0.0,2663.0,0.0,0.0,0.0,0.0,0.0,4.942626447,0.0,0.0,-2744.0,0.0,0.0,-0.0,0.0,0.0,2.877196971,0.0,0.0,1.3300000429153442,1.2899999618530273,0.07999999821186066,0.02001953125,0.02325439453125,1.01141357421875,31.889999389648438,0.0,-2.0,0.02099609375,0.093597412109375,Waiting,0.0,0.0,33228.0,0.0,0.0,0.0,0.0,0.0,
0.1621850000000013,0.0,0.0,2719.0,0.0,0.0,0.0,0.0,0.125,3.856200777,0.0,-0.0012207029999999897,-2735.0,0.0,0.0,-0.0,0.0,0.0,1.853027154,0.0,0.0,2663.0,0.0,0.0,0.0,0.0,0.0,4.941405744,0.0,0.0,-2744.0,0.0,0.0,-0.0,0.0,0.0,2.872314159,0.0,0.0,1.3300000429153442,1.2899999618530273,0.07999999821186066,0.02362060546875,0.02239990234375,1.00103759765625,31.90999984741211,0.0,1.0,0.02099609375,0.093597412109375,Closing,0.0,0.0,33228.0,0.0,0.0,0.0,0.0,0.0,
0.19166600000000109,0.0,0.0,2719.0,0.0,0.0,0.0,0.0,0.0,3.85742148,0.0,-0.0012207029999999897,-2735.0,0.0,0.0,-0.0,0.0,0.0,1.853027154,0.0,0.0,2663.0,0.0,0.0,0.0,0.0,0.0,4.942626447,0.0,0.0,-2744.0,0.0,0.0,-0.0,0.0,0.0,2.878417674,0.0,0.0,1.3300000429153442,1.2799999713897705,0.07999999821186066,0.01727294921875,0.0233154296875,1.00396728515625,31.90999984741211,0.0,-5.0,0.02099609375,0.093597412109375,Closing,0.0,0.0,33228.0,0.0,0.0,0.0,0.0,0.0,
0.22979799999999886,0.0,0.0,2719.0,0.0,0.0,0.0,0.0,0.0,3.858642183,0.0,0.0,-2735.0,0.0,0.0,-0.0,0.0,0.0,1.853027154,0.0,0.0,2663.0,0.0,0.0,0.0,0.0,0.0,4.942626447,0.0,0.0,-2744.0,0.0,0.0,-0.0,0.0,0.0,2.877196971,0.0,0.0,1.340000033378601,1.2699999809265137,0.05999999865889549,0.0147705078125,0.0198974609375,1.00042724609375,31.90999984741211,0.0,-7.0,0.02099609375,0.093597412109375,Closing,0.0,0.0,33228.0,0.0,0.0,0.0,0.0,0.0,
0.2546529999999984,0.0,0.0,2719.0,0.0,0.0,0.0,0.0,0.0,3.858642183,0.0,0.0,-2735.0,0.0,0.0,-0.0,0.0,0.0,1.854247857,0.0,0.0,2663.0,0.0,0.0,0.0,0.0,0.0,4.942626447,0.0,0.0,-2744.0,0.0,0.0,-0.0,0.0,0.0,2.877196971,0.0,0.0,1.3300000429153442,1.2599999904632568,0.019999999552965164,0.0145263671875,0.016845703125,1.0208740234375,31.90999984741211,0.0,-8.0,0.02099609375,0.093597412109375,Closing,0.0,0.0,33228.0,0.0,0.0,0.0,0.0,0.0,
0.28802999999999884,0.0,0.0,2719.0,0.0,0.0,0.0,0.0,0.0,3.85742148,0.0,0.0,-2735.0,0.0,0.0,-0.0,0.0,0.0,1.853027154,0.0,0.0,2663.0,0.0,0.0,0.0,0.0,0.0,4.941405744,0.0,0.0,-2744.0,0.0,0.0,-0.0,0.0,0.0,2.877196971,0.0,0.0,1.309999942779541,1.2699999809265137,-0.009999999776482582,0.034423828125,0.01715087890625,0.99395751953125,31.90999984741211,0.0,12.0,0.02099609375,0.093597412109375,Closing,0.0,0.0,33228.0,0.0,0.0,0.0,0.0,0.0,
0.3148070000000007,0.0,0.0,2719.0,0.0,0.0,0.0,0.0,0.0,3.858642183,0.0,0.0,-2735.0,0.0,0.0,-0.0,0.0,0.0,1.854247857,0.0,0.0,2663.0,0.0,0.0,0.0,0.0,0.0,4.941405744,0.0,0.0,-2744.0,0.0,0.0,-0.0,0.0,0.0,2.878417674,0.0,0.0,1.309999942779541,1.2799999713897705,-0.029999999329447746,0.04046630859375,0.02313232421875,1.0218505859375,31.90999984741211,0.0,17.0,0.02099609375,0.093597412109375,Closing,0.0,0.0,33228.0,0.0,0.0,0.0,0.0,0.0,
0.34728299999999945,0.0,0.0,2719.0,0.0,0.0,0.0,0.0,0.0,3.858642183,0.0,0.0,-2735.0,0.0,0.0,-0.0,0.0,0.0,1.85546856,0.0,0.0,2663.0,0.0,0.0,0.0,0.0,0.0,4.940185041,0.0,0.0,-2744.0,0.0,0.0,-0.0,0.0,0.0,2.877196971,0.0,-0.0012207029999999897,1.309999942779541,1.3300000429153442,-0.009999999776482582,0.04315185546875,0.030029296875,0.99395751953125,31.90999984741211,0.0,19.0,0.02117919921875,0.093597412109375,Closing,0.0,0.0,33228.0,0.0,0.0,0.0,0.0,0.0,
0.37499599999999916,0.0,0.0,2719.0,0.0,0.0,0.0,0.0,0.0,3.858642183,0.0,0.0,-2735.0,0.0,0.0,-0.0,0.0,0.0,1.853027154,0.0,0.0,2663.0,0.0,0.0,0.0,0.0,0.0,4.942626447,0.0,-0.0012207029999995456,-2744.0,0.0,0.0,-0.0,0.0,0.0,2.877196971,0.0,-0.0012207029999999897,1.309999942779541,1.3300000429153442,-0.009999999776482582,0.04315185546875,0.030029296875,0.99395751953125,31.90999984741211,0.0,19.0,0.02117919921875,0.093597412109375,Closing,0.0,0.0,33228.0,0.0,0.0,0.0,0.0,0.0,
0.4050519999999997,0.0,0.0,2719.0,0.0,0.0,0.0,0.0,0.0,3.85742148,0.0,0.0,-2735.0,0.0,0.0,-0.0,0.0,0.0,1.853027154,0.0,0.0,2663.0,0.0,0.0,0.0,0.0,0.0,4.941405744,0.0,0.0012207029999995456,-2744.0,0.0,0.0,-0.0,0.0,0.0,2.878417674,0.0,0.0012207029999999897,1.340000033378601,1.340000033378601,0.019999999552965164,0.02734375,0.04376220703125,0.9974365234375,31.90999984741211,0.0,3.0,0.02117919921875,0.0936126708984375,Closing,0.0,0.0,33228.0,0.0,0.0,0.0,0.0,0.0,
0.4335479999999989,0.0,0.0,2719.0,0.0,0.0,0.0,0.0,0.0,3.858642183,0.0,0.0,-2735.0,0.0,0.0,-0.0,0.0,0.0,1.854247857,0.0,0.0,2663.0,0.0,0.0,0.0,0.0,0.0,4.940185041,0.0,0.0012207029999995456,-2744.0,0.0,0.0,-0.0,0.0,0.0,2.877196971,0.0,0.0012207029999999897,1.3600000143051147,1.3300000429153442,0.029999999329447746,0.0076904296875,0.03570556640625,1.02740478515625,31.90999984741211,0.0,-16.0,0.02117919921875,0.093658447265625,Closing,0.0,0.0,33228.0,0.0,0.0,0.0,0.0,0.0,
0.46211599999999814,0.0,0.0,2719.0,0.0,0.0,0.0,0.0,0.125,3.85742148,0.0,0.0,-2735.0,0.0,0.0,-0.0,0.0,0.0,1.854247857,0.0,0.0,2663.0,0.0,0.0,0.0,0.0,0.0,4.941405744,0.0,0.0,-2744.0,0.0,0.0,-0.0,0.0,0.0,2.877196971,0.0,0.0,1.3799999952316284,1.2799999713897705,0.07999999821186066,0.00225830078125,0.02978515625,1.00701904296875,31.90999984741211,0.0,-20.0,0.021087646484375,0.093719482421875,Closing,0.0,0.0,33228.0,0.0,0.0,0.0,0.0,0.0,
0.492875,0.0,0.0,2719.0,0.0,0.0,0.0,0.0,0.125,3.85742148,0.0,0.0,-2735.0,0.0,0.0,-0.0,0.0,0.0,1.854247857,0.0,0.0,2663.0,0.0,0.0,0.0,0.0,0.0,4.942626447,0.0,0.0,-2744.0,0.0,0.0,-0.0,0.0,0.0,2.877196971,0.0,0.0,1.3799999952316284,1.2799999713897705,0.07999999821186066,0.0135498046875,0.031982421875,1.01739501953125,31.90999984741211,0.0,-9.0,0.0210113525390625,0.093719482421875,Closing,0.0,0.0,33228.0,0.0,0.0,0.0,0.0,0.0,
0.5234589999999989,0.0,0.0,2719.0,0.0,0.0,0.0,0.0,0.0,3.853759371,0.0,0.0,-2735.0,0.0,0.0,-0.0,0.0,0.0,1.854247857,0.0,0.0,2663.0,0.0,0.0,0.0,0.0,0.0,4.941405744,0.0,0.0,-2744.0,0.0,0.0,-0.0,0.0,0.0,2.877196971,0.0,0.0,1.3799999952316284,1.2799999713897705,0.09000000357627869,0.02142333984375,0.02655029296875,0.99932861328125,31.90999984741211,0.0,0.0,0.0210113525390625,0.093719482421875,Closing,0.0,0.0,33228.0,0.0,0.0,0.0,0.0,0.0,
0.551423999999999,0.0,0.0,2719.0,0.0,0.0,0.0,0.0,0.0,3.858642183,0.0,0.0,-2735.0,0.0,0.0,-0.0,0.0,0.0,1.854247857,0.0,0.0,2663.0,0.0,0.0,0.0,0.0,0.0,4.94384715,0.0,0.0,-2744.0,0.0,0.0,-0.0,0.0,0.0,2.877196971,0.0,0.0,1.3799999952316284,1.2799999713897705,0.07999999821186066,0.02569580078125,0.0093994140625,1.00152587890625,31.90999984741211,0.0,3.0,0.0210113525390625,0.093719482421875,Closing,0.0,0.0,33228.0,0.0,0.0,0.0,0.0,0.0,
0.5862229999999982,0.0,0.0,2719.0,0.0,0.0,0.0,0.0,0.125,3.858642183,0.0,0.0,-2735.0,0.0,0.0,-0.0,0.0,0.0,1.853027154,0.0,0.0,2663.0,0.0,0.0,0.0,0.0,0.0,4.941405744,0.0,0.0,-2744.0,0.0,0.0,-0.0,0.0,0.0,2.877196971,0.0,0.0,1.350000023841858,1.2999999523162842,0.05999999865889549,0.02569580078125,0.005126953125,1.0103759765625,31.90999984741211,0.0,2.0,0.0210113525390625,0.0936431884765625,Closing,0.0,0.0,33228.0,0.0,0.0,0.0,0.0,0.0,
0.6108199999999997,0.0,0.0,2719.0,0.0,0.0,0.0,0.0,0.0,3.858642183,0.0,0.0,-2735.0,0.0,0.0,-0.0,0.0,0.0,1.85546856,0.0,0.0,2663.0,0.0,0.0,0.0,0.0,0.0,4.942626447,0.0,0.0,-2744.0,0.0,0.0,-0.0,0.0,0.0,2.877196971,0.0,0.0,1.3300000429153442,1.2899999618530273,0.05000000074505806,0.02569580078125,0.01025390625,1.00250244140625,31.90999984741211,0.0,3.0,0.0210113525390625,0.09356689453125,Closing,0.0,0.0,33228.0,0.0,0.0,0.0,0.0,0.0,
0.6447750000000014,0.0,0.0,2719.0,0.0,0.0,0.0,0.0,0.0,3.858642183,0.0,0.0,-2735.0,0.0,0.0,-0.0,0.0,0.0,1.853027154,0.0,0.0,2663.0,0.0,0.0,0.0,0.0,0.0,4.941405744,0.0,0.0,-2744.0,0.0,0.0,-0.0,0.0,0.0,2.877196971,0.0,0.0,1.309999942779541,1.2899999618530273,0.05999999865889549,0.0274658203125,0.01458740234375,1.01092529296875,31.899999618530273,0.0,4.0,0.0210113525390625,0.09356689453125,Closing,0.0,0.0,33228.0,0.0,0.0,0.0,0.0,0.0,
0.6747089999999989,0.0,0.0,2719.0,0.0,0.0,0.0,0.0,0.125,3.85742148,0.0,0.0012207029999999897,-2735.0,0.0,0.0,-0.0,0.0,0.0,1.854247857,0.0,0.0,2663.0,0.0,0.0,0.0,0.0,0.0,4.940185041,0.0,0.0,-2744.0,0.0,0.0,-0.0,0.0,0.0,2.877196971,0.0,0.0,1.2999999523162842,1.309999942779541,0.05999999865889549,0.023681640625,0.02056884765625,0.9974365234375,31.899999618530273,0.0,0.0,0.0210113525390625,0.09356689453125,Closing,0.0,0.0,33228.0,0.0,0.0,0.0,0.0,0.0,
0.7075529999999999,0.0,0.0,2719.0,0.0,0.0,0.0,0.0,0.0,3.858642183,0.0,-0.0012207029999999897,-2735.0,0.0,0.0,-0.0,0.0,0.0,1.853027154,0.0,0.0,2663.0,0.0,0.0,0.0,0.0,0.0,4.941405744,0.0,-0.0012207029999995456,-2744.0,0.0,0.0,-0.0,0.0,0.0,2.877196971,0.0,0.0,1.2999999523162842,1.2999999523162842,0.07000000029802322,0.02374267578125,0.03350830078125,1.00048828125,31.899999618530273,0.0,0.0,0.0210113525390625,0.09356689453125,Closing,0.0,0.0,33228.0,0.0,0.0,0.0,0.0,0.0,
0.7392220000000016,0.0,0.0,2719.0,0.0,0.0,0.0,0.0,0.0,3.854980074,0.0,-0.0012207029999999897,-2735.0,0.0,0.0,-0.0,0.0,0.0,1.854247857,0.0,0.0,2663.0,0.0,0.0,0.0,0.0,0.0,4.940185041,0.0,-0.0012207029999995456,-2744.0,0.0,0.0,-0.0,0.0,0.0,2.878417674,0.0,0.0,1.3200000524520874,1.2899999618530273,0.07000000029802322,0.01568603515625,0.03375244140625,1.0057373046875,31.899999618530273,0.0,-7.0,0.0210113525390625,0.09356689453125,Closing,0.0,0.0,33228.0,0.0,0.0,0.0,0.0,0.0,
0.7722439999999988,0.0,0.0,2719.0,0.0,0.0,0.0,0.0,0.125,3.858642183,0.0,0.0,-2735.0,0.0,0.0,-0.0,0.0,0.0,1.854247857,0.0,0.0,2663.0,0.0,0.0,0.0,0.0,0.0,4.940185041,0.0,0.0,-2744.0,0.0,0.0,-0.0,0.0,0.0,2.877196971,0.0,-0.0012207029999999897,1.3300000429153442,1.2899999618530273,0.05999999865889549,0.01025390625,0.02960205078125,0.9971923828125,31.899999618530273,0.0,-12.0,0.0210113525390625,0.09356689453125,Closing,0.0,0.0,33228.0,0.0,0.0,0.0,0.0,0.0,
0.8015349999999999,0.0,0.0,2719.0,0.0,0.0,0.0,0.0,0.125,3.859862886,0.0,0.0,-2735.0,0.0,0.0,-0.0,0.0,0.0,1.853027154,0.0,0.0,2663.0,0.0,0.0,0.0,0.0,0.0,4.941405744,0.0,0.0012207029999995456,-2744.0,0.0,0.0,-0.0,0.0,0.0,2.877196971,0.0,0.0012207029999999897,1.3300000429153442,1.2699999809265137,0.05000000074505806,0.02459716796875,0.024169921875,1.00244140625,31.899999618530273,0.0,2.0,0.0210113525390625,0.09356689453125,Closing,0.0,0.0,33228.0,0.0,0.0,0.0,0.0,0.0,
0.8331929999999993,0.0,0.0,2719.0,0.0,0.0,0.0,0.0,0.125,3.859862886,0.0,0.0,-2735.0,0.0,0.0,-0.0,0.0,0.0,1.851806451,0.0,0.0,2663.0,0.0,0.0,0.0,0.0,0.0,4.938964338,0.0,0.0012207029999995456,-2744.0,0.0,0.0,-0.0,0.0,0.0,2.875976268,0.0,0.0012207029999999897,1.3300000429153442,1.2799999713897705,0.03999999910593033,0.02679443359375,0.03118896484375,0.99041748046875,31.899999618530273,0.0,4.0,0.0210113525390625,0.09356689453125,Closing,0.0,0.0,33228.0,0.0,0.0,0.0,0.0,0.0,
0.8629799999999995,0.0,0.0,2719.0,0.0,0.0,0.0,0.0,0.0,3.85742148,0.0,0.0,-2735.0,0.0,0.0,-0.0,0.0,0.0,1.854247857,0.0,0.0,2663.0,0.0,0.0,0.0,0.0,0.0,4.941405744,0.0,0.0,-2744.0,0.0,0.0,-0.0,0.0,0.0,2.877196971,0.0,0.0,1.340000033378601,1.2999999523162842,0.029999999329447746,0.033203125,0.02313232421875,1.00531005859375,31.899999618530273,0.0,10.0,0.0210113525390625,0.09356689453125,Closing,0.0,0.0,33228.0,0.0,0.0,0.0,0.0,0.0,
0.8946980000000003,0.0,0.0,2719.0,0.0,0.0,0.0,0.0,0.0,3.858642183,0.0,0.0,-2735.0,0.0,0.0,-0.0,0.0,0.0,1.854247857,0.0,0.0,2663.0,0.0,0.0,0.0,0.0,0.0,4.942626447,0.0,0.0,-2744.0,0.0,0.0,-0.0,0.0,0.0,2.877196971,0.0,0.0,1.340000033378601,1.309999942779541,0.029999999329447746,0.03167724609375,0.01995849609375,1.00482177734375,31.899999618530273,0.0,8.0,0.0210113525390625,0.09356689453125,Closing,0.0,0.0,33228.0,0.0,0.0,0.0,0.0,0.0,
0.9297580000000016,0.0,0.0,2719.0,0.0,0.0,0.0,0.0,0.0,3.858642183,0.0,0.0,-2735.0,0.0,0.0,-0.0,0.0,0.0,1.848144342,0.0,0.0,2663.0,0.0,0.0,0.0,0.0,0.0,4.940185041,0.0,0.0,-2744.0,0.0,0.0,-0.0,0.0,0.0,2.877196971,0.0,0.0,1.3300000429153442,1.2999999523162842,0.029999999329447746,0.01666259765625,0.0181884765625,0.99810791015625,31.899999618530273,0.0,-6.0,0.0210113525390625,0.09356689453125,Closing,0.0,0.0,33228.0,0.0,0.0,0.0,0.0,0.0,
0.9559449999999997,0.0,0.0,2719.0,0.0,0.0,0.0,0.0,0.0,3.8500972620000002,0.0,0.0,-2735.0,0.0,0.0,-0.0,0.0,0.0,1.854247857,0.0,0.0,2663.0,0.0,0.0,0.0,0.0,0.0,4.941405744,0.0,0.0,-2744.0,0.0,0.0,-0.0,0.0,0.0,2.877196971,0.0,0.0,1.3300000429153442,1.2899999618530273,0.03999999910593033,0.0152587890625,0.0203857421875,1.0126953125,31.899999618530273,0.0,-7.0,0.0210113525390625,0.09356689453125,Closing,0.0,0.0,33228.0,0.0,0.0,0.0,0.0,0.0,
0.9913669999999983,0.0,0.0,2719.0,0.0,0.0,0.0,0.0,0.0,3.852538668,0.0,0.0,-2735.0,0.0,0.0,-0.0,0.0,0.0,1.853027154,0.0,0.0,2663.0,0.0,0.0,0.0,0.0,0.0,4.940185041,0.0,0.0,-2744.0,0.0,0.0,-0.0,0.0,0.0,2.877196971,0.0,0.0,1.3300000429153442,1.2899999618530273,0.05000000074505806,0.01544189453125,0.0205078125,0.99029541015625,31.899999618530273,0.0,-6.0,0.0210113525390625,0.09356689453125,Closing,0.0,0.0,33228.0,0.0,0.0,0.0,0.0,0.0,
1.0183070000000007,0.0,0.0,2719.0,0.0,0.0,0.0,0.0,0.0,3.85742148,0.0,0.0,-2735.0,0.0,0.0,-0.0,0.0,0.0,1.853027154,0.0,0.0,2663.0,0.0,0.0,0.0,0.0,0.0,4.941405744,0.0,0.0,-2744.0,0.0,0.0,-0.0,0.0,0.0,2.877196971,0.0,0.0,1.3300000429153442,1.2799999713897705,0.03999999910593033,0.02178955078125,0.022705078125,1.0074462890625,31.899999618530273,0.0,0.0,0.0210113525390625,0.09356689453125,Closing,0.0,0.0,33228.0,0.0,0.0,0.0,0.0,0.0,
1.0523940000000003,0.0,0.0,2719.0,0.0,0.0,0.0,0.0,0.0,3.858642183,0.0,0.0,-2735.0,0.0,0.0,-0.0,0.0,0.0,1.851806451,0.0,0.0,2663.0,0.0,0.0,0.0,0.0,0.0,4.94384715,0.0,0.0,-2744.0,0.0,0.0,-0.0,0.0,0.0,2.877196971,0.0,0.0,1.3200000524520874,1.2899999618530273,0.029999999329447746,0.02301025390625,0.02239990234375,0.99774169921875,31.899999618530273,0.0,0.0,0.0210113525390625,0.09356689453125,Closing,0.0,0.0,33228.0,0.0,0.0,0.0,0.0,0.0,
1.0856280000000007,0.0,0.0,2719.0,0.0,0.0,0.0,0.0,0.0,3.85742148,0.0,0.0,-2735.0,0.0,0.0,-0.0,0.0,0.0,1.854247857,0.0,0.0,2663.0,0.0,0.0,0.0,0.0,0.0,4.940185041,0.0,0.0,-2744.0,0.0,0.0,-0.0,0.0,0.0,2.877196971,0.0,0.0,1.3300000429153442,1.2899999618530273,0.029999999329447746,0.01861572265625,0.02777099609375,0.99884033203125,31.899999618530273,0.0,-3.0,0.0210113525390625,0.09356689453125,Closing,0.0,0.0,33228.0,0.0,0.0,0.0,0.0,0.0,
1.1135339999999996,0.0,0.0,2719.0,0.0,0.0,0.0,0.0,0.125,3.85742148,0.0,0.0,-2735.0,0.0,0.0,-0.0,0.0,0.0,1.853027154,0.0,0.0,2663.0,0.0,0.0,0.0,0.0,0.0,4.940185041,0.0,0.0,-2744.0,0.0,0.0,-0.0,0.0,0.0,2.877196971,0.0,0.0,1.3300000429153442,1.2799999713897705,0.009999999776482582,0.0191650390625,0.02783203125,1.00933837890625,31.899999618530273,0.0,-3.0,0.0210113525390625,0.09356689453125,Closing,0.0,0.0,33228.0,0.0,0.0,0.0,0.0,0.0,
1.1473549999999995,0.0,0.0,2719.0,0.0,0.0,0.0,0.0,0.125,3.85742148,0.0,0.0,-2735.0,0.0,0.0,-0.0,0.0,0.0,1.854247857,0.0,0.0,2663.0,0.0,0.0,0.0,0.0,0.0,4.941405744,0.0,0.0,-2744.0,0.0,0.0,-0.0,0.0,0.0,2.877196971,0.0,0.0,1.3300000429153442,1.2999999523162842,0.0,0.02459716796875,0.0224609375,1.00421142578125,31.950000762939453,0.0,1.0,0.0210113525390625,0.09356689453125,Closing,0.0,0.0,33228.0,0.0,0.0,0.0,0.0,0.0,
1.180262999999999,0.0,0.0,2719.0,0.0,0.0,0.0,0.0,0.125,3.858642183,0.0,0.0,-2735.0,0.0,0.0,-0.0,0.0,0.0,1.854247857,0.0,0.0,2663.0,0.0,0.0,0.0,0.0,0.0,4.942626447,0.0,-0.0012207029999995456,-2744.0,0.0,0.0,-0.0,0.0,0.0,2.878417674,0.0,-0.0012207029999999897,1.3300000429153442,1.2999999523162842,0.009999999776482582,0.02996826171875,0.0174560546875,0.99774169921875,31.950000762939453,0.0,7.0,0.0210113525390625,0.09356689453125,Closing,0.0,0.0,33228.0,0.0,0.0,0.0,0.0,0.0,
1.2119569999999986,0.0,0.0,2719.0,0.0,0.0,0.0,0.0,0.125,3.85742148,0.0,0.0,-2735.0,0.0,0.0,-0.0,0.0,0.0,1.854247857,0.0,0.0,2663.0,0.0,0.0,0.0,0.0,0.0,4.94384715,0.0,0.0012207029999995456,-2744.0,0.0,0.0,-0.0,0.0,0.0,2.877196971,0.0,0.0012207029999999897,1.3200000524520874,1.309999942779541,0.009999999776482582,0.02935791015625,0.0223388671875,1.0206298828125,31.950000762939453,0.0,5.0,0.0210113525390625,0.09356689453125,Closing,0.0,0.0,33228.0,0.0,0.0,0.0,0.0,0.0,
1.2473149999999986,0.0,0.0,2719.0,0.0,0.0,0.0,0.0,0.0,3.858642183,0.0,0.0,-2735.0,0.0,0.0,-0.0,0.0,0.0,1.854247857,0.0,0.0,2663.0,0.0,0.0,0.0,0.0,0.0,4.941405744,0.0,0.0,-2744.0,0.0,0.0,-0.0,0.0,0.0,2.877196971,0.0,-0.0012207029999999897,1.3200000524520874,1.309999942779541,0.019999999552965164,0.02386474609375,0.01922607421875,0.99371337890625,31.950000762939453,0.0,-4.0,0.0210113525390625,0.09356689453125,Closing,0.0,0.0,33228.0,0.0,0.0,0.0,0.0,0.0,
1.2884209999999985,0.0,0.0,2719.0,0.0,0.0,0.0,0.0,0.0,3.858642183,0.0,0.0,-2735.0,0.0,0.0,-0.0,0.0,0.0,1.854247857,0.0,0.0,2663.0,0.0,0.0,0.0,0.0,0.0,4.942626447,0.0,0.0,-2744.0,0.0,0.0,-0.0,0.0,0.0,2.877196971,0.0,-0.0012207029999999897,1.3200000524520874,1.2999999523162842,0.019999999552965164,0.0140380859375,0.02374267578125,1.0113525390625,31.950000762939453,0.0,-8.0,0.0210113525390625,0.09356689453125,Closing,0.0,0.0,33228.0,0.0,0.0,0.0,0.0,0.0,
1.3142089999999989,0.0,0.0,2719.0,0.0,0.0,0.0,0.0,0.0,3.858642183,0.0,0.0,-2735.0,0.0,0.0,-0.0,0.0,0.0,1.853027154,0.0,0.0,2663.0,0.0,0.0,0.0,0.0,0.0,4.941405744,0.0,0.0,-2744.0,0.0,0.0,-0.0,0.0,0.0,2.877196971,0.0,0.0012207029999999897,1.3200000524520874,1.2799999713897705,0.019999999552965164,0.01776123046875,0.0340576171875,1.0062255859375,31.950000762939453,0.0,-4.0,0.0210113525390625,0.09356689453125,Closing,0.0,0.0,33228.0,0.0,0.0,0.0,0.0,0.0,
1.3477789999999987,0.0,0.0,2719.0,0.0,0.0,0.0,0.0,0.0,3.85742148,0.0,0.0,-2735.0,0.0,0.0,-0.0,0.0,0.0,1.854247857,0.0,0.0,2663.0,0.0,0.0,0.0,0.0,0.0,4.941405744,0.0,0.0,-2744.0,0.0,0.0,-0.0,0.0,0.0,2.877196971,0.0,-0.0012207029999999897,1.3300000429153442,1.2899999618530273,0.019999999552965164,0.0291748046875,0.0289306640625,1.00054931640625,31.950000762939453,0.0,6.0,0.0210113525390625,0.09356689453125,Closing,0.0,0.0,33228.0,0.0,0.0,0.0,0.0,0.0,
1.378048999999999,0.0,0.0,2719.0,0.0,0.0,0.0,0.0,0.0,3.858642183,0.0,0.0,-2735.0,0.0,0.0,-0.0,0.0,0.0,1.854247857,0.0,0.0,2663.0,0.0,0.0,0.0,0.0,0.0,4.941405744,0.0,0.0,-2744.0,0.0,0.0,-0.0,0.0,0.0,2.875976268,0.0,-0.0012207029999999897,1.340000033378601,1.2999999523162842,0.019999999552965164,0.02545166015625,0.0269775390625,1.01611328125,31.950000762939453,0.0,2.0,0.0210113525390625,0.09356689453125,Closing,0.0,0.0,33228.0,0.0,0.0,0.0,0.0,0.0,
1.4097959999999985,0.0,0.0,2719.0,0.0,0.0,0.0,0.0,0.125,3.858642183,0.0,0.0,-2735.0,0.0,0.0,-0.0,0.0,0.0,1.854247857,0.0,0.0,2663.0,0.0,0.0,0.0,0.0,0.0,4.94384715,0.0,0.0,-2744.0,0.0,0.0,-0.0,0.0,0.0,2.878417674,0.0,0.0012207029999999897,1.3300000429153442,1.2999999523162842,0.009999999776482582,0.0262451171875,0.01959228515625,0.99530029296875,31.950000762939453,0.0,3.0,0.0210113525390625,0.09356689453125,Closing,0.0,0.0,33228.0,0.0,0.0,0.0,0.0,0.0,
1.4413519999999989,0.0,0.0,2719.0,0.0,0.0,0.0,0.0,0.125,3.858642183,0.0,0.0,-2735.0,0.0,0.0,-0.0,0.0,0.0,1.853027154,0.0,0.0,2663.0,0.0,0.0,0.0,0.0,0.0,4.94384715,0.0,0.0,-2744.0,0.0,0.0,-0.0,0.0,0.0,2.877196971,0.0,0.0012207029999999897,1.3300000429153442,1.2999999523162842,0.009999999776482582,0.02203369140625,0.017578125,1.0159912109375,31.950000762939453,0.0,-1.0,0.0210113525390625,0.09356689453125,Closing,0.0,0.0,33228.0,0.0,0.0,0.0,0.0,0.0,
1.4852849999999997,0.0,0.0,2719.0,0.0,0.0,216.56250000000003,0.0,0.0,3.858642183,1.378888858068321E-4,0.0,-2735.0,0.0,0.0,-216.56250000000003,0.0,0.0,1.853027154,1.3747221914947862E-4,0.0,2663.0,0.0,0.0,216.56250000000003,0.0,0.0,4.941405744,1.376111080352631E-4,0.0,-2744.0,0.0,0.0,-216.56250000000003,0.0,0.0,2.888183298,1.374305524837433E-4,0.0,1.3300000429153442,1.2999999523162842,0.019999999552965164,0.02142333984375,0.02227783203125,1.02105712890625,31.950000762939453,0.0,-1.0,0.0210113525390625,0.09356689453125,Closing,0.0,0.0,33228.0,0.0,0.0,0.0,0.0,0.0,
1.5136949999999998,0.0,0.0,2719.0,6.625,7.5,2520.0000000000005,0.0,0.0,3.8317867170000004,2.7577777161366413E-4,0.0,-2735.0,4.75,0.0,-2520.0000000000005,0.0,0.0,1.8640134810000002,2.749444382989572E-4,0.0,2663.0,2.375,0.0,2520.0000000000005,0.0,0.0,4.94384715,2.7522221607052615E-4,0.0,-2744.0,6.75,-7.5,-2520.0000000000005,0.0,0.0,2.9016110310000003,2.748611049674865E-4,0.0,1.3200000524520874,1.2999999523162842,0.029999999329447746,0.02099609375,0.0224609375,1.001708984375,31.950000762939453,0.0,-1.0,0.0210113525390625,0.09356689453125,Closing,0.0,0.0,33228.0,0.0,0.0,0.0,0.0,0.0,
1.548316999999999,0.0,0.0,2719.0,12.125,90.0,2520.0,0.0,0.0,3.82080039,4.136666574204962E-4,4.933482425,-2735.0,11.375,-67.5,-2520.0,0.0,0.0,1.8676755900000002,4.1241665744843584E-4,0.014648435999999876,2663.0,11.0,30.0,2520.0,0.0,0.0,4.942626447,4.1283332410578934E-4,0.0,-2744.0,17.25,-397.5,-2520.0,0.0,0.0,2.872314159,4.122916574512298E-4,0.0,1.2899999618530273,1.3300000429153442,0.029999999329447746,-0.00433349609375,0.1043701171875,1.0682373046875,31.950000762939453,0.0,-29.0,0.02105712890625,0.0936431884765625,Closing,0.0,0.0,33228.0,0.0,0.0,0.0,0.0,0.0,
1.5826820000000006,0.0,0.0,2719.0,12.5,712.5,2520.0,0.0,0.0,3.819579687,4.136666574204962E-4,-0.007324217999999938,-2735.0,13.875,-652.5,-2520.0,0.0,0.0,1.8688962930000002,4.1241665744843584E-4,0.0,2663.0,15.25,502.5,2520.0,0.0,0.0,4.942626447,4.1283332410578934E-4,0.0012207029999995456,-2744.0,13.25,-892.5,-2520.0,0.0,0.0,2.886962595,4.122916574512298E-4,-0.028076169000000206,1.3200000524520874,1.2999999523162842,0.029999999329447746,0.07977294921875,0.08648681640625,1.02337646484375,31.950000762939453,0.0,56.0,0.0212554931640625,0.0937652587890625,Closing,0.0,0.0,33228.0,0.0,0.0,0.0,0.0,0.0,
1.613393,0.0,0.0,3000.0,4.0,1860.0,2520.0,0.0,0.125,3.815917578,4.136666574204962E-4,0.0,-3003.0,4.25,-1777.5,-2520.0,0.0,0.0,1.8688962930000002,4.1241665744843584E-4,0.0,2901.0,5.0,1567.5,2520.0,0.0,0.0,4.941405744,4.1283332410578934E-4,0.0,-3069.0,1.625,-2160.0,-2520.0,0.0,0.0,2.888183298,4.122916574512298E-4,0.0,1.3300000429153442,1.2799999713897705,0.029999999329447746,0.10430908203125,0.04376220703125,0.99444580078125,31.950000762939453,0.0,81.0,0.0214691162109375,0.0939483642578125,Closing,0.0,0.0,33228.0,0.0,0.0,0.0,0.0,0.0,
1.6530689999999995,0.0,0.0,3000.0,1.125,2377.5,2520.0,0.0,0.0,3.825683202,4.136666574204962E-4,-0.0012207030000004337,-3003.0,1.0,-2310.0,-2520.0,0.0,0.0,1.8652341840000002,4.1241665744843584E-4,0.0,2901.0,1.75,2505.0,2520.0,0.0,0.0,4.940185041,4.1283332410578934E-4,0.0,-3069.0,0.0,-2812.5,-2520.0,0.0,0.0,2.867431347,4.122916574512298E-4,0.0,1.3200000524520874,1.2999999523162842,0.029999999329447746,0.0482177734375,-0.01666259765625,0.90777587890625,31.950000762939453,0.0,27.0,0.0216522216796875,0.094146728515625,Closing,0.0,0.0,33228.0,0.0,0.0,0.0,0.0,0.0,
1.6867750000000015,0.0,0.0,3000.0,0.0,2827.5,2520.0,0.0,0.0,3.8427730440000003,4.136666574204962E-4,0.014648436000000764,-3003.0,0.0,-2782.5,-2520.0,0.0,0.0,1.851806451,4.1241665744843584E-4,-0.009765623999999917,2901.0,0.0,2670.0,2520.0,0.0,0.0,4.942626447,4.1283332410578934E-4,-0.0012207029999995456,-3069.0,0.0,-2685.0,-2520.0,0.0,0.0,2.86865205,4.122916574512298E-4,4.932851564,1.3300000429153442,1.2999999523162842,0.029999999329447746,-0.0052490234375,0.0377197265625,0.993408203125,31.940000534057617,0.0,-27.0,0.021728515625,0.0943756103515625,Closing,0.0,0.0,33228.0,0.0,0.0,0.0,0.0,0.0,
1.7144019999999982,0.0,0.0,3377.0,0.0,2737.5,2520.0,0.0,0.125,3.8439937470000003,4.136666574204962E-4,0.0,-3381.0,0.0,-2707.5,-2520.0,0.0,0.0,1.8444822330000001,4.1241665744843584E-4,0.0,3271.0,0.0,2445.0,2520.0,0.0,0.0,4.940185041,4.1283332410578934E-4,0.0,-3351.0,1.875,-1950.0,-2520.0,0.0,0.0,2.8967282190000003,4.122916574512298E-4,0.0,1.350000023841858,1.2999999523162842,0.029999999329447746,-0.01593017578125,0.03570556640625,1.0264892578125,31.940000534057617,0.0,-39.0,0.0217132568359375,0.09442138671875,Closing,0.0,0.0,33228.0,0.0,0.0,0.0,0.0,0.0,
1.7491320000000015,0.0,0.0,3377.0,0.25,2235.0,2520.0,0.0,0.0,3.8464351530000003,4.136666574204962E-4,0.0012207029999999897,-3381.0,0.0,-2250.0,-2520.0,0.0,0.0,1.8444822330000001,4.1241665744843584E-4,-0.004882811999999959,3271.0,0.125,2205.0,2520.0,0.0,0.0,4.942626447,4.1283332410578934E-4,0.0,-3351.0,4.5,-1627.5,-2520.0,0.0,0.0,2.8918454070000004,4.122916574512298E-4,0.0,1.340000033378601,1.2999999523162842,0.029999999329447746,0.03265380859375,0.0379638671875,1.00018310546875,31.940000534057617,0.0,9.0,0.0215911865234375,0.0944061279296875,Closing,0.0,0.0,33228.0,0.0,0.0,0.0,0.0,0.0,
1.785982,0.0,0.0,3377.0,1.125,1965.0,2520.0,0.0,0.0,3.8378902320000003,4.136666574204962E-4,-0.0012207029999999897,-3381.0,0.625,-1987.5,-2520.0,0.0,0.0,1.849365045,4.1241665744843584E-4,0.004882811999999959,3271.0,3.0,1755.0,2520.0,0.0,0.0,4.942626447,4.1283332410578934E-4,0.0,-3351.0,7.0,-1537.5,-2520.0,0.0,0.0,2.8918454070000004,4.122916574512298E-4,-0.003662108999999969,1.3300000429153442,1.2999999523162842,0.029999999329447746,0.01495361328125,0.01971435546875,1.03131103515625,31.940000534057617,0.0,-8.0,0.0215911865234375,0.094329833984375,Closing,0.0,0.0,33228.0,0.0,0.0,0.0,0.0,0.0,
1.812708999999999,0.0,0.0,3377.0,4.125,1657.5,2520.0,0.0,0.0,3.825683202,4.136666574204962E-4,0.0,-3381.0,3.875,-1665.0,-2520.0,0.0,0.0,1.854247857,4.1241665744843584E-4,0.0,3271.0,4.875,1635.0,2520.0,0.0,0.0,4.940185041,4.1283332410578934E-4,0.0,-3351.0,5.875,-1762.5,-2520.0,0.0,0.0,2.8918454070000004,4.122916574512298E-4,0.0,1.309999942779541,1.2899999618530273,0.029999999329447746,0.04742431640625,0.04486083984375,1.03131103515625,31.940000534057617,0.0,24.0,0.0216522216796875,0.09417724609375,Closing,0.0,0.0,33228.0,0.0,0.0,0.0,0.0,0.0,
1.848084999999999,0.0,0.0,3675.0,4.75,1680.0,2520.0,0.0,0.0,3.824462499,4.136666574204962E-4,-0.009765624000000805,-3669.0,5.125,-1740.0,-2520.0,0.0,0.0,1.859130669,4.1241665744843584E-4,0.004882811999999959,3553.0,5.625,1710.0,2520.0,0.0,0.0,4.942626447,4.1283332410578934E-4,-0.0012207029999995456,-3741.0,1.5,-2370.0,-2520.0,0.0,0.0,2.889404001,4.122916574512298E-4,-0.0012207029999999897,1.309999942779541,1.2999999523162842,0.029999999329447746,-0.00201416015625,0.074951171875,1.01751708984375,31.940000534057617,0.0,-25.0,0.0217132568359375,0.09417724609375,Closing,0.0,0.0,33228.0,0.0,0.0,0.0,0.0,0.0,
1.8799049999999988,0.0,0.0,3675.0,3.625,1987.5,2520.0,0.0,0.0,3.823241796,4.136666574204962E-4,-0.0012207030000004337,-3669.0,4.375,-1905.0,-2520.0,0.0,0.0,1.857909966,4.1241665744843584E-4,0.004882811999999959,3553.0,5.125,1875.0,2520.0,0.0,0.0,4.941405744,4.1283332410578934E-4,0.0012207029999995456,-3741.0,0.125,-2572.5,-2520.0,0.0,0.0,2.8918454070000004,4.122916574512298E-4,0.0012207029999999897,1.3300000429153442,1.2999999523162842,0.029999999329447746,0.01434326171875,0.0299072265625,0.99737548828125,31.940000534057617,0.0,-8.0,0.0217437744140625,0.09429931640625,Closing,0.0,0.0,33228.0,0.0,0.0,0.0,0.0,0.0,
1.911446,0.0,0.0,3675.0,1.0,2377.5,2520.0,0.0,0.0,3.825683202,4.136666574204962E-4,0.0,-3669.0,1.5,-2295.0,-2520.0,0.0,0.0,1.857909966,4.1241665744843584E-4,0.0,3553.0,2.125,2242.5,2520.0,0.0,0.0,4.94384715,4.1283332410578934E-4,0.0,-3741.0,0.0,-2557.5,-2520.0,0.0,0.0,2.8906247040000004,4.122916574512298E-4,0.0,1.3300000429153442,1.2899999618530273,0.029999999329447746,0.02191162109375,0.01312255859375,0.977294921875,31.940000534057617,0.0,0.0,0.0217742919921875,0.0943145751953125,Closing,0.0,0.0,33228.0,0.0,0.0,0.0,0.0,0.0,
1.9481970000000002,0.0,0.0,3675.0,0.5,2512.5,2520.0,0.0,0.0,3.8342281230000004,4.136666574204962E-4,0.0012207030000004337,-3669.0,0.625,-2437.5,-2520.0,0.0,0.0,1.8640134810000002,4.1241665744843584E-4,-0.0012207030000004337,3553.0,0.75,2437.5,2520.0,0.0,0.0,4.942626447,4.1283332410578934E-4,0.0,-4078.0,2.125,-2235.0,-2520.0,0.0,0.0,2.8918454070000004,4.122916574512298E-4,0.0,1.3200000524520874,1.2899999618530273,0.03999999910593033,0.01812744140625,-0.02587890625,1.03302001953125,31.940000534057617,0.0,-5.0,0.0218505859375,0.094146728515625,Closing,0.0,0.0,33228.0,0.0,0.0,0.0,0.0,0.0,
1.9846239999999997,0.0,0.0,4085.0,0.25,2565.0,2520.0,0.0,0.125,3.8305660140000004,6.894444547179674E-4,0.004882812000000847,-4075.0,0.125,-2535.0,-2520.0,0.0,0.0,1.857909966,6.873611213535898E-4,0.0012207030000004337,3944.0,0.5,2445.0,2520.0,0.0,0.0,4.940185041,6.880555658083823E-4,0.0,-4078.0,3.625,-2092.5,-2520.0,0.0,0.0,2.8918454070000004,6.871527880171521E-4,-0.0012207029999999897,1.3200000524520874,1.2899999618530273,0.05000000074505806,0.03265380859375,0.021484375,0.9815673828125,31.940000534057617,0.0,10.0,0.02203369140625,0.09356689453125,Closing,0.0,0.0,33228.0,0.0,0.0,0.0,0.0,0.0,
2.012423999999999,0.0,0.0,4085.0,0.25,2512.5,2520.0,0.0,0.125,3.8378902320000003,6.894444547179674E-4,0.0,-4075.0,0.25,-2430.0,-2520.0,0.0,0.0,1.859130669,6.873611213535898E-4,0.0,3944.0,1.125,2325.0,2520.0,0.0,0.0,4.942626447,6.880555658083823E-4,0.0,-4078.0,4.625,-2070.0,-2520.0,0.0,0.0,2.888183298,6.871527880171521E-4,0.0,1.3300000429153442,1.2899999618530273,0.05000000074505806,-0.00323486328125,0.021728515625,0.9869384765625,31.940000534057617,0.0,-25.0,0.022247314453125,0.09320068359375,Closing,0.0,0.0,33228.0,0.0,0.0,0.0,0.0,0.0,
2.047220000000001,0.0,0.0,4085.0,0.625,2340.0,2520.0,0.0,0.0,3.8342281230000004,6.894444547179674E-4,0.0012207030000004337,-4075.0,0.625,-2340.0,-2520.0,0.0,0.0,1.857909966,6.873611213535898E-4,0.0,3944.0,1.75,2250.0,2520.0,0.0,0.0,4.941405744,6.880555658083823E-4,-0.0012207029999995456,-4078.0,3.875,-2175.0,-2520.0,0.0,0.0,2.8918454070000004,6.871527880171521E-4,0.0012207029999999897,1.3300000429153442,1.2799999713897705,0.05000000074505806,0.039306640625,0.0184326171875,1.02642822265625,31.940000534057617,0.0,16.0,0.022552490234375,0.092803955078125,Closing,0.0,0.0,33228.0,0.0,0.0,0.0,0.0,0.0,
2.0792789999999988,0.0,0.0,4440.0,1.75,2220.0,2520.0,0.0,0.0,3.8317867170000004,6.894444547179674E-4,-0.0012207030000004337,-4426.0,1.625,-2212.5,-2520.0,0.0,0.0,1.857909966,6.873611213535898E-4,0.0,4291.0,3.375,2160.0,2520.0,0.0,0.0,4.940185041,6.880555658083823E-4,0.0012207029999995456,-4482.0,1.625,-2460.0,-2520.0,0.0,0.0,2.8918454070000004,6.871527880171521E-4,0.0,1.3300000429153442,1.2699999809265137,0.05000000074505806,0.0380859375,-0.0223388671875,0.97979736328125,31.940000534057617,0.0,16.0,0.022979736328125,0.092254638671875,Closing,0.0,0.0,33228.0,0.0,0.0,0.0,0.0,0.0,
2.1102599999999985,0.0,0.0,4440.0,2.0,2212.5,2520.0,0.0,0.0,3.825683202,6.894444547179674E-4,0.0,-4426.0,2.125,-2190.0,-2520.0,0.0,0.0,1.859130669,6.873611213535898E-4,0.0,4291.0,3.75,2167.5,2520.0,0.0,0.0,4.942626447,6.880555658083823E-4,0.0,-4482.0,0.875,-2542.5,-2520.0,0.0,0.0,2.8918454070000004,6.871527880171521E-4,0.0,1.3200000524520874,1.2699999809265137,0.05000000074505806,0.031494140625,0.01971435546875,1.04901123046875,31.940000534057617,0.0,8.0,0.0233154296875,0.0915374755859375,Closing,0.0,0.0,33228.0,0.0,0.0,0.0,0.0,0.0,
2.1449480000000003,0.0,0.0,4440.0,1.875,2287.5,2520.0,0.0,0.0,3.825683202,6.894444547179674E-4,0.0,-4426.0,2.125,-2250.0,-2520.0,0.0,0.0,1.857909966,6.873611213535898E-4,0.0,4291.0,3.125,2272.5,2520.0,0.0,0.0,4.942626447,6.880555658083823E-4,0.0,-4482.0,1.0,-2527.5,-2520.0,0.0,0.0,2.8930661100000004,6.871527880171521E-4,0.0,1.309999942779541,1.2799999713897705,0.05000000074505806,0.03204345703125,0.03472900390625,1.014892578125,31.940000534057617,0.0,9.0,0.0236968994140625,0.0911407470703125,Closing,0.0,0.0,33228.0,0.0,0.0,0.0,0.0,0.0,
2.1804540000000014,0.0,0.0,4440.0,1.375,2355.0,2520.0,0.0,0.0,3.825683202,6.894444547179674E-4,0.0,-4426.0,1.875,-2310.0,-2520.0,0.0,0.0,1.859130669,6.873611213535898E-4,0.0,4291.0,2.5,2340.0,2520.0,0.0,0.0,4.940185041,6.880555658083823E-4,0.0,-4482.0,2.375,-2362.5,-2520.0,0.0,0.0,2.8918454070000004,6.871527880171521E-4,0.0,1.309999942779541,1.2799999713897705,0.05000000074505806,0.0413818359375,0.06719970703125,1.0172119140625,31.93000030517578,0.0,18.0,0.024261474609375,0.0911865234375,Closing,0.0,0.0,33228.0,0.0,0.0,0.0,0.0,0.0,
2.2114480000000003,0.0,0.0,4838.0,0.875,2467.5,2520.0,0.0,0.125,3.819579687,6.894444547179674E-4,0.0,-4820.0,1.125,-2437.5,-2520.0,0.0,0.0,1.856689263,6.873611213535898E-4,0.0,4685.0,1.75,2452.5,2520.0,0.0,0.0,4.941405744,6.880555658083823E-4,0.0,-4849.0,3.0,-2295.0,-2520.0,0.0,0.0,2.8918454070000004,6.871527880171521E-4,0.0,1.3200000524520874,1.2899999618530273,0.05000000074505806,-0.006103515625,-0.01544189453125,1.0390625,31.93000030517578,0.0,-29.0,0.0242462158203125,0.09130859375,Closing,0.0,0.0,33228.0,0.0,0.0,0.0,0.0,0.0,
2.245732,0.0,0.0,4838.0,0.625,2505.0,2520.0,0.0,0.0,3.817138281,6.894444547179674E-4,0.0012207030000004337,-4820.0,0.75,-2482.5,-2520.0,0.0,0.0,1.859130669,6.873611213535898E-4,0.0,4685.0,1.375,2467.5,2520.0,0.0,0.0,4.942626447,6.880555658083823E-4,-0.0012207029999995456,-4849.0,3.5,-2302.5,-2520.0,0.0,0.0,2.8918454070000004,6.871527880171521E-4,0.0,1.309999942779541,1.2799999713897705,0.05999999865889549,0.0262451171875,0.02728271484375,1.031005859375,31.93000030517578,0.0,3.0,0.024169921875,0.0913848876953125,Closing,0.0,0.0,33228.0,0.0,0.0,0.0,0.0,0.0,
2.2759360000000015,0.0,0.0,4838.0,0.625,2505.0,2520.0,0.0,0.0,3.819579687,8.273333148409924E-4,0.0,-4820.0,0.625,-2505.0,-2520.0,0.0,0.0,1.857909966,8.248333148968717E-4,0.0,4685.0,1.5,2452.5,2520.0,0.0,0.0,4.941405744,8.256666482115787E-4,0.0,-4849.0,3.0,-2362.5,-2520.0,0.0,0.0,2.8918454070000004,8.245833149024596E-4,0.0,1.2999999523162842,1.2799999713897705,0.05999999865889549,-0.00994873046875,0.05364990234375,0.99285888671875,31.93000030517578,0.0,-32.0,0.0241546630859375,0.0914154052734375,Closing,0.0,0.0,33228.0,0.0,0.0,0.0,0.0,0.0,
2.3108369999999994,0.0,0.0,4838.0,0.875,2452.5,2520.0,0.0,0.0,3.823241796,6.894444547179674E-4,0.0,-5210.0,0.75,-2460.0,-2520.0,0.0,0.0,1.859130669,6.873611213535898E-4,0.0,5068.0,2.125,2400.0,2520.0,0.0,0.0,4.942626447,6.880555658083823E-4,0.0,-5257.0,1.75,-2512.5,-2520.0,0.0,0.0,2.8979489220000003,6.871527880171521E-4,0.0,1.2999999523162842,1.2699999809265137,0.05000000074505806,0.01763916015625,0.02532958984375,1.00726318359375,31.93000030517578,0.0,-4.0,0.0240631103515625,0.0914459228515625,Closing,0.0,0.0,33228.0,0.0,0.0,0.0,0.0,0.0,
2.3416059999999996,0.0,0.0,5227.0,1.0,2430.0,2520.0,0.0,0.0,3.824462499,6.894444547179674E-4,0.0,-5210.0,1.0,-2437.5,-2520.0,0.0,0.0,1.859130669,6.873611213535898E-4,0.0,5068.0,2.5,2385.0,2520.0,0.0,0.0,4.940185041,6.880555658083823E-4,0.0012207029999995456,-5257.0,1.375,-2550.0,-2520.0,0.0,0.0,2.8930661100000004,6.871527880171521E-4,0.0,1.2999999523162842,1.2899999618530273,0.05000000074505806,0.01763916015625,0.05084228515625,0.9774169921875,31.93000030517578,0.0,-4.0,0.0240631103515625,0.0915069580078125,Closing,0.0,0.0,33228.0,0.0,0.0,0.0,0.0,0.0,
2.369993999999999,0.0,0.0,5227.0,1.125,2415.0,2520.0,0.0,0.125,3.824462499,6.894444547179674E-4,0.0,-5210.0,1.25,-2400.0,-2520.0,0.0,0.0,1.857909966,6.873611213535898E-4,0.0,5068.0,2.5,2392.5,2520.0,0.0,0.0,4.942626447,6.880555658083823E-4,0.0,-5257.0,1.625,-2527.5,-2520.0,0.0,0.0,2.8918454070000004,6.871527880171521E-4,0.0,1.309999942779541,1.2799999713897705,0.05000000074505806,0.065673828125,0.01898193359375,1.01568603515625,31.93000030517578,0.0,42.0,0.024078369140625,0.0915679931640625,Closing,0.0,0.0,33228.0,0.0,0.0,0.0,0.0,0.0,
2.400826000000001,0.0,0.0,5227.0,1.25,2422.5,2520.0,0.0,0.125,3.823241796,6.894444547179674E-4,-0.0012207030000004337,-5210.0,1.5,-2400.0,-2520.0,0.0,0.0,1.856689263,6.873611213535898E-4,0.0,5068.0,2.5,2407.5,2520.0,0.0,0.0,4.942626447,6.880555658083823E-4,-0.0012207029999995456,-5257.0,2.0,-2475.0,-2520.0,0.0,0.0,2.8918454070000004,6.871527880171521E-4,0.0,1.309999942779541,1.2899999618530273,0.05000000074505806,0.06463623046875,-0.005859375,1.00823974609375,31.93000030517578,0.0,41.0,0.0241546630859375,0.0915374755859375,Closing,0.0,0.0,33228.0,0.0,0.0,0.0,0.0,0.0,
2.4363189999999997,0.0,0.0,5624.0,1.0,2452.5,2520.0,0.0,0.125,3.8281246080000004,6.894444547179674E-4,0.0012207030000004337,-5603.0,1.25,-2430.0,-2520.0,0.0,0.0,1.859130669,6.873611213535898E-4,0.0,5464.0,2.125,2460.0,2520.0,0.0,0.0,4.938964338,6.880555658083823E-4,0.0012207029999995456,-5640.0,2.875,-2400.0,-2520.0,0.0,0.0,2.8906247040000004,6.871527880171521E-4,0.0012207029999999897,1.3200000524520874,1.2999999523162842,0.03999999910593033,-0.0223388671875,0.00946044921875,0.9686279296875,31.93000030517578,0.0,-44.0,0.0243377685546875,0.091522216796875,Closing,0.0,0.0,33228.0,0.0,0.0,0.0,0.0,0.0,
2.4680169999999997,0.0,0.0,5624.0,1.0,2475.0,2520.0,0.0,0.125,3.824462499,5.515555432273284E-4,0.0,-5603.0,1.25,-2452.5,-2520.0,0.0,0.0,1.859130669,5.498888765979145E-4,0.0,5464.0,2.0,2475.0,2520.0,0.0,0.0,4.94384715,5.504444321410524E-4,0.0,-5640.0,3.0,-2392.5,-2520.0,0.0,0.0,2.8930661100000004,5.497222099349732E-4,0.0,1.3200000524520874,1.2799999713897705,0.03999999910593033,0.02728271484375,0.02655029296875,1.04290771484375,31.93000030517578,0.0,3.0,0.024383544921875,0.091522216796875,Closing,0.0,0.0,33228.0,0.0,0.0,0.0,0.0,0.0,
2.4970809999999983,0.0,0.0,5624.0,0.875,2497.5,2520.0,0.0,0.125,3.824462499,5.515555432273284E-4,0.0,-5603.0,1.125,-2475.0,-2520.0,0.0,0.0,1.857909966,5.498888765979145E-4,0.0,5464.0,2.0,2490.0,2520.0,0.0,0.0,4.938964338,5.504444321410524E-4,0.0012207029999995456,-5640.0,2.5,-2445.0,-2520.0,0.0,0.0,2.8918454070000004,5.497222099349732E-4,0.0012207029999999897,1.3300000429153442,1.2899999618530273,0.03999999910593033,0.02239990234375,-0.004150390625,0.9742431640625,31.93000030517578,0.0,0.0,0.024383544921875,0.091522216796875,Closing,0.0,0.0,33228.0,0.0,0.0,0.0,0.0,0.0,
2.5300829999999985,0.0,0.0,5624.0,0.875,2505.0,2520.0,0.0,0.125,3.825683202,5.515555432273284E-4,0.0,-5603.0,1.0,-2505.0,-2520.0,0.0,0.0,1.853027154,5.498888765979145E-4,0.0,5464.0,2.0,2490.0,2520.0,0.0,0.0,4.941405744,5.504444321410524E-4,0.0,-5640.0,2.25,-2490.0,-2520.0,0.0,0.0,2.8918454070000004,5.497222099349732E-4,0.0,1.3200000524520874,1.2999999523162842,0.03999999910593033,0.02880859375,0.04302978515625,0.9566650390625,31.93000030517578,0.0,6.0,0.024383544921875,0.0914306640625,Closing,0.0,0.0,33228.0,0.0,0.0,0.0,0.0,0.0,
2.556219000000001,0.0,0.0,6023.0,0.875,2505.0,2520.0,0.0,0.125,3.824462499,5.515555432273284E-4,0.0012207030000004337,-6004.0,1.0,-2505.0,-2520.0,0.0,0.0,1.859130669,5.498888765979145E-4,0.0,5860.0,2.0,2482.5,2520.0,0.0,0.0,4.941405744,5.504444321410524E-4,0.0,-6048.0,1.75,-2542.5,-2520.0,0.0,0.0,2.8918454070000004,5.497222099349732E-4,0.0,1.3300000429153442,1.2999999523162842,0.03999999910593033,0.00274658203125,0.03143310546875,1.07421875,31.93000030517578,0.0,-21.0,0.02435302734375,0.0914154052734375,Closing,0.0,0.0,33228.0,0.0,0.0,0.0,0.0,0.0,
2.5902880000000006,0.0,0.0,6023.0,1.0,2490.0,2520.0,0.0,0.0,3.825683202,5.515555432273284E-4,0.0,-6004.0,1.0,-2497.5,-2520.0,0.0,0.0,1.859130669,5.498888765979145E-4,0.0,5860.0,2.125,2467.5,2520.0,0.0,0.0,4.940185041,5.504444321410524E-4,0.0,-6048.0,1.75,-2542.5,-2520.0,0.0,0.0,2.889404001,5.497222099349732E-4,0.0,1.3300000429153442,1.2999999523162842,0.029999999329447746,0.02313232421875,0.05023193359375,0.9676513671875,31.93000030517578,0.0,1.0,0.0242919921875,0.0915069580078125,Closing,0.0,0.0,33228.0,0.0,0.0,0.0,0.0,0.0,
2.6156219999999992,0.0,0.0,6023.0,1.0,2482.5,2520.0,0.0,0.0,3.824462499,4.136666574204962E-4,0.0,-6004.0,1.0,-2490.0,-2520.0,0.0,0.0,1.857909966,4.1241665744843584E-4,0.0,5860.0,2.375,2467.5,2520.0,0.0,0.0,4.941405744,4.1283332410578934E-4,0.0,-6048.0,1.875,-2527.5,-2520.0,0.0,0.0,2.8918454070000004,4.122916574512298E-4,0.0,1.340000033378601,1.2999999523162842,0.029999999329447746,0.03131103515625,0.0286865234375,1.0194091796875,31.93000030517578,0.0,8.0,0.0242919921875,0.0915985107421875,Closing,0.0,0.0,33228.0,0.0,0.0,0.0,0.0,0.0,
2.6497079999999986,0.0,0.0,6023.0,1.125,2475.0,2520.0,0.0,0.0,3.824462499,4.136666574204962E-4,0.0,-6004.0,1.125,-2482.5,-2520.0,0.0,0.0,1.859130669,4.1241665744843584E-4,0.0,5860.0,2.375,2475.0,2520.0,0.0,0.0,4.941405744,4.1283332410578934E-4,0.0,-6048.0,2.375,-2475.0,-2520.0,0.0,0.0,2.8930661100000004,4.122916574512298E-4,0.0,1.350000023841858,1.2899999618530273,0.029999999329447746,0.0302734375,0.0230712890625,1.02099609375,31.93000030517578,0.0,7.0,0.024261474609375,0.09173583984375,Closing,0.0,0.0,33228.0,0.0,0.0,0.0,0.0,0.0,
2.681808000000001,0.0,0.0,6422.0,1.0,2482.5,2520.0,0.0,0.125,3.824462499,4.136666574204962E-4,0.0,-6402.0,1.125,-2482.5,-2520.0,0.0,0.0,1.857909966,4.1241665744843584E-4,0.0,6259.0,2.375,2482.5,2520.0,0.0,0.0,4.942626447,4.1283332410578934E-4,0.0,-6441.0,2.625,-2452.5,-2520.0,0.0,0.0,2.8930661100000004,4.122916574512298E-4,0.0,1.350000023841858,1.2999999523162842,0.03999999910593033,0.02178955078125,0.02496337890625,0.97442626953125,31.920000076293945,0.0,-15.0,0.0242919921875,0.091796875,Closing,0.0,0.0,33228.0,0.0,0.0,0.0,0.0,0.0,
2.710463,0.0,0.0,6422.0,1.125,2490.0,2520.0,0.0,0.125,3.825683202,6.894444547179674E-4,0.0,-6402.0,1.125,-2490.0,-2520.0,0.0,0.0,1.857909966,6.873611213535898E-4,0.0,6259.0,2.125,2490.0,2520.0,0.0,0.0,4.941405744,6.880555658083823E-4,0.0,-6441.0,2.5,-2467.5,-2520.0,0.0,0.0,2.882079783,6.871527880171521E-4,0.0,1.340000033378601,1.2999999523162842,0.05000000074505806,0.04949951171875,0.04730224609375,1.06341552734375,31.920000076293945,0.0,25.0,0.024322509765625,0.091796875,Closing,0.0,0.0,33228.0,0.0,0.0,0.0,0.0,0.0,
2.7424140000000006,0.0,0.0,6422.0,1.0,2505.0,2520.0,0.0,0.125,3.823241796,6.894444547179674E-4,0.0012207030000004337,-6402.0,1.125,-2490.0,-2520.0,0.0,0.0,1.857909966,6.873611213535898E-4,0.0,6259.0,2.125,2497.5,2520.0,0.0,0.0,4.942626447,6.880555658083823E-4,-0.0012207029999995456,-6441.0,2.375,-2482.5,-2520.0,0.0,0.0,2.8918454070000004,6.871527880171521E-4,0.0012207029999999897,1.350000023841858,1.2899999618530273,0.05000000074505806,-0.00726318359375,-0.0174560546875,1.00006103515625,31.920000076293945,0.0,-29.0,0.0244140625,0.0918426513671875,Closing,0.0,0.0,33228.0,0.0,0.0,0.0,0.0,0.0,
2.7719559999999985,0.0,0.0,6422.0,0.625,2512.5,1260.0,0.0,0.0,3.8293453110000004,6.894444547179674E-4,0.0,-6402.0,1.0,-2505.0,-1260.0,0.0,0.0,1.860351372,6.873611213535898E-4,0.0,6259.0,2.0,2505.0,1260.0,0.0,0.0,4.941405744,6.880555658083823E-4,0.0,-6441.0,1.625,-2527.5,-1260.0,0.0,0.0,2.882079783,6.871527880171521E-4,0.0,1.350000023841858,1.2799999713897705,0.05000000074505806,-0.00372314453125,0.04217529296875,0.99176025390625,31.920000076293945,0.0,-25.0,0.0244140625,0.0917816162109375,Closing,0.0,0.0,33228.0,0.0,0.0,0.0,0.0,0.0,
2.8057710000000005,0.0,0.0,6801.0,0.25,2482.5,1260.0,0.0,0.0,3.854980074,6.894444547179674E-4,0.008544921000000372,-6786.0,0.5,-2482.5,-1260.0,0.0,0.0,1.854247857,6.873611213535898E-4,0.0,6646.0,1.125,2490.0,1260.0,0.0,0.0,4.941405744,6.880555658083823E-4,-0.0012207029999995456,-6810.0,1.0,-2490.0,-1260.0,0.0,0.0,2.857665723,6.871527880171521E-4,-0.009765624000000361,1.350000023841858,1.2799999713897705,0.05999999865889549,0.05145263671875,0.02606201171875,0.9747314453125,31.920000076293945,0.0,29.0,0.0243072509765625,0.0917816162109375,Closing,0.0,0.0,33228.0,0.0,0.0,0.0,0.0,0.0,
2.833451000000001,0.0,0.0,6801.0,0.0,2197.5,1260.0,0.0,0.0,3.8403316380000003,8.273333148409924E-4,-4.9493515640000005,-6786.0,0.0,-2250.0,-1260.0,0.0,0.0,1.8444822330000001,8.248333148968717E-4,-0.009765623999999917,6646.0,0.0,2287.5,1260.0,0.0,0.0,4.942626447,8.256666482115787E-4,0.0,-6810.0,0.0,-2062.5,-1260.0,0.0,0.0,2.8515622080000003,8.245833149024596E-4,4.92308594,1.3600000143051147,1.2799999713897705,0.05000000074505806,-0.0328369140625,-0.0150146484375,0.96783447265625,31.920000076293945,0.0,-54.0,0.024200439453125,0.0919342041015625,Closing,0.0,0.0,33228.0,0.0,0.0,0.0,0.0,0.0,
2.8639650000000003,0.0,0.0,6801.0,0.125,1935.0,1260.0,0.0,0.0,3.8476558560000003,6.894444547179674E-4,0.0,-6786.0,0.0,-2010.0,-1260.0,0.0,0.0,1.8444822330000001,6.873611213535898E-4,0.0,6646.0,0.0,2070.0,1260.0,0.0,0.0,4.942626447,6.880555658083823E-4,0.0,-6810.0,0.625,-1710.0,-1260.0,0.0,0.0,2.884521189,6.871527880171521E-4,0.0,1.350000023841858,1.2799999713897705,0.05000000074505806,0.02984619140625,0.00616455078125,1.0142822265625,31.920000076293945,0.0,7.0,0.0240020751953125,0.092010498046875,Closing,0.0,0.0,33228.0,0.0,0.0,0.0,0.0,0.0,
2.8943489999999983,0.0,0.0,6801.0,0.25,1627.5,1260.0,0.0,0.0,3.8427730440000003,6.894444547179674E-4,0.0,-6786.0,0.0,-1725.0,-1260.0,0.0,0.0,1.8432615300000001,6.873611213535898E-4,0.004882811999999959,6646.0,1.0,1530.0,1260.0,0.0,0.0,4.940185041,6.880555658083823E-4,0.0,-6810.0,3.375,-1095.0,-1260.0,0.0,0.0,2.8918454070000004,6.871527880171521E-4,-4.914541019,1.350000023841858,1.2799999713897705,0.05000000074505806,0.03082275390625,-0.0201416015625,1.01922607421875,31.920000076293945,0.0,7.0,0.0240020751953125,0.09197998046875,Closing,0.0,0.0,33228.0,0.0,0.0,0.0,0.0,0.0,
2.926857,0.0,0.0,6974.0,1.75,1147.5,1260.0,0.0,0.0,3.8391109350000003,6.894444547179674E-4,0.0,-6967.0,1.125,-1222.5,-1260.0,0.0,0.0,1.8432615300000001,6.873611213535898E-4,0.0,6838.0,2.0,1297.5,1260.0,0.0,0.0,4.940185041,6.880555658083823E-4,0.0,-6986.0,4.25,-1012.5,-1260.0,0.0,0.0,2.8918454070000004,6.871527880171521E-4,0.0,1.3300000429153442,1.2699999809265137,0.05999999865889549,0.01129150390625,-0.00714111328125,1.01458740234375,31.920000076293945,0.0,-11.0,0.0240478515625,0.091766357421875,Closing,0.0,0.0,33228.0,0.0,0.0,0.0,0.0,0.0,
2.954197,0.0,0.0,6974.0,2.625,1065.0,1260.0,0.0,0.0,3.8293453110000004,8.273333148409924E-4,4.955455079000001,-6967.0,2.125,-1110.0,-1260.0,0.0,0.0,1.859130669,8.248333148968717E-4,0.009765623999999917,6838.0,3.625,1162.5,1260.0,0.0,0.0,4.938964338,8.256666482115787E-4,-0.0012207029999995456,-6986.0,4.0,-1132.5,-1260.0,0.0,0.0,2.8918454070000004,8.245833149024596E-4,0.0,1.309999942779541,1.2799999713897705,0.05999999865889549,0.00762939453125,-0.01654052734375,0.948974609375,31.920000076293945,0.0,-13.0,0.0240631103515625,0.0915374755859375,Closing,0.0,0.0,33228.0,0.0,0.0,0.0,0.0,0.0,
2.988922999999999,0.0,0.0,6974.0,2.5,1200.0,1260.0,0.0,0.0,3.8342281230000004,8.273333148409924E-4,-0.004882811999999959,-6967.0,2.5,-1170.0,-1260.0,0.0,0.0,1.857909966,8.248333148968717E-4,0.004882811999999959,6838.0,3.625,1200.0,1260.0,0.0,0.0,4.941405744,8.256666482115787E-4,0.0,-6986.0,1.25,-1590.0,-1260.0,0.0,0.0,2.888183298,8.245833149024596E-4,0.0,1.3200000524520874,1.2599999904632568,0.05999999865889549,0.03546142578125,0.02178955078125,1.0286865234375,31.920000076293945,0.0,12.0,0.0240631103515625,0.0913238525390625,Closing,0.0,0.0,33228.0,0.0,0.0,0.0,0.0,0.0,
3.014584999999999,0.0,0.0,6974.0,1.75,1350.0,1260.0,0.0,0.0,3.8293453110000004,8.273333148409924E-4,0.0,-6967.0,1.875,-1290.0,-1260.0,0.0,0.0,1.859130669,8.248333148968717E-4,0.0,6838.0,2.75,1320.0,1260.0,0.0,0.0,4.942626447,8.256666482115787E-4,0.0,-6986.0,0.25,-1762.5,-1260.0,0.0,0.0,2.8942868130000003,8.245833149024596E-4,0.0,1.309999942779541,1.2599999904632568,0.05999999865889549,0.03558349609375,0.06298828125,1.0125732421875,31.920000076293945,0.0,13.0,0.0240478515625,0.09124755859375,Closing,0.0,0.0,33228.0,0.0,0.0,0.0,0.0,0.0,
3.0480159999999996,0.0,0.0,7240.0,0.875,1507.5,1260.0,0.0,0.125,3.8354488260000004,8.273333148409924E-4,0.0,-7223.0,0.5,-1560.0,-1260.0,0.0,0.0,1.859130669,8.248333148968717E-4,0.0,7095.0,0.75,1575.0,1260.0,0.0,0.0,4.941405744,8.256666482115787E-4,-0.0012207029999995456,-7262.0,0.0,-1777.5,-1260.0,0.0,0.0,2.8918454070000004,8.245833149024596E-4,-0.004882812000000403,1.309999942779541,1.2799999713897705,0.05999999865889549,0.01190185546875,0.01702880859375,0.961181640625,31.920000076293945,0.0,-9.0,0.02398681640625,0.0913543701171875,Closing,0.0,0.0,33228.0,0.0,0.0,0.0,0.0,0.0,
3.075906999999999,0.0,0.0,7240.0,0.25,1687.5,1260.0,0.0,0.125,3.8354488260000004,8.273333148409924E-4,0.0,-7223.0,0.125,-1642.5,-1260.0,0.0,0.0,1.857909966,8.248333148968717E-4,0.0,7095.0,0.375,1642.5,1260.0,0.0,0.0,4.941405744,8.256666482115787E-4,0.0,-7262.0,0.125,-1635.0,-1260.0,0.0,0.0,2.8918454070000004,8.245833149024596E-4,0.0,1.3200000524520874,1.2699999809265137,0.05999999865889549,0.0394287109375,0.0140380859375,1.01373291015625,31.920000076293945,0.0,16.0,0.0239410400390625,0.0914154052734375,Closing,0.0,0.0,33228.0,0.0,0.0,0.0,0.0,0.0,
3.108778999999999,0.0,0.0,7240.0,0.125,1687.5,1260.0,0.0,0.0,3.8403316380000003,8.273333148409924E-4,0.0,-7223.0,0.0,-1627.5,-1260.0,0.0,0.0,1.857909966,8.248333148968717E-4,0.0,7095.0,0.125,1605.0,1260.0,0.0,0.0,4.942626447,8.256666482115787E-4,0.0,-7262.0,1.375,-1282.5,-1260.0,0.0,0.0,2.8918454070000004,8.245833149024596E-4,0.0012207029999999897,1.309999942779541,1.2699999809265137,0.05999999865889549,0.04058837890625,0.048583984375,1.01873779296875,31.920000076293945,0.0,17.0,0.023956298828125,0.091461181640625,Closing,0.0,0.0,33228.0,0.0,0.0,0.0,0.0,0.0,
3.138178,0.0,0.0,7240.0,0.25,1545.0,1260.0,0.0,0.0,3.818358984,8.273333148409924E-4,0.006103515000000392,-7223.0,0.0,-1560.0,-1260.0,0.0,0.0,1.859130669,8.248333148968717E-4,0.0,7095.0,0.375,1522.5,1260.0,0.0,0.0,4.940185041,8.256666482115787E-4,0.0012207029999995456,-7262.0,2.125,-1170.0,-1260.0,0.0,0.0,2.8918454070000004,8.245833149024596E-4,0.0,1.3200000524520874,1.2899999618530273,0.05999999865889549,0.00384521484375,-0.0126953125,1.0181884765625,31.920000076293945,0.0,-19.0,0.024017333984375,0.091552734375,Closing,0.0,0.0,33228.0,0.0,0.0,0.0,0.0,0.0,
3.169309000000001,0.0,0.0,7452.0,0.25,1440.0,1260.0,0.0,0.0,3.8378902320000003,8.273333148409924E-4,0.0,-7441.0,0.125,-1365.0,-1260.0,0.0,0.0,1.859130669,8.248333148968717E-4,0.0,7308.0,1.0,1335.0,1260.0,0.0,0.0,4.942626447,8.256666482115787E-4,0.0,-7457.0,2.375,-1192.5,-1260.0,0.0,0.0,2.8918454070000004,8.245833149024596E-4,0.0,1.309999942779541,1.2899999618530273,0.05999999865889549,0.03277587890625,0.04010009765625,0.98687744140625,31.920000076293945,0.0,10.0,0.0240325927734375,0.0915374755859375,Closing,0.0,0.0,33228.0,0.0,0.0,0.0,0.0,0.0,
3.2045570000000008,0.0,0.0,7452.0,0.625,1260.0,1260.0,0.0,0.0,3.8391109350000003,8.273333148409924E-4,-0.0012207030000004337,-7441.0,0.25,-1290.0,-1260.0,0.0,0.0,1.860351372,8.248333148968717E-4,0.0,7308.0,1.5,1267.5,1260.0,0.0,0.0,4.940185041,8.256666482115787E-4,0.0012207029999995456,-7457.0,1.75,-1297.5,-1260.0,0.0,0.0,2.8930661100000004,8.245833149024596E-4,0.0,1.309999942779541,1.2799999713897705,0.05999999865889549,0.02703857421875,-0.0040283203125,0.96343994140625,31.93000030517578,0.0,5.0,0.0240631103515625,0.0915069580078125,Closing,0.0,0.0,33228.0,0.0,0.0,0.0,0.0,0.0,
3.2328669999999984,0.0,0.0,7452.0,1.0,1192.5,1260.0,0.0,0.0,3.8342281230000004,8.273333148409924E-4,0.0012207030000004337,-7441.0,0.75,-1207.5,-1260.0,0.0,0.0,1.859130669,8.248333148968717E-4,0.0,7308.0,2.0,1230.0,1260.0,0.0,0.0,4.941405744,8.256666482115787E-4,0.0,-7457.0,0.5,-1492.5,-1260.0,0.0,0.0,2.9003903280000003,8.245833149024596E-4,0.0,1.309999942779541,1.2699999809265137,0.05999999865889549,0.0430908203125,0.047119140625,1.01678466796875,31.93000030517578,0.0,20.0,0.024078369140625,0.0914306640625,Closing,0.0,0.0,33228.0,0.0,0.0,0.0,0.0,0.0,
3.2629360000000016,0.0,0.0,7452.0,1.0,1215.0,1260.0,0.0,0.0,3.809814063,8.273333148409924E-4,-0.004882811999999959,-7441.0,1.0,-1215.0,-1260.0,0.0,0.0,1.859130669,8.248333148968717E-4,0.0,7308.0,1.5,1260.0,1260.0,0.0,0.0,4.940185041,8.256666482115787E-4,0.0,-7457.0,0.375,-1522.5,-1260.0,0.0,0.0,2.884521189,8.245833149024596E-4,0.0,1.3200000524520874,1.2699999809265137,0.05999999865889549,0.0235595703125,0.0142822265625,1.0164794921875,31.93000030517578,0.0,0.0,0.024078369140625,0.091339111328125,Closing,0.0,0.0,33228.0,0.0,0.0,0.0,0.0,0.0,
3.2945200000000003,0.0,0.0,7661.0,0.875,1260.0,1260.0,0.0,0.0,3.8354488260000004,8.273333148409924E-4,0.0,-7647.0,0.625,-1290.0,-1260.0,0.0,0.0,1.859130669,8.248333148968717E-4,0.0,7524.0,1.125,1350.0,1260.0,0.0,0.0,4.942626447,8.256666482115787E-4,0.0012207029999995456,-7685.0,0.5,-1410.0,-1260.0,0.0,0.0,2.886962595,8.245833149024596E-4,0.0,1.309999942779541,1.2699999809265137,0.05999999865889549,0.0179443359375,0.03338623046875,0.986083984375,31.93000030517578,0.0,-4.0,0.024078369140625,0.091339111328125,Closing,0.0,0.0,33228.0,0.0,0.0,0.0,0.0,0.0,
3.3283729999999996,0.0,0.0,7661.0,0.5,1357.5,1260.0,0.0,0.0,3.8342281230000004,8.273333148409924E-4,0.0,-7647.0,0.5,-1335.0,-1260.0,0.0,0.0,1.859130669,8.248333148968717E-4,0.0,7524.0,1.0,1387.5,1260.0,0.0,0.0,4.940185041,8.256666482115787E-4,0.0,-7685.0,0.875,-1320.0,-1260.0,0.0,0.0,2.8918454070000004,8.245833149024596E-4,0.0,1.309999942779541,1.2699999809265137,0.05999999865889549,0.0086669921875,0.02728271484375,1.037841796875,31.93000030517578,0.0,-14.0,0.024078369140625,0.091339111328125,Closing,0.0,0.0,33228.0,0.0,0.0,0.0,0.0,0.0,
3.3553539999999993,0.0,0.0,7661.0,0.375,1387.5,1260.0,0.0,0.0,3.8354488260000004,8.273333148409924E-4,0.0,-7647.0,0.25,-1372.5,-1260.0,0.0,0.0,1.859130669,8.248333148968717E-4,0.0,7524.0,0.75,1410.0,1260.0,0.0,0.0,4.938964338,8.256666482115787E-4,0.0012207029999995456,-7685.0,1.625,-1207.5,-1260.0,0.0,0.0,2.8918454070000004,8.245833149024596E-4,0.0,1.2999999523162842,1.2699999809265137,0.05999999865889549,0.0205078125,0.037841796875,1.00408935546875,31.93000030517578,0.0,-1.0,0.024078369140625,0.091339111328125,Closing,0.0,0.0,33228.0,0.0,0.0,0.0,0.0,0.0,
3.389647000000001,0.0,0.0,7661.0,0.375,1395.0,1260.0,0.0,0.0,3.8293453110000004,8.273333148409924E-4,0.0,-7647.0,0.125,-1387.5,-1260.0,0.0,0.0,1.859130669,8.248333148968717E-4,0.0,7737.0,0.5,1380.0,1260.0,0.0,0.0,4.940185041,8.256666482115787E-4,0.0,-7890.0,1.75,-1207.5,-1260.0,0.0,0.0,2.8930661100000004,8.245833149024596E-4,0.0,1.2999999523162842,1.2699999809265137,0.05999999865889549,0.0296630859375,0.02935791015625,1.016845703125,31.93000030517578,0.0,7.0,0.024017333984375,0.091339111328125,Closing,0.0,0.0,33228.0,0.0,0.0,0.0,0.0,0.0,
3.4157079999999986,0.0,0.0,7877.0,0.375,1365.0,1260.0,0.0,0.0,3.8354488260000004,8.273333148409924E-4,0.0,-7865.0,0.125,-1372.5,-1260.0,0.0,0.0,1.859130669,8.248333148968717E-4,0.0,7737.0,0.75,1350.0,1260.0,0.0,0.0,4.942626447,8.256666482115787E-4,0.0,-7890.0,1.125,-1297.5,-1260.0,0.0,0.0,2.8906247040000004,8.245833149024596E-4,0.0,1.2999999523162842,1.2699999809265137,0.05999999865889549,0.02606201171875,0.02435302734375,1.0150146484375,31.93000030517578,0.0,3.0,0.023956298828125,0.091339111328125,Closing,0.0,0.0,33228.0,0.0,0.0,0.0,0.0,0.0,
3.4487429999999986,0.0,0.0,7877.0,0.375,1297.5,1260.0,0.0,0.0,3.8281246080000004,8.273333148409924E-4,0.0012207030000004337,-7865.0,0.25,-1312.5,-1260.0,0.0,0.0,1.859130669,8.248333148968717E-4,0.0,7737.0,1.0,1282.5,1260.0,0.0,0.0,4.942626447,8.256666482115787E-4,-0.0012207029999995456,-7890.0,0.875,-1357.5,-1260.0,0.0,0.0,2.8918454070000004,8.245833149024596E-4,0.0,1.2999999523162842,1.2699999809265137,0.05999999865889549,0.0107421875,0.02496337890625,1.04620361328125,31.93000030517578,0.0,-12.0,0.0240020751953125,0.091278076171875,Closing,0.0,0.0,33228.0,0.0,0.0,0.0,0.0,0.0,
3.4759379999999984,0.0,0.0,7877.0,0.5,1267.5,1260.0,0.0,0.0,3.8366695290000004,8.273333148409924E-4,0.0,-7865.0,0.25,-1282.5,-1260.0,0.0,0.0,1.859130669,8.248333148968717E-4,0.0,7737.0,1.125,1260.0,1260.0,0.0,0.0,4.942626447,8.256666482115787E-4,0.0,-7890.0,0.625,-1387.5,-1260.0,0.0,0.0,2.8918454070000004,8.245833149024596E-4,0.0,1.309999942779541,1.2699999809265137,0.05000000074505806,0.0533447265625,-0.0081787109375,0.95965576171875,31.93000030517578,0.0,32.0,0.0240478515625,0.0912322998046875,Closing,0.0,0.0,33228.0,0.0,0.0,0.0,0.0,0.0,
3.5119900000000017,0.0,0.0,8079.0,0.5,1245.0,1260.0,0.0,0.0,3.8366695290000004,8.273333148409924E-4,0.0,-8064.0,0.5,-1245.0,-1260.0,0.0,0.0,1.857909966,8.248333148968717E-4,0.0,7942.0,1.375,1260.0,1260.0,0.0,0.0,4.938964338,8.256666482115787E-4,0.0,-8099.0,0.625,-1365.0,-1260.0,0.0,0.0,2.888183298,8.245833149024596E-4,0.0,1.309999942779541,1.2699999809265137,0.05999999865889549,0.0125732421875,0.0050048828125,0.96435546875,31.93000030517578,0.0,-8.0,0.024139404296875,0.0911712646484375,Closing,0.0,0.0,33228.0,0.0,0.0,0.0,0.0,0.0,
3.5473640000000013,0.0,0.0,8079.0,0.5,1252.5,1260.0,0.0,0.0,3.8293453110000004,8.273333148409924E-4,-0.0012207030000004337,-8064.0,0.5,-1237.5,-1260.0,0.0,0.0,1.859130669,8.248333148968717E-4,0.0,7942.0,1.125,1290.0,1260.0,0.0,0.0,4.940185041,8.256666482115787E-4,-0.0012207029999995456,-8099.0,1.125,-1275.0,-1260.0,0.0,0.0,2.8918454070000004,8.245833149024596E-4,0.0012207029999999897,1.2999999523162842,1.2599999904632568,0.05999999865889549,0.0279541015625,0.03515625,1.01263427734375,31.93000030517578,0.0,5.0,0.0240936279296875,0.0912017822265625,Closing,0.0,0.0,33228.0,0.0,0.0,0.0,0.0,0.0,
3.5731389999999994,0.0,0.0,8079.0,0.5,1290.0,1260.0,0.0,0.0,3.8391109350000003,8.273333148409924E-4,0.0,-8064.0,0.5,-1260.0,-1260.0,0.0,0.0,1.850585748,8.248333148968717E-4,0.0,7942.0,1.0,1305.0,1260.0,0.0,0.0,4.940185041,8.256666482115787E-4,0.0,-8099.0,1.25,-1237.5,-1260.0,0.0,0.0,2.886962595,8.245833149024596E-4,0.0,1.309999942779541,1.2699999809265137,0.05999999865889549,0.02685546875,0.0213623046875,0.9962158203125,31.93000030517578,0.0,4.0,0.02398681640625,0.09124755859375,Closing,0.0,0.0,33228.0,0.0,0.0,0.0,0.0,0.0,
3.6079979999999994,0.0,0.0,8079.0,0.375,1297.5,1260.0,0.0,0.0,3.826903905,8.273333148409924E-4,0.0,-8064.0,0.5,-1275.0,-1260.0,0.0,0.0,1.857909966,8.248333148968717E-4,0.0012207029999995456,7942.0,1.0,1320.0,1260.0,0.0,0.0,4.941405744,8.256666482115787E-4,0.0,-8099.0,1.375,-1230.0,-1260.0,0.0,0.0,2.8918454070000004,8.245833149024596E-4,0.0,1.309999942779541,1.2699999809265137,0.05999999865889549,-0.0050048828125,0.03076171875,1.000244140625,31.93000030517578,0.0,-27.0,0.023895263671875,0.09124755859375,Closing,0.0,0.0,33228.0,0.0,0.0,0.0,0.0,0.0,
3.6368509999999987,0.0,0.0,8290.0,0.375,1305.0,1260.0,0.0,0.0,3.8342281230000004,8.273333148409924E-4,0.0,-8275.0,0.25,-1297.5,-1260.0,0.0,0.0,1.859130669,8.248333148968717E-4,-0.0012207029999995456,8151.0,0.75,1312.5,1260.0,0.0,0.0,4.938964338,8.256666482115787E-4,0.0012207029999995456,-8306.0,1.25,-1260.0,-1260.0,0.0,0.0,2.8918454070000004,8.245833149024596E-4,0.0012207029999999897,1.309999942779541,1.2699999809265137,0.05999999865889549,0.0335693359375,0.01312255859375,1.01153564453125,31.93000030517578,0.0,11.0,0.02374267578125,0.09124755859375,Closing,0.0,0.0,33228.0,0.0,0.0,0.0,0.0,0.0,
3.6673070000000005,0.0,0.0,8290.0,0.375,1305.0,1260.0,0.0,0.0,3.8330074200000004,8.273333148409924E-4,0.0,-8275.0,0.25,-1305.0,-1260.0,0.0,0.0,1.857909966,8.248333148968717E-4,0.0,8151.0,1.0,1305.0,1260.0,0.0,0.0,4.942626447,8.256666482115787E-4,0.0,-8306.0,1.0,-1312.5,-1260.0,0.0,0.0,2.8918454070000004,8.245833149024596E-4,0.0,1.309999942779541,1.2699999809265137,0.05999999865889549,0.02191162109375,0.04205322265625,0.99603271484375,31.93000030517578,0.0,0.0,0.02374267578125,0.0913238525390625,Closing,0.0,0.0,33228.0,0.0,0.0,0.0,0.0,0.0,
3.6960550000000003,0.0,0.0,8290.0,0.375,1282.5,1260.0,0.0,0.0,3.8354488260000004,8.273333148409924E-4,0.0,-8275.0,0.25,-1297.5,-1260.0,0.0,0.0,1.857909966,8.248333148968717E-4,-0.0012207029999995456,8151.0,1.0,1275.0,1260.0,0.0,0.0,4.941405744,8.256666482115787E-4,0.0012207029999995456,-8306.0,0.75,-1327.5,-1260.0,0.0,0.0,2.8918454070000004,8.245833149024596E-4,0.0,1.3200000524520874,1.2699999809265137,0.05999999865889549,0.0291748046875,0.013671875,1.00537109375,31.940000534057617,0.0,6.0,0.02374267578125,0.0913848876953125,Closing,0.0,0.0,33228.0,0.0,0.0,0.0,0.0,0.0,
