Time,ClimberA1,ClimberA2,FRpos,FRCurrent,FRspeed,FRsetpoint,FRApos,FRACurrent,FREncpos,FREncSetpoint,FREncSpeed,FLpos,FLCurrent,FLspeed,FLsetpoint,FLApos,FLACurrent,FLEncpos,FLEncSetpoint,FLEncSpeed,BRpos,BRCurrent,BRspeed,BRsetpoint,BRApos,BRACurrent,BREncpos,BREncSetpoint,BREncSpeed,BLpos,BLCurrent,BLspeed,BLsetpoint,BLApos,BLACurrent,BLEncpos,BLEncSetpoint,BLEncSpeed,navx_Pitch,navx_Roll,navx_Yaw,navx_XAcc,navx_YAcc,navx_ZAcc,navx_Temp,navx_Bar,navx_Alt,navx_XDis,navx_YDis,GearPlacerState,ShootOutputV,ShootOutputCurrent,ShootEncPos,ShootEncVelocity,ShootSpeed,ShootSetpoint,CarouselSetpoint,CarouselCurrent,
0.13567199999999865,0.0,0.0,0.0,0.0,0.0,0.0,0.0,0.0,3.863524995,0.0,0.0,0.0,0.0,0.0,-0.0,0.0,0.0,1.9165037100000002,0.0,0.0,0.0,0.0,0.0,0.0,0.0,0.0,4.228515192000001,0.0,0.0,0.0,0.0,0.0,-0.0,0.0,0.0,2.886962595,0.0,0.0,1.2999999523162842,0.8799999952316284,-0.25,0.01959228515625,0.0233154296875,1.00579833984375,28.729999542236328,0.0,4.0,-0.0156402587890625,0.00579833984375,Closing,0.0,0.0,-10403.0,0.0,0.0,0.0,0.0,0.0,
0.1669449999999997,0.0,0.0,0.0,0.0,0.0,0.0,0.0,0.0,3.863524995,0.0,0.0,0.0,0.0,0.0,-0.0,0.0,0.0,1.9165037100000002,0.0,0.0012207029999999897,0.0,0.0,0.0,0.0,0.0,0.0,4.229735895,0.0,0.0,0.0,0.0,0.0,-0.0,0.0,0.0,2.886962595,0.0,0.0,1.2999999523162842,0.8799999952316284,-0.25,0.01458740234375,0.02301025390625,1.00836181640625,28.729999542236328,0.0,0.0,-0.0156402587890625,0.00579833984375,Closing,0.0,0.0,-10403.0,0.0,0.0,0.0,0.0,0.0,
0.19367899999999644,0.0,0.0,0.0,0.0,0.0,0.0,0.0,0.0,3.863524995,0.0,0.0012207029999999897,0.0,0.0,0.0,-0.0,0.0,0.0,1.9165037100000002,0.0,0.0012207029999999897,0.0,0.0,0.0,0.0,0.0,0.0,4.228515192000001,0.0,0.0,0.0,0.0,0.0,-0.0,0.0,0.0,2.888183298,0.0,0.0,1.2999999523162842,0.8799999952316284,-0.25,0.01654052734375,0.02392578125,1.0068359375,28.709999084472656,0.0,1.0,-0.0156402587890625,0.00579833984375,Closing,0.0,0.0,-10403.0,0.0,0.0,0.0,0.0,0.0,
0.22255900000000112,0.0,0.0,0.0,0.0,0.0,0.0,0.0,0.0,3.863524995,0.0,0.0,0.0,0.0,0.0,-0.0,0.0,0.0,1.9165037100000002,0.0,0.0,0.0,0.0,0.0,0.0,0.0,0.0,4.229735895,0.0,0.0,0.0,0.0,0.0,-0.0,0.0,0.0,2.888183298,0.0,0.0,1.2999999523162842,0.8799999952316284,-0.25,0.012451171875,0.0184326171875,1.0096435546875,28.709999084472656,0.0,-3.0,-0.0156402587890625,0.00579833984375,Closing,0.0,0.0,-10403.0,0.0,0.0,0.0,0.0,0.0,
0.2519629999999961,0.0,0.0,0.0,0.0,0.0,0.0,0.0,0.0,3.864745698,0.0,0.0,0.0,0.0,0.0,-0.0,0.0,0.0,1.9165037100000002,0.0,0.0,0.0,0.0,0.0,0.0,0.0,0.0,4.228515192000001,0.0,0.0,0.0,0.0,0.0,-0.0,0.0,0.0,2.886962595,0.0,0.0,1.2999999523162842,0.8799999952316284,-0.25,0.0157470703125,0.0211181640625,1.00714111328125,28.709999084472656,0.0,0.0,-0.0156402587890625,0.00579833984375,Closing,0.0,0.0,-10403.0,0.0,0.0,0.0,0.0,0.0,
0.27647200000000155,0.0,0.0,0.0,0.0,0.0,0.0,0.0,0.0,3.863524995,0.0,0.0,0.0,0.0,0.0,-0.0,0.0,0.0,1.9165037100000002,0.0,0.0,0.0,0.0,0.0,0.0,0.0,0.0,4.228515192000001,0.0,0.0,0.0,0.0,0.0,-0.0,0.0,0.0,2.886962595,0.0,0.0,1.2999999523162842,0.8799999952316284,-0.25,0.01348876953125,0.02392578125,1.00433349609375,28.709999084472656,0.0,-1.0,-0.0156402587890625,0.00579833984375,Closing,0.0,0.0,-10403.0,0.0,0.0,0.0,0.0,0.0,
0.3097260000000024,0.0,0.0,0.0,0.0,0.0,0.0,0.0,0.125,3.862304292,0.0,0.0,0.0,0.0,0.0,-0.0,0.0,0.0,1.9165037100000002,0.0,0.0,0.0,0.0,0.0,0.0,0.0,0.0,4.228515192000001,0.0,0.0,0.0,0.0,0.0,-0.0,0.0,0.0,2.888183298,0.0,0.0,1.2899999618530273,0.8700000047683716,-0.25,0.0166015625,0.0225830078125,1.00537109375,28.709999084472656,0.0,1.0,-0.0156402587890625,0.00579833984375,Closing,0.0,0.0,-10403.0,0.0,0.0,0.0,0.0,0.0,
0.33865699999999926,0.0,0.0,0.0,0.0,0.0,0.0,0.0,0.125,3.863524995,0.0,0.0,0.0,0.0,0.0,-0.0,0.0,0.0,1.9165037100000002,0.0,0.0,0.0,0.0,0.0,0.0,0.0,0.0,4.228515192000001,0.0,0.0,0.0,0.0,0.0,-0.0,0.0,0.0,2.886962595,0.0,0.0,1.2899999618530273,0.8700000047683716,-0.25,0.017333984375,0.01898193359375,1.00823974609375,28.709999084472656,0.0,1.0,-0.0156402587890625,0.00579833984375,Closing,0.0,0.0,-10403.0,0.0,0.0,0.0,0.0,0.0,
0.36734999999999857,0.0,0.0,0.0,0.0,0.0,0.0,0.0,0.0,3.863524995,0.0,0.0,0.0,0.0,0.0,-0.0,0.0,0.0,1.9165037100000002,0.0,0.0,0.0,0.0,0.0,0.0,0.0,0.0,4.228515192000001,0.0,0.0,0.0,0.0,0.0,-0.0,0.0,0.0,2.888183298,0.0,0.0,1.2999999523162842,0.8700000047683716,-0.25,0.01165771484375,0.021728515625,1.0118408203125,28.709999084472656,0.0,-3.0,-0.0156402587890625,0.00579833984375,Closing,0.0,0.0,-10403.0,0.0,0.0,0.0,0.0,0.0,
0.3951270000000004,0.0,0.0,0.0,0.0,0.0,0.0,0.0,0.0,3.863524995,0.0,0.0,0.0,0.0,0.0,-0.0,0.0,0.0,1.9165037100000002,0.0,0.0,0.0,0.0,0.0,0.0,0.0,0.0,4.228515192000001,0.0,0.0,0.0,0.0,0.0,-0.0,0.0,0.0,2.886962595,0.0,0.0,1.2999999523162842,0.8700000047683716,-0.25,0.0146484375,0.02276611328125,1.007568359375,28.709999084472656,0.0,0.0,-0.0156402587890625,0.00579833984375,Closing,0.0,0.0,-10403.0,0.0,0.0,0.0,0.0,0.0,
0.4253029999999999,0.0,0.0,0.0,0.0,0.0,0.0,0.0,0.0,3.863524995,0.0,-0.0012207029999999897,0.0,0.0,0.0,-0.0,0.0,0.0,1.9165037100000002,0.0,-0.0012207029999999897,0.0,0.0,0.0,0.0,0.0,0.0,4.229735895,0.0,0.0,0.0,0.0,0.0,-0.0,0.0,0.0,2.888183298,0.0,0.0,1.2999999523162842,0.8700000047683716,-0.25,0.0135498046875,0.027099609375,1.017822265625,28.709999084472656,0.0,-1.0,-0.0156402587890625,0.00579833984375,Closing,0.0,0.0,-10403.0,0.0,0.0,0.0,0.0,0.0,
0.45401400000000286,0.0,0.0,0.0,0.0,0.0,0.0,0.0,0.0,3.864745698,0.0,-0.0012207029999999897,0.0,0.0,0.0,-0.0,0.0,0.0,1.9165037100000002,0.0,-0.0012207029999999897,0.0,0.0,0.0,0.0,0.0,0.0,4.228515192000001,0.0,0.0,0.0,0.0,0.0,-0.0,0.0,0.0,2.888183298,0.0,0.0,1.2999999523162842,0.8700000047683716,-0.25,0.01373291015625,0.02362060546875,1.00994873046875,28.709999084472656,0.0,-1.0,-0.0156402587890625,0.00579833984375,Closing,0.0,0.0,-10403.0,0.0,0.0,0.0,0.0,0.0,
0.4841399999999994,0.0,0.0,0.0,0.0,0.0,0.0,0.0,0.0,3.863524995,0.0,0.0012207029999999897,0.0,0.0,0.0,-0.0,0.0,0.0,1.9165037100000002,0.0,0.0012207029999999897,0.0,0.0,0.0,0.0,0.0,0.0,4.229735895,0.0,0.0,0.0,0.0,0.0,-0.0,0.0,0.0,2.886962595,0.0,0.0,1.2999999523162842,0.8700000047683716,-0.25,0.01507568359375,0.02239990234375,1.00616455078125,28.709999084472656,0.0,0.0,-0.0156402587890625,0.00579833984375,Closing,0.0,0.0,-10403.0,0.0,0.0,0.0,0.0,0.0,
0.5115529999999999,0.0,0.0,0.0,0.0,0.0,0.0,0.0,0.0,3.863524995,0.0,0.0012207029999999897,0.0,0.0,0.0,-0.0,0.0,0.0,1.9152830070000002,0.0,0.0,0.0,0.0,0.0,0.0,0.0,0.0,4.228515192000001,0.0,0.0,0.0,0.0,0.0,-0.0,0.0,0.0,2.886962595,0.0,0.0,1.2899999618530273,0.8700000047683716,-0.25,0.019287109375,0.02655029296875,1.01019287109375,28.709999084472656,0.0,5.0,-0.0156402587890625,0.00579833984375,Closing,0.0,0.0,-10403.0,0.0,0.0,0.0,0.0,0.0,
0.5428419999999969,0.0,0.0,0.0,0.0,0.0,0.0,0.0,0.0,3.863524995,0.0,0.0,0.0,0.0,0.0,-0.0,0.0,0.0,1.9165037100000002,0.0,0.0,0.0,0.0,0.0,0.0,0.0,0.0,4.229735895,0.0,0.0,0.0,0.0,0.0,-0.0,0.0,0.0,2.888183298,0.0,0.0,1.2899999618530273,0.8700000047683716,-0.25,0.0166015625,0.02362060546875,1.01153564453125,28.709999084472656,0.0,1.0,-0.0156402587890625,0.00579833984375,Closing,0.0,0.0,-10403.0,0.0,0.0,0.0,0.0,0.0,
0.5693859999999986,0.0,0.0,0.0,0.0,0.0,0.0,0.0,0.0,3.863524995,0.0,0.0,0.0,0.0,0.0,-0.0,0.0,0.0,1.9165037100000002,0.0,0.0,0.0,0.0,0.0,0.0,0.0,0.0,4.228515192000001,0.0,0.0,0.0,0.0,0.0,-0.0,0.0,0.0,2.886962595,0.0,0.0,1.2899999618530273,0.8700000047683716,-0.25,0.01611328125,0.02032470703125,1.00799560546875,28.709999084472656,0.0,0.0,-0.0156402587890625,0.00579833984375,Closing,0.0,0.0,-10403.0,0.0,0.0,0.0,0.0,0.0,
0.5968359999999957,0.0,0.0,0.0,0.0,0.0,0.0,0.0,0.0,3.863524995,0.0,0.0,0.0,0.0,0.0,-0.0,0.0,0.0,1.9165037100000002,0.0,0.0,0.0,0.0,0.0,0.0,0.0,0.0,4.229735895,0.0,0.0,0.0,0.0,0.0,-0.0,0.0,0.0,2.886962595,0.0,0.0,1.2899999618530273,0.8700000047683716,-0.25,0.0147705078125,0.0235595703125,1.00897216796875,28.709999084472656,0.0,0.0,-0.0156402587890625,0.00579833984375,Closing,0.0,0.0,-10403.0,0.0,0.0,0.0,0.0,0.0,
0.6272229999999981,0.0,0.0,0.0,0.0,0.0,0.0,0.0,0.0,3.863524995,0.0,0.0,0.0,0.0,0.0,-0.0,0.0,0.0,1.9165037100000002,0.0,-0.0012207029999999897,0.0,0.0,0.0,0.0,0.0,0.0,4.229735895,0.0,0.0,0.0,0.0,0.0,-0.0,0.0,0.0,2.886962595,0.0,0.0,1.2899999618530273,0.8700000047683716,-0.25,0.013916015625,0.02294921875,1.004638671875,28.709999084472656,0.0,-1.0,-0.0156402587890625,0.00579833984375,Closing,0.0,0.0,-10403.0,0.0,0.0,0.0,0.0,0.0,
0.6553410000000004,0.0,0.0,0.0,0.0,0.0,0.0,0.0,0.0,3.863524995,0.0,0.0,0.0,0.0,0.0,-0.0,0.0,0.0,1.9152830070000002,0.0,-0.0012207029999999897,0.0,0.0,0.0,0.0,0.0,0.0,4.228515192000001,0.0,0.0,0.0,0.0,0.0,-0.0,0.0,0.0,2.886962595,0.0,0.0,1.2899999618530273,0.8700000047683716,-0.25,0.01513671875,0.0201416015625,1.0113525390625,28.709999084472656,0.0,0.0,-0.0156402587890625,0.00579833984375,Closing,0.0,0.0,-10403.0,0.0,0.0,0.0,0.0,0.0,
0.6830689999999958,0.0,0.0,0.0,0.0,0.0,0.0,0.0,0.125,3.863524995,0.0,-0.0024414059999999793,0.0,0.0,0.0,-0.0,0.0,0.0,1.9165037100000002,0.0,0.0,0.0,0.0,0.0,0.0,0.0,0.0,4.229735895,0.0,0.0,0.0,0.0,0.0,-0.0,0.0,0.0,2.886962595,0.0,0.0,1.2899999618530273,0.8700000047683716,-0.25,0.01922607421875,0.0457763671875,1.02593994140625,28.709999084472656,0.0,3.0,-0.0156402587890625,0.0058135986328125,Closing,0.0,0.0,-10403.0,0.0,0.0,0.0,0.0,0.0,
0.7131299999999974,0.0,0.0,0.0,0.0,0.0,0.0,0.0,0.0,3.864745698,0.0,-0.0024414059999999793,0.0,0.0,0.0,-0.0,0.0,0.0,1.9165037100000002,0.0,0.0012207029999999897,0.0,0.0,0.0,0.0,0.0,0.0,4.228515192000001,0.0,0.0,0.0,0.0,0.0,-0.0,0.0,0.0,2.888183298,0.0,0.0,1.2799999713897705,0.8700000047683716,-0.25,0.010498046875,0.03924560546875,1.04736328125,28.729999542236328,0.0,-5.0,-0.0156402587890625,0.0058746337890625,Closing,0.0,0.0,-10403.0,0.0,0.0,0.0,0.0,0.0,
0.7462059999999983,0.0,0.0,0.0,0.0,0.0,0.0,0.0,0.0,3.863524995,0.0,0.0,0.0,0.0,0.0,-0.0,0.0,0.0,1.9177244130000002,0.0,0.0012207029999999897,0.0,0.0,0.0,0.0,0.0,0.0,4.229735895,0.0,0.0,0.0,0.0,0.0,-0.0,0.0,0.0,2.886962595,0.0,0.0,1.2999999523162842,0.8799999952316284,-0.25,0.0035400390625,0.00628662109375,0.9788818359375,28.729999542236328,0.0,-11.0,-0.0156402587890625,0.0058746337890625,Closing,0.0,0.0,-10403.0,0.0,0.0,0.0,0.0,0.0,
0.7707580000000016,0.0,0.0,0.0,0.0,0.0,0.0,0.0,0.0,3.863524995,0.0,0.0024414059999999793,0.0,0.0,0.0,-0.0,0.0,0.0,1.9165037100000002,0.0,0.0,0.0,0.0,0.0,0.0,0.0,0.0,4.229735895,0.0,0.0,0.0,0.0,0.0,-0.0,0.0,0.0,2.886962595,0.0,0.0,1.309999942779541,0.8700000047683716,-0.25,-1.220703125E-4,0.0250244140625,1.02520751953125,28.729999542236328,0.0,-15.0,-0.0156097412109375,0.0058135986328125,Closing,0.0,0.0,-10403.0,0.0,0.0,0.0,0.0,0.0,
0.8014599999999992,0.0,0.0,0.0,0.0,0.0,0.0,0.0,0.0,3.864745698,0.0,0.0024414059999999793,0.0,0.0,0.0,-0.0,0.0,0.0,1.9165037100000002,0.0,0.0,0.0,0.0,0.0,0.0,0.0,0.0,4.228515192000001,0.0,0.0,0.0,0.0,0.0,-0.0,0.0,0.0,2.888183298,0.0,0.0,1.2999999523162842,0.8799999952316284,-0.25,0.0115966796875,0.0443115234375,0.99713134765625,28.729999542236328,0.0,-3.0,-0.0156097412109375,0.0056915283203125,Closing,0.0,0.0,-10403.0,0.0,0.0,0.0,0.0,0.0,
0.8321710000000021,0.0,0.0,0.0,0.0,0.0,0.0,0.0,0.0,3.863524995,0.0,-0.0012207029999999897,0.0,0.0,0.0,-0.0,0.0,0.0,1.9165037100000002,0.0,0.0,0.0,0.0,0.0,0.0,0.0,0.0,4.229735895,0.0,0.0012207029999995456,0.0,0.0,0.0,-0.0,0.0,0.0,2.886962595,0.0,0.0,1.309999942779541,0.8799999952316284,-0.25,0.0159912109375,0.00177001953125,1.0367431640625,28.729999542236328,0.0,0.0,-0.0156097412109375,0.0056610107421875,Closing,0.0,0.0,-10403.0,0.0,0.0,0.0,0.0,0.0,
0.857390999999996,0.0,0.0,0.0,0.0,0.0,0.0,0.0,0.0,3.863524995,0.0,-0.0012207029999999897,0.0,0.0,0.0,-0.0,0.0,0.0,1.9165037100000002,0.0,0.0,0.0,0.0,0.0,0.0,0.0,0.0,4.228515192000001,0.0,0.0012207029999995456,0.0,0.0,0.0,-0.0,0.0,0.0,2.886962595,0.0,0.0,1.309999942779541,0.8799999952316284,-0.25,0.0399169921875,0.02020263671875,1.00421142578125,28.729999542236328,0.0,24.0,-0.0156707763671875,0.005645751953125,Closing,0.0,0.0,-10403.0,0.0,0.0,0.0,0.0,0.0,
0.8913079999999972,0.0,0.0,0.0,0.0,0.0,0.0,0.0,0.0,3.863524995,0.0,0.0,0.0,0.0,0.0,-0.0,0.0,0.0,1.9165037100000002,0.0,-0.0012207029999999897,0.0,0.0,0.0,0.0,0.0,0.0,4.227294489,0.0,-0.0012207029999995456,0.0,0.0,0.0,-0.0,0.0,0.0,2.886962595,0.0,0.0,1.3200000524520874,0.8799999952316284,-0.25,1.220703125E-4,0.031982421875,1.0130615234375,28.729999542236328,0.0,-15.0,-0.01568603515625,0.005645751953125,Closing,0.0,0.0,-10403.0,0.0,0.0,0.0,0.0,0.0,
0.9193150000000023,0.0,0.0,0.0,0.0,0.0,0.0,0.0,0.0,3.863524995,0.0,0.0024414059999999793,0.0,0.0,0.0,-0.0,0.0,0.0,1.9165037100000002,0.0,0.0,0.0,0.0,0.0,0.0,0.0,0.0,4.228515192000001,0.0,-0.0012207030000004337,0.0,0.0,0.0,-0.0,0.0,0.0,2.886962595,0.0,0.0,1.3200000524520874,0.8700000047683716,-0.25,0.00482177734375,0.0333251953125,1.06646728515625,28.729999542236328,0.0,-11.0,-0.015655517578125,0.005645751953125,Closing,0.0,0.0,-10403.0,0.0,0.0,0.0,0.0,0.0,
0.9519799999999959,0.0,0.0,0.0,0.0,0.0,0.0,0.0,0.0,3.863524995,0.0,0.0024414059999999793,0.0,0.0,0.0,-0.0,0.0,0.0,1.9165037100000002,0.0,0.0,0.0,0.0,0.0,0.0,0.0,0.0,4.229735895,0.0,-0.0012207030000004337,0.0,0.0,0.0,-0.0,0.0,0.0,2.886962595,0.0,0.0,1.340000033378601,0.8899999856948853,-0.25,0.00750732421875,0.0167236328125,1.04376220703125,28.729999542236328,0.0,-8.0,-0.0156402587890625,0.005706787109375,Closing,0.0,0.0,-10403.0,0.0,0.0,0.0,0.0,0.0,
0.9790679999999993,0.0,0.0,0.0,0.0,0.0,0.0,0.0,0.0,3.863524995,0.0,-0.0012207029999999897,0.0,0.0,0.0,-0.0,0.0,0.0,1.9165037100000002,0.0,0.0012207029999999897,0.0,0.0,0.0,0.0,0.0,0.0,4.228515192000001,0.0,0.0012207030000004337,0.0,0.0,0.0,-0.0,0.0,0.0,2.886962595,0.0,0.0,1.3300000429153442,0.8799999952316284,-0.25,0.033203125,-0.02130126953125,0.97198486328125,28.729999542236328,0.0,18.0,-0.0156402587890625,0.005767822265625,Closing,0.0,0.0,-10403.0,0.0,0.0,0.0,0.0,0.0,
1.0093819999999978,0.0,0.0,0.0,0.0,0.0,0.0,0.0,0.0,3.863524995,0.0,-0.0012207029999999897,0.0,0.0,0.0,-0.0,0.0,0.0,1.9165037100000002,0.0,0.0012207029999999897,0.0,0.0,0.0,0.0,0.0,0.0,4.229735895,0.0,0.0012207030000004337,0.0,0.0,0.0,-0.0,0.0,0.0,2.888183298,0.0,0.0,1.3300000429153442,0.8700000047683716,-0.25,-0.0084228515625,-0.00506591796875,1.0552978515625,28.729999542236328,0.0,-24.0,-0.0156707763671875,0.00579833984375,Closing,0.0,0.0,-10403.0,0.0,0.0,0.0,0.0,0.0,
1.0371929999999994,0.0,0.0,0.0,0.0,0.0,0.0,0.0,0.0,3.862304292,0.0,0.0,0.0,0.0,0.0,-0.0,0.0,0.0,1.9165037100000002,0.0,0.0,0.0,0.0,0.0,0.0,0.0,0.0,4.229735895,0.0,0.0,0.0,0.0,0.0,-0.0,0.0,0.0,2.886962595,0.0,0.0,1.340000033378601,0.8600000143051147,-0.25,-0.0067138671875,0.0260009765625,1.0089111328125,28.729999542236328,0.0,-22.0,-0.0157623291015625,0.005828857421875,Closing,0.0,0.0,-10403.0,0.0,0.0,0.0,0.0,0.0,
1.068036,0.0,0.0,0.0,0.0,0.0,0.0,0.0,0.125,3.863524995,0.0,0.0,0.0,0.0,0.0,-0.0,0.0,0.0,1.9165037100000002,0.0,0.0,0.0,0.0,0.0,0.0,0.0,0.0,4.229735895,0.0,0.0,0.0,0.0,0.0,-0.0,0.0,0.0,2.886962595,0.0,0.0,1.3600000143051147,0.8899999856948853,-0.25,-0.03314208984375,0.05230712890625,1.0032958984375,28.729999542236328,0.0,-48.0,-0.0158843994140625,0.005859375,Closing,0.0,0.0,-10403.0,0.0,0.0,0.0,0.0,0.0,
1.0954899999999979,0.0,0.0,0.0,0.0,0.0,0.0,0.0,0.0,3.863524995,0.0,0.0,0.0,0.0,0.0,-0.0,0.0,0.0,1.9165037100000002,0.0,0.0,0.0,0.0,0.0,0.0,0.0,0.0,4.237060113,0.0,0.0,0.0,0.0,0.0,-0.0,0.0,0.0,2.886962595,0.0,0.0,1.3600000143051147,0.8899999856948853,-0.25,-0.00177001953125,0.04901123046875,0.98138427734375,28.729999542236328,0.0,-17.0,-0.0161285400390625,0.0057525634765625,Closing,0.0,0.0,-10403.0,0.0,0.0,0.0,0.0,0.0,
1.1249850000000006,0.0,0.0,0.0,0.0,0.0,0.0,0.0,0.0,3.863524995,0.0,0.0012207029999999897,0.0,0.0,0.0,-0.0,0.0,0.0,1.9177244130000002,0.0,-0.0012207029999999897,0.0,0.0,0.0,0.0,0.0,0.0,4.229735895,0.0,-0.0012207030000004337,0.0,0.0,0.0,-0.0,0.0,0.0,2.886962595,0.0,0.0,1.340000033378601,0.8899999856948853,-0.25,0.0384521484375,0.00592041015625,1.011474609375,28.729999542236328,0.0,22.0,-0.0164794921875,0.0055694580078125,Closing,0.0,0.0,-10403.0,0.0,0.0,0.0,0.0,0.0,
1.1547790000000022,0.0,0.0,0.0,0.0,0.0,0.0,0.0,0.0,3.863524995,0.0,0.0012207029999999897,0.0,0.0,0.0,-0.0,0.0,0.0,1.9165037100000002,0.0,-0.0012207029999999897,0.0,0.0,0.0,0.0,0.0,0.0,4.229735895,0.0,-0.0012207030000004337,0.0,0.0,0.0,-0.0,0.0,0.0,2.886962595,0.0,0.0,1.340000033378601,0.8700000047683716,-0.25,0.026611328125,0.02783203125,1.02325439453125,28.729999542236328,0.0,10.0,-0.016632080078125,0.0055694580078125,Closing,0.0,0.0,-10403.0,0.0,0.0,0.0,0.0,0.0,
1.190464,0.0,0.0,0.0,0.0,0.0,0.0,0.0,0.0,3.864745698,0.0,-0.0012207029999999897,0.0,0.0,0.0,-0.0,0.0,0.0,1.9165037100000002,0.0,0.0,0.0,0.0,0.0,0.0,0.0,0.0,4.228515192000001,0.0,0.0012207030000004337,0.0,0.0,0.0,-0.0,0.0,0.0,2.888183298,0.0,0.0,1.350000023841858,0.8799999952316284,-0.25,-8.544921875E-4,0.0340576171875,1.00146484375,28.729999542236328,0.0,-16.0,-0.0165863037109375,0.0056304931640625,Closing,0.0,0.0,-10403.0,0.0,0.0,0.0,0.0,0.0,
1.2276769999999961,0.0,0.0,0.0,0.0,0.0,0.0,0.0,0.0,3.863524995,0.0,0.0,0.0,0.0,0.0,-0.0,0.0,0.0,1.9177244130000002,0.0,0.0012207029999999897,0.0,0.0,0.0,0.0,0.0,0.0,4.228515192000001,0.0,0.0,0.0,0.0,0.0,-0.0,0.0,0.0,2.886962595,0.0,0.0,1.340000033378601,0.8799999952316284,-0.25,0.01300048828125,0.03515625,1.012939453125,28.739999771118164,0.0,-2.0,-0.016571044921875,0.0056915283203125,Closing,0.0,0.0,-10403.0,0.0,0.0,0.0,0.0,0.0,
1.254709999999999,0.0,0.0,0.0,0.0,0.0,0.0,0.0,0.0,3.863524995,0.0,0.0,0.0,0.0,0.0,-0.0,0.0,0.0,1.9165037100000002,0.0,0.0012207029999999897,0.0,0.0,0.0,0.0,0.0,0.0,4.2333980040000005,0.0,0.0,0.0,0.0,0.0,-0.0,0.0,0.0,2.886962595,0.0,0.0,1.340000033378601,0.8899999856948853,-0.25,-0.00537109375,0.00994873046875,1.007080078125,28.739999771118164,0.0,-20.0,-0.0165863037109375,0.0056915283203125,Closing,0.0,0.0,-10403.0,0.0,0.0,0.0,0.0,0.0,
1.2849950000000026,0.0,0.0,0.0,0.0,0.0,0.0,0.0,0.0,3.862304292,0.0,-0.0012207029999999897,0.0,0.0,0.0,-0.0,0.0,0.0,1.9165037100000002,0.0,-0.0012207029999999897,0.0,0.0,0.0,0.0,0.0,0.0,4.228515192000001,0.0,0.0,0.0,0.0,0.0,-0.0,0.0,0.0,2.886962595,0.0,0.0,1.309999942779541,0.8799999952316284,-0.25,-0.0155029296875,0.06451416015625,0.99078369140625,28.739999771118164,0.0,-31.0,-0.0165252685546875,0.0056304931640625,Closing,0.0,0.0,-10403.0,0.0,0.0,0.0,0.0,0.0,
1.3113269999999975,0.0,0.0,0.0,0.0,0.0,0.0,0.0,0.0,3.863524995,0.0,-0.0012207029999999897,0.0,0.0,0.0,-0.0,0.0,0.0,1.9165037100000002,0.0,0.0012207029999999897,0.0,0.0,0.0,0.0,0.0,0.0,4.228515192000001,0.0,0.0,0.0,0.0,0.0,-0.0,0.0,0.0,2.886962595,0.0,0.0,1.3200000524520874,0.8600000143051147,-0.25,0.0291748046875,0.0625,1.05859375,28.739999771118164,0.0,12.0,-0.0164031982421875,0.005645751953125,Closing,0.0,0.0,-10403.0,0.0,0.0,0.0,0.0,0.0,
1.3415619999999981,0.0,0.0,0.0,0.0,0.0,0.0,0.0,0.0,3.863524995,0.0,0.0012207029999999897,0.0,0.0,0.0,-0.0,0.0,0.0,1.9177244130000002,0.0,0.0012207029999999897,0.0,0.0,0.0,0.0,0.0,0.0,4.229735895,0.0,0.0012207029999995456,0.0,0.0,0.0,-0.0,0.0,0.0,2.886962595,0.0,0.0,1.3300000429153442,0.8700000047683716,-0.25,0.00390625,0.01361083984375,1.01727294921875,28.739999771118164,0.0,-11.0,-0.0164031982421875,0.0057373046875,Closing,0.0,0.0,-10403.0,0.0,0.0,0.0,0.0,0.0,
1.370315999999999,0.0,0.0,0.0,0.0,0.0,0.0,0.0,0.0,3.863524995,0.0,0.0,0.0,0.0,0.0,-0.0,0.0,0.0,1.9165037100000002,0.0,0.0,0.0,0.0,0.0,0.0,0.0,0.0,4.228515192000001,0.0,-0.0012207029999995456,0.0,0.0,0.0,-0.0,0.0,0.0,2.886962595,0.0,0.0,1.3300000429153442,0.8700000047683716,-0.25,0.0052490234375,-0.0067138671875,1.0001220703125,28.739999771118164,0.0,-9.0,-0.0164031982421875,0.005706787109375,Closing,0.0,0.0,-10403.0,0.0,0.0,0.0,0.0,0.0,
1.398720000000001,0.0,0.0,0.0,0.0,0.0,0.0,0.0,0.125,3.864745698,0.0,0.0,0.0,0.0,0.0,-0.0,0.0,0.0,1.9152830070000002,0.0,0.0,0.0,0.0,0.0,0.0,0.0,0.0,4.228515192000001,0.0,-0.0012207029999995456,0.0,0.0,0.0,-0.0,0.0,0.0,2.888183298,0.0,0.0,1.340000033378601,0.8700000047683716,-0.25,-0.01336669921875,0.01837158203125,0.9984130859375,28.739999771118164,0.0,-28.0,-0.0164337158203125,0.0056304931640625,Closing,0.0,0.0,-10403.0,0.0,0.0,0.0,0.0,0.0,
1.429411,0.0,0.0,0.0,0.0,0.0,0.0,0.0,0.125,3.863524995,0.0,0.0,0.0,0.0,0.0,-0.0,0.0,0.0,1.9165037100000002,0.0,0.0,0.0,0.0,0.0,0.0,0.0,0.0,4.229735895,0.0,0.0,0.0,0.0,0.0,-0.0,0.0,0.0,2.886962595,0.0,0.0,1.3200000524520874,0.8700000047683716,-0.25,-0.017822265625,-0.01043701171875,1.0037841796875,28.739999771118164,0.0,-32.0,-0.016448974609375,0.00543212890625,Closing,0.0,0.0,-10403.0,0.0,0.0,0.0,0.0,0.0,
1.4563050000000002,0.0,0.0,0.0,0.0,0.0,0.0,0.0,0.125,3.863524995,0.0,0.0,0.0,0.0,0.0,-0.0,0.0,0.0,1.9165037100000002,0.0,0.0,0.0,0.0,0.0,0.0,0.0,0.0,4.228515192000001,0.0,0.0,0.0,0.0,0.0,-0.0,0.0,0.0,2.886962595,0.0,0.0,1.3200000524520874,0.8700000047683716,-0.25,0.02301025390625,0.003662109375,0.96630859375,28.739999771118164,0.0,8.0,-0.0165252685546875,0.0052642822265625,Closing,0.0,0.0,-10403.0,0.0,0.0,0.0,0.0,0.0,
1.4890939999999973,0.0,0.0,0.0,0.0,0.0,0.0,0.0,0.0,3.863524995,0.0,-0.0012207029999999897,0.0,0.0,0.0,-0.0,0.0,0.0,1.9165037100000002,0.0,-0.0012207029999999897,0.0,0.0,0.0,0.0,0.0,0.0,4.228515192000001,0.0,0.0,0.0,0.0,0.0,-0.0,0.0,0.0,2.888183298,0.0,0.0,1.3300000429153442,0.8600000143051147,-0.25,0.037353515625,0.04986572265625,1.0162353515625,28.739999771118164,0.0,21.0,-0.016510009765625,0.0052032470703125,Closing,0.0,0.0,-10403.0,0.0,0.0,0.0,0.0,0.0,
1.514012999999999,0.0,0.0,0.0,0.0,0.0,0.0,0.0,0.0,3.879394134,0.0,-0.0012207029999999897,0.0,0.0,0.0,-0.0,0.0,0.0,1.9152830070000002,0.0,0.0012207029999999897,0.0,0.0,0.0,0.0,0.0,0.0,4.228515192000001,0.0,-0.0012207030000004337,0.0,0.0,0.0,-0.0,0.0,0.0,2.886962595,0.0,0.0,1.3200000524520874,0.8799999952316284,-0.25,0.03857421875,-0.01214599609375,1.0361328125,28.739999771118164,0.0,22.0,-0.0164642333984375,0.0051727294921875,Closing,0.0,0.0,-10403.0,0.0,0.0,0.0,0.0,0.0,
1.5481900000000024,0.0,0.0,0.0,0.0,0.0,0.0,0.0,0.0,3.863524995,0.0,0.0012207029999999897,0.0,0.0,0.0,-0.0,0.0,0.0,1.9165037100000002,0.0,0.0012207029999999897,0.0,0.0,0.0,0.0,0.0,0.0,4.221190974000001,0.0,-0.0012207030000004337,0.0,0.0,0.0,-0.0,0.0,0.0,2.888183298,0.0,0.0,1.3200000524520874,0.8799999952316284,-0.25,0.0272216796875,0.00628662109375,0.9957275390625,28.739999771118164,0.0,11.0,-0.0164337158203125,0.005126953125,Closing,0.0,0.0,-10403.0,0.0,0.0,0.0,0.0,0.0,
1.571979999999996,0.0,0.0,0.0,0.0,0.0,0.0,0.0,0.0,3.863524995,0.0,-0.0024414059999999793,0.0,0.0,0.0,-0.0,0.0,0.0,1.9165037100000002,0.0,0.0,0.0,0.0,0.0,0.0,0.0,0.0,4.228515192000001,0.0,0.0024414059999999793,0.0,0.0,0.0,-0.0,0.0,0.0,2.888183298,0.0,0.0,1.309999942779541,0.8799999952316284,-0.25,0.0174560546875,0.0323486328125,0.9779052734375,28.739999771118164,0.0,2.0,-0.0163421630859375,0.0050811767578125,Closing,0.0,0.0,-10403.0,0.0,0.0,0.0,0.0,0.0,
1.6034709999999976,0.0,0.0,0.0,0.0,0.0,0.0,0.0,0.0,3.863524995,0.0,-0.0024414059999999793,0.0,0.0,0.0,-0.0,0.0,0.0,1.9165037100000002,0.0,0.0,0.0,0.0,0.0,0.0,0.0,0.0,4.229735895,0.0,0.0024414059999999793,0.0,0.0,0.0,-0.0,0.0,0.0,2.888183298,0.0,0.0,1.3200000524520874,0.8799999952316284,-0.25,0.0223388671875,0.0084228515625,1.025146484375,28.739999771118164,0.0,6.0,-0.016265869140625,0.0050811767578125,Closing,0.0,0.0,-10403.0,0.0,0.0,0.0,0.0,0.0,
1.6319099999999962,0.0,0.0,0.0,0.0,0.0,0.0,0.0,0.125,3.864745698,0.0,0.0024414059999999793,0.0,0.0,0.0,-0.0,0.0,0.0,1.9165037100000002,0.0,0.0,0.0,0.0,0.0,0.0,0.0,0.0,4.229735895,0.0,-0.0012207029999995456,0.0,0.0,0.0,-0.0,0.0,0.0,2.886962595,0.0,0.0,1.3200000524520874,0.8799999952316284,-0.25,9.765625E-4,-0.00732421875,1.01812744140625,28.739999771118164,0.0,-14.0,-0.0162506103515625,0.005126953125,Closing,0.0,0.0,-10403.0,0.0,0.0,0.0,0.0,0.0,
1.659578999999998,0.0,0.0,0.0,0.0,0.0,0.0,0.0,0.0,3.864745698,0.0,0.0024414059999999793,0.0,0.0,0.0,-0.0,0.0,0.0,1.9165037100000002,0.0,0.0,0.0,0.0,0.0,0.0,0.0,0.0,4.229735895,0.0,-0.0012207029999995456,0.0,0.0,0.0,-0.0,0.0,0.0,2.888183298,0.0,0.0,1.340000033378601,0.8700000047683716,-0.25,0.0430908203125,-0.0220947265625,1.03375244140625,28.739999771118164,0.0,27.0,-0.0162353515625,0.005096435546875,Closing,0.0,0.0,-10403.0,0.0,0.0,0.0,0.0,0.0,
1.691023000000001,0.0,0.0,0.0,0.0,0.0,0.0,0.0,0.0,3.863524995,0.0,-0.0012207029999999897,0.0,0.0,0.0,-0.0,0.0,0.0,1.9165037100000002,0.0,-0.0012207029999999897,0.0,0.0,0.0,0.0,0.0,0.0,4.228515192000001,0.0,0.0,0.0,0.0,0.0,-0.0,0.0,0.0,2.888183298,0.0,0.0,1.2899999618530273,0.8500000238418579,-0.25,0.0552978515625,0.015380859375,1.02667236328125,28.739999771118164,0.0,39.0,-0.0162811279296875,0.0050048828125,Closing,0.0,0.0,-10403.0,0.0,0.0,0.0,0.0,0.0,
1.7156460000000007,0.0,0.0,0.0,0.0,0.0,0.0,0.0,0.0,3.863524995,0.0,-0.0012207029999999897,0.0,0.0,0.0,-0.0,0.0,0.0,1.9165037100000002,0.0,0.0012207029999999897,0.0,0.0,0.0,0.0,0.0,0.0,4.229735895,0.0,0.0,0.0,0.0,0.0,-0.0,0.0,0.0,2.886962595,0.0,0.0,1.2899999618530273,0.8600000143051147,-0.25,-0.0181884765625,-5.4931640625E-4,1.0125732421875,28.719999313354492,0.0,-33.0,-0.0163726806640625,0.005035400390625,Closing,0.0,0.0,-10403.0,0.0,0.0,0.0,0.0,0.0,
1.7487669999999997,0.0,0.0,0.0,0.0,0.0,0.0,0.0,0.0,3.863524995,0.0,0.0012207029999999897,0.0,0.0,0.0,-0.0,0.0,0.0,1.9165037100000002,0.0,0.0012207029999999897,0.0,0.0,0.0,0.0,0.0,0.0,4.228515192000001,0.0,0.0,0.0,0.0,0.0,-0.0,0.0,0.0,2.888183298,0.0,0.0,1.2699999809265137,0.8600000143051147,-0.25,0.0283203125,0.01959228515625,0.93975830078125,28.719999313354492,0.0,14.0,-0.016387939453125,0.005035400390625,Closing,0.0,0.0,-10403.0,0.0,0.0,0.0,0.0,0.0,
1.7742469999999957,0.0,0.0,0.0,0.0,0.0,0.0,0.0,0.0,3.864745698,0.0,0.0,0.0,0.0,0.0,-0.0,0.0,0.0,1.9165037100000002,0.0,0.0,0.0,0.0,0.0,0.0,0.0,0.0,4.228515192000001,0.0,0.0,0.0,0.0,0.0,-0.0,0.0,0.0,2.886962595,0.0,0.0,1.2599999904632568,0.8500000238418579,-0.25,0.0018310546875,0.00482177734375,1.02447509765625,28.719999313354492,0.0,-13.0,-0.0163726806640625,0.005035400390625,Closing,0.0,0.0,-10403.0,0.0,0.0,0.0,0.0,0.0,
1.805777000000002,0.0,0.0,0.0,0.0,0.0,0.0,0.0,0.0,3.864745698,0.0,0.0,0.0,0.0,0.0,-0.0,0.0,0.0,1.9165037100000002,0.0,0.0,0.0,0.0,0.0,0.0,0.0,0.0,4.229735895,0.0,0.0,0.0,0.0,0.0,-0.0,0.0,0.0,2.886962595,0.0,0.0,1.2599999904632568,0.8600000143051147,-0.25,0.0020751953125,0.013671875,0.991943359375,28.719999313354492,0.0,-12.0,-0.0163726806640625,0.005035400390625,Closing,0.0,0.0,-10403.0,0.0,0.0,0.0,0.0,0.0,
1.8313329999999988,0.0,0.0,0.0,0.0,0.0,0.0,0.0,0.0,3.864745698,0.0,0.0,0.0,0.0,0.0,-0.0,0.0,0.0,1.9165037100000002,0.0,0.0,0.0,0.0,0.0,0.0,0.0,0.0,4.228515192000001,0.0,0.0,0.0,0.0,0.0,-0.0,0.0,0.0,2.886962595,0.0,0.0,1.2599999904632568,0.8600000143051147,-0.25,0.00927734375,0.01617431640625,1.01495361328125,28.719999313354492,0.0,-5.0,-0.0163726806640625,0.005035400390625,Closing,0.0,0.0,-10403.0,0.0,0.0,0.0,0.0,0.0,
1.8605489999999991,0.0,0.0,0.0,0.0,0.0,0.0,0.0,0.0,3.863524995,0.0,0.0,0.0,0.0,0.0,-0.0,0.0,0.0,1.9165037100000002,0.0,0.0,0.0,0.0,0.0,0.0,0.0,0.0,4.228515192000001,0.0,0.0,0.0,0.0,0.0,-0.0,0.0,0.0,2.886962595,0.0,0.0,1.2599999904632568,0.8500000238418579,-0.25,0.0220947265625,0.01727294921875,0.9881591796875,28.719999313354492,0.0,7.0,-0.0163726806640625,0.005035400390625,Closing,0.0,0.0,-10403.0,0.0,0.0,0.0,0.0,0.0,
1.8910979999999982,0.0,0.0,0.0,0.0,0.0,0.0,0.0,0.0,3.864745698,0.0,-0.0012207029999999897,0.0,0.0,0.0,-0.0,0.0,0.0,1.9165037100000002,0.0,-0.0012207029999999897,0.0,0.0,0.0,0.0,0.0,0.0,4.228515192000001,0.0,0.0,0.0,0.0,0.0,-0.0,0.0,0.0,2.886962595,0.0,0.0,1.2599999904632568,0.8600000143051147,-0.25999999046325684,0.01513671875,0.0264892578125,1.010009765625,28.719999313354492,0.0,0.0,-0.0163726806640625,0.005035400390625,Closing,0.0,0.0,-10403.0,0.0,0.0,0.0,0.0,0.0,
1.9153170000000028,0.0,0.0,0.0,0.0,0.0,0.0,0.0,0.0,3.863524995,0.0,-0.0012207029999999897,0.0,0.0,0.0,-0.0,0.0,0.0,1.9165037100000002,0.0,0.0,0.0,0.0,0.0,0.0,0.0,0.0,4.228515192000001,0.0,0.0,0.0,0.0,0.0,-0.0,0.0,0.0,2.888183298,0.0,0.0,1.2599999904632568,0.8600000143051147,-0.25999999046325684,0.01556396484375,0.02374267578125,1.00140380859375,28.719999313354492,0.0,0.0,-0.0163726806640625,0.005035400390625,Closing,0.0,0.0,-10403.0,0.0,0.0,0.0,0.0,0.0,
1.9486319999999977,0.0,0.0,0.0,0.0,0.0,0.0,0.0,0.0,3.863524995,0.0,0.0,0.0,0.0,0.0,-0.0,0.0,0.0,1.9165037100000002,0.0,0.0,0.0,0.0,0.0,0.0,0.0,0.0,4.229735895,0.0,0.0,0.0,0.0,0.0,-0.0,0.0,0.0,2.888183298,0.0,0.0,1.2599999904632568,0.8500000238418579,-0.25999999046325684,0.01434326171875,0.0189208984375,1.01007080078125,28.719999313354492,0.0,0.0,-0.0163726806640625,0.005035400390625,Closing,0.0,0.0,-10403.0,0.0,0.0,0.0,0.0,0.0,
1.9730879999999962,0.0,0.0,0.0,0.0,0.0,0.0,0.0,0.0,3.862304292,0.0,0.0012207029999999897,0.0,0.0,0.0,-0.0,0.0,0.0,1.9165037100000002,0.0,0.0012207029999999897,0.0,0.0,0.0,0.0,0.0,0.0,4.228515192000001,0.0,0.0,0.0,0.0,0.0,-0.0,0.0,0.0,2.886962595,0.0,0.0,1.2599999904632568,0.8500000238418579,-0.25,0.01177978515625,0.0245361328125,1.02288818359375,28.719999313354492,0.0,-3.0,-0.0163726806640625,0.005035400390625,Closing,0.0,0.0,-10403.0,0.0,0.0,0.0,0.0,0.0,
2.0059700000000014,0.0,0.0,0.0,0.0,0.0,0.0,0.0,0.0,3.863524995,0.0,0.0012207029999999897,0.0,0.0,0.0,-0.0,0.0,0.0,1.9165037100000002,0.0,0.0012207029999999897,0.0,0.0,0.0,0.0,0.0,0.0,4.229735895,0.0,0.0,0.0,0.0,0.0,-0.0,0.0,0.0,2.886962595,0.0,0.0,1.2599999904632568,0.8500000238418579,-0.25,0.0181884765625,0.02386474609375,0.99798583984375,28.719999313354492,0.0,3.0,-0.0163726806640625,0.005035400390625,Closing,0.0,0.0,-10403.0,0.0,0.0,0.0,0.0,0.0,
2.033148000000001,0.0,0.0,0.0,0.0,0.0,0.0,0.0,0.0,3.862304292,0.0,0.0,0.0,0.0,0.0,-0.0,0.0,0.0,1.9165037100000002,0.0,0.0,0.0,0.0,0.0,0.0,0.0,0.0,4.228515192000001,0.0,0.0,0.0,0.0,0.0,-0.0,0.0,0.0,2.886962595,0.0,0.0,1.2599999904632568,0.8500000238418579,-0.25999999046325684,0.0115966796875,0.02691650390625,1.02239990234375,28.719999313354492,0.0,-3.0,-0.0163726806640625,0.005035400390625,Closing,0.0,0.0,-10403.0,0.0,0.0,0.0,0.0,0.0,
2.0627439999999986,0.0,0.0,0.0,0.0,0.0,0.0,0.0,0.0,3.863524995,0.0,0.0,0.0,0.0,0.0,-0.0,0.0,0.0,1.9165037100000002,0.0,0.0,0.0,0.0,0.0,0.0,0.0,0.0,4.228515192000001,0.0,0.0,0.0,0.0,0.0,-0.0,0.0,0.0,2.888183298,0.0,0.0,1.2599999904632568,0.8500000238418579,-0.25999999046325684,0.01483154296875,0.02288818359375,0.99359130859375,28.719999313354492,0.0,0.0,-0.0163726806640625,0.005035400390625,Closing,0.0,0.0,-10403.0,0.0,0.0,0.0,0.0,0.0,
2.092027000000002,0.0,0.0,0.0,0.0,0.0,0.0,0.0,0.0,3.863524995,0.0,-0.0012207029999999897,0.0,0.0,0.0,-0.0,0.0,0.0,1.9165037100000002,0.0,-0.0012207029999999897,0.0,0.0,0.0,0.0,0.0,0.0,4.227294489,0.0,0.0,0.0,0.0,0.0,-0.0,0.0,0.0,2.888183298,0.0,0.0,1.2699999809265137,0.8500000238418579,-0.25999999046325684,0.0189208984375,0.02569580078125,1.01849365234375,28.719999313354492,0.0,3.0,-0.0163726806640625,0.005035400390625,Closing,0.0,0.0,-10403.0,0.0,0.0,0.0,0.0,0.0,
2.11668,0.0,0.0,0.0,0.0,0.0,0.0,0.0,0.0,3.863524995,0.0,-0.0012207029999999897,0.0,0.0,0.0,-0.0,0.0,0.0,1.9165037100000002,0.0,0.0,0.0,0.0,0.0,0.0,0.0,0.0,4.228515192000001,0.0,0.0,0.0,0.0,0.0,-0.0,0.0,0.0,2.886962595,0.0,0.0,1.2699999809265137,0.8500000238418579,-0.25999999046325684,0.01507568359375,0.0223388671875,0.99517822265625,28.719999313354492,0.0,0.0,-0.0163726806640625,0.005035400390625,Closing,0.0,0.0,-10403.0,0.0,0.0,0.0,0.0,0.0,
2.1493229999999968,0.0,0.0,0.0,0.0,0.0,0.0,0.0,0.0,3.863524995,0.0,0.0,0.0,0.0,0.0,-0.0,0.0,0.0,1.9165037100000002,0.0,0.0,0.0,0.0,0.0,0.0,0.0,0.0,4.228515192000001,0.0,0.0,0.0,0.0,0.0,-0.0,0.0,0.0,2.886962595,0.0,0.0,1.2699999809265137,0.8500000238418579,-0.25999999046325684,0.0108642578125,0.02447509765625,1.01507568359375,28.719999313354492,0.0,-4.0,-0.0163726806640625,0.005035400390625,Closing,0.0,0.0,-10403.0,0.0,0.0,0.0,0.0,0.0,
2.1747330000000002,0.0,0.0,0.0,0.0,0.0,0.0,0.0,0.0,3.864745698,0.0,0.0012207029999999897,0.0,0.0,0.0,-0.0,0.0,0.0,1.9165037100000002,0.0,0.0,0.0,0.0,0.0,0.0,0.0,0.0,4.229735895,0.0,0.0,0.0,0.0,0.0,-0.0,0.0,0.0,2.888183298,0.0,0.0,1.2699999809265137,0.8500000238418579,-0.25999999046325684,0.01727294921875,0.0252685546875,1.010498046875,28.719999313354492,0.0,2.0,-0.0163726806640625,0.005035400390625,Closing,0.0,0.0,-10403.0,0.0,0.0,0.0,0.0,0.0,
2.211591999999997,0.0,0.0,0.0,0.0,0.0,0.0,0.0,0.0,3.863524995,0.0,0.0012207029999999897,0.0,0.0,0.0,-0.0,0.0,0.0,1.9165037100000002,0.0,0.0,0.0,0.0,0.0,0.0,0.0,0.0,4.229735895,0.0,0.0,0.0,0.0,0.0,-0.0,0.0,0.0,2.888183298,0.0,0.0,1.2699999809265137,0.8600000143051147,-0.25999999046325684,0.014892578125,0.02178955078125,1.0029296875,28.719999313354492,0.0,0.0,-0.0163726806640625,0.005035400390625,Closing,0.0,0.0,-10403.0,0.0,0.0,0.0,0.0,0.0,
2.2422149999999963,0.0,0.0,0.0,0.0,0.0,0.0,0.0,0.0,3.863524995,0.0,0.0,0.0,0.0,0.0,-0.0,0.0,0.0,1.9177244130000002,0.0,0.0012207029999999897,0.0,0.0,0.0,0.0,0.0,0.0,4.228515192000001,0.0,0.0,0.0,0.0,0.0,-0.0,0.0,0.0,2.888183298,0.0,0.0,1.2699999809265137,0.8500000238418579,-0.25999999046325684,0.0177001953125,0.02392578125,1.0128173828125,28.690000534057617,0.0,2.0,-0.0163726806640625,0.005035400390625,Closing,0.0,0.0,-10403.0,0.0,0.0,0.0,0.0,0.0,
2.270809000000001,0.0,0.0,0.0,0.0,0.0,0.0,0.0,0.0,3.863524995,0.0,0.0,0.0,0.0,0.0,-0.0,0.0,0.0,1.9165037100000002,0.0,0.0,0.0,0.0,0.0,0.0,0.0,0.0,4.229735895,0.0,0.0,0.0,0.0,0.0,-0.0,0.0,0.0,2.888183298,0.0,0.0,1.2699999809265137,0.8500000238418579,-0.25999999046325684,0.0166015625,0.02288818359375,1.00677490234375,28.690000534057617,0.0,1.0,-0.0163726806640625,0.005035400390625,Closing,0.0,0.0,-10403.0,0.0,0.0,0.0,0.0,0.0,
2.3070970000000015,0.0,0.0,0.0,0.0,0.0,0.0,0.0,0.0,3.864745698,0.0,0.0,0.0,0.0,0.0,-0.0,0.0,0.0,1.9165037100000002,0.0,0.0,0.0,0.0,0.0,0.0,0.0,0.0,4.229735895,0.0,0.0,0.0,0.0,0.0,-0.0,0.0,0.0,2.886962595,0.0,0.0,1.2699999809265137,0.8500000238418579,-0.25999999046325684,0.012939453125,0.02392578125,1.0087890625,28.690000534057617,0.0,-2.0,-0.0163726806640625,0.005035400390625,Closing,0.0,0.0,-10403.0,0.0,0.0,0.0,0.0,0.0,
2.3355060000000014,0.0,0.0,0.0,0.0,0.0,0.0,0.0,0.0,3.863524995,0.0,0.0,0.0,0.0,0.0,-0.0,0.0,0.0,1.9165037100000002,0.0,0.0,0.0,0.0,0.0,0.0,0.0,0.0,4.228515192000001,0.0,0.0,0.0,0.0,0.0,-0.0,0.0,0.0,2.886962595,0.0,0.0,1.2699999809265137,0.8500000238418579,-0.25999999046325684,0.0118408203125,0.02301025390625,1.0045166015625,28.690000534057617,0.0,-3.0,-0.0163726806640625,0.005035400390625,Closing,0.0,0.0,-10403.0,0.0,0.0,0.0,0.0,0.0,
2.3658349999999992,0.0,0.0,0.0,0.0,0.0,374.06249999999994,0.0,0.0,3.862304292,4.960414889020391,0.0,0.0,0.0,0.0,-374.06249999999994,0.0,0.0,1.9152830070000002,4.945425722353326,0.0,0.0,0.0,0.0,374.06249999999994,0.0,0.0,4.229735895,4.950422111242347,0.0,0.0,0.0,0.0,-374.06249999999994,0.0,0.0,2.886962595,4.943926805686619,0.0,1.2799999713897705,0.8500000238418579,-0.25999999046325684,0.01336669921875,0.02325439453125,1.01715087890625,28.690000534057617,0.0,-1.0,-0.0163726806640625,0.005035400390625,Closing,0.0,0.0,-10403.0,0.0,0.0,0.0,0.0,0.0,
2.3938240000000004,0.0,0.0,2.0,0.25,0.0,1890.0,0.0,0.0,3.867187104,4.960414889020391,-0.0012207029999999897,-1.0,0.0,0.0,-1890.0,0.0,0.0,1.9165037100000002,4.945425722353326,0.0,0.0,0.125,0.0,1890.0,0.0,0.0,4.228515192000001,4.950422111242347,0.0,-1.0,3.25,-7.5,-1890.0,0.0,0.0,2.888183298,4.943926805686619,0.0,1.2799999713897705,0.8500000238418579,-0.25999999046325684,0.01593017578125,0.0228271484375,1.006103515625,28.690000534057617,0.0,0.0,-0.0163726806640625,0.005035400390625,Closing,0.0,0.0,-10403.0,0.0,0.0,0.0,0.0,0.0,
2.4202609999999987,0.0,0.0,2.0,8.5,90.0,2362.5,0.0,0.0,3.854980074,4.960414889020391,0.0,-1.0,8.875,-60.0,-2362.5,0.0,0.0,1.936034958,4.945425722353326,0.0,0.0,9.75,45.0,2362.5,0.0,0.0,4.216308162,4.950422111242347,0.0,-1.0,9.0,-82.5,-2362.5,0.0,0.0,2.888183298,4.943926805686619,0.0,1.2799999713897705,0.8500000238418579,-0.25999999046325684,0.04791259765625,0.05938720703125,0.9991455078125,28.690000534057617,0.0,32.0,-0.0163421630859375,0.00506591796875,Closing,0.0,0.0,-10403.0,0.0,0.0,0.0,0.0,0.0,
2.451258999999998,0.0,0.0,2.0,11.5,285.0,2520.0000000000005,0.0,0.0,3.854980074,4.960414889020391,-0.0024414059999999793,-1.0,12.625,-240.0,-2520.0000000000005,0.0,0.0,1.936034958,4.945425722353326,0.019531247999999835,0.0,13.125,210.0,2520.0000000000005,0.0,0.0,4.217528865,4.950422111242347,-0.009765624000000805,-1.0,12.875,-292.5,-2520.0000000000005,0.0,0.0,2.8906247040000004,4.943926805686619,0.0,1.2799999713897705,0.8899999856948853,-0.25999999046325684,-0.02716064453125,-0.00634765625,1.00714111328125,28.690000534057617,0.0,-42.0,-0.01629638671875,0.0050506591796875,Closing,0.0,0.0,-10403.0,0.0,0.0,0.0,0.0,0.0,
2.4762640000000027,0.0,0.0,2.0,11.5,645.0,2520.0000000000005,0.0,0.0,3.858642183,4.960414889020391,0.0,-1.0,9.375,-1102.5,-2520.0000000000005,0.0,0.0,1.937255661,4.945425722353326,0.0,0.0,10.25,990.0,2520.0000000000005,0.0,0.0,4.218749568,4.950422111242347,0.0,-1.0,8.0,-1245.0,-2520.0000000000005,0.0,0.0,2.886962595,4.943926805686619,0.0,1.2799999713897705,0.8700000047683716,-0.25999999046325684,0.0233154296875,0.02606201171875,1.04412841796875,28.690000534057617,0.0,7.0,-0.016265869140625,0.0050506591796875,Closing,0.0,0.0,-10403.0,0.0,0.0,0.0,0.0,0.0,
2.5092410000000016,0.0,0.0,337.0,4.75,1725.0,2520.0000000000005,0.0,0.125,3.858642183,4.960414889020391,0.0012207029999999897,-334.0,5.0,-1702.5,-2520.0000000000005,0.0,0.0,1.931152146,4.945425722353326,-0.0012207029999999897,300.0,6.25,1530.0,2520.0000000000005,0.0,0.0,4.218749568,4.950422111242347,0.0,-354.0,3.625,-1852.5,-2520.0000000000005,0.0,0.0,2.889404001,4.943926805686619,0.0,1.2799999713897705,0.8600000143051147,-0.25999999046325684,-0.00299072265625,0.0224609375,0.95721435546875,28.690000534057617,0.0,-17.0,-0.016265869140625,0.0050506591796875,Closing,0.0,0.0,-10403.0,0.0,0.0,0.0,0.0,0.0,
2.5394179999999977,0.0,0.0,337.0,1.75,2257.5,2520.0000000000005,0.0,0.0,3.824462499,4.960414889020391,0.0,-334.0,1.25,-2257.5,-2520.0000000000005,0.0,0.0,1.927490037,4.945425722353326,-0.004882811999999959,300.0,3.625,2040.0,2520.0000000000005,0.0,0.0,4.219970271,4.950422111242347,0.0,-354.0,0.875,-2377.5,-2520.0000000000005,0.0,0.0,2.877196971,4.943926805686619,0.0,1.2699999809265137,0.8700000047683716,-0.25999999046325684,0.01263427734375,0.00457763671875,1.05877685546875,28.690000534057617,0.0,-3.0,-0.016265869140625,0.005126953125,Closing,0.0,0.0,-10403.0,0.0,0.0,0.0,0.0,0.0,
2.5684159999999974,0.0,0.0,337.0,0.0,2805.0,2520.0000000000005,0.0,0.0,3.86962851,4.960414889020391,0.007324217999999938,-334.0,0.0,-2827.5,-2520.0000000000005,0.0,0.0,1.906738086,4.945425722353326,0.0,300.0,0.0,2580.0,2520.0000000000005,0.0,0.0,4.219970271,4.950422111242347,0.0,-354.0,0.0,-2745.0,-2520.0000000000005,0.0,0.0,2.86865205,4.943926805686619,0.0,1.2699999809265137,0.8600000143051147,-0.25999999046325684,0.0233154296875,0.027099609375,1.0302734375,28.690000534057617,0.0,7.0,-0.0160980224609375,0.0051422119140625,Closing,0.0,0.0,-10403.0,0.0,0.0,0.0,0.0,0.0,
2.596479999999996,0.0,0.0,337.0,0.0,2760.0,2520.0000000000005,0.0,0.0,3.8916011640000003,4.960414889020391,0.006103514999999948,-334.0,0.0,-2767.5,-2520.0000000000005,0.0,0.0,1.8969724620000001,4.945425722353326,-0.019531248000000057,300.0,0.0,2550.0,2520.0000000000005,0.0,0.0,4.218749568,4.950422111242347,-0.0012207030000004337,-354.0,0.0,-2572.5,-2520.0000000000005,0.0,0.0,2.862548535,4.943926805686619,4.937734376,1.2799999713897705,0.8600000143051147,-0.27000001072883606,0.0789794921875,-0.0321044921875,0.98291015625,28.690000534057617,0.0,64.0,-0.0159454345703125,0.0051116943359375,Closing,0.0,0.0,-10403.0,0.0,0.0,0.0,0.0,0.0,
2.626815999999999,0.0,0.0,683.0,0.0,2565.0,2520.0000000000005,0.0,0.125,3.875732025,4.960276999852062,0.0,-674.0,0.0,-2250.0,-2520.0000000000005,0.0,0.0,1.901855274,4.945288249852508,0.0,631.0,0.5,2167.5,2520.0000000000005,0.0,0.0,4.218749568,4.950284499852359,0.0,-646.0,1.75,-1935.0,-2520.0000000000005,0.0,0.0,2.883300486,4.943789374852553,0.0,1.2799999713897705,0.8700000047683716,-0.27000001072883606,-0.0086669921875,0.06097412109375,0.97967529296875,28.690000534057617,0.0,-23.0,-0.0157012939453125,0.0050506591796875,Closing,0.0,0.0,-10403.0,0.0,0.0,0.0,0.0,0.0,
2.6541239999999964,0.0,0.0,683.0,1.0,2002.5,2520.0000000000005,0.0,0.0,3.875732025,4.960276999852062,-0.004882811999999959,-674.0,1.125,-1957.5,-2520.0000000000005,0.0,0.0,1.911620898,4.945288249852508,-4.945337891,631.0,2.125,1935.0,2520.0000000000005,0.0,0.0,4.222411677,4.950284499852359,0.0,-646.0,4.0,-1680.0,-2520.0000000000005,0.0,0.0,2.886962595,4.943789374852553,-4.927968752,1.2899999618530273,0.8700000047683716,-0.27000001072883606,0.0189208984375,0.01055908203125,0.98468017578125,28.690000534057617,0.0,3.0,-0.01544189453125,0.0051422119140625,Closing,0.0,0.0,-10403.0,0.0,0.0,0.0,0.0,0.0,
2.682040000000001,0.0,0.0,683.0,2.5,1785.0,2520.0000000000005,0.0,0.0,3.859862886,4.960276999852062,0.0,-674.0,3.125,-1725.0,-2520.0000000000005,0.0,0.0,1.927490037,4.945288249852508,0.0,631.0,4.5,1747.5,2520.0000000000005,0.0,0.0,4.219970271,4.950284499852359,0.0,-646.0,6.125,-1620.0,-2520.0000000000005,0.0,0.0,2.886962595,4.943789374852553,0.0,1.2999999523162842,0.8700000047683716,-0.27000001072883606,0.00152587890625,0.039306640625,0.99560546875,28.690000534057617,0.0,-13.0,-0.0151214599609375,0.0051422119140625,Closing,0.0,0.0,-10403.0,0.0,0.0,0.0,0.0,0.0,
2.713853000000003,0.0,0.0,683.0,4.625,1695.0,2520.0000000000005,0.0,0.0,3.858642183,4.960276999852062,-0.003662108999999969,-674.0,5.625,-1635.0,-2520.0000000000005,0.0,0.0,1.926269334,4.945288249852508,0.0,631.0,6.25,1657.5,2520.0000000000005,0.0,0.0,4.218749568,4.950284499852359,0.0,-646.0,5.25,-1807.5,-2520.0000000000005,0.0,0.0,2.886962595,4.943789374852553,0.0,1.2899999618530273,0.8700000047683716,-0.27000001072883606,-0.02374267578125,0.05133056640625,0.96917724609375,28.690000534057617,0.0,-38.0,-0.014892578125,0.0052947998046875,Closing,0.0,0.0,-10403.0,0.0,0.0,0.0,0.0,0.0,
2.7480550000000004,0.0,0.0,1011.0,4.5,1815.0,2520.0000000000005,0.0,0.0,3.858642183,4.960276999852062,0.0,-999.0,5.25,-1777.5,-2520.0000000000005,0.0,0.0,1.926269334,4.945288249852508,0.0,949.0,6.125,1770.0,2520.0000000000005,0.0,0.0,4.222411677,4.950284499852359,0.0012207030000004337,-1021.0,3.625,-2070.0,-2520.0000000000005,0.0,0.0,2.886962595,4.943789374852553,0.0,1.309999942779541,0.8600000143051147,-0.27000001072883606,0.03369140625,-0.00396728515625,1.02215576171875,28.690000534057617,0.0,18.0,-0.0148162841796875,0.0054779052734375,Closing,0.0,0.0,-10403.0,0.0,0.0,0.0,0.0,0.0,
2.773798999999999,0.0,0.0,1011.0,2.125,2220.0,2520.0000000000005,0.0,0.0,3.863524995,4.960276999852062,0.0,-999.0,2.375,-2227.5,-2520.0000000000005,0.0,0.0,1.926269334,4.945288249852508,0.0,949.0,4.125,2160.0,2520.0000000000005,0.0,0.0,4.219970271,4.950284499852359,0.0,-1021.0,0.625,-2505.0,-2520.0000000000005,0.0,0.0,2.882079783,4.943789374852553,0.0,1.2999999523162842,0.8799999952316284,-0.27000001072883606,-0.0128173828125,0.04876708984375,1.0057373046875,28.690000534057617,0.0,-28.0,-0.0148468017578125,0.00555419921875,Closing,0.0,0.0,-10403.0,0.0,0.0,0.0,0.0,0.0,
2.8087119999999994,0.0,0.0,1011.0,1.0,2415.0,2520.0000000000005,0.0,0.0,3.854980074,4.960276999852062,0.0,-999.0,1.0,-2422.5,-2520.0000000000005,0.0,0.0,1.9250486310000001,4.945288249852508,0.0,949.0,2.375,2332.5,2520.0000000000005,0.0,0.0,4.219970271,4.950284499852359,0.0,-1021.0,0.125,-2587.5,-2520.0000000000005,0.0,0.0,2.888183298,4.943789374852553,0.0,1.309999942779541,0.8700000047683716,-0.27000001072883606,0.05401611328125,-0.0045166015625,1.0184326171875,28.690000534057617,0.0,38.0,-0.0148468017578125,0.0056610107421875,Closing,0.0,0.0,-10403.0,0.0,0.0,0.0,0.0,0.0,
2.836595999999998,0.0,0.0,1011.0,0.125,2602.5,2520.0000000000005,0.0,0.0,3.861083589,4.960276999852062,0.0,-999.0,0.0,-2595.0,-2520.0000000000005,0.0,0.0,1.927490037,4.945288249852508,0.0,949.0,0.75,2490.0,2520.0000000000005,0.0,0.0,4.208983944,4.950284499852359,0.0,-1021.0,0.5,-2467.5,-2520.0000000000005,0.0,0.0,2.888183298,4.943789374852553,0.0,1.3200000524520874,0.8799999952316284,-0.2800000011920929,0.02508544921875,0.026123046875,0.98687744140625,28.690000534057617,0.0,9.0,-0.014617919921875,0.0057220458984375,Closing,0.0,0.0,-10403.0,0.0,0.0,0.0,0.0,0.0,
2.8675499999999956,0.0,0.0,1416.0,0.125,2587.5,2520.0,0.0,0.0,3.867187104,4.960139111094674,0.003662108999999969,-1398.0,0.0,-2557.5,-2520.0,0.0,0.0,1.931152146,4.9451507777613894,0.0,1335.0,0.75,2467.5,2520.0,0.0,0.0,4.219970271,4.950146888872484,0.0,-1378.0,1.125,-2332.5,-2520.0,0.0,0.0,2.882079783,4.943651944428061,0.0,1.3300000429153442,0.8899999856948853,-0.27000001072883606,0.05499267578125,9.1552734375E-4,0.99005126953125,28.690000534057617,0.0,39.0,-0.014495849609375,0.0055389404296875,Closing,0.0,0.0,-10403.0,0.0,0.0,0.0,0.0,0.0,
2.896203999999998,0.0,0.0,1416.0,0.25,2520.0,2520.0000000000005,0.0,0.0,3.868407807,4.960276999852062,0.004882811999999959,-1398.0,0.125,-2475.0,-2520.0000000000005,0.0,0.0,1.926269334,4.945288249852508,-0.0012207029999999897,1335.0,1.375,2400.0,2520.0000000000005,0.0,0.0,4.217528865,4.950284499852359,0.0,-1378.0,3.25,-2130.0,-2520.0000000000005,0.0,0.0,2.888183298,4.943789374852553,-0.0012207029999999897,1.3200000524520874,0.8999999761581421,-0.2800000011920929,-0.00335693359375,0.018310546875,1.01544189453125,28.690000534057617,0.0,-19.0,-0.0143890380859375,0.005401611328125,Closing,0.0,0.0,-10403.0,0.0,0.0,0.0,0.0,0.0,
2.926953999999998,0.0,0.0,1416.0,0.875,2332.5,2520.0000000000005,0.0,0.0,3.865966401,4.960276999852062,0.0,-1398.0,1.125,-2265.0,-2520.0000000000005,0.0,0.0,1.9152830070000002,4.945288249852508,0.0,1335.0,3.375,2227.5,2520.0000000000005,0.0,0.0,4.219970271,4.950284499852359,0.0,-1378.0,3.625,-2107.5,-2520.0000000000005,0.0,0.0,2.888183298,4.943789374852553,0.0,1.3300000429153442,0.8899999856948853,-0.27000001072883606,-0.00347900390625,0.03485107421875,0.999267578125,28.690000534057617,0.0,-19.0,-0.014068603515625,0.0052490234375,Closing,0.0,0.0,-10403.0,0.0,0.0,0.0,0.0,0.0,
2.954517999999996,0.0,0.0,1416.0,1.25,2250.0,2520.0000000000005,0.0,0.0,3.863524995,4.960276999852062,-0.004882811999999959,-1398.0,2.0,-2182.5,-2520.0000000000005,0.0,0.0,1.926269334,4.945288249852508,0.0012207029999999897,1335.0,4.375,2167.5,2520.0000000000005,0.0,0.0,4.218749568,4.950284499852359,0.0,-1378.0,3.625,-2152.5,-2520.0000000000005,0.0,0.0,2.888183298,4.943789374852553,0.0,1.3300000429153442,0.8799999952316284,-0.27000001072883606,0.026611328125,0.001708984375,0.96875,28.690000534057617,0.0,11.0,-0.014068603515625,0.0052337646484375,Closing,0.0,0.0,-10403.0,0.0,0.0,0.0,0.0,0.0,
2.985296000000002,0.0,0.0,1772.0,1.75,2205.0,2520.0000000000005,0.0,0.0,3.858642183,4.960276999852062,0.0,-1749.0,2.875,-2167.5,-2520.0000000000005,0.0,0.0,1.926269334,4.945288249852508,0.0,1692.0,4.875,2190.0,2520.0000000000005,0.0,0.0,4.219970271,4.950284499852359,0.0,-1765.0,2.375,-2355.0,-2520.0000000000005,0.0,0.0,2.884521189,4.943789374852553,0.0,1.340000033378601,0.8899999856948853,-0.2800000011920929,0.02606201171875,0.03216552734375,1.0155029296875,28.690000534057617,0.0,10.0,-0.0141448974609375,0.0052337646484375,Closing,0.0,0.0,-10403.0,0.0,0.0,0.0,0.0,0.0,
3.012877999999997,0.0,0.0,1772.0,2.125,2235.0,2520.0000000000005,0.0,0.0,3.858642183,4.960276999852062,-0.004882811999999959,-1749.0,2.625,-2220.0,-2520.0000000000005,0.0,0.0,1.937255661,4.945288249852508,0.0,1692.0,4.75,2250.0,2520.0000000000005,0.0,0.0,4.218749568,4.950284499852359,0.0,-1765.0,1.625,-2452.5,-2520.0000000000005,0.0,0.0,2.886962595,4.943789374852553,0.0,1.3300000429153442,0.8799999952316284,-0.2800000011920929,-0.00714111328125,0.01446533203125,1.0408935546875,28.690000534057617,0.0,-23.0,-0.0141754150390625,0.0052337646484375,Closing,0.0,0.0,-10403.0,0.0,0.0,0.0,0.0,0.0,
3.047044000000002,0.0,0.0,1772.0,1.875,2302.5,2520.0,0.0,0.0,3.858642183,4.960139111094674,0.0012207029999999897,-1749.0,2.125,-2302.5,-2520.0,0.0,0.0,1.926269334,4.9451507777613894,-0.0012207029999999897,1692.0,3.75,2407.5,2520.0,0.0,0.0,4.219970271,4.950146888872484,0.0,-1765.0,1.0,-2527.5,-2520.0,0.0,0.0,2.886962595,4.943651944428061,-0.0024414059999999793,1.3300000429153442,0.8799999952316284,-0.2800000011920929,0.00115966796875,0.07159423828125,1.0140380859375,28.690000534057617,0.0,-14.0,-0.014190673828125,0.0052642822265625,Closing,0.0,0.0,-10403.0,0.0,0.0,0.0,0.0,0.0,
3.072597999999998,0.0,0.0,1772.0,1.0,2452.5,2520.0,0.0,0.0,3.8513179650000002,4.960139111094674,0.0,-1749.0,1.0,-2475.0,-2520.0,0.0,0.0,1.9250486310000001,4.9451507777613894,0.0,1692.0,2.375,2467.5,2520.0,0.0,0.0,4.219970271,4.950146888872484,0.0,-1765.0,1.125,-2505.0,-2520.0,0.0,0.0,2.889404001,4.943651944428061,0.0,1.3300000429153442,0.8799999952316284,-0.27000001072883606,0.01806640625,0.03082275390625,1.02618408203125,28.690000534057617,0.0,2.0,-0.014190673828125,0.0053558349609375,Closing,0.0,0.0,-10403.0,0.0,0.0,0.0,0.0,0.0,
3.105443999999996,0.0,0.0,2179.0,0.625,2505.0,2520.0000000000005,0.0,0.0,3.85742148,4.960276999852062,-0.0012207029999999897,-2157.0,0.625,-2527.5,-2520.0000000000005,0.0,0.0,1.926269334,4.945288249852508,-0.0012207029999999897,2090.0,2.125,2490.0,2520.0000000000005,0.0,0.0,4.218749568,4.950284499852359,-0.0012207029999995456,-2147.0,1.375,-2452.5,-2520.0000000000005,0.0,0.0,2.886962595,4.943789374852553,0.0012207029999999897,1.3200000524520874,0.8799999952316284,-0.2800000011920929,0.01263427734375,-0.024169921875,0.96087646484375,28.690000534057617,0.0,-1.0,-0.014190673828125,0.00537109375,Closing,0.0,0.0,-10403.0,0.0,0.0,0.0,0.0,0.0,
3.131305999999997,0.0,0.0,2179.0,0.5,2535.0,2520.0000000000005,0.0,0.0,3.858642183,4.960276999852062,0.0,-2157.0,0.5,-2535.0,-2520.0000000000005,0.0,0.0,1.926269334,4.945288249852508,0.0,2090.0,2.125,2475.0,2520.0000000000005,0.0,0.0,4.219970271,4.950284499852359,0.0,-2147.0,2.375,-2355.0,-2520.0000000000005,0.0,0.0,2.886962595,4.943789374852553,0.0,1.2999999523162842,0.8700000047683716,-0.27000001072883606,0.03485107421875,0.01287841796875,1.03997802734375,28.690000534057617,0.0,19.0,-0.0140838623046875,0.0053253173828125,Closing,0.0,0.0,-10403.0,0.0,0.0,0.0,0.0,0.0,
3.1633770000000005,0.0,0.0,2179.0,0.5,2520.0,2520.0000000000005,0.0,0.0,3.872069916,4.960276999852062,-0.0012207029999999897,-2157.0,0.5,-2497.5,-2520.0000000000005,0.0,0.0,1.927490037,4.945288249852508,-0.0012207029999999897,2090.0,2.5,2437.5,2520.0000000000005,0.0,0.0,4.218749568,4.950284499852359,0.0,-2147.0,2.75,-2332.5,-2520.0000000000005,0.0,0.0,2.886962595,4.943789374852553,-0.0012207029999999897,1.2899999618530273,0.8700000047683716,-0.27000001072883606,-0.00860595703125,0.04022216796875,1.02239990234375,28.690000534057617,0.0,-24.0,-0.0140228271484375,0.0053253173828125,Closing,0.0,0.0,-10403.0,0.0,0.0,0.0,0.0,0.0,
3.1932649999999994,0.0,0.0,2179.0,0.625,2482.5,2520.0000000000005,0.0,0.0,3.852538668,4.960276999852062,0.004882811999999959,-2157.0,1.125,-2415.0,-2520.0000000000005,0.0,0.0,1.926269334,4.945288249852508,0.0012207029999999897,2090.0,3.375,2385.0,2520.0000000000005,0.0,0.0,4.219970271,4.950284499852359,0.0,-2147.0,2.625,-2377.5,-2520.0000000000005,0.0,0.0,2.886962595,4.943789374852553,0.0,1.309999942779541,0.8799999952316284,-0.2800000011920929,0.02276611328125,0.051025390625,1.0086669921875,28.690000534057617,0.0,7.0,-0.0139617919921875,0.005279541015625,Closing,0.0,0.0,-10403.0,0.0,0.0,0.0,0.0,0.0,
3.2254839999999967,0.0,0.0,2564.0,1.0,2415.0,2520.0,0.0,0.0,3.859862886,4.960139111094674,0.0,-2537.0,1.25,-2377.5,-2520.0,0.0,0.0,1.927490037,4.9451507777613894,0.0,2472.0,3.625,2377.5,2520.0,0.0,0.0,4.222411677,4.950146888872484,0.0,-2543.0,2.375,-2422.5,-2520.0,0.0,0.0,2.886962595,4.943651944428061,0.0,1.3200000524520874,0.8799999952316284,-0.2800000011920929,0.01458740234375,-0.008544921875,1.01043701171875,28.690000534057617,0.0,0.0,-0.0139007568359375,0.005401611328125,Closing,0.0,0.0,-10403.0,0.0,0.0,0.0,0.0,0.0,
3.2528969999999973,0.0,0.0,2564.0,1.125,2400.0,2520.0,0.0,0.0,3.85742148,4.960139111094674,-0.003662108999999969,-2537.0,1.625,-2370.0,-2520.0,0.0,0.0,1.926269334,4.9451507777613894,-0.0012207029999999897,2472.0,3.75,2385.0,2520.0,0.0,0.0,4.219970271,4.950146888872484,0.0,-2543.0,1.875,-2467.5,-2520.0,0.0,0.0,2.882079783,4.943651944428061,0.0,1.3200000524520874,0.8700000047683716,-0.2800000011920929,0.028564453125,0.02923583984375,0.99017333984375,28.709999084472656,0.0,13.0,-0.0139007568359375,0.0054168701171875,Closing,0.0,0.0,-10403.0,0.0,0.0,0.0,0.0,0.0,
3.2800089999999984,0.0,0.0,2564.0,1.25,2415.0,2520.0,0.0,0.0,3.859862886,4.960139111094674,0.0,-2537.0,1.5,-2400.0,-2520.0,0.0,0.0,1.926269334,4.9451507777613894,0.0,2472.0,3.375,2430.0,2520.0,0.0,0.0,4.218749568,4.950146888872484,0.0,-2543.0,1.625,-2520.0,-2520.0,0.0,0.0,2.888183298,4.943651944428061,0.0,1.3200000524520874,0.8799999952316284,-0.2800000011920929,0.02923583984375,0.03045654296875,1.02996826171875,28.709999084472656,0.0,13.0,-0.0137939453125,0.005401611328125,Closing,0.0,0.0,-10403.0,0.0,0.0,0.0,0.0,0.0,
3.312271999999997,0.0,0.0,2564.0,1.125,2437.5,2520.0,0.0,0.0,3.85742148,4.960139111094674,0.0,-2537.0,1.25,-2437.5,-2520.0,0.0,0.0,1.9250486310000001,4.9451507777613894,0.0,2472.0,3.0,2467.5,2520.0,0.0,0.0,4.218749568,4.950146888872484,0.0,-2543.0,1.625,-2512.5,-2520.0,0.0,0.0,2.886962595,4.943651944428061,0.004882811999999959,1.309999942779541,0.8799999952316284,-0.2800000011920929,-0.00750732421875,0.06695556640625,0.9571533203125,28.709999084472656,0.0,-22.0,-0.0137176513671875,0.0054168701171875,Closing,0.0,0.0,-10403.0,0.0,0.0,0.0,0.0,0.0,
3.3469089999999997,0.0,0.0,2965.0,1.125,2490.0,2520.0,0.0,0.0,3.858642183,4.960139111094674,0.0,-2940.0,1.0,-2505.0,-2520.0,0.0,0.0,1.926269334,4.9451507777613894,0.0,2875.0,2.5,2505.0,2520.0,0.0,0.0,4.219970271,4.950146888872484,0.0,-2937.0,1.875,-2475.0,-2520.0,0.0,0.0,2.886962595,4.943651944428061,0.0,1.3300000429153442,0.8799999952316284,-0.2800000011920929,0.0087890625,-0.01239013671875,1.00250244140625,28.709999084472656,0.0,-6.0,-0.0136260986328125,0.005645751953125,Closing,0.0,0.0,-10403.0,0.0,0.0,0.0,0.0,0.0,
3.375031999999999,0.0,0.0,2965.0,0.875,2505.0,2520.0,0.0,0.0,3.858642183,4.960139111094674,0.0,-2940.0,0.75,-2520.0,-2520.0,0.0,0.0,1.9250486310000001,4.9451507777613894,0.0,2875.0,2.375,2512.5,2520.0,0.0,0.0,4.221190974000001,4.950146888872484,0.0,-2937.0,2.375,-2437.5,-2520.0,0.0,0.0,2.889404001,4.943651944428061,0.0,1.3200000524520874,0.8799999952316284,-0.2800000011920929,-0.0067138671875,0.0037841796875,0.99993896484375,28.709999084472656,0.0,-22.0,-0.013641357421875,0.0056915283203125,Closing,0.0,0.0,-10403.0,0.0,0.0,0.0,0.0,0.0,
3.409877999999997,0.0,0.0,2965.0,0.625,2512.5,2520.0,0.0,0.0,3.85742148,4.960139111094674,-0.0012207029999999897,-2940.0,0.75,-2520.0,-2520.0,0.0,0.0,1.926269334,4.9451507777613894,0.0,2875.0,2.5,2505.0,2520.0,0.0,0.0,4.219970271,4.950146888872484,0.0,-2937.0,2.375,-2437.5,-2520.0,0.0,0.0,2.888183298,4.943651944428061,0.0,1.309999942779541,0.8700000047683716,-0.2800000011920929,0.0084228515625,0.04486083984375,1.0113525390625,28.709999084472656,0.0,-7.0,-0.013671875,0.0057220458984375,Closing,0.0,0.0,-10403.0,0.0,0.0,0.0,0.0,0.0,
3.441464,0.0,0.0,2965.0,0.625,2512.5,2520.0,0.0,0.0,3.858642183,4.960139111094674,0.0,-2940.0,0.75,-2512.5,-2520.0,0.0,0.0,1.926269334,4.9451507777613894,0.0,2875.0,2.5,2490.0,2520.0,0.0,0.0,4.219970271,4.950146888872484,0.0,-2937.0,2.375,-2475.0,-2520.0,0.0,0.0,2.889404001,4.943651944428061,0.0,1.2999999523162842,0.8700000047683716,-0.2800000011920929,-0.00311279296875,0.0198974609375,1.02252197265625,28.709999084472656,0.0,-18.0,-0.013671875,0.0058441162109375,Closing,0.0,0.0,-10403.0,0.0,0.0,0.0,0.0,0.0,
3.471106,0.0,0.0,3363.0,0.875,2490.0,2520.0,0.0,0.0,3.8977046790000003,4.960139111094674,0.0,-3336.0,1.125,-2475.0,-2520.0,0.0,0.0,1.926269334,4.9451507777613894,0.0,3269.0,3.125,2467.5,2520.0,0.0,0.0,4.218749568,4.950146888872484,0.0,-3337.0,2.0,-2497.5,-2520.0,0.0,0.0,2.886962595,4.943651944428061,0.0,1.3200000524520874,0.8799999952316284,-0.2800000011920929,0.03289794921875,0.0238037109375,1.04095458984375,28.709999084472656,0.0,16.0,-0.013671875,0.00604248046875,Closing,0.0,0.0,-10403.0,0.0,0.0,0.0,0.0,0.0,
3.506262999999999,0.0,0.0,3363.0,0.875,2482.5,2520.0,0.0,0.0,3.858642183,4.960139111094674,0.0024414059999999793,-3336.0,1.125,-2460.0,-2520.0,0.0,0.0,1.926269334,4.9451507777613894,-0.0012207029999999897,3269.0,3.375,2460.0,2520.0,0.0,0.0,4.218749568,4.950146888872484,0.0,-3337.0,1.75,-2520.0,-2520.0,0.0,0.0,2.886962595,4.943651944428061,0.0012207029999999897,1.3200000524520874,0.8899999856948853,-0.2800000011920929,0.01275634765625,0.0487060546875,0.9935302734375,28.709999084472656,0.0,-2.0,-0.0135498046875,0.0063629150390625,Closing,0.0,0.0,-10403.0,0.0,0.0,0.0,0.0,0.0,
3.5348209999999964,0.0,0.0,3363.0,1.0,2482.5,2520.0,0.0,0.0,3.856200777,4.960139111094674,0.0,-3336.0,1.25,-2460.0,-2520.0,0.0,0.0,1.926269334,4.9451507777613894,0.0,3269.0,3.75,2460.0,2520.0,0.0,0.0,4.219970271,4.950146888872484,0.0,-3337.0,1.75,-2520.0,-2520.0,0.0,0.0,2.886962595,4.943651944428061,0.0,1.3200000524520874,0.8899999856948853,-0.2800000011920929,-0.0037841796875,0.01141357421875,1.04632568359375,28.709999084472656,0.0,-20.0,-0.0135650634765625,0.0066680908203125,Closing,0.0,0.0,-10403.0,0.0,0.0,0.0,0.0,0.0,
3.568618000000002,0.0,0.0,3363.0,1.0,2490.0,2520.0,0.0,0.0,3.859862886,4.960139111094674,0.0,-3336.0,1.25,-2475.0,-2520.0,0.0,0.0,1.9250486310000001,4.9451507777613894,0.0,3269.0,3.375,2490.0,2520.0,0.0,0.0,4.218749568,4.950146888872484,0.0,-3736.0,1.875,-2505.0,-2520.0,0.0,0.0,2.888183298,4.943651944428061,0.0,1.3200000524520874,0.8899999856948853,-0.2800000011920929,-0.01336669921875,0.026611328125,0.99237060546875,28.709999084472656,0.0,-28.0,-0.013671875,0.0066680908203125,Closing,0.0,0.0,-10403.0,0.0,0.0,0.0,0.0,0.0,
3.607470000000001,0.0,0.0,3765.0,0.875,2505.0,2520.0,0.0,0.0,3.858642183,4.960139111094674,0.0,-3737.0,1.125,-2505.0,-2520.0,0.0,0.0,1.927490037,4.9451507777613894,0.0,3670.0,3.125,2497.5,2520.0,0.0,0.0,4.219970271,4.950146888872484,-0.0012207030000004337,-3736.0,2.25,-2482.5,-2520.0,0.0,0.0,2.8991696250000003,4.943651944428061,0.0012207029999999897,1.340000033378601,0.8899999856948853,-0.2800000011920929,0.0162353515625,-0.01190185546875,1.0078125,28.709999084472656,0.0,0.0,-0.0138702392578125,0.00665283203125,Closing,0.0,0.0,-10403.0,0.0,0.0,0.0,0.0,0.0,
3.6601010000000023,0.0,0.0,3765.0,0.875,2512.5,2520.0,0.0,0.0,3.859862886,4.960139111094674,0.0,-3737.0,1.0,-2527.5,-2520.0,0.0,0.0,1.926269334,4.9451507777613894,0.0,3670.0,3.0,2520.0,2520.0,0.0,0.0,4.217528865,4.950146888872484,0.0,-3736.0,2.25,-2482.5,-2520.0,0.0,0.0,2.886962595,4.943651944428061,0.0,1.340000033378601,0.8899999856948853,-0.2800000011920929,0.031005859375,0.0159912109375,1.04522705078125,28.709999084472656,0.0,14.0,-0.0138092041015625,0.006561279296875,Closing,0.0,0.0,-10403.0,0.0,0.0,0.0,0.0,0.0,
3.697559000000001,0.0,0.0,4167.0,0.875,2512.5,2520.0,0.0,0.0,3.859862886,4.960139111094674,0.0,-4139.0,1.0,-2520.0,-2520.0,0.0,0.0,1.9250486310000001,4.9451507777613894,-0.0012207029999999897,4070.0,3.125,2505.0,2520.0,0.0,0.0,4.218749568,4.950146888872484,0.0,-4139.0,2.25,-2490.0,-2520.0,0.0,0.0,2.878417674,4.943651944428061,-0.0012207029999999897,1.340000033378601,0.8899999856948853,-0.2800000011920929,0.02801513671875,0.0218505859375,1.03656005859375,28.709999084472656,0.0,11.0,-0.01385498046875,0.006561279296875,Closing,0.0,0.0,-10403.0,0.0,0.0,0.0,0.0,0.0,
3.7289190000000016,0.0,0.0,4167.0,0.875,2505.0,2520.0,0.0,0.0,3.859862886,4.960139111094674,0.0,-4139.0,1.0,-2505.0,-2520.0,0.0,0.0,1.927490037,4.9451507777613894,0.0,4070.0,3.375,2497.5,2520.0,0.0,0.0,4.218749568,4.950146888872484,0.0,-4139.0,2.0,-2512.5,-2520.0,0.0,0.0,2.886962595,4.943651944428061,0.0,1.340000033378601,0.8899999856948853,-0.2800000011920929,0.0252685546875,0.0313720703125,1.00714111328125,28.709999084472656,0.0,9.0,-0.013885498046875,0.006561279296875,Closing,0.0,0.0,-10403.0,0.0,0.0,0.0,0.0,0.0,
