Time,ClimberA1,ClimberA2,FRpos,FRCurrent,FRspeed,FRsetpoint,FRApos,FRACurrent,FREncpos,FREncSetpoint,FREncSpeed,FLpos,FLCurrent,FLspeed,FLsetpoint,FLApos,FLACurrent,FLEncpos,FLEncSetpoint,FLEncSpeed,BRpos,BRCurrent,BRspeed,BRsetpoint,BRApos,BRACurrent,BREncpos,BREncSetpoint,BREncSpeed,BLpos,BLCurrent,BLspeed,BLsetpoint,BLApos,BLACurrent,BLEncpos,BLEncSetpoint,BLEncSpeed,navx_Pitch,navx_Roll,navx_Yaw,navx_XAcc,navx_YAcc,navx_ZAcc,navx_Temp,navx_Bar,navx_Alt,navx_XDis,navx_YDis,GearPlacerState,ShootOutputV,ShootOutputCurrent,ShootEncPos,ShootEncVelocity,ShootSpeed,ShootSetpoint,CarouselSetpoint,CarouselCurrent,
0.1608090000000084,0.0,0.0,2762.0,0.0,0.0,0.0,0.0,0.0,3.7951656270000003,0.0,0.0,-2548.0,0.0,0.0,-0.0,0.0,0.0,1.7919920040000001,0.0,0.0,2380.0,0.0,0.0,0.0,0.0,0.0,4.753417482000001,0.0,0.0,-2418.0,0.0,0.0,-0.0,0.0,0.0,2.806396197,0.0,0.0,0.8899999856948853,0.27000001072883606,176.14999389648438,0.00433349609375,0.0147705078125,1.00396728515625,29.799999237060547,0.0,0.0,-0.7516326904296875,-0.264739990234375,Closing,0.0,0.0,0.0,0.0,0.0,0.0,0.0,0.0,
0.29713000000000467,0.0,0.0,2762.0,0.0,0.0,0.0,0.0,0.0,3.7976070330000002,0.0,0.0,-2548.0,0.0,0.0,-0.0,0.0,0.0,1.798095519,0.0,0.0,2380.0,0.0,0.0,0.0,0.0,0.0,4.752196779,0.0,0.0,-2418.0,0.0,0.0,-0.0,0.0,0.0,2.806396197,0.0,0.0,0.8999999761581421,0.25999999046325684,176.14999389648438,0.00628662109375,0.0162353515625,1.00811767578125,29.809999465942383,0.0,-1.0,-0.7516326904296875,-0.264739990234375,Closing,0.0,0.0,0.0,0.0,0.0,0.0,0.0,0.0,
0.44681099999998697,0.0,0.0,2762.0,0.0,0.0,0.0,0.0,0.0,3.7951656270000003,0.0,0.0,-2548.0,0.0,0.0,-0.0,0.0,0.0,1.7944334100000001,0.0,0.0,2380.0,0.0,0.0,0.0,0.0,0.0,4.753417482000001,0.0,0.0,-2418.0,0.0,0.0,-0.0,0.0,0.0,2.805175494,0.0,0.0,0.8999999761581421,0.25999999046325684,176.14999389648438,0.005615234375,0.0157470703125,1.0067138671875,29.809999465942383,0.0,4.0,-0.7516326904296875,-0.264739990234375,Closing,0.0,0.0,0.0,0.0,0.0,0.0,0.0,0.0,
0.5936300000000047,0.0,0.0,2762.0,0.0,0.0,0.0,0.0,0.0,3.7951656270000003,0.0,0.0,-2548.0,0.0,0.0,-0.0,0.0,0.0,1.795654113,0.0,0.0,2380.0,0.0,0.0,0.0,0.0,0.0,4.753417482000001,0.0,0.0,-2418.0,0.0,0.0,-0.0,0.0,0.0,2.805175494,0.0,0.0,0.8999999761581421,0.25,176.13999938964844,0.00762939453125,0.01611328125,1.0084228515625,29.809999465942383,0.0,-3.0,-0.7516326904296875,-0.264739990234375,Closing,0.0,0.0,0.0,0.0,0.0,0.0,0.0,0.0,
0.7473090000000083,0.0,0.0,2762.0,0.0,0.0,0.0,0.0,0.0,3.7951656270000003,0.0,0.0,-2548.0,0.0,0.0,-0.0,0.0,0.0,1.795654113,0.0,0.0,2380.0,0.0,0.0,0.0,0.0,0.0,4.753417482000001,0.0,0.0,-2418.0,0.0,0.0,-0.0,0.0,0.0,2.806396197,0.0,0.0,0.8999999761581421,0.25999999046325684,176.13999938964844,0.00628662109375,0.01690673828125,1.01239013671875,29.799999237060547,0.0,-1.0,-0.7516326904296875,-0.264739990234375,Closing,0.0,0.0,0.0,0.0,0.0,0.0,0.0,0.0,
0.8941999999999535,0.0,0.0,2762.0,0.0,0.0,0.0,0.0,0.0,3.7963863300000003,0.0,0.0,-2548.0,0.0,0.0,-0.0,0.0,0.0,1.799316222,0.0,0.0,2380.0,0.0,0.0,0.0,0.0,0.0,4.754638185,0.0,0.0,-2418.0,0.0,0.0,-0.0,0.0,0.0,2.805175494,0.0,0.0,0.8899999856948853,0.25999999046325684,176.13999938964844,0.006103515625,0.01495361328125,0.9974365234375,29.799999237060547,0.0,-1.0,-0.7516326904296875,-0.264739990234375,Closing,0.0,0.0,0.0,0.0,0.0,0.0,0.0,0.0,
1.0493859999999404,0.0,0.0,2762.0,0.0,0.0,0.0,0.0,0.0,3.7939449240000003,0.0,0.0,-2548.0,0.0,0.0,-0.0,0.0,0.0,1.7944334100000001,0.0,0.0,2380.0,0.0,0.0,0.0,0.0,0.0,4.753417482000001,0.0,0.0,-2418.0,0.0,0.0,-0.0,0.0,0.0,2.805175494,0.0,0.0,0.8899999856948853,0.25999999046325684,176.13999938964844,0.003662109375,0.01812744140625,1.00823974609375,29.799999237060547,0.0,1.0,-0.7516326904296875,-0.264739990234375,Closing,0.0,0.0,0.0,0.0,0.0,0.0,0.0,0.0,
1.1973000000000467,0.0,0.0,2762.0,0.0,0.0,0.0,0.0,0.0,3.7951656270000003,0.0,0.0,-2548.0,0.0,0.0,-0.0,0.0,0.0,1.795654113,0.0,0.0,2380.0,0.0,0.0,0.0,0.0,0.0,4.754638185,0.0,0.0,-2418.0,0.0,0.0,-0.0,0.0,0.0,2.805175494,0.0,0.0,0.8899999856948853,0.25,176.13999938964844,0.0047607421875,0.01141357421875,1.002685546875,29.799999237060547,0.0,0.0,-0.7516326904296875,-0.264739990234375,Closing,0.0,0.0,0.0,0.0,0.0,0.0,0.0,0.0,
1.3518869999999878,0.0,0.0,2762.0,0.0,0.0,0.0,0.0,0.0,3.7951656270000003,0.0,0.0,-2548.0,0.0,0.0,-0.0,0.0,0.0,1.795654113,0.0,0.0,2380.0,0.0,0.0,0.0,0.0,0.0,4.753417482000001,0.0,0.0,-2418.0,0.0,0.0,-0.0,0.0,0.0,2.805175494,0.0,0.0,0.8999999761581421,0.25,176.13999938964844,0.00689697265625,0.01531982421875,1.01116943359375,29.84000015258789,0.0,-2.0,-0.7516326904296875,-0.264739990234375,Closing,0.0,0.0,0.0,0.0,0.0,0.0,0.0,0.0,
1.516234999999986,0.0,0.0,2762.0,0.0,0.0,0.0,0.0,0.0,3.7927242210000003,0.0,0.0,-2548.0,0.0,0.0,-0.0,0.0,0.0,1.796874816,0.0,0.0,2380.0,0.0,0.0,0.0,0.0,0.0,4.755858888000001,0.0,0.0,-2418.0,0.0,0.0,-0.0,0.0,0.0,2.805175494,0.0,0.0,0.8999999761581421,0.25999999046325684,176.13999938964844,0.0057373046875,0.01434326171875,1.005126953125,29.84000015258789,0.0,-1.0,-0.7516326904296875,-0.264739990234375,Closing,0.0,0.0,0.0,0.0,0.0,0.0,0.0,0.0,
1.6659520000000485,0.0,0.0,2762.0,0.0,0.0,0.0,0.0,0.0,3.7951656270000003,0.0,0.0,-2548.0,0.0,0.0,-0.0,0.0,0.0,1.795654113,0.0,0.0,2380.0,0.0,0.0,0.0,0.0,0.0,4.754638185,0.0,0.0,-2418.0,0.0,0.0,-0.0,0.0,0.0,2.806396197,0.0,0.0,0.8999999761581421,0.25999999046325684,176.13999938964844,0.00445556640625,0.01458740234375,1.00311279296875,29.84000015258789,0.0,0.0,-0.7516326904296875,-0.264739990234375,Closing,0.0,0.0,0.0,0.0,0.0,0.0,0.0,0.0,
1.8127870000000113,0.0,0.0,2762.0,0.0,0.0,0.0,0.0,0.0,3.7951656270000003,0.0,0.0,-2548.0,0.0,0.0,-0.0,0.0,0.0,1.795654113,0.0,0.0,2380.0,0.0,0.0,0.0,0.0,0.0,4.754638185,0.0,0.0,-2418.0,0.0,0.0,-0.0,0.0,0.0,2.805175494,0.0,0.0,0.8999999761581421,0.25999999046325684,176.13999938964844,0.00341796875,0.01617431640625,1.00848388671875,29.81999969482422,0.0,1.0,-0.7516326904296875,-0.264739990234375,Closing,0.0,0.0,0.0,0.0,0.0,0.0,0.0,0.0,
1.961042999999947,0.0,0.0,2762.0,0.0,0.0,0.0,0.0,0.0,3.7951656270000003,0.0,0.0,-2548.0,0.0,0.0,-0.0,0.0,0.0,1.796874816,0.0,0.0,2380.0,0.0,0.0,0.0,0.0,0.0,4.754638185,0.0,0.0,-2418.0,0.0,0.0,-0.0,0.0,0.0,2.805175494,0.0,0.0,0.8999999761581421,0.25,176.13999938964844,0.00567626953125,0.01617431640625,1.00299072265625,29.81999969482422,0.0,-1.0,-0.7516326904296875,-0.264739990234375,Closing,0.0,0.0,0.0,0.0,0.0,0.0,0.0,0.0,
2.113238000000012,0.0,0.0,2762.0,0.0,0.0,0.0,0.0,0.0,3.7951656270000003,0.0,0.0,-2548.0,0.0,0.0,-0.0,0.0,0.0,1.795654113,0.0,0.0,2380.0,0.0,0.0,0.0,0.0,0.0,4.752196779,0.0,0.0,-2418.0,0.0,0.0,-0.0,0.0,0.0,2.805175494,0.0,0.0,0.8999999761581421,0.25,176.13999938964844,0.00567626953125,0.01708984375,1.00640869140625,29.81999969482422,0.0,-1.0,-0.7516326904296875,-0.264739990234375,Closing,0.0,0.0,0.0,0.0,0.0,0.0,0.0,0.0,
2.253489999999991,0.0,0.0,2762.0,0.0,0.0,0.0,0.0,0.0,3.7976070330000002,0.0,0.0,-2548.0,0.0,0.0,-0.0,0.0,0.0,1.7932127070000001,0.0,0.0,2380.0,0.0,0.0,0.0,0.0,0.0,4.754638185,0.0,0.0,-2418.0,0.0,0.0,-0.0,0.0,0.0,2.805175494,0.0,0.0,0.8999999761581421,0.25,176.13999938964844,0.007568359375,0.01513671875,1.00390625,29.81999969482422,0.0,-3.0,-0.7516326904296875,-0.264739990234375,Closing,0.0,0.0,0.0,0.0,0.0,0.0,0.0,0.0,
2.3964710000000196,0.0,0.0,2762.0,0.0,0.0,0.0,0.0,0.0,3.7963863300000003,0.0,0.0,-2548.0,0.0,0.0,-0.0,0.0,0.0,1.795654113,0.0,0.0,2380.0,0.0,0.0,0.0,0.0,0.0,4.753417482000001,0.0,0.0,-2418.0,0.0,0.0,-0.0,0.0,0.0,2.805175494,0.0,0.0,0.8999999761581421,0.25,176.13999938964844,0.00323486328125,0.01568603515625,1.00970458984375,29.81999969482422,0.0,1.0,-0.7516326904296875,-0.264739990234375,Closing,0.0,0.0,0.0,0.0,0.0,0.0,0.0,0.0,
2.536883999999962,0.0,0.0,2762.0,0.0,0.0,0.0,0.0,0.0,3.7951656270000003,0.0,0.0,-2548.0,0.0,0.0,-0.0,0.0,0.0,1.795654113,0.0,0.0,2380.0,0.0,0.0,0.0,0.0,0.0,4.753417482000001,0.0,0.0,-2418.0,0.0,0.0,-0.0,0.0,0.0,2.805175494,0.0,0.0,0.8999999761581421,0.25999999046325684,176.13999938964844,0.00189208984375,0.01287841796875,1.0045166015625,29.81999969482422,0.0,2.0,-0.7516326904296875,-0.264739990234375,Closing,0.0,0.0,0.0,0.0,0.0,0.0,0.0,0.0,
2.6907870000000114,0.0,0.0,2762.0,0.0,0.0,0.0,0.0,0.0,3.7951656270000003,0.0,0.0,-2548.0,0.0,0.0,-0.0,0.0,0.0,1.7944334100000001,0.0,0.0,2380.0,0.0,0.0,0.0,0.0,0.0,4.7656245120000005,0.0,0.0,-2418.0,0.0,0.0,-0.0,0.0,0.0,2.806396197,0.0,0.0,0.8999999761581421,0.27000001072883606,176.13999938964844,0.00433349609375,0.017333984375,1.005126953125,29.81999969482422,0.0,0.0,-0.7516326904296875,-0.264739990234375,Closing,0.0,0.0,0.0,0.0,0.0,0.0,0.0,0.0,
2.830503000000026,0.0,0.0,2762.0,0.0,0.0,0.0,0.0,0.0,3.7915035180000003,0.0,0.0,-2548.0,0.0,0.0,-0.0,0.0,0.0,1.795654113,0.0,0.0,2380.0,0.0,0.0,0.0,0.0,0.0,4.753417482000001,0.0,0.0,-2418.0,0.0,0.0,-0.0,0.0,0.0,2.805175494,0.0,0.0,0.8999999761581421,0.27000001072883606,176.13999938964844,0.00274658203125,0.01885986328125,1.0076904296875,29.790000915527344,0.0,2.0,-0.7516326904296875,-0.264739990234375,Closing,0.0,0.0,0.0,0.0,0.0,0.0,0.0,0.0,
2.9713190000000176,0.0,0.0,2762.0,0.0,0.0,0.0,0.0,0.0,3.7951656270000003,0.0,0.0,-2548.0,0.0,0.0,-0.0,0.0,0.0,1.796874816,0.0,0.0,2380.0,0.0,0.0,0.0,0.0,0.0,4.754638185,0.0,0.0,-2418.0,0.0,0.0,-0.0,0.0,0.0,2.805175494,0.0,0.0,0.8999999761581421,0.27000001072883606,176.13999938964844,0.0045166015625,0.013916015625,1.0029296875,29.790000915527344,0.0,0.0,-0.7516326904296875,-0.264739990234375,Closing,0.0,0.0,0.0,0.0,0.0,0.0,0.0,0.0,
3.1112449999999954,0.0,0.0,2762.0,0.0,0.0,0.0,0.0,0.0,3.7963863300000003,0.0,0.0,-2548.0,0.0,0.0,-0.0,0.0,0.0,1.796874816,0.0,0.0,2380.0,0.0,0.0,0.0,0.0,0.0,4.753417482000001,0.0,0.0,-2418.0,0.0,0.0,-0.0,0.0,0.0,2.805175494,0.0,0.0,0.8999999761581421,0.27000001072883606,176.1300048828125,0.00274658203125,0.01751708984375,0.9984130859375,29.790000915527344,0.0,2.0,-0.7516326904296875,-0.264739990234375,Closing,0.0,0.0,0.0,0.0,0.0,0.0,0.0,0.0,
3.2524220000000206,0.0,0.0,2762.0,0.0,0.0,0.0,0.0,0.0,3.7951656270000003,0.0,0.0,-2548.0,0.0,0.0,-0.0,0.0,0.0,1.795654113,0.0,0.0,2380.0,0.0,0.0,0.0,0.0,0.0,4.753417482000001,0.0,0.0,-2418.0,0.0,0.0,-0.0,0.0,0.0,2.805175494,0.0,0.0,0.8999999761581421,0.27000001072883606,176.1300048828125,0.00225830078125,0.01336669921875,1.00946044921875,29.799999237060547,0.0,2.0,-0.7516326904296875,-0.264739990234375,Closing,0.0,0.0,0.0,0.0,0.0,0.0,0.0,0.0,
3.3941019999999553,0.0,0.0,2762.0,0.0,0.0,0.0,0.0,0.0,3.7963863300000003,0.0,0.0,-2548.0,0.0,0.0,-0.0,0.0,0.0,1.795654113,0.0,0.0,2380.0,0.0,0.0,0.0,0.0,0.0,4.753417482000001,0.0,0.0,-2418.0,0.0,0.0,-0.0,0.0,0.0,2.8027340880000002,0.0,0.0,0.8999999761581421,0.27000001072883606,176.1300048828125,0.00433349609375,0.014892578125,1.01123046875,29.799999237060547,0.0,0.0,-0.7516326904296875,-0.264739990234375,Closing,0.0,0.0,0.0,0.0,0.0,0.0,0.0,0.0,
3.5379860000000334,0.0,0.0,2762.0,0.0,0.0,0.0,0.0,0.0,3.7951656270000003,0.0,0.0,-2548.0,0.0,0.0,-0.0,0.0,0.0,1.795654113,0.0,0.0,2380.0,0.0,0.0,0.0,0.0,0.0,4.754638185,0.0,0.0,-2418.0,0.0,0.0,-0.0,0.0,0.0,2.805175494,0.0,0.0,0.8999999761581421,0.25999999046325684,176.1199951171875,0.00421142578125,0.01312255859375,1.00140380859375,29.799999237060547,0.0,0.0,-0.7516326904296875,-0.264739990234375,Closing,0.0,0.0,0.0,0.0,0.0,0.0,0.0,0.0,
3.681106000000029,0.0,0.0,2762.0,0.0,0.0,0.0,0.0,0.0,3.7951656270000003,0.0,0.0,-2548.0,0.0,0.0,-0.0,0.0,0.0,1.795654113,0.0,0.0,2380.0,0.0,0.0,0.0,0.0,0.0,4.754638185,0.0,0.0,-2418.0,0.0,0.0,-0.0,0.0,0.0,2.806396197,0.0,0.0,0.8999999761581421,0.27000001072883606,176.1199951171875,0.00457763671875,0.0142822265625,1.0003662109375,29.799999237060547,0.0,0.0,-0.7516326904296875,-0.264739990234375,Closing,0.0,0.0,0.0,0.0,0.0,0.0,0.0,0.0,
3.8247789999999804,0.0,0.0,2762.0,0.0,0.0,0.0,0.0,0.0,3.7951656270000003,0.0,0.0,-2548.0,0.0,0.0,-0.0,0.0,0.0,1.795654113,0.0,0.0,2380.0,0.0,0.0,0.0,0.0,0.0,4.743651858000001,0.0,0.0,-2418.0,0.0,0.0,-0.0,0.0,0.0,2.805175494,0.0,0.0,0.8999999761581421,0.25999999046325684,176.1199951171875,0.00323486328125,0.0147705078125,1.0015869140625,29.790000915527344,0.0,1.0,-0.7516326904296875,-0.264739990234375,Closing,0.0,0.0,0.0,0.0,0.0,0.0,0.0,0.0,
3.9711130000000123,0.0,0.0,2762.0,0.0,0.0,0.0,0.0,0.0,3.7951656270000003,0.0,0.0,-2548.0,0.0,0.0,-0.0,0.0,0.0,1.796874816,0.0,0.0,2380.0,0.0,0.0,0.0,0.0,0.0,4.753417482000001,0.0,0.0,-2418.0,0.0,0.0,-0.0,0.0,0.0,2.805175494,0.0,0.0,0.9100000262260437,0.25999999046325684,176.1199951171875,0.006103515625,0.0169677734375,1.00885009765625,29.790000915527344,0.0,-1.0,-0.7516326904296875,-0.264739990234375,Closing,0.0,0.0,0.0,0.0,0.0,0.0,0.0,0.0,
4.107912000000011,0.0,0.0,2762.0,0.0,0.0,0.0,0.0,0.0,3.7939449240000003,0.0,0.0,-2548.0,0.0,0.0,-0.0,0.0,0.0,1.796874816,0.0,0.0,2380.0,0.0,0.0,0.0,0.0,0.0,4.754638185,0.0,0.0,-2418.0,0.0,0.0,-0.0,0.0,0.0,2.806396197,0.0,0.0,0.9100000262260437,0.25,176.1199951171875,0.00531005859375,0.01800537109375,1.0054931640625,29.790000915527344,0.0,0.0,-0.7516326904296875,-0.264739990234375,Closing,0.0,0.0,0.0,0.0,0.0,0.0,0.0,0.0,
4.248420000000042,0.0,0.0,2762.0,0.0,0.0,0.0,0.0,0.0,3.7951656270000003,0.0,0.0,-2548.0,0.0,0.0,-0.0,0.0,0.0,1.795654113,0.0,0.0,2380.0,0.0,0.0,0.0,0.0,0.0,4.754638185,0.0,0.0,-2418.0,0.0,0.0,-0.0,0.0,0.0,2.805175494,0.0,0.0,0.9100000262260437,0.25999999046325684,176.1199951171875,0.00762939453125,0.0164794921875,1.00189208984375,29.790000915527344,0.0,-3.0,-0.7516326904296875,-0.264739990234375,Closing,0.0,0.0,0.0,0.0,0.0,0.0,0.0,0.0,
4.38838599999994,0.0,0.0,2762.0,0.0,0.0,0.0,0.0,0.0,3.7963863300000003,0.0,0.0,-2548.0,0.0,0.0,-0.0,0.0,0.0,1.795654113,0.0,0.0,2380.0,0.0,0.0,0.0,0.0,0.0,4.7631831060000005,0.0,0.0,-2418.0,0.0,0.0,-0.0,0.0,0.0,2.805175494,0.0,0.0,0.9200000166893005,0.25999999046325684,176.1199951171875,0.0068359375,0.01971435546875,1.00238037109375,29.829999923706055,0.0,-1.0,-0.7516326904296875,-0.264739990234375,Closing,0.0,0.0,0.0,0.0,0.0,0.0,0.0,0.0,
4.529505000000005,0.0,0.0,2762.0,0.0,0.0,0.0,0.0,0.0,3.773192973,0.0,0.0,-2548.0,0.0,0.0,-0.0,0.0,0.0,1.7932127070000001,0.0,0.0,2380.0,0.0,0.0,0.0,0.0,0.0,4.753417482000001,0.0,0.0,-2418.0,0.0,0.0,-0.0,0.0,0.0,2.8039547910000002,0.0,0.0,0.9200000166893005,0.25999999046325684,176.1199951171875,0.00634765625,0.01593017578125,1.00885009765625,29.829999923706055,0.0,-1.0,-0.7516326904296875,-0.264739990234375,Closing,0.0,0.0,0.0,0.0,0.0,0.0,0.0,0.0,
4.670317000000039,0.0,0.0,2762.0,0.0,0.0,0.0,0.0,0.0,3.7951656270000003,0.0,0.0,-2548.0,0.0,0.0,-0.0,0.0,0.0,1.796874816,0.0,0.0,2380.0,0.0,0.0,0.0,0.0,0.0,4.754638185,0.0,0.0,-2418.0,0.0,0.0,-0.0,0.0,0.0,2.811279009,0.0,0.0,0.9200000166893005,0.25999999046325684,176.1199951171875,0.00469970703125,0.0162353515625,1.00933837890625,29.829999923706055,0.0,0.0,-0.7516326904296875,-0.264739990234375,Closing,0.0,0.0,0.0,0.0,0.0,0.0,0.0,0.0,
4.8115200000000184,0.0,0.0,2762.0,0.0,0.0,0.0,0.0,0.0,3.7963863300000003,0.0,0.0,-2548.0,0.0,0.0,-0.0,0.0,0.0,1.795654113,0.0,0.0,2380.0,0.0,0.0,0.0,0.0,0.0,4.753417482000001,0.0,0.0,-2418.0,0.0,0.0,-0.0,0.0,0.0,2.805175494,0.0,0.0,0.9100000262260437,0.25999999046325684,176.1199951171875,0.0052490234375,0.01318359375,1.0006103515625,29.809999465942383,0.0,0.0,-0.7516326904296875,-0.264739990234375,Closing,0.0,0.0,0.0,0.0,0.0,0.0,0.0,0.0,
4.950045000000042,0.0,0.0,2762.0,0.0,0.0,0.0,0.0,0.0,3.7951656270000003,0.0,0.0,-2548.0,0.0,0.0,-0.0,0.0,0.0,1.795654113,0.0,0.0,2380.0,0.0,0.0,0.0,0.0,0.0,4.753417482000001,0.0,0.0,-2418.0,0.0,0.0,-0.0,0.0,0.0,2.806396197,0.0,0.0,0.9100000262260437,0.25999999046325684,176.1199951171875,0.0057373046875,0.0201416015625,1.00634765625,29.809999465942383,0.0,0.0,-0.7516326904296875,-0.264739990234375,Closing,0.0,0.0,0.0,0.0,0.0,0.0,0.0,0.0,
5.097097999999998,0.0,0.0,2762.0,0.0,0.0,0.0,0.0,0.0,3.7939449240000003,0.0,0.0,-2548.0,0.0,0.0,-0.0,0.0,0.0,1.795654113,0.0,0.0,2380.0,0.0,0.0,0.0,0.0,0.0,4.753417482000001,0.0,0.0,-2418.0,0.0,0.0,-0.0,0.0,0.0,2.806396197,0.0,0.0,0.9100000262260437,0.25,176.11000061035156,0.00323486328125,0.01568603515625,1.008544921875,29.809999465942383,0.0,1.0,-0.7516326904296875,-0.264739990234375,Closing,0.0,0.0,0.0,0.0,0.0,0.0,0.0,0.0,
5.246516999999993,0.0,0.0,2762.0,0.0,0.0,0.0,0.0,0.0,3.7951656270000003,0.0,0.0,-2548.0,0.0,0.0,-0.0,0.0,0.0,1.795654113,0.0,0.0,2380.0,0.0,0.0,0.0,0.0,0.0,4.754638185,0.0,0.0,-2418.0,0.0,0.0,-0.0,0.0,0.0,2.805175494,0.0,0.0,0.9100000262260437,0.25,176.11000061035156,0.00311279296875,0.01531982421875,0.99713134765625,29.809999465942383,0.0,1.0,-0.7516326904296875,-0.264739990234375,Closing,0.0,0.0,0.0,0.0,0.0,0.0,0.0,0.0,
5.388089000000036,0.0,0.0,2762.0,0.0,0.0,0.0,0.0,0.0,3.7951656270000003,0.0,0.0,-2548.0,0.0,0.0,-0.0,0.0,0.0,1.795654113,0.0,0.0,2380.0,0.0,0.0,0.0,0.0,0.0,4.754638185,0.0,0.0,-2418.0,0.0,0.0,-0.0,0.0,0.0,2.805175494,0.0,0.0,0.9100000262260437,0.25,176.11000061035156,0.00335693359375,0.01922607421875,1.01348876953125,29.780000686645508,0.0,1.0,-0.7516326904296875,-0.264739990234375,Closing,0.0,0.0,0.0,0.0,0.0,0.0,0.0,0.0,
5.529361999999964,0.0,0.0,2762.0,0.0,0.0,0.0,0.0,0.0,3.7890621120000003,0.0,0.0,-2548.0,0.0,0.0,-0.0,0.0,0.0,1.795654113,0.0,0.0,2380.0,0.0,0.0,0.0,0.0,0.0,4.753417482000001,0.0,0.0,-2418.0,0.0,0.0,-0.0,0.0,0.0,2.806396197,0.0,0.0,0.9200000166893005,0.25,176.11000061035156,0.0076904296875,0.01531982421875,1.0045166015625,29.780000686645508,0.0,-3.0,-0.7516326904296875,-0.264739990234375,Closing,0.0,0.0,0.0,0.0,0.0,0.0,0.0,0.0,
5.673212999999989,0.0,0.0,2762.0,0.0,0.0,0.0,0.0,0.0,3.7951656270000003,0.0,0.0,-2548.0,0.0,0.0,-0.0,0.0,0.0,1.795654113,0.0,0.0,2380.0,0.0,0.0,0.0,0.0,0.0,4.754638185,0.0,0.0,-2418.0,0.0,0.0,-0.0,0.0,0.0,2.805175494,0.0,0.0,0.9200000166893005,0.25999999046325684,176.11000061035156,0.0086669921875,0.01641845703125,0.99713134765625,29.780000686645508,0.0,-4.0,-0.7516326904296875,-0.264739990234375,Closing,0.0,0.0,0.0,0.0,0.0,0.0,0.0,0.0,
5.811880000000005,0.0,0.0,2762.0,0.0,0.0,0.0,0.0,0.0,3.826903905,0.0,0.0,-2548.0,0.0,0.0,-0.0,0.0,0.0,1.795654113,0.0,0.0,2380.0,0.0,0.0,0.0,0.0,0.0,4.753417482000001,0.0,0.0,-2418.0,0.0,0.0,-0.0,0.0,0.0,2.806396197,0.0,0.0,0.9200000166893005,0.25,176.10000610351562,0.00457763671875,0.018798828125,1.0103759765625,29.780000686645508,0.0,0.0,-0.7516326904296875,-0.264739990234375,Closing,0.0,0.0,0.0,0.0,0.0,0.0,0.0,0.0,
5.955125,0.0,0.0,2762.0,0.0,0.0,0.0,0.0,0.0,3.7951656270000003,0.0,0.0,-2548.0,0.0,0.0,-0.0,0.0,0.0,1.7907713010000001,0.0,0.0,2380.0,0.0,0.0,0.0,0.0,0.0,4.753417482000001,0.0,0.0,-2418.0,0.0,0.0,-0.0,0.0,0.0,2.806396197,0.0,0.0,0.9200000166893005,0.25,176.10000610351562,0.0050048828125,0.0162353515625,1.009521484375,29.780000686645508,0.0,0.0,-0.7516326904296875,-0.264739990234375,Closing,0.0,0.0,0.0,0.0,0.0,0.0,0.0,0.0,
6.097096000000019,0.0,0.0,2690.0,22.625,-435.0,-1934.6456229686737,0.0,0.875,4.134521061,0.5533560492066895,0.0,-2673.0,15.875,-592.5,-1934.6456229686737,0.0,0.625,1.614990069,4.397316058113635,0.0,2261.0,18.5,-577.5,-1934.6456229686737,0.0,0.125,4.414062048,4.401758689006861,0.0,-2488.0,38.25,-397.5,-1934.6456229686737,0.0,0.875,3.2214352170000002,0.5515167311543325,0.0,1.0299999713897705,0.5899999737739563,178.5500030517578,0.14105224609375,0.11370849609375,1.37445068359375,29.780000686645508,0.0,-124.0,-0.75537109375,-0.2669525146484375,Closing,0.0,0.0,0.0,0.0,0.0,0.0,0.0,0.0,
6.250162999999942,0.0,0.0,2656.0,0.0,-180.0,0.0,0.0,0.25,4.439696811,0.5533560492066895,0.0,-2764.0,0.0,-532.5,0.0,0.0,0.0,1.247558466,4.397316058113635,0.0,2210.0,0.0,-187.5,0.0,0.0,0.0,4.132079655,4.401758689006861,0.0,-2567.0,0.0,-420.0,0.0,0.0,0.0,3.5742183840000004,0.5515167311543325,0.0,1.2000000476837158,0.4300000071525574,-174.4199981689453,-0.1298828125,0.11376953125,0.56707763671875,29.780000686645508,0.0,123.0,-0.7677764892578125,-0.2769012451171875,Closing,0.0,0.0,0.0,0.0,0.0,0.0,0.0,0.0,
6.3930219999999975,0.0,0.0,2638.0,0.0,-67.5,0.0,0.0,0.0,4.5056147730000005,0.5533560492066895,0.0,-2776.0,0.0,-45.0,0.0,0.0,0.0,1.1889647220000001,4.397316058113635,0.0,2190.0,0.0,-52.5,0.0,0.0,0.0,4.136962467,4.401758689006861,0.0,-2592.0,0.0,-22.5,0.0,0.0,0.0,3.615722286,0.5515167311543325,0.0,0.9800000190734863,0.05999999865889549,-173.58999633789062,0.04742431640625,0.06866455078125,0.94793701171875,29.790000915527344,0.0,-51.0,-0.7736053466796875,-0.28204345703125,Closing,0.0,0.0,0.0,0.0,0.0,0.0,0.0,0.0,
6.5349290000000035,0.0,0.0,2638.0,0.0,0.0,0.0,0.0,0.0,4.50439407,0.5533560492066895,0.0,-2776.0,0.0,0.0,0.0,0.0,0.0,1.236572139,4.397316058113635,0.0,2190.0,0.0,0.0,0.0,0.0,0.0,4.213866756,4.401758689006861,0.0,-2592.0,0.0,0.0,0.0,0.0,0.0,3.4729000350000003,0.5515167311543325,0.0,1.0299999713897705,0.14000000059604645,-173.6199951171875,0.0159912109375,0.0030517578125,0.982666015625,29.790000915527344,0.0,-11.0,-0.7761383056640625,-0.2871856689453125,Closing,0.0,0.0,0.0,0.0,0.0,0.0,0.0,0.0,
6.679376999999978,0.0,0.0,2638.0,0.0,0.0,0.0,0.0,0.125,4.4458003260000005,0.5533560492066895,0.0,-2776.0,0.0,0.0,0.0,0.0,0.0,1.271972526,4.397316058113635,0.0,2189.0,0.0,0.0,0.0,0.0,0.0,4.2333980040000005,4.401758689006861,0.0,-2592.0,0.0,0.0,0.0,0.0,0.0,3.395995746,0.5515167311543325,0.0,1.0199999809265137,0.15000000596046448,-173.72000122070312,0.0289306640625,0.02435302734375,0.98919677734375,29.790000915527344,0.0,-26.0,-0.7762298583984375,-0.2872467041015625,Closing,0.0,0.0,0.0,0.0,0.0,0.0,0.0,0.0,
6.823978000000003,0.0,0.0,2638.0,0.0,0.0,0.0,0.0,0.0,4.433593296000001,0.5533560492066895,0.0,-2776.0,0.0,0.0,0.0,0.0,0.0,1.271972526,4.397316058113635,0.0,2189.0,0.0,0.0,0.0,0.0,0.0,4.2333980040000005,4.401758689006861,0.0,-2592.0,0.0,0.0,0.0,0.0,0.0,3.398437152,0.5515167311543325,0.0,1.0,0.1599999964237213,-173.7100067138672,0.011962890625,0.02197265625,0.99810791015625,29.809999465942383,0.0,-9.0,-0.77630615234375,-0.2872772216796875,Closing,0.0,0.0,0.0,0.0,0.0,0.0,0.0,0.0,
6.965373000000022,0.0,0.0,2638.0,0.0,0.0,0.0,0.0,0.0,4.434813999,0.5533560492066895,0.0,-2776.0,0.0,0.0,0.0,0.0,0.0,1.271972526,4.397316058113635,0.0,2189.0,0.0,0.0,0.0,0.0,0.0,4.2333980040000005,4.401758689006861,0.0,-2592.0,0.0,0.0,0.0,0.0,0.0,3.398437152,0.5515167311543325,0.0,0.9900000095367432,0.17000000178813934,-173.7100067138672,0.00469970703125,0.01690673828125,1.0206298828125,29.809999465942383,0.0,-1.0,-0.77630615234375,-0.2872772216796875,Closing,0.0,0.0,0.0,0.0,0.0,0.0,0.0,0.0,
7.107685000000056,0.0,0.0,2638.0,0.0,0.0,0.0,0.0,0.0,4.434813999,0.5533560492066895,0.0,-2776.0,0.0,0.0,0.0,0.0,0.0,1.271972526,4.397316058113635,0.0,2189.0,0.0,0.0,0.0,0.0,0.0,4.2333980040000005,4.401758689006861,0.0,-2592.0,0.0,0.0,0.0,0.0,0.0,3.398437152,0.5515167311543325,0.0,0.9800000190734863,0.20000000298023224,-173.7100067138672,0.0072021484375,0.01904296875,1.0001220703125,29.809999465942383,0.0,-3.0,-0.77630615234375,-0.2872772216796875,Closing,0.0,0.0,0.0,0.0,0.0,0.0,0.0,0.0,
7.2505200000000185,0.0,0.0,2638.0,0.125,0.0,147.65625,0.0,0.0,4.433593296000001,0.5533560492066917,0.0,-2776.0,0.0,0.0,147.65625,0.0,0.0,1.271972526,4.397316058113637,0.0,2189.0,0.0,0.0,147.65625,0.0,0.0,4.232177301,4.40175868900686,0.0,-2591.0,0.125,37.5,147.65625,0.0,0.0,3.398437152,0.5515167311543303,0.0,0.9700000286102295,0.20999999344348907,-173.72000122070312,9.1552734375E-4,0.00885009765625,0.96826171875,29.809999465942383,0.0,3.0,-0.77630615234375,-0.2872772216796875,Closing,0.0,0.0,0.0,0.0,0.0,0.0,0.0,0.0,
7.39215399999998,0.0,0.0,2638.0,0.0,0.0,0.0,0.0,0.0,4.433593296000001,0.5533560492066917,0.0,-2776.0,0.0,0.0,0.0,0.0,0.0,1.271972526,4.397316058113637,0.0,2189.0,0.0,0.0,0.0,0.0,0.0,4.234618707,4.40175868900686,0.0,-2583.0,0.0,0.0,0.0,0.0,0.0,3.398437152,0.5515167311543303,0.0,0.9599999785423279,0.23000000417232513,-173.72000122070312,0.017822265625,0.01434326171875,1.0274658203125,29.809999465942383,0.0,-13.0,-0.77630615234375,-0.2872772216796875,Closing,0.0,0.0,0.0,0.0,0.0,0.0,0.0,0.0,
7.546684000000008,0.0,0.0,2638.0,0.0,0.0,0.0,0.0,0.0,4.433593296000001,0.5533560492066917,0.0,-2776.0,0.0,0.0,0.0,0.0,0.0,1.271972526,4.397316058113637,0.0,2189.0,0.0,0.0,0.0,0.0,0.0,4.234618707,4.40175868900686,0.0,-2583.0,0.0,0.0,0.0,0.0,0.0,3.399657855,0.5515167311543303,0.0,0.949999988079071,0.25999999046325684,-173.72000122070312,0.011474609375,0.01531982421875,1.00958251953125,29.809999465942383,0.0,-6.0,-0.77630615234375,-0.2872772216796875,Closing,0.0,0.0,0.0,0.0,0.0,0.0,0.0,0.0,
7.855116000000038,0.0,0.0,2638.0,0.0,0.0,0.0,0.0,0.0,4.433593296000001,0.5533560492066917,0.0,-2776.0,0.0,0.0,0.0,0.0,0.0,1.271972526,4.397316058113637,0.0,2189.0,0.0,0.0,0.0,0.0,0.0,4.2333980040000005,4.40175868900686,0.0,-2583.0,0.0,0.0,0.0,0.0,0.0,3.399657855,0.5515167311543303,0.0,0.9300000071525574,0.2800000011920929,-173.72999572753906,3.0517578125E-4,0.0191650390625,1.00372314453125,29.84000015258789,0.0,4.0,-0.77630615234375,-0.2872772216796875,Closing,0.0,0.0,0.0,0.0,0.0,0.0,0.0,0.0,
8.104831000000006,0.0,0.0,2660.0,22.375,547.5,2083.59375,0.0,0.0,4.40673783,0.5533560492066917,0.0,-2757.0,23.0,585.0,2083.59375,0.0,0.0,1.271972526,4.397316058113637,0.0,2205.0,24.25,510.0,2083.59375,0.0,0.0,4.2333980040000005,4.40175868900686,0.0,-2561.0,35.0,615.0,2083.59375,0.0,0.0,3.408202776,0.5515167311543303,0.0,0.7699999809265137,0.05999999865889549,179.27000427246094,-0.06683349609375,-0.08856201171875,0.57745361328125,29.84000015258789,0.0,66.0,-0.772674560546875,-0.2846527099609375,Closing,0.0,0.0,0.0,0.0,0.0,0.0,0.0,0.0,
8.261542000000016,0.0,0.0,2960.0,0.0,952.5,0.0,0.0,0.0,4.4006343150000005,0.5533560492066917,0.0,-2419.0,0.0,1132.5,0.0,0.0,0.0,1.271972526,4.397316058113637,0.0,2471.0,0.0,817.5,0.0,0.0,0.0,4.2382808160000005,4.40175868900686,0.0,-2223.0,0.0,1035.0,0.0,0.0,0.0,3.399657855,0.5515167311543303,0.0,1.1100000143051147,0.20999999344348907,160.8000030517578,-0.12030029296875,0.0643310546875,1.07696533203125,29.84000015258789,0.0,131.0,-0.76068115234375,-0.2810821533203125,Closing,0.0,0.0,0.0,0.0,0.0,0.0,0.0,0.0,
8.411331000000006,0.0,0.0,3085.0,0.0,645.0,0.0,0.0,0.0,4.4006343150000005,0.5533560492066917,0.0,-2276.0,0.0,787.5,0.0,0.0,0.0,1.271972526,4.397316058113637,0.0,2577.0,0.0,585.0,0.0,0.0,0.0,4.237060113,4.40175868900686,0.0,-2091.0,0.0,757.5,0.0,0.0,0.0,3.399657855,0.5515167311543303,0.0,0.8199999928474426,0.5199999809265137,148.8800048828125,0.03314208984375,-0.0240478515625,1.08489990234375,29.850000381469727,0.0,-40.0,-0.7486419677734375,-0.279205322265625,Closing,0.0,0.0,0.0,0.0,0.0,0.0,0.0,0.0,
8.565878000000026,0.0,0.0,3153.0,0.0,307.5,0.0,0.0,0.0,4.399413612,0.5533560492066917,0.0,-2191.0,0.0,360.0,0.0,0.0,0.0,1.271972526,4.397316058113637,0.0,2640.0,0.0,277.5,0.0,0.0,0.0,4.2382808160000005,4.40175868900686,0.0,-2009.0,0.0,360.0,0.0,0.0,0.0,3.398437152,0.5515167311543303,0.0,0.7200000286102295,0.8199999928474426,143.0800018310547,0.0296630859375,0.03076171875,1.02197265625,29.850000381469727,0.0,-1.0,-0.7417144775390625,-0.2776947021484375,Closing,0.0,0.0,0.0,0.0,0.0,0.0,0.0,0.0,
8.714307999999962,0.0,0.0,3174.0,0.0,-22.5,-132.28346407413483,0.0,0.0,4.401855018,0.5533560492066895,0.0,-2167.0,0.0,0.0,-132.28346407413483,0.0,0.0,1.273193229,4.397316058113635,0.0,2660.0,0.0,15.0,-132.28346407413483,0.0,0.0,4.2407222220000005,4.401758689006861,0.0,-1982.0,0.25,-37.5,-132.28346407413483,0.0,0.0,3.392333637,0.5515167311543325,0.0,0.7099999785423279,0.8999999761581421,143.60000610351562,-0.0220947265625,0.018798828125,0.9327392578125,29.850000381469727,0.0,33.0,-0.74212646484375,-0.27850341796875,Closing,0.0,0.0,0.0,0.0,0.0,0.0,0.0,0.0,
8.87098999999999,0.0,0.0,3163.0,0.0,0.0,0.0,0.0,0.0,4.401855018,0.5533560492066895,0.0,-2168.0,0.0,0.0,0.0,0.0,0.0,1.271972526,4.397316058113635,0.0,2661.0,0.0,0.0,0.0,0.0,0.0,4.2382808160000005,4.401758689006861,0.0,-1997.0,0.0,-7.5,0.0,0.0,0.0,3.398437152,0.5515167311543325,0.0,0.8199999928474426,0.7099999785423279,144.5,-0.01434326171875,-0.00433349609375,1.03509521484375,29.850000381469727,0.0,11.0,-0.74029541015625,-0.2783660888671875,Closing,0.0,0.0,0.0,0.0,0.0,0.0,0.0,0.0,
9.032001000000047,0.0,0.0,3163.0,0.0,0.0,0.0,0.0,0.0,4.4006343150000005,0.5533560492066895,0.0,-2168.0,0.0,0.0,0.0,0.0,0.0,1.271972526,4.397316058113635,0.0,2661.0,0.0,0.0,0.0,0.0,0.0,4.239501519,4.401758689006861,0.0,-1997.0,0.0,0.0,0.0,0.0,0.0,3.397216449,0.5515167311543325,0.0,0.8399999737739563,0.6499999761581421,144.3699951171875,-0.003173828125,0.0279541015625,1.02301025390625,29.850000381469727,0.0,19.0,-0.740142822265625,-0.2782135009765625,Closing,0.0,0.0,0.0,0.0,0.0,0.0,0.0,0.0,
9.18890300000005,0.0,0.0,3132.0,17.25,-472.5,-1851.9684970378876,0.0,0.0,4.425048375,0.5533560492066895,0.0,-2208.0,16.25,-577.5,-1851.9684970378876,0.0,0.0,1.2658690110000002,4.397316058113635,0.0,2631.0,15.625,-652.5,-1851.9684970378876,0.0,0.0,4.246825737,4.401758689006861,0.0,-2020.0,25.0,-600.0,-1851.9684970378876,0.0,0.0,3.399657855,0.5515167311543324,0.0,1.0099999904632568,0.7900000214576721,150.07000732421875,0.1822509765625,0.19561767578125,0.6190185546875,29.850000381469727,0.0,-58.0,-0.7422943115234375,-0.27911376953125,Closing,0.0,0.0,0.0,0.0,0.0,0.0,0.0,0.0,
9.339981000000028,0.0,0.0,2875.0,0.0,-795.0,0.0,0.0,0.0,4.423827672,0.5533560492066895,0.0,-2486.0,0.0,-885.0,0.0,0.0,0.0,1.2915037740000002,4.397316058113635,0.0,2365.0,0.0,-832.5,0.0,0.0,0.0,4.261474173,4.401758689006861,0.0,-2318.0,0.0,-990.0,0.0,0.0,0.0,3.398437152,0.5515167311543324,0.0,1.0499999523162842,0.49000000953674316,166.61000061035156,0.06512451171875,0.12664794921875,1.35137939453125,29.850000381469727,0.0,-28.0,-0.7489013671875,-0.2858123779296875,Closing,0.0,0.0,0.0,0.0,0.0,0.0,0.0,0.0,
9.492060999999987,0.0,0.0,2757.0,0.0,-750.0,0.0,0.0,0.0,4.422606969,0.5533560492066895,0.0,-2620.0,0.0,-840.0,0.0,0.0,0.0,1.2915037740000002,4.397316058113635,0.0,2256.0,0.0,-697.5,0.0,0.0,0.0,4.261474173,4.401758689006861,0.0,-2438.0,0.0,-727.5,0.0,0.0,0.0,3.398437152,0.5515167311543324,0.0,0.8399999737739563,0.4399999976158142,177.33999633789062,-0.0657958984375,-0.00775146484375,0.7186279296875,29.850000381469727,0.0,70.0,-0.749420166015625,-0.2893218994140625,Closing,0.0,0.0,0.0,0.0,0.0,0.0,0.0,0.0,
9.630417999999947,0.0,0.0,2681.0,0.0,-442.5,0.0,0.0,0.0,4.422606969,0.5533560492066895,0.0,-2710.0,0.0,-502.5,0.0,0.0,0.0,1.2915037740000002,4.397316058113635,0.0,2181.0,0.0,-412.5,0.0,0.0,0.0,4.263915579,4.401758689006861,0.0,-2528.0,0.0,-487.5,0.0,0.0,0.0,3.398437152,0.5515167311543324,0.0,0.8700000047683716,0.10999999940395355,-175.3000030517578,0.01556396484375,0.0010986328125,1.19769287109375,29.850000381469727,0.0,-11.0,-0.7449188232421875,-0.291259765625,Closing,0.0,0.0,0.0,0.0,0.0,0.0,0.0,0.0,
9.770251999999978,0.0,0.0,2641.0,0.0,-157.5,0.0,0.0,0.0,4.422606969,0.5533560492066895,0.0,-2757.0,0.0,-180.0,0.0,0.0,0.0,1.2915037740000002,4.397316058113635,0.0,2142.0,0.0,-142.5,0.0,0.0,0.0,4.262694876,4.401758689006861,0.0,-2574.0,0.0,-172.5,0.0,0.0,0.0,3.398437152,0.5515167311543324,0.0,0.8100000023841858,0.019999999552965164,-172.88999938964844,-0.0194091796875,0.0062255859375,1.01837158203125,29.850000381469727,0.0,20.0,-0.742919921875,-0.29095458984375,Closing,0.0,0.0,0.0,0.0,0.0,0.0,0.0,0.0,
9.91296100000001,0.0,0.0,2643.0,1.875,150.0,574.21875,0.0,0.0,4.425048375,0.5533560492066917,0.0,-2763.0,1.5,165.0,574.21875,0.0,0.0,1.2902830710000002,4.397316058113637,0.0,2139.0,1.75,120.0,574.21875,0.0,0.0,4.261474173,4.40175868900686,0.0,-2576.0,3.5,165.0,574.21875,0.0,0.0,3.398437152,0.5515167311543303,0.0,0.8199999928474426,-0.10000000149011612,-174.7899932861328,0.0128173828125,0.01214599609375,0.80670166015625,29.850000381469727,0.0,-14.0,-0.7389678955078125,-0.289459228515625,Closing,0.0,0.0,0.0,0.0,0.0,0.0,0.0,0.0,
10.056283999999986,0.0,0.0,2689.0,0.0,90.0,0.0,0.0,0.0,4.423827672,0.5533560492066917,0.0,-2700.0,0.0,142.5,0.0,0.0,0.0,1.2915037740000002,4.397316058113637,0.0,2185.0,0.0,75.0,0.0,0.0,0.0,4.257812064,4.40175868900686,0.0,-2517.0,0.0,105.0,0.0,0.0,0.0,3.400878558,0.5515167311543303,0.0,0.7699999809265137,0.05999999865889549,-179.36000061035156,0.0301513671875,-0.0478515625,0.84893798828125,29.850000381469727,0.0,-28.0,-0.7332763671875,-0.287933349609375,Closing,0.0,0.0,0.0,0.0,0.0,0.0,0.0,0.0,
10.209542000000015,0.0,0.0,2698.0,0.0,30.0,0.0,0.0,0.0,4.422606969,0.5533560492066917,0.0,-2685.0,0.0,60.0,0.0,0.0,0.0,1.2915037740000002,4.397316058113637,0.0,2190.0,0.0,22.5,0.0,0.0,0.0,4.256591361,4.40175868900686,0.0,-2507.0,0.0,30.0,0.0,0.0,0.0,3.399657855,0.5515167311543303,0.0,0.8100000023841858,0.23999999463558197,-179.64999389648438,0.032470703125,0.00390625,0.85821533203125,29.850000381469727,0.0,-28.0,-0.7309722900390625,-0.285614013671875,Closing,0.0,0.0,0.0,0.0,0.0,0.0,0.0,0.0,
10.348748999999952,0.0,0.0,2698.0,0.0,0.0,0.0,0.0,0.0,4.422606969,0.5533560492066917,0.0,-2685.0,0.0,0.0,0.0,0.0,0.0,1.2915037740000002,4.397316058113637,0.0,2190.0,0.0,0.0,0.0,0.0,0.0,4.256591361,4.40175868900686,0.0,-2507.0,0.0,0.0,0.0,0.0,0.0,3.398437152,0.5515167311543303,0.0,0.8199999928474426,0.14000000059604645,-179.22999572753906,0.02850341796875,0.030029296875,0.945068359375,29.850000381469727,0.0,-26.0,-0.7301025390625,-0.2856597900390625,Closing,0.0,0.0,0.0,0.0,0.0,0.0,0.0,0.0,
10.49174199999997,0.0,0.0,2738.0,12.0,427.5,1542.1875,0.0,0.0,4.417724157,0.5533560492066917,0.0,-2658.0,12.625,360.0,1542.1875,0.0,0.0,1.285400259,4.397316058113637,0.0,2224.0,11.875,390.0,1542.1875,0.0,0.0,4.2333980040000005,4.40175868900686,0.0,-2471.0,21.375,427.5,1542.1875,0.0,0.0,3.389892231,0.5515167311543303,0.0,0.7200000286102295,-0.07000000029802322,177.5500030517578,-0.21075439453125,0.00146484375,1.4857177734375,29.809999465942383,0.0,207.0,-0.72894287109375,-0.283294677734375,Closing,0.0,0.0,0.0,0.0,0.0,0.0,0.0,0.0,
10.634898000000044,0.0,0.0,2837.0,0.0,540.0,0.0,0.0,0.0,4.415282751,0.5533560492066917,0.0,-2550.0,0.0,682.5,0.0,0.0,0.0,1.2915037740000002,4.397316058113637,0.0,2315.0,0.0,487.5,0.0,0.0,0.0,4.2382808160000005,4.40175868900686,0.0,-2352.0,0.0,652.5,0.0,0.0,0.0,3.389892231,0.5515167311543303,0.0,0.8600000143051147,0.10000000149011612,165.33999633789062,0.05133056640625,0.2196044921875,0.83465576171875,29.809999465942383,0.0,4.0,-0.7227630615234375,-0.2819671630859375,Closing,0.0,0.0,0.0,0.0,0.0,0.0,0.0,0.0,
10.774826000000001,0.0,0.0,2979.0,0.0,427.5,0.0,0.0,0.0,4.414062048,0.5533560492066917,0.0,-2373.0,0.0,480.0,0.0,0.0,0.0,1.2915037740000002,4.397316058113637,0.0,2441.0,0.0,375.0,0.0,0.0,0.0,4.2382808160000005,4.40175868900686,0.0,-2189.0,0.0,442.5,0.0,0.0,0.0,3.388671528,0.5515167311543303,0.0,0.8899999856948853,0.38999998569488525,158.4600067138672,0.02313232421875,-0.0509033203125,1.0767822265625,29.809999465942383,0.0,-39.0,-0.718475341796875,-0.282470703125,Closing,0.0,0.0,0.0,0.0,0.0,0.0,0.0,0.0,
10.916111999999965,0.0,0.0,2994.0,0.0,90.0,0.0,0.0,0.0,4.415282751,0.5533560492066917,0.0,-2351.0,0.0,120.0,0.0,0.0,0.0,1.2915037740000002,4.397316058113637,0.0,2454.0,0.0,67.5,0.0,0.0,0.0,4.2382808160000005,4.40175868900686,0.0,-2168.0,0.0,120.0,0.0,0.0,0.0,3.388671528,0.5515167311543303,0.0,0.8899999856948853,0.5199999809265137,156.97000122070312,0.0650634765625,0.00164794921875,1.05633544921875,29.809999465942383,0.0,-56.0,-0.717376708984375,-0.2830810546875,Closing,0.0,0.0,0.0,0.0,0.0,0.0,0.0,0.0,
11.06347999999998,0.0,0.0,2994.0,0.0,0.0,0.0,0.0,0.0,4.412841345,0.5533560492066917,0.0,-2351.0,0.0,0.0,0.0,0.0,0.0,1.2915037740000002,4.397316058113637,0.0,2454.0,0.0,0.0,0.0,0.0,0.0,4.2382808160000005,4.40175868900686,0.0,-2168.0,0.0,0.0,0.0,0.0,0.0,3.388671528,0.5515167311543303,0.0,0.9300000071525574,0.4399999976158142,157.8000030517578,-0.034423828125,0.029541015625,1.00091552734375,29.809999465942383,0.0,44.0,-0.71832275390625,-0.2830810546875,Closing,0.0,0.0,0.0,0.0,0.0,0.0,0.0,0.0,
11.206800000000047,0.0,0.0,2994.0,0.0,0.0,0.0,0.0,0.0,4.414062048,0.5533560492066917,0.0,-2351.0,0.0,0.0,0.0,0.0,0.0,1.2915037740000002,4.397316058113637,0.0,2454.0,0.0,0.0,0.0,0.0,0.0,4.2382808160000005,4.40175868900686,0.0,-2168.0,0.0,0.0,0.0,0.0,0.0,3.388671528,0.5515167311543303,0.0,0.8999999761581421,0.46000000834465027,157.8000030517578,-9.765625E-4,0.02178955078125,0.99932861328125,29.809999465942383,0.0,10.0,-0.718048095703125,-0.2830810546875,Closing,0.0,0.0,0.0,0.0,0.0,0.0,0.0,0.0,
11.346770000000019,0.0,0.0,2994.0,0.0,0.0,0.0,0.0,0.0,4.414062048,0.5533560492066917,0.0,-2351.0,0.0,0.0,0.0,0.0,0.0,1.2915037740000002,4.397316058113637,0.0,2454.0,0.0,0.0,0.0,0.0,0.0,4.2382808160000005,4.40175868900686,0.0,-2168.0,0.0,0.0,0.0,0.0,0.0,3.389892231,0.5515167311543303,0.0,0.9200000166893005,0.4099999964237213,157.8000030517578,0.010986328125,0.00897216796875,1.00048828125,29.809999465942383,0.0,-6.0,-0.717681884765625,-0.2830810546875,Closing,0.0,0.0,0.0,0.0,0.0,0.0,0.0,0.0,
11.492645999999949,0.0,0.0,2994.0,0.0,0.0,0.0,0.0,0.0,4.414062048,0.5533560492066917,0.0,-2351.0,0.0,0.0,0.0,0.0,0.0,1.2915037740000002,4.397316058113637,0.0,2454.0,0.0,0.0,0.0,0.0,0.0,4.2382808160000005,4.40175868900686,0.0,-2168.0,0.0,0.0,0.0,0.0,0.0,3.389892231,0.5515167311543303,0.0,0.9300000071525574,0.38999998569488525,157.7899932861328,0.01019287109375,0.01806640625,1.0174560546875,29.809999465942383,0.0,-2.0,-0.717559814453125,-0.2830810546875,Closing,0.0,0.0,0.0,0.0,0.0,0.0,0.0,0.0,
11.634832999999984,0.0,0.0,2994.0,0.0,0.0,0.0,0.0,0.0,4.414062048,0.5533560492066917,0.0,-2351.0,0.0,0.0,0.0,0.0,0.0,1.2915037740000002,4.397316058113637,0.0,2454.0,0.0,0.0,0.0,0.0,0.0,4.2382808160000005,4.40175868900686,0.0,-2168.0,0.0,0.0,0.0,0.0,0.0,3.389892231,0.5515167311543303,0.0,0.9300000071525574,0.36000001430511475,157.77999877929688,0.00628662109375,0.01629638671875,0.98773193359375,29.809999465942383,0.0,0.0,-0.717559814453125,-0.2830810546875,Closing,0.0,0.0,0.0,0.0,0.0,0.0,0.0,0.0,
11.77463599999994,0.0,0.0,2994.0,0.0,0.0,0.0,0.0,0.0,4.414062048,0.5533560492066917,0.0,-2351.0,0.0,0.0,0.0,0.0,0.0,1.2915037740000002,4.397316058113637,0.0,2454.0,0.0,0.0,0.0,0.0,0.0,4.2382808160000005,4.40175868900686,0.0,-2168.0,0.0,0.0,0.0,0.0,0.0,3.389892231,0.5515167311543303,0.0,0.9300000071525574,0.3400000035762787,157.77999877929688,0.0064697265625,0.01580810546875,0.995361328125,29.809999465942383,0.0,0.0,-0.717559814453125,-0.2830810546875,Closing,0.0,0.0,0.0,0.0,0.0,0.0,0.0,0.0,
11.924543999999994,0.0,0.0,2994.0,0.0,0.0,0.0,0.0,0.0,4.414062048,0.5533560492066917,0.0,-2351.0,0.0,0.0,0.0,0.0,0.0,1.2915037740000002,4.397316058113637,0.0,2454.0,0.0,0.0,0.0,0.0,0.0,4.2382808160000005,4.40175868900686,0.0,-2168.0,0.0,0.0,0.0,0.0,0.0,3.389892231,0.5515167311543303,0.0,0.9399999976158142,0.3199999928474426,157.77999877929688,0.00701904296875,0.0203857421875,1.017333984375,29.84000015258789,0.0,0.0,-0.717559814453125,-0.2830810546875,Closing,0.0,0.0,0.0,0.0,0.0,0.0,0.0,0.0,
12.066111000000033,0.0,0.0,2994.0,0.0,0.0,0.0,0.0,0.0,4.414062048,0.5533560492066917,0.0,-2351.0,0.0,0.0,0.0,0.0,0.0,1.2915037740000002,4.397316058113637,0.0,2454.0,0.0,0.0,0.0,0.0,0.0,4.237060113,4.40175868900686,0.0,-2168.0,0.0,0.0,0.0,0.0,0.0,3.389892231,0.5515167311543303,0.0,0.9399999976158142,0.3199999928474426,157.77999877929688,0.00653076171875,0.0137939453125,0.98626708984375,29.84000015258789,0.0,-1.0,-0.717559814453125,-0.2830810546875,Closing,0.0,0.0,0.0,0.0,0.0,0.0,0.0,0.0,
12.209079999999958,0.0,0.0,2994.0,0.0,0.0,0.0,0.0,0.0,4.414062048,0.5533560492066917,0.0,-2351.0,0.0,0.0,0.0,0.0,0.0,1.2915037740000002,4.397316058113637,0.0,2454.0,0.0,0.0,0.0,0.0,0.0,4.2382808160000005,4.40175868900686,0.0,-2168.0,0.0,0.0,0.0,0.0,0.0,3.388671528,0.5515167311543303,0.0,0.9399999976158142,0.30000001192092896,157.77999877929688,0.00372314453125,0.0159912109375,1.0018310546875,29.84000015258789,0.0,1.0,-0.717559814453125,-0.2830810546875,Closing,0.0,0.0,0.0,0.0,0.0,0.0,0.0,0.0,
12.350621999999975,0.0,0.0,2994.0,0.0,0.0,0.0,0.0,0.0,4.412841345,0.5533560492066917,0.0,-2351.0,0.0,0.0,0.0,0.0,0.0,1.2915037740000002,4.397316058113637,0.0,2454.0,0.0,0.0,0.0,0.0,0.0,4.2382808160000005,4.40175868900686,0.0,-2168.0,0.0,0.0,0.0,0.0,0.0,3.389892231,0.5515167311543303,0.0,0.9399999976158142,0.28999999165534973,157.77999877929688,0.0037841796875,0.017578125,0.99981689453125,29.84000015258789,0.0,1.0,-0.717559814453125,-0.2830810546875,Closing,0.0,0.0,0.0,0.0,0.0,0.0,0.0,0.0,
12.491545000000041,0.0,0.0,2994.0,0.0,0.0,0.0,0.0,0.0,4.414062048,0.5533560492066917,0.0,-2351.0,0.0,0.0,0.0,0.0,0.0,1.2915037740000002,4.397316058113637,0.0,2454.0,0.0,0.0,0.0,0.0,0.0,4.2382808160000005,4.40175868900686,0.0,-2168.0,0.0,0.0,0.0,0.0,0.0,3.394775043,0.5515167311543303,0.0,0.949999988079071,0.2800000011920929,157.77999877929688,0.00146484375,0.021484375,1.0081787109375,29.860000610351562,0.0,4.0,-0.717559814453125,-0.2830810546875,Closing,0.0,0.0,0.0,0.0,0.0,0.0,0.0,0.0,
12.636498999999953,0.0,0.0,2994.0,0.0,0.0,0.0,0.0,0.0,4.415282751,0.5533560492066917,0.0,-2351.0,0.0,0.0,0.0,0.0,0.0,1.2927244770000001,4.397316058113637,0.0,2454.0,0.0,0.0,0.0,0.0,0.0,4.2382808160000005,4.40175868900686,0.0,-2168.0,0.0,0.0,0.0,0.0,0.0,3.388671528,0.5515167311543303,0.0,0.949999988079071,0.27000001072883606,157.77999877929688,0.005859375,0.0185546875,1.0074462890625,29.860000610351562,0.0,0.0,-0.717559814453125,-0.2830810546875,Closing,0.0,0.0,0.0,0.0,0.0,0.0,0.0,0.0,
12.775792999999947,0.0,0.0,2994.0,0.0,0.0,0.0,0.0,0.0,4.414062048,0.5533560492066917,0.0,-2351.0,0.0,0.0,0.0,0.0,0.0,1.2915037740000002,4.397316058113637,0.0,2454.0,0.0,0.0,0.0,0.0,0.0,4.239501519,4.40175868900686,0.0,-2168.0,0.0,0.0,0.0,0.0,0.0,3.389892231,0.5515167311543303,0.0,0.949999988079071,0.25999999046325684,157.77999877929688,0.00347900390625,0.01727294921875,0.99530029296875,29.860000610351562,0.0,1.0,-0.717559814453125,-0.2830810546875,Closing,0.0,0.0,0.0,0.0,0.0,0.0,0.0,0.0,
12.91492200000002,0.0,0.0,2994.0,0.0,0.0,0.0,0.0,0.0,4.415282751,0.5533560492066917,0.0,-2351.0,0.0,0.0,0.0,0.0,0.0,1.2927244770000001,4.397316058113637,0.0,2454.0,0.0,0.0,0.0,0.0,0.0,4.239501519,4.40175868900686,0.0,-2168.0,0.0,0.0,0.0,0.0,0.0,3.388671528,0.5515167311543303,0.0,0.9599999785423279,0.25,157.77999877929688,0.00177001953125,0.01495361328125,1.00482177734375,29.860000610351562,0.0,1.0,-0.717559814453125,-0.2830810546875,Closing,0.0,0.0,0.0,0.0,0.0,0.0,0.0,0.0,
13.057427999999955,0.0,0.0,2994.0,0.0,0.0,0.0,0.0,0.0,4.412841345,0.5533560492066917,0.0,-2351.0,0.0,0.0,0.0,0.0,0.0,1.2915037740000002,4.397316058113637,0.0,2454.0,0.0,0.0,0.0,0.0,0.0,4.2382808160000005,4.40175868900686,0.0,-2168.0,0.0,0.0,0.0,0.0,0.0,3.389892231,0.5515167311543303,0.0,0.9599999785423279,0.23999999463558197,157.77999877929688,0.0068359375,0.0140380859375,1.00787353515625,29.8799991607666,0.0,-3.0,-0.717559814453125,-0.2830810546875,Closing,0.0,0.0,0.0,0.0,0.0,0.0,0.0,0.0,
13.20939599999995,0.0,0.0,2994.0,0.0,0.0,0.0,0.0,0.0,4.414062048,0.5533560492066917,0.0,-2351.0,0.0,0.0,0.0,0.0,0.0,1.2915037740000002,4.397316058113637,0.0,2454.0,0.0,0.0,0.0,0.0,0.0,4.239501519,4.40175868900686,0.0,-2168.0,0.0,0.0,0.0,0.0,0.0,3.39355434,0.5515167311543303,0.0,0.9599999785423279,0.23999999463558197,157.77999877929688,9.1552734375E-4,0.0255126953125,1.0050048828125,29.8799991607666,0.0,6.0,-0.717559814453125,-0.2830810546875,Closing,0.0,0.0,0.0,0.0,0.0,0.0,0.0,0.0,
13.35181799999997,0.0,0.0,2994.0,0.0,0.0,0.0,0.0,0.0,4.415282751,0.5533560492066917,0.0,-2351.0,0.0,0.0,0.0,0.0,0.0,1.2915037740000002,4.397316058113637,0.0,2454.0,0.0,0.0,0.0,0.0,0.0,4.237060113,4.40175868900686,0.0,-2168.0,0.0,0.0,0.0,0.0,0.0,3.389892231,0.5515167311543303,0.0,0.9599999785423279,0.23000000417232513,157.77999877929688,0.00439453125,0.01959228515625,1.00958251953125,29.8799991607666,0.0,0.0,-0.717559814453125,-0.2830810546875,Closing,0.0,0.0,0.0,0.0,0.0,0.0,0.0,0.0,
13.497452999999979,0.0,0.0,2994.0,0.0,0.0,0.0,0.0,0.0,4.414062048,0.5533560492066917,0.0,-2351.0,0.0,0.0,0.0,0.0,0.0,1.2915037740000002,4.397316058113637,0.0,2454.0,0.0,0.0,0.0,0.0,0.0,4.237060113,4.40175868900686,0.0,-2168.0,0.0,0.0,0.0,0.0,0.0,3.389892231,0.5515167311543303,0.0,0.9700000286102295,0.23000000417232513,157.77999877929688,0.0015869140625,0.0181884765625,1.0123291015625,29.850000381469727,0.0,2.0,-0.717559814453125,-0.2830810546875,Closing,0.0,0.0,0.0,0.0,0.0,0.0,0.0,0.0,
13.643361000000034,0.0,0.0,2994.0,0.0,0.0,0.0,0.0,0.0,4.414062048,0.5533560492066917,0.0,-2351.0,0.0,0.0,0.0,0.0,0.0,1.2915037740000002,4.397316058113637,0.0,2454.0,0.0,0.0,0.0,0.0,0.0,4.2382808160000005,4.40175868900686,0.0,-2168.0,0.0,0.0,0.0,0.0,0.0,3.388671528,0.5515167311543303,0.0,0.9700000286102295,0.23000000417232513,157.77999877929688,0.00543212890625,0.0150146484375,0.9976806640625,29.850000381469727,0.0,-1.0,-0.717559814453125,-0.2830810546875,Closing,0.0,0.0,0.0,0.0,0.0,0.0,0.0,0.0,
13.78875199999998,0.0,0.0,2994.0,0.0,0.0,0.0,0.0,0.0,4.414062048,0.5533560492066917,0.0,-2351.0,0.0,0.0,0.0,0.0,0.0,1.2915037740000002,4.397316058113637,0.0,2454.0,0.0,0.0,0.0,0.0,0.0,4.2382808160000005,4.40175868900686,0.0,-2168.0,0.0,0.0,0.0,0.0,0.0,3.388671528,0.5515167311543303,0.0,0.9800000190734863,0.23000000417232513,157.77999877929688,9.765625E-4,0.0184326171875,1.0101318359375,29.850000381469727,0.0,3.0,-0.717559814453125,-0.2830810546875,Closing,0.0,0.0,0.0,0.0,0.0,0.0,0.0,0.0,
13.930763999999966,0.0,0.0,2994.0,0.0,0.0,0.0,0.0,0.0,4.415282751,0.5533560492066917,0.0,-2351.0,0.0,0.0,0.0,0.0,0.0,1.2915037740000002,4.397316058113637,0.0,2454.0,0.0,0.0,0.0,0.0,0.0,4.239501519,4.40175868900686,0.0,-2168.0,0.0,0.0,0.0,0.0,0.0,3.389892231,0.5515167311543303,0.0,0.9700000286102295,0.2199999988079071,157.77999877929688,-0.00311279296875,0.02130126953125,1.01385498046875,29.850000381469727,0.0,8.0,-0.717559814453125,-0.2830810546875,Closing,0.0,0.0,0.0,0.0,0.0,0.0,0.0,0.0,
14.075738999999944,0.0,0.0,2994.0,0.0,0.0,0.0,0.0,0.0,4.412841345,0.5533560492066917,0.0,-2351.0,0.0,0.0,0.0,0.0,0.0,1.2915037740000002,4.397316058113637,0.0,2454.0,0.0,0.0,0.0,0.0,0.0,4.2382808160000005,4.40175868900686,0.0,-2168.0,0.0,0.0,0.0,0.0,0.0,3.388671528,0.5515167311543303,0.0,0.9800000190734863,0.2199999988079071,157.77999877929688,0.0042724609375,0.01422119140625,0.994873046875,29.8799991607666,0.0,-1.0,-0.717559814453125,-0.2830810546875,Closing,0.0,0.0,0.0,0.0,0.0,0.0,0.0,0.0,
14.22547199999995,0.0,0.0,2994.0,0.0,0.0,0.0,0.0,0.0,4.415282751,0.5533560492066917,0.0,-2351.0,0.0,0.0,0.0,0.0,0.0,1.2915037740000002,4.397316058113637,0.0,2454.0,0.0,0.0,0.0,0.0,0.0,4.2382808160000005,4.40175868900686,0.0,-2168.0,0.0,0.0,0.0,0.0,0.0,3.388671528,0.5515167311543303,0.0,0.9800000190734863,0.2199999988079071,157.77999877929688,0.00360107421875,0.01507568359375,1.00726318359375,29.8799991607666,0.0,0.0,-0.717559814453125,-0.2830810546875,Closing,0.0,0.0,0.0,0.0,0.0,0.0,0.0,0.0,
14.36739599999995,0.0,0.0,2994.0,0.0,0.0,0.0,0.0,0.0,4.414062048,0.5533560492066917,0.0,-2351.0,0.0,0.0,0.0,0.0,0.0,1.2915037740000002,4.397316058113637,0.0,2454.0,0.0,0.0,0.0,0.0,0.0,4.239501519,4.40175868900686,0.0,-2168.0,0.0,0.0,0.0,0.0,0.0,3.388671528,0.5515167311543303,0.0,0.9700000286102295,0.2199999988079071,157.77999877929688,0.00140380859375,0.01690673828125,1.0125732421875,29.8799991607666,0.0,2.0,-0.717559814453125,-0.2830810546875,Closing,0.0,0.0,0.0,0.0,0.0,0.0,0.0,0.0,
14.510621000000043,0.0,0.0,2994.0,0.0,0.0,0.0,0.0,0.0,4.412841345,0.5533560492066917,0.0,-2351.0,0.0,0.0,0.0,0.0,0.0,1.2915037740000002,4.397316058113637,0.0,2454.0,0.0,0.0,0.0,0.0,0.0,4.2382808160000005,4.40175868900686,0.0,-2168.0,0.0,0.0,0.0,0.0,0.0,3.389892231,0.5515167311543303,0.0,0.9700000286102295,0.2199999988079071,157.77999877929688,0.00408935546875,0.01593017578125,1.00067138671875,29.8799991607666,0.0,0.0,-0.717559814453125,-0.2830810546875,Closing,0.0,0.0,0.0,0.0,0.0,0.0,0.0,0.0,
14.652621000000043,0.0,0.0,2994.0,0.0,0.0,0.0,0.0,0.0,4.412841345,0.5533560492066917,0.0,-2351.0,0.0,0.0,0.0,0.0,0.0,1.2927244770000001,4.397316058113637,0.0,2454.0,0.0,0.0,0.0,0.0,0.0,4.2382808160000005,4.40175868900686,0.0,-2168.0,0.0,0.0,0.0,0.0,0.0,3.388671528,0.5515167311543303,0.0,0.9700000286102295,0.20999999344348907,157.77000427246094,0.0020751953125,0.01629638671875,0.9979248046875,29.8799991607666,0.0,1.0,-0.717559814453125,-0.2830810546875,Closing,0.0,0.0,0.0,0.0,0.0,0.0,0.0,0.0,
14.794444999999948,0.0,0.0,2994.0,0.0,0.0,0.0,0.0,0.0,4.414062048,0.5533560492066917,0.0,-2351.0,0.0,0.0,0.0,0.0,0.0,1.2915037740000002,4.397316058113637,0.0,2454.0,0.0,0.0,0.0,0.0,0.0,4.239501519,4.40175868900686,0.0,-2168.0,0.0,0.0,0.0,0.0,0.0,3.389892231,0.5515167311543303,0.0,0.9700000286102295,0.20000000298023224,157.77000427246094,0.00262451171875,0.0164794921875,1.01361083984375,29.8799991607666,0.0,0.0,-0.717559814453125,-0.2830810546875,Closing,0.0,0.0,0.0,0.0,0.0,0.0,0.0,0.0,
14.935837999999988,0.0,0.0,2994.0,0.0,0.0,0.0,0.0,0.0,4.414062048,0.5533560492066917,0.0,-2351.0,0.0,0.0,0.0,0.0,0.0,1.2915037740000002,4.397316058113637,0.0,2454.0,0.0,0.0,0.0,0.0,0.0,4.2382808160000005,4.40175868900686,0.0,-2168.0,0.0,0.0,0.0,0.0,0.0,3.388671528,0.5515167311543303,0.0,0.9700000286102295,0.20000000298023224,157.77000427246094,0.00445556640625,0.01800537109375,1.0091552734375,29.8799991607666,0.0,0.0,-0.717559814453125,-0.2830810546875,Closing,0.0,0.0,0.0,0.0,0.0,0.0,0.0,0.0,
15.077290000000037,0.0,0.0,2994.0,0.0,0.0,0.0,0.0,0.0,4.414062048,0.5533560492066917,0.0,-2351.0,0.0,0.0,0.0,0.0,0.0,1.2915037740000002,4.397316058113637,0.0,2454.0,0.0,0.0,0.0,0.0,0.0,4.2382808160000005,4.40175868900686,0.0,-2168.0,0.0,0.0,0.0,0.0,0.0,3.388671528,0.5515167311543303,0.0,0.9800000190734863,0.20000000298023224,157.77000427246094,7.32421875E-4,0.01385498046875,1.036376953125,29.8799991607666,0.0,1.0,-0.717559814453125,-0.2830810546875,Closing,0.0,0.0,0.0,0.0,0.0,0.0,0.0,0.0,
15.23052099999995,0.0,0.0,2994.0,0.0,0.0,0.0,0.0,0.0,4.414062048,0.5533560492066917,0.0,-2351.0,0.0,0.0,0.0,0.0,0.0,1.2915037740000002,4.397316058113637,0.0,2454.0,0.0,0.0,0.0,0.0,0.0,4.2382808160000005,4.40175868900686,0.0,-2168.0,0.0,0.0,0.0,0.0,0.0,3.389892231,0.5515167311543303,0.0,0.9599999785423279,0.20000000298023224,157.77000427246094,0.0054931640625,0.017333984375,0.9947509765625,29.8799991607666,0.0,-1.0,-0.717559814453125,-0.2830810546875,Closing,0.0,0.0,0.0,0.0,0.0,0.0,0.0,0.0,
15.380810999999987,0.0,0.0,2994.0,0.0,0.0,0.0,0.0,0.0,4.414062048,0.5533560492066917,0.0,-2351.0,0.0,0.0,0.0,0.0,0.0,1.2915037740000002,4.397316058113637,0.0,2454.0,0.0,0.0,0.0,0.0,0.0,4.237060113,4.40175868900686,0.0,-2168.0,0.0,0.0,0.0,0.0,0.0,3.388671528,0.5515167311543303,0.0,0.9700000286102295,0.20000000298023224,157.75999450683594,0.0028076171875,0.0169677734375,1.01116943359375,29.8799991607666,0.0,0.0,-0.717559814453125,-0.2830810546875,Closing,0.0,0.0,0.0,0.0,0.0,0.0,0.0,0.0,
15.529925000000047,0.0,0.0,2994.0,0.0,0.0,0.0,0.0,0.0,4.414062048,0.5533560492066917,0.0,-2351.0,0.0,0.0,0.0,0.0,0.0,1.2927244770000001,4.397316058113637,0.0,2454.0,0.0,0.0,0.0,0.0,0.0,4.2382808160000005,4.40175868900686,0.0,-2168.0,0.0,0.0,0.0,0.0,0.0,3.389892231,0.5515167311543303,0.0,0.9700000286102295,0.20000000298023224,157.75999450683594,0.0023193359375,0.021240234375,1.01416015625,29.8799991607666,0.0,2.0,-0.717559814453125,-0.2830810546875,Closing,0.0,0.0,0.0,0.0,0.0,0.0,0.0,0.0,
15.681635000000009,0.0,0.0,2994.0,0.0,0.0,0.0,0.0,0.0,4.412841345,0.5533560492066917,0.0,-2351.0,0.0,0.0,0.0,0.0,0.0,1.2915037740000002,4.397316058113637,0.0,2454.0,0.0,0.0,0.0,0.0,0.0,4.237060113,4.40175868900686,0.0,-2168.0,0.0,0.0,0.0,0.0,0.0,3.388671528,0.5515167311543303,0.0,0.9700000286102295,0.20000000298023224,157.75999450683594,0.00506591796875,0.02099609375,1.00531005859375,29.8799991607666,0.0,0.0,-0.717559814453125,-0.2830810546875,Closing,0.0,0.0,0.0,0.0,0.0,0.0,0.0,0.0,
15.832395000000018,0.0,0.0,2994.0,0.0,0.0,0.0,0.0,0.0,4.414062048,0.5533560492066917,0.0,-2351.0,0.0,0.0,0.0,0.0,0.0,1.2915037740000002,4.397316058113637,0.0,2454.0,0.0,0.0,0.0,0.0,0.0,4.237060113,4.40175868900686,0.0,-2168.0,0.0,0.0,0.0,0.0,0.0,3.388671528,0.5515167311543303,0.0,0.9700000286102295,0.1899999976158142,157.75999450683594,0.0030517578125,0.0194091796875,1.0057373046875,29.8799991607666,0.0,1.0,-0.717559814453125,-0.2830810546875,Closing,0.0,0.0,0.0,0.0,0.0,0.0,0.0,0.0,
15.979505000000005,0.0,0.0,2994.0,0.0,0.0,0.0,0.0,0.0,4.414062048,0.5533560492066917,0.0,-2351.0,0.0,0.0,0.0,0.0,0.0,1.2915037740000002,4.397316058113637,0.0,2454.0,0.0,0.0,0.0,0.0,0.0,4.2382808160000005,4.40175868900686,0.0,-2168.0,0.0,0.0,0.0,0.0,0.0,3.388671528,0.5515167311543303,0.0,0.9800000190734863,0.20000000298023224,157.75999450683594,0.004150390625,0.01837158203125,1.00872802734375,29.889999389648438,0.0,0.0,-0.717559814453125,-0.2830810546875,Closing,0.0,0.0,0.0,0.0,0.0,0.0,0.0,0.0,
16.13400399999996,0.0,0.0,2994.0,0.0,0.0,0.0,0.0,0.0,4.415282751,0.5533560492066917,0.0,-2351.0,0.0,0.0,0.0,0.0,0.0,1.2915037740000002,4.397316058113637,0.0,2454.0,0.0,0.0,0.0,0.0,0.0,4.2382808160000005,4.40175868900686,0.0,-2168.0,0.0,0.0,0.0,0.0,0.0,3.388671528,0.5515167311543303,0.0,0.9800000190734863,0.20000000298023224,157.75999450683594,0.0059814453125,0.01312255859375,0.992919921875,29.889999389648438,0.0,-3.0,-0.717559814453125,-0.2830810546875,Closing,0.0,0.0,0.0,0.0,0.0,0.0,0.0,0.0,
16.292103000000004,0.0,0.0,2994.0,0.0,0.0,0.0,0.0,0.0,4.414062048,0.5533560492066917,0.0,-2351.0,0.0,0.0,0.0,0.0,0.0,1.2927244770000001,4.397316058113637,0.0,2454.0,0.0,0.0,0.0,0.0,0.0,4.237060113,4.40175868900686,0.0,-2168.0,0.0,0.0,0.0,0.0,0.0,3.389892231,0.5515167311543303,0.0,0.9800000190734863,0.1899999976158142,157.75999450683594,0.005859375,0.01373291015625,1.00701904296875,29.889999389648438,0.0,-3.0,-0.717559814453125,-0.2830810546875,Closing,0.0,0.0,0.0,0.0,0.0,0.0,0.0,0.0,
16.449606000000028,0.0,0.0,2994.0,0.0,0.0,0.0,0.0,0.0,4.412841345,0.5533560492066917,0.0,-2351.0,0.0,0.0,0.0,0.0,0.0,1.2915037740000002,4.397316058113637,0.0,2454.0,0.0,0.0,0.0,0.0,0.0,4.239501519,4.40175868900686,0.0,-2168.0,0.0,0.0,0.0,0.0,0.0,3.389892231,0.5515167311543303,0.0,0.9800000190734863,0.20000000298023224,157.75999450683594,0.00421142578125,0.0167236328125,0.99627685546875,29.889999389648438,0.0,0.0,-0.717559814453125,-0.2830810546875,Closing,0.0,0.0,0.0,0.0,0.0,0.0,0.0,0.0,
16.596886999999988,0.0,0.0,2994.0,0.0,0.0,0.0,0.0,0.0,4.415282751,0.5533560492066917,0.0,-2351.0,0.0,0.0,0.0,0.0,0.0,1.2915037740000002,4.397316058113637,0.0,2454.0,0.0,0.0,0.0,0.0,0.0,4.2382808160000005,4.40175868900686,0.0,-2168.0,0.0,0.0,0.0,0.0,0.0,3.389892231,0.5515167311543303,0.0,0.9800000190734863,0.20000000298023224,157.75,0.003173828125,0.0174560546875,0.995849609375,29.90999984741211,0.0,0.0,-0.717559814453125,-0.2830810546875,Closing,0.0,0.0,0.0,0.0,0.0,0.0,0.0,0.0,
16.751189999999944,0.0,0.0,2994.0,0.0,0.0,0.0,0.0,0.0,4.412841345,0.5533560492066917,0.0,-2351.0,0.0,0.0,0.0,0.0,0.0,1.2915037740000002,4.397316058113637,0.0,2454.0,0.0,0.0,0.0,0.0,0.0,4.239501519,4.40175868900686,0.0,-2168.0,0.0,0.0,0.0,0.0,0.0,3.388671528,0.5515167311543303,0.0,0.9800000190734863,0.1899999976158142,157.75,8.544921875E-4,0.01629638671875,1.00921630859375,29.90999984741211,0.0,2.0,-0.717559814453125,-0.2830810546875,Closing,0.0,0.0,0.0,0.0,0.0,0.0,0.0,0.0,
16.894991000000037,0.0,0.0,2994.0,0.0,0.0,0.0,0.0,0.0,4.414062048,0.5533560492066917,0.0,-2351.0,0.0,0.0,0.0,0.0,0.0,1.2915037740000002,4.397316058113637,0.0,2454.0,0.0,0.0,0.0,0.0,0.0,4.237060113,4.40175868900686,0.0,-2168.0,0.0,0.0,0.0,0.0,0.0,3.388671528,0.5515167311543303,0.0,0.9800000190734863,0.1899999976158142,157.75,0.00531005859375,0.0179443359375,0.9954833984375,29.90999984741211,0.0,-1.0,-0.717559814453125,-0.2830810546875,Closing,0.0,0.0,0.0,0.0,0.0,0.0,0.0,0.0,
17.035282000000006,0.0,0.0,2994.0,0.0,0.0,0.0,0.0,0.0,4.412841345,0.5533560492066917,0.0,-2351.0,0.0,0.0,0.0,0.0,0.0,1.2927244770000001,4.397316058113637,0.0,2454.0,0.0,0.0,0.0,0.0,0.0,4.2382808160000005,4.40175868900686,0.0,-2168.0,0.0,0.0,0.0,0.0,0.0,3.389892231,0.5515167311543303,0.0,0.9800000190734863,0.1899999976158142,157.75,0.00244140625,0.01556396484375,1.00872802734375,29.920000076293945,0.0,0.0,-0.717559814453125,-0.2830810546875,Closing,0.0,0.0,0.0,0.0,0.0,0.0,0.0,0.0,
17.183988000000014,0.0,0.0,2994.0,0.0,0.0,0.0,0.0,0.0,4.416503454,0.5533560492066917,0.0,-2351.0,0.0,0.0,0.0,0.0,0.0,1.2915037740000002,4.397316058113637,0.0,2454.0,0.0,0.0,0.0,0.0,0.0,4.2382808160000005,4.40175868900686,0.0,-2168.0,0.0,0.0,0.0,0.0,0.0,3.388671528,0.5515167311543303,0.0,0.9800000190734863,0.1899999976158142,157.75,0.0059814453125,0.017822265625,1.00872802734375,29.920000076293945,0.0,-2.0,-0.717559814453125,-0.2830810546875,Closing,0.0,0.0,0.0,0.0,0.0,0.0,0.0,0.0,
17.32684600000002,0.0,0.0,2994.0,0.0,0.0,0.0,0.0,0.0,4.414062048,0.5533560492066917,0.0,-2351.0,0.0,0.0,0.0,0.0,0.0,1.2915037740000002,4.397316058113637,0.0,2454.0,0.0,0.0,0.0,0.0,0.0,4.2382808160000005,4.40175868900686,0.0,-2168.0,0.0,0.0,0.0,0.0,0.0,3.389892231,0.5515167311543303,0.0,0.9800000190734863,0.20000000298023224,157.74000549316406,0.0052490234375,0.01995849609375,0.99798583984375,29.920000076293945,0.0,0.0,-0.717559814453125,-0.2830810546875,Closing,0.0,0.0,0.0,0.0,0.0,0.0,0.0,0.0,
17.473121999999975,0.0,0.0,2994.0,0.0,0.0,0.0,0.0,0.0,4.416503454,0.5533560492066917,0.0,-2351.0,0.0,0.0,0.0,0.0,0.0,1.2915037740000002,4.397316058113637,0.0,2454.0,0.0,0.0,0.0,0.0,0.0,4.2382808160000005,4.40175868900686,0.0,-2168.0,0.0,0.0,0.0,0.0,0.0,3.389892231,0.5515167311543303,0.0,0.9800000190734863,0.20000000298023224,157.74000549316406,0.003662109375,0.01507568359375,1.0076904296875,29.920000076293945,0.0,0.0,-0.717559814453125,-0.2830810546875,Closing,0.0,0.0,0.0,0.0,0.0,0.0,0.0,0.0,
17.615304000000005,0.0,0.0,2994.0,0.0,0.0,0.0,0.0,0.0,4.414062048,0.5533560492066917,0.0,-2351.0,0.0,0.0,0.0,0.0,0.0,1.2915037740000002,4.397316058113637,0.0,2454.0,0.0,0.0,0.0,0.0,0.0,4.237060113,4.40175868900686,0.0,-2168.0,0.0,0.0,0.0,0.0,0.0,3.389892231,0.5515167311543303,0.0,0.9800000190734863,0.20000000298023224,157.74000549316406,0.0013427734375,0.02032470703125,1.03228759765625,29.93000030517578,0.0,3.0,-0.717559814453125,-0.2830810546875,Closing,0.0,0.0,0.0,0.0,0.0,0.0,0.0,0.0,
17.759812999999966,0.0,0.0,2994.0,0.0,0.0,0.0,0.0,0.0,4.415282751,0.5533560492066917,0.0,-2351.0,0.0,0.0,0.0,0.0,0.0,1.2915037740000002,4.397316058113637,0.0,2454.0,0.0,0.0,0.0,0.0,0.0,4.2382808160000005,4.40175868900686,0.0,-2168.0,0.0,0.0,0.0,0.0,0.0,3.389892231,0.5515167311543303,0.0,0.9800000190734863,0.20000000298023224,157.74000549316406,0.0032958984375,0.0159912109375,1.0013427734375,29.93000030517578,0.0,0.0,-0.717559814453125,-0.2830810546875,Closing,0.0,0.0,0.0,0.0,0.0,0.0,0.0,0.0,
17.907346000000018,0.0,0.0,2994.0,0.0,0.0,0.0,0.0,2.25,4.144286685,0.0,0.0,-2351.0,0.0,0.0,-0.0,0.0,2.25,1.491699066,0.0,0.0,2454.0,0.0,-7.5,0.0,0.0,2.0,4.545897972000001,0.0,0.0,-2168.0,0.0,0.0,-0.0,0.0,0.75,2.979736023,0.0,0.0,0.9599999785423279,0.1899999976158142,157.7100067138672,0.0247802734375,-1.8310546875E-4,1.00445556640625,29.93000030517578,0.0,-26.0,-0.71783447265625,-0.2830657958984375,Closing,0.0,0.0,0.0,0.0,0.0,0.0,0.0,0.0,
18.047062999999966,0.0,0.0,2994.0,0.0,0.0,0.0,0.0,0.25,3.7963863300000003,0.0,0.0,-2351.0,0.0,0.0,-0.0,0.0,0.625,1.8920896500000002,0.0,0.0,2450.0,0.0,0.0,0.0,0.0,0.125,4.858397940000001,0.0,0.0,-2168.0,0.0,0.0,-0.0,0.0,0.0,2.8479000990000003,0.0,0.0,1.0,0.20999999344348907,157.6300048828125,-0.015869140625,0.030029296875,0.97625732421875,29.899999618530273,0.0,22.0,-0.718597412109375,-0.283233642578125,Closing,0.0,0.0,0.0,0.0,0.0,0.0,0.0,0.0,
18.190028000000048,0.0,0.0,2994.0,0.0,0.0,0.0,0.0,0.0,3.7805171910000004,0.0,0.0,-2351.0,0.0,0.0,-0.0,0.0,0.0,1.936034958,0.0,0.0,2450.0,0.0,0.0,0.0,0.0,0.0,4.8632807520000005,0.0,0.0,-2168.0,0.0,0.0,-0.0,0.0,0.0,2.877196971,0.0,0.0,1.0099999904632568,0.20999999344348907,157.60000610351562,0.01239013671875,0.022216796875,1.0535888671875,29.899999618530273,0.0,-6.0,-0.7186126708984375,-0.283233642578125,Closing,0.0,0.0,0.0,0.0,0.0,0.0,0.0,0.0,
18.333726999999957,0.0,0.0,2994.0,0.0,0.0,0.0,0.0,0.0,3.819579687,0.0,0.0,-2351.0,0.0,0.0,-0.0,0.0,0.0,1.8969724620000001,0.0,0.0,2450.0,0.0,0.0,0.0,0.0,0.0,4.822997553,0.0,0.0,-2168.0,0.0,0.0,-0.0,0.0,0.0,2.877196971,0.0,0.0,0.9900000095367432,0.18000000715255737,157.60000610351562,0.0025634765625,0.02069091796875,1.03094482421875,29.899999618530273,0.0,1.0,-0.718719482421875,-0.283233642578125,Closing,0.0,0.0,0.0,0.0,0.0,0.0,0.0,0.0,
