Time,ClimberA1,ClimberA2,FRpos,FRCurrent,FRspeed,FRsetpoint,FRApos,FRACurrent,FREncpos,FREncSetpoint,FREncSpeed,FLpos,FLCurrent,FLspeed,FLsetpoint,FLApos,FLACurrent,FLEncpos,FLEncSetpoint,FLEncSpeed,BRpos,BRCurrent,BRspeed,BRsetpoint,BRApos,BRACurrent,BREncpos,BREncSetpoint,BREncSpeed,BLpos,BLCurrent,BLspeed,BLsetpoint,BLApos,BLACurrent,BLEncpos,BLEncSetpoint,BLEncSpeed,navx_Pitch,navx_Roll,navx_Yaw,navx_XAcc,navx_YAcc,navx_ZAcc,navx_Temp,navx_Bar,navx_Alt,navx_XDis,navx_YDis,GearPlacerState,ShootOutputV,ShootOutputCurrent,ShootEncPos,ShootEncVelocity,ShootSpeed,ShootSetpoint,CarouselSetpoint,CarouselCurrent,
0.14495000000006986,0.0,0.0,6147.0,5.375,345.0,840.0,0.0,0.0,3.8464351530000003,4.923736469692654,0.0,-5799.0,5.0,-367.5,-840.0,0.0,0.0,1.877441214,4.908858136283026,0.0,5829.0,4.125,397.5,840.0,0.0,0.0,4.7631831060000005,4.9138175807529025,0.0,-5782.0,8.25,-352.5,-840.0,0.0,0.0,2.885741892,4.907370302942064,0.0,0.75,1.9500000476837158,166.57000732421875,0.1798095703125,0.0574951171875,1.13482666015625,29.43000030517578,0.0,-127.0,-0.9196014404296875,-0.2134246826171875,Opening,0.0,0.0,0.0,0.0,0.0,0.0,0.0,0.0,
0.2883340000000317,0.0,0.0,6207.0,0.125,367.5,0.0,0.0,0.0,3.8439937470000003,0.0,0.0,-5855.0,0.0,-352.5,-0.0,0.0,0.0,1.8701169960000001,0.0,0.0,5893.0,0.125,337.5,0.0,0.0,0.0,4.764403809,0.0,0.0,-5837.0,0.0,-315.0,-0.0,0.0,0.0,2.886962595,0.0,0.0,0.6899999976158142,1.4900000095367432,166.0800018310547,-0.2301025390625,0.083740234375,1.15960693359375,29.5,0.0,269.0,-0.95135498046875,-0.2208099365234375,Closing,0.0,0.0,0.0,0.0,0.0,0.0,0.0,0.0,
0.4283209999999963,0.0,0.0,6272.0,0.0,345.0,0.0,0.0,0.0,3.8439937470000003,0.0,0.0,-5915.0,0.0,-330.0,-0.0,0.0,0.0,1.8737791050000001,0.0,0.0,5948.0,0.0,315.0,0.0,0.0,0.0,4.7680659180000005,0.0,0.0,-5898.0,0.0,-322.5,-0.0,0.0,0.0,2.882079783,0.0,0.0,0.7099999785423279,0.5699999928474426,165.92999267578125,-0.1282958984375,0.02001953125,1.03680419921875,29.5,0.0,136.0,-0.95989990234375,-0.224822998046875,Closing,0.0,0.0,0.0,0.0,0.0,0.0,0.0,0.0,
0.5697229999999981,0.0,0.0,6301.0,0.0,90.0,0.0,0.0,0.0,3.8439937470000003,0.0,0.0,-5942.0,0.0,-90.0,-0.0,0.0,0.0,1.8737791050000001,0.0,0.0,5975.0,0.0,67.5,0.0,0.0,0.0,4.766845215,0.0,0.0,-5925.0,0.0,-90.0,-0.0,0.0,0.0,2.882079783,0.0,0.0,0.7300000190734863,-0.20000000298023224,165.97000122070312,-0.107177734375,0.0020751953125,0.9495849609375,29.5,0.0,98.0,-0.9507293701171875,-0.225494384765625,Closing,0.0,0.0,0.0,0.0,0.0,0.0,0.0,0.0,
0.7088429999999935,0.0,0.0,6303.0,0.0,0.0,0.0,0.0,0.0,3.8391109350000003,0.0,0.0,-5945.0,0.0,-7.5,-0.0,0.0,0.0,1.8725584020000001,0.0,0.0,5976.0,0.0,0.0,0.0,0.0,0.0,4.7680659180000005,0.0,0.0,-5927.0,0.0,0.0,-0.0,0.0,0.0,2.882079783,0.0,0.0,0.7599999904632568,-0.23000000417232513,165.8800048828125,0.0252685546875,0.00848388671875,1.004638671875,29.5,0.0,-29.0,-0.945465087890625,-0.225433349609375,Closing,0.0,0.0,0.0,0.0,0.0,0.0,0.0,0.0,
0.8481609999999636,0.0,0.0,6303.0,0.0,0.0,0.0,0.0,0.0,3.8439937470000003,0.0,0.0,-5949.0,0.0,0.0,-0.0,0.0,0.0,1.8725584020000001,0.0,0.0,5976.0,0.0,0.0,0.0,0.0,0.0,4.766845215,0.0,0.0,-5927.0,0.0,0.0,-0.0,0.0,0.0,2.883300486,0.0,0.0,0.7400000095367432,-0.009999999776482582,165.9600067138672,0.03326416015625,0.012939453125,1.0374755859375,29.479999542236328,0.0,-32.0,-0.9495086669921875,-0.225433349609375,Closing,0.0,0.0,0.0,0.0,0.0,0.0,0.0,0.0,
0.9888499999999767,0.0,0.0,6303.0,0.0,0.0,0.0,0.0,0.0,3.8439937470000003,0.0,0.0,-5949.0,0.0,0.0,-0.0,0.0,0.0,1.8737791050000001,0.0,0.0,5976.0,0.0,0.0,0.0,0.0,0.0,4.7680659180000005,0.0,0.0,-5927.0,0.0,0.0,-0.0,0.0,0.0,2.882079783,0.0,0.0,0.7400000095367432,0.029999999329447746,165.9499969482422,-0.0081787109375,0.017333984375,1.03271484375,29.479999542236328,0.0,9.0,-0.9515380859375,-0.225433349609375,Closing,0.0,0.0,0.0,0.0,0.0,0.0,0.0,0.0,
1.1281530000000493,0.0,0.0,6303.0,0.0,0.0,0.0,0.0,0.0,3.8439937470000003,0.0,0.0,-5949.0,0.0,0.0,-0.0,0.0,0.0,1.8737791050000001,0.0,0.0,5976.0,0.0,0.0,0.0,0.0,0.0,4.7680659180000005,0.0,0.0,-5927.0,0.0,0.0,-0.0,0.0,0.0,2.882079783,0.0,0.0,0.75,0.07000000029802322,165.9499969482422,0.0101318359375,0.01544189453125,1.05487060546875,29.479999542236328,0.0,-8.0,-0.9515380859375,-0.225433349609375,Closing,0.0,0.0,0.0,0.0,0.0,0.0,0.0,0.0,
1.2562210000000196,0.0,0.0,6303.0,0.0,0.0,0.0,0.0,0.0,3.8439937470000003,0.0,0.0,-5949.0,0.0,0.0,-0.0,0.0,0.0,1.8737791050000001,0.0,0.0,5976.0,0.0,0.0,0.0,0.0,0.0,4.766845215,0.0,0.0,-5927.0,0.0,0.0,-0.0,0.0,0.0,2.882079783,0.0,0.0,0.75,0.07999999821186066,165.9499969482422,0.00189208984375,0.00714111328125,1.0391845703125,29.489999771118164,0.0,-1.0,-0.9515380859375,-0.225433349609375,Closing,0.0,0.0,0.0,0.0,0.0,0.0,0.0,0.0,
1.3986400000000139,0.0,0.0,6303.0,0.0,0.0,0.0,0.0,0.0,3.8427730440000003,0.0,0.0,-5949.0,0.0,0.0,-0.0,0.0,0.0,1.8725584020000001,0.0,0.0,5976.0,0.0,0.0,0.0,0.0,0.0,4.766845215,0.0,0.0,-5927.0,0.0,0.0,-0.0,0.0,0.0,2.882079783,0.0,0.0,0.75,0.12999999523162842,165.94000244140625,0.01080322265625,0.01080322265625,1.01251220703125,29.489999771118164,0.0,-8.0,-0.9515380859375,-0.225433349609375,Closing,0.0,0.0,0.0,0.0,0.0,0.0,0.0,0.0,
1.5285800000000744,0.0,0.0,6303.0,0.0,0.0,0.0,0.0,0.0,3.8439937470000003,0.0,0.0,-5949.0,0.0,0.0,-0.0,0.0,0.0,1.874999808,0.0,0.0,5976.0,0.0,0.0,0.0,0.0,0.0,4.770507324,0.0,0.0,-5927.0,0.0,0.0,-0.0,0.0,0.0,2.882079783,0.0,0.0,0.75,0.1599999964237213,165.94000244140625,0.00811767578125,0.0106201171875,1.0084228515625,29.489999771118164,0.0,-5.0,-0.9515380859375,-0.225433349609375,Closing,0.0,0.0,0.0,0.0,0.0,0.0,0.0,0.0,
1.6578420000000624,0.0,0.0,6303.0,0.0,0.0,0.0,0.0,0.0,3.8439937470000003,0.0,0.0,-5949.0,0.0,0.0,-0.0,0.0,0.0,1.8737791050000001,0.0,0.0,5976.0,0.0,0.0,0.0,0.0,0.0,4.766845215,0.0,0.0,-5927.0,0.0,0.0,-0.0,0.0,0.0,2.882079783,0.0,0.0,0.7599999904632568,0.18000000715255737,165.94000244140625,0.01416015625,0.01141357421875,0.984619140625,29.489999771118164,0.0,-11.0,-0.9515380859375,-0.225433349609375,Closing,0.0,0.0,0.0,0.0,0.0,0.0,0.0,0.0,
1.7877669999999926,0.0,0.0,6303.0,0.0,0.0,0.0,0.0,0.0,3.8439937470000003,0.0,0.0,-5949.0,0.0,0.0,-0.0,0.0,0.0,1.8737791050000001,0.0,0.0,5976.0,0.0,0.0,0.0,0.0,0.0,4.7680659180000005,0.0,0.0,-5927.0,0.0,0.0,-0.0,0.0,0.0,2.882079783,0.0,0.0,0.75,0.20000000298023224,165.94000244140625,0.0111083984375,0.007568359375,0.98028564453125,29.520000457763672,0.0,-8.0,-0.9515380859375,-0.225433349609375,Closing,0.0,0.0,0.0,0.0,0.0,0.0,0.0,0.0,
1.9162750000000233,0.0,0.0,6303.0,0.0,0.0,0.0,0.0,0.0,3.8427730440000003,0.0,0.0,-5949.0,0.0,0.0,-0.0,0.0,0.0,1.8737791050000001,0.0,0.0,5976.0,0.0,0.0,0.0,0.0,0.0,4.766845215,0.0,0.0,-5927.0,0.0,0.0,-0.0,0.0,0.0,2.882079783,0.0,0.0,0.7599999904632568,0.2199999988079071,165.94000244140625,0.0037841796875,0.01019287109375,0.99700927734375,29.520000457763672,0.0,0.0,-0.9515380859375,-0.225433349609375,Closing,0.0,0.0,0.0,0.0,0.0,0.0,0.0,0.0,
2.049680000000051,0.0,0.0,6303.0,0.0,0.0,0.0,0.0,0.0,3.8403316380000003,0.0,0.0,-5949.0,0.0,0.0,-0.0,0.0,0.0,1.8652341840000002,0.0,0.0,5976.0,0.0,0.0,0.0,0.0,0.0,4.7680659180000005,0.0,0.0,-5927.0,0.0,0.0,-0.0,0.0,0.0,2.882079783,0.0,0.0,0.7699999809265137,0.23999999463558197,165.92999267578125,0.0068359375,0.01348876953125,1.00244140625,29.520000457763672,0.0,-2.0,-0.9515380859375,-0.225433349609375,Closing,0.0,0.0,0.0,0.0,0.0,0.0,0.0,0.0,
2.1737700000000184,0.0,0.0,6303.0,0.0,0.0,0.0,0.0,0.0,3.8439937470000003,0.0,0.0,-5949.0,0.0,0.0,-0.0,0.0,0.0,1.8725584020000001,0.0,0.0,5976.0,0.0,0.0,0.0,0.0,0.0,4.766845215,0.0,0.0,-5927.0,0.0,0.0,-0.0,0.0,0.0,2.882079783,0.0,0.0,0.7699999809265137,0.25,165.92999267578125,0.0068359375,0.0162353515625,1.01678466796875,29.520000457763672,0.0,-1.0,-0.9515380859375,-0.225433349609375,Closing,0.0,0.0,0.0,0.0,0.0,0.0,0.0,0.0,
2.3103190000000176,0.0,0.0,6303.0,0.0,0.0,0.0,0.0,0.0,3.8476558560000003,0.0,0.0,-5949.0,0.0,0.0,-0.0,0.0,0.0,1.8737791050000001,0.0,0.0,5976.0,0.0,0.0,0.0,0.0,0.0,4.766845215,0.0,0.0,-5927.0,0.0,0.0,-0.0,0.0,0.0,2.882079783,0.0,0.0,0.7799999713897705,0.25999999046325684,165.92999267578125,0.01007080078125,0.02081298828125,1.0155029296875,29.479999542236328,0.0,-3.0,-0.9515380859375,-0.225433349609375,Closing,0.0,0.0,0.0,0.0,0.0,0.0,0.0,0.0,
2.438685000000056,0.0,0.0,6303.0,0.0,0.0,0.0,0.0,0.0,3.8391109350000003,0.0,0.0,-5949.0,0.0,0.0,-0.0,0.0,0.0,1.8737791050000001,0.0,0.0,5976.0,0.0,0.0,0.0,0.0,0.0,4.7680659180000005,0.0,0.0,-5927.0,0.0,0.0,-0.0,0.0,0.0,2.883300486,0.0,0.0,0.7799999713897705,0.27000001072883606,165.94000244140625,0.0086669921875,0.01422119140625,1.00640869140625,29.479999542236328,0.0,-3.0,-0.9515380859375,-0.225433349609375,Closing,0.0,0.0,0.0,0.0,0.0,0.0,0.0,0.0,
2.5784250000000464,0.0,0.0,6303.0,0.0,0.0,0.0,0.0,0.0,3.8439937470000003,0.0,0.0,-5949.0,0.0,0.0,-0.0,0.0,0.0,1.874999808,0.0,0.0,5976.0,0.0,0.0,0.0,0.0,0.0,4.7680659180000005,0.0,0.0,-5927.0,0.0,0.0,-0.0,0.0,0.0,2.88085908,0.0,0.0,0.7799999713897705,0.28999999165534973,165.94000244140625,0.00872802734375,0.02447509765625,0.99462890625,29.479999542236328,0.0,0.0,-0.9515380859375,-0.225433349609375,Closing,0.0,0.0,0.0,0.0,0.0,0.0,0.0,0.0,
2.7114429999999703,0.0,0.0,6303.0,0.0,0.0,0.0,0.0,0.0,3.8439937470000003,0.0,0.0,-5949.0,0.0,0.0,-0.0,0.0,0.0,1.8725584020000001,0.0,0.0,5976.0,0.0,0.0,0.0,0.0,0.0,4.766845215,0.0,0.0,-5927.0,0.0,0.0,-0.0,0.0,0.0,2.88085908,0.0,0.0,0.7799999713897705,0.30000001192092896,165.94000244140625,0.0045166015625,0.0181884765625,1.0152587890625,29.479999542236328,0.0,1.0,-0.9515380859375,-0.225433349609375,Closing,0.0,0.0,0.0,0.0,0.0,0.0,0.0,0.0,
2.8388610000000334,0.0,0.0,6303.0,0.0,0.0,0.0,0.0,0.0,3.8439937470000003,0.0,0.0,-5949.0,0.0,0.0,-0.0,0.0,0.0,1.878661917,0.0,0.0,5976.0,0.0,0.0,0.0,0.0,0.0,4.7680659180000005,0.0,0.0,-5927.0,0.0,0.0,-0.0,0.0,0.0,2.882079783,0.0,0.0,0.7900000214576721,0.3100000023841858,165.94000244140625,0.0047607421875,0.00970458984375,0.99859619140625,29.520000457763672,0.0,0.0,-0.9515380859375,-0.225433349609375,Closing,0.0,0.0,0.0,0.0,0.0,0.0,0.0,0.0,
2.9692179999999935,0.0,0.0,6303.0,0.0,0.0,0.0,0.0,0.0,3.8439937470000003,0.0,0.0,-5949.0,0.0,0.0,-0.0,0.0,0.0,1.876220511,0.0,0.0,5976.0,0.0,0.0,0.0,0.0,0.0,4.7680659180000005,0.0,0.0,-5927.0,0.0,0.0,-0.0,0.0,0.0,2.88085908,0.0,0.0,0.7900000214576721,0.3199999928474426,165.94000244140625,0.00665283203125,0.00689697265625,1.00885009765625,29.520000457763672,0.0,-2.0,-0.9515380859375,-0.225433349609375,Closing,0.0,0.0,0.0,0.0,0.0,0.0,0.0,0.0,
3.103457000000053,0.0,0.0,6303.0,0.0,0.0,0.0,0.0,0.0,3.8439937470000003,0.0,0.0,-5949.0,0.0,0.0,-0.0,0.0,0.0,1.8725584020000001,0.0,0.0,5976.0,0.0,0.0,0.0,0.0,0.0,4.7680659180000005,0.0,0.0,-5927.0,0.0,0.0,-0.0,0.0,0.0,2.883300486,0.0,0.0,0.7900000214576721,0.3199999928474426,165.94000244140625,0.00128173828125,0.01666259765625,1.00360107421875,29.520000457763672,0.0,5.0,-0.9515380859375,-0.225433349609375,Closing,0.0,0.0,0.0,0.0,0.0,0.0,0.0,0.0,
3.2324100000000326,0.0,0.0,6303.0,0.0,0.0,0.0,0.0,0.0,3.8439937470000003,0.0,0.0,-5949.0,0.0,0.0,-0.0,0.0,0.0,1.877441214,0.0,0.0,5976.0,0.0,0.0,0.0,0.0,0.0,4.766845215,0.0,0.0,-5927.0,0.0,0.0,-0.0,0.0,0.0,2.882079783,0.0,0.0,0.7900000214576721,0.3400000035762787,165.94000244140625,0.0042724609375,0.015380859375,1.008056640625,29.520000457763672,0.0,2.0,-0.9515380859375,-0.225433349609375,Closing,0.0,0.0,0.0,0.0,0.0,0.0,0.0,0.0,
3.365280000000028,0.0,0.0,6303.0,0.0,0.0,0.0,0.0,0.0,3.8439937470000003,0.0,0.0,-5949.0,0.0,0.0,-0.0,0.0,0.0,1.8737791050000001,0.0,0.0,5976.0,0.0,0.0,0.0,0.0,0.0,4.7631831060000005,0.0,0.0,-5927.0,0.0,0.0,-0.0,0.0,0.0,2.882079783,0.0,0.0,0.7900000214576721,0.3499999940395355,165.94000244140625,0.01129150390625,0.0166015625,1.00079345703125,29.489999771118164,0.0,-4.0,-0.9515380859375,-0.225433349609375,Closing,0.0,0.0,0.0,0.0,0.0,0.0,0.0,0.0,
3.4923100000000558,0.0,0.0,6303.0,0.0,0.0,0.0,0.0,0.0,3.8427730440000003,0.0,0.0,-5949.0,0.0,0.0,-0.0,0.0,0.0,1.8725584020000001,0.0,0.0,5976.0,0.0,0.0,0.0,0.0,0.0,4.7680659180000005,0.0,0.0,-5927.0,0.0,0.0,-0.0,0.0,0.0,2.88085908,0.0,0.0,0.800000011920929,0.3499999940395355,165.94000244140625,0.0093994140625,0.01251220703125,1.0081787109375,29.489999771118164,0.0,-3.0,-0.9515380859375,-0.225433349609375,Closing,0.0,0.0,0.0,0.0,0.0,0.0,0.0,0.0,
3.625384000000078,0.0,0.0,6303.0,0.0,0.0,0.0,0.0,0.0,3.8439937470000003,0.0,0.0,-5949.0,0.0,0.0,-0.0,0.0,0.0,1.887206838,0.0,0.0,5976.0,0.0,0.0,0.0,0.0,0.0,4.7680659180000005,0.0,0.0,-5927.0,0.0,0.0,-0.0,0.0,0.0,2.882079783,0.0,0.0,0.800000011920929,0.3700000047683716,165.94000244140625,0.0062255859375,0.01348876953125,1.0142822265625,29.489999771118164,0.0,0.0,-0.9515380859375,-0.225433349609375,Closing,0.0,0.0,0.0,0.0,0.0,0.0,0.0,0.0,
3.7583100000000558,0.0,0.0,6303.0,0.0,0.0,0.0,0.0,0.0,3.8439937470000003,0.0,0.0,-5949.0,0.0,0.0,-0.0,0.0,0.0,1.876220511,0.0,0.0,5976.0,0.0,0.0,0.0,0.0,0.0,4.7680659180000005,0.0,0.0,-5927.0,0.0,0.0,-0.0,0.0,0.0,2.883300486,0.0,0.0,0.800000011920929,0.3799999952316284,165.94000244140625,0.0048828125,0.01129150390625,1.0098876953125,29.489999771118164,0.0,1.0,-0.9515380859375,-0.225433349609375,Closing,0.0,0.0,0.0,0.0,0.0,0.0,0.0,0.0,
3.892276000000071,0.0,0.0,6303.0,0.0,0.0,0.0,0.0,0.0,3.8391109350000003,0.0,0.0,-5949.0,0.0,0.0,-0.0,0.0,0.0,1.8725584020000001,0.0,0.0,5976.0,0.0,0.0,0.0,0.0,0.0,4.7680659180000005,0.0,0.0,-5927.0,0.0,0.0,-0.0,0.0,0.0,2.88085908,0.0,0.0,0.800000011920929,0.3799999952316284,165.94000244140625,0.0087890625,0.0126953125,1.00665283203125,29.520000457763672,0.0,-2.0,-0.9515380859375,-0.225433349609375,Closing,0.0,0.0,0.0,0.0,0.0,0.0,0.0,0.0,
4.028374000000069,0.0,0.0,6303.0,0.0,0.0,0.0,0.0,0.0,3.8439937470000003,0.0,0.0,-5949.0,0.0,0.0,-0.0,0.0,0.0,1.8725584020000001,0.0,0.0,5976.0,0.0,0.0,0.0,0.0,0.0,4.7631831060000005,0.0,0.0,-5927.0,0.0,0.0,-0.0,0.0,0.0,2.883300486,0.0,0.0,0.800000011920929,0.3799999952316284,165.92999267578125,0.00640869140625,0.01654052734375,1.0235595703125,29.520000457763672,0.0,1.0,-0.9515380859375,-0.225433349609375,Closing,0.0,0.0,0.0,0.0,0.0,0.0,0.0,0.0,
4.155717999999993,0.0,0.0,6303.0,0.0,0.0,0.0,0.0,0.0,3.8439937470000003,0.0,0.0,-5949.0,0.0,0.0,-0.0,0.0,0.0,1.8725584020000001,0.0,0.0,5976.0,0.0,0.0,0.0,0.0,0.0,4.7680659180000005,0.0,0.0,-5927.0,0.0,0.0,-0.0,0.0,0.0,2.882079783,0.0,0.0,0.800000011920929,0.3799999952316284,165.92999267578125,0.00604248046875,0.0118408203125,1.006103515625,29.520000457763672,0.0,0.0,-0.9515380859375,-0.225433349609375,Closing,0.0,0.0,0.0,0.0,0.0,0.0,0.0,0.0,
4.286043000000063,0.0,0.0,6303.0,0.0,0.0,0.0,0.0,0.0,3.8439937470000003,0.0,0.0,-5949.0,0.0,0.0,-0.0,0.0,0.0,1.8725584020000001,0.0,0.0,5976.0,0.0,0.0,0.0,0.0,0.0,4.7680659180000005,0.0,0.0,-5927.0,0.0,0.0,-0.0,0.0,0.0,2.882079783,0.0,0.0,0.800000011920929,0.38999998569488525,165.94000244140625,0.00665283203125,0.01666259765625,1.0072021484375,29.540000915527344,0.0,0.0,-0.9515380859375,-0.225433349609375,Closing,0.0,0.0,0.0,0.0,0.0,0.0,0.0,0.0,
4.415037000000011,0.0,0.0,6303.0,0.0,0.0,0.0,0.0,0.0,3.8452144500000003,0.0,0.0,-5949.0,0.0,0.0,-0.0,0.0,0.0,1.8725584020000001,0.0,0.0,5976.0,0.0,0.0,0.0,0.0,0.0,4.769286621,0.0,0.0,-5927.0,0.0,0.0,-0.0,0.0,0.0,2.882079783,0.0,0.0,0.800000011920929,0.38999998569488525,165.94000244140625,0.006591796875,0.00994873046875,1.00225830078125,29.540000915527344,0.0,0.0,-0.9515380859375,-0.225433349609375,Closing,0.0,0.0,0.0,0.0,0.0,0.0,0.0,0.0,
4.549032000000007,0.0,0.0,6303.0,0.0,0.0,0.0,0.0,0.0,3.8439937470000003,0.0,0.0,-5949.0,0.0,0.0,-0.0,0.0,0.0,1.8713376990000001,0.0,0.0,5976.0,0.0,0.0,0.0,0.0,0.0,4.757079591,0.0,0.0,-5927.0,0.0,0.0,-0.0,0.0,0.0,2.88085908,0.0,0.0,0.800000011920929,0.4000000059604645,165.94000244140625,0.00762939453125,0.0142822265625,1.0086669921875,29.540000915527344,0.0,0.0,-0.9515380859375,-0.225433349609375,Closing,0.0,0.0,0.0,0.0,0.0,0.0,0.0,0.0,
4.679158999999985,0.0,0.0,6303.0,0.0,0.0,0.0,0.0,0.0,3.8391109350000003,0.0,0.0,-5949.0,0.0,0.0,-0.0,0.0,0.0,1.883544729,0.0,0.0,5976.0,0.0,0.0,0.0,0.0,0.0,4.7680659180000005,0.0,0.0,-5927.0,0.0,0.0,-0.0,0.0,0.0,2.879638377,0.0,0.0,0.800000011920929,0.4000000059604645,165.94000244140625,0.006591796875,0.011962890625,1.015380859375,29.540000915527344,0.0,0.0,-0.9515380859375,-0.225433349609375,Closing,0.0,0.0,0.0,0.0,0.0,0.0,0.0,0.0,
4.81040300000005,0.0,0.0,6303.0,0.0,0.0,0.0,0.0,0.0,3.8439937470000003,0.0,0.0,-5949.0,0.0,0.0,-0.0,0.0,0.0,1.8737791050000001,0.0,0.0,5976.0,0.0,0.0,0.0,0.0,0.0,4.7680659180000005,0.0,0.0,-5927.0,0.0,0.0,-0.0,0.0,0.0,2.882079783,0.0,0.0,0.800000011920929,0.4000000059604645,165.92999267578125,0.0079345703125,0.01715087890625,1.010009765625,29.520000457763672,0.0,0.0,-0.9515380859375,-0.225433349609375,Closing,0.0,0.0,0.0,0.0,0.0,0.0,0.0,0.0,
4.936418999999995,0.0,0.0,6303.0,0.0,0.0,0.0,0.0,0.0,3.8439937470000003,0.0,0.0,-5949.0,0.0,0.0,-0.0,0.0,0.0,1.8737791050000001,0.0,0.0,5976.0,0.0,0.0,0.0,0.0,0.0,4.7680659180000005,0.0,0.0,-5927.0,0.0,0.0,-0.0,0.0,0.0,2.882079783,0.0,0.0,0.800000011920929,0.4099999964237213,165.92999267578125,0.0068359375,0.01495361328125,1.00872802734375,29.520000457763672,0.0,0.0,-0.9515380859375,-0.225433349609375,Closing,0.0,0.0,0.0,0.0,0.0,0.0,0.0,0.0,
5.075805999999982,0.0,0.0,6303.0,0.0,0.0,0.0,0.0,0.0,3.8439937470000003,0.0,0.0,-5949.0,0.0,0.0,-0.0,0.0,0.0,1.8725584020000001,0.0,0.0,5976.0,0.0,0.0,0.0,0.0,0.0,4.7680659180000005,0.0,0.0,-5927.0,0.0,0.0,-0.0,0.0,0.0,2.882079783,0.0,0.0,0.800000011920929,0.4099999964237213,165.94000244140625,0.0074462890625,0.01446533203125,1.0081787109375,29.520000457763672,0.0,0.0,-0.9515380859375,-0.225433349609375,Closing,0.0,0.0,0.0,0.0,0.0,0.0,0.0,0.0,
5.210503000000026,0.0,0.0,6303.0,0.0,0.0,0.0,0.0,0.0,3.8439937470000003,0.0,0.0,-5949.0,0.0,0.0,-0.0,0.0,0.0,1.8737791050000001,0.0,0.0,5976.0,0.0,0.0,0.0,0.0,0.0,4.7680659180000005,0.0,0.0,-5927.0,0.0,0.0,-0.0,0.0,0.0,2.882079783,0.0,0.0,0.8100000023841858,0.4099999964237213,165.92999267578125,0.00897216796875,0.01715087890625,1.0174560546875,29.520000457763672,0.0,0.0,-0.9515380859375,-0.225433349609375,Closing,0.0,0.0,0.0,0.0,0.0,0.0,0.0,0.0,
5.336084999999962,0.0,0.0,6303.0,0.0,0.0,0.0,0.0,0.0,3.8366695290000004,0.0,0.0,-5949.0,0.0,0.0,-0.0,0.0,0.0,1.8737791050000001,0.0,0.0,5976.0,0.0,0.0,0.0,0.0,0.0,4.769286621,0.0,0.0,-5927.0,0.0,0.0,-0.0,0.0,0.0,2.882079783,0.0,0.0,0.7400000095367432,0.38999998569488525,165.8699951171875,-0.0047607421875,0.021728515625,1.036865234375,29.5,0.0,13.0,-0.9516143798828125,-0.225250244140625,Closing,0.0,0.0,0.0,0.0,0.0,0.0,0.0,0.0,
5.470408000000054,0.0,0.0,6303.0,0.0,0.0,0.0,0.0,0.0,3.8391109350000003,0.0,0.0,-5949.0,0.0,0.0,-0.0,0.0,0.0,1.8737791050000001,0.0,0.0,5976.0,0.0,0.0,0.0,0.0,0.0,4.777831542,0.0,0.0,-5927.0,0.0,0.0,-0.0,0.0,0.0,2.882079783,0.0,0.0,0.7799999713897705,0.4000000059604645,165.83999633789062,0.00714111328125,-0.0263671875,0.97930908203125,29.5,0.0,-10.0,-0.9516143798828125,-0.22674560546875,Closing,0.0,0.0,0.0,0.0,0.0,0.0,0.0,0.0,
5.595706000000005,0.0,0.0,6303.0,0.0,0.0,0.0,0.0,0.0,3.8403316380000003,0.0,0.0,-5949.0,0.0,0.0,-0.0,0.0,0.0,1.8737791050000001,0.0,0.0,5976.0,0.0,0.0,0.0,0.0,0.0,4.7656245120000005,0.0,0.0,-5927.0,0.0,0.0,-0.0,0.0,0.0,2.882079783,0.0,0.0,0.7900000214576721,0.41999998688697815,165.86000061035156,6.103515625E-5,-0.00469970703125,1.00103759765625,29.5,0.0,2.0,-0.9516143798828125,-0.22723388671875,Closing,0.0,0.0,0.0,0.0,0.0,0.0,0.0,0.0,
5.731781000000075,0.0,0.0,6303.0,0.0,0.0,0.0,0.0,0.0,3.8391109350000003,0.0,0.0,-5949.0,0.0,0.0,-0.0,0.0,0.0,1.8737791050000001,0.0,0.0,5976.0,0.0,0.0,0.0,0.0,0.0,4.766845215,0.0,0.0,-5927.0,0.0,0.0,-0.0,0.0,0.0,2.872314159,0.0,0.0,0.8199999928474426,0.4099999964237213,165.8699951171875,0.0111083984375,0.00146484375,0.99591064453125,29.5,0.0,-6.0,-0.9516143798828125,-0.22723388671875,Closing,0.0,0.0,0.0,0.0,0.0,0.0,0.0,0.0,
5.864344999999972,0.0,0.0,6303.0,0.0,0.0,0.0,0.0,0.0,3.8391109350000003,0.0,0.0,-5949.0,0.0,0.0,-0.0,0.0,0.0,1.8725584020000001,0.0,0.0,5976.0,0.0,0.0,0.0,0.0,0.0,4.7680659180000005,0.0,0.0,-5927.0,0.0,0.0,-0.0,0.0,0.0,2.882079783,0.0,0.0,0.8100000023841858,0.4099999964237213,165.8699951171875,0.0078125,0.00787353515625,1.0152587890625,29.530000686645508,0.0,-2.0,-0.9516143798828125,-0.22723388671875,Closing,0.0,0.0,0.0,0.0,0.0,0.0,0.0,0.0,
5.995386000000057,0.0,0.0,6303.0,0.0,0.0,0.0,0.0,0.0,3.8391109350000003,0.0,0.0,-5949.0,0.0,0.0,-0.0,0.0,0.0,1.8737791050000001,0.0,0.0,5976.0,0.0,0.0,0.0,0.0,0.0,4.766845215,0.0,0.0,-5927.0,0.0,0.0,-0.0,0.0,0.0,2.883300486,0.0,0.0,0.8100000023841858,0.4099999964237213,165.8699951171875,0.004638671875,0.01068115234375,1.01361083984375,29.530000686645508,0.0,1.0,-0.9516143798828125,-0.22723388671875,Closing,0.0,0.0,0.0,0.0,0.0,0.0,0.0,0.0,
6.131584999999963,0.0,0.0,6303.0,0.0,0.0,0.0,0.0,0.0,3.8391109350000003,0.0,0.0,-5949.0,0.0,0.0,-0.0,0.0,0.0,1.8725584020000001,0.0,0.0,5976.0,0.0,0.0,0.0,0.0,0.0,4.7680659180000005,0.0,0.0,-5927.0,0.0,0.0,-0.0,0.0,0.0,2.882079783,0.0,0.0,0.8100000023841858,0.4099999964237213,165.8699951171875,0.0091552734375,0.009521484375,1.00213623046875,29.530000686645508,0.0,-2.0,-0.9516143798828125,-0.22723388671875,Closing,0.0,0.0,0.0,0.0,0.0,0.0,0.0,0.0,
6.268099000000046,0.0,0.0,6303.0,0.0,0.0,0.0,0.0,0.0,3.8391109350000003,0.0,0.0,-5949.0,0.0,0.0,-0.0,0.0,0.0,1.8737791050000001,0.0,0.0,5976.0,0.0,0.0,0.0,0.0,0.0,4.7680659180000005,0.0,0.0,-5927.0,0.0,0.0,-0.0,0.0,0.0,2.882079783,0.0,0.0,0.8100000023841858,0.41999998688697815,165.8699951171875,0.0072021484375,0.01300048828125,1.0137939453125,29.530000686645508,0.0,0.0,-0.9516143798828125,-0.22723388671875,Closing,0.0,0.0,0.0,0.0,0.0,0.0,0.0,0.0,
6.392433000000077,0.0,0.0,6303.0,0.0,0.0,0.0,0.0,0.0,3.8391109350000003,0.0,0.0,-5949.0,0.0,0.0,-0.0,0.0,0.0,1.8725584020000001,0.0,0.0,5976.0,0.0,0.0,0.0,0.0,0.0,4.7680659180000005,0.0,0.0,-5927.0,0.0,0.0,-0.0,0.0,0.0,2.882079783,0.0,0.0,0.800000011920929,0.41999998688697815,165.86000061035156,0.0030517578125,0.01104736328125,1.00164794921875,29.530000686645508,0.0,3.0,-0.9516143798828125,-0.22723388671875,Closing,0.0,0.0,0.0,0.0,0.0,0.0,0.0,0.0,
6.528334999999963,0.0,0.0,6303.0,0.0,0.0,0.0,0.0,0.0,3.8342281230000004,0.0,0.0,-5949.0,0.0,0.0,-0.0,0.0,0.0,1.8725584020000001,0.0,0.0,5976.0,0.0,0.0,0.0,0.0,0.0,4.7680659180000005,0.0,0.0,-5927.0,0.0,0.0,-0.0,0.0,0.0,2.882079783,0.0,0.0,0.800000011920929,0.4300000071525574,165.88999938964844,0.019287109375,0.01348876953125,1.00732421875,29.530000686645508,0.0,-11.0,-0.9516143798828125,-0.22723388671875,Closing,0.0,0.0,0.0,0.0,0.0,0.0,0.0,0.0,
6.662021999999997,0.0,0.0,6303.0,0.0,0.0,0.0,0.0,0.0,3.817138281,0.0,0.0,-5949.0,0.0,0.0,-0.0,0.0,0.0,1.8737791050000001,0.0,0.0,5976.0,0.0,0.0,0.0,0.0,0.0,4.766845215,0.0,0.0,-5927.0,0.0,0.0,-0.0,0.0,0.0,2.882079783,0.0,0.0,0.800000011920929,0.4099999964237213,165.8800048828125,0.0068359375,0.0201416015625,1.0064697265625,29.530000686645508,0.0,1.0,-0.9516143798828125,-0.22723388671875,Closing,0.0,0.0,0.0,0.0,0.0,0.0,0.0,0.0,
6.791380000000005,0.0,0.0,6303.0,0.0,0.0,0.0,0.0,0.0,3.8342281230000004,0.0,0.0,-5949.0,0.0,0.0,-0.0,0.0,0.0,1.8725584020000001,0.0,0.0,5976.0,0.0,0.0,0.0,0.0,0.0,4.7680659180000005,0.0,0.0,-5927.0,0.0,0.0,-0.0,0.0,0.0,2.882079783,0.0,0.0,0.800000011920929,0.4300000071525574,165.8800048828125,0.009033203125,0.01739501953125,1.01190185546875,29.530000686645508,0.0,0.0,-0.9516143798828125,-0.22723388671875,Closing,0.0,0.0,0.0,0.0,0.0,0.0,0.0,0.0,
6.933793000000064,0.0,0.0,6303.0,0.0,0.0,0.0,0.0,0.0,3.8354488260000004,0.0,0.0,-5949.0,0.0,0.0,-0.0,0.0,0.0,1.8725584020000001,0.0,0.0,5976.0,0.0,0.0,0.0,0.0,0.0,4.769286621,0.0,0.0,-5927.0,0.0,0.0,-0.0,0.0,0.0,2.882079783,0.0,0.0,0.8100000023841858,0.4300000071525574,165.8800048828125,0.00262451171875,0.00457763671875,1.03790283203125,29.530000686645508,0.0,2.0,-0.9516143798828125,-0.22723388671875,Closing,0.0,0.0,0.0,0.0,0.0,0.0,0.0,0.0,
7.0735080000000305,0.0,0.0,6303.0,0.0,0.0,0.0,0.0,0.0,3.8330074200000004,0.0,0.0,-5949.0,0.0,0.0,-0.0,0.0,0.0,1.8725584020000001,0.0,0.0,5976.0,0.0,0.0,0.0,0.0,0.0,4.7680659180000005,0.0,0.0,-5927.0,0.0,0.0,-0.0,0.0,0.0,2.882079783,0.0,0.0,0.800000011920929,0.4300000071525574,165.8800048828125,0.00537109375,0.0079345703125,1.038818359375,29.530000686645508,0.0,0.0,-0.9516143798828125,-0.22723388671875,Closing,0.0,0.0,0.0,0.0,0.0,0.0,0.0,0.0,
7.2127449999999955,0.0,0.0,6303.0,0.0,0.0,0.0,0.0,0.0,3.8342281230000004,0.0,0.0,-5949.0,0.0,0.0,-0.0,0.0,0.0,1.8737791050000001,0.0,0.0,5976.0,0.0,0.0,0.0,0.0,0.0,4.7680659180000005,0.0,0.0,-5927.0,0.0,0.0,-0.0,0.0,0.0,2.882079783,0.0,0.0,0.7900000214576721,0.4300000071525574,165.8800048828125,0.01190185546875,0.01263427734375,1.000732421875,29.530000686645508,0.0,-4.0,-0.9516143798828125,-0.22723388671875,Closing,0.0,0.0,0.0,0.0,0.0,0.0,0.0,0.0,
7.347729999999982,0.0,0.0,6303.0,0.0,0.0,0.0,0.0,0.0,3.8354488260000004,0.0,0.0,-5949.0,0.0,0.0,-0.0,0.0,0.0,1.8725584020000001,0.0,0.0,5976.0,0.0,0.0,0.0,0.0,0.0,4.775390136,0.0,0.0,-5927.0,0.0,0.0,-0.0,0.0,0.0,2.882079783,0.0,0.0,0.7799999713897705,0.41999998688697815,165.8800048828125,0.010986328125,0.01275634765625,0.98687744140625,29.540000915527344,0.0,-3.0,-0.9516143798828125,-0.22723388671875,Closing,0.0,0.0,0.0,0.0,0.0,0.0,0.0,0.0,
7.4884579999999845,0.0,0.0,6388.0,12.875,532.5,1607.2440791130064,0.0,0.125,3.770751567,4.769300956217446,0.0,-6027.0,13.625,-457.5,-1607.2440791130064,0.0,0.0,1.826171688,4.754889289347328,0.0,6024.0,20.875,322.5,1607.2440791130064,0.0,0.0,4.686278817,4.759693178304034,0.0,-5971.0,29.875,-300.0,-1607.2440791130064,0.0,0.0,2.8564450200000002,4.753448122660316,0.0,0.6000000238418579,2.069999933242798,165.75999450683594,0.4666748046875,-0.19891357421875,1.11474609375,29.540000915527344,0.0,-464.0,-0.9588470458984375,-0.230194091796875,Closing,0.0,0.0,0.0,0.0,0.0,0.0,0.0,0.0,
7.6300380000000585,0.0,0.0,6442.0,0.0,187.5,0.0,0.0,0.0,3.662109,4.769300956217446,0.0,-6103.0,0.0,-345.0,0.0,0.0,0.0,1.6809080310000002,4.754889289347328,0.0,6082.0,0.0,210.0,0.0,0.0,0.0,4.584960468,4.759693178304034,0.0,-6032.0,0.0,-322.5,0.0,0.0,0.0,2.718505581,4.753448122660316,0.0,0.7599999904632568,0.30000001192092896,166.83999633789062,-0.57537841796875,0.10491943359375,0.90692138671875,29.540000915527344,0.0,586.0,-0.9817962646484375,-0.234832763671875,Closing,0.0,0.0,0.0,0.0,0.0,0.0,0.0,0.0,
7.772788000000059,0.0,0.0,6442.0,0.0,-7.5,0.0,0.0,0.0,3.6389156430000003,4.769300956217446,0.0,-6104.0,0.0,105.0,0.0,0.0,0.0,1.600341633,4.754889289347328,0.0,6082.0,0.0,-22.5,0.0,0.0,0.0,4.5507807840000005,4.759693178304034,0.0,-6047.0,0.0,232.5,0.0,0.0,0.0,2.6416012920000003,4.753448122660316,0.0,1.0199999809265137,-0.36000001430511475,166.14999389648438,0.10308837890625,0.03802490234375,1.04144287109375,29.540000915527344,0.0,-101.0,-0.9614715576171875,-0.2358856201171875,Closing,0.0,0.0,0.0,0.0,0.0,0.0,0.0,0.0,
7.914680000000051,0.0,0.0,6419.0,0.0,-172.5,0.0,0.0,0.0,3.6389156430000003,4.769300956217446,0.0,-6064.0,0.0,112.5,0.0,0.0,0.0,1.6052244450000002,4.754889289347328,0.0,6061.0,0.0,-142.5,0.0,0.0,0.0,4.5556635960000005,4.759693178304034,0.0,-6010.0,0.0,112.5,0.0,0.0,0.0,2.6428219950000003,4.753448122660316,0.0,0.7300000190734863,0.20000000298023224,166.47000122070312,0.1107177734375,0.0029296875,1.02783203125,29.530000686645508,0.0,-106.0,-0.9515838623046875,-0.2369232177734375,Closing,0.0,0.0,0.0,0.0,0.0,0.0,0.0,0.0,
8.051011000000058,0.0,0.0,6405.0,0.0,0.0,0.0,0.0,0.0,3.6401363460000002,4.769300956217446,0.0,-6059.0,0.0,15.0,0.0,0.0,0.0,1.6052244450000002,4.754889289347328,0.0,6045.0,0.0,0.0,0.0,0.0,0.0,4.575194844,4.759693178304034,0.0,-6000.0,0.0,0.0,0.0,0.0,0.0,2.6416012920000003,4.753448122660316,0.0,0.6700000166893005,0.46000000834465027,166.4199981689453,-0.0142822265625,0.0120849609375,0.929931640625,29.530000686645508,0.0,21.0,-0.9510650634765625,-0.2368621826171875,Closing,0.0,0.0,0.0,0.0,0.0,0.0,0.0,0.0,
8.191287000000012,0.0,0.0,6405.0,0.0,0.0,0.0,0.0,0.0,3.6389156430000003,4.769300956217446,0.0,-6059.0,0.0,0.0,0.0,0.0,0.0,1.6052244450000002,4.754889289347328,0.0,6045.0,0.0,0.0,0.0,0.0,0.0,4.573974141,4.759693178304034,0.0,-6000.0,0.0,0.0,0.0,0.0,0.0,2.6416012920000003,4.753448122660316,0.0,0.75,0.3199999928474426,166.4199981689453,0.00701904296875,-8.544921875E-4,0.99871826171875,29.530000686645508,0.0,-4.0,-0.9495391845703125,-0.2372283935546875,Closing,0.0,0.0,0.0,0.0,0.0,0.0,0.0,0.0,
8.33431700000004,0.0,0.0,6377.0,1.5,-172.5,-630.0,0.0,0.0,3.6389156430000003,4.77674686364068,0.0,-6030.0,1.75,195.0,630.0,0.0,0.0,1.6040037420000002,4.762312697050306,0.0,6016.0,1.875,-172.5,-630.0,0.0,0.0,4.57763625,4.767124085913764,0.0,-5972.0,4.125,217.5,630.0,0.0,0.0,2.6318356680000004,4.760869280391269,0.0,0.8700000047683716,-0.1899999976158142,166.41000366210938,-0.21063232421875,0.151611328125,1.04608154296875,29.530000686645508,0.0,233.0,-0.9461822509765625,-0.237030029296875,Closing,0.0,0.0,0.0,0.0,0.0,0.0,0.0,0.0,
8.473467000000062,0.0,0.0,6366.0,0.0,-45.0,0.0,0.0,0.0,3.6389156430000003,4.77674686364068,0.0,-6018.0,0.0,45.0,0.0,0.0,0.0,1.613769366,4.762312697050306,0.0,6002.0,0.0,-52.5,0.0,0.0,0.0,4.584960468,4.767124085913764,0.0,-5962.0,0.0,30.0,0.0,0.0,0.0,2.6379391830000003,4.760869280391269,0.0,0.800000011920929,-0.009999999776482582,166.6300048828125,0.048828125,0.0189208984375,0.9603271484375,29.549999237060547,0.0,-46.0,-0.9370574951171875,-0.237060546875,Closing,0.0,0.0,0.0,0.0,0.0,0.0,0.0,0.0,
8.605437999999966,0.0,0.0,6362.0,0.0,-30.0,0.0,0.0,0.0,3.6389156430000003,4.77674686364068,0.0,-6018.0,0.0,0.0,0.0,0.0,0.0,1.618652178,4.762312697050306,0.0,5998.0,0.0,-30.0,0.0,0.0,0.0,4.583739765000001,4.767124085913764,0.0,-5955.0,0.0,37.5,0.0,0.0,0.0,2.6367184800000003,4.760869280391269,0.0,0.6100000143051147,0.550000011920929,166.58999633789062,0.03411865234375,-0.02227783203125,0.94281005859375,29.549999237060547,0.0,-31.0,-0.9348907470703125,-0.23675537109375,Closing,0.0,0.0,0.0,0.0,0.0,0.0,0.0,0.0,
8.737087000000058,0.0,0.0,6361.0,0.0,0.0,0.0,0.0,0.0,3.6389156430000003,4.77674686364068,0.0,-6017.0,0.0,0.0,0.0,0.0,0.0,1.618652178,4.762312697050306,0.0,5997.0,0.0,0.0,0.0,0.0,0.0,4.586181171000001,4.767124085913764,0.0,-5955.0,0.0,0.0,0.0,0.0,0.0,2.6367184800000003,4.760869280391269,0.0,0.6499999761581421,0.5299999713897705,166.58999633789062,-0.01385498046875,0.03192138671875,0.985595703125,29.549999237060547,0.0,27.0,-0.9349212646484375,-0.236480712890625,Closing,0.0,0.0,0.0,0.0,0.0,0.0,0.0,0.0,
8.873043999999995,0.0,0.0,6352.0,5.375,-247.5,-984.3749999999999,0.0,0.0,3.6389156430000003,4.779090949503582,0.0,-6009.0,5.25,232.5,984.3749999999999,0.0,0.0,1.619872881,4.764649699656168,0.0,5992.0,5.5,-247.5,-984.3749999999999,0.0,0.0,4.591063983000001,4.769463449605306,0.0,-5943.0,11.25,247.5,984.3749999999999,0.0,0.0,2.6416012920000003,4.763205574671427,0.0,0.8100000023841858,-0.38999998569488525,166.55999755859375,-0.10028076171875,-0.0947265625,0.42803955078125,29.549999237060547,0.0,71.0,-0.925201416015625,-0.236907958984375,Closing,0.0,0.0,0.0,0.0,0.0,0.0,0.0,0.0,
9.008650000000022,0.0,0.0,6301.0,5.5,-465.0,-984.3749999999999,0.0,0.0,3.6376949400000003,4.779090949503582,0.0,-5960.0,6.375,510.0,984.3749999999999,0.0,0.0,1.618652178,4.764649699656168,0.0,5933.0,5.0,-555.0,-984.3749999999999,0.0,0.0,4.591063983000001,4.769463449605306,0.0,-5893.0,10.25,562.5,984.3749999999999,0.0,0.0,2.6379391830000003,4.763205574671427,0.0,1.3700000047683716,-1.6299999952316284,166.92999267578125,-0.22454833984375,0.128662109375,0.97589111328125,29.540000915527344,0.0,215.0,-0.8829345703125,-0.242401123046875,Closing,0.0,0.0,0.0,0.0,0.0,0.0,0.0,0.0,
9.14468200000003,0.0,0.0,6203.0,2.0,-772.5,-787.5,0.0,0.0,3.6328121280000003,4.783779121229384,0.0,-5866.0,2.75,720.0,787.5,0.0,0.0,1.621093584,4.769323704867893,0.0,5703.0,0.875,-795.0,-787.5,0.0,0.0,4.599608904,4.77414217698839,0.0,-5664.0,3.625,780.0,787.5,0.0,0.0,2.6367184800000003,4.767878163231743,0.0,1.5499999523162842,-1.7999999523162842,167.4600067138672,-0.016845703125,0.0018310546875,0.97076416015625,29.540000915527344,0.0,-18.0,-0.8301544189453125,-0.2480621337890625,Closing,0.0,0.0,0.0,0.0,0.0,0.0,0.0,0.0,
9.273349000000046,0.0,0.0,5975.0,0.0,-652.5,-216.5625,0.0,0.0,3.6376949400000003,4.791087425910103,0.0,-5653.0,0.0,607.5,216.5625,0.0,0.0,1.624755693,4.776609925630357,0.0,5598.0,0.0,-645.0,-216.5625,0.0,0.0,4.595946795000001,4.781435759056939,0.0,-5568.0,0.0,592.5,216.5625,0.0,0.0,2.6428219950000003,4.775162175602383,0.0,1.3600000143051147,-1.149999976158142,167.97000122070312,0.16900634765625,-0.06585693359375,0.59991455078125,29.540000915527344,0.0,-193.0,-0.7866058349609375,-0.252899169921875,Closing,0.0,0.0,0.0,0.0,0.0,0.0,0.0,0.0,
9.406064000000013,0.0,0.0,5873.0,0.0,-630.0,0.0,0.0,0.0,3.6376949400000003,4.791087425910103,0.0,-5558.0,0.0,592.5,0.0,0.0,0.0,1.6333006140000002,4.776609925630357,0.0,5500.0,0.0,-630.0,0.0,0.0,0.0,4.594726092,4.781435759056939,0.0,-5473.0,0.0,577.5,0.0,0.0,0.0,2.6464841040000002,4.775162175602383,0.0,1.1100000143051147,-0.4300000071525574,168.3300018310547,0.0694580078125,-0.0205078125,0.931640625,29.520000457763672,0.0,-154.0,-0.7525634765625,-0.253204345703125,Closing,0.0,0.0,0.0,0.0,0.0,0.0,0.0,0.0,
9.534432000000029,0.0,0.0,5796.0,0.0,-480.0,0.0,0.0,0.0,3.6364742370000003,4.791087425910103,0.0,-5489.0,0.0,435.0,0.0,0.0,0.0,1.6333006140000002,4.776609925630357,0.0,5425.0,0.0,-465.0,0.0,0.0,0.0,4.595946795000001,4.781435759056939,0.0,-5402.0,0.0,412.5,0.0,0.0,0.0,2.6464841040000002,4.775162175602383,0.0,0.9599999785423279,0.12999999523162842,168.67999267578125,0.093994140625,0.01361083984375,1.12139892578125,29.520000457763672,0.0,-90.0,-0.73699951171875,-0.2519073486328125,Closing,0.0,0.0,0.0,0.0,0.0,0.0,0.0,0.0,
9.666746000000042,0.0,0.0,5745.0,0.0,-292.5,0.0,0.0,0.0,3.6340328310000003,4.791087425910103,0.0,-5441.0,0.0,270.0,0.0,0.0,0.0,1.6333006140000002,4.776609925630357,0.0,5373.0,0.0,-292.5,0.0,0.0,0.0,4.594726092,4.781435759056939,0.0,-5353.0,0.0,277.5,0.0,0.0,0.0,2.6464841040000002,4.775162175602383,0.0,0.75,0.6600000262260437,168.89999389648438,0.1058349609375,-0.01019287109375,0.998779296875,29.520000457763672,0.0,-96.0,-0.7296295166015625,-0.251861572265625,Closing,0.0,0.0,0.0,0.0,0.0,0.0,0.0,0.0,
9.795589999999967,0.0,0.0,5717.0,0.0,-127.5,0.0,0.0,0.0,3.6352535340000003,4.791087425910103,0.0,-5414.0,0.0,127.5,0.0,0.0,0.0,1.6333006140000002,4.776609925630357,0.0,5346.0,0.0,-112.5,0.0,0.0,0.0,4.594726092,4.781435759056939,0.0,-5326.0,0.0,97.5,0.0,0.0,0.0,2.647704807,4.775162175602383,0.0,0.5799999833106995,1.1799999475479126,168.97000122070312,0.0963134765625,-0.0130615234375,0.99432373046875,29.520000457763672,0.0,-78.0,-0.7324066162109375,-0.251251220703125,Closing,0.0,0.0,0.0,0.0,0.0,0.0,0.0,0.0,
9.939148000000044,0.0,0.0,5710.0,0.0,0.0,0.0,0.0,0.0,3.6376949400000003,4.791087425910103,0.0,-5410.0,0.0,0.0,0.0,0.0,0.0,1.6333006140000002,4.776609925630357,0.0,5340.0,0.0,0.0,0.0,0.0,0.0,4.594726092,4.781435759056939,0.0,-5322.0,0.0,0.0,0.0,0.0,0.0,2.6464841040000002,4.775162175602383,0.0,0.5299999713897705,1.2999999523162842,168.9499969482422,3.662109375E-4,0.023193359375,0.993896484375,29.5,0.0,24.0,-0.737823486328125,-0.251251220703125,Closing,0.0,0.0,0.0,0.0,0.0,0.0,0.0,0.0,
10.07517200000002,0.0,0.0,5708.0,2.625,-172.5,-748.1249999999999,0.0,0.0,3.603515256,4.811632735697429,0.0,-5408.0,2.125,180.0,748.1249999999999,0.0,0.0,1.6345213170000001,4.797093152491251,0.0,5337.0,2.875,-165.0,-748.1249999999999,0.0,0.0,4.611815934,4.801939680226644,0.0,-5320.0,5.75,202.5,748.1249999999999,0.0,0.0,2.647704807,4.795639194170634,0.0,0.6299999952316284,0.6200000047683716,168.97000122070312,-0.09454345703125,-0.1204833984375,0.5089111328125,29.5,0.0,74.0,-0.7320556640625,-0.2517852783203125,Closing,0.0,0.0,0.0,0.0,0.0,0.0,0.0,0.0,
10.207942000000038,0.0,0.0,5674.0,0.0,-30.0,0.0,0.0,0.0,3.6389156430000003,4.811632735697429,0.0,-5372.0,0.0,30.0,0.0,0.0,0.0,1.6577146740000002,4.797093152491251,0.0,5302.0,0.0,-52.5,0.0,0.0,0.0,4.624022964,4.801939680226644,0.0,-5280.0,0.0,45.0,0.0,0.0,0.0,2.66113254,4.795639194170634,0.0,0.7200000286102295,0.5899999737739563,169.13999938964844,0.1727294921875,-0.01080322265625,1.15814208984375,29.5,0.0,-162.0,-0.71441650390625,-0.2544403076171875,Closing,0.0,0.0,0.0,0.0,0.0,0.0,0.0,0.0,
10.343205000000074,0.0,0.0,5668.0,0.0,-97.5,0.0,0.0,0.0,3.6315914250000003,4.811632735697429,0.0,-5359.0,0.0,82.5,0.0,0.0,0.0,1.67236311,4.797093152491251,0.0,5283.0,0.0,-82.5,0.0,0.0,0.0,4.627685073,4.801939680226644,0.0,-5267.0,0.0,75.0,0.0,0.0,0.0,2.66113254,4.795639194170634,0.0,0.5799999833106995,1.1200000047683716,169.1699981689453,0.0960693359375,-0.01751708984375,0.96502685546875,29.5,0.0,-80.0,-0.7053375244140625,-0.256439208984375,Closing,0.0,0.0,0.0,0.0,0.0,0.0,0.0,0.0,
10.47517200000002,0.0,0.0,5657.0,0.0,0.0,0.0,0.0,0.0,3.6340328310000003,4.811632735697429,0.0,-5359.0,0.0,0.0,0.0,0.0,0.0,1.669921704,4.797093152491251,0.0,5283.0,0.0,0.0,0.0,0.0,0.0,4.628905776,4.801939680226644,0.0,-5267.0,0.0,0.0,0.0,0.0,0.0,2.66113254,4.795639194170634,0.0,0.5600000023841858,1.149999976158142,169.17999267578125,0.00714111328125,0.036376953125,0.95660400390625,29.520000457763672,0.0,16.0,-0.702239990234375,-0.256195068359375,Closing,0.0,0.0,0.0,0.0,0.0,0.0,0.0,0.0,
10.60697900000005,0.0,0.0,5657.0,0.0,0.0,0.0,0.0,0.0,3.6425777520000002,4.811632735697429,0.0,-5359.0,0.0,0.0,0.0,0.0,0.0,1.67236311,4.797093152491251,0.0,5283.0,0.0,0.0,0.0,0.0,0.0,4.628905776,4.801939680226644,0.0,-5267.0,0.0,0.0,0.0,0.0,0.0,2.659911837,4.795639194170634,0.0,0.6399999856948853,0.9800000190734863,169.17999267578125,9.765625E-4,0.0284423828125,0.95660400390625,29.520000457763672,0.0,18.0,-0.700347900390625,-0.256317138671875,Closing,0.0,0.0,0.0,0.0,0.0,0.0,0.0,0.0,
10.741163000000059,0.0,0.0,5657.0,0.0,0.0,0.0,0.0,0.0,3.647460564,4.811632735697429,0.0,-5359.0,0.0,0.0,0.0,0.0,0.0,1.67236311,4.797093152491251,0.0,5283.0,0.0,0.0,0.0,0.0,0.0,4.628905776,4.801939680226644,0.0,-5267.0,0.0,0.0,0.0,0.0,0.0,2.662353243,4.795639194170634,0.0,0.6399999856948853,0.9800000190734863,169.17999267578125,0.0181884765625,0.01861572265625,0.966064453125,29.520000457763672,0.0,0.0,-0.700347900390625,-0.256317138671875,Closing,0.0,0.0,0.0,0.0,0.0,0.0,0.0,0.0,
10.871271999999998,0.0,0.0,5657.0,0.0,0.0,0.0,0.0,0.0,3.643798455,4.811632735697429,0.0,-5359.0,0.0,0.0,0.0,0.0,0.0,1.671142407,4.797093152491251,0.0,5283.0,0.0,0.0,0.0,0.0,0.0,4.628905776,4.801939680226644,0.0,-5267.0,0.0,0.0,0.0,0.0,0.0,2.66113254,4.795639194170634,0.0,0.6800000071525574,0.9200000166893005,169.17999267578125,0.004150390625,0.023193359375,0.9783935546875,29.520000457763672,0.0,13.0,-0.700347900390625,-0.256317138671875,Closing,0.0,0.0,0.0,0.0,0.0,0.0,0.0,0.0,
11.005053000000073,0.0,0.0,5657.0,0.0,0.0,0.0,0.0,0.0,3.643798455,4.811632735697429,0.0,-5359.0,0.0,0.0,0.0,0.0,0.0,1.67236311,4.797093152491251,0.0,5283.0,0.0,0.0,0.0,0.0,0.0,4.627685073,4.801939680226644,0.0,-5267.0,0.0,0.0,0.0,0.0,0.0,2.66113254,4.795639194170634,0.0,0.7099999785423279,0.8799999952316284,169.1699981689453,0.00927734375,0.02276611328125,1.04425048828125,29.530000686645508,0.0,8.0,-0.700347900390625,-0.256317138671875,Closing,0.0,0.0,0.0,0.0,0.0,0.0,0.0,0.0,
11.14277800000005,0.0,0.0,5657.0,0.0,0.0,0.0,0.0,0.0,3.6425777520000002,4.811632735697429,0.0,-5359.0,0.0,0.0,0.0,0.0,0.0,1.67236311,4.797093152491251,0.0,5283.0,0.0,0.0,0.0,0.0,0.0,4.628905776,4.801939680226644,0.0,-5267.0,0.0,0.0,0.0,0.0,0.0,2.66113254,4.795639194170634,0.0,0.7300000190734863,0.8500000238418579,169.1699981689453,0.011474609375,0.02099609375,1.026123046875,29.530000686645508,0.0,5.0,-0.700347900390625,-0.256317138671875,Closing,0.0,0.0,0.0,0.0,0.0,0.0,0.0,0.0,
11.273368000000017,0.0,0.0,5657.0,0.0,0.0,0.0,0.0,0.0,3.6425777520000002,4.811632735697429,0.0,-5359.0,0.0,0.0,0.0,0.0,0.0,1.67236311,4.797093152491251,0.0,5283.0,0.0,0.0,0.0,0.0,0.0,4.630126479,4.801939680226644,0.0,-5267.0,0.0,0.0,0.0,0.0,0.0,2.66113254,4.795639194170634,0.0,0.7400000095367432,0.8199999928474426,169.1699981689453,0.010986328125,0.01727294921875,1.02471923828125,29.530000686645508,0.0,4.0,-0.700347900390625,-0.256317138671875,Closing,0.0,0.0,0.0,0.0,0.0,0.0,0.0,0.0,
11.408408999999985,0.0,0.0,5657.0,0.0,0.0,0.0,0.0,0.0,3.6389156430000003,4.811632735697429,0.0,-5359.0,0.0,0.0,0.0,0.0,0.0,1.67236311,4.797093152491251,0.0,5283.0,0.0,0.0,0.0,0.0,0.0,4.628905776,4.801939680226644,0.0,-5267.0,0.0,0.0,0.0,0.0,0.0,2.66113254,4.795639194170634,0.0,0.7400000095367432,0.800000011920929,169.1699981689453,0.0135498046875,0.01873779296875,1.01690673828125,29.530000686645508,0.0,1.0,-0.700347900390625,-0.256317138671875,Closing,0.0,0.0,0.0,0.0,0.0,0.0,0.0,0.0,
11.53827600000007,0.0,0.0,5657.0,0.0,0.0,0.0,0.0,0.0,3.6401363460000002,4.811632735697429,0.0,-5359.0,0.0,0.0,0.0,0.0,0.0,1.67236311,4.797093152491251,0.0,5283.0,0.0,0.0,0.0,0.0,0.0,4.628905776,4.801939680226644,0.0,-5267.0,0.0,0.0,0.0,0.0,0.0,2.66113254,4.795639194170634,0.0,0.7599999904632568,0.7799999713897705,169.1699981689453,0.0086669921875,0.0140380859375,0.9990234375,29.520000457763672,0.0,5.0,-0.700347900390625,-0.256317138671875,Closing,0.0,0.0,0.0,0.0,0.0,0.0,0.0,0.0,
11.670407000000006,0.0,0.0,5657.0,0.0,0.0,0.0,0.0,0.0,3.643798455,4.811632735697429,0.0,-5359.0,0.0,0.0,0.0,0.0,0.0,1.671142407,4.797093152491251,0.0,5283.0,0.0,0.0,0.0,0.0,0.0,4.628905776,4.801939680226644,0.0,-5267.0,0.0,0.0,0.0,0.0,0.0,2.66113254,4.795639194170634,0.0,0.7699999809265137,0.7599999904632568,169.1699981689453,0.01263427734375,0.015869140625,1.00872802734375,29.520000457763672,0.0,1.0,-0.700347900390625,-0.256317138671875,Closing,0.0,0.0,0.0,0.0,0.0,0.0,0.0,0.0,
11.799070999999996,0.0,0.0,5657.0,0.0,0.0,0.0,0.0,0.0,3.643798455,4.811632735697429,0.0,-5359.0,0.0,0.0,0.0,0.0,0.0,1.67236311,4.797093152491251,0.0,5283.0,0.0,0.0,0.0,0.0,0.0,4.628905776,4.801939680226644,0.0,-5267.0,0.0,0.0,0.0,0.0,0.0,2.66113254,4.795639194170634,0.0,0.7799999713897705,0.75,169.16000366210938,0.01104736328125,0.0157470703125,0.99102783203125,29.520000457763672,0.0,2.0,-0.700347900390625,-0.256317138671875,Closing,0.0,0.0,0.0,0.0,0.0,0.0,0.0,0.0,
11.933753000000026,0.0,0.0,5657.0,0.0,0.0,0.0,0.0,0.0,3.6425777520000002,4.811632735697429,0.0,-5359.0,0.0,0.0,0.0,0.0,0.0,1.671142407,4.797093152491251,0.0,5283.0,0.0,0.0,0.0,0.0,0.0,4.627685073,4.801939680226644,0.0,-5267.0,0.0,0.0,0.0,0.0,0.0,2.662353243,4.795639194170634,0.0,0.7900000214576721,0.7300000190734863,169.16000366210938,0.0086669921875,0.0159912109375,0.99822998046875,29.540000915527344,0.0,4.0,-0.700347900390625,-0.256317138671875,Closing,0.0,0.0,0.0,0.0,0.0,0.0,0.0,0.0,
12.065852000000072,0.0,0.0,5657.0,0.0,0.0,0.0,0.0,0.0,3.6425777520000002,4.811632735697429,0.0,-5359.0,0.0,0.0,0.0,0.0,0.0,1.67236311,4.797093152491251,0.0,5283.0,0.0,0.0,0.0,0.0,0.0,4.628905776,4.801939680226644,0.0,-5267.0,0.0,0.0,0.0,0.0,0.0,2.66113254,4.795639194170634,0.0,0.800000011920929,0.7099999785423279,169.16000366210938,0.0069580078125,0.01812744140625,0.99908447265625,29.540000915527344,0.0,6.0,-0.700347900390625,-0.256317138671875,Closing,0.0,0.0,0.0,0.0,0.0,0.0,0.0,0.0,
12.195756999999983,0.0,0.0,5657.0,0.125,0.0,-236.24999999999997,0.0,0.0,3.6401363460000002,4.814528494940864,0.0,-5355.0,0.0,45.0,236.24999999999997,0.0,0.0,1.671142407,4.799980161454942,0.0,5283.0,0.125,0.0,-236.24999999999997,0.0,0.0,4.627685073,4.80482960595025,0.0,-5257.0,0.375,112.5,236.24999999999997,0.0,0.0,2.66113254,4.798525328106351,0.0,0.8199999928474426,0.6499999761581421,169.13999938964844,0.01220703125,0.02703857421875,0.98297119140625,29.540000915527344,0.0,1.0,-0.700103759765625,-0.256317138671875,Closing,0.0,0.0,0.0,0.0,0.0,0.0,0.0,0.0,
12.334518999999972,0.0,0.0,5625.0,6.0,-247.5,-1043.4375,0.0,0.0,3.6425777520000002,4.814252658250597,0.0,-5332.0,8.25,165.0,1043.4375,0.0,0.0,1.67236311,4.799705158276028,0.0,5258.0,6.875,-330.0,-1043.4375,0.0,0.0,4.652099133,4.804554324934218,0.0,-5238.0,14.875,187.5,1043.4375,0.0,0.0,2.66113254,4.798250408278571,0.0,1.1799999475479126,-0.5099999904632568,169.1699981689453,-0.3079833984375,0.1400146484375,1.29730224609375,29.540000915527344,0.0,312.0,-0.690826416015625,-0.25701904296875,Closing,0.0,0.0,0.0,0.0,0.0,0.0,0.0,0.0,
12.466785999999964,0.0,0.0,5576.0,3.375,-510.0,-748.1249999999999,0.0,0.0,3.6413570490000002,4.814666308085124,0.0,-5276.0,4.125,510.0,748.1249999999999,0.0,0.0,1.671142407,4.800117558161418,0.0,5194.0,3.125,-517.5,-748.1249999999999,0.0,0.0,4.6533198360000005,4.804967141469319,0.0,-5177.0,6.375,547.5,748.1249999999999,0.0,0.0,2.66113254,4.798662683169047,0.0,1.4500000476837158,-1.340000033378601,169.2899932861328,-0.13934326171875,0.019287109375,0.983154296875,29.540000915527344,0.0,113.0,-0.6611785888671875,-0.259918212890625,Closing,0.0,0.0,0.0,0.0,0.0,0.0,0.0,0.0,
12.599670000000042,0.0,0.0,5468.0,1.625,-727.5,-728.4375,0.0,0.0,3.6425777520000002,4.816320907423232,0.0,-5176.0,2.25,697.5,728.4375,0.0,0.0,1.679687328,4.801767157702976,0.0,5089.0,1.0,-720.0,-728.4375,0.0,0.0,4.6557612420000005,4.806618407609728,0.0,-5071.0,3.25,727.5,728.4375,0.0,0.0,2.662353243,4.80031178273095,0.0,1.5700000524520874,-1.559999942779541,169.74000549316406,-0.05487060546875,0.035400390625,1.1658935546875,29.540000915527344,0.0,23.0,-0.61968994140625,-0.2631683349609375,Closing,0.0,0.0,0.0,0.0,0.0,0.0,0.0,0.0,
12.732955000000075,0.0,0.0,5346.0,0.75,-802.5,-728.4375,0.0,0.0,3.648681267,4.823215351867677,0.0,-5059.0,1.5,757.5,728.4375,0.0,0.0,1.671142407,4.808640768814087,0.0,4969.0,0.125,-795.0,-728.4375,0.0,0.0,4.6533198360000005,4.813498963165284,0.0,-4953.0,2.25,772.5,728.4375,0.0,0.0,2.666015352,4.807183310508728,0.0,1.4299999475479126,-1.4299999475479126,170.17999267578125,0.05377197265625,0.07452392578125,0.76641845703125,29.540000915527344,0.0,-62.0,-0.57794189453125,-0.2650604248046875,Closing,0.0,0.0,0.0,0.0,0.0,0.0,0.0,0.0,
12.866628000000025,0.0,0.0,5217.0,0.375,-795.0,-728.4375,0.0,0.0,3.668212515,4.828593010118273,0.0,-4812.0,1.25,772.5,728.4375,0.0,0.0,1.671142407,4.8140021770901145,0.0,4722.0,0.125,-750.0,-728.4375,0.0,0.0,4.6533198360000005,4.818865788099501,0.0,-4704.0,1.875,772.5,728.4375,0.0,0.0,2.675780976,4.8125430937872995,0.0,1.440000057220459,-1.2200000286102295,170.6699981689453,-0.0433349609375,0.04150390625,1.06298828125,29.540000915527344,0.0,22.0,-0.570098876953125,-0.265625,Closing,0.0,0.0,0.0,0.0,0.0,0.0,0.0,0.0,
12.994236000000033,0.0,0.0,4961.0,0.25,-802.5,-728.4375,0.0,0.0,3.6865230600000003,4.835349641418458,0.0,-4691.0,1.25,757.5,728.4375,0.0,0.0,1.679687328,4.820738391494751,0.0,4597.0,0.125,-772.5,-728.4375,0.0,0.0,4.6533198360000005,4.8256088081359865,0.0,-4580.0,1.75,765.0,728.4375,0.0,0.0,2.6843258970000003,4.819277266502381,0.0,1.340000033378601,-1.0,171.14999389648438,0.0496826171875,-0.0029296875,1.17193603515625,29.520000457763672,0.0,-74.0,-0.5753326416015625,-0.2659759521484375,Closing,0.0,0.0,0.0,0.0,0.0,0.0,0.0,0.0,
13.13303899999999,0.0,0.0,4836.0,0.25,-772.5,-728.4375,0.0,0.0,3.6840816540000003,4.841968249172635,0.0,-4572.0,1.25,735.0,728.4375,0.0,0.0,1.676025219,4.827336999426947,0.0,4473.0,0.0,-772.5,-728.4375,0.0,0.0,4.652099133,4.83221408267551,0.0,-4461.0,1.875,742.5,728.4375,0.0,0.0,2.6904294120000003,4.825873874452379,0.0,1.2999999523162842,-0.7099999785423279,171.6300048828125,0.0224609375,-0.0355224609375,1.010498046875,29.520000457763672,0.0,-43.0,-0.5861663818359375,-0.26580810546875,Closing,0.0,0.0,0.0,0.0,0.0,0.0,0.0,0.0,
13.26579700000002,0.0,0.0,4717.0,0.25,-742.5,-708.7499999999999,0.0,0.0,3.6804195450000003,4.84858706732856,0.0,-4457.0,1.375,712.5,708.7499999999999,0.0,0.0,1.677245922,4.833935817125108,0.0,4353.0,0.0,-742.5,-708.7499999999999,0.0,0.0,4.652099133,4.8388195671929255,0.0,-4345.0,1.75,727.5,708.7499999999999,0.0,0.0,2.6940915210000003,4.8324706921047635,0.0,1.2300000190734863,-0.5600000023841858,172.0,0.01837158203125,0.054443359375,1.0650634765625,29.520000457763672,0.0,-23.0,-0.604278564453125,-0.2645416259765625,Closing,0.0,0.0,0.0,0.0,0.0,0.0,0.0,0.0,
13.39713500000001,0.0,0.0,4600.0,0.25,-727.5,-708.75,0.0,0.0,3.6889644660000003,4.854516188557943,0.0,-4344.0,1.5,697.5,708.75,0.0,0.0,1.6870115460000001,4.839847021993001,0.0,4237.0,0.0,-720.0,-708.75,0.0,0.0,4.6557612420000005,4.844736744181315,0.0,-4230.0,2.0,705.0,708.75,0.0,0.0,2.6831051940000004,4.838380105336507,0.0,1.25,-0.3700000047683716,172.3800048828125,0.058837890625,0.046142578125,1.10498046875,29.520000457763672,0.0,-62.0,-0.622406005859375,-0.2636871337890625,Closing,0.0,0.0,0.0,0.0,0.0,0.0,0.0,0.0,
13.534447000000045,0.0,0.0,4487.0,0.25,-705.0,-708.7499999999999,0.0,0.0,3.6791988420000004,4.858928733995226,0.0,-4234.0,1.625,675.0,708.7499999999999,0.0,0.0,1.6894529520000001,4.844246233791775,0.0,4122.0,0.0,-712.5,-708.7499999999999,0.0,0.0,4.667968272,4.849140400526259,0.0,-4119.0,2.125,690.0,708.7499999999999,0.0,0.0,2.6989743330000002,4.84277798377143,0.0,1.1299999952316284,-0.3100000023841858,172.6699981689453,0.0020751953125,0.0743408203125,0.9962158203125,29.469999313354492,0.0,0.0,-0.6439208984375,-0.2637786865234375,Closing,0.0,0.0,0.0,0.0,0.0,0.0,0.0,0.0,
13.667124000000069,0.0,0.0,4373.0,0.25,-697.5,-708.7499999999999,0.0,0.0,3.6889644660000003,4.863616905721029,0.0,-4124.0,1.875,690.0,708.7499999999999,0.0,0.0,1.69677717,4.848920239003499,0.0,4010.0,0.125,-697.5,-708.7499999999999,0.0,0.0,4.671630381,4.853819127909342,0.0,-4008.0,2.25,690.0,708.7499999999999,0.0,0.0,2.700195036,4.847450572331747,0.0,1.159999966621399,-0.23999999463558197,173.0500030517578,0.06207275390625,4.8828125E-4,0.91900634765625,29.469999313354492,0.0,-67.0,-0.6467742919921875,-0.2639007568359375,Closing,0.0,0.0,0.0,0.0,0.0,0.0,0.0,0.0,
13.797303000000072,0.0,0.0,4260.0,0.375,-705.0,-708.75,0.0,0.0,3.6877437630000003,4.868167264302572,0.0,-4014.0,2.0,675.0,708.75,0.0,0.0,1.699218576,4.853456847508748,0.0,3895.0,0.0,-712.5,-708.75,0.0,0.0,4.671630381,4.8583603197733565,0.0,-3897.0,2.375,690.0,708.75,0.0,0.0,2.703857145,4.851985805829366,0.0,1.159999966621399,-0.1899999976158142,173.3800048828125,-0.0347900390625,0.02947998046875,0.980712890625,29.469999313354492,0.0,32.0,-0.647613525390625,-0.2639312744140625,Closing,0.0,0.0,0.0,0.0,0.0,0.0,0.0,0.0,
13.929415000000038,0.0,0.0,4146.0,0.25,-712.5,-708.75,0.0,0.0,3.697509387,4.873269085862902,0.0,-3905.0,2.0,697.5,708.75,0.0,0.0,1.705322091,4.858543252605862,0.0,3781.0,0.0,-705.0,-708.75,0.0,0.0,4.671630381,4.863451863691542,0.0,-3784.0,2.125,705.0,708.75,0.0,0.0,2.712402066,4.857070669280158,0.0,1.1799999475479126,-0.20000000298023224,173.7899932861328,-0.017333984375,0.1068115234375,1.09051513671875,29.469999313354492,0.0,22.0,-0.6474761962890625,-0.26580810546875,Closing,0.0,0.0,0.0,0.0,0.0,0.0,0.0,0.0,
14.062155000000027,0.0,0.0,3918.0,0.25,-712.5,-708.7499999999999,0.0,0.0,3.702392199,4.878370907423232,0.0,-3681.0,2.0,697.5,708.7499999999999,0.0,0.0,1.7102049030000002,4.863629657702975,0.0,3553.0,0.0,-712.5,-708.7499999999999,0.0,0.0,4.678954599,4.868543407609728,0.0,-3558.0,2.125,705.0,708.7499999999999,0.0,0.0,2.72216769,4.8621555327309505,0.0,1.090000033378601,-0.12999999523162842,174.08999633789062,-0.029296875,0.09735107421875,1.14678955078125,29.479999542236328,0.0,34.0,-0.6475372314453125,-0.267547607421875,Closing,0.0,0.0,0.0,0.0,0.0,0.0,0.0,0.0,
14.19997900000005,0.0,0.0,3804.0,0.25,-705.0,-708.7499999999999,0.0,0.0,3.702392199,4.882507616170248,0.0,-3567.0,2.0,705.0,708.7499999999999,0.0,0.0,1.7102049030000002,4.867753866322835,0.0,3440.0,0.125,-697.5,-708.7499999999999,0.0,0.0,4.700927253000001,4.87267178293864,0.0,-3443.0,2.125,712.5,708.7499999999999,0.0,0.0,2.733154017,4.866278491338094,0.0,1.0399999618530273,-0.15000000596046448,174.32000732421875,0.0462646484375,0.0078125,0.8197021484375,29.479999542236328,0.0,-48.0,-0.648284912109375,-0.26702880859375,Closing,0.0,0.0,0.0,0.0,0.0,0.0,0.0,0.0,
14.345206000000006,0.0,0.0,3691.0,0.25,-705.0,-708.7499999999999,0.0,0.0,3.6950679810000002,4.88567921210395,0.0,-3455.0,2.0,690.0,708.7499999999999,0.0,0.0,1.7163084180000001,4.87091587846544,0.0,3325.0,0.0,-712.5,-708.7499999999999,0.0,0.0,4.7058100650000005,4.875836989678277,0.0,-3331.0,2.375,697.5,708.7499999999999,0.0,0.0,2.733154017,4.8694395451015895,0.0,1.0499999523162842,-0.10999999940395355,174.5500030517578,0.0408935546875,0.11895751953125,1.0782470703125,29.479999542236328,0.0,-33.0,-0.6507415771484375,-0.2675018310546875,Closing,0.0,0.0,0.0,0.0,0.0,0.0,0.0,0.0,
14.48801800000004,0.0,0.0,3584.0,0.125,-555.0,-472.5,0.0,0.125,3.7255855560000004,4.888850597635906,0.0,-3348.0,0.375,637.5,472.5,0.0,0.0,1.724853339,4.874077680842081,0.0,3218.0,0.0,-652.5,-472.5,0.0,0.0,4.707030768,4.879001986440023,0.0,-3225.0,0.375,615.0,472.5,0.0,0.0,2.7380368290000003,4.8726003891627,0.0,0.949999988079071,0.1599999964237213,174.8300018310547,0.10888671875,-0.08001708984375,0.76904296875,29.530000686645508,0.0,-114.0,-0.6556396484375,-0.26837158203125,Closing,0.0,0.0,0.0,0.0,0.0,0.0,0.0,0.0,
14.629494000000065,0.0,0.0,3498.0,0.125,-577.5,-452.8125,0.0,0.125,3.719482041,4.893262932671441,0.0,-3250.0,0.625,540.0,452.8125,0.0,0.0,1.728515448,4.878476682874891,0.0,3117.0,0.0,-562.5,-452.8125,0.0,0.0,4.69970655,4.883405432807074,0.0,-3127.0,0.375,547.5,452.8125,0.0,0.0,2.7429196410000003,4.8769980578952365,0.0,0.8399999737739563,0.6299999952316284,175.07000732421875,0.081298828125,-0.0467529296875,1.0291748046875,29.530000686645508,0.0,-74.0,-0.671844482421875,-0.2671051025390625,Closing,0.0,0.0,0.0,0.0,0.0,0.0,0.0,0.0,
14.773467000000062,0.0,0.0,3339.0,0.125,-472.5,-433.125,0.0,0.0,3.7414546950000003,4.896020878770617,0.0,-3097.0,0.875,450.0,433.125,0.0,0.0,1.728515448,4.881226295132107,0.0,2959.0,0.0,-457.5,-433.125,0.0,0.0,4.7058100650000005,4.88615782301161,0.0,-2972.0,0.75,450.0,433.125,0.0,0.0,2.7441403440000003,4.879746836768256,0.0,0.800000011920929,0.8600000143051147,175.30999755859375,0.0572509765625,-0.0391845703125,0.96136474609375,29.530000686645508,0.0,-46.0,-0.6914520263671875,-0.266632080078125,Closing,0.0,0.0,0.0,0.0,0.0,0.0,0.0,0.0,
14.914702000000048,0.0,0.0,3268.0,0.125,-435.0,-433.12499999999994,0.0,0.0,3.7426753980000003,4.899330077446832,0.0,-3032.0,1.375,405.0,433.12499999999994,0.0,0.0,1.728515448,4.884525494215223,0.0,2895.0,0.0,-397.5,-433.12499999999994,0.0,0.0,4.7058100650000005,4.889460355292426,0.0,-2908.0,1.375,397.5,433.12499999999994,0.0,0.0,2.7429196410000003,4.883045035892063,0.0,0.8199999928474426,0.9300000071525574,175.47999572753906,-0.0118408203125,-0.00445556640625,1.02301025390625,29.530000686645508,0.0,26.0,-0.71649169921875,-0.2669525146484375,Closing,0.0,0.0,0.0,0.0,0.0,0.0,0.0,0.0,
15.055986000000033,0.0,0.0,3198.0,0.125,-427.5,-433.12500000000006,0.0,0.0,3.7365718830000003,4.901674163309734,0.0,-2970.0,1.625,382.5,433.12500000000006,0.0,0.0,1.730956854,4.886862496821085,0.0,2835.0,0.0,-375.0,-433.12500000000006,0.0,0.0,4.7058100650000005,4.891799718983968,0.0,-2846.0,2.0,375.0,433.12500000000006,0.0,0.0,2.7478024530000003,4.885381330172221,0.0,0.7900000214576721,0.8500000238418579,175.58999633789062,0.008056640625,0.00604248046875,1.01788330078125,29.520000457763672,0.0,6.0,-0.721343994140625,-0.2674713134765625,Closing,0.0,0.0,0.0,0.0,0.0,0.0,0.0,0.0,
15.205861999999964,0.0,0.0,3136.0,0.25,-390.0,-433.12499999999994,0.0,0.0,3.715819932,4.903328973049589,0.0,-2909.0,1.875,390.0,433.12499999999994,0.0,0.0,1.729736151,4.888512306128607,0.0,2773.0,0.0,-375.0,-433.12499999999994,0.0,0.0,4.703368659000001,4.8934511951022674,0.0,-2784.0,2.125,397.5,433.12499999999994,0.0,0.0,2.756347374,4.88703063943651,0.0,0.8399999737739563,0.6600000262260437,175.7100067138672,-0.01385498046875,0.00830078125,1.0003662109375,29.520000457763672,0.0,24.0,-0.719329833984375,-0.2673797607421875,Closing,0.0,0.0,0.0,0.0,0.0,0.0,0.0,0.0,
15.346842999999993,0.0,0.0,3070.0,0.125,-420.0,-433.125,0.0,0.0,3.7329097740000003,4.904845759243436,0.0,-2846.0,1.75,405.0,433.125,0.0,0.0,1.7358396660000002,4.89002450896369,0.0,2708.0,0.0,-420.0,-433.125,0.0,0.0,4.702147956,4.894964925723606,0.0,-2719.0,1.875,420.0,433.125,0.0,0.0,2.752685265,4.888542383935716,0.0,0.8799999952316284,0.5600000023841858,175.91000366210938,0.021484375,0.0155029296875,0.90789794921875,29.520000457763672,0.0,-12.0,-0.717803955078125,-0.2673797607421875,Closing,0.0,0.0,0.0,0.0,0.0,0.0,0.0,0.0,
15.487496999999975,0.0,0.0,3003.0,0.125,-420.0,-433.125,0.0,0.0,3.7365718830000003,4.907741308085124,0.0,-2778.0,1.75,420.0,433.125,0.0,0.0,1.729736151,4.892911308161417,0.0,2641.0,0.0,-427.5,-433.125,0.0,0.0,4.7058100650000005,4.89785464146932,0.0,-2650.0,1.75,420.0,433.125,0.0,0.0,2.7514645620000002,4.891428308169047,0.0,0.8700000047683716,0.5099999904632568,176.10000610351562,-0.021240234375,0.038818359375,1.02490234375,29.520000457763672,0.0,31.0,-0.7180328369140625,-0.2673492431640625,Closing,0.0,0.0,0.0,0.0,0.0,0.0,0.0,0.0,
15.629592999999993,0.0,0.0,2865.0,0.125,-427.5,-433.125,0.0,0.0,3.702392199,4.9102234174940325,0.0,-2639.0,1.625,435.0,433.125,0.0,0.0,1.743163884,4.895385917239719,0.0,2504.0,0.0,-420.0,-433.125,0.0,0.0,4.704589362,4.9003317506578234,0.0,-2513.0,1.75,427.5,433.125,0.0,0.0,2.756347374,4.8939021672142875,0.0,0.8399999737739563,0.49000000953674316,176.17999267578125,-0.0111083984375,0.02655029296875,1.001220703125,29.520000457763672,0.0,20.0,-0.71783447265625,-0.2671966552734375,Closing,0.0,0.0,0.0,0.0,0.0,0.0,0.0,0.0,
15.76933600000001,0.0,0.0,2816.0,0.0,-262.5,0.0,0.0,0.0,3.7377925860000003,4.9102234174940325,0.0,-2602.0,0.0,187.5,0.0,0.0,0.0,1.7626951320000002,4.895385917239719,0.0,2440.0,0.0,-375.0,0.0,0.0,0.0,4.7058100650000005,4.9003317506578234,0.0,-2478.0,0.0,195.0,0.0,0.0,0.0,2.767333701,4.8939021672142875,0.0,0.7799999713897705,0.8600000143051147,176.47999572753906,0.28765869140625,-0.13836669921875,0.81793212890625,29.520000457763672,0.0,-283.0,-0.7197265625,-0.267333984375,Closing,0.0,0.0,0.0,0.0,0.0,0.0,0.0,0.0,
15.910009000000079,0.0,0.0,2773.0,0.0,-277.5,0.0,0.0,0.0,3.7341304770000003,4.9102234174940325,0.0,-2565.0,0.0,225.0,0.0,0.0,0.0,1.7663572410000001,4.895385917239719,0.0,2398.0,0.0,-232.5,0.0,0.0,0.0,4.707030768,4.9003317506578234,0.0,-2438.0,0.0,172.5,0.0,0.0,0.0,2.772216513,4.8939021672142875,0.0,0.7300000190734863,1.340000033378601,176.6999969482422,0.087646484375,0.0616455078125,0.99713134765625,29.520000457763672,0.0,-61.0,-0.733551025390625,-0.26483154296875,Closing,0.0,0.0,0.0,0.0,0.0,0.0,0.0,0.0,
16.049040000000037,0.0,0.0,2764.0,0.0,-30.0,0.0,0.0,0.0,3.7316890710000004,4.9102234174940325,0.0,-2549.0,0.0,75.0,0.0,0.0,0.0,1.7675779440000001,4.895385917239719,0.0,2381.0,0.0,-45.0,0.0,0.0,0.0,4.704589362,4.9003317506578234,0.0,-2419.0,0.0,30.0,0.0,0.0,0.0,2.772216513,4.8939021672142875,0.0,0.6200000047683716,1.75,176.69000244140625,0.05963134765625,0.02789306640625,1.030517578125,29.540000915527344,0.0,-27.0,-0.7547149658203125,-0.2645416259765625,Closing,0.0,0.0,0.0,0.0,0.0,0.0,0.0,0.0,
16.17522100000002,0.0,0.0,2762.0,0.0,0.0,0.0,0.0,0.0,3.7377925860000003,4.9102234174940325,0.0,-2548.0,0.0,0.0,0.0,0.0,0.0,1.7675779440000001,4.895385917239719,0.0,2380.0,0.0,0.0,0.0,0.0,0.0,4.7058100650000005,4.9003317506578234,0.0,-2418.0,0.0,0.0,0.0,0.0,0.0,2.77099581,4.8939021672142875,0.0,0.6499999761581421,1.6200000047683716,176.67999267578125,-0.0093994140625,0.01800537109375,1.001708984375,29.540000915527344,0.0,38.0,-0.759307861328125,-0.2645416259765625,Closing,0.0,0.0,0.0,0.0,0.0,0.0,0.0,0.0,
16.310711000000012,0.0,0.0,2762.0,0.0,0.0,0.0,0.0,0.0,3.7365718830000003,4.9102234174940325,0.0,-2548.0,0.0,0.0,0.0,0.0,0.0,1.773681459,4.895385917239719,0.0,2380.0,0.0,0.0,0.0,0.0,0.0,4.7058100650000005,4.9003317506578234,0.0,-2418.0,0.0,0.0,0.0,0.0,0.0,2.772216513,4.8939021672142875,0.0,0.6899999976158142,1.3799999952316284,176.6699981689453,-0.00299072265625,0.01434326171875,1.002197265625,29.540000915527344,0.0,27.0,-0.7540130615234375,-0.2645416259765625,Closing,0.0,0.0,0.0,0.0,0.0,0.0,0.0,0.0,
