Time,ClimberA1,ClimberA2,FRpos,FRCurrent,FRspeed,FRsetpoint,FRApos,FRACurrent,FREncpos,FREncSetpoint,FREncSpeed,FLpos,FLCurrent,FLspeed,FLsetpoint,FLApos,FLACurrent,FLEncpos,FLEncSetpoint,FLEncSpeed,BRpos,BRCurrent,BRspeed,BRsetpoint,BRApos,BRACurrent,BREncpos,BREncSetpoint,BREncSpeed,BLpos,BLCurrent,BLspeed,BLsetpoint,BLApos,BLACurrent,BLEncpos,BLEncSetpoint,BLEncSpeed,navx_Pitch,navx_Roll,navx_Yaw,navx_XAcc,navx_YAcc,navx_ZAcc,navx_Temp,navx_Bar,navx_Alt,navx_XDis,navx_YDis,GearPlacerState,ShootOutputV,ShootOutputCurrent,ShootEncPos,ShootEncVelocity,ShootSpeed,ShootSetpoint,CarouselSetpoint,CarouselCurrent,
0.118,0.0,0.0,3504.0,0.0,0.0,0.0,0.0,0.0,3.7963863300000003,0.0,0.0,-3450.0,0.0,0.0,-0.0,0.0,0.0,1.9506833940000001,0.0,0.0,1072.0,89.125,0.0,0.0,0.0,0.0,4.200439023,0.0,0.0,-3430.0,0.0,0.0,-0.0,0.0,0.0,2.916259467,0.0,0.0,0.6499999761581421,0.41999998688697815,71.80999755859375,0.0025634765625,0.02423095703125,1.011474609375,27.690000534057617,0.0,10.0,0.4886474609375,0.62738037109375,Waiting,0.0,0.0,-26583.0,0.0,0.0,0.0,0.0,0.0,
0.14581600000002073,0.0,0.0,3504.0,0.0,0.0,0.0,0.0,0.0,3.7951656270000003,0.0,0.0,-3450.0,0.0,0.0,-0.0,0.0,0.0,1.9506833940000001,0.0,0.0,1072.0,89.125,0.0,0.0,0.0,0.0,4.200439023,0.0,0.0,-3430.0,0.0,0.0,-0.0,0.0,0.0,2.916259467,0.0,0.0,0.6700000166893005,0.4099999964237213,71.80999755859375,0.0032958984375,0.017822265625,1.0128173828125,27.690000534057617,0.0,4.0,0.4886474609375,0.62738037109375,Closing,0.0,0.0,-26583.0,0.0,0.0,0.0,0.0,0.0,
0.17185800000000745,0.0,0.0,3504.0,0.0,0.0,0.0,0.0,0.0,3.7951656270000003,0.0,0.0,-3450.0,0.0,0.0,-0.0,0.0,0.0,1.9506833940000001,0.0,0.0,1072.0,89.125,0.0,0.0,0.0,0.0,4.200439023,0.0,0.0012207030000004337,-3430.0,0.0,0.0,-0.0,0.0,0.0,2.921142279,0.0,-0.0012207029999999897,0.6700000166893005,0.4000000059604645,71.80999755859375,0.00701904296875,0.0146484375,1.01812744140625,27.690000534057617,0.0,2.0,0.4886474609375,0.62738037109375,Closing,0.0,0.0,-26583.0,0.0,0.0,0.0,0.0,0.0,
0.1962400000000198,0.0,0.0,3504.0,0.0,0.0,0.0,0.0,0.0,3.7951656270000003,0.0,0.0,-3450.0,0.0,0.0,-0.0,0.0,0.0,1.9506833940000001,0.0,0.0,1072.0,89.125,0.0,0.0,0.0,0.0,4.200439023,0.0,-0.0012207030000004337,-3430.0,0.0,0.0,-0.0,0.0,0.0,2.916259467,0.0,0.0,0.6800000071525574,0.4099999964237213,71.80999755859375,0.00830078125,0.02191162109375,0.99957275390625,27.690000534057617,0.0,9.0,0.4886474609375,0.62738037109375,Closing,0.0,0.0,-26583.0,0.0,0.0,0.0,0.0,0.0,
0.2277820000000065,0.0,0.0,3504.0,0.0,0.0,0.0,0.0,0.0,3.7951656270000003,0.0,0.0,-3450.0,0.0,0.0,-0.0,0.0,0.0,1.9506833940000001,0.0,0.0,1072.0,89.125,0.0,0.0,0.0,0.0,4.196776914,0.0,-0.0012207030000004337,-3430.0,0.0,0.0,-0.0,0.0,0.0,2.916259467,0.0,0.0,0.699999988079071,0.4000000059604645,71.80999755859375,0.0047607421875,0.02105712890625,1.01318359375,27.690000534057617,0.0,7.0,0.4886474609375,0.62738037109375,Closing,0.0,0.0,-26583.0,0.0,0.0,0.0,0.0,0.0,
0.25279200000001584,0.0,0.0,3504.0,0.0,0.0,0.0,0.0,0.0,3.7951656270000003,0.0,-0.0012207030000004337,-3450.0,0.0,0.0,-0.0,0.0,0.0,1.9506833940000001,0.0,0.0012207029999999897,1072.0,89.125,0.0,0.0,0.0,0.0,4.19921832,0.0,0.0012207030000004337,-3430.0,0.0,0.0,-0.0,0.0,0.0,2.916259467,0.0,0.0012207029999999897,0.699999988079071,0.4099999964237213,71.80999755859375,0.00555419921875,0.022216796875,1.00384521484375,27.690000534057617,0.0,8.0,0.4886474609375,0.62738037109375,Closing,0.0,0.0,-26583.0,0.0,0.0,0.0,0.0,0.0,
0.28624799999999234,0.0,0.0,3504.0,0.0,0.0,0.0,0.0,0.0,3.7951656270000003,0.0,-0.0012207030000004337,-3450.0,0.0,0.0,-0.0,0.0,0.0,1.9506833940000001,0.0,0.0012207029999999897,1072.0,89.125,0.0,0.0,0.0,0.0,4.200439023,0.0,0.0012207030000004337,-3430.0,0.0,0.0,-0.0,0.0,0.0,2.91748017,0.0,0.0012207029999999897,0.7200000286102295,0.4099999964237213,71.80999755859375,0.00250244140625,0.01885986328125,1.00909423828125,27.68000030517578,0.0,4.0,0.4886474609375,0.62738037109375,Closing,0.0,0.0,-26583.0,0.0,0.0,0.0,0.0,0.0,
0.311695000000007,0.0,0.0,3504.0,0.0,0.0,0.0,0.0,0.0,3.7963863300000003,0.0,0.0012207030000004337,-3450.0,0.0,0.0,-0.0,0.0,0.0,1.9506833940000001,0.0,-0.0012207029999999897,1072.0,89.125,0.0,0.0,0.0,0.0,4.200439023,0.0,-0.0012207030000004337,-3430.0,0.0,0.0,-0.0,0.0,0.0,2.916259467,0.0,-0.0012207029999999897,0.7200000286102295,0.4000000059604645,71.80999755859375,0.00567626953125,0.0146484375,1.00408935546875,27.68000030517578,0.0,1.0,0.4886474609375,0.62738037109375,Closing,0.0,0.0,-26583.0,0.0,0.0,0.0,0.0,0.0,
0.3436600000000035,0.0,0.0,3504.0,0.0,0.0,0.0,0.0,0.0,3.7951656270000003,0.0,0.0012207030000004337,-3450.0,0.0,0.0,-0.0,0.0,0.0,1.9494626910000001,0.0,-0.0012207029999999897,1072.0,89.125,0.0,0.0,0.0,0.0,4.200439023,0.0,-0.0012207030000004337,-3430.0,0.0,0.0,-0.0,0.0,0.0,2.916259467,0.0,0.0,0.7300000190734863,0.4000000059604645,71.80999755859375,0.00518798828125,0.02227783203125,1.017333984375,27.68000030517578,0.0,8.0,0.4886474609375,0.62738037109375,Closing,0.0,0.0,-26583.0,0.0,0.0,0.0,0.0,0.0,
0.3723399999999965,0.0,0.0,3504.0,0.0,0.0,0.0,0.0,0.0,3.7939449240000003,0.0,0.0,-3450.0,0.0,0.0,-0.0,0.0,0.0,1.9506833940000001,0.0,0.0012207029999999897,1072.0,89.125,0.0,0.0,0.0,0.0,4.200439023,0.0,0.0,-3430.0,0.0,0.0,-0.0,0.0,0.0,2.916259467,0.0,0.0,0.7300000190734863,0.38999998569488525,71.80999755859375,0.00579833984375,0.01910400390625,1.0137939453125,27.68000030517578,0.0,5.0,0.4886474609375,0.62738037109375,Closing,0.0,0.0,-26583.0,0.0,0.0,0.0,0.0,0.0,
0.3991630000000005,0.0,0.0,3504.0,0.0,0.0,0.0,0.0,0.0,3.7951656270000003,0.0,0.0,-3450.0,0.0,0.0,-0.0,0.0,0.0,1.9506833940000001,0.0,0.0,1072.0,89.125,0.0,0.0,0.0,0.0,4.19921832,0.0,0.0012207030000004337,-3430.0,0.0,0.0,-0.0,0.0,0.0,2.91748017,0.0,0.0,0.75,0.38999998569488525,71.80999755859375,0.00567626953125,0.017578125,1.0107421875,27.68000030517578,0.0,3.0,0.4886474609375,0.62738037109375,Closing,0.0,0.0,-26583.0,0.0,0.0,0.0,0.0,0.0,
0.4295109999999986,0.0,0.0,3504.0,0.0,0.0,0.0,0.0,0.0,3.7963863300000003,0.0,0.0,-3450.0,0.0,0.0,-0.0,0.0,0.0,1.9531248,0.0,0.0,1072.0,89.125,0.0,0.0,0.0,0.0,4.19921832,0.0,0.0012207030000004337,-3430.0,0.0,0.0,-0.0,0.0,0.0,2.916259467,0.0,0.0,0.75,0.38999998569488525,71.80999755859375,0.0050048828125,0.0181884765625,1.01275634765625,27.68000030517578,0.0,4.0,0.4886474609375,0.62738037109375,Closing,0.0,0.0,-26583.0,0.0,0.0,0.0,0.0,0.0,
0.4552060000000056,0.0,0.0,3504.0,0.0,0.0,0.0,0.0,0.0,3.7963863300000003,0.0,0.0,-3450.0,0.0,0.0,-0.0,0.0,0.0,1.9506833940000001,0.0,0.0,1072.0,89.125,0.0,0.0,0.0,0.0,4.200439023,0.0,-0.0012207030000004337,-3430.0,0.0,0.0,-0.0,0.0,0.0,2.916259467,0.0,0.0,0.75,0.38999998569488525,71.80999755859375,0.00885009765625,0.01678466796875,1.00433349609375,27.68000030517578,0.0,3.0,0.4886474609375,0.62738037109375,Closing,0.0,0.0,-26583.0,0.0,0.0,0.0,0.0,0.0,
0.4895460000000021,0.0,0.0,3504.0,0.0,0.0,0.0,0.0,0.0,3.7939449240000003,0.0,0.0,-3450.0,0.0,0.0,-0.0,0.0,0.0,1.9506833940000001,0.0,0.0,1072.0,89.125,0.0,0.0,0.0,0.0,4.200439023,0.0,-0.0012207030000004337,-3430.0,0.0,0.0,-0.0,0.0,0.0,2.915038764,0.0,0.0,0.7599999904632568,0.38999998569488525,71.80999755859375,0.00531005859375,0.02099609375,1.02203369140625,27.68000030517578,0.0,6.0,0.4886474609375,0.62738037109375,Closing,0.0,0.0,-26583.0,0.0,0.0,0.0,0.0,0.0,
0.5186119999999937,0.0,0.0,3504.0,0.0,0.0,0.0,0.0,0.0,3.7963863300000003,0.0,0.0,-3450.0,0.0,0.0,-0.0,0.0,0.0,1.9506833940000001,0.0,-0.0012207029999999897,1072.0,89.125,0.0,0.0,0.0,0.0,4.200439023,0.0,0.0,-3430.0,0.0,0.0,-0.0,0.0,0.0,2.916259467,0.0,0.0,0.7699999809265137,0.38999998569488525,71.80999755859375,0.00677490234375,0.02105712890625,1.008544921875,27.68000030517578,0.0,6.0,0.4886474609375,0.62738037109375,Closing,0.0,0.0,-26583.0,0.0,0.0,0.0,0.0,0.0,
0.5487799999999988,0.0,0.0,3504.0,0.0,0.0,0.0,0.0,0.0,3.7963863300000003,0.0,0.0,-3450.0,0.0,0.0,-0.0,0.0,0.0,1.9506833940000001,0.0,0.0012207029999999897,1072.0,89.125,0.0,0.0,0.0,0.0,4.19921832,0.0,0.0012207030000004337,-3430.0,0.0,0.0,-0.0,0.0,0.0,2.916259467,0.0,0.0,0.7799999713897705,0.3799999952316284,71.80999755859375,0.0037841796875,0.02239990234375,1.01116943359375,27.68000030517578,0.0,7.0,0.4886474609375,0.62738037109375,Closing,0.0,0.0,-26583.0,0.0,0.0,0.0,0.0,0.0,
0.5761530000000202,0.0,0.0,3504.0,0.0,0.0,0.0,0.0,0.0,3.7939449240000003,0.0,0.0,-3450.0,0.0,0.0,-0.0,0.0,0.0,1.9506833940000001,0.0,0.0012207029999999897,1072.0,89.125,0.0,0.0,0.0,0.0,4.201659726,0.0,0.0012207030000004337,-3430.0,0.0,0.0,-0.0,0.0,0.0,2.910155952,0.0,0.0,0.7900000214576721,0.3799999952316284,71.80999755859375,0.0068359375,0.01904296875,1.01123046875,27.68000030517578,0.0,4.0,0.4886474609375,0.62738037109375,Closing,0.0,0.0,-26583.0,0.0,0.0,0.0,0.0,0.0,
0.6067309999999998,0.0,0.0,3504.0,0.0,0.0,0.0,0.0,0.0,3.7988277360000002,0.0,0.0012207030000004337,-3450.0,0.0,0.0,-0.0,0.0,0.0,1.9506833940000001,0.0,-0.0012207029999999897,1072.0,89.125,0.0,0.0,0.0,0.0,4.19921832,0.0,0.0,-3430.0,0.0,0.0,-0.0,0.0,0.0,2.916259467,0.0,0.0,0.7900000214576721,0.3799999952316284,71.80999755859375,0.00421142578125,0.0225830078125,1.00689697265625,27.68000030517578,0.0,7.0,0.4886474609375,0.62738037109375,Closing,0.0,0.0,-26583.0,0.0,0.0,0.0,0.0,0.0,
0.6357380000000121,0.0,0.0,3504.0,0.0,0.0,0.0,0.0,0.0,3.7951656270000003,0.0,0.0012207030000004337,-3450.0,0.0,0.0,-0.0,0.0,0.0,1.9506833940000001,0.0,-0.0012207029999999897,1072.0,89.125,0.0,0.0,0.0,0.0,4.200439023,0.0,0.0,-3430.0,0.0,0.0,-0.0,0.0,0.0,2.916259467,0.0,0.0,0.8100000023841858,0.3799999952316284,71.80999755859375,0.00775146484375,0.01953125,1.00665283203125,27.68000030517578,0.0,5.0,0.4886474609375,0.62738037109375,Closing,0.0,0.0,-26583.0,0.0,0.0,0.0,0.0,0.0,
0.6693140000000131,0.0,0.0,3504.0,0.0,0.0,0.0,0.0,0.0,3.7951656270000003,0.0,-0.0012207030000004337,-3450.0,0.0,0.0,-0.0,0.0,0.0,1.9494626910000001,0.0,0.0,1072.0,89.125,0.0,0.0,0.0,0.0,4.200439023,0.0,0.0,-3430.0,0.0,0.0,-0.0,0.0,0.0,2.915038764,0.0,0.0,0.8199999928474426,0.3799999952316284,71.80999755859375,0.0048828125,0.01397705078125,1.01177978515625,27.68000030517578,0.0,-1.0,0.4886474609375,0.62738037109375,Closing,0.0,0.0,-26583.0,0.0,0.0,0.0,0.0,0.0,
0.694591000000015,0.0,0.0,3504.0,0.0,0.0,0.0,0.0,0.0,3.7951656270000003,0.0,-0.0012207030000004337,-3450.0,0.0,0.0,-0.0,0.0,0.0,1.9482419880000001,0.0,0.0,1072.0,89.125,0.0,0.0,0.0,0.0,4.201659726,0.0,-0.0012207030000004337,-3430.0,0.0,0.0,-0.0,0.0,0.0,2.916259467,0.0,0.0,0.8199999928474426,0.3799999952316284,71.80999755859375,0.00592041015625,0.0179443359375,1.00640869140625,27.68000030517578,0.0,3.0,0.4886474609375,0.62738037109375,Closing,0.0,0.0,-26583.0,0.0,0.0,0.0,0.0,0.0,
0.7277880000000004,0.0,0.0,3504.0,0.0,0.0,0.0,0.0,0.0,3.7963863300000003,0.0,0.0,-3450.0,0.0,0.0,-0.0,0.0,0.0,1.955566206,0.0,0.0,1072.0,89.125,0.0,0.0,0.0,0.0,4.19921832,0.0,-0.0012207030000004337,-3430.0,0.0,0.0,-0.0,0.0,0.0,2.91748017,0.0,0.0,0.8299999833106995,0.3700000047683716,71.80999755859375,0.00433349609375,0.02117919921875,1.01220703125,27.68000030517578,0.0,5.0,0.4886474609375,0.62738037109375,Closing,0.0,0.0,-26583.0,0.0,0.0,0.0,0.0,0.0,
0.754005999999994,0.0,0.0,3504.0,0.0,0.0,0.0,0.0,0.0,3.7951656270000003,0.0,-0.0012207030000004337,-3450.0,0.0,0.0,-0.0,0.0,0.0,1.9494626910000001,0.0,0.0,1072.0,89.125,0.0,0.0,0.0,0.0,4.200439023,0.0,0.0,-3430.0,0.0,0.0,-0.0,0.0,0.0,2.916259467,0.0,0.0,0.8399999737739563,0.3700000047683716,71.80999755859375,0.0072021484375,0.021240234375,1.01007080078125,27.68000030517578,0.0,6.0,0.4886474609375,0.62738037109375,Closing,0.0,0.0,-26583.0,0.0,0.0,0.0,0.0,0.0,
0.7869809999999998,0.0,0.0,3504.0,0.0,0.0,0.0,0.0,0.0,3.7866207060000003,0.0,-0.0012207030000004337,-3450.0,0.0,0.0,-0.0,0.0,0.0,1.9519040970000001,0.0,0.0,1072.0,89.125,0.0,0.0,0.0,0.0,4.200439023,0.0,0.0,-3430.0,0.0,0.0,-0.0,0.0,0.0,2.916259467,0.0,0.0,0.8399999737739563,0.3799999952316284,71.80999755859375,0.00396728515625,0.017578125,1.0091552734375,27.68000030517578,0.0,1.0,0.4886474609375,0.62738037109375,Closing,0.0,0.0,-26583.0,0.0,0.0,0.0,0.0,0.0,
0.8138830000000016,0.0,0.0,3504.0,0.0,0.0,0.0,0.0,0.0,3.7951656270000003,0.0,0.0012207030000004337,-3450.0,0.0,0.0,-0.0,0.0,0.0,1.9506833940000001,0.0,0.0,1072.0,89.125,0.0,0.0,0.0,0.0,4.201659726,0.0,0.0,-3430.0,0.0,0.0,-0.0,0.0,0.0,2.916259467,0.0,0.0,0.8500000238418579,0.3700000047683716,71.80999755859375,0.00469970703125,0.0211181640625,1.00689697265625,27.68000030517578,0.0,5.0,0.4886474609375,0.62738037109375,Closing,0.0,0.0,-26583.0,0.0,0.0,0.0,0.0,0.0,
0.8466600000000035,0.0,0.0,3504.0,0.0,0.0,0.0,0.0,0.0,3.7963863300000003,0.0,0.0012207030000004337,-3450.0,0.0,0.0,-0.0,0.0,0.0,1.9494626910000001,0.0,0.0,1072.0,89.125,0.0,0.0,0.0,0.0,4.200439023,0.0,0.0,-3430.0,0.0,0.0,-0.0,0.0,0.0,2.916259467,0.0,0.0,0.8600000143051147,0.36000001430511475,71.80999755859375,0.0032958984375,0.0184326171875,1.0101318359375,27.68000030517578,0.0,2.0,0.4886474609375,0.62738037109375,Closing,0.0,0.0,-26583.0,0.0,0.0,0.0,0.0,0.0,
0.8747410000000091,0.0,0.0,3504.0,0.0,0.0,0.0,0.0,0.0,3.7963863300000003,0.0,0.0,-3450.0,0.0,0.0,-0.0,0.0,0.0,1.9506833940000001,0.0,0.0012207029999999897,1072.0,89.125,0.0,0.0,0.0,0.0,4.200439023,0.0,0.0,-3430.0,0.0,0.0,-0.0,0.0,0.0,2.916259467,0.0,0.0,0.8600000143051147,0.3700000047683716,71.80999755859375,0.0042724609375,0.01910400390625,1.00958251953125,27.68000030517578,0.0,2.0,0.4886474609375,0.62738037109375,Closing,0.0,0.0,-26583.0,0.0,0.0,0.0,0.0,0.0,
0.903021000000008,0.0,0.0,3504.0,0.0,0.0,0.0,0.0,0.0,3.7951656270000003,0.0,0.0,-3450.0,0.0,0.0,-0.0,0.0,0.0,1.9494626910000001,0.0,-0.0012207029999999897,1072.0,89.125,0.0,0.0,0.0,0.0,4.201659726,0.0,0.0012207030000004337,-3430.0,0.0,0.0,-0.0,0.0,0.0,2.916259467,0.0,0.0,0.8700000047683716,0.36000001430511475,71.80999755859375,0.00518798828125,0.01885986328125,1.0125732421875,27.68000030517578,0.0,2.0,0.4886474609375,0.62738037109375,Closing,0.0,0.0,-26583.0,0.0,0.0,0.0,0.0,0.0,
0.9326110000000044,0.0,0.0,3504.0,0.0,0.0,0.0,0.0,0.0,3.7951656270000003,0.0,0.0,-3450.0,0.0,0.0,-0.0,0.0,0.0,1.9506833940000001,0.0,-0.0012207029999999897,1072.0,89.125,0.0,0.0,0.0,0.0,4.19921832,0.0,0.0012207030000004337,-3430.0,0.0,0.0,-0.0,0.0,0.0,2.916259467,0.0,0.0,0.8700000047683716,0.36000001430511475,71.80999755859375,0.00518798828125,0.01885986328125,1.0125732421875,27.68000030517578,0.0,2.0,0.4886474609375,0.62738037109375,Closing,0.0,0.0,-26583.0,0.0,0.0,0.0,0.0,0.0,
0.9599189999999944,0.0,0.0,3504.0,0.0,0.0,0.0,0.0,0.0,3.7951656270000003,0.0,-0.0012207030000004337,-3450.0,0.0,0.0,-0.0,0.0,0.0,1.9506833940000001,0.0,0.0,1072.0,89.125,0.0,0.0,0.0,0.0,4.201659726,0.0,0.0,-3430.0,0.0,0.0,-0.0,0.0,0.0,2.922362982,0.0,0.0,0.8799999952316284,0.3700000047683716,71.80999755859375,0.00701904296875,0.01995849609375,1.00543212890625,27.68000030517578,0.0,4.0,0.4886474609375,0.62738037109375,Closing,0.0,0.0,-26583.0,0.0,0.0,0.0,0.0,0.0,
0.9896199999999954,0.0,0.0,3504.0,0.0,0.0,0.0,0.0,0.0,3.7951656270000003,0.0,-0.0012207030000004337,-3450.0,0.0,0.0,-0.0,0.0,0.0,1.9494626910000001,0.0,0.0,1072.0,89.125,0.0,0.0,0.0,0.0,4.200439023,0.0,0.0,-3430.0,0.0,0.0,-0.0,0.0,0.0,2.91748017,0.0,0.0,0.8799999952316284,0.36000001430511475,71.80999755859375,0.00701904296875,0.019775390625,1.008544921875,27.68000030517578,0.0,4.0,0.4886474609375,0.62738037109375,Closing,0.0,0.0,-26583.0,0.0,0.0,0.0,0.0,0.0,
1.0172410000000092,0.0,0.0,3504.0,0.0,0.0,0.0,0.0,0.0,3.7951656270000003,0.0,0.0012207030000004337,-3450.0,0.0,0.0,-0.0,0.0,0.0,1.9506833940000001,0.0,0.0,1072.0,89.125,0.0,0.0,0.0,0.0,4.200439023,0.0,-0.0012207030000004337,-3430.0,0.0,0.0,-0.0,0.0,0.0,2.916259467,0.0,0.0,0.8899999856948853,0.36000001430511475,71.80999755859375,0.0042724609375,0.01947021484375,1.00579833984375,27.68000030517578,0.0,2.0,0.4886474609375,0.62738037109375,Closing,0.0,0.0,-26583.0,0.0,0.0,0.0,0.0,0.0,
1.0470010000000185,0.0,0.0,3504.0,0.0,0.0,0.0,0.0,0.0,3.7866207060000003,0.0,0.0012207030000004337,-3450.0,0.0,0.0,-0.0,0.0,0.0,1.9506833940000001,0.0,0.0,1072.0,89.125,0.0,0.0,0.0,0.0,4.200439023,0.0,0.0012207030000004337,-3430.0,0.0,0.0,-0.0,0.0,0.0,2.916259467,0.0,0.0012207029999999897,0.8899999856948853,0.36000001430511475,71.80999755859375,0.00628662109375,0.02191162109375,1.0091552734375,27.68000030517578,0.0,5.0,0.4886474609375,0.62738037109375,Closing,0.0,0.0,-26583.0,0.0,0.0,0.0,0.0,0.0,
1.0745480000000098,0.0,0.0,3504.0,0.0,0.0,0.0,0.0,0.0,3.7951656270000003,0.0,0.0,-3450.0,0.0,0.0,-0.0,0.0,0.0,1.9506833940000001,0.0,0.0012207029999999897,1072.0,89.125,0.0,0.0,0.0,0.0,4.19921832,0.0,0.0012207030000004337,-3430.0,0.0,0.0,-0.0,0.0,0.0,2.915038764,0.0,0.0012207029999999897,0.8999999761581421,0.36000001430511475,71.80999755859375,0.00323486328125,0.017578125,1.0108642578125,27.68000030517578,0.0,0.0,0.4886474609375,0.62738037109375,Closing,0.0,0.0,-26583.0,0.0,0.0,0.0,0.0,0.0,
1.1050190000000002,0.0,0.0,3504.0,0.0,0.0,0.0,0.0,0.0,3.7951656270000003,0.0,0.0,-3450.0,0.0,0.0,-0.0,0.0,0.0,1.9506833940000001,0.0,-0.0012207029999999897,1072.0,0.0,0.0,0.0,0.0,0.0,4.194335508,0.0,-0.0012207030000004337,-3430.0,0.0,0.0,-0.0,0.0,0.0,2.916259467,0.0,-0.0012207029999999897,0.8999999761581421,0.36000001430511475,71.80999755859375,0.00787353515625,0.0185546875,1.00433349609375,27.68000030517578,0.0,2.0,0.4886474609375,0.62738037109375,Closing,0.0,0.0,-26583.0,0.0,0.0,0.0,0.0,0.0,
1.13444200000001,0.0,0.0,3504.0,0.0,0.0,0.0,0.0,0.0,3.7951656270000003,0.0,0.0,-3450.0,0.0,0.0,-0.0,0.0,0.0,1.9506833940000001,0.0,-0.0012207029999999897,1072.0,0.0,0.0,0.0,0.0,0.0,4.200439023,0.0,-0.0012207030000004337,-3430.0,0.0,0.0,-0.0,0.0,0.0,2.916259467,0.0,-0.0012207029999999897,0.8999999761581421,0.36000001430511475,71.80999755859375,0.00372314453125,0.02130126953125,1.01318359375,27.68000030517578,0.0,4.0,0.4886474609375,0.62738037109375,Closing,0.0,0.0,-26583.0,0.0,0.0,0.0,0.0,0.0,
1.163308000000019,0.0,0.0,3504.0,0.0,0.0,0.0,0.0,0.0,3.7915035180000003,0.0,0.0,-3450.0,0.0,0.0,-0.0,0.0,0.0,1.9506833940000001,0.0,0.0012207029999999897,0.0,0.0,0.0,0.0,0.0,0.0,4.1931148050000004,0.0,0.0,-3430.0,0.0,0.0,-0.0,0.0,0.0,2.916259467,0.0,0.0,0.9100000262260437,0.36000001430511475,71.80999755859375,0.0062255859375,0.0166015625,1.00823974609375,27.68000030517578,0.0,0.0,0.4886474609375,0.62738037109375,Closing,0.0,0.0,-26583.0,0.0,0.0,0.0,0.0,0.0,
1.1925359999999927,0.0,0.0,3504.0,0.0,0.0,557.8125,0.0,0.0,3.75976524,0.5533560492066917,-0.0012207030000004337,-3450.0,0.0,0.0,557.8125,0.0,0.0,1.934814255,4.397316058113637,0.0,0.0,0.0,0.0,557.8125,0.0,0.0,4.200439023,4.40175868900686,0.0,-3430.0,0.0,0.0,557.8125,0.0,0.0,2.916259467,0.5515167311543303,0.0,0.9200000166893005,0.3499999940395355,71.80999755859375,0.00567626953125,0.021240234375,1.00616455078125,27.68000030517578,0.0,4.0,0.4886474609375,0.62738037109375,Closing,0.0,0.0,-26583.0,0.0,0.0,0.0,0.0,0.0,
1.225546000000002,0.0,0.0,3507.0,0.375,0.0,1345.3125,0.0,0.375,3.7988277360000002,0.5533560492066917,0.0012207030000004337,-3450.0,0.625,0.0,1345.3125,0.0,0.0,1.9226072250000001,4.397316058113637,0.0,0.0,0.0,0.0,1345.3125,0.0,0.625,4.19921832,4.40175868900686,0.0012207030000004337,-3430.0,0.75,0.0,1345.3125,0.0,1.125,2.9296872,0.5515167311543303,0.0,0.9200000166893005,0.36000001430511475,71.80999755859375,-0.001953125,0.0201416015625,1.0120849609375,27.68000030517578,0.0,0.0,0.4886474609375,0.62738037109375,Closing,0.0,0.0,-26583.0,0.0,0.0,0.0,0.0,0.0,
1.2523310000000056,0.0,0.0,3507.0,6.5,120.0,2100.0,0.0,2.125,3.919677333,0.5533560492066917,0.0,-3450.0,13.125,22.5,2100.0,0.0,2.375,1.796874816,4.397316058113637,0.0,0.0,0.0,0.0,2100.0,0.0,1.25,4.0832515350000005,4.40175868900686,0.0,-3430.0,9.125,45.0,2100.0,0.0,1.375,2.972411805,0.5515167311543303,0.0,0.9300000071525574,0.3199999928474426,71.80000305175781,-0.27056884765625,0.14007568359375,1.0718994140625,27.68000030517578,0.0,30.0,0.4886627197265625,0.6275787353515625,Closing,0.0,0.0,-26583.0,0.0,0.0,0.0,0.0,0.0,
1.285423999999999,0.0,0.0,3507.0,13.5,225.0,2100.0,0.0,2.125,3.964843344,0.5533560492066917,-4.879771493,-3450.0,24.375,60.0,2100.0,0.0,2.5,1.699218576,4.397316058113637,-0.10864256700000041,0.0,0.0,0.0,2100.0,0.0,0.875,3.9916988100000004,4.40175868900686,-0.10620116099999954,-3430.0,19.625,97.5,2100.0,0.0,1.125,3.0505367970000004,0.5515167311543303,0.04516601100000006,0.8799999952316284,0.12999999523162842,71.51000213623047,-0.037109375,-0.116943359375,1.3863525390625,27.700000762939453,0.0,-144.0,0.4886474609375,0.6280975341796875,Closing,0.0,0.0,-26583.0,0.0,0.0,0.0,0.0,0.0,
1.311722000000009,0.0,0.0,3507.0,20.875,307.5,2707.785149690102,0.0,0.875,4.071044505000001,0.739533108173763,0.0,-3450.0,34.625,112.5,2707.785149690102,0.0,0.625,1.6040037420000002,4.211701580912179,0.0,0.0,0.0,0.0,1689.776350398996,0.0,0.0,3.923339442,4.7041049577617615,0.0,-3430.0,35.125,240.0,1689.776350398996,0.0,0.5,3.1103512440000003,0.2495671621868532,0.0,0.8899999856948853,-0.03999999910593033,70.87000274658203,-0.15045166015625,-0.184326171875,1.02423095703125,27.700000762939453,0.0,-238.0,0.4881744384765625,0.6288909912109375,Closing,0.0,0.0,-26583.0,0.0,0.0,0.0,0.0,0.0,
1.3419340000000084,1.5,0.0,3566.0,36.375,352.5,3513.6968602117577,0.0,1.0,4.152831606,0.8660662626330682,0.08300780399999974,-3407.0,57.75,240.0,3513.6968602117577,0.0,0.75,1.533202968,4.085550778853538,-0.0866699130000006,0.0,0.0,0.0,1659.2216264827423,0.0,0.0,3.914794521,0.20097086643553855,-0.0646972589999999,-3373.0,31.75,315.0,1659.2216264827423,0.0,0.25,3.1140133530000003,4.74679282162095,0.05859374399999995,0.9200000166893005,-0.1599999964237213,70.05000305175781,0.046630859375,0.04248046875,0.9644775390625,27.700000762939453,0.0,42.0,0.4871826171875,0.630218505859375,Closing,0.0,0.0,-26583.0,0.0,0.0,0.0,0.0,0.0,
1.3714670000000042,0.0,0.0,3566.0,42.5,382.5,3993.9086505820715,0.0,1.0,4.226073786000001,0.914144967208271,0.10131834900000047,-3407.0,66.625,322.5,3993.9086505820715,0.0,0.625,1.44042954,4.037617356423505,-0.09765623999999917,0.0,0.0,0.0,1865.5675607219907,0.0,0.125,3.922118739,0.4212224339800799,-0.007324217999999938,-3373.0,28.125,390.0,1865.5675607219907,0.0,0.0,3.1140133530000003,4.526830239782715,0.0024414059999999793,1.2599999904632568,-0.25,69.0,-0.0743408203125,0.35247802734375,0.96661376953125,27.700000762939453,0.0,283.0,0.4869537353515625,0.632171630859375,Closing,0.0,0.0,-26583.0,0.0,0.0,0.0,0.0,0.0,
1.3956199999999954,0.0,0.0,3566.0,46.25,465.0,4193.104326098493,0.0,1.25,4.313964402,0.9305498607184992,0.07324217999999938,-3407.0,70.0,427.5,4193.104326098493,0.0,0.5,1.3488768150000001,4.0212620345092995,-0.07080077400000029,0.0,0.0,0.0,1984.6098131507104,0.0,0.625,3.963622641,0.49537985429977327,0.0,-3373.0,26.875,562.5,1984.6098131507104,0.0,0.375,3.1054684320000003,4.4527701192676385,0.0,1.649999976158142,-0.36000001430511475,67.61000061035156,-0.030029296875,0.15606689453125,1.37091064453125,27.700000762939453,0.0,99.0,0.488067626953125,0.6346435546875,Closing,0.0,0.0,-26583.0,0.0,0.0,0.0,0.0,0.0,
1.4286750000000175,0.0,0.0,3566.0,46.75,765.0,4193.104326098493,0.0,1.625,4.411620642,0.9305498607184992,0.09033202200000012,-3407.0,64.875,667.5,4193.104326098493,0.0,0.375,1.23291003,4.0212620345092995,-0.11962889399999987,0.0,0.0,0.0,1984.6098131507104,0.0,1.875,4.0856929410000005,0.49537985429977327,0.05981444699999994,-3373.0,29.125,675.0,1984.6098131507104,0.0,0.75,3.016357113,4.4527701192676385,-0.006103514999999948,1.6799999475479126,-0.3100000023841858,65.91000366210938,-0.08673095703125,0.23883056640625,0.8238525390625,27.700000762939453,0.0,162.0,0.4895172119140625,0.6374664306640625,Closing,0.0,0.0,-26583.0,0.0,0.0,0.0,0.0,0.0,
1.455512000000017,0.0,0.0,3735.0,45.125,915.0,4193.104326098493,0.0,1.25,4.478759307,0.9305498607184992,0.0,-3256.0,60.5,795.0,4193.104326098493,0.0,0.125,1.1071776210000002,4.0212620345092995,0.0,0.0,0.0,0.0,1984.6098131507104,0.0,1.875,4.219970271,0.49537985429977327,0.0,-3238.0,32.875,862.5,1984.6098131507104,0.0,1.125,2.88085908,4.4527701192676385,0.0,2.059999942779541,-0.3499999940395355,63.77000045776367,-0.00323486328125,0.0189208984375,0.972412109375,27.700000762939453,0.0,-13.0,0.4915313720703125,0.6409149169921875,Closing,0.0,0.0,-26583.0,0.0,0.0,0.0,0.0,0.0,
1.4875200000000186,0.0,0.0,3735.0,44.125,1020.0,4200.0,0.0,0.875,4.517821803,0.8936140519970828,0.07080077400000029,-3256.0,52.375,1065.0,4037.460746243468,0.0,0.0,1.046142471,3.9829542286659314,-0.1269531119999998,0.0,0.0,0.0,2122.7721815480722,0.0,1.0,4.329833541,0.44896638495548596,-4.801412125,-3238.0,31.875,945.0,1779.6772213553834,0.0,0.75,2.761230186,4.397467943821828,4.797353531,2.130000114440918,-0.30000001192092896,61.209999084472656,0.00799560546875,0.2205810546875,0.90032958984375,27.700000762939453,0.0,169.0,0.4939422607421875,0.6444091796875,Closing,0.0,0.0,-26583.0,0.0,0.0,0.0,0.0,0.0,
1.5120100000000094,0.0,0.0,3735.0,43.0,1162.5,4200.0,0.0,0.875,4.560546408,0.8184733455377398,0.0,-3256.0,49.75,1222.5,3713.30901090346,0.0,0.0,1.026611223,3.89475941413567,0.0,0.0,0.0,0.0,2401.3688180431195,0.0,0.625,4.436034702000001,0.37080982047196603,0.0,-3238.0,30.125,1020.0,1383.9205218243733,0.0,0.0,2.623290747,4.235033460538943,0.0,2.6700000762939453,-0.20000000298023224,58.279998779296875,0.09051513671875,0.22381591796875,1.228271484375,27.700000762939453,0.0,191.0,0.49737548828125,0.6484527587890625,Closing,0.0,0.0,-26583.0,0.0,0.0,0.0,0.0,0.0,
1.5460210000000079,0.0,0.0,3735.0,39.5,1380.0,4200.0,0.0,0.375,4.561767111,0.8008774420651377,0.032958981000000165,-3256.0,44.375,1567.5,3639.903654020699,0.0,0.0,0.979003806,3.871862860721107,0.0,1.0,0.0,0.0,2466.4967186100093,0.0,0.125,4.489745634,0.3550605273116995,0.0,-3238.0,23.375,1110.0,1300.9629792838762,0.0,0.0,2.4780270900000003,4.183256289288091,0.0,3.119999885559082,0.10999999940395355,55.16999816894531,-0.017822265625,0.08380126953125,0.599365234375,27.700000762939453,0.0,31.0,0.5025177001953125,0.6531829833984375,Closing,0.0,0.0,-26583.0,0.0,0.0,0.0,0.0,0.0,
1.584762000000017,0.0,0.0,3990.0,37.625,1507.5,4200.0,0.0,0.125,4.56542922,0.6352132613493081,0.0012207030000004337,-2961.0,42.5,1732.5,3051.8378211201534,0.0,0.0,0.943603419,3.606512083937872,-0.046386714000000495,1.0,0.0,7.5,3053.065255695516,0.0,0.0,4.509276882,0.23886382445119736,0.052490229,-3059.0,19.25,1102.5,997.4575389231043,0.0,0.0,2.347411869,3.3800678861153983,-0.16235349899999996,3.5299999713897705,0.38999998569488525,51.9900016784668,-0.17401123046875,0.507080078125,1.074951171875,27.700000762939453,0.0,235.0,0.5091552734375,0.658294677734375,Closing,0.0,0.0,-26583.0,0.0,0.0,0.0,0.0,0.0,
1.6115230000000156,0.0,0.0,3990.0,33.625,1785.0,4200.0,0.0,0.125,4.6008296070000005,0.5956096044227537,0.0,-2961.0,40.625,2002.5,2953.838870411201,0.0,0.0,0.8923338930000001,3.529157198402014,0.0,1.0,0.0,15.0,3181.961129432046,0.0,0.0,4.52880813,0.21725790683258228,0.0,-3059.0,18.125,1042.5,1100.0185005574135,0.0,0.0,2.241210708,3.1871202110600847,0.0,3.890000104904175,0.7799999713897705,48.720001220703125,-0.08172607421875,0.12823486328125,1.363525390625,27.700000762939453,0.0,-39.0,0.5171966552734375,0.6643829345703125,Closing,0.0,0.0,-26583.0,0.0,0.0,0.0,0.0,0.0,
1.6456510000000126,0.0,0.0,3990.0,31.75,1935.0,4200.0,0.0,0.0,4.569091329,0.5956096044227537,0.0012207030000004337,-2961.0,38.375,2115.0,2953.838870411201,0.0,0.25,0.820312416,3.529157198402014,-0.04760741700000004,10.0,0.0,30.0,3181.961129432046,0.0,0.0,4.527587427,0.21725790683258228,0.014648435999999876,-3059.0,18.625,907.5,1100.0185005574135,0.0,3.0,2.054443149,3.1871202110600847,-0.10986326999999996,4.010000228881836,1.5,43.810001373291016,0.11419677734375,0.2078857421875,0.546875,27.700000762939453,0.0,188.0,0.531219482421875,0.6749267578125,Closing,0.0,0.0,-26583.0,0.0,0.0,0.0,0.0,0.0,
1.674597999999998,0.0,0.0,3990.0,29.0,2182.5,4200.0,0.0,0.0,4.566649923,0.5956096044227537,-0.004882811999999959,-2961.0,36.25,2295.0,2953.838870411201,0.0,0.375,0.7250975820000001,3.529157198402014,-0.10131834900000003,10.0,0.0,60.0,3181.961129432046,0.0,0.0,4.527587427,0.21725790683258228,0.0,-3059.0,23.0,847.5,1100.0185005574135,0.0,3.375,1.8969724620000001,3.1871202110600847,-0.19042966800000016,4.230000019073486,1.8700000047683716,40.52000045776367,0.37786865234375,0.37677001953125,1.51239013671875,27.700000762939453,0.0,420.0,0.5427398681640625,0.6822052001953125,Closing,0.0,0.0,-26583.0,0.0,0.0,0.0,0.0,0.0,
1.7061900000000023,0.0,0.0,4363.0,28.25,2287.5,4200.0,0.0,0.0,4.564208517,0.5956096044227537,0.0,-2584.0,36.125,2347.5,2953.838870411201,0.0,0.0,0.629882748,3.529157198402014,0.0,10.0,0.0,82.5,3181.961129432046,0.0,0.0,4.519042506,0.21725790683258228,0.0,-2932.0,27.625,772.5,1100.0185005574135,0.0,1.125,1.673583813,3.1871202110600847,0.0,4.090000152587891,2.549999952316284,37.279998779296875,-0.0345458984375,0.1309814453125,0.48297119140625,27.700000762939453,0.0,13.0,0.5561370849609375,0.6893310546875,Closing,0.0,0.0,-26583.0,0.0,0.0,0.0,0.0,0.0,
1.7352790000000096,0.0,0.0,4363.0,26.875,2437.5,4200.0,0.0,0.0,4.562987814,0.5956096044227537,0.0,-2584.0,33.125,2430.0,2953.838870411201,0.0,0.0,0.570068301,3.529157198402014,-0.09399413099999965,10.0,0.0,90.0,3181.961129432046,0.0,0.0,4.520263209,0.21725790683258228,-0.007324217999999938,-2932.0,29.25,765.0,1100.0185005574135,0.0,0.375,1.535644374,3.1871202110600847,-0.22460935199999987,4.150000095367432,2.75,34.150001525878906,1.1297607421875,0.25909423828125,1.99993896484375,27.700000762939453,0.0,915.0,0.57293701171875,0.69580078125,Closing,0.0,0.0,-26583.0,0.0,0.0,0.0,0.0,0.0,
1.7679459999999962,0.0,0.0,4363.0,25.75,2497.5,4200.0,0.0,0.0,4.5556635960000005,0.5956096044227537,0.0,-2584.0,33.25,2460.0,2953.838870411201,0.0,0.0,0.527343696,3.529157198402014,0.0,31.0,0.0,97.5,3181.961129432046,0.0,0.0,4.514159694,0.21725790683258228,0.0,-2932.0,32.875,750.0,1100.0185005574135,0.0,0.375,1.3439940030000002,3.1871202110600847,0.0,4.190000057220459,3.3299999237060547,31.139999389648438,0.46905517578125,0.2021484375,0.605224609375,27.700000762939453,0.0,450.0,0.59423828125,0.7002105712890625,Closing,0.0,0.0,-26583.0,0.0,0.0,0.0,0.0,0.0,
1.7938280000000086,0.0,0.0,4363.0,25.375,2550.0,4200.0,0.0,0.0,4.542235863,0.667669578394937,-0.006103514999999504,-2584.0,33.25,2475.0,3147.0770919757024,0.0,0.0,0.507812448,3.665983080401006,-0.04516601100000006,31.0,0.0,135.0,2943.5441975432077,0.0,0.0,4.512938991,0.2580067813203545,-0.0012207029999995456,-2932.0,35.875,727.5,963.6112627655058,0.0,0.0,1.246337763,3.5603731479617813,-0.18676755899999975,3.9600000381469727,3.5299999713897705,28.139999389648438,0.38055419921875,0.24267578125,1.170654296875,27.709999084472656,0.0,346.0,0.616668701171875,0.7035064697265625,Closing,0.0,0.0,-26583.0,0.0,0.0,0.0,0.0,0.0,
1.828015000000014,0.0,0.0,4791.0,24.0,2655.0,4200.0,0.0,0.0,4.523925318,0.789410896267491,-0.019531247999999835,-2175.0,31.625,2527.5,3592.80527822032,0.0,0.0,0.498046824,3.856442099933163,-0.015869138999999866,31.0,0.0,165.0,2508.788478273405,0.0,0.0,4.508056179,0.34523671761959884,-0.004882811999999959,-2815.0,34.875,720.0,1249.9077549664107,0.0,0.0,1.170654177,4.14590866001857,-0.10375975500000045,3.8399999141693115,3.819999933242798,25.209999084472656,0.07763671875,0.14501953125,0.93017578125,27.709999084472656,0.0,48.0,0.6404876708984375,0.7062835693359375,Closing,0.0,0.0,-26583.0,0.0,0.0,0.0,0.0,0.0,
1.8532989999999991,0.0,0.0,4791.0,23.25,2700.0,4193.104326098493,0.0,0.0,4.5166011,0.9305498607184992,0.0,-2175.0,31.75,2527.5,4193.104326098493,0.0,0.0,0.49316401200000004,4.0212620345092995,0.0,31.0,0.0,187.5,1984.6098131507104,0.0,0.0,4.509276882,0.49537985429977327,0.0,-2815.0,46.125,750.0,1984.6098131507104,0.0,0.0,1.174316286,4.4527701192676385,0.0,3.9000000953674316,4.139999866485596,22.34000015258789,0.15673828125,0.20263671875,1.41693115234375,27.709999084472656,0.0,89.0,0.6649627685546875,0.7089385986328125,Closing,0.0,0.0,-26583.0,0.0,0.0,0.0,0.0,0.0,
1.8862460000000136,0.0,0.0,4791.0,22.125,2745.0,4193.104326098493,0.0,0.125,4.519042506,0.9305498607184992,-0.004882811999999959,-2175.0,31.375,2505.0,4193.104326098493,0.0,0.625,0.522460884,4.0212620345092995,-0.008544921000000372,76.0,0.0,240.0,1984.6098131507104,0.0,0.0,4.523925318,0.49537985429977327,0.0,-2815.0,56.625,795.0,1984.6098131507104,0.0,4.375,1.193847534,4.4527701192676385,-0.0012207030000004337,3.8399999141693115,4.320000171661377,19.56999969482422,0.22900390625,0.2984619140625,0.73492431640625,27.709999084472656,0.0,245.0,0.690216064453125,0.712158203125,Closing,0.0,0.0,-26583.0,0.0,0.0,0.0,0.0,0.0,
1.9119459999999964,0.0,0.0,4791.0,19.625,2797.5,3853.5796990324443,0.0,0.125,4.510497585,1.0168618924916566,0.0,-2175.0,31.0,2467.5,4200.0,0.0,0.875,0.544433538,4.100190721808795,0.0,76.0,0.0,277.5,1550.7141639456229,0.0,0.0,4.537353051,0.6319867312177817,0.0,-2815.0,65.0,847.5,-2279.1748334576228,0.0,5.0,1.381835796,2.0715926968743816,0.0,3.9800000190734863,4.320000171661377,16.8700008392334,-0.2000732421875,0.0618896484375,1.40411376953125,27.709999084472656,0.0,-302.0,0.7159271240234375,0.7162933349609375,Closing,0.0,0.0,-26583.0,0.0,0.0,0.0,0.0,0.0,
1.9468280000000087,0.0,0.0,5248.0,20.125,2812.5,3346.597488323381,0.0,0.25,4.5483393780000005,1.188796582094757,0.006103515000000392,-1793.0,33.75,2415.0,4200.0,0.0,0.625,0.5944823610000001,4.225045492234804,0.017089841999999855,76.0,0.0,360.0,1029.5976224921094,0.0,0.0,4.6008296070000005,1.0679566322863396,0.01586913900000031,-2679.0,36.5,847.5,2738.677877259216,0.0,10.25,1.361083845,4.651444152880249,0.17700193499999983,3.7699999809265137,4.289999961853027,14.15999984741211,-0.22650146484375,0.25445556640625,0.62188720703125,27.709999084472656,0.0,-211.0,0.740509033203125,0.7209930419921875,Closing,0.0,0.0,-26583.0,0.0,0.0,0.0,0.0,0.0,
1.9754550000000164,0.0,0.0,5248.0,20.375,2850.0,2971.1050740776514,0.0,0.25,4.609374528,1.4087437092724797,0.051269525999999566,-1793.0,38.375,2325.0,4200.0,0.0,0.875,0.6982421160000001,4.347550719215694,0.07812499200000023,76.0,0.0,397.5,-1075.6353495242192,0.0,0.375,4.693603035000001,4.205349538445196,0.08056639799999932,-2679.0,28.0,825.0,-3157.455628181673,0.0,9.125,1.149902226,2.252739154961091,-0.0354003869999997,3.880000114440918,4.059999942779541,12.640000343322754,-0.21221923828125,0.04486083984375,0.7308349609375,27.709999084472656,0.0,-258.0,0.7523345947265625,0.7236785888671875,Closing,0.0,0.0,-26583.0,0.0,0.0,0.0,0.0,0.0,
2.0066050000000106,0.0,0.0,5248.0,19.625,2872.5,2953.838870411201,0.0,0.625,4.681396005,1.4241462249206738,0.0,-1793.0,37.875,2287.5,4200.0,0.0,1.25,0.820312416,4.355190182858945,0.0,148.0,7.875,442.5,-1100.0185005574135,0.0,1.875,4.8632807520000005,4.239692566833422,0.0,-2679.0,23.375,780.0,-3181.961129432046,0.0,9.375,1.308593616,2.256777150978161,0.0,3.9200000762939453,3.859999895095825,8.029999732971191,-0.917724609375,0.366943359375,0.92669677734375,27.709999084472656,0.0,-925.0,0.7841644287109375,0.7310943603515625,Closing,0.0,0.0,-26583.0,0.0,0.0,0.0,0.0,0.0,
2.0343129999999947,0.0,0.0,5248.0,19.5,2917.5,2953.838870411201,0.0,1.625,4.771728027,1.4241462249206738,0.08422850699999973,-1793.0,37.5,2250.0,4200.0,0.0,1.125,0.916747953,4.355190182858945,0.1281738149999998,148.0,8.875,442.5,1100.0185005574135,0.0,9.375,4.898681139000001,1.7626925668334215,0.18920896499999973,-2679.0,19.875,675.0,-3181.961129432046,0.0,12.875,1.352538924,2.256777150978161,0.15136717200000005,3.380000114440918,3.0399999618530273,4.670000076293945,-0.470458984375,-0.283447265625,1.16131591796875,27.709999084472656,0.0,-558.0,0.800567626953125,0.735565185546875,Closing,0.0,0.0,-26583.0,0.0,0.0,0.0,0.0,0.0,
2.064907999999996,0.0,0.0,5705.0,19.875,2910.0,2953.838870411201,0.0,1.625,4.884032703,1.4241462249206738,0.0,-1452.0,39.0,2212.5,4200.0,0.0,0.875,1.0302733320000002,4.355190182858945,0.0,148.0,3.25,412.5,1100.0185005574135,0.0,11.625,4.667968272,1.7626925668334215,0.0,-2604.0,40.125,397.5,-3181.961129432046,0.0,9.125,1.247558466,2.256777150978161,0.0,3.4100000858306885,2.809999942779541,2.799999952316284,-0.48699951171875,0.0281982421875,1.64154052734375,27.709999084472656,0.0,-569.0,0.8075408935546875,0.737274169921875,Closing,0.0,0.0,-26583.0,0.0,0.0,0.0,0.0,0.0,
2.093728999999992,0.0,0.0,5705.0,20.375,2842.5,3412.983442103511,0.0,1.125,4.930419417,1.7265719140795652,0.10375975500000045,-1452.0,40.0,2100.0,4148.7232463754935,0.0,0.625,1.079101452,4.368453605638515,0.11352537900000037,148.0,9.875,367.5,-2706.459308299975,0.0,10.875,4.787597166,4.357457428298112,-0.23071286700000027,-2604.0,45.125,240.0,3590.0376859341277,0.0,5.25,1.1120604330000001,4.519199377399521,-0.10986326999999996,2.700000047683716,2.5899999141693115,-1.2000000476837158,-0.63360595703125,-0.27301025390625,0.4698486328125,27.709999084472656,0.0,-647.0,0.8196868896484375,0.7397308349609375,Closing,0.0,0.0,-26583.0,0.0,0.0,0.0,0.0,0.0,
2.127320000000007,0.0,0.0,5705.0,20.75,2767.5,3400.869603866046,0.0,1.375,0.042724605,1.9003233982789594,0.05004882300000002,-1452.0,38.5,2032.5,3400.869603866046,0.0,0.375,1.1352537900000002,4.369081083417117,0.040283198999999215,180.0,21.625,300.0,-3400.869603866046,0.0,13.375,4.83398388,4.373495188371065,0.13549803300000018,-2604.0,46.875,172.5,3400.869603866046,0.0,2.25,0.917968656,4.367756851930933,0.0,2.450000047683716,2.059999942779541,-5.449999809265137,-0.5281982421875,-0.40240478515625,1.35455322265625,27.709999084472656,0.0,-530.0,0.8287353515625,0.7395782470703125,Closing,0.0,0.0,-26583.0,0.0,0.0,0.0,0.0,0.0,
2.1531410000000033,0.0,0.0,5705.0,22.25,2557.5,3400.869603866046,0.0,3.0,0.10986327000000001,1.9003233982789594,0.0,-1452.0,33.75,1920.0,3400.869603866046,0.0,0.25,1.169433474,4.369081083417117,0.0,180.0,39.0,150.0,-3400.869603866046,0.0,9.875,4.696044441000001,4.373495188371065,0.0,-2556.0,55.5,442.5,-3400.869603866046,0.0,8.375,1.022949114,1.8940068519309325,0.0,2.4200000762939453,2.1700000762939453,-9.359999656677246,-0.24273681640625,0.2080078125,0.27996826171875,27.709999084472656,0.0,-281.0,0.835540771484375,0.7378997802734375,Closing,0.0,0.0,-26583.0,0.0,0.0,0.0,0.0,0.0,
2.1865899999999967,0.0,0.0,6081.0,25.875,2407.5,3387.680475473779,0.0,3.875,0.19409177700000002,1.9037255363664627,0.06225585299999992,-1148.0,36.75,1890.0,3387.680475473779,0.0,0.0,1.173095583,4.372472941071237,0.02929687200000064,180.0,37.625,90.0,-3387.680475473779,0.0,7.0,4.526366724,4.376890472836312,-0.14038084500000014,-2556.0,47.0,427.5,-3387.680475473779,0.0,11.625,1.0815428580000002,1.897397681541715,0.10620116099999954,2.299999952316284,1.3700000047683716,-12.510000228881836,-0.3922119140625,0.02294921875,1.39959716796875,27.709999084472656,0.0,-408.0,0.840606689453125,0.7358551025390625,Closing,0.0,0.0,-26583.0,0.0,0.0,0.0,0.0,0.0,
2.211945000000007,0.0,0.0,6081.0,29.25,2235.0,3374.554658117868,0.0,3.75,0.291748017,1.9071542046625893,0.0,-1148.0,44.75,1807.5,3374.554658117868,0.0,0.125,1.173095583,4.3758912487661465,0.0,180.0,24.375,0.0,-3374.554658117868,0.0,1.125,4.350585492,4.380312234064961,0.0,-2556.0,31.625,-22.5,3374.554658117868,0.0,9.5,0.980224509,4.3745649531765025,0.0,1.5399999618530273,0.8100000023841858,-15.470000267028809,-0.74505615234375,-0.26568603515625,0.88604736328125,27.709999084472656,0.0,-652.0,0.8428192138671875,0.731536865234375,Closing,0.0,0.0,-26583.0,0.0,0.0,0.0,0.0,0.0,
2.2445139999999957,0.0,0.0,6081.0,33.25,1905.0,3374.554658117868,0.0,2.0,0.358886682,1.9071542046625893,0.08544921000000016,-1148.0,50.125,1560.0,3374.554658117868,0.0,0.25,1.179199098,4.3758912487661465,0.0,166.0,15.875,-37.5,-3374.554658117868,0.0,0.0,4.191894102,4.380312234064961,-0.17333982599999942,-2556.0,38.75,-202.5,-3374.554658117868,0.0,9.875,0.9716795880000001,1.9008149531765026,-0.09155272500000011,1.159999966621399,0.10999999940395355,-18.549999237060547,-0.31353759765625,-0.59832763671875,1.324951171875,27.709999084472656,0.0,-100.0,0.8421630859375,0.7243194580078125,Closing,0.0,0.0,-26583.0,0.0,0.0,0.0,0.0,0.0,
2.2729489999999934,0.0,0.0,6081.0,36.0,1770.0,3374.554658117868,0.0,1.75,0.416259723,1.9071542046625893,0.08422850699999973,-1148.0,49.125,1462.5,3374.554658117868,0.0,0.25,1.18408191,4.3758912487661465,0.004882811999999959,166.0,12.375,-75.0,-3374.554658117868,0.0,0.0,4.020995682000001,4.380312234064961,4.763570332,-2556.0,35.375,-255.0,-3374.554658117868,0.0,8.5,1.1120604330000001,1.9008149531765026,0.0,1.2899999618530273,0.23000000417232513,-21.469999313354492,-0.5831298828125,0.6942138671875,-0.05120849609375,27.709999084472656,0.0,-796.0,0.83990478515625,0.71533203125,Closing,0.0,0.0,-26583.0,0.0,0.0,0.0,0.0,0.0,
2.300765000000014,0.0,0.0,6320.0,40.0,1650.0,3481.2933682217877,0.0,1.75,0.449218704,1.8804574440298538,0.032958981000000165,-934.0,49.5,1387.5,3481.2933682217877,0.0,0.125,1.1877440190000002,4.3492751592473295,0.004882811999999959,166.0,19.625,-195.0,-3481.2933682217877,0.0,0.0,3.8891597580000004,4.3536692541748385,0.0,-2623.0,27.625,-165.0,3481.2933682217877,0.0,9.25,1.087646373,4.347956930769078,0.0,1.399999976158142,-1.190000057220459,-23.8700008392334,-0.4046630859375,-0.2784423828125,1.99993896484375,27.700000762939453,0.0,-199.0,0.8345184326171875,0.7052764892578125,Closing,0.0,0.0,-26583.0,0.0,0.0,0.0,0.0,0.0,
2.331434000000008,0.0,0.0,6320.0,43.25,1372.5,3522.3022838629636,0.0,1.875,0.47973627900000004,1.8708676851281398,0.04516601100000006,-934.0,50.125,1342.5,3522.3022838629636,0.0,0.0,1.192626831,4.339714378263328,0.004882811999999959,166.0,20.625,-277.5,-3522.3022838629636,0.0,0.0,3.773192973,4.344098813884932,-0.15014646900000006,-2623.0,37.5,-67.5,3522.3022838629636,0.0,10.0,0.926513577,4.338399047576847,-0.03906249599999967,0.5099999904632568,-1.090000033378601,-25.8799991607666,-0.248046875,0.65380859375,0.99908447265625,27.700000762939453,0.0,-487.0,0.827911376953125,0.6937255859375,Closing,0.0,0.0,-26583.0,0.0,0.0,0.0,0.0,0.0,
2.3566140000000013,0.0,0.0,6320.0,44.125,1215.0,3563.8181771801997,0.0,1.75,0.483398388,1.8615000000000022,0.0,-934.0,44.375,1350.0,3563.8181771801997,0.0,0.0,1.197509643,4.330375000000001,0.0,115.0,16.125,-360.0,-3563.8181771801997,0.0,0.0,3.709716417,4.334750000000001,0.0,-2623.0,48.875,45.0,-3563.8181771801997,0.0,8.375,1.077880749,1.855312500000002,0.0,0.8199999928474426,-0.9900000095367432,-27.520000457763672,-0.043701171875,-0.17950439453125,-0.09814453125,27.700000762939453,0.0,42.0,0.8207550048828125,0.6817779541015625,Closing,0.0,0.0,-26583.0,0.0,0.0,0.0,0.0,0.0,
2.3907630000000064,0.0,0.0,6320.0,50.125,952.5,3323.478896837791,0.0,1.25,0.483398388,1.7623441077355582,0.004882811999999959,-934.0,46.875,1410.0,3482.918743064013,0.0,0.0,1.197509643,4.276367362211601,0.004882811999999959,115.0,17.25,-322.5,-3159.053279067099,0.0,0.0,3.6767574360000004,4.2681612235790025,-0.0646972589999999,-2623.0,37.5,30.0,3326.3837140421815,0.0,10.875,1.097411997,4.307972157173277,0.16479490499999994,1.600000023841858,-1.690000057220459,-28.510000228881836,-0.72003173828125,-0.54656982421875,1.99993896484375,27.700000762939453,0.0,-292.0,0.812957763671875,0.6681365966796875,Closing,0.0,0.0,-26583.0,0.0,0.0,0.0,0.0,0.0,
2.4155350000000033,0.0,0.0,6456.0,47.875,870.0,3282.5569655966265,0.0,1.0,0.49316401200000004,1.6092398554341174,0.0,-729.0,53.625,1387.5,3823.508401723843,0.0,0.0,1.197509643,4.260541200097324,0.0,115.0,22.875,-240.0,-2572.584738583921,0.0,0.0,3.662109,4.1969986880297645,0.0,-2602.0,31.875,60.0,3234.53682972706,0.0,9.0,0.9606932610000001,4.3886827867832965,0.0,1.090000033378601,-2.0399999618530273,-29.020000457763672,0.06219482421875,0.26580810546875,1.8006591796875,27.700000762939453,0.0,-1.0,0.8038482666015625,0.65252685546875,Closing,0.0,0.0,-26583.0,0.0,0.0,0.0,0.0,0.0,
2.4490530000000144,0.0,0.0,6456.0,46.25,817.5,3363.131797046129,0.0,0.375,0.489501903,1.5060697564154752,0.0,-729.0,56.375,1320.0,4144.246279522569,0.0,0.0,1.197509643,4.261363021892101,0.0,115.0,20.375,-67.5,-2168.4350269964584,0.0,0.0,3.659667594,4.138068234499828,0.0,-2602.0,54.375,75.0,-3250.5741350320045,0.0,8.125,1.020507708,1.9927614945400376,0.0,0.949999988079071,-1.2200000286102295,-29.520000457763672,0.451171875,0.04669189453125,-0.93829345703125,27.700000762939453,0.0,344.0,0.7947845458984375,0.6388397216796875,Closing,0.0,0.0,-26583.0,0.0,0.0,0.0,0.0,0.0,
2.4794630000000177,0.0,0.0,6456.0,47.625,757.5,3268.536125769552,0.0,0.0,0.4882812,1.3568410581926782,0.0,-729.0,37.75,1267.5,4200.0,0.0,0.0,1.199951049,4.256931525267475,0.0,116.0,29.0,-15.0,-1456.9278792746363,0.0,0.0,3.643798455,3.978797537725193,-0.008544921000000372,-2602.0,43.125,105.0,-3013.189413220991,0.0,10.25,1.0827635610000002,2.1001970664659018,0.06835936800000031,1.9900000095367432,-1.9900000095367432,-29.469999313354492,-0.0224609375,0.4261474609375,1.99993896484375,27.700000762939453,0.0,-133.0,0.785736083984375,0.6257781982421875,Closing,0.0,0.0,-26583.0,0.0,0.0,0.0,0.0,0.0,
2.508073000000004,0.0,0.0,6456.0,48.0,765.0,3301.5781512216304,0.0,0.0,0.4882812,1.3350591086695458,0.0,-729.0,36.375,1350.0,4200.0,0.0,0.0,1.197509643,4.243647665419655,0.0,116.0,43.125,0.0,-1449.541266242034,0.0,0.125,3.6206050980000004,3.931490766432256,0.0,-2602.0,23.125,127.5,-2973.340140971854,0.0,9.0,1.020507708,2.0890668251970985,0.0,1.8600000143051147,-1.940000057220459,-29.3700008392334,-0.01800537109375,-0.16168212890625,1.04345703125,27.700000762939453,0.0,110.0,0.77642822265625,0.61273193359375,Closing,0.0,0.0,-26583.0,0.0,0.0,0.0,0.0,0.0,
2.5367289999999922,0.0,0.0,6585.0,46.0,780.0,3371.140820675837,0.0,0.0,0.48583979400000005,1.284857102925089,0.0012207029999999897,-498.0,51.125,1515.0,4017.897623939414,0.0,0.0,1.19628894,4.166754386267238,0.0,116.0,35.75,7.5,-1684.4689284443866,0.0,0.375,3.5754390870000003,3.8032306828151556,-0.020751951000001156,-2598.0,29.5,0.0,-2759.772899085288,0.0,9.125,0.90332022,1.960537825830586,-0.0573730410000004,1.600000023841858,-1.6799999475479126,-29.770000457763672,-0.26519775390625,-0.178955078125,0.0577392578125,27.700000762939453,0.0,-138.0,0.7669830322265625,0.5994720458984375,Closing,0.0,0.0,-26583.0,0.0,0.0,0.0,0.0,0.0,
2.570676999999996,0.0,0.0,6585.0,45.375,802.5,3209.6090910707276,0.0,0.0,0.483398388,1.2112427570278121,0.0,-498.0,52.375,1477.5,3544.9393495159607,0.0,0.0,1.198730346,4.0582970590237375,0.0,116.0,31.75,0.0,-1836.6483583320469,0.0,0.375,3.50341761,3.663577654904425,0.0,-2598.0,31.875,-412.5,-2374.5066153680395,0.0,3.375,0.772704999,1.7794964457884708,0.0,2.119999885559082,-2.190000057220459,-30.420000076293945,-0.33978271484375,0.0482177734375,1.83197021484375,27.700000762939453,0.0,-221.0,0.7560272216796875,0.58599853515625,Closing,0.0,0.0,-26583.0,0.0,0.0,0.0,0.0,0.0,
2.5960130000000063,0.0,0.0,6585.0,45.5,825.0,2719.726897065888,0.0,0.125,0.462646437,1.1753355785398456,0.0,-498.0,47.625,1290.0,2719.726897065888,0.0,0.0,1.192626831,3.7772159995580816,0.0,116.0,31.75,0.0,-2340.577824104308,0.0,0.375,3.449706678,3.6393215167272692,-0.059814447000000825,-2598.0,26.375,-465.0,2340.577824104308,0.0,4.125,0.666503838,3.786703531689917,-0.1269531119999998,1.7599999904632568,-2.2899999618530273,-31.290000915527344,-0.06976318359375,-0.083984375,0.7125244140625,27.700000762939453,0.0,19.0,0.7439117431640625,0.5720367431640625,Closing,0.0,0.0,-26583.0,0.0,0.0,0.0,0.0,0.0,
2.629216000000015,0.0,0.0,6585.0,44.75,922.5,2520.0,0.0,0.125,0.424804644,1.2410000000000012,-0.025634762999999783,-498.0,45.75,1275.0,2520.0,0.0,0.0,1.1877440190000002,3.711750000000001,-0.004882811999999959,116.0,28.875,0.0,-2520.0,0.0,0.375,3.352050438,3.7155000000000014,-0.07324217999999938,-2598.0,24.5,-412.5,2520.0,0.0,4.125,0.534667914,3.7106250000000016,-0.12084959700000031,1.7400000095367432,-2.2899999618530273,-32.459999084472656,0.2939453125,-0.037841796875,0.78936767578125,27.700000762939453,0.0,307.0,0.7320404052734375,0.557647705078125,Closing,0.0,0.0,-26583.0,0.0,0.0,0.0,0.0,0.0,
2.6549020000000016,0.0,0.0,6750.0,43.875,975.0,2520.0,0.0,0.25,0.357665979,1.2410000000000012,0.0,-244.0,35.5,1537.5,2520.0,0.0,0.625,1.1364744930000001,3.711750000000001,0.0,116.0,27.75,0.0,-2520.0,0.0,0.375,3.280028961,3.7155000000000014,0.0,-2622.0,41.625,-165.0,2520.0,0.0,8.25,0.6188964210000001,3.7106250000000016,0.0,2.299999952316284,-2.0,-33.54999923706055,0.0653076171875,-0.095947265625,1.10577392578125,27.700000762939453,0.0,164.0,0.7214202880859375,0.5439300537109375,Closing,0.0,0.0,-26583.0,0.0,0.0,0.0,0.0,0.0,
2.687534000000014,0.0,0.0,6750.0,41.25,1072.5,2520.0,0.0,0.25,0.313720671,1.2410000000000012,-0.06591796199999989,-244.0,31.875,1687.5,2520.0,0.0,0.375,1.068115125,3.711750000000001,-0.06713866499999988,116.0,36.875,0.0,-2520.0,0.0,0.375,3.233642247,3.7155000000000014,-0.0830078039999993,-2622.0,52.5,-37.5,2520.0,0.0,8.0,0.7360839090000001,3.7106250000000016,0.09033202200000012,2.5799999237060547,-2.0199999809265137,-34.33000183105469,0.14715576171875,0.1356201171875,1.453125,27.700000762939453,0.0,124.0,0.7112884521484375,0.53070068359375,Closing,0.0,0.0,-26583.0,0.0,0.0,0.0,0.0,0.0,
2.7127250000000056,0.0,0.0,6750.0,39.75,1102.5,2651.168870568212,0.0,0.125,0.269775363,1.1961192358362724,0.0,-244.0,32.375,1800.0,2651.168870568212,0.0,0.125,0.9729002910000001,3.756495145416258,0.0,116.0,45.0,0.0,-2397.8371819162517,0.0,0.375,3.19824186,3.66597160906369,0.0,-2622.0,55.875,150.0,2397.8371819162517,0.0,2.0,0.865478427,3.760088406168229,0.0,2.6700000762939453,-1.600000023841858,-34.97999954223633,0.37890625,0.167236328125,0.46661376953125,27.700000762939453,0.0,237.0,0.7022552490234375,0.5186309814453125,Closing,0.0,0.0,-26583.0,0.0,0.0,0.0,0.0,0.0,
2.746539000000019,0.0,0.0,6750.0,38.375,1132.5,2910.940602849341,0.0,0.125,0.24658200600000002,1.1248298654076436,-0.0402831990000001,-244.0,34.625,1897.5,2910.940602849341,0.0,0.0,0.8789061600000001,3.8275690967158713,-0.0988769429999996,116.0,46.125,0.0,-2202.1658377596405,0.0,0.125,3.188476236,3.561830059848656,-0.028076169000000206,-2622.0,54.125,195.0,2202.1658377596405,0.0,2.625,1.009521381,3.864093314271051,0.13061522100000023,3.2300000190734863,-1.340000033378601,-35.59000015258789,0.06268310546875,0.24688720703125,1.28558349609375,27.700000762939453,0.0,-25.0,0.6941070556640625,0.50799560546875,Closing,0.0,0.0,-26583.0,0.0,0.0,0.0,0.0,0.0,
2.7756590000000143,0.0,0.0,6949.0,37.125,1192.5,3904.583274490295,0.0,0.125,0.218505837,0.9610646898164651,-0.031738278000000175,66.0,32.625,1897.5,3904.583274490295,0.0,0.0,0.8142089010000001,3.990839413799018,-0.10131834900000047,116.0,46.5,0.0,-1932.384921236099,0.0,0.375,3.176269206,3.1029535602139564,-0.014648435999999876,-2562.0,51.5,255.0,1932.384921236099,0.0,2.625,1.126708869,4.322367735333359,0.15380857800000003,3.3499999046325684,-0.949999988079071,-36.060001373291016,0.32000732421875,0.32647705078125,0.78985595703125,27.700000762939453,0.0,104.0,0.6858062744140625,0.4985198974609375,Closing,0.0,0.0,-26583.0,0.0,0.0,0.0,0.0,0.0,
2.8062890000000187,0.0,0.0,6949.0,37.125,1245.0,4193.104326098493,0.0,0.125,0.18798826200000002,0.9305498607184992,-0.018310544999999845,66.0,30.5,1905.0,4193.104326098493,0.0,0.0,0.8044432770000001,4.0212620345092995,0.0,116.0,45.125,0.0,-1984.6098131507104,0.0,0.625,3.140868819,2.9723798542997732,0.0,-2562.0,41.75,517.5,-1984.6098131507104,0.0,4.375,1.253661981,1.9790201192676393,0.0,3.690000057220459,-0.7200000286102295,-36.369998931884766,0.2861328125,0.396728515625,1.53826904296875,27.690000534057617,0.0,69.0,0.678192138671875,0.49078369140625,Closing,0.0,0.0,-26583.0,0.0,0.0,0.0,0.0,0.0,
2.8343520000000133,0.0,0.0,6949.0,37.875,1350.0,4193.104326098493,0.0,0.25,0.150146469,0.9305498607184992,-0.031738278000000175,66.0,31.5,2002.5,4193.104326098493,0.0,0.0,0.808105386,4.0212620345092995,-0.009765623999999917,116.0,42.5,0.0,-1984.6098131507104,0.0,4.0,3.0541989060000003,2.9723798542997732,-0.0402831990000001,-2562.0,26.0,592.5,1984.6098131507104,0.0,9.125,1.2951658830000001,4.4527701192676385,0.13549803300000018,3.7799999713897705,-0.30000001192092896,-36.560001373291016,0.26220703125,0.30059814453125,0.373779296875,27.690000534057617,0.0,47.0,0.670928955078125,0.4846038818359375,Closing,0.0,0.0,-26583.0,0.0,0.0,0.0,0.0,0.0,
2.864512000000017,0.0,0.0,6949.0,38.25,1395.0,4193.104326098493,0.0,0.375,0.086669913,0.9305498607184992,0.0,66.0,29.875,2092.5,4193.104326098493,0.0,0.0,0.799560465,4.0212620345092995,0.0,116.0,41.375,0.0,-1984.6098131507104,0.0,5.375,2.882079783,2.9723798542997732,0.0,-2562.0,16.125,660.0,1984.6098131507104,0.0,8.0,1.1877440190000002,4.4527701192676385,0.0,3.990000009536743,-0.23000000417232513,-36.70000076293945,0.5316162109375,0.23699951171875,1.62127685546875,27.690000534057617,0.0,357.0,0.6642608642578125,0.4799346923828125,Closing,0.0,0.0,-26583.0,0.0,0.0,0.0,0.0,0.0,
2.8942030000000085,0.0,0.0,7190.0,37.25,1477.5,4193.104326098493,0.0,0.25,0.028076169,0.9305498607184992,-0.07446288300000026,425.0,29.125,2250.0,4193.104326098493,0.0,0.0,0.809326089,4.0212620345092995,0.006103514999999948,116.0,41.5,0.0,-1984.6098131507104,0.0,2.25,2.761230186,2.9723798542997732,-0.17089841999999988,-2413.0,22.5,772.5,1984.6098131507104,0.0,8.5,1.195068237,4.4527701192676385,-0.10375975500000001,4.170000076293945,0.4300000071525574,-36.790000915527344,0.30108642578125,0.0518798828125,0.537353515625,27.690000534057617,0.0,230.0,0.659088134765625,0.4772796630859375,Closing,0.0,0.0,-26583.0,0.0,0.0,0.0,0.0,0.0,
2.925774999999994,0.0,0.0,7190.0,36.0,1522.5,4193.104326098493,0.0,0.125,4.935302229,0.9305498607184992,0.0,425.0,29.75,2295.0,4193.104326098493,0.0,0.0,0.8312987430000001,4.0212620345092995,0.0,116.0,41.5,0.0,-1984.6098131507104,0.0,0.875,2.625732153,2.9723798542997732,0.0,-2413.0,23.75,937.5,1984.6098131507104,0.0,7.875,1.326904161,4.4527701192676385,0.0,4.230000019073486,0.8899999856948853,-36.86000061035156,0.56768798828125,0.07061767578125,1.0850830078125,27.690000534057617,0.0,446.0,0.6548004150390625,0.476043701171875,Closing,0.0,0.0,-26583.0,0.0,0.0,0.0,0.0,0.0,
2.951875,0.0,0.0,7190.0,34.75,1575.0,4193.104326098493,0.0,0.0,4.898681139000001,0.9305498607184992,-0.06653956399999972,425.0,24.25,2415.0,4193.104326098493,0.0,0.0,0.845947179,4.0212620345092995,0.0,116.0,43.0,0.0,-1984.6098131507104,0.0,0.125,2.5354001310000003,2.9723798542997732,0.0,-2413.0,26.125,1297.5,1984.6098131507104,0.0,2.25,1.483154145,4.4527701192676385,0.0,4.320000171661377,1.3899999856948853,-37.0099983215332,0.31866455078125,0.0655517578125,1.06414794921875,27.690000534057617,0.0,242.0,0.6518402099609375,0.4761505126953125,Closing,0.0,0.0,-26583.0,0.0,0.0,0.0,0.0,0.0,
2.9950109999999985,0.0,0.0,7190.0,33.25,1717.5,4193.104326098493,0.0,0.0,4.869384267,0.9305498607184992,-0.028076169000000206,425.0,26.5,2475.0,4193.104326098493,0.0,0.0,0.8532713970000001,4.0212620345092995,0.019531247999999835,116.0,42.5,0.0,-1984.6098131507104,0.0,0.125,2.456054436,2.9723798542997732,-0.08422850699999973,-2413.0,20.0,1440.0,1984.6098131507104,0.0,1.375,1.722411933,4.4527701192676385,0.14892576599999963,4.53000020980835,1.5499999523162842,-37.43000030517578,0.076416015625,0.16949462890625,0.847412109375,27.690000534057617,0.0,-19.0,0.6493988037109375,0.4775390625,Closing,0.0,0.0,-26583.0,0.0,0.0,0.0,0.0,0.0,
3.0273369999999997,0.0,0.0,7495.0,30.125,1875.0,4193.104326098493,0.0,0.0,4.853515128000001,0.9305498607184992,0.0,806.0,38.625,2437.5,4193.104326098493,0.0,0.0,0.863037021,4.0212620345092995,0.0,116.0,41.25,0.0,-1984.6098131507104,0.0,0.0,2.398681395,2.9723798542997732,0.0,-2185.0,19.5,1440.0,1984.6098131507104,0.0,0.875,1.905517383,4.4527701192676385,0.0,4.809999942779541,1.2999999523162842,-38.90999984741211,-0.34375,0.13470458984375,1.4102783203125,27.690000534057617,0.0,-302.0,0.644073486328125,0.480712890625,Closing,0.0,0.0,-26583.0,0.0,0.0,0.0,0.0,0.0,
3.0536570000000065,0.0,0.0,7495.0,27.625,1965.0,4193.104326098493,0.0,0.0,4.843749504,0.9305498607184992,0.0,806.0,41.0,2317.5,4193.104326098493,0.0,0.0,0.8666991300000001,4.0212620345092995,0.0,116.0,38.875,-7.5,-1984.6098131507104,0.0,0.0,2.3742673350000003,2.9723798542997732,0.0,-2185.0,22.625,1470.0,1984.6098131507104,0.0,0.25,2.0166013560000002,4.4527701192676385,0.0,4.820000171661377,1.2999999523162842,-40.56999969482422,-0.2821044921875,0.04583740234375,0.53887939453125,27.690000534057617,0.0,-223.0,0.63885498046875,0.4820709228515625,Closing,0.0,0.0,-26583.0,0.0,0.0,0.0,0.0,0.0,
3.0871359999999988,0.0,0.0,7495.0,24.0,2190.0,4193.104326098493,0.0,0.0,4.842528801,0.9305498607184992,-0.004882811999999959,806.0,37.0,2047.5,4193.104326098493,0.0,0.0,0.8666991300000001,4.0212620345092995,0.004882811999999959,115.0,39.0,0.0,-1984.6098131507104,0.0,0.0,2.360839602,2.9723798542997732,-0.026855466000000217,-2185.0,24.0,1470.0,1984.6098131507104,0.0,0.25,2.095947051,4.4527701192676385,0.11230467599999994,4.920000076293945,1.0700000524520874,-42.790000915527344,-0.1568603515625,0.00286865234375,1.57470703125,27.690000534057617,0.0,-46.0,0.6326904296875,0.482513427734375,Closing,0.0,0.0,-26583.0,0.0,0.0,0.0,0.0,0.0,
3.1125650000000022,0.0,0.0,7495.0,22.875,2310.0,3619.1701973186373,0.0,0.0,4.838866692,0.877849845809176,0.0,806.0,34.5,2025.0,3619.1701973186373,0.0,0.0,0.872802645,4.073802802798227,0.0,115.0,39.0,0.0,-1692.8694819272314,0.0,0.0,2.341308354,2.7312505326899243,0.0,-2185.0,26.125,1455.0,1692.8694819272314,0.0,0.5,2.175292746,4.693583062074407,0.0,4.900000095367432,0.9399999976158142,-45.5099983215332,-0.14227294921875,0.38909912109375,0.9346923828125,27.690000534057617,0.0,-330.0,0.6251983642578125,0.4818115234375,Closing,0.0,0.0,-26583.0,0.0,0.0,0.0,0.0,0.0,
3.1466549999999986,0.0,0.0,7911.0,21.125,2437.5,2803.778068710096,0.0,0.0,4.83398388,0.7592719612412329,-0.0024414059999999793,1158.0,33.5,2085.0,2803.778068710096,0.0,0.0,0.8923338930000001,4.192022373855187,0.009765623999999917,115.0,37.625,0.0,-1656.7674976955236,0.0,0.125,2.297363046,2.2805614892713684,-0.013427732999999886,-1957.0,26.625,1410.0,1656.7674976955236,0.0,0.5,2.2668454710000003,0.1961807694448713,0.07934569500000066,4.929999828338623,0.949999988079071,-48.650001525878906,-0.2178955078125,0.058349609375,0.680908203125,27.690000534057617,0.0,-150.0,0.6164703369140625,0.4810791015625,Closing,0.0,0.0,-26583.0,0.0,0.0,0.0,0.0,0.0,
3.1741389999999954,0.0,0.0,7911.0,19.0,2670.0,2100.0,0.0,0.0,4.824218256,0.5533560492066917,0.0,1158.0,29.625,2310.0,2100.0,0.0,0.0,0.911865141,4.397316058113637,0.014648435999999876,115.0,37.75,0.0,-2100.0,0.0,0.125,2.231445084,1.9247586890068593,-0.05126952600000001,-1957.0,25.75,1395.0,2100.0,0.0,0.5,2.342529057,0.5515167311543303,0.0,5.099999904632568,0.6700000166893005,-52.15999984741211,-0.19610595703125,0.11883544921875,1.48529052734375,27.690000534057617,0.0,-119.0,0.6065826416015625,0.479888916015625,Closing,0.0,0.0,-26583.0,0.0,0.0,0.0,0.0,0.0,
3.202176000000007,0.0,0.0,7911.0,18.375,2767.5,2100.0,0.0,0.0,4.799804196,0.5533560492066917,-0.008544921000000372,1158.0,28.0,2415.0,2100.0,0.0,0.125,0.93994131,4.397316058113637,0.023193357000000248,115.0,37.0,0.0,-2100.0,0.0,2.0,2.098388457,1.9247586890068593,0.0,-1957.0,35.0,1357.5,2100.0,0.0,2.25,2.4829099020000003,0.5515167311543303,0.0,4.980000019073486,0.8199999928474426,-56.08000183105469,-0.19927978515625,0.21441650390625,0.2764892578125,27.690000534057617,0.0,-270.0,0.5953826904296875,0.477294921875,Closing,0.0,0.0,-26583.0,0.0,0.0,0.0,0.0,0.0,
3.2319619999999993,0.0,0.0,7911.0,15.375,2947.5,2100.0,0.0,0.25,4.757079591,0.5533560492066917,-0.029296871999999752,1158.0,25.25,2580.0,2100.0,0.0,0.625,0.993652242,4.397316058113637,0.04272460500000008,115.0,35.0,0.0,-2100.0,0.0,2.25,1.929931443,1.9247586890068593,-0.1464843600000001,-1957.0,40.5,1357.5,2100.0,0.0,2.875,2.613525123,0.5515167311543303,0.14404295399999967,4.880000114440918,0.699999988079071,-60.470001220703125,-0.64569091796875,0.004150390625,1.61810302734375,27.690000534057617,0.0,-210.0,0.583648681640625,0.4730987548828125,Closing,0.0,0.0,-26583.0,0.0,0.0,0.0,0.0,0.0,
