Time,ClimberA1,ClimberA2,FRpos,FRCurrent,FRspeed,FRsetpoint,FRApos,FRACurrent,FREncpos,FREncSetpoint,FREncSpeed,FLpos,FLCurrent,FLspeed,FLsetpoint,FLApos,FLACurrent,FLEncpos,FLEncSetpoint,FLEncSpeed,BRpos,BRCurrent,BRspeed,BRsetpoint,BRApos,BRACurrent,BREncpos,BREncSetpoint,BREncSpeed,BLpos,BLCurrent,BLspeed,BLsetpoint,BLApos,BLACurrent,BLEncpos,BLEncSetpoint,BLEncSpeed,navx_Pitch,navx_Roll,navx_Yaw,navx_XAcc,navx_YAcc,navx_ZAcc,navx_Temp,navx_Bar,navx_Alt,navx_XDis,navx_YDis,GearPlacerState,ShootOutputV,ShootOutputCurrent,ShootEncPos,ShootEncVelocity,ShootSpeed,ShootSetpoint,CarouselSetpoint,CarouselCurrent,
0.1628220000000001,0.0,0.0,2683.0,0.0,427.5,0.0,0.0,0.0,3.858642183,0.0,0.0024414059999999793,-2695.0,0.0,-600.0,0.0,0.0,0.0,1.853027154,0.0,0.0,2636.0,0.0,487.5,0.0,0.0,0.0,4.941405744,0.0,0.019531247999999835,-2720.0,0.0,-495.0,0.0,0.0,0.0,2.878417674,0.0,-0.003662109000000413,1.3200000524520874,1.2999999523162842,0.44999998807907104,0.02752685546875,0.0086669921875,0.97216796875,31.440000534057617,0.0,5.0,9.46044921875E-4,-0.0160675048828125,Waiting,0.0,0.0,0.0,0.0,0.0,0.0,0.0,0.0,
0.1987520000000004,0.0,0.0,2727.0,0.0,337.5,0.0,0.0,0.0,3.858642183,0.0,0.012207029999999897,-2741.0,0.0,-382.5,-0.0,0.0,0.0,1.854247857,0.0,-0.009765623999999917,2663.0,0.0,247.5,0.0,0.0,0.0,4.941405744,0.0,0.0,-2749.0,0.0,-292.5,-0.0,0.0,0.0,2.877196971,0.0,-0.010986326999999907,1.3200000524520874,1.2999999523162842,0.44999998807907104,0.0269775390625,0.01556396484375,0.9920654296875,31.440000534057617,0.0,4.0,9.46044921875E-4,-0.0160675048828125,Waiting,0.0,0.0,0.0,0.0,0.0,0.0,0.0,0.0,
0.23176600000000325,0.0,0.0,2727.0,0.0,217.5,0.0,0.0,0.0,3.858642183,0.0,0.012207029999999897,-2741.0,0.0,-112.5,-0.0,0.0,0.0,1.851806451,0.0,-0.009765623999999917,2663.0,0.0,45.0,0.0,0.0,0.0,4.94384715,0.0,0.0,-2749.0,0.0,-7.5,-0.0,0.0,0.0,2.877196971,0.0,0.0,1.3200000524520874,1.2999999523162842,0.44999998807907104,0.03240966796875,0.023681640625,1.00347900390625,31.440000534057617,0.0,9.0,9.46044921875E-4,-0.0160675048828125,Waiting,0.0,0.0,0.0,0.0,0.0,0.0,0.0,0.0,
0.26607100000000355,0.0,0.0,2727.0,0.0,15.0,0.0,0.0,0.0,3.858642183,0.0,0.0,-2741.0,0.0,-22.5,-0.0,0.0,0.0,1.854247857,0.0,0.0,2663.0,0.0,7.5,0.0,0.0,0.0,4.942626447,0.0,0.0,-2749.0,0.0,22.5,-0.0,0.0,0.0,2.877196971,0.0,0.0,1.3200000524520874,1.2999999523162842,0.44999998807907104,0.0230712890625,0.0267333984375,0.98724365234375,31.440000534057617,0.0,0.0,9.46044921875E-4,-0.0160675048828125,Waiting,0.0,0.0,0.0,0.0,0.0,0.0,0.0,0.0,
0.29271700000000417,0.0,0.0,2727.0,0.0,-22.5,0.0,0.0,0.0,3.85742148,0.0,0.0,-2741.0,0.0,37.5,-0.0,0.0,0.0,1.854247857,0.0,0.0,2663.0,0.0,0.0,0.0,0.0,0.0,4.940185041,0.0,0.0,-2749.0,0.0,30.0,-0.0,0.0,0.0,2.877196971,0.0,0.0,1.3300000429153442,1.2999999523162842,0.44999998807907104,0.02435302734375,0.02099609375,1.0089111328125,31.440000534057617,0.0,1.0,9.46044921875E-4,-0.0160675048828125,Waiting,0.0,0.0,0.0,0.0,0.0,0.0,0.0,0.0,
0.32666600000000473,0.0,0.0,2719.0,0.0,-52.5,0.0,0.0,0.0,3.85742148,0.0,0.0,-2735.0,0.0,37.5,-0.0,0.0,0.0,1.854247857,0.0,0.0,2663.0,0.0,0.0,0.0,0.0,0.0,4.942626447,0.0,0.0,-2744.0,0.0,22.5,-0.0,0.0,0.0,2.877196971,0.0,0.0,1.3200000524520874,1.2999999523162842,0.44999998807907104,0.02423095703125,0.02349853515625,1.00628662109375,31.399999618530273,0.0,1.0,9.46044921875E-4,-0.0160675048828125,Waiting,0.0,0.0,0.0,0.0,0.0,0.0,0.0,0.0,
0.3509130000000005,0.0,0.0,2719.0,0.0,-37.5,0.0,0.0,0.0,3.858642183,0.0,0.0,-2735.0,0.0,30.0,-0.0,0.0,0.0,1.853027154,0.0,0.0,2663.0,0.0,0.0,0.0,0.0,0.0,4.942626447,0.0,0.0,-2744.0,0.0,15.0,-0.0,0.0,0.0,2.877196971,0.0,0.0,1.3200000524520874,1.2999999523162842,0.44999998807907104,0.0228271484375,0.02325439453125,0.99261474609375,31.399999618530273,0.0,0.0,9.46044921875E-4,-0.0160675048828125,Waiting,0.0,0.0,0.0,0.0,0.0,0.0,0.0,0.0,
0.3827260000000024,0.0,0.0,2719.0,0.0,-15.0,0.0,0.0,0.0,3.858642183,0.0,0.0,-2735.0,0.0,15.0,-0.0,0.0,0.0,1.853027154,0.0,0.0,2663.0,0.0,0.0,0.0,0.0,0.0,4.941405744,0.0,0.0,-2744.0,0.0,0.0,-0.0,0.0,0.0,2.877196971,0.0,0.0,1.3200000524520874,1.2999999523162842,0.44999998807907104,0.02154541015625,0.0250244140625,1.00390625,31.399999618530273,0.0,-1.0,9.46044921875E-4,-0.0160675048828125,Waiting,0.0,0.0,0.0,0.0,0.0,0.0,0.0,0.0,
0.41082700000000477,0.0,0.0,2719.0,0.0,0.0,0.0,0.0,0.0,3.858642183,0.0,0.0012207029999999897,-2735.0,0.0,0.0,-0.0,0.0,0.0,1.854247857,0.0,0.0,2663.0,0.0,0.0,0.0,0.0,0.0,4.942626447,0.0,0.0,-2744.0,0.0,0.0,-0.0,0.0,0.0,2.877196971,0.0,0.0,1.3200000524520874,1.2999999523162842,0.44999998807907104,0.023681640625,0.01995849609375,1.0086669921875,31.399999618530273,0.0,0.0,9.46044921875E-4,-0.0160675048828125,Waiting,0.0,0.0,0.0,0.0,0.0,0.0,0.0,0.0,
0.43509100000000034,0.0,0.0,2719.0,0.0,0.0,0.0,0.0,0.0,3.85742148,0.0,0.0012207029999999897,-2735.0,0.0,0.0,-0.0,0.0,0.0,1.854247857,0.0,0.0,2663.0,0.0,0.0,0.0,0.0,0.0,4.940185041,0.0,0.0,-2744.0,0.0,0.0,-0.0,0.0,0.0,2.877196971,0.0,0.0,1.3300000429153442,1.2999999523162842,0.44999998807907104,0.01953125,0.023681640625,1.01446533203125,31.399999618530273,0.0,-3.0,9.46044921875E-4,-0.0160675048828125,Waiting,0.0,0.0,0.0,0.0,0.0,0.0,0.0,0.0,
0.4691820000000007,0.0,0.0,2719.0,0.0,0.0,0.0,0.0,0.0,3.858642183,0.0,-0.0012207029999999897,-2735.0,0.0,0.0,-0.0,0.0,0.0,1.853027154,0.0,0.0,2663.0,0.0,0.0,0.0,0.0,0.0,4.942626447,0.0,0.0,-2744.0,0.0,0.0,-0.0,0.0,0.0,2.878417674,0.0,0.0,1.3200000524520874,1.2999999523162842,0.44999998807907104,0.02685546875,0.0262451171875,0.99609375,31.399999618530273,0.0,4.0,9.46044921875E-4,-0.0160675048828125,Waiting,0.0,0.0,0.0,0.0,0.0,0.0,0.0,0.0,
0.49476600000000326,0.0,0.0,2719.0,0.0,0.0,0.0,0.0,0.0,3.859862886,0.0,0.0,-2735.0,0.0,0.0,-0.0,0.0,0.0,1.853027154,0.0,0.0,2663.0,0.0,0.0,0.0,0.0,0.0,4.941405744,0.0,0.0,-2744.0,0.0,0.0,-0.0,0.0,0.0,2.877196971,0.0,-0.0012207029999999897,1.3200000524520874,1.2999999523162842,0.44999998807907104,0.02032470703125,0.02337646484375,1.0047607421875,31.399999618530273,0.0,-2.0,9.46044921875E-4,-0.0160675048828125,Waiting,0.0,0.0,0.0,0.0,0.0,0.0,0.0,0.0,
0.5287330000000001,0.0,0.0,2719.0,0.0,0.0,0.0,0.0,0.0,3.858642183,0.0,0.0,-2735.0,0.0,0.0,-0.0,0.0,0.0,1.854247857,0.0,0.0,2663.0,0.0,0.0,0.0,0.0,0.0,4.941405744,0.0,0.0,-2744.0,0.0,0.0,-0.0,0.0,0.0,2.877196971,0.0,-0.0012207029999999897,1.3200000524520874,1.2999999523162842,0.44999998807907104,0.02288818359375,0.025390625,0.99432373046875,31.399999618530273,0.0,0.0,9.46044921875E-4,-0.0160675048828125,Waiting,0.0,0.0,0.0,0.0,0.0,0.0,0.0,0.0,
0.5609370000000053,0.0,0.0,2719.0,0.0,0.0,0.0,0.0,0.0,3.859862886,0.0,0.0,-2735.0,0.0,0.0,-0.0,0.0,0.0,1.854247857,0.0,0.0,2663.0,0.0,0.0,0.0,0.0,0.0,4.941405744,0.0,0.0,-2744.0,0.0,0.0,-0.0,0.0,0.0,2.877196971,0.0,0.0,1.3200000524520874,1.2999999523162842,0.44999998807907104,0.0242919921875,0.01995849609375,1.00390625,31.399999618530273,0.0,1.0,9.46044921875E-4,-0.0160675048828125,Waiting,0.0,0.0,0.0,0.0,0.0,0.0,0.0,0.0,
0.5901620000000039,0.0,0.0,2719.0,0.0,0.0,0.0,0.0,0.0,3.858642183,0.0,0.0,-2735.0,0.0,0.0,-0.0,0.0,0.0,1.854247857,0.0,0.0,2663.0,0.0,0.0,0.0,0.0,0.0,4.941405744,0.0,0.0,-2744.0,0.0,0.0,-0.0,0.0,0.0,2.878417674,0.0,0.0012207029999999897,1.3200000524520874,1.2999999523162842,0.44999998807907104,0.02288818359375,0.02423095703125,1.0091552734375,31.399999618530273,0.0,0.0,9.46044921875E-4,-0.0160675048828125,Waiting,0.0,0.0,0.0,0.0,0.0,0.0,0.0,0.0,
0.6239670000000042,0.0,0.0,2719.0,0.0,0.0,0.0,0.0,0.0,3.863524995,0.0,0.0,-2735.0,0.0,0.0,-0.0,0.0,0.0,1.854247857,0.0,0.0,2663.0,0.0,0.0,0.0,0.0,0.0,4.942626447,0.0,0.0,-2744.0,0.0,0.0,-0.0,0.0,0.0,2.877196971,0.0,0.0012207029999999897,1.3300000429153442,1.2999999523162842,0.44999998807907104,0.02105712890625,0.01934814453125,0.99932861328125,31.399999618530273,0.0,-1.0,9.46044921875E-4,-0.0160675048828125,Waiting,0.0,0.0,0.0,0.0,0.0,0.0,0.0,0.0,
0.6592479999999996,0.0,0.0,2719.0,0.0,0.0,0.0,0.0,0.0,3.858642183,0.0,0.0,-2735.0,0.0,0.0,-0.0,0.0,0.0,1.854247857,0.0,0.0,2663.0,0.0,0.0,0.0,0.0,0.0,4.942626447,0.0,0.0,-2744.0,0.0,0.0,-0.0,0.0,0.0,2.879638377,0.0,-0.0012207029999999897,1.3300000429153442,1.2899999618530273,0.44999998807907104,0.01959228515625,0.029052734375,1.00750732421875,31.399999618530273,0.0,-3.0,9.46044921875E-4,-0.0160675048828125,Waiting,0.0,0.0,0.0,0.0,0.0,0.0,0.0,0.0,
0.6875529999999999,0.0,0.0,2719.0,0.0,0.0,0.0,0.0,0.0,3.85742148,0.0,0.0,-2735.0,0.0,0.0,-0.0,0.0,0.0,1.853027154,0.0,0.0,2663.0,0.0,0.0,0.0,0.0,0.0,4.94384715,0.0,0.0,-2744.0,0.0,0.0,-0.0,0.0,0.0,2.877196971,0.0,0.0,1.3300000429153442,1.2899999618530273,0.44999998807907104,0.021240234375,0.02410888671875,1.00714111328125,31.399999618530273,0.0,-1.0,9.46044921875E-4,-0.0160675048828125,Waiting,0.0,0.0,0.0,0.0,0.0,0.0,0.0,0.0,
0.7167260000000024,0.0,0.0,2719.0,0.0,0.0,0.0,0.0,0.0,3.859862886,0.0,0.0,-2735.0,0.0,0.0,-0.0,0.0,0.0,1.853027154,0.0,0.0,2663.0,0.0,0.0,0.0,0.0,0.0,4.941405744,0.0,0.0,-2744.0,0.0,0.0,-0.0,0.0,0.0,2.878417674,0.0,0.0,1.3300000429153442,1.2899999618530273,0.44999998807907104,0.0184326171875,0.02276611328125,1.0057373046875,31.399999618530273,0.0,-4.0,9.46044921875E-4,-0.0160675048828125,Waiting,0.0,0.0,0.0,0.0,0.0,0.0,0.0,0.0,
0.7457150000000038,0.0,0.0,2719.0,0.0,0.0,0.0,0.0,0.0,3.858642183,0.0,0.0012207029999999897,-2735.0,0.0,0.0,-0.0,0.0,0.0,1.854247857,0.0,0.0,2663.0,0.0,0.0,0.0,0.0,0.0,4.942626447,0.0,0.0,-2744.0,0.0,0.0,-0.0,0.0,0.0,2.877196971,0.0,0.0012207029999999897,1.3300000429153442,1.2899999618530273,0.44999998807907104,0.02166748046875,0.02099609375,1.000732421875,31.399999618530273,0.0,0.0,9.46044921875E-4,-0.0160675048828125,Waiting,0.0,0.0,0.0,0.0,0.0,0.0,0.0,0.0,
0.7736170000000057,0.0,0.0,2719.0,0.0,0.0,0.0,0.0,0.0,3.85742148,0.0,0.0012207029999999897,-2735.0,0.0,0.0,-0.0,0.0,0.0,1.854247857,0.0,0.0,2663.0,0.0,0.0,0.0,0.0,0.0,4.941405744,0.0,0.0,-2744.0,0.0,0.0,-0.0,0.0,0.0,2.877196971,0.0,0.0012207029999999897,1.3300000429153442,1.2899999618530273,0.4399999976158142,0.0194091796875,0.02056884765625,1.00286865234375,31.399999618530273,0.0,-3.0,9.46044921875E-4,-0.0160675048828125,Waiting,0.0,0.0,0.0,0.0,0.0,0.0,0.0,0.0,
0.8017410000000018,0.0,0.0,2719.0,0.0,0.0,0.0,0.0,0.0,3.858642183,0.0,-0.0012207029999999897,-2735.0,0.0,0.0,-0.0,0.0,0.0,1.854247857,0.0,0.0,2663.0,0.0,0.0,0.0,0.0,0.0,4.940185041,0.0,0.0,-2744.0,0.0,0.0,-0.0,0.0,0.0,2.877196971,0.0,0.0,1.3300000429153442,1.2899999618530273,0.4399999976158142,0.021484375,0.02313232421875,1.011962890625,31.399999618530273,0.0,-1.0,9.46044921875E-4,-0.0160675048828125,Waiting,0.0,0.0,0.0,0.0,0.0,0.0,0.0,0.0,
0.8313780000000043,0.0,0.0,2719.0,0.0,0.0,0.0,0.0,0.0,3.858642183,0.0,-0.0012207029999999897,-2735.0,0.0,0.0,-0.0,0.0,0.0,1.853027154,0.0,0.0,2663.0,0.0,0.0,0.0,0.0,0.0,4.940185041,0.0,0.0,-2744.0,0.0,0.0,-0.0,0.0,0.0,2.877196971,0.0,0.0,1.3300000429153442,1.2899999618530273,0.44999998807907104,0.02142333984375,0.02459716796875,1.00030517578125,31.399999618530273,0.0,-1.0,9.46044921875E-4,-0.0160675048828125,Waiting,0.0,0.0,0.0,0.0,0.0,0.0,0.0,0.0,
0.863346000000005,0.0,0.0,2719.0,0.0,0.0,0.0,0.0,0.0,3.858642183,0.0,0.0,-2735.0,0.0,0.0,-0.0,0.0,0.0,1.853027154,0.0,0.0,2663.0,0.0,0.0,0.0,0.0,0.0,4.941405744,0.0,0.0,-2744.0,0.0,0.0,-0.0,0.0,0.0,2.877196971,0.0,0.0,1.3300000429153442,1.2899999618530273,0.44999998807907104,0.02581787109375,0.02410888671875,1.00677490234375,31.450000762939453,0.0,3.0,9.46044921875E-4,-0.0160675048828125,Waiting,0.0,0.0,0.0,0.0,0.0,0.0,0.0,0.0,
0.8891900000000024,0.0,0.0,2719.0,0.0,0.0,0.0,0.0,0.0,3.858642183,0.0,0.0,-2735.0,0.0,0.0,-0.0,0.0,0.0,1.854247857,0.0,0.0,2663.0,0.0,0.0,0.0,0.0,0.0,4.942626447,0.0,0.0,-2744.0,0.0,0.0,-0.0,0.0,0.0,2.877196971,0.0,0.0,1.340000033378601,1.2899999618530273,0.44999998807907104,0.023193359375,0.02459716796875,1.00152587890625,31.450000762939453,0.0,0.0,9.46044921875E-4,-0.0160675048828125,Waiting,0.0,0.0,0.0,0.0,0.0,0.0,0.0,0.0,
0.9161500000000015,0.0,0.0,2719.0,0.0,0.0,0.0,0.0,0.0,3.856200777,0.0,0.0,-2735.0,0.0,0.0,-0.0,0.0,0.0,1.854247857,0.0,0.0,2663.0,0.0,0.0,0.0,0.0,0.0,4.942626447,0.0,0.0,-2744.0,0.0,0.0,-0.0,0.0,0.0,2.877196971,0.0,0.0,1.340000033378601,1.2899999618530273,0.44999998807907104,0.0218505859375,0.023681640625,1.01116943359375,31.450000762939453,0.0,-1.0,9.46044921875E-4,-0.0160675048828125,Waiting,0.0,0.0,0.0,0.0,0.0,0.0,0.0,0.0,
0.9453600000000005,0.0,0.0,2719.0,0.0,0.0,0.0,0.0,0.0,3.858642183,0.0,0.0,-2735.0,0.0,0.0,-0.0,0.0,0.0,1.854247857,0.0,0.0,2663.0,0.0,0.0,0.0,0.0,0.0,4.941405744,0.0,0.0,-2744.0,0.0,0.0,-0.0,0.0,0.0,2.877196971,0.0,0.0,1.340000033378601,1.2899999618530273,0.44999998807907104,0.02264404296875,0.025390625,1.00238037109375,31.450000762939453,0.0,0.0,9.46044921875E-4,-0.0160675048828125,Waiting,0.0,0.0,0.0,0.0,0.0,0.0,0.0,0.0,
0.9731560000000027,0.0,0.0,2719.0,0.0,0.0,0.0,0.0,0.0,3.85742148,0.0,0.0,-2735.0,0.0,0.0,-0.0,0.0,0.0,1.853027154,0.0,0.0,2663.0,0.0,0.0,0.0,0.0,0.0,4.940185041,0.0,0.0,-2744.0,0.0,0.0,-0.0,0.0,0.0,2.877196971,0.0,0.0,1.340000033378601,1.2899999618530273,0.4399999976158142,0.01666259765625,0.02294921875,1.0103759765625,31.450000762939453,0.0,-6.0,9.46044921875E-4,-0.0160675048828125,Waiting,0.0,0.0,0.0,0.0,0.0,0.0,0.0,0.0,
0.9975740000000005,0.0,0.0,2719.0,0.0,0.0,0.0,0.0,0.0,3.858642183,0.0,0.0,-2735.0,0.0,0.0,-0.0,0.0,0.0,1.854247857,0.0,0.0,2663.0,0.0,0.0,0.0,0.0,0.0,4.940185041,0.0,0.0,-2744.0,0.0,0.0,-0.0,0.0,0.0,2.877196971,0.0,0.0,1.340000033378601,1.2799999713897705,0.4399999976158142,0.02142333984375,0.0225830078125,1.00164794921875,31.450000762939453,0.0,-1.0,9.46044921875E-4,-0.0160675048828125,Waiting,0.0,0.0,0.0,0.0,0.0,0.0,0.0,0.0,
1.0292250000000058,0.0,0.0,2719.0,0.0,0.0,0.0,0.0,0.0,3.85742148,0.0,0.0,-2735.0,0.0,0.0,-0.0,0.0,0.0,1.853027154,0.0,0.0,2663.0,0.0,0.0,0.0,0.0,0.0,4.942626447,0.0,0.0,-2744.0,0.0,0.0,-0.0,0.0,0.0,2.877196971,0.0,0.0,1.340000033378601,1.2899999618530273,0.44999998807907104,0.02386474609375,0.02374267578125,1.00653076171875,31.450000762939453,0.0,1.0,9.46044921875E-4,-0.0160675048828125,Waiting,0.0,0.0,0.0,0.0,0.0,0.0,0.0,0.0,
1.0555420000000013,0.0,0.0,2719.0,0.0,0.0,0.0,0.0,0.0,3.85742148,0.0,0.0,-2735.0,0.0,0.0,-0.0,0.0,0.0,1.854247857,0.0,0.0,2663.0,0.0,0.0,0.0,0.0,0.0,4.942626447,0.0,0.0,-2744.0,0.0,0.0,-0.0,0.0,0.0,2.875976268,0.0,0.0,1.340000033378601,1.2899999618530273,0.44999998807907104,0.02203369140625,0.0242919921875,1.0035400390625,31.450000762939453,0.0,0.0,9.46044921875E-4,-0.0160675048828125,Waiting,0.0,0.0,0.0,0.0,0.0,0.0,0.0,0.0,
1.0866300000000046,0.0,0.0,2719.0,0.0,0.0,0.0,0.0,0.0,3.858642183,0.0,0.0,-2735.0,0.0,0.0,-0.0,0.0,0.0,1.853027154,0.0,0.0,2663.0,0.0,0.0,0.0,0.0,0.0,4.942626447,0.0,0.0,-2744.0,0.0,0.0,-0.0,0.0,0.0,2.878417674,0.0,0.0,1.340000033378601,1.2899999618530273,0.44999998807907104,0.02374267578125,0.02459716796875,0.9990234375,31.450000762939453,0.0,1.0,9.46044921875E-4,-0.0160675048828125,Waiting,0.0,0.0,0.0,0.0,0.0,0.0,0.0,0.0,
1.1144320000000008,0.0,0.0,2719.0,0.0,0.0,0.0,0.0,0.0,3.858642183,0.0,0.0,-2735.0,0.0,0.0,-0.0,0.0,0.0,1.854247857,0.0,0.0,2663.0,0.0,0.0,0.0,0.0,0.0,4.941405744,0.0,0.0,-2744.0,0.0,0.0,-0.0,0.0,0.0,2.877196971,0.0,0.0,1.340000033378601,1.2799999713897705,0.44999998807907104,0.0228271484375,0.025146484375,1.0081787109375,31.450000762939453,0.0,0.0,9.46044921875E-4,-0.0160675048828125,Waiting,0.0,0.0,0.0,0.0,0.0,0.0,0.0,0.0,
1.1422160000000003,0.0,0.0,2719.0,0.0,0.0,0.0,0.0,0.0,3.858642183,0.0,0.0,-2735.0,0.0,0.0,-0.0,0.0,0.0,1.854247857,0.0,0.0,2663.0,0.0,0.0,0.0,0.0,0.0,4.941405744,0.0,0.0,-2744.0,0.0,0.0,-0.0,0.0,0.0,2.877196971,0.0,0.0,1.340000033378601,1.2899999618530273,0.44999998807907104,0.02301025390625,0.02264404296875,1.00103759765625,31.450000762939453,0.0,0.0,9.46044921875E-4,-0.0160675048828125,Waiting,0.0,0.0,0.0,0.0,0.0,0.0,0.0,0.0,
1.1711740000000064,0.0,0.0,2719.0,0.0,0.0,0.0,0.0,0.0,3.858642183,0.0,0.0,-2735.0,0.0,0.0,-0.0,0.0,0.0,1.853027154,0.0,0.0,2663.0,0.0,0.0,0.0,0.0,0.0,4.940185041,0.0,0.0,-2744.0,0.0,0.0,-0.0,0.0,0.0,2.878417674,0.0,0.0,1.340000033378601,1.2899999618530273,0.44999998807907104,0.02044677734375,0.0216064453125,1.002685546875,31.450000762939453,0.0,-2.0,9.46044921875E-4,-0.0160675048828125,Waiting,0.0,0.0,0.0,0.0,0.0,0.0,0.0,0.0,
1.1950940000000045,0.0,0.0,2719.0,0.0,0.0,0.0,0.0,0.0,3.858642183,0.0,0.0012207029999999897,-2735.0,0.0,0.0,-0.0,0.0,0.0,1.853027154,0.0,0.0,2663.0,0.0,0.0,0.0,0.0,0.0,4.941405744,0.0,0.0,-2744.0,0.0,0.0,-0.0,0.0,0.0,2.877196971,0.0,0.0,1.340000033378601,1.2899999618530273,0.44999998807907104,0.02288818359375,0.02154541015625,1.00726318359375,31.450000762939453,0.0,0.0,9.46044921875E-4,-0.0160675048828125,Waiting,0.0,0.0,0.0,0.0,0.0,0.0,0.0,0.0,
1.2267130000000033,0.0,0.0,2719.0,0.0,0.0,0.0,0.0,0.0,3.858642183,0.0,0.0012207029999999897,-2735.0,0.0,0.0,-0.0,0.0,0.0,1.854247857,0.0,0.0,2663.0,0.0,0.0,0.0,0.0,0.0,4.938964338,0.0,0.0,-2744.0,0.0,0.0,-0.0,0.0,0.0,2.877196971,0.0,0.0,1.340000033378601,1.2899999618530273,0.44999998807907104,0.02215576171875,0.0228271484375,1.002197265625,31.450000762939453,0.0,0.0,9.46044921875E-4,-0.0160675048828125,Waiting,0.0,0.0,0.0,0.0,0.0,0.0,0.0,0.0,
1.2511960000000035,0.0,0.0,2719.0,0.0,0.0,0.0,0.0,0.0,3.856200777,0.0,-0.0012207029999999897,-2735.0,0.0,0.0,-0.0,0.0,0.0,1.854247857,0.0,0.0,2663.0,0.0,0.0,0.0,0.0,0.0,4.942626447,0.0,0.0,-2744.0,0.0,0.0,-0.0,0.0,0.0,2.877196971,0.0,-0.0012207029999999897,1.3300000429153442,1.2899999618530273,0.44999998807907104,0.02203369140625,0.02178955078125,1.00567626953125,31.450000762939453,0.0,0.0,9.46044921875E-4,-0.0160675048828125,Waiting,0.0,0.0,0.0,0.0,0.0,0.0,0.0,0.0,
1.284297000000006,0.0,0.0,2719.0,0.0,0.0,0.0,0.0,0.0,3.858642183,0.0,-0.0012207029999999897,-2735.0,0.0,0.0,-0.0,0.0,0.0,1.854247857,0.0,0.0,2663.0,0.0,0.0,0.0,0.0,0.0,4.940185041,0.0,0.0,-2744.0,0.0,0.0,-0.0,0.0,0.0,2.877196971,0.0,0.0012207029999999897,1.3300000429153442,1.2899999618530273,0.44999998807907104,0.02398681640625,0.02264404296875,1.0028076171875,31.450000762939453,0.0,1.0,9.46044921875E-4,-0.0160675048828125,Waiting,0.0,0.0,0.0,0.0,0.0,0.0,0.0,0.0,
1.312556000000004,0.0,0.0,2719.0,0.0,0.0,0.0,0.0,0.0,3.858642183,0.0,0.0,-2735.0,0.0,0.0,-0.0,0.0,0.0,1.853027154,0.0,0.0,2663.0,0.0,0.0,0.0,0.0,0.0,4.94384715,0.0,0.0,-2744.0,0.0,0.0,-0.0,0.0,0.0,2.877196971,0.0,0.0012207029999999897,1.340000033378601,1.2899999618530273,0.44999998807907104,0.025634765625,0.023681640625,1.00689697265625,31.450000762939453,0.0,2.0,9.46044921875E-4,-0.0160675048828125,Waiting,0.0,0.0,0.0,0.0,0.0,0.0,0.0,0.0,
1.347744000000006,0.0,0.0,2719.0,0.0,0.0,0.0,0.0,0.0,3.858642183,0.0,0.0,-2735.0,0.0,0.0,-0.0,0.0,0.0,1.853027154,0.0,0.0,2663.0,0.0,0.0,0.0,0.0,0.0,4.940185041,0.0,0.0,-2744.0,0.0,0.0,-0.0,0.0,0.0,2.878417674,0.0,0.0,1.340000033378601,1.2899999618530273,0.44999998807907104,0.02392578125,0.02154541015625,1.00408935546875,31.440000534057617,0.0,1.0,9.46044921875E-4,-0.0160675048828125,Waiting,0.0,0.0,0.0,0.0,0.0,0.0,0.0,0.0,
1.3753940000000002,0.0,0.0,2719.0,0.0,0.0,0.0,0.0,0.0,3.85742148,0.0,0.0,-2735.0,0.0,0.0,-0.0,0.0,0.0,1.854247857,0.0,0.0,2663.0,0.0,0.0,0.0,0.0,0.0,4.942626447,0.0,0.0,-2744.0,0.0,0.0,-0.0,0.0,0.0,2.878417674,0.0,0.0,1.3300000429153442,1.2899999618530273,0.44999998807907104,0.02166748046875,0.024658203125,1.00457763671875,31.440000534057617,0.0,-1.0,9.46044921875E-4,-0.0160675048828125,Waiting,0.0,0.0,0.0,0.0,0.0,0.0,0.0,0.0,
1.4099340000000011,0.0,0.0,2719.0,0.0,0.0,0.0,0.0,0.0,3.858642183,0.0,0.0012207029999999897,-2735.0,0.0,0.0,-0.0,0.0,0.0,1.853027154,0.0,0.0,2663.0,0.0,0.0,0.0,0.0,0.0,4.942626447,0.0,0.0,-2744.0,0.0,0.0,-0.0,0.0,0.0,2.877196971,0.0,0.0,1.3300000429153442,1.2899999618530273,0.44999998807907104,0.01983642578125,0.02685546875,1.00592041015625,31.440000534057617,0.0,-2.0,9.46044921875E-4,-0.0160675048828125,Waiting,0.0,0.0,0.0,0.0,0.0,0.0,0.0,0.0,
1.4345050000000046,0.0,0.0,2719.0,0.0,0.0,0.0,0.0,0.0,3.861083589,0.0,0.0012207029999999897,-2735.0,0.0,0.0,-0.0,0.0,0.0,1.854247857,0.0,0.0,2663.0,0.0,0.0,0.0,0.0,0.0,4.940185041,0.0,0.0,-2744.0,0.0,0.0,-0.0,0.0,0.0,2.879638377,0.0,0.0,1.3300000429153442,1.2899999618530273,0.44999998807907104,0.02410888671875,0.02203369140625,1.0029296875,31.440000534057617,0.0,1.0,9.46044921875E-4,-0.0160675048828125,Waiting,0.0,0.0,0.0,0.0,0.0,0.0,0.0,0.0,
1.4682460000000064,0.0,0.0,2719.0,0.0,0.0,0.0,0.0,0.0,3.859862886,0.0,-0.0012207029999999897,-2735.0,0.0,0.0,-0.0,0.0,0.0,1.853027154,0.0,0.0,2663.0,0.0,0.0,0.0,0.0,0.0,4.942626447,0.0,0.0,-2744.0,0.0,0.0,-0.0,0.0,0.0,2.877196971,0.0,0.0,1.3300000429153442,1.2899999618530273,0.44999998807907104,0.0235595703125,0.02215576171875,1.0111083984375,31.440000534057617,0.0,0.0,9.46044921875E-4,-0.0160675048828125,Waiting,0.0,0.0,0.0,0.0,0.0,0.0,0.0,0.0,
1.4926070000000036,0.0,0.0,2719.0,0.0,0.0,0.0,0.0,0.0,3.858642183,0.0,0.0,-2735.0,0.0,0.0,-0.0,0.0,0.0,1.854247857,0.0,0.0,2663.0,0.0,0.0,0.0,0.0,0.0,4.942626447,0.0,0.0,-2744.0,0.0,0.0,-0.0,0.0,0.0,2.877196971,0.0,0.0,1.3300000429153442,1.2899999618530273,0.4399999976158142,0.021728515625,0.021484375,1.0040283203125,31.440000534057617,0.0,-1.0,9.46044921875E-4,-0.0160675048828125,Waiting,0.0,0.0,0.0,0.0,0.0,0.0,0.0,0.0,
1.5259400000000023,0.0,0.0,2719.0,0.0,0.0,0.0,0.0,0.0,3.859862886,0.0,0.0,-2735.0,0.0,0.0,-0.0,0.0,0.0,1.854247857,0.0,0.0,2663.0,0.0,0.0,0.0,0.0,0.0,4.941405744,0.0,0.0,-2744.0,0.0,0.0,-0.0,0.0,0.0,2.877196971,0.0,0.0,1.3300000429153442,1.2899999618530273,0.4399999976158142,0.02349853515625,0.02569580078125,1.00665283203125,31.440000534057617,0.0,0.0,9.46044921875E-4,-0.0160675048828125,Waiting,0.0,0.0,0.0,0.0,0.0,0.0,0.0,0.0,
1.5500910000000003,0.0,0.0,2719.0,0.0,0.0,0.0,0.0,0.0,3.85742148,0.0,0.0,-2735.0,0.0,0.0,-0.0,0.0,0.0,1.854247857,0.0,0.0,2663.0,0.0,0.0,0.0,0.0,0.0,4.941405744,0.0,0.0,-2744.0,0.0,0.0,-0.0,0.0,0.0,2.877196971,0.0,0.0,1.3300000429153442,1.2899999618530273,0.4399999976158142,0.02471923828125,0.0225830078125,1.0037841796875,31.440000534057617,0.0,1.0,9.46044921875E-4,-0.0160675048828125,Waiting,0.0,0.0,0.0,0.0,0.0,0.0,0.0,0.0,
1.5787810000000027,0.0,0.0,2719.0,0.0,0.0,0.0,0.0,0.0,3.858642183,0.0,0.0,-2735.0,0.0,0.0,-0.0,0.0,0.0,1.854247857,0.0,0.0,2663.0,0.0,0.0,0.0,0.0,0.0,4.940185041,0.0,0.0,-2744.0,0.0,0.0,-0.0,0.0,0.0,2.877196971,0.0,0.0,1.3300000429153442,1.2899999618530273,0.4399999976158142,0.0206298828125,0.0205078125,1.001708984375,31.440000534057617,0.0,-2.0,9.46044921875E-4,-0.0160675048828125,Waiting,0.0,0.0,0.0,0.0,0.0,0.0,0.0,0.0,
1.6076910000000062,0.0,0.0,2719.0,0.0,0.0,0.0,0.0,0.0,3.859862886,0.0,0.0,-2735.0,0.0,0.0,-0.0,0.0,0.0,1.854247857,0.0,0.0,2663.0,0.0,0.0,0.0,0.0,0.0,4.942626447,0.0,0.0,-2744.0,0.0,0.0,-0.0,0.0,0.0,2.878417674,0.0,0.0,1.3300000429153442,1.2899999618530273,0.4399999976158142,0.0228271484375,0.02154541015625,1.000244140625,31.440000534057617,0.0,0.0,9.46044921875E-4,-0.0160675048828125,Waiting,0.0,0.0,0.0,0.0,0.0,0.0,0.0,0.0,
1.632293000000005,0.0,0.0,2719.0,0.0,0.0,0.0,0.0,0.0,3.858642183,0.0,0.0,-2735.0,0.0,0.0,-0.0,0.0,0.0,1.854247857,0.0,0.0,2663.0,0.0,0.0,0.0,0.0,0.0,4.941405744,0.0,0.0,-2744.0,0.0,0.0,-0.0,0.0,0.0,2.877196971,0.0,0.0,1.3200000524520874,1.2899999618530273,0.4399999976158142,0.019287109375,0.0238037109375,1.00103759765625,31.440000534057617,0.0,-3.0,9.46044921875E-4,-0.0160675048828125,Waiting,0.0,0.0,0.0,0.0,0.0,0.0,0.0,0.0,
1.6621900000000023,0.0,0.0,2719.0,0.0,0.0,0.0,0.0,0.0,3.85742148,0.0,0.0012207029999999897,-2735.0,0.0,0.0,-0.0,0.0,0.0,1.854247857,0.0,0.0,2663.0,0.0,0.0,0.0,0.0,0.0,4.942626447,0.0,0.0,-2744.0,0.0,0.0,-0.0,0.0,0.0,2.877196971,0.0,0.0,1.3300000429153442,1.2899999618530273,0.4399999976158142,0.023193359375,0.02362060546875,1.0025634765625,31.440000534057617,0.0,0.0,9.46044921875E-4,-0.0160675048828125,Waiting,0.0,0.0,0.0,0.0,0.0,0.0,0.0,0.0,
1.6882669999999997,0.0,0.0,2719.0,0.0,0.0,0.0,0.0,0.0,3.858642183,0.0,0.0012207029999999897,-2735.0,0.0,0.0,-0.0,0.0,0.0,1.854247857,0.0,0.0,2663.0,0.0,0.0,0.0,0.0,0.0,4.945067853,0.0,0.0,-2744.0,0.0,0.0,-0.0,0.0,0.0,2.877196971,0.0,0.0,1.3200000524520874,1.2899999618530273,0.4399999976158142,0.02288818359375,0.0234375,1.0023193359375,31.440000534057617,0.0,0.0,9.46044921875E-4,-0.0160675048828125,Waiting,0.0,0.0,0.0,0.0,0.0,0.0,0.0,0.0,
1.7161740000000063,0.0,0.0,2719.0,0.0,0.0,0.0,0.0,0.0,3.858642183,0.0,-0.0012207029999999897,-2735.0,0.0,0.0,-0.0,0.0,0.0,1.854247857,0.0,0.0,2663.0,0.0,0.0,0.0,0.0,0.0,4.941405744,0.0,0.0,-2744.0,0.0,0.0,-0.0,0.0,0.0,2.877196971,0.0,0.0,1.3300000429153442,1.2899999618530273,0.4399999976158142,0.022705078125,0.0220947265625,1.00396728515625,31.440000534057617,0.0,0.0,9.46044921875E-4,-0.0160675048828125,Waiting,0.0,0.0,0.0,0.0,0.0,0.0,0.0,0.0,
1.7463140000000057,0.0,0.0,2719.0,0.0,0.0,0.0,0.0,0.0,3.858642183,0.0,0.0,-2735.0,0.0,0.0,-0.0,0.0,0.0,1.853027154,0.0,0.0,2663.0,0.0,0.0,0.0,0.0,0.0,4.94384715,0.0,0.0,-2744.0,0.0,0.0,-0.0,0.0,0.0,2.877196971,0.0,0.0,1.3300000429153442,1.2899999618530273,0.4399999976158142,0.02435302734375,0.0247802734375,1.00341796875,31.440000534057617,0.0,1.0,9.46044921875E-4,-0.0160675048828125,Waiting,0.0,0.0,0.0,0.0,0.0,0.0,0.0,0.0,
1.7742710000000006,0.0,0.0,2719.0,0.0,0.0,0.0,0.0,0.0,3.858642183,0.0,0.0,-2735.0,0.0,0.0,-0.0,0.0,0.0,1.854247857,0.0,0.0,2663.0,0.0,0.0,0.0,0.0,0.0,4.942626447,0.0,0.0,-2744.0,0.0,0.0,-0.0,0.0,0.0,2.877196971,0.0,0.0,1.3300000429153442,1.2899999618530273,0.4399999976158142,0.02044677734375,0.0235595703125,1.00592041015625,31.440000534057617,0.0,-2.0,9.46044921875E-4,-0.0160675048828125,Waiting,0.0,0.0,0.0,0.0,0.0,0.0,0.0,0.0,
1.8030030000000044,0.0,0.0,2719.0,0.0,0.0,0.0,0.0,0.0,3.858642183,0.0,0.0,-2735.0,0.0,0.0,-0.0,0.0,0.0,1.853027154,0.0,0.0,2663.0,0.0,0.0,0.0,0.0,0.0,4.942626447,0.0,0.0,-2744.0,0.0,0.0,-0.0,0.0,0.0,2.877196971,0.0,0.0,1.3300000429153442,1.2799999713897705,0.4399999976158142,0.023193359375,0.02227783203125,1.0023193359375,31.440000534057617,0.0,0.0,9.46044921875E-4,-0.0160675048828125,Waiting,0.0,0.0,0.0,0.0,0.0,0.0,0.0,0.0,
1.8314070000000064,0.0,0.0,2719.0,0.0,0.0,0.0,0.0,0.0,3.863524995,0.0,0.0,-2735.0,0.0,0.0,-0.0,0.0,0.0,1.854247857,0.0,0.0,2663.0,0.0,0.0,0.0,0.0,0.0,4.941405744,0.0,0.0,-2744.0,0.0,0.0,-0.0,0.0,0.0,2.877196971,0.0,0.0,1.3300000429153442,1.2799999713897705,0.4399999976158142,0.019287109375,0.02545166015625,1.00494384765625,31.440000534057617,0.0,-3.0,9.46044921875E-4,-0.0160675048828125,Waiting,0.0,0.0,0.0,0.0,0.0,0.0,0.0,0.0,
1.8594060000000028,0.0,0.0,2719.0,0.0,0.0,0.0,0.0,0.0,3.85742148,0.0,0.0,-2735.0,0.0,0.0,-0.0,0.0,0.0,1.853027154,0.0,0.0,2663.0,0.0,0.0,0.0,0.0,0.0,4.941405744,0.0,0.0,-2744.0,0.0,0.0,-0.0,0.0,0.0,2.877196971,0.0,0.0,1.3300000429153442,1.2799999713897705,0.4399999976158142,0.02276611328125,0.023681640625,1.005126953125,31.459999084472656,0.0,0.0,9.46044921875E-4,-0.0160675048828125,Waiting,0.0,0.0,0.0,0.0,0.0,0.0,0.0,0.0,
1.8886890000000058,0.0,0.0,2719.0,0.0,0.0,0.0,0.0,0.0,3.85742148,0.0,0.0,-2735.0,0.0,0.0,-0.0,0.0,0.0,1.854247857,0.0,0.0,2663.0,0.0,0.0,0.0,0.0,0.0,4.941405744,0.0,0.0,-2744.0,0.0,0.0,-0.0,0.0,0.0,2.877196971,0.0,0.0,1.3300000429153442,1.2799999713897705,0.4399999976158142,0.02398681640625,0.02423095703125,1.00299072265625,31.459999084472656,0.0,1.0,9.46044921875E-4,-0.0160675048828125,Waiting,0.0,0.0,0.0,0.0,0.0,0.0,0.0,0.0,
1.9178810000000013,0.0,0.0,2719.0,0.0,0.0,0.0,0.0,0.0,3.859862886,0.0,0.0,-2735.0,0.0,0.0,-0.0,0.0,0.0,1.854247857,0.0,0.0,2663.0,0.0,0.0,0.0,0.0,0.0,4.938964338,0.0,0.0,-2744.0,0.0,0.0,-0.0,0.0,0.0,2.877196971,0.0,0.0,1.3300000429153442,1.2799999713897705,0.4399999976158142,0.02099609375,0.021484375,1.00421142578125,31.459999084472656,0.0,-1.0,9.46044921875E-4,-0.0160675048828125,Waiting,0.0,0.0,0.0,0.0,0.0,0.0,0.0,0.0,
1.9448919999999998,0.0,0.0,2719.0,0.0,0.0,0.0,0.0,0.0,3.858642183,0.0,0.0,-2735.0,0.0,0.0,-0.0,0.0,0.0,1.854247857,0.0,0.0,2663.0,0.0,0.0,0.0,0.0,0.0,4.941405744,0.0,0.0,-2744.0,0.0,0.0,-0.0,0.0,0.0,2.877196971,0.0,0.0,1.3300000429153442,1.2899999618530273,0.4399999976158142,0.02374267578125,0.0238037109375,1.004150390625,31.459999084472656,0.0,1.0,9.46044921875E-4,-0.0160675048828125,Waiting,0.0,0.0,0.0,0.0,0.0,0.0,0.0,0.0,
1.9726890000000057,0.0,0.0,2719.0,0.0,0.0,0.0,0.0,0.0,3.858642183,0.0,0.0,-2735.0,0.0,0.0,-0.0,0.0,0.0,1.854247857,0.0,0.0,2663.0,0.0,0.0,0.0,0.0,0.0,4.942626447,0.0,0.0,-2744.0,0.0,0.0,-0.0,0.0,0.0,2.877196971,0.0,0.0,1.3300000429153442,1.2899999618530273,0.4399999976158142,0.02337646484375,0.02447509765625,1.000732421875,31.459999084472656,0.0,0.0,9.46044921875E-4,-0.0160675048828125,Waiting,0.0,0.0,0.0,0.0,0.0,0.0,0.0,0.0,
1.9964830000000002,0.0,0.0,2719.0,0.0,0.0,0.0,0.0,0.0,3.85742148,0.0,0.0,-2735.0,0.0,0.0,-0.0,0.0,0.0,1.854247857,0.0,0.0,2663.0,0.0,0.0,0.0,0.0,0.0,4.942626447,0.0,0.0,-2744.0,0.0,0.0,-0.0,0.0,0.0,2.882079783,0.0,0.0,1.3300000429153442,1.2899999618530273,0.4399999976158142,0.02374267578125,0.02178955078125,1.0072021484375,31.459999084472656,0.0,0.0,9.46044921875E-4,-0.0160675048828125,Waiting,0.0,0.0,0.0,0.0,0.0,0.0,0.0,0.0,
2.028783000000003,0.0,0.0,2719.0,0.0,0.0,0.0,0.0,0.0,3.856200777,0.0,0.0,-2735.0,0.0,0.0,-0.0,0.0,0.0,1.854247857,0.0,0.0,2663.0,0.0,0.0,0.0,0.0,0.0,4.942626447,0.0,0.0,-2744.0,0.0,0.0,-0.0,0.0,0.0,2.877196971,0.0,0.0,1.3300000429153442,1.2899999618530273,0.4399999976158142,0.0244140625,0.02447509765625,1.0042724609375,31.459999084472656,0.0,1.0,9.46044921875E-4,-0.0160675048828125,Waiting,0.0,0.0,0.0,0.0,0.0,0.0,0.0,0.0,
2.052876000000004,0.0,0.0,2719.0,0.0,0.0,0.0,0.0,0.0,3.859862886,0.0,0.0,-2735.0,0.0,0.0,-0.0,0.0,0.0,1.854247857,0.0,0.0,2663.0,0.0,0.0,0.0,0.0,0.0,4.942626447,0.0,0.0,-2744.0,0.0,0.0,-0.0,0.0,0.0,2.877196971,0.0,0.0,1.3300000429153442,1.2899999618530273,0.4399999976158142,0.02349853515625,0.02398681640625,1.00225830078125,31.459999084472656,0.0,0.0,9.46044921875E-4,-0.0160675048828125,Waiting,0.0,0.0,0.0,0.0,0.0,0.0,0.0,0.0,
2.0852570000000052,0.0,0.0,2719.0,0.0,0.0,0.0,0.0,0.0,3.858642183,0.0,0.0,-2735.0,0.0,0.0,-0.0,0.0,0.0,1.854247857,0.0,0.0,2663.0,0.0,0.0,0.0,0.0,0.0,4.940185041,0.0,0.0,-2744.0,0.0,0.0,-0.0,0.0,0.0,2.877196971,0.0,0.0,1.3300000429153442,1.2899999618530273,0.4399999976158142,0.0223388671875,0.02362060546875,1.00946044921875,31.459999084472656,0.0,0.0,9.46044921875E-4,-0.0160675048828125,Waiting,0.0,0.0,0.0,0.0,0.0,0.0,0.0,0.0,
2.113333000000006,0.0,0.0,2719.0,0.0,0.0,0.0,0.0,0.0,3.858642183,0.0,0.0,-2735.0,0.0,0.0,-0.0,0.0,0.0,1.853027154,0.0,0.0,2663.0,0.0,0.0,0.0,0.0,0.0,4.94384715,0.0,0.0,-2744.0,0.0,0.0,-0.0,0.0,0.0,2.877196971,0.0,0.0,1.340000033378601,1.2899999618530273,0.4399999976158142,0.02349853515625,0.0211181640625,1.0098876953125,31.459999084472656,0.0,0.0,9.46044921875E-4,-0.0160675048828125,Waiting,0.0,0.0,0.0,0.0,0.0,0.0,0.0,0.0,
2.1403950000000043,0.0,0.0,2719.0,0.0,0.0,0.0,0.0,0.0,3.858642183,0.0,0.0,-2735.0,0.0,0.0,-0.0,0.0,0.0,1.854247857,0.0,0.0,2663.0,0.0,0.0,0.0,0.0,0.0,4.940185041,0.0,0.0,-2744.0,0.0,0.0,-0.0,0.0,0.0,2.878417674,0.0,0.0,1.3300000429153442,1.2899999618530273,0.4399999976158142,0.02545166015625,0.0216064453125,1.00201416015625,31.459999084472656,0.0,2.0,9.46044921875E-4,-0.0160675048828125,Waiting,0.0,0.0,0.0,0.0,0.0,0.0,0.0,0.0,
2.1695710000000035,0.0,0.0,2719.0,0.0,0.0,0.0,0.0,0.0,3.858642183,0.0,0.0012207029999999897,-2735.0,0.0,0.0,-0.0,0.0,0.0,1.854247857,0.0,0.0,2663.0,0.0,0.0,0.0,0.0,0.0,4.941405744,0.0,0.0,-2744.0,0.0,0.0,-0.0,0.0,0.0,2.877196971,0.0,0.0,1.3300000429153442,1.2899999618530273,0.4399999976158142,0.0225830078125,0.022705078125,1.001953125,31.459999084472656,0.0,0.0,9.46044921875E-4,-0.0160675048828125,Waiting,0.0,0.0,0.0,0.0,0.0,0.0,0.0,0.0,
2.194211000000003,0.0,0.0,2719.0,0.0,0.0,0.0,0.0,0.0,3.859862886,0.0,-0.0012207029999999897,-2735.0,0.0,0.0,-0.0,0.0,0.0,1.854247857,0.0,0.0,2663.0,0.0,0.0,0.0,0.0,0.0,4.940185041,0.0,0.0,-2744.0,0.0,0.0,-0.0,0.0,0.0,2.878417674,0.0,0.0,1.3300000429153442,1.2899999618530273,0.4399999976158142,0.023681640625,0.02313232421875,1.0013427734375,31.459999084472656,0.0,1.0,9.46044921875E-4,-0.0160675048828125,Waiting,0.0,0.0,0.0,0.0,0.0,0.0,0.0,0.0,
2.228984000000004,0.0,0.0,2719.0,0.0,0.0,0.0,0.0,0.0,3.858642183,0.0,-0.0012207029999999897,-2735.0,0.0,0.0,-0.0,0.0,0.0,1.854247857,0.0,0.0,2663.0,0.0,0.0,0.0,0.0,0.0,4.940185041,0.0,0.0,-2744.0,0.0,0.0,-0.0,0.0,0.0,2.877196971,0.0,0.0,1.3300000429153442,1.2899999618530273,0.4399999976158142,0.025634765625,0.02044677734375,1.00177001953125,31.459999084472656,0.0,2.0,9.46044921875E-4,-0.0160675048828125,Waiting,0.0,0.0,0.0,0.0,0.0,0.0,0.0,0.0,
2.253181000000004,0.0,0.0,2719.0,0.0,0.0,0.0,0.0,0.0,3.85742148,0.0,0.0,-2735.0,0.0,0.0,-0.0,0.0,0.0,1.853027154,0.0,0.0,2663.0,0.0,0.0,0.0,0.0,0.0,4.942626447,0.0,0.0,-2744.0,0.0,0.0,-0.0,0.0,0.0,2.877196971,0.0,0.0,1.3300000429153442,1.2999999523162842,0.4399999976158142,0.0234375,0.02215576171875,1.00628662109375,31.459999084472656,0.0,0.0,9.46044921875E-4,-0.0160675048828125,Waiting,0.0,0.0,0.0,0.0,0.0,0.0,0.0,0.0,
2.287454000000005,0.0,0.0,2719.0,0.0,0.0,0.0,0.0,0.0,3.858642183,0.0,0.0,-2735.0,0.0,0.0,-0.0,0.0,0.0,1.854247857,0.0,0.0,2663.0,0.0,0.0,0.0,0.0,0.0,4.942626447,0.0,0.0,-2744.0,0.0,0.0,-0.0,0.0,0.0,2.877196971,0.0,0.0,1.3300000429153442,1.2999999523162842,0.4399999976158142,0.0196533203125,0.02459716796875,1.00537109375,31.459999084472656,0.0,-3.0,9.46044921875E-4,-0.0160675048828125,Waiting,0.0,0.0,0.0,0.0,0.0,0.0,0.0,0.0,
2.314942000000003,0.0,0.0,2719.0,0.0,0.0,0.0,0.0,0.0,3.858642183,0.0,0.0,-2735.0,0.0,0.0,-0.0,0.0,0.0,1.854247857,0.0,0.0,2663.0,0.0,0.0,0.0,0.0,0.0,4.942626447,0.0,0.0,-2744.0,0.0,0.0,-0.0,0.0,0.0,2.877196971,0.0,0.0,1.3200000524520874,1.2899999618530273,0.4399999976158142,0.01947021484375,0.02374267578125,1.00482177734375,31.459999084472656,0.0,-3.0,9.46044921875E-4,-0.0160675048828125,Waiting,0.0,0.0,0.0,0.0,0.0,0.0,0.0,0.0,
2.343572,0.0,0.0,2719.0,0.0,0.0,0.0,0.0,0.0,3.858642183,0.0,0.0,-2735.0,0.0,0.0,-0.0,0.0,0.0,1.853027154,0.0,0.0,2663.0,0.0,0.0,0.0,0.0,0.0,4.941405744,0.0,0.0,-2744.0,0.0,0.0,-0.0,0.0,0.0,2.877196971,0.0,0.0,1.3200000524520874,1.2999999523162842,0.4399999976158142,0.02288818359375,0.02569580078125,1.0023193359375,31.459999084472656,0.0,0.0,9.46044921875E-4,-0.0160675048828125,Waiting,0.0,0.0,0.0,0.0,0.0,0.0,0.0,0.0,
2.3724130000000003,0.0,0.0,2719.0,0.0,0.0,0.0,0.0,0.0,3.858642183,0.0,0.0,-2735.0,0.0,0.0,-0.0,0.0,0.0,1.854247857,0.0,0.0,2663.0,0.0,0.0,0.0,0.0,0.0,4.941405744,0.0,0.0,-2744.0,0.0,0.0,-0.0,0.0,0.0,2.878417674,0.0,0.0,1.3200000524520874,1.2999999523162842,0.4300000071525574,0.022705078125,0.021240234375,1.00531005859375,31.450000762939453,0.0,0.0,9.46044921875E-4,-0.0160675048828125,Waiting,0.0,0.0,0.0,0.0,0.0,0.0,0.0,0.0,
2.3977850000000034,0.0,0.0,2719.0,0.0,0.0,0.0,0.0,0.0,3.858642183,0.0,0.0,-2735.0,0.0,0.0,-0.0,0.0,0.0,1.853027154,0.0,0.0,2663.0,0.0,0.0,0.0,0.0,0.0,4.940185041,0.0,0.0,-2744.0,0.0,0.0,-0.0,0.0,0.0,2.878417674,0.0,0.0,1.3300000429153442,1.2999999523162842,0.4399999976158142,0.0255126953125,0.01922607421875,1.00634765625,31.450000762939453,0.0,2.0,9.46044921875E-4,-0.0160675048828125,Waiting,0.0,0.0,0.0,0.0,0.0,0.0,0.0,0.0,
2.4297000000000044,0.0,0.0,2719.0,0.0,0.0,0.0,0.0,0.0,3.85742148,0.0,0.0,-2735.0,0.0,0.0,-0.0,0.0,0.0,1.853027154,0.0,0.0,2663.0,0.0,0.0,0.0,0.0,0.0,4.940185041,0.0,0.0,-2744.0,0.0,0.0,-0.0,0.0,0.0,2.877196971,0.0,0.0,1.3200000524520874,1.2999999523162842,0.4399999976158142,0.022216796875,0.0224609375,1.00103759765625,31.450000762939453,0.0,0.0,9.46044921875E-4,-0.0160675048828125,Waiting,0.0,0.0,0.0,0.0,0.0,0.0,0.0,0.0,
2.4540040000000007,0.0,0.0,2719.0,0.0,0.0,0.0,0.0,0.0,3.85742148,0.0,0.0,-2735.0,0.0,0.0,-0.0,0.0,0.0,1.853027154,0.0,0.0,2663.0,0.0,0.0,0.0,0.0,0.0,4.941405744,0.0,0.0,-2744.0,0.0,0.0,-0.0,0.0,0.0,2.877196971,0.0,0.0,1.3200000524520874,1.2999999523162842,0.4399999976158142,0.02349853515625,0.0238037109375,1.0057373046875,31.450000762939453,0.0,0.0,9.46044921875E-4,-0.0160675048828125,Waiting,0.0,0.0,0.0,0.0,0.0,0.0,0.0,0.0,
2.491952000000005,0.0,0.0,2719.0,0.0,0.0,0.0,0.0,0.125,3.858642183,0.0,0.0,-2735.0,0.0,0.0,-0.0,0.0,0.0,1.854247857,0.0,0.0,2663.0,0.0,0.0,0.0,0.0,0.0,4.942626447,0.0,0.0,-2744.0,0.0,0.0,-0.0,0.0,0.0,2.877196971,0.0,0.0,1.3200000524520874,1.2999999523162842,0.4300000071525574,0.02227783203125,0.0211181640625,1.0072021484375,31.450000762939453,0.0,0.0,9.46044921875E-4,-0.0160675048828125,Waiting,0.0,0.0,0.0,0.0,0.0,0.0,0.0,0.0,
2.5228310000000054,0.0,0.0,2719.0,0.0,0.0,0.0,0.0,0.0,3.859862886,0.0,0.0,-2735.0,0.0,0.0,-0.0,0.0,0.0,1.854247857,0.0,0.0,2663.0,0.0,0.0,0.0,0.0,0.0,4.942626447,0.0,0.0,-2744.0,0.0,0.0,-0.0,0.0,0.0,2.884521189,0.0,0.0,1.3200000524520874,1.2999999523162842,0.4300000071525574,0.0198974609375,0.0223388671875,1.004150390625,31.450000762939453,0.0,-2.0,9.46044921875E-4,-0.0160675048828125,Waiting,0.0,0.0,0.0,0.0,0.0,0.0,0.0,0.0,
2.548227000000006,0.0,0.0,2719.0,0.0,0.0,0.0,0.0,0.0,3.858642183,0.0,0.0,-2735.0,0.0,0.0,-0.0,0.0,0.0,1.854247857,0.0,0.0,2663.0,0.0,0.0,0.0,0.0,0.0,4.940185041,0.0,0.0,-2744.0,0.0,0.0,-0.0,0.0,0.0,2.877196971,0.0,-0.0012207029999999897,1.3200000524520874,1.2999999523162842,0.4300000071525574,0.02374267578125,0.0216064453125,1.0013427734375,31.450000762939453,0.0,0.0,9.46044921875E-4,-0.0160675048828125,Waiting,0.0,0.0,0.0,0.0,0.0,0.0,0.0,0.0,
2.5757980000000025,0.0,0.0,2719.0,0.0,0.0,0.0,0.0,0.0,3.85742148,0.0,0.0,-2735.0,0.0,0.0,-0.0,0.0,0.0,1.854247857,0.0,0.0,2663.0,0.0,0.0,0.0,0.0,0.0,4.941405744,0.0,0.0,-2744.0,0.0,0.0,-0.0,0.0,0.0,2.877196971,0.0,-0.0012207029999999897,1.3200000524520874,1.2999999523162842,0.4300000071525574,0.0230712890625,0.0224609375,0.997802734375,31.450000762939453,0.0,0.0,9.46044921875E-4,-0.0160675048828125,Waiting,0.0,0.0,0.0,0.0,0.0,0.0,0.0,0.0,
2.6046970000000003,0.0,0.0,2719.0,0.0,0.0,0.0,0.0,0.0,3.8500972620000002,0.0,0.0,-2735.0,0.0,0.0,-0.0,0.0,0.0,1.853027154,0.0,0.0,2663.0,0.0,0.0,0.0,0.0,0.0,4.940185041,0.0,0.0,-2744.0,0.0,0.0,-0.0,0.0,0.0,2.877196971,0.0,0.0012207029999999897,1.3200000524520874,1.2899999618530273,0.4399999976158142,0.02435302734375,0.02630615234375,1.005615234375,31.450000762939453,0.0,1.0,9.46044921875E-4,-0.0160675048828125,Waiting,0.0,0.0,0.0,0.0,0.0,0.0,0.0,0.0,
2.673322,0.0,0.0,2719.0,0.0,0.0,0.0,0.0,0.0,3.85742148,0.0,0.0,-2735.0,0.0,0.0,-0.0,0.0,0.0,1.854247857,0.0,0.0,2663.0,0.0,0.0,0.0,0.0,0.0,4.942626447,0.0,0.0,-2744.0,0.0,0.0,-0.0,0.0,0.0,2.877196971,0.0,0.0,1.3200000524520874,1.2899999618530273,0.4399999976158142,0.02288818359375,0.0216064453125,1.002197265625,31.450000762939453,0.0,0.0,9.46044921875E-4,-0.0160675048828125,Waiting,0.0,0.0,0.0,0.0,0.0,0.0,0.0,0.0,
2.746030000000006,0.0,0.0,2719.0,0.0,0.0,0.0,0.0,0.0,3.858642183,0.0,0.0,-2735.0,0.0,0.0,-0.0,0.0,0.0,1.854247857,0.0,0.0,2663.0,0.0,0.0,0.0,0.0,0.0,4.941405744,0.0,0.0,-2744.0,0.0,0.0,-0.0,0.0,0.0,2.878417674,0.0,0.0,1.3200000524520874,1.2899999618530273,0.4399999976158142,0.0224609375,0.02215576171875,1.00323486328125,31.450000762939453,0.0,0.0,9.46044921875E-4,-0.0160675048828125,Waiting,0.0,0.0,0.0,0.0,0.0,0.0,0.0,0.0,
2.8537220000000016,0.0,0.0,2719.0,0.0,0.0,0.0,0.0,0.0,3.858642183,0.0,0.0012207029999999897,-2735.0,0.0,0.0,-0.0,0.0,0.0,1.853027154,0.0,0.0,2663.0,0.0,0.0,0.0,0.0,0.0,4.941405744,0.0,0.0,-2744.0,0.0,0.0,-0.0,0.0,0.0,2.877196971,0.0,0.0,1.3200000524520874,1.2999999523162842,0.4399999976158142,0.02191162109375,0.0238037109375,1.00921630859375,31.469999313354492,0.0,-1.0,9.46044921875E-4,-0.0160675048828125,Waiting,0.0,0.0,0.0,0.0,0.0,0.0,0.0,0.0,
2.9319430000000066,0.0,0.0,2719.0,0.0,0.0,0.0,0.0,0.0,3.85742148,0.0,0.0,-2735.0,0.0,0.0,-0.0,0.0,0.0,1.854247857,0.0,0.0,2663.0,0.0,0.0,0.0,0.0,0.0,4.940185041,0.0,0.0,-2744.0,0.0,0.0,-0.0,0.0,0.0,2.877196971,0.0,0.0,1.3200000524520874,1.2999999523162842,0.4399999976158142,0.02447509765625,0.0244140625,1.00238037109375,31.469999313354492,0.0,1.0,9.46044921875E-4,-0.0160675048828125,Waiting,0.0,0.0,0.0,0.0,0.0,0.0,0.0,0.0,
2.985914000000004,0.0,0.0,2719.0,0.0,0.0,0.0,0.0,0.0,3.85742148,0.0,0.0,-2735.0,0.0,0.0,-0.0,0.0,0.0,1.854247857,0.0,0.0,2663.0,0.0,0.0,0.0,0.0,0.0,4.940185041,0.0,0.0,-2744.0,0.0,0.0,-0.0,0.0,0.0,2.877196971,0.0,0.0,1.3200000524520874,1.2899999618530273,0.4399999976158142,0.02093505859375,0.02532958984375,1.00335693359375,31.469999313354492,0.0,-1.0,9.46044921875E-4,-0.0160675048828125,Waiting,0.0,0.0,0.0,0.0,0.0,0.0,0.0,0.0,
3.0543600000000004,0.0,0.0,2719.0,0.0,0.0,0.0,0.0,0.0,3.859862886,0.0,-0.0012207029999999897,-2735.0,0.0,0.0,-0.0,0.0,0.0,1.853027154,0.0,0.0,2663.0,0.0,0.0,0.0,0.0,0.0,4.941405744,0.0,0.0,-2744.0,0.0,0.0,-0.0,0.0,0.0,2.877196971,0.0,0.0,1.3200000524520874,1.2899999618530273,0.4399999976158142,0.0252685546875,0.0235595703125,1.00390625,31.469999313354492,0.0,2.0,9.46044921875E-4,-0.0160675048828125,Waiting,0.0,0.0,0.0,0.0,0.0,0.0,0.0,0.0,
3.0879720000000015,0.0,0.0,2719.0,0.0,0.0,0.0,0.0,0.0,3.858642183,0.0,-0.0012207029999999897,-2735.0,0.0,0.0,-0.0,0.0,0.0,1.853027154,0.0,0.0,2663.0,0.0,0.0,0.0,0.0,0.0,4.940185041,0.0,0.0,-2744.0,0.0,0.0,-0.0,0.0,0.0,2.878417674,0.0,0.0,1.3200000524520874,1.2899999618530273,0.44999998807907104,0.02093505859375,0.02496337890625,1.00396728515625,31.469999313354492,0.0,-1.0,9.46044921875E-4,-0.0160675048828125,Waiting,0.0,0.0,0.0,0.0,0.0,0.0,0.0,0.0,
3.114690000000002,0.0,0.0,2719.0,0.0,0.0,0.0,0.0,0.0,3.858642183,0.0,0.0,-2735.0,0.0,0.0,-0.0,0.0,0.0,1.854247857,0.0,0.0,2663.0,0.0,0.0,0.0,0.0,0.0,4.941405744,0.0,0.0,-2744.0,0.0,0.0,-0.0,0.0,0.0,2.877196971,0.0,0.0,1.3200000524520874,1.2899999618530273,0.44999998807907104,0.0242919921875,0.0198974609375,0.99981689453125,31.469999313354492,0.0,1.0,9.46044921875E-4,-0.0160675048828125,Waiting,0.0,0.0,0.0,0.0,0.0,0.0,0.0,0.0,
3.145283000000003,0.0,0.0,2719.0,0.0,0.0,0.0,0.0,0.0,3.85742148,0.0,0.0,-2735.0,0.0,0.0,-0.0,0.0,0.0,1.853027154,0.0,0.0,2663.0,0.0,0.0,0.0,0.0,0.0,4.941405744,0.0,0.0,-2744.0,0.0,0.0,-0.0,0.0,0.0,2.877196971,0.0,0.0,1.3200000524520874,1.2899999618530273,0.44999998807907104,0.02337646484375,0.0247802734375,1.007080078125,31.469999313354492,0.0,0.0,9.46044921875E-4,-0.0160675048828125,Waiting,0.0,0.0,0.0,0.0,0.0,0.0,0.0,0.0,
3.1720780000000013,0.0,0.0,2719.0,0.0,0.0,0.0,0.0,0.0,3.858642183,0.0,0.0,-2735.0,0.0,0.0,-0.0,0.0,0.0,1.854247857,0.0,0.0,2663.0,0.0,0.0,0.0,0.0,0.0,4.942626447,0.0,0.0,-2744.0,0.0,0.0,-0.0,0.0,0.0,2.877196971,0.0,0.0,1.3200000524520874,1.2899999618530273,0.4399999976158142,0.024169921875,0.0245361328125,1.00732421875,31.469999313354492,0.0,1.0,9.46044921875E-4,-0.0160675048828125,Waiting,0.0,0.0,0.0,0.0,0.0,0.0,0.0,0.0,
3.1976960000000036,0.0,0.0,2719.0,0.0,0.0,0.0,0.0,0.0,3.858642183,0.0,0.0,-2735.0,0.0,0.0,-0.0,0.0,0.0,1.853027154,0.0,0.0,2663.0,0.0,0.0,0.0,0.0,0.0,4.940185041,0.0,0.0,-2744.0,0.0,0.0,-0.0,0.0,0.0,2.877196971,0.0,0.0,1.3300000429153442,1.2899999618530273,0.44999998807907104,0.02410888671875,0.0211181640625,1.002685546875,31.469999313354492,0.0,1.0,9.46044921875E-4,-0.0160675048828125,Waiting,0.0,0.0,0.0,0.0,0.0,0.0,0.0,0.0,
3.229405000000006,0.0,0.0,2719.0,0.0,0.0,0.0,0.0,0.0,3.85742148,0.0,0.0,-2735.0,0.0,0.0,-0.0,0.0,0.0,1.854247857,0.0,0.0,2663.0,0.0,0.0,0.0,0.0,0.0,4.941405744,0.0,0.0,-2744.0,0.0,0.0,-0.0,0.0,0.0,2.877196971,0.0,0.0,1.3300000429153442,1.2899999618530273,0.4399999976158142,0.02203369140625,0.02301025390625,1.00482177734375,31.469999313354492,0.0,0.0,9.46044921875E-4,-0.0160675048828125,Waiting,0.0,0.0,0.0,0.0,0.0,0.0,0.0,0.0,
3.2537380000000047,0.0,0.0,2719.0,0.0,0.0,0.0,0.0,0.0,3.858642183,0.0,0.0,-2735.0,0.0,0.0,-0.0,0.0,0.0,1.854247857,0.0,0.0,2663.0,0.0,0.0,0.0,0.0,0.0,4.942626447,0.0,0.0,-2744.0,0.0,0.0,-0.0,0.0,0.0,2.877196971,0.0,0.0,1.3300000429153442,1.2899999618530273,0.4399999976158142,0.02130126953125,0.02520751953125,1.00408935546875,31.469999313354492,0.0,-1.0,9.46044921875E-4,-0.0160675048828125,Waiting,0.0,0.0,0.0,0.0,0.0,0.0,0.0,0.0,
3.2864380000000017,0.0,0.0,2719.0,0.0,0.0,0.0,0.0,0.0,3.858642183,0.0,0.0,-2735.0,0.0,0.0,-0.0,0.0,0.0,1.853027154,0.0,0.0,2663.0,0.0,0.0,0.0,0.0,0.0,4.942626447,0.0,0.0,-2744.0,0.0,0.0,-0.0,0.0,0.0,2.875976268,0.0,-0.0012207029999999897,1.3200000524520874,1.2899999618530273,0.4399999976158142,0.02545166015625,0.0230712890625,1.00006103515625,31.469999313354492,0.0,2.0,9.46044921875E-4,-0.0160675048828125,Waiting,0.0,0.0,0.0,0.0,0.0,0.0,0.0,0.0,
3.3131050000000033,0.0,0.0,2719.0,0.0,0.0,0.0,0.0,0.0,3.858642183,0.0,0.0,-2735.0,0.0,0.0,-0.0,0.0,0.0,1.853027154,0.0,0.0,2663.0,0.0,0.0,0.0,0.0,0.0,4.942626447,0.0,0.0,-2744.0,0.0,0.0,-0.0,0.0,0.0,2.877196971,0.0,-0.0012207029999999897,1.3200000524520874,1.2899999618530273,0.4399999976158142,0.02313232421875,0.02099609375,1.00714111328125,31.469999313354492,0.0,0.0,9.46044921875E-4,-0.0160675048828125,Waiting,0.0,0.0,0.0,0.0,0.0,0.0,0.0,0.0,
3.3430290000000022,0.0,0.0,2719.0,0.0,0.0,0.0,0.0,0.125,3.85742148,0.0,0.0,-2735.0,0.0,0.0,-0.0,0.0,0.0,1.854247857,0.0,0.0,2663.0,0.0,0.0,0.0,0.0,0.0,4.942626447,0.0,0.0,-2744.0,0.0,0.0,-0.0,0.0,0.0,2.877196971,0.0,0.0012207029999999897,1.3300000429153442,1.2899999618530273,0.4399999976158142,0.02239990234375,0.02142333984375,1.0072021484375,31.469999313354492,0.0,0.0,9.46044921875E-4,-0.0160675048828125,Waiting,0.0,0.0,0.0,0.0,0.0,0.0,0.0,0.0,
3.370385000000002,0.0,0.0,2719.0,0.0,0.0,0.0,0.0,0.0,3.858642183,0.0,0.0,-2735.0,0.0,0.0,-0.0,0.0,0.0,1.853027154,0.0,0.0,2663.0,0.0,0.0,0.0,0.0,0.0,4.940185041,0.0,0.0,-2744.0,0.0,0.0,-0.0,0.0,0.0,2.879638377,0.0,0.0012207029999999897,1.3300000429153442,1.2899999618530273,0.4399999976158142,0.0225830078125,0.0216064453125,0.99945068359375,31.469999313354492,0.0,0.0,9.46044921875E-4,-0.0160675048828125,Waiting,0.0,0.0,0.0,0.0,0.0,0.0,0.0,0.0,
3.394678,0.0,0.0,2719.0,0.0,0.0,0.0,0.0,0.0,3.858642183,0.0,0.0,-2735.0,0.0,0.0,-0.0,0.0,0.0,1.854247857,0.0,0.0,2663.0,0.0,0.0,0.0,0.0,0.0,4.942626447,0.0,0.0,-2744.0,0.0,0.0,-0.0,0.0,0.0,2.877196971,0.0,0.0,1.3300000429153442,1.2899999618530273,0.4399999976158142,0.02435302734375,0.02618408203125,1.00189208984375,31.489999771118164,0.0,1.0,9.46044921875E-4,-0.0160675048828125,Waiting,0.0,0.0,0.0,0.0,0.0,0.0,0.0,0.0,
3.4275430000000053,0.0,0.0,2719.0,0.0,0.0,0.0,0.0,0.0,3.858642183,0.0,0.0012207029999999897,-2735.0,0.0,0.0,-0.0,0.0,0.0,1.854247857,0.0,0.0,2663.0,0.0,0.0,0.0,0.0,0.0,4.938964338,0.0,0.0,-2744.0,0.0,0.0,-0.0,0.0,0.0,2.877196971,0.0,0.0,1.3300000429153442,1.2999999523162842,0.4399999976158142,0.0211181640625,0.02606201171875,0.9991455078125,31.489999771118164,0.0,-1.0,9.46044921875E-4,-0.0160675048828125,Waiting,0.0,0.0,0.0,0.0,0.0,0.0,0.0,0.0,
3.4527830000000033,0.0,0.0,2719.0,0.0,0.0,0.0,0.0,0.0,3.85742148,0.0,-0.0012207029999999897,-2735.0,0.0,0.0,-0.0,0.0,0.0,1.853027154,0.0,0.0,2663.0,0.0,0.0,0.0,0.0,0.0,4.94384715,0.0,0.0,-2744.0,0.0,0.0,-0.0,0.0,0.0,2.878417674,0.0,0.0,1.3300000429153442,1.2999999523162842,0.4399999976158142,0.021484375,0.02423095703125,1.01019287109375,31.489999771118164,0.0,-1.0,9.46044921875E-4,-0.0160675048828125,Waiting,0.0,0.0,0.0,0.0,0.0,0.0,0.0,0.0,
3.485063000000002,0.0,0.0,2719.0,0.0,0.0,0.0,0.0,0.0,3.858642183,0.0,-0.0012207029999999897,-2735.0,0.0,0.0,-0.0,0.0,0.0,1.854247857,0.0,0.0,2663.0,0.0,0.0,0.0,0.0,0.0,4.940185041,0.0,0.0,-2744.0,0.0,0.0,-0.0,0.0,0.0,2.877196971,0.0,0.0,1.3300000429153442,1.2999999523162842,0.4399999976158142,0.02386474609375,0.0250244140625,1.0072021484375,31.489999771118164,0.0,0.0,9.46044921875E-4,-0.0160675048828125,Waiting,0.0,0.0,0.0,0.0,0.0,0.0,0.0,0.0,
3.510106,0.0,0.0,2719.0,0.0,0.0,0.0,0.0,0.0,3.858642183,0.0,0.0,-2735.0,0.0,0.0,-0.0,0.0,0.0,1.854247857,0.0,0.0,2663.0,0.0,0.0,0.0,0.0,0.0,4.941405744,0.0,0.0,-2744.0,0.0,0.0,-0.0,0.0,0.0,2.877196971,0.0,0.0,1.3300000429153442,1.2999999523162842,0.4399999976158142,0.02593994140625,0.02374267578125,1.00054931640625,31.489999771118164,0.0,3.0,9.46044921875E-4,-0.0160675048828125,Waiting,0.0,0.0,0.0,0.0,0.0,0.0,0.0,0.0,
3.5447580000000016,0.0,0.0,2719.0,0.0,0.0,0.0,0.0,0.0,3.858642183,0.0,0.0,-2735.0,0.0,0.0,-0.0,0.0,0.0,1.853027154,0.0,0.0,2663.0,0.0,0.0,0.0,0.0,0.0,4.942626447,0.0,0.0,-2744.0,0.0,0.0,-0.0,0.0,0.0,2.877196971,0.0,0.0,1.3300000429153442,1.2999999523162842,0.4399999976158142,0.021484375,0.02435302734375,1.00286865234375,31.489999771118164,0.0,-1.0,9.46044921875E-4,-0.0160675048828125,Waiting,0.0,0.0,0.0,0.0,0.0,0.0,0.0,0.0,
3.572755000000005,0.0,0.0,2719.0,0.0,0.0,0.0,0.0,0.0,3.858642183,0.0,0.0,-2735.0,0.0,0.0,-0.0,0.0,0.0,1.854247857,0.0,0.0,2663.0,0.0,0.0,0.0,0.0,0.0,4.942626447,0.0,0.0,-2744.0,0.0,0.0,-0.0,0.0,0.0,2.877196971,0.0,0.0,1.3300000429153442,1.2999999523162842,0.4399999976158142,0.0238037109375,0.0235595703125,1.00604248046875,31.489999771118164,0.0,0.0,9.46044921875E-4,-0.0160675048828125,Waiting,0.0,0.0,0.0,0.0,0.0,0.0,0.0,0.0,
3.5962260000000024,0.0,0.0,2719.0,0.0,0.0,0.0,0.0,0.0,3.858642183,0.0,0.0,-2735.0,0.0,0.0,-0.0,0.0,0.0,1.854247857,0.0,0.0,2663.0,0.0,0.0,0.0,0.0,0.0,4.94384715,0.0,0.0,-2744.0,0.0,0.0,-0.0,0.0,0.0,2.878417674,0.0,0.0,1.3300000429153442,1.2999999523162842,0.4399999976158142,0.02105712890625,0.022705078125,1.00531005859375,31.489999771118164,0.0,-1.0,9.46044921875E-4,-0.0160675048828125,Waiting,0.0,0.0,0.0,0.0,0.0,0.0,0.0,0.0,
3.627179000000004,0.0,0.0,2719.0,0.0,0.0,0.0,0.0,0.0,3.858642183,0.0,0.0,-2735.0,0.0,0.0,-0.0,0.0,0.0,1.850585748,0.0,0.0,2663.0,0.0,0.0,0.0,0.0,0.0,4.940185041,0.0,0.0,-2744.0,0.0,0.0,-0.0,0.0,0.0,2.877196971,0.0,0.0,1.3300000429153442,1.2999999523162842,0.4399999976158142,0.02392578125,0.02301025390625,1.003173828125,31.489999771118164,0.0,1.0,9.46044921875E-4,-0.0160675048828125,Waiting,0.0,0.0,0.0,0.0,0.0,0.0,0.0,0.0,
3.6506210000000063,0.0,0.0,2719.0,0.0,0.0,0.0,0.0,0.0,3.858642183,0.0,0.0,-2735.0,0.0,0.0,-0.0,0.0,0.0,1.853027154,0.0,0.0,2663.0,0.0,0.0,0.0,0.0,0.0,4.941405744,0.0,0.0,-2744.0,0.0,0.0,-0.0,0.0,0.0,2.878417674,0.0,0.0,1.340000033378601,1.2999999523162842,0.4399999976158142,0.01995849609375,0.02178955078125,1.00640869140625,31.489999771118164,0.0,-2.0,9.46044921875E-4,-0.0160675048828125,Waiting,0.0,0.0,0.0,0.0,0.0,0.0,0.0,0.0,
3.6788680000000022,0.0,0.0,2719.0,0.0,0.0,0.0,0.0,0.0,3.858642183,0.0,0.0,-2735.0,0.0,0.0,-0.0,0.0,0.0,1.853027154,0.0,0.0,2663.0,0.0,0.0,0.0,0.0,0.0,4.942626447,0.0,0.0,-2744.0,0.0,0.0,-0.0,0.0,0.0,2.877196971,0.0,0.0,1.3300000429153442,1.2999999523162842,0.4399999976158142,0.02239990234375,0.023193359375,1.006591796875,31.489999771118164,0.0,0.0,9.46044921875E-4,-0.0160675048828125,Waiting,0.0,0.0,0.0,0.0,0.0,0.0,0.0,0.0,
3.7062950000000057,0.0,0.0,2719.0,0.0,0.0,0.0,0.0,0.0,3.858642183,0.0,0.0,-2735.0,0.0,0.0,-0.0,0.0,0.0,1.853027154,0.0,0.0,2663.0,0.0,0.0,0.0,0.0,0.0,4.941405744,0.0,0.0,-2744.0,0.0,0.0,-0.0,0.0,0.0,2.877196971,0.0,0.0,1.340000033378601,1.2999999523162842,0.4399999976158142,0.02392578125,0.0220947265625,1.00311279296875,31.489999771118164,0.0,1.0,9.46044921875E-4,-0.0160675048828125,Waiting,0.0,0.0,0.0,0.0,0.0,0.0,0.0,0.0,
3.732957000000002,0.0,0.0,2719.0,0.0,0.0,0.0,0.0,0.125,3.858642183,0.0,0.0,-2735.0,0.0,0.0,-0.0,0.0,0.0,1.854247857,0.0,0.0,2663.0,0.0,0.0,0.0,0.0,0.0,4.942626447,0.0,0.0,-2744.0,0.0,0.0,-0.0,0.0,0.0,2.878417674,0.0,0.0,1.340000033378601,1.2999999523162842,0.4399999976158142,0.0255126953125,0.02484130859375,1.00799560546875,31.489999771118164,0.0,2.0,9.46044921875E-4,-0.0160675048828125,Waiting,0.0,0.0,0.0,0.0,0.0,0.0,0.0,0.0,
3.758162000000004,0.0,0.0,2719.0,0.0,0.0,0.0,0.0,0.0,3.858642183,0.0,0.0,-2735.0,0.0,0.0,-0.0,0.0,0.0,1.854247857,0.0,0.0,2663.0,0.0,0.0,0.0,0.0,0.0,4.942626447,0.0,0.0,-2744.0,0.0,0.0,-0.0,0.0,0.0,2.877196971,0.0,0.0,1.3300000429153442,1.2999999523162842,0.4399999976158142,0.0230712890625,0.021728515625,1.00421142578125,31.489999771118164,0.0,0.0,9.46044921875E-4,-0.0160675048828125,Waiting,0.0,0.0,0.0,0.0,0.0,0.0,0.0,0.0,
3.788672000000006,0.0,0.0,2719.0,0.0,0.0,0.0,0.0,0.0,3.858642183,0.0,0.0,-2735.0,0.0,0.0,-0.0,0.0,0.0,1.854247857,0.0,0.0,2663.0,0.0,0.0,0.0,0.0,0.0,4.941405744,0.0,0.0,-2744.0,0.0,0.0,-0.0,0.0,0.0,2.877196971,0.0,0.0,1.3300000429153442,1.2999999523162842,0.4399999976158142,0.024169921875,0.02264404296875,1.00177001953125,31.489999771118164,0.0,1.0,9.46044921875E-4,-0.0160675048828125,Waiting,0.0,0.0,0.0,0.0,0.0,0.0,0.0,0.0,
3.818964,0.0,0.0,2719.0,0.0,0.0,0.0,0.0,0.0,3.858642183,0.0,0.0,-2735.0,0.0,0.0,-0.0,0.0,0.0,1.854247857,0.0,0.0,2663.0,0.0,0.0,0.0,0.0,0.0,4.940185041,0.0,0.0,-2744.0,0.0,0.0,-0.0,0.0,0.0,2.877196971,0.0,0.0,1.3300000429153442,1.2999999523162842,0.4399999976158142,0.02001953125,0.02227783203125,1.0062255859375,31.489999771118164,0.0,-2.0,9.46044921875E-4,-0.0160675048828125,Waiting,0.0,0.0,0.0,0.0,0.0,0.0,0.0,0.0,
3.846073000000004,0.0,0.0,2719.0,0.0,0.0,0.0,0.0,0.0,3.858642183,0.0,0.0,-2735.0,0.0,0.0,-0.0,0.0,0.0,1.853027154,0.0,0.0,2663.0,0.0,0.0,0.0,0.0,0.0,4.942626447,0.0,0.0,-2744.0,0.0,0.0,-0.0,0.0,0.0,2.878417674,0.0,-0.0012207029999999897,1.3300000429153442,1.2999999523162842,0.4399999976158142,0.02130126953125,0.0230712890625,1.0,31.489999771118164,0.0,-1.0,9.46044921875E-4,-0.0160675048828125,Waiting,0.0,0.0,0.0,0.0,0.0,0.0,0.0,0.0,
3.8721730000000023,0.0,0.0,2719.0,0.0,0.0,0.0,0.0,0.0,3.858642183,0.0,0.0,-2735.0,0.0,0.0,-0.0,0.0,0.0,1.854247857,0.0,0.0,2663.0,0.0,0.0,0.0,0.0,0.0,4.942626447,0.0,0.0,-2744.0,0.0,0.0,-0.0,0.0,0.0,2.877196971,0.0,-0.0012207029999999897,1.3300000429153442,1.2999999523162842,0.4399999976158142,0.0220947265625,0.02093505859375,1.00628662109375,31.489999771118164,0.0,0.0,9.46044921875E-4,-0.0160675048828125,Waiting,0.0,0.0,0.0,0.0,0.0,0.0,0.0,0.0,
3.9055090000000057,0.0,0.0,2719.0,0.0,0.0,0.0,0.0,0.0,3.85742148,0.0,0.0,-2735.0,0.0,0.0,-0.0,0.0,0.0,1.853027154,0.0,0.0,2663.0,0.0,0.0,0.0,0.0,0.0,4.941405744,0.0,0.0,-2744.0,0.0,0.0,-0.0,0.0,0.0,2.877196971,0.0,0.0012207029999999897,1.3300000429153442,1.2999999523162842,0.4399999976158142,0.02374267578125,0.02203369140625,1.0068359375,31.489999771118164,0.0,0.0,9.46044921875E-4,-0.0160675048828125,Waiting,0.0,0.0,0.0,0.0,0.0,0.0,0.0,0.0,
3.933172000000006,0.0,0.0,2719.0,0.0,0.0,0.0,0.0,0.0,3.858642183,0.0,0.0,-2735.0,0.0,0.0,-0.0,0.0,0.0,1.853027154,0.0,0.0,2663.0,0.0,0.0,0.0,0.0,0.0,4.942626447,0.0,0.0,-2744.0,0.0,0.0,-0.0,0.0,0.0,2.877196971,0.0,0.0012207029999999897,1.3300000429153442,1.2999999523162842,0.4399999976158142,0.0220947265625,0.0242919921875,1.0030517578125,31.489999771118164,0.0,0.0,9.46044921875E-4,-0.0160675048828125,Waiting,0.0,0.0,0.0,0.0,0.0,0.0,0.0,0.0,
3.961893000000004,0.0,0.0,2719.0,0.0,0.0,0.0,0.0,0.0,3.858642183,0.0,0.0,-2735.0,0.0,0.0,-0.0,0.0,0.0,1.854247857,0.0,0.0,2663.0,0.0,0.0,0.0,0.0,0.0,4.941405744,0.0,0.0,-2744.0,0.0,0.0,-0.0,0.0,0.0,2.877196971,0.0,0.0,1.3300000429153442,1.2999999523162842,0.4399999976158142,0.02325439453125,0.0244140625,1.003662109375,31.489999771118164,0.0,0.0,9.46044921875E-4,-0.0160675048828125,Waiting,0.0,0.0,0.0,0.0,0.0,0.0,0.0,0.0,
3.9904780000000026,0.0,0.0,2719.0,0.0,0.0,0.0,0.0,0.0,3.85742148,0.0,0.0,-2735.0,0.0,0.0,-0.0,0.0,0.0,1.854247857,0.0,0.0,2663.0,0.0,0.0,0.0,0.0,0.0,4.941405744,0.0,0.0,-2744.0,0.0,0.0,-0.0,0.0,0.0,2.877196971,0.0,0.0,1.3200000524520874,1.2999999523162842,0.4399999976158142,0.0206298828125,0.02313232421875,1.0086669921875,31.489999771118164,0.0,-2.0,9.46044921875E-4,-0.0160675048828125,Waiting,0.0,0.0,0.0,0.0,0.0,0.0,0.0,0.0,
4.019440000000002,0.0,0.0,2719.0,0.0,0.0,0.0,0.0,0.0,3.858642183,0.0,0.0,-2735.0,0.0,0.0,-0.0,0.0,0.0,1.853027154,0.0,0.0,2663.0,0.0,0.0,0.0,0.0,0.0,4.942626447,0.0,0.0,-2744.0,0.0,0.0,-0.0,0.0,0.0,2.877196971,0.0,-0.0012207029999999897,1.3200000524520874,1.2999999523162842,0.4399999976158142,0.0216064453125,0.02276611328125,1.0068359375,31.489999771118164,0.0,-1.0,9.46044921875E-4,-0.0160675048828125,Waiting,0.0,0.0,0.0,0.0,0.0,0.0,0.0,0.0,
4.046187000000005,0.0,0.0,2719.0,0.0,0.0,0.0,0.0,0.0,3.858642183,0.0,0.0,-2735.0,0.0,0.0,-0.0,0.0,0.0,1.854247857,0.0,0.0,2663.0,0.0,0.0,0.0,0.0,0.0,4.942626447,0.0,0.0,-2744.0,0.0,0.0,-0.0,0.0,0.0,2.877196971,0.0,0.0012207029999999897,1.3200000524520874,1.2899999618530273,0.4300000071525574,0.0235595703125,0.022705078125,1.00274658203125,31.489999771118164,0.0,0.0,9.46044921875E-4,-0.0160675048828125,Waiting,0.0,0.0,0.0,0.0,0.0,0.0,0.0,0.0,
4.073899000000005,0.0,0.0,2719.0,0.0,0.0,0.0,0.0,0.0,3.859862886,0.0,0.0,-2735.0,0.0,0.0,-0.0,0.0,0.0,1.854247857,0.0,0.0,2663.0,0.0,0.0,0.0,0.0,0.0,4.942626447,0.0,0.0,-2744.0,0.0,0.0,-0.0,0.0,0.0,2.877196971,0.0,0.0012207029999999897,1.3200000524520874,1.2999999523162842,0.4300000071525574,0.02239990234375,0.0247802734375,1.00140380859375,31.489999771118164,0.0,0.0,9.46044921875E-4,-0.0160675048828125,Waiting,0.0,0.0,0.0,0.0,0.0,0.0,0.0,0.0,
4.101170000000005,0.0,0.0,2719.0,0.0,0.0,0.0,0.0,0.0,3.85742148,0.0,0.0012207029999999897,-2735.0,0.0,0.0,-0.0,0.0,0.0,1.854247857,0.0,0.0,2663.0,0.0,0.0,0.0,0.0,0.0,4.942626447,0.0,0.0,-2744.0,0.0,0.0,-0.0,0.0,0.0,2.877196971,0.0,0.0,1.3300000429153442,1.2899999618530273,0.4300000071525574,0.02264404296875,0.021728515625,1.00592041015625,31.489999771118164,0.0,0.0,9.46044921875E-4,-0.0160675048828125,Waiting,0.0,0.0,0.0,0.0,0.0,0.0,0.0,0.0,
4.131082000000002,0.0,0.0,2719.0,0.0,0.0,0.0,0.0,0.0,3.858642183,0.0,0.0012207029999999897,-2735.0,0.0,0.0,-0.0,0.0,0.0,1.853027154,0.0,0.0,2663.0,0.0,0.0,0.0,0.0,0.0,4.942626447,0.0,0.0,-2744.0,0.0,0.0,-0.0,0.0,0.0,2.877196971,0.0,0.0,1.3200000524520874,1.2899999618530273,0.4300000071525574,0.0228271484375,0.02435302734375,1.00311279296875,31.489999771118164,0.0,0.0,9.46044921875E-4,-0.0160675048828125,Waiting,0.0,0.0,0.0,0.0,0.0,0.0,0.0,0.0,
4.154561000000002,0.0,0.0,2719.0,0.0,0.0,0.0,0.0,0.0,3.858642183,0.0,0.0,-2735.0,0.0,0.0,-0.0,0.0,0.0,1.853027154,0.0,0.0,2663.0,0.0,0.0,0.0,0.0,0.0,4.942626447,0.0,0.0,-2744.0,0.0,0.0,-0.0,0.0,0.0,2.878417674,0.0,0.0,1.3200000524520874,1.2899999618530273,0.4300000071525574,0.02093505859375,0.02593994140625,1.00286865234375,31.489999771118164,0.0,-1.0,9.46044921875E-4,-0.0160675048828125,Waiting,0.0,0.0,0.0,0.0,0.0,0.0,0.0,0.0,
4.222101000000002,0.0,0.0,2719.0,0.0,0.0,0.0,0.0,0.0,3.858642183,0.0,-0.0012207029999999897,-2735.0,0.0,0.0,-0.0,0.0,0.0,1.854247857,0.0,0.0,2663.0,0.0,0.0,0.0,0.0,0.0,4.941405744,0.0,0.0,-2744.0,0.0,0.0,-0.0,0.0,0.0,2.877196971,0.0,0.0,1.3200000524520874,1.2999999523162842,0.4300000071525574,0.02227783203125,0.02349853515625,1.00537109375,31.489999771118164,0.0,0.0,9.46044921875E-4,-0.0160675048828125,Waiting,0.0,0.0,0.0,0.0,0.0,0.0,0.0,0.0,
4.2534820000000035,0.0,0.0,2719.0,0.0,0.0,0.0,0.0,0.0,3.85742148,0.0,0.0,-2735.0,0.0,0.0,-0.0,0.0,0.0,1.853027154,0.0,0.0,2663.0,0.0,0.0,0.0,0.0,0.0,4.941405744,0.0,0.0,-2744.0,0.0,0.0,-0.0,0.0,0.0,2.877196971,0.0,0.0,1.3200000524520874,1.2999999523162842,0.4300000071525574,0.02264404296875,0.024658203125,1.00146484375,31.489999771118164,0.0,0.0,9.46044921875E-4,-0.0160675048828125,Waiting,0.0,0.0,0.0,0.0,0.0,0.0,0.0,0.0,
4.2857330000000005,0.0,0.0,2719.0,0.0,0.0,0.0,0.0,0.0,3.858642183,0.0,0.0,-2735.0,0.0,0.0,-0.0,0.0,0.0,1.854247857,0.0,0.0,2663.0,0.0,0.0,0.0,0.0,0.0,4.941405744,0.0,0.0,-2744.0,0.0,0.0,-0.0,0.0,0.0,2.877196971,0.0,0.0,1.3200000524520874,1.2999999523162842,0.4300000071525574,0.02301025390625,0.02294921875,1.00238037109375,31.489999771118164,0.0,0.0,9.46044921875E-4,-0.0160675048828125,Waiting,0.0,0.0,0.0,0.0,0.0,0.0,0.0,0.0,
4.308953000000002,0.0,0.0,2719.0,0.0,0.0,0.0,0.0,0.0,3.858642183,0.0,0.0,-2735.0,0.0,0.0,-0.0,0.0,0.0,1.854247857,0.0,0.0,2663.0,0.0,0.0,0.0,0.0,0.0,4.940185041,0.0,0.0,-2744.0,0.0,0.0,-0.0,0.0,0.0,2.878417674,0.0,-0.0012207029999999897,1.3200000524520874,1.2999999523162842,0.4300000071525574,0.0257568359375,0.0238037109375,0.99993896484375,31.489999771118164,0.0,3.0,9.46044921875E-4,-0.0160675048828125,Waiting,0.0,0.0,0.0,0.0,0.0,0.0,0.0,0.0,
4.334645000000004,0.0,0.0,2719.0,0.0,0.0,0.0,0.0,0.0,3.861083589,0.0,0.0,-2735.0,0.0,0.0,-0.0,0.0,0.0,1.853027154,0.0,0.0,2663.0,0.0,0.0,0.0,0.0,0.0,4.942626447,0.0,0.0,-2744.0,0.0,0.0,-0.0,0.0,0.0,2.877196971,0.0,-0.0012207029999999897,1.3200000524520874,1.2999999523162842,0.4300000071525574,0.0220947265625,0.0191650390625,1.00372314453125,31.489999771118164,0.0,0.0,9.46044921875E-4,-0.0160675048828125,Waiting,0.0,0.0,0.0,0.0,0.0,0.0,0.0,0.0,
