Time,ClimberA1,ClimberA2,FRpos,FRCurrent,FRspeed,FRsetpoint,FRApos,FRACurrent,FREncpos,FREncSetpoint,FREncSpeed,FLpos,FLCurrent,FLspeed,FLsetpoint,FLApos,FLACurrent,FLEncpos,FLEncSetpoint,FLEncSpeed,BRpos,BRCurrent,BRspeed,BRsetpoint,BRApos,BRACurrent,BREncpos,BREncSetpoint,BREncSpeed,BLpos,BLCurrent,BLspeed,BLsetpoint,BLApos,BLACurrent,BLEncpos,BLEncSetpoint,BLEncSpeed,navx_Pitch,navx_Roll,navx_Yaw,navx_XAcc,navx_YAcc,navx_ZAcc,navx_Temp,navx_Bar,navx_Alt,navx_XDis,navx_YDis,GearPlacerState,ShootOutputV,ShootOutputCurrent,ShootEncPos,ShootEncVelocity,ShootSpeed,ShootSetpoint,CarouselSetpoint,CarouselCurrent,
0.47855799999999726,0.0,0.0,4287.0,0.0,0.0,0.0,0.0,0.125,3.824462499,0.0,0.0,-4306.0,0.0,0.0,0.0,0.0,0.0,1.822509579,0.0,0.0,4260.0,0.0,0.0,0.0,0.0,0.0,4.8730463760000005,0.0,0.0,-4241.0,0.0,0.0,0.0,0.0,0.0,2.8491208020000003,0.0,0.0,1.3700000047683716,0.7300000190734863,-3.359999895095825,0.01177978515625,0.0223388671875,1.01025390625,33.13999938964844,0.0,-1.0,-9.307861328125E-4,0.0152740478515625,Waiting,0.0,0.0,53506.0,0.0,0.0,0.0,0.0,0.0,
0.5421399999999994,0.0,0.0,4287.0,0.0,0.0,0.0,0.0,0.125,3.809814063,0.0,0.0,-4306.0,0.0,0.0,-0.0,0.0,0.0,1.824950985,0.0,0.0,4260.0,0.0,0.0,0.0,0.0,0.0,4.874267079,0.0,0.0,-4241.0,0.0,0.0,-0.0,0.0,0.0,2.8491208020000003,0.0,0.0,1.3600000143051147,0.7300000190734863,-3.359999895095825,0.01568603515625,0.01373291015625,0.99609375,33.13999938964844,0.0,3.0,-9.307861328125E-4,0.0152740478515625,Waiting,0.0,0.0,53506.0,0.0,0.0,-1600.0,0.0,0.0,
0.5611599999999999,0.0,0.0,4287.0,0.0,0.0,0.0,0.0,0.125,3.809814063,0.0,0.0,-4306.0,0.0,0.0,-0.0,0.0,0.0,1.824950985,0.0,0.0,4260.0,0.0,0.0,0.0,0.0,0.0,4.874267079,0.0,0.0,-4241.0,0.0,0.0,-0.0,0.0,0.0,2.8491208020000003,0.0,0.0,1.3600000143051147,0.7400000095367432,-3.359999895095825,0.01837158203125,0.02166748046875,1.00439453125,33.13999938964844,0.0,5.0,-9.307861328125E-4,0.0152740478515625,Waiting,-12.55,0.5,53506.0,0.0,0.0,-1600.0,0.0,0.0,
0.584369999999999,21.5,0.0,4287.0,0.0,0.0,0.0,0.0,0.125,3.80859336,0.0,0.004882811999999959,-4306.0,0.0,0.0,-0.0,0.0,0.0,1.824950985,0.0,0.0,4260.0,0.0,0.0,0.0,0.0,0.0,4.8730463760000005,0.0,0.0,-4241.0,0.0,0.0,-0.0,0.0,0.0,2.8479000990000003,0.0,0.0,1.350000023841858,0.7400000095367432,-3.359999895095825,0.04071044921875,0.00579833984375,1.01812744140625,33.13999938964844,0.0,28.0,-9.002685546875E-4,0.015228271484375,Waiting,-10.4,29.25,53502.0,-1.0,-7.5,-1600.0,0.0,0.0,
0.602369999999999,21.5,0.0,4287.0,0.0,0.0,0.0,0.0,0.125,3.80859336,0.0,0.004882811999999959,-4306.0,0.0,0.0,-0.0,0.0,0.0,1.824950985,0.0,0.0,4260.0,0.0,0.0,0.0,0.0,0.0,4.8730463760000005,0.0,0.0,-4241.0,0.0,0.0,-0.0,0.0,0.0,2.8479000990000003,0.0,0.0,1.3200000524520874,0.75,-3.359999895095825,0.005126953125,-0.0035400390625,0.97930908203125,33.13999938964844,0.0,-6.0,-7.781982421875E-4,0.01513671875,Waiting,-10.4,54.375,53502.0,-1.0,-7.5,-1600.0,0.0,0.0,
0.6202619999999988,21.5,0.0,4287.0,0.0,0.0,0.0,0.0,0.125,3.809814063,0.0,0.004882811999999959,-4306.0,0.0,0.0,-0.0,0.0,0.0,1.824950985,0.0,0.0,4260.0,0.0,0.0,0.0,0.0,0.0,4.875487782,0.0,0.0,-4241.0,0.0,0.0,-0.0,0.0,0.0,2.8479000990000003,0.0,0.0,1.309999942779541,0.7400000095367432,-3.369999885559082,0.01617431640625,0.02691650390625,0.99053955078125,33.13999938964844,0.0,3.0,-7.781982421875E-4,0.0150299072265625,Waiting,-10.4,80.75,53502.0,-1.0,-30.0,-1600.0,0.0,0.0,
0.641663999999997,21.5,0.0,4287.0,0.0,0.0,0.0,0.0,0.125,3.80859336,0.0,0.0,-4306.0,0.0,0.0,-0.0,0.0,0.0,1.824950985,0.0,0.0,4260.0,0.0,0.0,0.0,0.0,0.0,4.874267079,0.0,0.0,-4241.0,0.0,0.0,-0.0,0.0,0.0,2.8491208020000003,0.0,0.0,1.2999999523162842,0.7400000095367432,-3.369999885559082,0.00360107421875,0.01983642578125,1.01708984375,33.13999938964844,0.0,-9.0,-7.781982421875E-4,0.0150146484375,Waiting,-10.4,80.25,53502.0,-1.0,-67.5,-1600.0,0.0,0.0,
0.6631039999999994,69.75,0.0,4287.0,0.0,0.0,0.0,0.0,0.125,3.80859336,0.0,0.0,-4306.0,0.0,0.0,-0.0,0.0,0.0,1.824950985,0.0,0.0,4260.0,0.0,0.0,0.0,0.0,0.0,4.874267079,0.0,0.0,-4241.0,0.0,0.0,-0.0,0.0,0.0,2.8479000990000003,0.0,0.0,1.2999999523162842,0.7300000190734863,-3.369999885559082,-1.220703125E-4,0.03948974609375,0.99822998046875,33.13999938964844,0.0,-13.0,-7.781982421875E-4,0.014984130859375,Waiting,-10.4,77.25,53502.0,-1.0,-180.0,-1600.0,0.0,0.0,
0.693288999999997,69.75,0.0,4287.0,0.0,0.0,0.0,0.0,0.125,3.80859336,0.0,0.0,-4306.0,0.0,0.0,-0.0,0.0,0.0,1.824950985,0.0,0.0,4260.0,0.0,0.0,0.0,0.0,0.0,4.874267079,0.0,0.0,-4241.0,0.0,0.0,-0.0,0.0,0.0,2.8491208020000003,0.0,0.0,1.2999999523162842,0.7300000190734863,-3.369999885559082,0.01220703125,-0.0098876953125,1.0218505859375,33.13999938964844,0.0,0.0,-7.781982421875E-4,0.0148773193359375,Waiting,-10.4,75.375,53444.0,-37.0,-255.0,-1600.0,0.0,0.0,
0.7133169999999991,69.75,0.0,4287.0,0.0,0.0,0.0,0.0,0.125,3.80859336,0.0,0.0,-4306.0,0.0,0.0,-0.0,0.0,0.0,1.823730282,0.0,0.0,4260.0,0.0,0.0,0.0,0.0,0.0,4.8730463760000005,0.0,0.0,-4241.0,0.0,0.0,-0.0,0.0,0.0,2.8491208020000003,0.0,0.0,1.2899999618530273,0.7300000190734863,-3.369999885559082,0.01507568359375,0.00567626953125,0.96343994140625,33.13999938964844,0.0,3.0,-7.781982421875E-4,0.0147705078125,Waiting,-10.45,73.75,53444.0,-37.0,-330.0,-1600.0,0.0,0.0,
0.7347939999999981,69.75,0.0,4287.0,0.0,0.0,0.0,0.0,0.125,3.80859336,0.0,0.0,-4306.0,0.0,0.0,-0.0,0.0,0.0,1.824950985,0.0,0.0,4260.0,0.0,0.0,0.0,0.0,0.0,4.8730463760000005,0.0,0.0,-4241.0,0.0,0.0,-0.0,0.0,0.0,2.8491208020000003,0.0,0.0,1.2899999618530273,0.7300000190734863,-3.369999885559082,0.0196533203125,0.00164794921875,0.98089599609375,33.13999938964844,0.0,8.0,-7.781982421875E-4,0.0147552490234375,Waiting,-10.45,71.75,53444.0,-37.0,-412.5,-1600.0,0.0,0.0,
0.7533359999999993,69.75,0.0,4287.0,0.0,0.0,0.0,0.0,0.125,3.809814063,0.0,0.0,-4306.0,0.0,0.0,-0.0,0.0,0.0,1.824950985,0.0,0.0,4260.0,0.0,0.0,0.0,0.0,0.0,4.8730463760000005,0.0,0.0,-4241.0,0.0,0.0,-0.0,0.0,0.0,2.8479000990000003,0.0,0.0,1.2899999618530273,0.7300000190734863,-3.369999885559082,0.027587890625,0.02484130859375,0.96978759765625,33.13999938964844,0.0,14.0,-7.781982421875E-4,0.0147247314453125,Waiting,-10.45,70.75,53444.0,-37.0,-487.5,-1600.0,0.0,0.0,
0.7719579999999987,69.75,0.0,4287.0,0.0,0.0,0.0,0.0,0.125,3.80859336,0.0,0.0,-4306.0,0.0,0.0,-0.0,0.0,0.0,1.823730282,0.0,0.0,4260.0,0.0,0.0,0.0,0.0,0.0,4.874267079,0.0,0.0,-4241.0,0.0,0.0,-0.0,0.0,0.0,2.8479000990000003,0.0,0.0,1.2799999713897705,0.7300000190734863,-3.380000114440918,0.02288818359375,0.0135498046875,1.009765625,33.13999938964844,0.0,10.0,-7.781982421875E-4,0.014678955078125,Waiting,-10.45,69.5,53444.0,-37.0,-570.0,-1600.0,0.0,0.0,
0.8014579999999987,69.125,0.0,4287.0,0.0,0.0,0.0,0.0,0.125,3.80859336,0.0,0.0,-4306.0,0.0,0.0,-0.0,0.0,0.0,1.824950985,0.0,0.0,4260.0,0.0,0.0,0.0,0.0,0.0,4.8730463760000005,0.0,0.0,-4241.0,0.0,0.0,-0.0,0.0,0.0,2.8491208020000003,0.0,0.0,1.2799999713897705,0.7300000190734863,-3.380000114440918,0.01593017578125,0.0228271484375,0.98779296875,33.13999938964844,0.0,3.0,-7.781982421875E-4,0.014678955078125,Waiting,-10.45,68.5,53444.0,-37.0,-637.5,-1600.0,0.0,0.0,
0.8223279999999977,69.125,0.0,4287.0,0.0,0.0,0.0,0.0,0.125,3.80859336,0.0,0.0,-4306.0,0.0,0.0,-0.0,0.0,0.0,1.823730282,0.0,0.0,4260.0,0.0,0.0,0.0,0.0,0.0,4.871825673,0.0,0.0,-4241.0,0.0,0.0,-0.0,0.0,0.0,2.8491208020000003,0.0,0.0,1.2899999618530273,0.7200000286102295,-3.380000114440918,-0.02386474609375,0.01068115234375,0.96014404296875,33.13999938964844,0.0,-35.0,-7.9345703125E-4,0.014678955078125,Waiting,-10.600000000000001,67.375,53318.0,-95.0,-712.5,-1600.0,0.0,0.0,
0.8439729999999981,69.125,0.0,4287.0,0.0,0.0,0.0,0.0,0.125,3.809814063,0.0,0.0,-4306.0,0.0,0.0,-0.0,0.0,0.0,1.824950985,0.0,0.0,4260.0,0.0,0.0,0.0,0.0,0.0,4.8730463760000005,0.0,0.0,-4241.0,0.0,0.0,-0.0,0.0,0.0,2.8479000990000003,0.0,0.0,1.25,0.7200000286102295,-3.380000114440918,0.01043701171875,0.06414794921875,1.0457763671875,33.13999938964844,0.0,-5.0,-7.781982421875E-4,0.0146026611328125,Waiting,-10.600000000000001,66.0,53318.0,-95.0,-787.5,-1600.0,0.0,0.0,
0.8601759999999995,69.75,0.0,4287.0,0.0,0.0,0.0,0.0,0.125,3.80859336,0.0,0.0,-4306.0,0.0,0.0,-0.0,0.0,0.0,1.824950985,0.0,0.0,4260.0,0.0,0.0,0.0,0.0,0.0,4.874267079,0.0,0.0,-4241.0,0.0,0.0,-0.0,0.0,0.0,2.8479000990000003,0.0,0.0,1.2799999713897705,0.7099999785423279,-3.380000114440918,-0.00518798828125,-0.046875,0.94244384765625,33.13999938964844,0.0,-12.0,-7.781982421875E-4,0.0145263671875,Waiting,-10.600000000000001,64.875,53318.0,-95.0,-855.0,-1600.0,0.0,0.0,
0.8781299999999974,69.75,0.0,4287.0,0.0,0.0,0.0,0.0,0.125,3.80859336,0.0,0.0,-4306.0,0.0,0.0,-0.0,0.0,0.0,1.824950985,0.0,0.0,4260.0,0.0,0.0,0.0,0.0,0.0,4.874267079,0.0,0.0,-4241.0,0.0,0.0,-0.0,0.0,0.0,2.8479000990000003,0.0,0.0,1.2599999904632568,0.7200000286102295,-3.380000114440918,-0.0289306640625,0.1143798828125,1.0240478515625,33.13999938964844,0.0,-47.0,-8.23974609375E-4,0.0144805908203125,Waiting,-10.600000000000001,64.875,53318.0,-95.0,-930.0,-1600.0,0.0,0.0,
0.8992469999999994,69.75,0.0,4287.0,0.0,0.0,0.0,0.0,0.125,3.80859336,0.0,0.0,-4306.0,0.0,0.0,-0.0,0.0,0.0,1.823730282,0.0,0.0,4260.0,0.0,0.0,0.0,0.0,0.0,4.8730463760000005,0.0,0.0,-4241.0,0.0,0.0,-0.0,0.0,0.0,2.8479000990000003,0.0,0.0,1.2599999904632568,0.7099999785423279,-3.369999885559082,-0.02423095703125,0.0975341796875,0.9925537109375,33.13999938964844,0.0,-41.0,-9.307861328125E-4,0.0145416259765625,Waiting,-10.600000000000001,63.75,53318.0,-95.0,-930.0,-1600.0,0.0,0.0,
0.9239439999999995,69.5,0.0,4287.0,0.0,0.0,0.0,0.0,0.125,3.80859336,0.0,0.0,-4306.0,0.0,0.0,-0.0,0.0,0.0,1.824950985,0.0,0.0,4260.0,0.0,0.0,0.0,0.0,0.0,4.871825673,0.0,0.0,-4241.0,0.0,0.0,-0.0,0.0,0.0,2.8479000990000003,0.0,0.0,1.2899999618530273,0.699999988079071,-3.380000114440918,-0.0767822265625,0.0545654296875,0.95684814453125,33.13999938964844,0.0,-90.0,-0.0012969970703125,0.0149688720703125,Waiting,-10.600000000000001,61.625,53318.0,-95.0,-1065.0,-1600.0,0.0,0.0,
0.9457969999999987,69.5,0.0,4287.0,0.0,0.0,0.0,0.0,0.125,3.80859336,0.0,0.0,-4306.0,0.0,0.0,-0.0,0.0,0.0,1.824950985,0.0,0.0,4260.0,0.0,0.0,0.0,0.0,0.0,4.8730463760000005,0.0,0.0,-4241.0,0.0,0.0,-0.0,0.0,0.0,2.8479000990000003,0.0,0.0,1.2999999523162842,0.7099999785423279,-3.380000114440918,0.06610107421875,0.07781982421875,1.0198974609375,33.13999938964844,0.0,50.0,-0.0019073486328125,0.015533447265625,Waiting,-10.7,60.75,53129.0,-148.0,-1125.0,-1600.0,0.0,0.0,
0.9686989999999969,69.5,0.0,4287.0,0.0,0.0,0.0,0.0,0.125,3.80859336,0.0,0.0,-4306.0,0.0,0.0,-0.0,0.0,0.0,1.823730282,0.0,0.0,4260.0,0.0,0.0,0.0,0.0,0.0,4.8730463760000005,0.0,0.0,-4241.0,0.0,0.0,-0.0,0.0,0.0,2.8479000990000003,0.0,0.0,1.3200000524520874,0.7099999785423279,-3.380000114440918,0.02197265625,0.0556640625,1.041748046875,33.13999938964844,0.0,7.0,-0.0021514892578125,0.01617431640625,Waiting,-10.7,59.125,53129.0,-148.0,-1192.5,-1600.0,0.0,0.0,
0.9993079999999973,68.125,0.0,4287.0,0.0,0.0,0.0,0.0,0.125,3.809814063,0.0,0.0,-4306.0,0.0,0.0,-0.0,0.0,0.0,1.824950985,0.0,0.0,4260.0,0.0,0.0,0.0,0.0,0.0,4.8730463760000005,0.0,0.0,-4241.0,0.0,0.0,-0.0,0.0,0.0,2.8552243170000002,0.0,0.0,1.3200000524520874,0.7200000286102295,-3.380000114440918,0.03851318359375,0.021728515625,1.02783203125,33.13999938964844,0.0,25.0,-0.00213623046875,0.0165252685546875,Waiting,-10.7,56.625,53129.0,-148.0,-1252.5,-1600.0,0.0,0.0,
1.0134709999999978,68.125,0.0,4287.0,0.0,0.0,0.0,0.0,0.125,3.80859336,0.0,0.0,-4306.0,0.0,0.0,-0.0,0.0,0.0,1.824950985,0.0,0.0,4260.0,0.0,0.0,0.0,0.0,0.0,4.8730463760000005,0.0,0.0,-4241.0,0.0,0.0,-0.0,0.0,0.0,2.8491208020000003,0.0,0.0,1.3200000524520874,0.7200000286102295,-3.380000114440918,0.0384521484375,0.068359375,1.0592041015625,33.13999938964844,0.0,22.0,-0.0020751953125,0.0168914794921875,Waiting,-8.085141739980449,52.75,53129.0,-148.0,-1372.5,-1600.0,0.0,0.0,
1.0504470000000001,56.75,0.0,4287.0,0.0,0.0,0.0,0.0,0.125,3.807372657,0.0,0.0,-4306.0,0.0,0.0,-0.0,0.0,0.0,1.823730282,0.0,0.0,4260.0,0.0,0.0,0.0,0.0,0.0,4.8730463760000005,0.0,0.0,-4241.0,0.0,0.0,-0.0,0.0,0.0,2.8479000990000003,0.0,0.0,1.3200000524520874,0.7300000190734863,-3.380000114440918,0.00360107421875,0.01531982421875,1.00115966796875,33.13999938964844,0.0,-8.0,-0.0019989013671875,0.017974853515625,Waiting,-6.777712609970674,40.0,53129.0,-148.0,-1425.0,-1600.0,0.0,0.0,
1.0677219999999978,56.75,0.0,4287.0,0.0,0.0,0.0,0.0,0.125,3.80859336,0.0,0.0,-4306.0,0.0,0.0,-0.0,0.0,0.0,1.822509579,0.0,0.0,4260.0,0.0,0.0,0.0,0.0,0.0,4.8730463760000005,0.0,0.0,-4241.0,0.0,0.0,-0.0,0.0,0.0,2.8479000990000003,0.0,0.0,1.3200000524520874,0.7300000190734863,-3.380000114440918,0.0198974609375,0.041748046875,1.0166015625,33.13999938964844,0.0,5.0,-0.0019989013671875,0.018310546875,Waiting,-8.700879765395895,32.5,52888.0,-193.0,-1477.5,-1600.0,0.0,0.0,
1.0942319999999999,56.75,0.0,4287.0,0.0,0.0,0.0,0.0,0.125,3.80859336,0.0,0.0,-4306.0,0.0,0.0,-0.0,0.0,0.0,1.824950985,0.0,0.0,4260.0,0.0,0.0,0.0,0.0,0.0,4.8730463760000005,0.0,0.0,-4241.0,0.0,0.0,-0.0,0.0,0.0,2.8491208020000003,0.0,0.0,1.3200000524520874,0.7200000286102295,-3.380000114440918,0.058349609375,0.026611328125,1.00201416015625,33.13999938964844,0.0,45.0,-0.00189208984375,0.018310546875,Waiting,-7.835288367546432,25.25,52888.0,-193.0,-1530.0,-1600.0,0.0,0.0,
1.1123580000000002,34.875,0.0,4287.0,0.0,0.0,0.0,0.0,0.125,3.807372657,0.0,0.0,-4306.0,0.0,0.0,-0.0,0.0,0.0,1.824950985,0.0,0.0,4260.0,0.0,0.0,0.0,0.0,0.0,4.8730463760000005,0.0,0.0,-4241.0,0.0,0.0,-0.0,0.0,0.0,2.8479000990000003,0.0,0.0,1.3200000524520874,0.7300000190734863,-3.380000114440918,0.03302001953125,0.008056640625,1.0250244140625,33.13999938964844,0.0,20.0,-0.00177001953125,0.018310546875,Waiting,-7.104594330400782,19.875,52888.0,-193.0,-1567.5,-1600.0,0.0,0.0,
1.1310509999999996,34.875,0.0,4287.0,0.0,0.0,0.0,0.0,0.125,3.823241796,0.0,0.0,-4306.0,0.0,0.0,-0.0,0.0,0.0,1.824950985,0.0,0.0,4260.0,0.0,0.0,0.0,0.0,0.0,4.8730463760000005,0.0,0.0,-4241.0,0.0,0.0,-0.0,0.0,0.0,2.8479000990000003,0.0,0.0,1.3200000524520874,0.7200000286102295,-3.380000114440918,0.0284423828125,0.01605224609375,0.99951171875,33.13999938964844,0.0,16.0,-0.001617431640625,0.018310546875,Waiting,-6.733626588465298,15.25,52888.0,-193.0,-1605.0,-1600.0,0.0,0.0,
1.1481899999999987,34.875,0.0,4287.0,0.0,0.0,0.0,0.0,0.125,3.807372657,0.0,0.0,-4306.0,0.0,0.0,-0.0,0.0,0.0,1.824950985,0.0,0.0,4260.0,0.0,0.0,0.0,0.0,0.0,4.8730463760000005,0.0,0.0,-4241.0,0.0,0.0,-0.0,0.0,0.0,2.8479000990000003,0.0,0.0,1.3300000429153442,0.7200000286102295,-3.380000114440918,0.0338134765625,0.00238037109375,1.01708984375,33.13999938964844,0.0,22.0,-0.001434326171875,0.0182952880859375,Waiting,-6.23900293255132,15.25,52888.0,-193.0,-1605.0,-1600.0,0.0,0.0,
1.1636619999999966,14.0,0.0,4287.0,0.0,0.0,0.0,0.0,0.125,3.80859336,0.0,0.0,-4306.0,0.0,0.0,-0.0,0.0,0.0,1.824950985,0.0,0.0,4260.0,0.0,0.0,0.0,0.0,0.0,4.876708485,0.0,0.0,-4241.0,0.0,0.0,-0.0,0.0,0.0,2.8479000990000003,0.0,0.0,1.340000033378601,0.7300000190734863,-3.380000114440918,0.02972412109375,0.0130615234375,0.9949951171875,33.13999938964844,0.0,17.0,-0.001220703125,0.0182647705078125,Waiting,-5.980449657869013,11.875,52888.0,-193.0,-1635.0,-1600.0,0.0,0.0,
1.1844839999999968,14.0,0.0,4287.0,0.0,0.0,0.0,0.0,0.125,3.80859336,0.0,0.0,-4306.0,0.0,0.0,-0.0,0.0,0.0,1.824950985,0.0,0.0,4260.0,0.0,0.0,0.0,0.0,0.0,4.874267079,0.0,0.0,-4241.0,0.0,0.0,-0.0,0.0,0.0,2.8479000990000003,0.0,0.0,1.340000033378601,0.7300000190734863,-3.380000114440918,0.0335693359375,0.01715087890625,1.01739501953125,33.13999938964844,0.0,20.0,-9.918212890625E-4,0.018218994140625,Waiting,-5.902785923753666,9.25,52617.0,-222.0,-1657.5,-1600.0,0.0,0.0,
1.1995519999999997,14.0,0.0,4287.0,0.0,0.0,0.0,0.0,0.125,3.812255469,0.0,0.0,-4306.0,0.0,0.0,-0.0,0.0,0.0,1.824950985,0.0,0.0,4260.0,0.0,0.0,0.0,0.0,0.0,4.874267079,0.0,0.0,-4241.0,0.0,0.0,-0.0,0.0,0.0,2.8491208020000003,0.0,0.0,1.340000033378601,0.7400000095367432,-3.380000114440918,0.03619384765625,0.03424072265625,0.98101806640625,33.13999938964844,0.0,22.0,-7.32421875E-4,0.018218994140625,Waiting,-5.629618768328446,7.375,52617.0,-222.0,-1672.5,-1600.0,0.0,0.0,
1.2181529999999985,14.0,0.0,4287.0,0.0,0.0,0.0,0.0,0.125,3.809814063,0.0,0.0,-4306.0,0.0,0.0,-0.0,0.0,0.0,1.824950985,0.0,0.0,4260.0,0.0,0.0,0.0,0.0,0.0,4.874267079,0.0,0.0,-4241.0,0.0,0.0,-0.0,0.0,0.0,2.8479000990000003,0.0,0.0,1.340000033378601,0.75,-3.380000114440918,0.03948974609375,0.03082275390625,0.9901123046875,33.13999938964844,0.0,25.0,-4.2724609375E-4,0.018218994140625,Waiting,-5.463343108504398,7.375,52617.0,-222.0,-1672.5,-1600.0,0.0,0.0,
1.2375699999999996,7.625,0.0,4287.0,0.0,0.0,0.0,0.0,0.125,3.80859336,0.0,0.0,-4306.0,0.0,0.0,-0.0,0.0,0.0,1.824950985,0.0,0.0,4260.0,0.0,0.0,0.0,0.0,0.0,4.8730463760000005,0.0,0.0,-4241.0,0.0,0.0,-0.0,0.0,0.0,2.8479000990000003,0.0,0.0,1.3300000429153442,0.7699999809265137,-3.390000104904175,0.0367431640625,0.02191162109375,1.0130615234375,33.15999984741211,0.0,23.0,2.44140625E-4,0.018218994140625,Waiting,-5.166422287390029,6.125,52617.0,-222.0,-1687.5,-1600.0,0.0,0.0,
1.258047999999999,7.625,0.0,4287.0,0.0,0.0,0.0,0.0,0.125,3.809814063,0.0,0.0,-4306.0,0.0,0.0,-0.0,0.0,0.0,1.824950985,0.0,0.0,4260.0,0.0,0.0,0.0,0.0,0.0,4.8730463760000005,0.0,0.0,-4241.0,0.0,0.0,-0.0,0.0,0.0,2.8479000990000003,0.0,0.0,1.3200000524520874,0.7799999713897705,-3.390000104904175,0.016357421875,0.04486083984375,1.0299072265625,33.15999984741211,0.0,1.0,6.256103515625E-4,0.0182342529296875,Waiting,-5.012023460410558,5.25,52617.0,-222.0,-1695.0,-1600.0,0.0,0.0,
1.2803429999999971,7.625,0.0,4287.0,0.0,0.0,0.0,0.0,0.125,3.80859336,0.0,0.0,-4306.0,0.0,0.0,-0.0,0.0,0.0,1.824950985,0.0,0.0,4260.0,0.0,0.0,0.0,0.0,0.0,4.874267079,0.0,0.0,-4241.0,0.0,0.0,-0.0,0.0,0.0,2.8479000990000003,0.0,0.0,1.3200000524520874,0.7799999713897705,-3.390000104904175,0.0172119140625,0.01910400390625,1.03436279296875,33.15999984741211,0.0,3.0,0.001007080078125,0.018310546875,Waiting,-4.976392961876833,4.625,52617.0,-222.0,-1702.5,-1600.0,0.0,0.0,
1.2989739999999983,7.625,0.0,4287.0,0.0,0.0,0.0,0.0,0.125,3.80859336,0.0,0.0,-4306.0,0.0,0.0,-0.0,0.0,0.0,1.823730282,0.0,0.0,4260.0,0.0,0.0,0.0,0.0,0.0,4.874267079,0.0,0.0,-4241.0,0.0,0.0,-0.0,0.0,0.0,2.8479000990000003,0.0,0.0,1.2999999523162842,0.7900000214576721,-3.390000104904175,0.00738525390625,0.03662109375,0.98724365234375,33.15999984741211,0.0,-7.0,0.001007080078125,0.018310546875,Waiting,-4.9645161290322575,4.25,52617.0,-222.0,-1702.5,-1600.0,0.0,0.0,
1.3177799999999988,5.25,0.0,4287.0,0.0,0.0,0.0,0.0,0.125,3.809814063,0.0,0.0,-4306.0,0.0,0.0,-0.0,0.0,0.0,1.824950985,0.0,0.0,4260.0,0.0,0.0,0.0,0.0,0.0,4.874267079,0.0,0.0,-4241.0,0.0,0.0,-0.0,0.0,0.0,2.8491208020000003,0.0,0.0,1.2899999618530273,0.800000011920929,-3.390000104904175,0.0103759765625,0.0245361328125,0.9945068359375,33.15999984741211,0.0,-3.0,0.001007080078125,0.018310546875,Waiting,-4.8574780058651035,4.125,52346.0,-227.0,-1702.5,-1600.0,0.0,0.0,
1.3374089999999996,5.25,0.0,4287.0,0.0,0.0,0.0,0.0,0.125,3.80859336,0.0,0.0,-4306.0,0.0,0.0,-0.0,0.0,0.0,1.824950985,0.0,0.0,4260.0,0.0,0.0,0.0,0.0,0.0,4.8730463760000005,0.0,0.0,-4241.0,0.0,0.0,-0.0,0.0,0.0,2.8479000990000003,0.0,0.0,1.2899999618530273,0.800000011920929,-3.4000000953674316,0.0179443359375,0.024169921875,1.00335693359375,33.15999984741211,0.0,3.0,0.001007080078125,0.018310546875,Waiting,-4.9536656891495605,3.75,52346.0,-227.0,-1710.0,-1600.0,0.0,0.0,
1.3589079999999993,4.375,0.0,4287.0,0.0,0.0,0.0,0.0,0.125,3.80859336,0.0,0.0,-4306.0,0.0,0.0,-0.0,0.0,0.0,1.824950985,0.0,0.0,4260.0,0.0,0.0,0.0,0.0,0.0,4.8730463760000005,0.0,0.0,-4241.0,0.0,0.0,-0.0,0.0,0.0,2.8479000990000003,0.0,0.0,1.2599999904632568,0.800000011920929,-3.4000000953674316,0.01861572265625,0.0313720703125,1.0067138671875,33.15999984741211,0.0,3.0,0.0010528564453125,0.018310546875,Waiting,-4.917595307917889,3.875,52346.0,-227.0,-1702.5,-1600.0,0.0,0.0,
1.3786929999999993,4.375,0.0,4287.0,0.0,0.0,0.0,0.0,0.125,3.80859336,0.0,0.0,-4306.0,0.0,0.0,-0.0,0.0,0.0,1.824950985,0.0,0.0,4260.0,0.0,0.0,0.0,0.0,0.0,4.874267079,0.0,0.0,-4241.0,0.0,0.0,-0.0,0.0,0.0,2.8479000990000003,0.0,0.0,1.2400000095367432,0.8100000023841858,-3.4000000953674316,0.01104736328125,0.03851318359375,1.01806640625,33.15999984741211,0.0,-4.0,0.0010986328125,0.018310546875,Waiting,-4.881524926686217,3.75,52346.0,-227.0,-1702.5,-1600.0,0.0,0.0,
1.398304,4.375,0.0,4287.0,0.0,0.0,0.0,0.0,0.125,3.807372657,0.0,0.0,-4306.0,0.0,0.0,-0.0,0.0,0.0,1.824950985,0.0,0.0,4260.0,0.0,0.0,0.0,0.0,0.0,4.875487782,0.0,0.0,-4241.0,0.0,0.0,-0.0,0.0,0.0,2.8479000990000003,0.0,0.0,1.2200000286102295,0.8100000023841858,-3.4000000953674316,-0.008056640625,0.01275634765625,1.04925537109375,33.15999984741211,0.0,-22.0,0.0010833740234375,0.018310546875,Waiting,-4.8695014662756595,3.75,52346.0,-227.0,-1702.5,-1600.0,0.0,0.0,
1.4190489999999991,4.375,0.0,4287.0,0.0,0.0,0.0,0.0,0.125,3.809814063,0.0,0.0,-4306.0,0.0,0.0,-0.0,0.0,0.0,1.824950985,0.0,0.0,4260.0,0.0,0.0,0.0,0.0,0.0,4.8730463760000005,0.0,0.0,-4241.0,0.0,0.0,-0.0,0.0,0.0,2.8479000990000003,0.0,0.0,1.2100000381469727,0.800000011920929,-3.4100000858306885,-9.1552734375E-4,0.019775390625,1.0325927734375,33.15999984741211,0.0,-15.0,0.00103759765625,0.018310546875,Waiting,-4.965689149560117,3.875,52346.0,-227.0,-1695.0,-1600.0,0.0,0.0,
1.4386309999999976,3.75,0.0,4287.0,0.0,0.0,0.0,0.0,0.125,3.809814063,0.0,0.0,-4306.0,0.0,0.0,-0.0,0.0,0.0,1.824950985,0.0,0.0,4260.0,0.0,0.0,0.0,0.0,0.0,4.874267079,0.0,0.0,-4241.0,0.0,0.0,-0.0,0.0,0.0,2.8491208020000003,0.0,0.0,1.2000000476837158,0.7900000214576721,-3.4100000858306885,-0.0091552734375,0.0272216796875,1.013916015625,33.15999984741211,0.0,-23.0,9.613037109375E-4,0.018310546875,Waiting,-4.921554252199414,3.875,52074.0,-226.0,-1695.0,-1600.0,0.0,0.0,
1.4577559999999976,3.75,0.0,4287.0,0.0,0.0,0.0,0.0,0.125,3.80859336,0.0,0.0,-4306.0,0.0,0.0,-0.0,0.0,0.0,1.8310545,0.0,0.0,4260.0,0.0,0.0,0.0,0.0,0.0,4.874267079,0.0,0.0,-4241.0,0.0,0.0,-0.0,0.0,0.0,2.8491208020000003,0.0,0.0,1.1699999570846558,0.7599999904632568,-3.4100000858306885,-0.0107421875,0.041259765625,1.01715087890625,33.15999984741211,0.0,-25.0,7.171630859375E-4,0.018280029296875,Waiting,-4.885630498533724,3.875,52074.0,-226.0,-1695.0,-1600.0,0.0,0.0,
1.477841999999997,4.5,0.0,4287.0,0.0,0.0,0.0,0.0,0.125,3.809814063,0.0,0.0,-4306.0,0.0,0.0,-0.0,0.0,0.0,1.824950985,0.0,0.0,4260.0,0.0,0.0,0.0,0.0,0.0,4.874267079,0.0,0.0,-4241.0,0.0,0.0,-0.0,0.0,0.0,2.8491208020000003,0.0,0.0,1.149999976158142,0.7599999904632568,-3.4200000762939453,0.0030517578125,0.04931640625,1.0062255859375,33.15999984741211,0.0,-12.0,5.645751953125E-4,0.0182952880859375,Waiting,-4.981427174975562,3.875,52074.0,-226.0,-1695.0,-1600.0,0.0,0.0,
1.4981859999999978,4.5,0.0,4287.0,0.0,0.0,0.0,0.0,0.125,3.809814063,0.0,0.0,-4306.0,0.0,0.0,-0.0,0.0,0.0,1.8310545,0.0,0.0,4260.0,0.0,0.0,0.0,0.0,0.0,4.8730463760000005,0.0,0.0,-4241.0,0.0,0.0,-0.0,0.0,0.0,2.8491208020000003,0.0,0.0,1.159999966621399,0.75,-3.4200000762939453,0.00921630859375,0.05181884765625,1.009765625,33.15999984741211,0.0,-5.0,3.814697265625E-4,0.018341064453125,Waiting,-4.969452590420333,4.0,52074.0,-226.0,-1687.5,-1600.0,0.0,0.0,
1.517574999999997,4.5,0.0,4287.0,0.0,0.0,0.0,0.0,0.125,3.804931251,0.0,0.0,-4306.0,0.0,0.0,-0.0,0.0,0.0,1.824950985,0.0,0.0,4260.0,0.0,0.0,0.0,0.0,0.0,4.8730463760000005,0.0,0.0,-4241.0,0.0,0.0,-0.0,0.0,0.0,2.8540036140000002,0.0,0.0,1.149999976158142,0.7599999904632568,-3.4200000762939453,-0.006591796875,0.05255126953125,0.98291015625,33.15999984741211,0.0,-21.0,1.983642578125E-4,0.0184326171875,Waiting,-4.945503421309873,4.0,52074.0,-226.0,-1687.5,-1600.0,0.0,0.0,
1.537297999999999,4.5,0.0,4287.0,0.0,0.0,0.0,0.0,0.125,3.811034766,0.0,0.0,-4306.0,0.0,0.0,-0.0,0.0,0.0,1.824950985,0.0,0.0,4260.0,0.0,0.0,0.0,0.0,0.0,4.874267079,0.0,0.0,-4241.0,0.0,0.0,-0.0,0.0,0.0,2.8479000990000003,0.0,0.0,1.1699999570846558,0.75,-3.4200000762939453,-0.0133056640625,0.07452392578125,1.01422119140625,33.15999984741211,0.0,-29.0,-3.35693359375E-4,0.0188140869140625,Waiting,-4.921554252199414,4.125,52074.0,-226.0,-1687.5,-1600.0,0.0,0.0,
1.558596999999998,4.625,0.0,4287.0,0.0,0.0,0.0,0.0,0.125,3.809814063,0.0,0.0,-4306.0,0.0,0.0,-0.0,0.0,0.0,1.824950985,0.0,0.0,4260.0,0.0,0.0,0.0,0.0,0.0,4.874267079,0.0,0.0,-4241.0,0.0,0.0,-0.0,0.0,0.0,2.8479000990000003,0.0,0.0,1.1799999475479126,0.75,-3.4200000762939453,-0.009765625,0.04241943359375,1.01593017578125,33.15999984741211,0.0,-24.0,-6.7138671875E-4,0.01910400390625,Waiting,-5.0378299120234615,4.125,51804.0,-225.0,-1680.0,-1600.0,0.0,0.0,
1.579471999999998,4.625,0.0,4287.0,0.0,0.0,0.0,0.0,0.125,3.80859336,0.0,0.0,-4306.0,0.0,0.0,-0.0,0.0,0.0,1.824950985,0.0,0.0,4260.0,0.0,0.0,0.0,0.0,0.0,4.8730463760000005,0.0,0.0,-4241.0,0.0,0.0,-0.0,0.0,0.0,2.8491208020000003,0.0,0.0,1.2000000476837158,0.7400000095367432,-3.430000066757202,-0.01312255859375,0.071533203125,1.0079345703125,33.15999984741211,0.0,-29.0,-0.00146484375,0.0198211669921875,Waiting,-5.013782991202347,4.125,51804.0,-225.0,-1680.0,-1600.0,0.0,0.0,
1.5980699999999997,4.625,0.0,4287.0,0.0,0.0,0.0,0.0,0.125,3.80859336,0.0,0.0,-4306.0,0.0,0.0,-0.0,0.0,0.0,1.824950985,0.0,0.0,4260.0,0.0,0.0,0.0,0.0,0.0,4.8730463760000005,0.0,0.0,-4241.0,0.0,0.0,-0.0,0.0,0.0,2.8491208020000003,0.0,0.0,1.2000000476837158,0.7400000095367432,-3.440000057220459,-0.01287841796875,0.057373046875,1.0341796875,33.15999984741211,0.0,-28.0,-0.001922607421875,0.0202789306640625,Waiting,-5.001759530791789,4.125,51804.0,-225.0,-1680.0,-1600.0,0.0,0.0,
1.619860999999997,4.75,0.0,4287.0,0.0,0.0,0.0,0.0,0.125,3.80859336,0.0,0.0,-4306.0,0.0,0.0,-0.0,0.0,0.0,1.824950985,0.0,0.0,4260.0,0.0,0.0,0.0,0.0,0.0,4.8730463760000005,0.0,0.0,-4241.0,0.0,0.0,-0.0,0.0,0.0,2.8503415050000003,0.0,0.0,1.2000000476837158,0.7400000095367432,-3.440000057220459,-0.00360107421875,0.0655517578125,1.0052490234375,33.15999984741211,0.0,-19.0,-0.0024261474609375,0.020782470703125,Waiting,-4.977712609970675,4.125,51804.0,-225.0,-1680.0,-1600.0,0.0,0.0,
1.6378099999999978,4.75,0.0,4287.0,0.0,0.0,0.0,0.0,0.125,3.80859336,0.0,0.0,-4306.0,0.0,0.0,-0.0,0.0,0.0,1.824950985,0.0,0.0,4260.0,0.0,0.0,0.0,0.0,0.0,4.871825673,0.0,0.0,-4241.0,0.0,0.0,-0.0,0.0,0.0,2.8479000990000003,0.0,0.0,1.2000000476837158,0.7400000095367432,-3.440000057220459,0.0096435546875,0.06805419921875,0.9765625,33.15999984741211,0.0,-5.0,-0.0029296875,0.0213470458984375,Waiting,-4.9536656891495605,4.125,51804.0,-225.0,-1680.0,-1600.0,0.0,0.0,
1.6584329999999972,4.75,0.0,4287.0,0.0,0.0,0.0,0.0,0.125,3.80859336,0.0,0.0,-4306.0,0.0,0.0,-0.0,0.0,0.0,1.824950985,0.0,0.0,4260.0,0.0,0.0,0.0,0.0,0.0,4.874267079,0.0,0.0,-4241.0,0.0,0.0,-0.0,0.0,0.0,2.8491208020000003,0.0,0.0,1.2200000286102295,0.75,-3.450000047683716,9.1552734375E-4,0.05523681640625,1.0123291015625,33.15999984741211,0.0,-14.0,-0.0029296875,0.0226593017578125,Waiting,-4.917595307917889,4.0,51804.0,-225.0,-1680.0,-1600.0,0.0,0.0,
1.6781649999999972,4.125,0.0,4287.0,0.0,0.0,0.0,0.0,0.125,3.80859336,0.0,0.0,-4306.0,0.0,0.0,-0.0,0.0,0.0,1.824950985,0.0,0.0,4260.0,0.0,0.0,0.0,0.0,0.0,4.874267079,0.0,0.0,-4241.0,0.0,0.0,-0.0,0.0,0.0,2.8491208020000003,0.0,0.0,1.2200000286102295,0.7599999904632568,-3.4600000381469727,-0.01080322265625,0.02099609375,1.02850341796875,33.15999984741211,0.0,-24.0,-0.002960205078125,0.0233612060546875,Waiting,-5.0378299120234615,3.875,51536.0,-224.0,-1680.0,-1600.0,0.0,0.0,
1.6983479999999982,4.125,0.0,4287.0,0.0,0.0,0.0,0.0,0.125,3.80859336,0.0,0.0,-4306.0,0.0,0.0,-0.0,0.0,0.0,1.824950985,0.0,0.0,4260.0,0.0,0.0,0.0,0.0,0.0,4.8730463760000005,0.0,0.0,-4241.0,0.0,0.0,-0.0,0.0,0.0,2.8479000990000003,0.0,0.0,1.2200000286102295,0.7599999904632568,-3.4700000286102295,-0.005615234375,-0.0068359375,1.01568603515625,33.15999984741211,0.0,-17.0,-0.003021240234375,0.0240478515625,Waiting,-5.013782991202347,4.25,51536.0,-224.0,-1672.5,-1600.0,0.0,0.0,
1.7178459999999978,4.125,0.0,4287.0,0.0,0.0,0.0,0.0,0.125,3.80859336,0.0,0.0,-4306.0,0.0,0.0,-0.0,0.0,0.0,1.824950985,0.0,0.0,4260.0,0.0,0.0,0.0,0.0,0.0,4.8730463760000005,0.0,0.0,-4241.0,0.0,0.0,-0.0,0.0,0.0,2.8491208020000003,0.0,0.0,1.2000000476837158,0.75,-3.4700000286102295,0.0089111328125,-0.01654052734375,0.9959716796875,33.15999984741211,0.0,-1.0,-0.0030975341796875,0.025299072265625,Waiting,-5.001759530791789,4.375,51536.0,-224.0,-1672.5,-1600.0,0.0,0.0,
1.742078999999998,4.75,0.0,4287.0,0.0,0.0,0.0,0.0,0.125,3.80859336,0.0,0.0,-4306.0,0.0,0.0,-0.0,0.0,0.0,1.824950985,0.0,0.0,4260.0,0.0,0.0,0.0,0.0,0.0,4.875487782,0.0,0.0,-4241.0,0.0,0.0,-0.0,0.0,0.0,2.8479000990000003,0.0,0.0,1.190000057220459,0.75,-3.4700000286102295,0.01116943359375,-0.02838134765625,0.997802734375,33.15999984741211,0.0,0.0,-0.0030975341796875,0.0258331298828125,Waiting,-4.977712609970675,4.375,51536.0,-224.0,-1672.5,-1600.0,0.0,0.0,
1.7596369999999988,4.75,0.0,4287.0,0.0,0.0,0.0,0.0,0.125,3.80859336,0.0,0.0,-4306.0,0.0,0.0,-0.0,0.0,0.0,1.824950985,0.0,0.0,4260.0,0.0,0.0,0.0,0.0,0.0,4.8730463760000005,0.0,0.0,-4241.0,0.0,0.0,-0.0,0.0,0.0,2.8479000990000003,0.0,0.0,1.2000000476837158,0.75,-3.4800000190734863,0.01959228515625,0.00360107421875,0.982421875,33.130001068115234,0.0,7.0,-0.0030975341796875,0.026336669921875,Waiting,-4.9536656891495605,4.125,51536.0,-224.0,-1672.5,-1600.0,0.0,0.0,
1.7831469999999972,4.75,0.0,4287.0,0.0,0.0,0.0,0.0,0.125,3.80859336,0.0,0.0,-4306.0,0.0,0.0,-0.0,0.0,0.0,1.823730282,0.0,0.0,4260.0,0.0,0.0,0.0,0.0,0.0,4.874267079,0.0,0.0,-4241.0,0.0,0.0,-0.0,0.0,0.0,2.8479000990000003,0.0,0.0,1.2000000476837158,0.75,-3.490000009536743,0.018310546875,0.00665283203125,0.96807861328125,33.130001068115234,0.0,6.0,-0.0030975341796875,0.026336669921875,Waiting,-4.929618768328446,4.125,51268.0,-223.0,-1672.5,-1600.0,0.0,0.0,
1.798530999999999,4.75,0.0,4287.0,0.0,0.0,0.0,0.0,0.125,3.803710548,0.0,0.0,-4306.0,0.0,0.0,-0.0,0.0,0.0,1.824950985,0.0,0.0,4260.0,0.0,0.0,0.0,0.0,0.0,4.8730463760000005,0.0,0.0,-4241.0,0.0,0.0,-0.0,0.0,0.0,2.8479000990000003,0.0,0.0,1.2100000381469727,0.75,-3.490000009536743,-0.0010986328125,0.00421142578125,1.000732421875,33.130001068115234,0.0,-13.0,-0.0030975341796875,0.026336669921875,Waiting,-4.905571847507332,4.0,51268.0,-223.0,-1672.5,-1600.0,0.0,0.0,
1.8197519999999967,4.5,0.0,4287.0,0.0,0.0,0.0,0.0,0.125,3.80859336,0.0,0.0,-4306.0,0.0,0.0,-0.0,0.0,0.0,1.823730282,0.0,0.0,4260.0,0.0,0.0,0.0,0.0,0.0,4.874267079,0.0,0.0,-4241.0,0.0,0.0,-0.0,0.0,0.0,2.8479000990000003,0.0,0.0,1.2300000190734863,0.7300000190734863,-3.490000009536743,0.03472900390625,-0.02362060546875,0.9677734375,33.130001068115234,0.0,24.0,-0.0030670166015625,0.0262908935546875,Waiting,-5.025806451612904,4.0,51268.0,-223.0,-1665.0,-1600.0,0.0,0.0,
1.8391559999999991,4.5,0.0,4287.0,0.0,0.0,0.0,0.0,0.125,3.80859336,0.0,0.0,-4306.0,0.0,0.0,-0.0,0.0,0.0,1.824950985,0.0,0.0,4260.0,0.0,0.0,0.0,0.0,0.0,4.8730463760000005,0.0,0.0,-4241.0,0.0,0.0,-0.0,0.0,0.0,2.8466793960000003,0.0,0.0,1.2200000286102295,0.75,-3.490000009536743,0.04730224609375,0.01361083984375,0.98626708984375,33.130001068115234,0.0,34.0,-0.0030059814453125,0.0262298583984375,Waiting,-5.013782991202347,4.25,51268.0,-223.0,-1665.0,-1600.0,0.0,0.0,
1.8581999999999972,4.5,0.0,4287.0,0.0,0.0,0.0,0.0,0.125,3.807372657,0.0,0.0,-4306.0,0.0,0.0,-0.0,0.0,0.0,1.824950985,0.0,0.0,4260.0,0.0,0.0,0.0,0.0,0.0,4.874267079,0.0,0.0,-4241.0,0.0,0.0,-0.0,0.0,0.0,2.8479000990000003,0.0,0.0,1.2400000095367432,0.75,-3.490000009536743,0.03826904296875,-0.02020263671875,1.0306396484375,33.130001068115234,0.0,27.0,-0.002899169921875,0.026123046875,Waiting,-4.989736070381231,4.25,51268.0,-223.0,-1665.0,-1600.0,0.0,0.0,
1.8782869999999967,4.75,0.0,4287.0,0.0,0.0,0.0,0.0,0.125,3.809814063,0.0,0.0,-4306.0,0.0,0.0,-0.0,0.0,0.0,1.823730282,0.0,0.0,4260.0,0.0,0.0,0.0,0.0,0.0,4.8730463760000005,0.0,0.0,-4241.0,0.0,0.0,-0.0,0.0,0.0,2.8479000990000003,0.0,0.0,1.2400000095367432,0.75,-3.490000009536743,0.02783203125,-0.01080322265625,1.01300048828125,33.130001068115234,0.0,16.0,-0.002593994140625,0.0257720947265625,Waiting,-4.965689149560117,4.25,51268.0,-223.0,-1665.0,-1600.0,0.0,0.0,
1.8977309999999998,4.75,0.0,4287.0,0.0,0.0,0.0,0.0,0.125,3.809814063,0.0,0.0,-4306.0,0.0,0.0,-0.0,0.0,0.0,1.824950985,0.0,0.0,4260.0,0.0,0.0,0.0,0.0,0.0,4.871825673,0.0,0.0,-4241.0,0.0,0.0,-0.0,0.0,0.0,2.8479000990000003,0.0,0.0,1.2300000190734863,0.7400000095367432,-3.490000009536743,0.03619384765625,0.008544921875,0.97802734375,33.130001068115234,0.0,24.0,-0.0023956298828125,0.025543212890625,Waiting,-4.941642228739003,4.125,51268.0,-223.0,-1665.0,-1600.0,0.0,0.0,
1.9179579999999987,4.75,0.0,4287.0,0.0,0.0,0.0,0.0,0.125,3.809814063,0.0,0.0,-4306.0,0.0,0.0,-0.0,0.0,0.0,1.824950985,0.0,0.0,4260.0,0.0,0.0,0.0,0.0,0.0,4.874267079,0.0,0.0,-4241.0,0.0,0.0,-0.0,0.0,0.0,2.8491208020000003,0.0,0.0,1.2300000190734863,0.75,-3.490000009536743,0.04010009765625,-0.017333984375,0.966064453125,33.130001068115234,0.0,29.0,-0.0021514892578125,0.0252838134765625,Waiting,-4.929618768328446,4.0,51001.0,-222.0,-1665.0,-1600.0,0.0,0.0,
1.937841999999997,4.0,0.0,4287.0,0.0,0.0,0.0,0.0,0.125,3.80859336,0.0,0.0,-4306.0,0.0,0.0,-0.0,0.0,0.0,1.823730282,0.0,0.0,4260.0,0.0,0.0,0.0,0.0,0.0,4.874267079,0.0,0.0,-4241.0,0.0,0.0,-0.0,0.0,0.0,2.8479000990000003,0.0,0.0,1.25,0.75,-3.490000009536743,0.04486083984375,0.03411865234375,1.01373291015625,33.130001068115234,0.0,30.0,-0.0015716552734375,0.024749755859375,Waiting,-4.917595307917889,4.0,51001.0,-222.0,-1665.0,-1600.0,0.0,0.0,
1.9584659999999967,4.0,0.0,4287.0,0.0,0.0,0.0,0.0,0.125,3.80859336,0.0,0.0,-4306.0,0.0,0.0,-0.0,0.0,0.0,1.824950985,0.0,0.0,4260.0,0.0,0.0,0.0,0.0,0.0,4.8730463760000005,0.0,0.0,-4241.0,0.0,0.0,-0.0,0.0,0.0,2.8479000990000003,0.0,0.0,1.25,0.7400000095367432,-3.490000009536743,0.0335693359375,0.0272216796875,1.02923583984375,33.130001068115234,0.0,19.0,-0.0012359619140625,0.024749755859375,Waiting,-5.025806451612904,4.25,51001.0,-222.0,-1657.5,-1600.0,0.0,0.0,
1.978262999999999,4.0,0.0,4287.0,0.0,0.0,0.0,0.0,0.125,3.809814063,0.0,0.0,-4306.0,0.0,0.0,-0.0,0.0,0.0,1.824950985,0.0,0.0,4260.0,0.0,0.0,0.0,0.0,0.0,4.874267079,0.0,0.0,-4241.0,0.0,0.0,-0.0,0.0,0.0,2.8491208020000003,0.0,0.0,1.25,0.7400000095367432,-3.490000009536743,0.0257568359375,0.05010986328125,0.9970703125,33.130001068115234,0.0,11.0,-4.57763671875E-4,0.0247650146484375,Waiting,-5.001759530791789,4.25,51001.0,-222.0,-1657.5,-1600.0,0.0,0.0,
1.998436999999998,4.0,0.0,4287.0,0.0,0.0,0.0,0.0,0.125,3.80859336,0.0,0.0,-4306.0,0.0,0.0,-0.0,0.0,0.0,1.824950985,0.0,0.0,4260.0,0.0,0.0,0.0,0.0,0.0,4.8730463760000005,0.0,0.0,-4241.0,0.0,0.0,-0.0,0.0,0.0,2.8479000990000003,0.0,0.0,1.2599999904632568,0.75,-3.490000009536743,0.01898193359375,0.0318603515625,0.98846435546875,33.130001068115234,0.0,5.0,-6.103515625E-5,0.024810791015625,Waiting,-4.989736070381231,4.375,51001.0,-222.0,-1657.5,-1600.0,0.0,0.0,
2.0181659999999972,4.625,0.0,4287.0,0.0,0.0,0.0,0.0,0.125,3.80859336,0.0,0.0,-4306.0,0.0,0.0,-0.0,0.0,0.0,1.824950985,0.0,0.0,4260.0,0.0,0.0,0.0,0.0,0.0,4.8730463760000005,0.0,0.0,-4241.0,0.0,0.0,-0.0,0.0,0.0,2.8479000990000003,0.0,0.0,1.2599999904632568,0.7599999904632568,-3.490000009536743,0.01544189453125,0.0399169921875,1.02923583984375,33.130001068115234,0.0,0.0,-6.103515625E-5,0.0248870849609375,Waiting,-4.965689149560117,4.375,51001.0,-222.0,-1657.5,-1600.0,0.0,0.0,
2.0383899999999993,4.625,0.0,4287.0,0.0,0.0,0.0,0.0,0.125,3.80859336,0.0,0.0,-4306.0,0.0,0.0,-0.0,0.0,0.0,1.824950985,0.0,0.0,4260.0,0.0,0.0,0.0,0.0,0.0,4.874267079,0.0,0.0,-4241.0,0.0,0.0,-0.0,0.0,0.0,2.8491208020000003,0.0,0.0,1.2599999904632568,0.7599999904632568,-3.490000009536743,-0.03082275390625,0.0244140625,1.0283203125,33.130001068115234,0.0,-44.0,-9.1552734375E-5,0.0248870849609375,Waiting,-4.9536656891495605,4.125,50735.0,-221.0,-1657.5,-1600.0,0.0,0.0,
2.0586109999999973,4.5,0.0,4287.0,0.0,0.0,0.0,0.0,0.125,3.811034766,0.0,0.0,-4306.0,0.0,0.0,-0.0,0.0,0.0,1.824950985,0.0,0.0,4260.0,0.0,0.0,0.0,0.0,0.0,4.8730463760000005,0.0,0.0,-4241.0,0.0,0.0,-0.0,0.0,0.0,2.8491208020000003,0.0,0.0,1.25,0.7599999904632568,-3.4800000190734863,-0.01416015625,0.0511474609375,1.006103515625,33.130001068115234,0.0,-29.0,-2.899169921875E-4,0.02490234375,Waiting,-4.941642228739003,4.125,50735.0,-221.0,-1657.5,-1600.0,0.0,0.0,
2.078125,4.5,0.0,4287.0,0.0,0.0,0.0,0.0,0.125,3.80859336,0.0,0.0,-4306.0,0.0,0.0,-0.0,0.0,0.0,1.824950985,0.0,0.0,4260.0,0.0,0.0,0.0,0.0,0.0,4.8730463760000005,0.0,0.0,-4241.0,0.0,0.0,-0.0,0.0,0.0,2.8491208020000003,0.0,0.0,1.25,0.75,-3.4800000190734863,-0.00128173828125,0.04534912109375,1.01361083984375,33.130001068115234,0.0,-16.0,-4.425048828125E-4,0.0249481201171875,Waiting,-4.917595307917889,4.0,50735.0,-221.0,-1657.5,-1600.0,0.0,0.0,
2.0992839999999995,4.5,0.0,4287.0,0.0,0.0,0.0,0.0,0.125,3.80859336,0.0,0.0,-4306.0,0.0,0.0,-0.0,0.0,0.0,1.824950985,0.0,0.0,4260.0,0.0,0.0,0.0,0.0,0.0,4.8730463760000005,0.0,0.0,-4241.0,0.0,0.0,-0.0,0.0,0.0,2.8479000990000003,0.0,0.0,1.25,0.75,-3.4700000286102295,-0.00701904296875,0.0699462890625,1.02490234375,33.130001068115234,0.0,-23.0,-8.087158203125E-4,0.0251007080078125,Waiting,-4.905571847507332,4.0,50735.0,-221.0,-1657.5,-1600.0,0.0,0.0,
2.122989999999998,4.5,0.0,4287.0,0.0,0.0,0.0,0.0,0.125,3.807372657,0.0,0.0,-4306.0,0.0,0.0,-0.0,0.0,0.0,1.824950985,0.0,0.0,4260.0,0.0,0.0,0.0,0.0,0.0,4.8730463760000005,0.0,0.0,-4241.0,0.0,0.0,-0.0,0.0,0.0,2.8479000990000003,0.0,0.0,1.2599999904632568,0.75,-3.4700000286102295,-0.01959228515625,0.0523681640625,1.0064697265625,33.130001068115234,0.0,-34.0,-0.00103759765625,0.025421142578125,Waiting,-5.013782991202347,4.125,50735.0,-221.0,-1650.0,-1600.0,0.0,0.0,
2.1463729999999996,4.5,0.0,4287.0,0.0,0.0,0.0,0.0,0.125,3.80859336,0.0,0.0,-4306.0,0.0,0.0,-0.0,0.0,0.0,1.824950985,0.0,0.0,4260.0,0.0,0.0,0.0,0.0,0.0,4.8730463760000005,0.0,0.0,-4241.0,0.0,0.0,-0.0,0.0,0.0,2.8479000990000003,0.0,0.0,1.2699999809265137,0.7799999713897705,-3.4700000286102295,-0.0018310546875,0.054931640625,0.9766845703125,33.130001068115234,0.0,-17.0,-0.0012969970703125,0.025665283203125,Waiting,-4.981427174975562,4.25,50471.0,-220.0,-1650.0,-1600.0,0.0,0.0,
2.161270999999997,4.5,0.0,4287.0,0.0,0.0,0.0,0.0,0.125,3.809814063,0.0,0.0,-4306.0,0.0,0.0,-0.0,0.0,0.0,1.824950985,0.0,0.0,4260.0,0.0,0.0,0.0,0.0,0.0,4.874267079,0.0,0.0,-4241.0,0.0,0.0,-0.0,0.0,0.0,2.8479000990000003,0.0,0.0,1.2899999618530273,0.7799999713897705,-3.4700000286102295,0.0196533203125,0.035400390625,1.03619384765625,33.130001068115234,0.0,4.0,-0.0012969970703125,0.02593994140625,Waiting,-4.957478005865102,4.25,50471.0,-220.0,-1650.0,-1600.0,0.0,0.0,
2.180018,4.25,0.0,4287.0,0.0,0.0,0.0,0.0,0.125,3.809814063,0.0,0.0,-4306.0,0.0,0.0,-0.0,0.0,0.0,1.824950985,0.0,0.0,4260.0,0.0,0.0,0.0,0.0,0.0,4.8730463760000005,0.0,0.0,-4241.0,0.0,0.0,-0.0,0.0,0.0,2.8479000990000003,0.0,0.0,1.2899999618530273,0.7699999809265137,-3.4700000286102295,0.01190185546875,0.0172119140625,1.0218505859375,33.130001068115234,0.0,-1.0,-0.0012969970703125,0.02593994140625,Waiting,-4.945503421309873,4.25,50471.0,-220.0,-1650.0,-1600.0,0.0,0.0,
2.198493999999999,4.25,0.0,4287.0,0.0,0.0,0.0,0.0,0.125,3.8000484390000002,0.0,0.0,-4306.0,0.0,0.0,-0.0,0.0,0.0,1.824950985,0.0,0.0,4260.0,0.0,0.0,0.0,0.0,0.0,4.874267079,0.0,0.0,-4241.0,0.0,0.0,-0.0,0.0,0.0,2.8491208020000003,0.0,0.0,1.2799999713897705,0.7799999713897705,-3.4600000381469727,0.018310546875,0.01202392578125,0.99517822265625,33.130001068115234,0.0,5.0,-0.0012969970703125,0.02593994140625,Waiting,-4.933528836754643,4.125,50471.0,-220.0,-1650.0,-1600.0,0.0,0.0,
2.219494999999999,4.25,0.0,4287.0,0.0,0.0,0.0,0.0,0.125,3.80859336,0.0,0.0,-4306.0,0.0,0.0,-0.0,0.0,0.0,1.824950985,0.0,0.0,4260.0,0.0,0.0,0.0,0.0,0.0,4.8730463760000005,0.0,0.0,-4241.0,0.0,0.0,-0.0,0.0,0.0,2.8479000990000003,0.0,0.0,1.2799999713897705,0.7799999713897705,-3.4700000286102295,0.00994873046875,-0.0089111328125,0.9716796875,33.130001068115234,0.0,-1.0,-0.0012969970703125,0.0259246826171875,Waiting,-4.921554252199414,4.125,50471.0,-220.0,-1650.0,-1600.0,0.0,0.0,
2.2389299999999968,4.25,0.0,4287.0,0.0,0.0,0.0,0.0,0.125,3.80859336,0.0,0.0,-4306.0,0.0,0.0,-0.0,0.0,0.0,1.823730282,0.0,0.0,4260.0,0.0,0.0,0.0,0.0,0.0,4.8730463760000005,0.0,0.0,-4241.0,0.0,0.0,-0.0,0.0,0.0,2.8479000990000003,0.0,0.0,1.2799999713897705,0.7799999713897705,-3.4600000381469727,-0.01629638671875,0.01507568359375,1.022216796875,33.130001068115234,0.0,-29.0,-0.001312255859375,0.0258636474609375,Waiting,-4.909579667644183,4.125,50471.0,-220.0,-1650.0,-1600.0,0.0,0.0,
2.258323999999997,4.25,0.0,4287.0,0.0,0.0,0.0,0.0,0.125,3.809814063,0.0,0.0,-4306.0,0.0,0.0,-0.0,0.0,0.0,1.826171688,0.0,0.0,4260.0,0.0,0.0,0.0,0.0,0.0,4.874267079,0.0,0.0,-4241.0,0.0,0.0,-0.0,0.0,0.0,2.8491208020000003,0.0,0.0,1.2899999618530273,0.7699999809265137,-3.4600000381469727,0.00286865234375,-4.8828125E-4,1.0394287109375,33.13999938964844,0.0,-9.0,-0.0013580322265625,0.0258026123046875,Waiting,-4.897605083088954,4.125,50471.0,-220.0,-1650.0,-1600.0,0.0,0.0,
2.2780559999999968,4.25,0.0,4287.0,0.0,0.0,0.0,0.0,0.125,3.809814063,0.0,0.0,-4306.0,0.0,0.0,-0.0,0.0,0.0,1.824950985,0.0,0.0,4260.0,0.0,0.0,0.0,0.0,0.0,4.874267079,0.0,0.0,-4241.0,0.0,0.0,-0.0,0.0,0.0,2.8479000990000003,0.0,0.0,1.2899999618530273,0.7799999713897705,-3.4600000381469727,0.04852294921875,-0.004638671875,0.99822998046875,33.13999938964844,0.0,36.0,-0.0013885498046875,0.025543212890625,Waiting,-4.905571847507332,4.0,50207.0,-220.0,-1650.0,-1600.0,0.0,0.0,
2.298197,4.25,0.0,4287.0,0.0,0.0,0.0,0.0,0.125,3.809814063,0.0,0.0,-4306.0,0.0,0.0,-0.0,0.0,0.0,1.824950985,0.0,0.0,4260.0,0.0,0.0,0.0,0.0,0.0,4.874267079,0.0,0.0,-4241.0,0.0,0.0,-0.0,0.0,0.0,2.8491208020000003,0.0,0.0,1.2899999618530273,0.7799999713897705,-3.4600000381469727,0.0269775390625,-0.00823974609375,0.99993896484375,33.13999938964844,0.0,15.0,-0.0013427734375,0.025360107421875,Waiting,-4.881524926686217,4.0,50207.0,-220.0,-1650.0,-1600.0,0.0,0.0,
2.318148999999998,4.375,0.0,4287.0,0.0,0.0,0.0,0.0,0.125,3.80859336,0.0,0.0,-4306.0,0.0,0.0,-0.0,0.0,0.0,1.824950985,0.0,0.0,4260.0,0.0,0.0,0.0,0.0,0.0,4.874267079,0.0,0.0,-4241.0,0.0,0.0,-0.0,0.0,0.0,2.8491208020000003,0.0,0.0,1.2899999618530273,0.7799999713897705,-3.4600000381469727,0.01617431640625,-0.00140380859375,1.028564453125,33.13999938964844,0.0,3.0,-0.0013427734375,0.025146484375,Waiting,-4.8695014662756595,3.875,50207.0,-220.0,-1650.0,-1600.0,0.0,0.0,
2.339177,4.375,0.0,4287.0,0.0,0.0,0.0,0.0,0.125,3.80859336,0.0,0.0,-4306.0,0.0,0.0,-0.0,0.0,0.0,1.824950985,0.0,0.0,4260.0,0.0,0.0,0.0,0.0,0.0,4.8730463760000005,0.0,0.0,-4241.0,0.0,0.0,-0.0,0.0,0.0,2.8479000990000003,0.0,0.0,1.2699999809265137,0.7799999713897705,-3.4600000381469727,0.035888671875,-0.015869140625,0.9862060546875,33.13999938964844,0.0,24.0,-0.0012664794921875,0.024627685546875,Waiting,-4.977712609970675,4.0,50207.0,-220.0,-1642.5,-1600.0,0.0,0.0,
2.358710999999999,4.375,0.0,4287.0,0.0,0.0,0.0,0.0,0.125,3.80859336,0.0,0.0,-4306.0,0.0,0.0,-0.0,0.0,0.0,1.824950985,0.0,0.0,4260.0,0.0,0.0,0.0,0.0,0.0,4.874267079,0.0,0.0,-4241.0,0.0,0.0,-0.0,0.0,0.0,2.8491208020000003,0.0,0.0,1.2699999809265137,0.7799999713897705,-3.4600000381469727,0.0279541015625,0.02764892578125,1.020751953125,33.13999938964844,0.0,13.0,-0.001190185546875,0.024322509765625,Waiting,-4.965689149560117,4.125,50207.0,-220.0,-1642.5,-1600.0,0.0,0.0,
2.3782639999999993,4.625,0.0,4287.0,0.0,0.0,0.0,0.0,0.125,3.80859336,0.0,0.0,-4306.0,0.0,0.0,-0.0,0.0,0.0,1.823730282,0.0,0.0,4260.0,0.0,0.0,0.0,0.0,0.0,4.8730463760000005,0.0,0.0,-4241.0,0.0,0.0,-0.0,0.0,0.0,2.8479000990000003,0.0,0.0,1.2799999713897705,0.7799999713897705,-3.4600000381469727,0.0299072265625,0.00494384765625,1.01617431640625,33.13999938964844,0.0,17.0,-0.001190185546875,0.024017333984375,Waiting,-4.9536656891495605,4.25,49943.0,-219.0,-1642.5,-1600.0,0.0,0.0,
2.398601999999999,4.625,0.0,4287.0,0.0,0.0,0.0,0.0,0.125,3.80859336,0.0,0.0,-4306.0,0.0,0.0,-0.0,0.0,0.0,1.824950985,0.0,0.0,4260.0,0.0,0.0,0.0,0.0,0.0,4.8730463760000005,0.0,0.0,-4241.0,0.0,0.0,-0.0,0.0,0.0,2.8491208020000003,0.0,0.0,1.2699999809265137,0.7799999713897705,-3.4600000381469727,0.03515625,0.0333251953125,0.97906494140625,33.13999938964844,0.0,21.0,-0.0010833740234375,0.024017333984375,Waiting,-4.941642228739003,4.125,49943.0,-219.0,-1642.5,-1600.0,0.0,0.0,
2.4201679999999977,4.625,0.0,4287.0,0.0,0.0,0.0,0.0,0.125,3.809814063,0.0,0.0,-4306.0,0.0,0.0,-0.0,0.0,0.0,1.824950985,0.0,0.0,4260.0,0.0,0.0,0.0,0.0,0.0,4.874267079,0.0,0.0,-4241.0,0.0,0.0,-0.0,0.0,0.0,2.8491208020000003,0.0,0.0,1.2799999713897705,0.7799999713897705,-3.4600000381469727,0.0142822265625,0.0546875,1.039306640625,33.13999938964844,0.0,-1.0,-0.001007080078125,0.0240478515625,Waiting,-4.929618768328446,4.125,49943.0,-219.0,-1642.5,-1600.0,0.0,0.0,
2.439310999999998,4.625,0.0,4287.0,0.0,0.0,0.0,0.0,0.125,3.80859336,0.0,0.0,-4306.0,0.0,0.0,-0.0,0.0,0.0,1.824950985,0.0,0.0,4260.0,0.0,0.0,0.0,0.0,0.0,4.8730463760000005,0.0,0.0,-4241.0,0.0,0.0,-0.0,0.0,0.0,2.8491208020000003,0.0,0.0,1.2799999713897705,0.7799999713897705,-3.4700000286102295,-0.01214599609375,0.0390625,1.00299072265625,33.13999938964844,0.0,-26.0,-9.307861328125E-4,0.02410888671875,Waiting,-4.917595307917889,4.125,49943.0,-219.0,-1642.5,-1600.0,0.0,0.0,
2.457923999999999,4.0,0.0,4287.0,0.0,0.0,0.0,0.0,0.125,3.809814063,0.0,0.0,-4306.0,0.0,0.0,-0.0,0.0,0.0,1.824950985,0.0,0.0,4260.0,0.0,0.0,0.0,0.0,0.0,4.869384267,0.0,0.0,-4241.0,0.0,0.0,-0.0,0.0,0.0,2.8491208020000003,0.0,0.0,1.2799999713897705,0.7699999809265137,-3.4700000286102295,0.00103759765625,0.064208984375,0.99639892578125,33.13999938964844,0.0,-14.0,-8.85009765625E-4,0.02435302734375,Waiting,-4.905571847507332,4.125,49943.0,-219.0,-1642.5,-1600.0,0.0,0.0,
2.4788379999999997,4.0,0.0,4287.0,0.0,0.0,0.0,0.0,0.125,3.80859336,0.0,0.0,-4306.0,0.0,0.0,-0.0,0.0,0.0,1.823730282,0.0,0.0,4260.0,0.0,0.0,0.0,0.0,0.0,4.874267079,0.0,0.0,-4241.0,0.0,0.0,-0.0,0.0,0.0,2.8479000990000003,0.0,0.0,1.2899999618530273,0.7699999809265137,-3.4700000286102295,-0.019775390625,0.052734375,1.037353515625,33.13999938964844,0.0,-35.0,-9.002685546875E-4,0.0245513916015625,Waiting,-4.893548387096774,4.0,49943.0,-219.0,-1642.5,-1600.0,0.0,0.0,
2.497739999999998,4.0,0.0,4287.0,0.0,0.0,0.0,0.0,0.125,3.80859336,0.0,0.0,-4306.0,0.0,0.0,-0.0,0.0,0.0,1.824950985,0.0,0.0,4260.0,0.0,0.0,0.0,0.0,0.0,4.874267079,0.0,0.0,-4241.0,0.0,0.0,-0.0,0.0,0.0,2.8479000990000003,0.0,0.0,1.2899999618530273,0.7599999904632568,-3.4700000286102295,-0.0325927734375,0.0765380859375,1.02801513671875,33.13999938964844,0.0,-49.0,-9.765625E-4,0.0247955322265625,Waiting,-5.025806451612904,4.0,49943.0,-219.0,-1642.5,-1600.0,0.0,0.0,
2.517927,4.375,0.0,4287.0,0.0,0.0,0.0,0.0,0.125,3.80859336,0.0,0.0,-4306.0,0.0,0.0,-0.0,0.0,0.0,1.824950985,0.0,0.0,4260.0,0.0,0.0,0.0,0.0,0.0,4.874267079,0.0,0.0,-4241.0,0.0,0.0,-0.0,0.0,0.0,2.8417965840000003,0.0,0.0,1.2899999618530273,0.7699999809265137,-3.4700000286102295,0.001953125,0.06231689453125,0.98687744140625,33.13999938964844,0.0,-13.0,-0.001251220703125,0.025482177734375,Waiting,-5.013782991202347,4.25,49678.0,-218.0,-1635.0,-1600.0,0.0,0.0,
2.5403099999999976,4.375,0.0,4287.0,0.0,0.0,0.0,0.0,0.125,3.80859336,0.0,0.0,-4306.0,0.0,0.0,-0.0,0.0,0.0,1.824950985,0.0,0.0,4260.0,0.0,0.0,0.0,0.0,0.0,4.875487782,0.0,0.0,-4241.0,0.0,0.0,-0.0,0.0,0.0,2.8491208020000003,0.0,0.0,1.2999999523162842,0.7799999713897705,-3.4700000286102295,-0.03009033203125,0.00714111328125,1.01300048828125,33.13999938964844,0.0,-42.0,-0.001434326171875,0.02587890625,Waiting,-5.001759530791789,4.375,49678.0,-218.0,-1635.0,-1600.0,0.0,0.0,
2.5582389999999977,4.375,0.0,4287.0,0.0,0.0,0.0,0.0,0.125,3.809814063,0.0,0.0,-4306.0,0.0,0.0,-0.0,0.0,0.0,1.824950985,0.0,0.0,4260.0,0.0,0.0,0.0,0.0,0.0,4.8730463760000005,0.0,0.0,-4241.0,0.0,0.0,-0.0,0.0,0.0,2.8491208020000003,0.0,0.0,1.2899999618530273,0.7699999809265137,-3.4700000286102295,0.00970458984375,-0.0107421875,1.01495361328125,33.13999938964844,0.0,-1.0,-0.00164794921875,0.0262298583984375,Waiting,-4.989736070381231,4.5,49678.0,-218.0,-1635.0,-1600.0,0.0,0.0,
2.5776269999999966,4.75,0.0,4287.0,0.0,0.0,0.0,0.0,0.125,3.80859336,0.0,0.0,-4306.0,0.0,0.0,-0.0,0.0,0.0,1.823730282,0.0,0.0,4260.0,0.0,0.0,0.0,0.0,0.0,4.874267079,0.0,0.0,-4241.0,0.0,0.0,-0.0,0.0,0.0,2.8479000990000003,0.0,0.0,1.2899999618530273,0.7699999809265137,-3.4700000286102295,0.007568359375,0.00634765625,1.00714111328125,33.13999938964844,0.0,-5.0,-0.00213623046875,0.0268707275390625,Waiting,-4.977712609970675,4.25,49678.0,-218.0,-1635.0,-1600.0,0.0,0.0,
2.599114999999998,4.75,0.0,4287.0,0.0,0.0,0.0,0.0,0.125,3.809814063,0.0,0.0,-4306.0,0.0,0.0,-0.0,0.0,0.0,1.824950985,0.0,0.0,4260.0,0.0,0.0,0.0,0.0,0.0,4.8730463760000005,0.0,0.0,-4241.0,0.0,0.0,-0.0,0.0,0.0,2.8491208020000003,0.0,0.0,1.2899999618530273,0.7699999809265137,-3.4700000286102295,0.00714111328125,-0.03564453125,0.97686767578125,33.13999938964844,0.0,-2.0,-0.002410888671875,0.0271453857421875,Waiting,-4.977712609970675,4.25,49678.0,-218.0,-1635.0,-1600.0,0.0,0.0,
2.617958999999999,4.75,0.0,4287.0,0.0,0.0,0.0,0.0,0.125,3.809814063,0.0,0.0,-4306.0,0.0,0.0,-0.0,0.0,0.0,1.824950985,0.0,0.0,4260.0,0.0,0.0,0.0,0.0,0.0,4.875487782,0.0,0.0,-4241.0,0.0,0.0,-0.0,0.0,0.0,2.8479000990000003,0.0,0.0,1.2899999618530273,0.7599999904632568,-3.4700000286102295,0.0399169921875,-0.0113525390625,0.99359130859375,33.13999938964844,0.0,28.0,-0.002655029296875,0.0273590087890625,Waiting,-4.965689149560117,4.25,49678.0,-218.0,-1635.0,-1600.0,0.0,0.0,
2.6478719999999996,4.875,0.0,4287.0,0.0,0.0,0.0,0.0,0.125,3.80859336,0.0,0.0,-4306.0,0.0,0.0,-0.0,0.0,0.0,1.824950985,0.0,0.0,4260.0,0.0,0.0,0.0,0.0,0.0,4.871825673,0.0,0.0,-4241.0,0.0,0.0,-0.0,0.0,0.0,2.8479000990000003,0.0,0.0,1.2899999618530273,0.7699999809265137,-3.4700000286102295,0.0291748046875,-0.001220703125,1.03125,33.13999938964844,0.0,16.0,-0.0030059814453125,0.027679443359375,Waiting,-4.941642228739003,4.125,49418.0,-218.0,-1635.0,-1600.0,0.0,0.0,
2.662013999999999,4.875,0.0,4287.0,0.0,0.0,0.0,0.0,0.125,3.80859336,0.0,0.0,-4306.0,0.0,0.0,-0.0,0.0,0.0,1.824950985,0.0,0.0,4260.0,0.0,0.0,0.0,0.0,0.0,4.874267079,0.0,0.0,-4241.0,0.0,0.0,-0.0,0.0,0.0,2.8479000990000003,0.0,0.0,1.2899999618530273,0.75,-3.4700000286102295,0.02117919921875,0.01251220703125,0.9903564453125,33.13999938964844,0.0,8.0,-0.0030059814453125,0.027801513671875,Waiting,-4.941642228739003,4.125,49418.0,-218.0,-1635.0,-1600.0,0.0,0.0,
2.6787909999999973,4.875,0.0,4287.0,0.0,0.0,0.0,0.0,0.125,3.809814063,0.0,0.0,-4306.0,0.0,0.0,-0.0,0.0,0.0,1.824950985,0.0,0.0,4260.0,0.0,0.0,0.0,0.0,0.0,4.8730463760000005,0.0,0.0,-4241.0,0.0,0.0,-0.0,0.0,0.0,2.8479000990000003,0.0,0.0,1.2899999618530273,0.75,-3.4700000286102295,0.03521728515625,0.026123046875,1.00543212890625,33.13999938964844,0.0,21.0,-0.0029144287109375,0.0279083251953125,Waiting,-4.929618768328446,4.125,49418.0,-218.0,-1635.0,-1600.0,0.0,0.0,
2.6983979999999974,4.875,0.0,4287.0,0.0,0.0,0.0,0.0,0.125,3.809814063,0.0,0.0,-4306.0,0.0,0.0,-0.0,0.0,0.0,1.823730282,0.0,0.0,4260.0,0.0,0.0,0.0,0.0,0.0,4.8730463760000005,0.0,0.0,-4241.0,0.0,0.0,-0.0,0.0,0.0,2.8491208020000003,0.0,0.0,1.2899999618530273,0.75,-3.4700000286102295,0.0382080078125,0.01397705078125,1.0238037109375,33.13999938964844,0.0,25.0,-0.0028228759765625,0.0279083251953125,Waiting,-4.917595307917889,4.125,49418.0,-218.0,-1635.0,-1600.0,0.0,0.0,
2.7180599999999977,4.0,0.0,4287.0,0.0,0.0,0.0,0.0,0.125,3.80859336,0.0,0.0,-4306.0,0.0,0.0,-0.0,0.0,0.0,1.824950985,0.0,0.0,4260.0,0.0,0.0,0.0,0.0,0.0,4.874267079,0.0,0.0,-4241.0,0.0,0.0,-0.0,0.0,0.0,2.8479000990000003,0.0,0.0,1.2899999618530273,0.75,-3.4700000286102295,0.0501708984375,0.006591796875,1.0072021484375,33.13999938964844,0.0,37.0,-0.0027008056640625,0.0279083251953125,Waiting,-4.905571847507332,4.125,49418.0,-218.0,-1635.0,-1600.0,0.0,0.0,
2.738931999999997,4.0,0.0,4287.0,0.0,0.0,0.0,0.0,0.125,3.80859336,0.0,0.0,-4306.0,0.0,0.0,-0.0,0.0,0.0,1.824950985,0.0,0.0,4260.0,0.0,0.0,0.0,0.0,0.0,4.874267079,0.0,0.0,-4241.0,0.0,0.0,-0.0,0.0,0.0,2.8442379900000003,0.0,0.0,1.2899999618530273,0.7599999904632568,-3.4700000286102295,0.04541015625,0.032470703125,0.97882080078125,33.13999938964844,0.0,31.0,-0.0025177001953125,0.0279083251953125,Waiting,-4.893548387096774,4.125,49418.0,-218.0,-1635.0,-1600.0,0.0,0.0,
2.7583189999999993,4.25,0.0,4287.0,0.0,0.0,0.0,0.0,0.125,3.807372657,0.0,0.0,-4306.0,0.0,0.0,-0.0,0.0,0.0,1.824950985,0.0,0.0,4260.0,0.0,0.0,0.0,0.0,0.0,4.874267079,0.0,0.0,-4241.0,0.0,0.0,-0.0,0.0,0.0,2.8491208020000003,0.0,0.0,1.2999999523162842,0.7599999904632568,-3.4700000286102295,-0.015625,0.0274658203125,0.9747314453125,33.15999984741211,0.0,-28.0,-0.0021209716796875,0.027984619140625,Waiting,-4.881524926686217,4.0,49157.0,-218.0,-1635.0,-1600.0,0.0,0.0,
2.7799529999999977,4.25,0.0,4287.0,0.0,0.0,0.0,0.0,0.125,3.809814063,0.0,0.0,-4306.0,0.0,0.0,-0.0,0.0,0.0,1.823730282,0.0,0.0,4260.0,0.0,0.0,0.0,0.0,0.0,4.8730463760000005,0.0,0.0,-4241.0,0.0,0.0,-0.0,0.0,0.0,2.8430172870000003,0.0,0.0,1.2899999618530273,0.7699999809265137,-3.4700000286102295,-0.002197265625,0.04669189453125,0.99041748046875,33.15999984741211,0.0,-17.0,-0.0019683837890625,0.0280609130859375,Waiting,-5.001759530791789,4.0,49157.0,-218.0,-1627.5,-1600.0,0.0,0.0,
2.798263999999999,4.25,0.0,4287.0,0.0,0.0,0.0,0.0,0.125,3.80859336,0.0,0.0,-4306.0,0.0,0.0,-0.0,0.0,0.0,1.824950985,0.0,0.0,4260.0,0.0,0.0,0.0,0.0,0.0,4.8730463760000005,0.0,0.0,-4241.0,0.0,0.0,-0.0,0.0,0.0,2.8491208020000003,0.0,0.0,1.2999999523162842,0.7599999904632568,-3.4700000286102295,-0.0013427734375,0.04901123046875,1.0003662109375,33.15999984741211,0.0,-16.0,-0.0018310546875,0.0281524658203125,Waiting,-5.001759530791789,4.25,49157.0,-218.0,-1627.5,-1600.0,0.0,0.0,
2.817840999999997,4.25,0.0,4287.0,0.0,0.0,0.0,0.0,0.125,3.80859336,0.0,0.0,-4306.0,0.0,0.0,-0.0,0.0,0.0,1.823730282,0.0,0.0,4260.0,0.0,0.0,0.0,0.0,0.0,4.8730463760000005,0.0,0.0,-4241.0,0.0,0.0,-0.0,0.0,0.0,2.8479000990000003,0.0,0.0,1.2899999618530273,0.7699999809265137,-3.4700000286102295,-0.01470947265625,0.0760498046875,0.99951171875,33.15999984741211,0.0,-31.0,-0.0016937255859375,0.02850341796875,Waiting,-4.989736070381231,4.375,49157.0,-218.0,-1627.5,-1600.0,0.0,0.0,
2.841125,4.5,0.0,4287.0,0.0,0.0,0.0,0.0,0.125,3.809814063,0.0,0.0,-4306.0,0.0,0.0,-0.0,0.0,0.0,1.824950985,0.0,0.0,4260.0,0.0,0.0,0.0,0.0,0.0,4.874267079,0.0,0.0,-4241.0,0.0,0.0,-0.0,0.0,0.0,2.8479000990000003,0.0,0.0,1.2999999523162842,0.7799999713897705,-3.4700000286102295,-0.01788330078125,0.0823974609375,1.008056640625,33.15999984741211,0.0,-35.0,-0.001678466796875,0.028778076171875,Waiting,-4.977712609970675,4.5,49157.0,-218.0,-1627.5,-1600.0,0.0,0.0,
2.857387999999999,4.5,0.0,4287.0,0.0,0.0,0.0,0.0,0.125,3.809814063,0.0,0.0,-4306.0,0.0,0.0,-0.0,0.0,0.0,1.824950985,0.0,0.0,4260.0,0.0,0.0,0.0,0.0,0.0,4.874267079,0.0,0.0,-4241.0,0.0,0.0,-0.0,0.0,0.0,2.8491208020000003,0.0,0.0,1.309999942779541,0.7799999713897705,-3.4700000286102295,-0.0078125,0.05401611328125,1.04345703125,33.15999984741211,0.0,-23.0,-0.0017242431640625,0.0290985107421875,Waiting,-4.977712609970675,4.25,49157.0,-218.0,-1627.5,-1600.0,0.0,0.0,
2.8779529999999975,4.5,0.0,4287.0,0.0,0.0,0.0,0.0,0.125,3.807372657,0.0,0.0,-4306.0,0.0,0.0,-0.0,0.0,0.0,1.824950985,0.0,0.0,4260.0,0.0,0.0,0.0,0.0,0.0,4.874267079,0.0,0.0,-4241.0,0.0,0.0,-0.0,0.0,0.0,2.8491208020000003,0.0,0.0,1.2999999523162842,0.7599999904632568,-3.4700000286102295,0.0096435546875,0.006103515625,0.9896240234375,33.15999984741211,0.0,-2.0,-0.0019073486328125,0.029449462890625,Waiting,-4.985874877810362,4.25,48896.0,-217.0,-1627.5,-1600.0,0.0,0.0,
2.8987619999999987,4.5,0.0,4287.0,0.0,0.0,0.0,0.0,0.125,3.809814063,0.0,0.0,-4306.0,0.0,0.0,-0.0,0.0,0.0,1.824950985,0.0,0.0,4260.0,0.0,0.0,0.0,0.0,0.0,4.874267079,0.0,0.0,-4241.0,0.0,0.0,-0.0,0.0,0.0,2.8479000990000003,0.0,0.0,1.2999999523162842,0.7699999809265137,-3.4600000381469727,-0.017822265625,0.0416259765625,1.00933837890625,33.15999984741211,0.0,-32.0,-0.0020294189453125,0.029449462890625,Waiting,-4.973802541544477,4.25,48896.0,-217.0,-1627.5,-1600.0,0.0,0.0,
2.917935999999998,4.875,0.0,4287.0,0.0,0.0,0.0,0.0,0.125,3.80859336,0.0,0.0,-4306.0,0.0,0.0,-0.0,0.0,0.0,1.824950985,0.0,0.0,4260.0,0.0,0.0,0.0,0.0,0.0,4.874267079,0.0,0.0,-4241.0,0.0,0.0,-0.0,0.0,0.0,2.8491208020000003,0.0,0.0,1.2999999523162842,0.7599999904632568,-3.4600000381469727,-0.00152587890625,0.006103515625,0.99200439453125,33.15999984741211,0.0,-13.0,-0.002197265625,0.029449462890625,Waiting,-4.973802541544477,4.125,48896.0,-217.0,-1627.5,-1600.0,0.0,0.0,
2.9405360000000003,4.875,0.0,4287.0,0.0,0.0,0.0,0.0,0.125,3.807372657,0.0,0.0,-4306.0,0.0,0.0,-0.0,0.0,0.0,1.824950985,0.0,0.0,4260.0,0.0,0.0,0.0,0.0,0.0,4.874267079,0.0,0.0,-4241.0,0.0,0.0,-0.0,0.0,0.0,2.8479000990000003,0.0,0.0,1.2999999523162842,0.7599999904632568,-3.4600000381469727,0.0501708984375,-0.0172119140625,1.01458740234375,33.15999984741211,0.0,38.0,-0.0024566650390625,0.0293426513671875,Waiting,-4.961730205278592,4.125,48896.0,-217.0,-1627.5,-1600.0,0.0,0.0,
2.958007999999998,4.25,0.0,4287.0,0.0,0.0,0.0,0.0,0.125,3.80859336,0.0,0.0,-4306.0,0.0,0.0,-0.0,0.0,0.0,1.829833797,0.0,0.0,4260.0,0.0,0.0,0.0,0.0,0.0,4.8730463760000005,0.0,0.0,-4241.0,0.0,0.0,-0.0,0.0,0.0,2.8491208020000003,0.0,0.0,1.2999999523162842,0.7699999809265137,-3.4600000381469727,0.0328369140625,-0.00421142578125,1.04150390625,33.15999984741211,0.0,20.0,-0.0025177001953125,0.0292205810546875,Waiting,-4.949657869012707,4.125,48896.0,-217.0,-1627.5,-1600.0,0.0,0.0,
2.9776929999999995,4.25,0.0,4287.0,0.0,0.0,0.0,0.0,0.125,3.80859336,0.0,0.0,-4306.0,0.0,0.0,-0.0,0.0,0.0,1.824950985,0.0,0.0,4260.0,0.0,0.0,0.0,0.0,0.0,4.8730463760000005,0.0,0.0,-4241.0,0.0,0.0,-0.0,0.0,0.0,2.8491208020000003,0.0,0.0,1.2899999618530273,0.7599999904632568,-3.4600000381469727,0.03302001953125,0.00439453125,1.0179443359375,33.15999984741211,0.0,20.0,-0.0025634765625,0.0289154052734375,Waiting,-4.937585532746823,4.125,48896.0,-217.0,-1627.5,-1600.0,0.0,0.0,
2.9984389999999985,4.25,0.0,4287.0,0.0,0.0,0.0,0.0,0.125,3.80859336,0.0,0.0,-4306.0,0.0,0.0,-0.0,0.0,0.0,1.823730282,0.0,0.0,4260.0,0.0,0.0,0.0,0.0,0.0,4.8730463760000005,0.0,0.0,-4241.0,0.0,0.0,-0.0,0.0,0.0,2.8491208020000003,0.0,0.0,1.2899999618530273,0.7599999904632568,-3.4600000381469727,0.05596923828125,-0.03466796875,1.0152587890625,33.15999984741211,0.0,45.0,-0.0025177001953125,0.0287017822265625,Waiting,-4.925513196480939,4.125,48635.0,-217.0,-1627.5,-1600.0,0.0,0.0,
3.0193639999999977,4.25,0.0,4287.0,0.0,0.0,0.0,0.0,0.125,3.80859336,0.0,0.0,-4306.0,0.0,0.0,-0.0,0.0,0.0,1.824950985,0.0,0.0,4260.0,0.0,0.0,0.0,0.0,0.0,4.8730463760000005,0.0,0.0,-4241.0,0.0,0.0,-0.0,0.0,0.0,2.8479000990000003,0.0,0.0,1.2999999523162842,0.7599999904632568,-3.4600000381469727,0.02935791015625,0.00128173828125,0.9974365234375,33.15999984741211,0.0,17.0,-0.0024261474609375,0.0284423828125,Waiting,-4.925513196480939,4.125,48635.0,-217.0,-1627.5,-1600.0,0.0,0.0,
3.0410799999999982,4.25,0.0,4287.0,0.0,0.0,0.0,0.0,0.125,3.80859336,0.0,0.0,-4306.0,0.0,0.0,-0.0,0.0,0.0,1.824950985,0.0,0.0,4260.0,0.0,0.0,0.0,0.0,0.0,4.8730463760000005,0.0,0.0,-4241.0,0.0,0.0,-0.0,0.0,0.0,2.8479000990000003,0.0,0.0,1.309999942779541,0.7799999713897705,-3.4700000286102295,0.01837158203125,0.02984619140625,1.01580810546875,33.15999984741211,0.0,4.0,-0.0021514892578125,0.0281829833984375,Waiting,-4.913440860215053,4.125,48635.0,-217.0,-1627.5,-1600.0,0.0,0.0,
3.0579419999999993,4.25,0.0,4287.0,0.0,0.0,0.0,0.0,0.125,3.80859336,0.0,0.0,-4306.0,0.0,0.0,-0.0,0.0,0.0,1.826171688,0.0,0.0,4260.0,0.0,0.0,0.0,0.0,0.0,4.8730463760000005,0.0,0.0,-4241.0,0.0,0.0,-0.0,0.0,0.0,2.8479000990000003,0.0,0.0,1.2899999618530273,0.7799999713897705,-3.4700000286102295,-0.01666259765625,0.0244140625,0.9825439453125,33.15999984741211,0.0,-30.0,-0.00201416015625,0.0281829833984375,Waiting,-4.901368523949168,4.125,48635.0,-217.0,-1627.5,-1600.0,0.7,0.0,
