Time,ClimberA1,ClimberA2,FRpos,FRCurrent,FRspeed,FRsetpoint,FRApos,FRACurrent,FREncpos,FREncSetpoint,FREncSpeed,FLpos,FLCurrent,FLspeed,FLsetpoint,FLApos,FLACurrent,FLEncpos,FLEncSetpoint,FLEncSpeed,BRpos,BRCurrent,BRspeed,BRsetpoint,BRApos,BRACurrent,BREncpos,BREncSetpoint,BREncSpeed,BLpos,BLCurrent,BLspeed,BLsetpoint,BLApos,BLACurrent,BLEncpos,BLEncSetpoint,BLEncSpeed,navx_Pitch,navx_Roll,navx_Yaw,navx_XAcc,navx_YAcc,navx_ZAcc,navx_Temp,navx_Bar,navx_Alt,navx_XDis,navx_YDis,GearPlacerState,ShootOutputV,ShootOutputCurrent,ShootEncPos,ShootEncVelocity,ShootSpeed,ShootSetpoint,CarouselSetpoint,CarouselCurrent,
0.5343620000000228,0.0,0.0,-78.0,0.0,0.0,0.0,0.0,0.125,3.7988277360000002,0.0,0.0,-14.0,0.0,0.0,0.0,0.0,0.0,1.8395994210000002,0.0,0.0,47.0,0.0,0.0,0.0,0.0,0.0,4.884032703,0.0,0.0,-5.0,0.0,0.0,0.0,0.0,0.0,2.8442379900000003,0.0,0.0,1.0499999523162842,0.4000000059604645,-142.8800048828125,0.0086669921875,0.01751708984375,1.00714111328125,31.420000076293945,0.0,0.0,-0.0377655029296875,0.002716064453125,Waiting,0.0,0.0,0.0,0.0,0.0,0.0,0.0,0.0,
0.5851230000000214,0.0,0.0,-78.0,0.0,0.0,0.0,0.0,0.125,3.7988277360000002,0.0,0.0,-14.0,0.0,0.0,-0.0,0.0,0.0,1.8395994210000002,0.0,0.0,47.0,0.0,0.0,0.0,0.0,0.0,4.884032703,0.0,0.0,-5.0,0.0,0.0,-0.0,0.0,0.0,2.8479000990000003,0.0,0.0,1.0499999523162842,0.4000000059604645,-142.8800048828125,0.0040283203125,0.01568603515625,1.00469970703125,31.420000076293945,0.0,2.0,-0.0377655029296875,0.002716064453125,Waiting,-12.700000000000001,0.0,0.0,0.0,0.0,-1600.0,0.0,0.0,
0.6044410000000208,0.0,0.0,-78.0,0.0,0.0,0.0,0.0,0.125,3.7976070330000002,0.0,0.0,-14.0,0.0,0.0,-0.0,0.0,0.0,1.8395994210000002,0.0,0.0,47.0,0.0,0.0,0.0,0.0,0.0,4.884032703,0.0,0.0,-5.0,0.0,0.0,-0.0,0.0,0.0,2.8491208020000003,0.0,0.0,1.0499999523162842,0.4000000059604645,-142.8800048828125,0.006103515625,0.02032470703125,1.007080078125,31.420000076293945,0.0,0.0,-0.0377655029296875,0.002716064453125,Waiting,-12.700000000000001,20.625,0.0,0.0,0.0,-1600.0,0.0,0.0,
0.6280750000000116,20.25,0.0,-78.0,0.0,0.0,0.0,0.0,0.125,3.7988277360000002,0.0,0.028076169000000206,-14.0,0.0,0.0,-0.0,0.0,0.0,1.8395994210000002,0.0,0.0,47.0,0.0,0.0,0.0,0.0,0.0,4.882812,0.0,0.0,-5.0,0.0,0.0,-0.0,0.0,0.0,2.8491208020000003,0.0,0.0,1.0499999523162842,0.4000000059604645,-142.88999938964844,4.8828125E-4,-0.00726318359375,1.0531005859375,31.420000076293945,0.0,7.0,-0.0377197265625,0.002716064453125,Waiting,-12.700000000000001,45.0,0.0,0.0,-7.5,-1600.0,0.0,0.0,
0.646939000000013,20.25,0.0,-78.0,0.0,0.0,0.0,0.0,0.125,3.8000484390000002,0.0,0.028076169000000206,-14.0,0.0,0.0,-0.0,0.0,0.0,1.8395994210000002,0.0,0.0,47.0,0.0,0.0,0.0,0.0,0.0,4.885253406,0.0,0.0,-5.0,0.0,0.0,-0.0,0.0,0.0,2.8491208020000003,0.0,0.0,1.0299999713897705,0.38999998569488525,-142.8800048828125,-0.0015869140625,0.014892578125,1.00982666015625,31.420000076293945,0.0,8.0,-0.0376739501953125,0.002716064453125,Waiting,-12.700000000000001,71.375,0.0,0.0,-22.5,-1600.0,0.0,0.0,
0.6650720000000147,20.25,0.0,-78.0,0.0,0.0,0.0,0.0,0.125,3.7988277360000002,0.0,0.028076169000000206,-14.0,0.0,0.0,-0.0,0.0,0.0,1.8395994210000002,0.0,0.0,47.0,0.0,0.0,0.0,0.0,0.0,4.882812,0.0,0.0,-5.0,0.0,0.0,-0.0,0.0,0.0,2.8479000990000003,0.0,0.0,1.0299999713897705,0.38999998569488525,-142.8800048828125,-0.01141357421875,0.041259765625,0.98651123046875,31.420000076293945,0.0,0.0,-0.0376739501953125,0.0026397705078125,Waiting,-10.350000000000001,79.25,-16.0,-6.0,-97.5,-1600.0,0.0,0.0,
0.7162520000000077,69.75,0.0,-78.0,0.0,0.0,0.0,0.0,0.125,3.8000484390000002,0.0,0.0,-14.0,0.0,0.0,-0.0,0.0,0.0,1.8395994210000002,0.0,0.0,47.0,0.0,0.0,0.0,0.0,0.0,4.882812,0.0,0.0,-5.0,0.0,0.0,-0.0,0.0,0.0,2.8442379900000003,0.0,0.0,1.0399999618530273,0.38999998569488525,-142.8800048828125,0.0047607421875,0.02301025390625,1.01239013671875,31.389999389648438,0.0,-1.0,-0.0376739501953125,0.0025482177734375,Waiting,-10.350000000000001,77.375,-16.0,-6.0,-157.5,-1600.0,0.0,0.0,
0.7331160000000091,69.75,0.0,-78.0,0.0,0.0,0.0,0.0,0.125,3.802489845,0.0,0.0,-14.0,0.0,0.0,-0.0,0.0,0.0,1.8395994210000002,0.0,0.0,47.0,0.0,0.0,0.0,0.0,0.0,4.884032703,0.0,0.0,-5.0,0.0,0.0,-0.0,0.0,0.0,2.8479000990000003,0.0,0.0,1.0299999713897705,0.38999998569488525,-142.8800048828125,0.01641845703125,-2.44140625E-4,1.0068359375,31.389999389648438,0.0,3.0,-0.0376739501953125,0.0025634765625,Waiting,-10.350000000000001,76.125,-16.0,-6.0,-232.5,-1600.0,0.0,0.0,
0.7517989999999991,69.75,0.0,-78.0,0.0,0.0,0.0,0.0,0.125,3.7988277360000002,0.0,0.0,-14.0,0.0,0.0,-0.0,0.0,0.0,1.8395994210000002,0.0,0.0,47.0,0.0,0.0,0.0,0.0,0.0,4.882812,0.0,0.0,-5.0,0.0,0.0,-0.0,0.0,0.0,2.8479000990000003,0.0,0.0,1.0399999618530273,0.3799999952316284,-142.8800048828125,0.01239013671875,-0.01458740234375,1.01690673828125,31.389999389648438,0.0,15.0,-0.0376739501953125,0.002593994140625,Waiting,-10.350000000000001,74.375,-16.0,-6.0,-307.5,-1600.0,0.0,0.0,
0.7699990000000108,69.75,0.0,-78.0,0.0,0.0,0.0,0.0,0.125,3.7988277360000002,0.0,0.0,-14.0,0.0,0.0,-0.0,0.0,0.0,1.8395994210000002,0.0,0.0,47.0,0.0,0.0,0.0,0.0,0.0,4.884032703,0.0,0.0,-5.0,0.0,0.0,-0.0,0.0,0.0,2.8479000990000003,0.0,0.0,1.0399999618530273,0.38999998569488525,-142.8800048828125,-3.0517578125E-4,0.0179443359375,1.0040283203125,31.389999389648438,0.0,5.0,-0.0376739501953125,0.002655029296875,Waiting,-10.350000000000001,73.0,-98.0,-58.0,-390.0,-1600.0,0.0,0.0,
0.7916080000000074,69.75,0.0,-78.0,0.0,0.0,0.0,0.0,0.125,3.8000484390000002,0.0,0.0,-14.0,0.0,0.0,-0.0,0.0,0.0,1.8395994210000002,0.0,0.0,47.0,0.0,0.0,0.0,0.0,0.0,4.884032703,0.0,0.0,-5.0,0.0,0.0,-0.0,0.0,0.0,2.8479000990000003,0.0,0.0,1.0299999713897705,0.38999998569488525,-142.8800048828125,0.00860595703125,0.051025390625,1.0286865234375,31.389999389648438,0.0,-20.0,-0.037689208984375,0.0028228759765625,Waiting,-10.5,71.875,-98.0,-58.0,-465.0,-1600.0,0.0,0.0,
0.8102700000000186,69.75,0.0,-78.0,0.0,0.0,0.0,0.0,0.125,3.801269142,0.0,0.0,-14.0,0.0,0.0,-0.0,0.0,0.0,1.8395994210000002,0.0,0.0,47.0,0.0,0.0,0.0,0.0,0.0,4.885253406,0.0,0.0,-5.0,0.0,0.0,-0.0,0.0,0.0,2.8479000990000003,0.0,0.0,1.0399999618530273,0.4000000059604645,-142.8800048828125,0.010009765625,-0.00177001953125,1.01898193359375,31.389999389648438,0.0,9.0,-0.0377197265625,0.002899169921875,Waiting,-10.5,70.75,-98.0,-58.0,-540.0,-1600.0,0.0,0.0,
0.8310250000000233,69.25,0.0,-78.0,0.0,0.0,0.0,0.0,0.125,3.7988277360000002,0.0,0.0,-14.0,0.0,0.0,-0.0,0.0,0.0,1.8395994210000002,0.0,0.0,47.0,0.0,0.0,0.0,0.0,0.0,4.882812,0.0,0.0,-5.0,0.0,0.0,-0.0,0.0,0.0,2.8491208020000003,0.0,0.0,1.0199999809265137,0.3799999952316284,-142.8800048828125,0.013427734375,0.00347900390625,1.02587890625,31.389999389648438,0.0,3.0,-0.0377044677734375,0.002899169921875,Waiting,-10.5,69.75,-98.0,-58.0,-615.0,-1600.0,0.0,0.0,
0.8578400000000256,69.25,0.0,-78.0,0.0,0.0,0.0,0.0,0.125,3.802489845,0.0,0.0,-14.0,0.0,0.0,-0.0,0.0,0.0,1.8395994210000002,0.0,0.0,47.0,0.0,0.0,0.0,0.0,0.0,4.884032703,0.0,0.0,-5.0,0.0,0.0,-0.0,0.0,0.0,2.8491208020000003,0.0,0.0,1.0199999809265137,0.3799999952316284,-142.8800048828125,0.00811767578125,-0.03778076171875,0.9591064453125,31.389999389648438,0.0,31.0,-0.03765869140625,0.0029449462890625,Waiting,-10.5,68.5,-98.0,-58.0,-690.0,-1600.0,0.0,0.0,
0.8794820000000182,69.75,0.0,-78.0,0.0,0.0,0.0,0.0,0.125,3.7976070330000002,0.0,0.0,-14.0,0.0,0.0,-0.0,0.0,0.0,1.8395994210000002,0.0,0.0,47.0,0.0,0.0,0.0,0.0,0.0,4.885253406,0.0,0.0,-5.0,0.0,0.0,-0.0,0.0,0.0,2.8479000990000003,0.0,0.0,0.9800000190734863,0.38999998569488525,-142.8800048828125,0.056396484375,-0.02203369140625,1.0245361328125,31.389999389648438,0.0,-15.0,-0.0376129150390625,0.0030670166015625,Waiting,-10.5,67.5,-98.0,-58.0,-765.0,-1600.0,0.0,0.0,
0.899716000000015,69.75,0.0,-78.0,0.0,0.0,0.0,0.0,0.125,3.7988277360000002,0.0,0.0,-14.0,0.0,0.0,-0.0,0.0,0.0,1.8395994210000002,0.0,0.0,47.0,0.0,0.0,0.0,0.0,0.0,4.884032703,0.0,0.0,-5.0,0.0,0.0,-0.0,0.0,0.0,2.8491208020000003,0.0,0.0,1.0,0.38999998569488525,-142.8800048828125,0.0987548828125,-0.06805419921875,0.9840087890625,31.389999389648438,0.0,-21.0,-0.0375213623046875,0.003265380859375,Waiting,-10.600000000000001,66.5,-247.0,-114.0,-832.5,-1600.0,0.0,0.0,
0.917570000000007,69.75,0.0,-78.0,0.0,0.0,0.0,0.0,0.125,3.7988277360000002,0.0,0.0,-14.0,0.0,0.0,-0.0,0.0,0.0,1.8395994210000002,0.0,0.0,47.0,0.0,0.0,0.0,0.0,0.0,4.884032703,0.0,0.0,-5.0,0.0,0.0,-0.0,0.0,0.0,2.8503415050000003,0.0,0.0,1.0099999904632568,0.38999998569488525,-142.8800048828125,-0.02203369140625,-0.034912109375,1.01690673828125,31.389999389648438,0.0,55.0,-0.037445068359375,0.00347900390625,Waiting,-10.600000000000001,65.25,-247.0,-114.0,-907.5,-1600.0,0.0,0.0,
0.9432799999999988,69.75,0.0,-78.0,0.0,0.0,0.0,0.0,0.125,3.7988277360000002,0.0,0.0,-14.0,0.0,0.0,-0.0,0.0,0.0,1.8395994210000002,0.0,0.0,47.0,0.0,0.0,0.0,0.0,0.0,4.884032703,0.0,0.0,-5.0,0.0,0.0,-0.0,0.0,0.0,2.8491208020000003,0.0,0.0,1.0099999904632568,0.38999998569488525,-142.8800048828125,-0.01025390625,-0.037109375,0.983154296875,31.389999389648438,0.0,46.0,-0.0371551513671875,0.0038299560546875,Waiting,-10.600000000000001,64.25,-247.0,-114.0,-975.0,-1600.0,0.0,0.0,
0.9643310000000056,69.625,0.0,-78.0,0.0,0.0,0.0,0.0,0.125,3.8000484390000002,0.0,0.0,-14.0,0.0,0.0,-0.0,0.0,0.0,1.8395994210000002,0.0,0.0,47.0,0.0,0.0,0.0,0.0,0.0,4.884032703,0.0,0.0,-5.0,0.0,0.0,-0.0,0.0,0.0,2.8479000990000003,0.0,0.0,1.0,0.38999998569488525,-142.8800048828125,0.06109619140625,0.0172119140625,1.056884765625,31.389999389648438,0.0,-42.0,-0.0369720458984375,0.0040435791015625,Waiting,-10.600000000000001,63.375,-247.0,-114.0,-1042.5,-1600.0,0.0,0.0,
0.9868640000000014,69.625,0.0,-78.0,0.0,0.0,0.0,0.0,0.125,3.7988277360000002,0.0,0.0,-14.0,0.0,0.0,-0.0,0.0,0.0,1.8395994210000002,0.0,0.0,47.0,0.0,0.0,0.0,0.0,0.0,4.885253406,0.0,0.0,-5.0,0.0,0.0,-0.0,0.0,0.0,2.8491208020000003,0.0,0.0,1.0199999809265137,0.4000000059604645,-142.8800048828125,0.02960205078125,0.02374267578125,1.0277099609375,31.389999389648438,0.0,-21.0,-0.0367279052734375,0.004547119140625,Waiting,-10.600000000000001,62.5,-247.0,-114.0,-1110.0,-1600.0,0.0,0.0,
1.0076290000000154,68.75,0.0,-78.0,0.0,0.0,0.0,0.0,0.125,3.8000484390000002,0.0,0.0,-14.0,0.0,0.0,-0.0,0.0,0.0,1.8395994210000002,0.0,0.0,47.0,0.0,0.0,0.0,0.0,0.0,4.884032703,0.0,0.0,-5.0,0.0,0.0,-0.0,0.0,0.0,2.8491208020000003,0.0,0.0,1.0199999809265137,0.4000000059604645,-142.8800048828125,-6.7138671875E-4,0.01605224609375,0.99310302734375,31.389999389648438,0.0,7.0,-0.03662109375,0.00482177734375,Waiting,-10.600000000000001,59.0,-455.0,-165.0,-1237.5,-1600.0,0.0,0.0,
1.0430440000000236,68.75,0.0,-78.0,0.0,0.0,0.0,0.0,0.125,3.7988277360000002,0.0,0.0,-14.0,0.0,0.0,-0.0,0.0,0.0,1.8395994210000002,0.0,0.0,47.0,0.0,0.0,0.0,0.0,0.0,4.884032703,0.0,0.0,-5.0,0.0,0.0,-0.0,0.0,0.0,2.8479000990000003,0.0,0.0,1.0199999809265137,0.4099999964237213,-142.8800048828125,-0.02301025390625,-0.03082275390625,0.9764404296875,31.389999389648438,0.0,12.0,-0.0360260009765625,0.0048980712890625,Waiting,-10.436363636363637,55.5,-455.0,-165.0,-1297.5,-1600.0,0.0,0.0,
1.0632660000000032,68.75,0.0,-78.0,0.0,0.0,0.0,0.0,0.125,3.7988277360000002,0.0,0.0,-14.0,0.0,0.0,-0.0,0.0,0.0,1.8395994210000002,0.0,0.0,47.0,0.0,0.0,0.0,0.0,0.0,4.884032703,0.0,0.0,-5.0,0.0,0.0,-0.0,0.0,0.0,2.8491208020000003,0.0,0.0,1.0199999809265137,0.4099999964237213,-142.8800048828125,-0.008056640625,0.03411865234375,0.980224609375,31.389999389648438,0.0,2.0,-0.0360260009765625,0.0050048828125,Waiting,-10.001515151515152,49.875,-455.0,-165.0,-1357.5,-1600.0,0.0,0.0,
1.0842370000000228,60.5,0.0,-78.0,0.0,0.0,0.0,0.0,0.125,3.7988277360000002,0.0,0.0,-14.0,0.0,0.0,-0.0,0.0,0.0,1.8395994210000002,0.0,0.0,47.0,0.0,0.0,0.0,0.0,0.0,4.882812,0.0,0.0,-5.0,0.0,0.0,-0.0,0.0,0.0,2.8442379900000003,0.0,0.0,1.0199999809265137,0.4000000059604645,-142.8800048828125,-0.00323486328125,0.04986572265625,1.02630615234375,31.389999389648438,0.0,-10.0,-0.0360260009765625,0.00506591796875,Waiting,-9.110606060606061,42.5,-455.0,-165.0,-1410.0,-1600.0,0.0,0.0,
1.1044370000000054,60.5,0.0,-78.0,0.0,0.0,0.0,0.0,0.125,3.7988277360000002,0.0,0.0,-14.0,0.0,0.0,-0.0,0.0,0.0,1.8395994210000002,0.0,0.0,47.0,0.0,0.0,0.0,0.0,0.0,4.884032703,0.0,0.0,-5.0,0.0,0.0,-0.0,0.0,0.0,2.8491208020000003,0.0,0.0,1.0199999809265137,0.4000000059604645,-142.8800048828125,0.00433349609375,-0.01025390625,1.02239990234375,31.389999389648438,0.0,19.0,-0.0360260009765625,0.0051727294921875,Waiting,-6.087878787878789,34.75,-455.0,-165.0,-1470.0,-1600.0,0.0,0.0,
1.1272270000000135,60.5,0.0,-78.0,0.0,0.0,0.0,0.0,0.125,3.7988277360000002,0.0,0.0,-14.0,0.0,0.0,-0.0,0.0,0.0,1.8395994210000002,0.0,0.0,47.0,0.0,0.0,0.0,0.0,0.0,4.882812,0.0,0.0,-5.0,0.0,0.0,-0.0,0.0,0.0,2.8479000990000003,0.0,0.0,1.0099999904632568,0.4099999964237213,-142.8800048828125,-0.011474609375,0.0087890625,0.98260498046875,31.389999389648438,0.0,19.0,-0.0360260009765625,0.0052490234375,Waiting,-4.9318181818181825,27.125,-455.0,-165.0,-1515.0,-1600.0,0.0,0.0,
1.1495679999999993,36.625,0.0,-78.0,0.0,0.0,0.0,0.0,0.125,3.7988277360000002,0.0,0.0,-14.0,0.0,0.0,-0.0,0.0,0.0,1.8395994210000002,0.0,0.0,47.0,0.0,0.0,0.0,0.0,0.0,4.882812,0.0,0.0,-5.0,0.0,0.0,-0.0,0.0,0.0,2.8491208020000003,0.0,0.0,1.0199999809265137,0.4000000059604645,-142.8800048828125,0.00189208984375,-0.01220703125,1.00250244140625,31.389999389648438,0.0,22.0,-0.0360107421875,0.00543212890625,Waiting,-4.6218475073313785,20.625,-710.0,-207.0,-1560.0,-1600.0,0.0,0.0,
1.1739070000000065,36.625,0.0,-78.0,0.0,0.0,0.0,0.0,0.125,3.8000484390000002,0.0,0.0,-14.0,0.0,0.0,-0.0,0.0,0.0,1.8395994210000002,0.0,0.0,47.0,0.0,0.0,0.0,0.0,0.0,4.882812,0.0,0.0,-5.0,0.0,0.0,-0.0,0.0,0.0,2.8491208020000003,0.0,0.0,1.0199999809265137,0.4000000059604645,-142.8800048828125,0.01171875,-0.01568603515625,1.0108642578125,31.389999389648438,0.0,16.0,-0.035980224609375,0.00555419921875,Waiting,-6.4288856304985345,15.75,-710.0,-207.0,-1597.5,-1600.0,0.0,0.0,
1.193320000000007,36.625,0.0,-78.0,0.0,0.0,0.0,0.0,0.125,3.801269142,0.0,0.0,-14.0,0.0,0.0,-0.0,0.0,0.0,1.8395994210000002,0.0,0.0,47.0,0.0,0.0,0.0,0.0,0.0,4.884032703,0.0,0.0,-5.0,0.0,0.0,-0.0,0.0,0.0,2.8442379900000003,0.0,0.0,1.0,0.38999998569488525,-142.8800048828125,0.00360107421875,-0.01080322265625,1.00225830078125,31.389999389648438,0.0,19.0,-0.035797119140625,0.0059356689453125,Waiting,-6.162463343108505,11.125,-710.0,-207.0,-1635.0,-1600.0,0.0,0.0,
1.2097270000000135,15.625,0.0,-78.0,0.0,0.0,0.0,0.0,0.125,3.8000484390000002,0.0,0.0,-14.0,0.0,0.0,-0.0,0.0,0.0,1.8395994210000002,0.0,0.0,47.0,0.0,0.0,0.0,0.0,0.0,4.885253406,0.0,0.0,-5.0,0.0,0.0,-0.0,0.0,0.0,2.8491208020000003,0.0,0.0,0.9900000095367432,0.38999998569488525,-142.8800048828125,0.0272216796875,-0.01800537109375,0.97088623046875,31.40999984741211,0.0,4.0,-0.0356597900390625,0.0061798095703125,Waiting,-3.312903225806452,9.5,-710.0,-207.0,-1657.5,-1600.0,0.0,0.0,
1.229283000000025,15.625,0.0,-78.0,0.0,0.0,0.0,0.0,0.125,3.8000484390000002,0.0,0.0,-14.0,0.0,0.0,-0.0,0.0,0.0,1.8395994210000002,0.0,0.0,47.0,0.0,0.0,0.0,0.0,0.0,4.884032703,0.0,0.0,-5.0,0.0,0.0,-0.0,0.0,0.0,2.8479000990000003,0.0,0.0,0.9800000190734863,0.3799999952316284,-142.8800048828125,-0.00341796875,-0.0035400390625,1.00146484375,31.40999984741211,0.0,20.0,-0.0355224609375,0.0064544677734375,Waiting,-5.490615835777127,7.75,-710.0,-207.0,-1672.5,-1600.0,0.0,0.0,
1.2452119999999995,15.625,0.0,-78.0,0.0,0.0,0.0,0.0,0.125,3.7963863300000003,0.0,0.0,-14.0,0.0,0.0,-0.0,0.0,0.0,1.8395994210000002,0.0,0.0,47.0,0.0,0.0,0.0,0.0,0.0,4.885253406,0.0,0.0,-5.0,0.0,0.0,-0.0,0.0,0.0,2.8491208020000003,0.0,0.0,0.9700000286102295,0.3799999952316284,-142.8800048828125,0.0198974609375,-0.02044677734375,0.9781494140625,31.40999984741211,0.0,11.0,-0.0353546142578125,0.0067596435546875,Waiting,-5.340029325513197,7.75,-710.0,-207.0,-1672.5,-1600.0,0.0,0.0,
1.2598400000000256,15.625,0.0,-78.0,0.0,0.0,0.0,0.0,0.125,3.7927242210000003,0.0,0.0,-14.0,0.0,0.0,-0.0,0.0,0.0,1.8383787180000002,0.0,0.0,47.0,0.0,0.0,0.0,0.0,0.0,4.884032703,0.0,0.0,-5.0,0.0,0.0,-0.0,0.0,0.0,2.8479000990000003,0.0,0.0,0.9599999785423279,0.3799999952316284,-142.8800048828125,0.00494384765625,-0.0194091796875,0.9990234375,31.40999984741211,0.0,23.0,-0.03515625,0.007110595703125,Waiting,-5.062023460410558,6.25,-983.0,-226.0,-1687.5,-1600.0,0.0,0.0,
1.2811169999999983,7.5,0.0,-78.0,0.0,0.0,0.0,0.0,0.125,3.7988277360000002,0.0,0.0,-14.0,0.0,0.0,-0.0,0.0,0.0,1.8395994210000002,0.0,0.0,47.0,0.0,0.0,0.0,0.0,0.0,4.882812,0.0,0.0,-5.0,0.0,0.0,-0.0,0.0,0.0,2.8479000990000003,0.0,0.0,0.949999988079071,0.3700000047683716,-142.8800048828125,0.0018310546875,-0.013671875,0.9803466796875,31.40999984741211,0.0,21.0,-0.034942626953125,0.00750732421875,Waiting,-5.08592375366569,5.375,-983.0,-226.0,-1695.0,-1600.0,0.0,0.0,
1.2979500000000117,7.5,0.0,-78.0,0.0,0.0,0.0,0.0,0.125,3.7988277360000002,0.0,0.0,-14.0,0.0,0.0,-0.0,0.0,0.0,1.8395994210000002,0.0,0.0,47.0,0.0,0.0,0.0,0.0,0.0,4.884032703,0.0,0.0,-5.0,0.0,0.0,-0.0,0.0,0.0,2.8491208020000003,0.0,0.0,0.9399999976158142,0.3700000047683716,-142.8800048828125,9.1552734375E-4,-0.012451171875,0.97552490234375,31.40999984741211,0.0,21.0,-0.034698486328125,0.0079193115234375,Waiting,-5.073900293255132,4.625,-983.0,-226.0,-1702.5,-1600.0,0.0,0.0,
1.3176790000000038,7.5,0.0,-78.0,0.0,0.0,0.0,0.0,0.125,3.7988277360000002,0.0,0.0,-14.0,0.0,0.0,-0.0,0.0,0.0,1.8383787180000002,0.0,0.0,47.0,0.0,0.0,0.0,0.0,0.0,4.884032703,0.0,0.0,-5.0,0.0,0.0,-0.0,0.0,0.0,2.8479000990000003,0.0,0.0,0.9300000071525574,0.36000001430511475,-142.8800048828125,0.01824951171875,-0.01239013671875,0.9798583984375,31.40999984741211,0.0,7.0,-0.034088134765625,0.00885009765625,Waiting,-4.905571847507332,4.25,-983.0,-226.0,-1710.0,-1600.0,0.0,0.0,
1.338372000000003,5.25,0.0,-78.0,0.0,0.0,0.0,0.0,0.125,3.7988277360000002,0.0,0.0,-14.0,0.0,0.0,-0.0,0.0,0.0,1.8395994210000002,0.0,0.0,47.0,0.0,0.0,0.0,0.0,0.0,4.885253406,0.0,0.0,-5.0,0.0,0.0,-0.0,0.0,0.0,2.8479000990000003,0.0,0.0,0.9200000166893005,0.3499999940395355,-142.8800048828125,0.009521484375,0.0069580078125,1.02130126953125,31.40999984741211,0.0,3.0,-0.034088134765625,0.009368896484375,Waiting,-4.8695014662756595,3.875,-983.0,-226.0,-1710.0,-1600.0,0.0,0.0,
1.3583210000000254,5.25,0.0,-78.0,0.0,0.0,0.0,0.0,0.125,3.7963863300000003,0.0,0.0,-14.0,0.0,0.0,-0.0,0.0,0.0,1.8395994210000002,0.0,0.0,47.0,0.0,0.0,0.0,0.0,0.0,4.882812,0.0,0.0,-5.0,0.0,0.0,-0.0,0.0,0.0,2.8479000990000003,0.0,0.0,0.9200000166893005,0.3499999940395355,-142.8800048828125,0.01812744140625,-0.00836181640625,0.97125244140625,31.40999984741211,0.0,4.0,-0.034088134765625,0.0099029541015625,Waiting,-4.833431085043989,3.75,-983.0,-226.0,-1710.0,-1600.0,0.0,0.0,
1.3816300000000046,5.25,0.0,-78.0,0.0,0.0,0.0,0.0,0.125,3.7988277360000002,0.0,0.0,-14.0,0.0,0.0,-0.0,0.0,0.0,1.8395994210000002,0.0,0.0,47.0,0.0,0.0,0.0,0.0,0.0,4.884032703,0.0,0.0,-5.0,0.0,0.0,-0.0,0.0,0.0,2.8540036140000002,0.0,0.0,0.9100000262260437,0.3400000035762787,-142.8800048828125,0.0164794921875,-0.00274658203125,0.96209716796875,31.40999984741211,0.0,2.0,-0.034088134765625,0.01104736328125,Waiting,-4.929618768328446,3.875,-1256.0,-227.0,-1702.5,-1600.0,0.0,0.0,
1.401024000000005,4.125,0.0,-78.0,0.0,0.0,0.0,0.0,0.125,3.8000484390000002,0.0,0.0,-14.0,0.0,0.0,-0.0,0.0,0.0,1.8395994210000002,0.0,0.0,47.0,0.0,0.0,0.0,0.0,0.0,4.882812,0.0,0.0,-5.0,0.0,0.0,-0.0,0.0,0.0,2.8479000990000003,0.0,0.0,0.9200000166893005,0.3400000035762787,-142.8800048828125,0.0277099609375,-0.01287841796875,0.96600341796875,31.40999984741211,0.0,0.0,-0.034088134765625,0.0116729736328125,Waiting,-4.913440860215053,3.875,-1256.0,-227.0,-1702.5,-1600.0,0.0,0.0,
1.4185390000000189,4.125,0.0,-78.0,0.0,0.0,0.0,0.0,0.125,3.8000484390000002,0.0,0.0,-14.0,0.0,0.0,-0.0,0.0,0.0,1.8395994210000002,0.0,0.0,47.0,0.0,0.0,0.0,0.0,0.0,4.884032703,0.0,0.0,-5.0,0.0,0.0,-0.0,0.0,0.0,2.8491208020000003,0.0,0.0,0.9100000262260437,0.3400000035762787,-142.8800048828125,0.019775390625,-0.00811767578125,0.9593505859375,31.40999984741211,0.0,-9.0,-0.034088134765625,0.013031005859375,Waiting,-4.901368523949168,3.875,-1256.0,-227.0,-1702.5,-1600.0,0.0,0.0,
1.4374830000000074,4.125,0.0,-78.0,0.0,0.0,0.0,0.0,0.125,3.7963863300000003,0.0,0.0,-14.0,0.0,0.0,-0.0,0.0,0.0,1.8395994210000002,0.0,0.0,47.0,0.0,0.0,0.0,0.0,0.0,4.884032703,0.0,0.0,-5.0,0.0,0.0,-0.0,0.0,0.0,2.8479000990000003,0.0,0.0,0.9200000166893005,0.3499999940395355,-142.8800048828125,0.00677490234375,0.0284423828125,0.98236083984375,31.40999984741211,0.0,-8.0,-0.034088134765625,0.01373291015625,Waiting,-4.865151515151515,3.875,-1256.0,-227.0,-1702.5,-1600.0,0.0,0.0,
1.4602950000000128,4.0,0.0,-78.0,0.0,0.0,0.0,0.0,0.125,3.807372657,0.0,0.0,-14.0,0.0,0.0,-0.0,0.0,0.0,1.8383787180000002,0.0,0.0,47.0,0.0,0.0,0.0,0.0,0.0,4.882812,0.0,0.0,-5.0,0.0,0.0,-0.0,0.0,0.0,2.8479000990000003,0.0,0.0,0.9399999976158142,0.3400000035762787,-142.8800048828125,0.02984619140625,0.021240234375,0.9774169921875,31.40999984741211,0.0,-22.0,-0.0341033935546875,0.01373291015625,Waiting,-4.961730205278592,3.875,-1256.0,-227.0,-1695.0,-1600.0,0.0,0.0,
1.4803820000000123,4.0,0.0,-78.0,0.0,0.0,0.0,0.0,0.125,3.7988277360000002,0.0,0.0,-14.0,0.0,0.0,-0.0,0.0,0.0,1.8383787180000002,0.0,0.0,47.0,0.0,0.0,0.0,0.0,0.0,4.882812,0.0,0.0,-5.0,0.0,0.0,-0.0,0.0,0.0,2.8479000990000003,0.0,0.0,0.949999988079071,0.3499999940395355,-142.8800048828125,0.023193359375,0.0086669921875,1.01849365234375,31.40999984741211,0.0,-18.0,-0.034210205078125,0.01373291015625,Waiting,-4.937585532746823,3.875,-1256.0,-227.0,-1695.0,-1600.0,0.0,0.0,
1.4976089999999966,4.0,0.0,-78.0,0.0,0.0,0.0,0.0,0.125,3.7939449240000003,0.0,0.0,-14.0,0.0,0.0,-0.0,0.0,0.0,1.8371580150000002,0.0,0.0,47.0,0.0,0.0,0.0,0.0,0.0,4.882812,0.0,0.0,-5.0,0.0,0.0,-0.0,0.0,0.0,2.8479000990000003,0.0,0.0,0.9700000286102295,0.3499999940395355,-142.8800048828125,0.03839111328125,0.01287841796875,0.999755859375,31.40999984741211,0.0,-23.0,-0.0342864990234375,0.013763427734375,Waiting,-4.925513196480939,4.0,-1527.0,-226.0,-1695.0,-1600.0,0.0,0.0,
1.5190219999999972,4.0,0.0,-78.0,0.0,0.0,0.0,0.0,0.125,3.7988277360000002,0.0,0.0,-14.0,0.0,0.0,-0.0,0.0,0.0,1.8395994210000002,0.0,0.0,47.0,0.0,0.0,0.0,0.0,0.0,4.880370594,0.0,0.0,-5.0,0.0,0.0,-0.0,0.0,0.0,2.8491208020000003,0.0,0.0,0.9700000286102295,0.3499999940395355,-142.8800048828125,0.02337646484375,0.0045166015625,1.01678466796875,31.40999984741211,0.0,-5.0,-0.034393310546875,0.0138092041015625,Waiting,-5.022091886608015,4.0,-1527.0,-226.0,-1695.0,-1600.0,0.0,0.0,
1.5373070000000006,4.5,0.0,-78.0,0.0,0.0,0.0,0.0,0.125,3.7988277360000002,0.0,0.0,-14.0,0.0,0.0,-0.0,0.0,0.0,1.8395994210000002,0.0,0.0,47.0,0.0,0.0,0.0,0.0,0.0,4.884032703,0.0,0.0,-5.0,0.0,0.0,-0.0,0.0,0.0,2.8442379900000003,0.0,0.0,0.9800000190734863,0.3499999940395355,-142.8800048828125,0.03411865234375,-0.0150146484375,0.97967529296875,31.40999984741211,0.0,-3.0,-0.034515380859375,0.0139007568359375,Waiting,-4.9979472140762455,4.125,-1527.0,-226.0,-1687.5,-1600.0,0.0,0.0,
1.558589000000007,4.5,0.0,-78.0,0.0,0.0,0.0,0.0,0.125,3.7988277360000002,0.0,0.0,-14.0,0.0,0.0,-0.0,0.0,0.0,1.8395994210000002,0.0,0.0,47.0,0.0,0.0,0.0,0.0,0.0,4.884032703,0.0,0.0,-5.0,0.0,0.0,-0.0,0.0,0.0,2.8491208020000003,0.0,0.0,0.9800000190734863,0.3400000035762787,-142.8800048828125,0.03216552734375,-0.01739501953125,0.95892333984375,31.40999984741211,0.0,0.0,-0.034515380859375,0.0142059326171875,Waiting,-4.961730205278592,4.125,-1527.0,-226.0,-1687.5,-1600.0,0.0,0.0,
1.5820590000000083,4.75,0.0,-78.0,0.0,0.0,0.0,0.0,0.125,3.7976070330000002,0.0,0.0,-14.0,0.0,0.0,-0.0,0.0,0.0,1.8383787180000002,0.0,0.0,47.0,0.0,0.0,0.0,0.0,0.0,4.882812,0.0,0.0,-5.0,0.0,0.0,-0.0,0.0,0.0,2.8491208020000003,0.0,0.0,0.9800000190734863,0.3499999940395355,-142.8800048828125,0.01904296875,-0.01007080078125,0.96710205078125,31.40999984741211,0.0,5.0,-0.034515380859375,0.0144195556640625,Waiting,-4.937585532746823,4.125,-1527.0,-226.0,-1687.5,-1600.0,0.0,0.0,
1.5984180000000052,4.75,0.0,-78.0,0.0,0.0,0.0,0.0,0.125,3.7939449240000003,0.0,0.0,-14.0,0.0,0.0,-0.0,0.0,0.0,1.8395994210000002,0.0,0.0,47.0,0.0,0.0,0.0,0.0,0.0,4.884032703,0.0,0.0,-5.0,0.0,0.0,-0.0,0.0,0.0,2.8479000990000003,0.0,0.0,0.9800000190734863,0.3499999940395355,-142.8800048828125,0.02130126953125,0.01678466796875,0.99969482421875,31.40999984741211,0.0,-11.0,-0.034515380859375,0.0146636962890625,Waiting,-4.925513196480939,4.125,-1527.0,-226.0,-1687.5,-1600.0,0.0,0.0,
1.617738000000012,4.75,0.0,-78.0,0.0,0.0,0.0,0.0,0.125,3.7988277360000002,0.0,0.0,-14.0,0.0,0.0,-0.0,0.0,0.0,1.8395994210000002,0.0,0.0,47.0,0.0,0.0,0.0,0.0,0.0,4.884032703,0.0,0.0,-5.0,0.0,0.0,-0.0,0.0,0.0,2.8430172870000003,0.0,0.0,1.0,0.3499999940395355,-142.8800048828125,0.01251220703125,0.00775146484375,1.0269775390625,31.40999984741211,0.0,1.0,-0.034515380859375,0.015228271484375,Waiting,-5.022091886608015,4.125,-1797.0,-224.0,-1680.0,-1600.0,0.0,0.0,
1.6385679999999994,4.75,0.0,-78.0,0.0,0.0,0.0,0.0,0.125,3.7976070330000002,0.0,0.0,-14.0,0.0,0.0,-0.0,0.0,0.0,1.8395994210000002,0.0,0.0,47.0,0.0,0.0,0.0,0.0,0.0,4.884032703,0.0,0.0,-5.0,0.0,0.0,-0.0,0.0,0.0,2.8417965840000003,0.0,0.0,1.0,0.36000001430511475,-142.8800048828125,0.0106201171875,0.00469970703125,1.01739501953125,31.40999984741211,0.0,4.0,-0.034515380859375,0.015533447265625,Waiting,-5.0181818181818185,4.25,-1797.0,-224.0,-1680.0,-1600.0,0.0,0.0,
1.65825,4.75,0.0,-78.0,0.0,0.0,0.0,0.0,0.125,3.7988277360000002,0.0,0.0,-14.0,0.0,0.0,-0.0,0.0,0.0,1.8395994210000002,0.0,0.0,47.0,0.0,0.0,0.0,0.0,0.0,4.884032703,0.0,0.0,-5.0,0.0,0.0,-0.0,0.0,0.0,2.8442379900000003,0.0,0.0,0.9900000095367432,0.3499999940395355,-142.8800048828125,0.00787353515625,-0.01318359375,1.02301025390625,31.40999984741211,0.0,17.0,-0.034515380859375,0.015869140625,Waiting,-4.993939393939394,4.25,-1797.0,-224.0,-1680.0,-1600.0,0.0,0.0,
1.680485000000015,4.75,0.0,-78.0,0.0,0.0,0.0,0.0,0.125,3.7988277360000002,0.0,0.0,-14.0,0.0,0.0,-0.0,0.0,0.0,1.8395994210000002,0.0,0.0,47.0,0.0,0.0,0.0,0.0,0.0,4.884032703,0.0,0.0,-5.0,0.0,0.0,-0.0,0.0,0.0,2.8491208020000003,0.0,0.0,0.9800000190734863,0.3400000035762787,-142.8800048828125,0.015380859375,0.0030517578125,1.00677490234375,31.40999984741211,0.0,1.0,-0.034515380859375,0.0166168212890625,Waiting,-4.96969696969697,4.125,-1797.0,-224.0,-1680.0,-1600.0,0.0,0.0,
1.6988260000000008,4.75,0.0,-78.0,0.0,0.0,0.0,0.0,0.125,3.80859336,0.0,0.0,-14.0,0.0,0.0,-0.0,0.0,0.0,1.8395994210000002,0.0,0.0,47.0,0.0,0.0,0.0,0.0,0.0,4.882812,0.0,0.0,-5.0,0.0,0.0,-0.0,0.0,0.0,2.8479000990000003,0.0,0.0,0.9700000286102295,0.3400000035762787,-142.8800048828125,0.01312255859375,0.009521484375,0.99310302734375,31.40999984741211,0.0,-1.0,-0.034515380859375,0.0166168212890625,Waiting,-4.945454545454545,4.125,-1797.0,-224.0,-1680.0,-1600.0,0.0,0.0,
1.7180740000000223,4.75,0.0,-78.0,0.0,0.0,0.0,0.0,0.125,3.8000484390000002,0.0,0.0,-14.0,0.0,0.0,-0.0,0.0,0.0,1.8395994210000002,0.0,0.0,47.0,0.0,0.0,0.0,0.0,0.0,4.884032703,0.0,0.0,-5.0,0.0,0.0,-0.0,0.0,0.0,2.8479000990000003,0.0,0.0,0.9599999785423279,0.3400000035762787,-142.8800048828125,0.01470947265625,0.052490234375,1.0428466796875,31.450000762939453,0.0,-27.0,-0.0345916748046875,0.01666259765625,Waiting,-5.066666666666666,4.25,-1797.0,-224.0,-1672.5,-1600.0,0.0,0.0,
1.7388430000000226,4.0,0.0,-78.0,0.0,0.0,0.0,0.0,0.125,3.7988277360000002,0.0,0.0,-14.0,0.0,0.0,-0.0,0.0,0.0,1.8383787180000002,0.0,0.0,47.0,0.0,0.0,0.0,0.0,0.0,4.881591297,0.0,0.0,-5.0,0.0,0.0,-0.0,0.0,0.0,2.8479000990000003,0.0,0.0,0.9800000190734863,0.3499999940395355,-142.8800048828125,0.02655029296875,0.05230712890625,1.02166748046875,31.450000762939453,0.0,-37.0,-0.034698486328125,0.01666259765625,Waiting,-5.054545454545455,4.25,-2065.0,-223.0,-1672.5,-1600.0,0.0,0.0,
1.7584750000000058,4.0,0.0,-78.0,0.0,0.0,0.0,0.0,0.125,3.7988277360000002,0.0,0.0,-14.0,0.0,0.0,-0.0,0.0,0.0,1.8395994210000002,0.0,0.0,47.0,0.0,0.0,0.0,0.0,0.0,4.884032703,0.0,0.0,-5.0,0.0,0.0,-0.0,0.0,0.0,2.8479000990000003,0.0,0.0,0.9700000286102295,0.36000001430511475,-142.8699951171875,0.01220703125,0.049560546875,1.056396484375,31.450000762939453,0.0,-23.0,-0.0348358154296875,0.016632080078125,Waiting,-5.03030303030303,4.375,-2065.0,-223.0,-1672.5,-1600.0,0.0,0.0,
1.7807690000000003,4.625,0.0,-78.0,0.0,0.0,0.0,0.0,0.125,3.7976070330000002,0.0,0.0,-14.0,0.0,0.0,-0.0,0.0,0.0,1.8395994210000002,0.0,0.0,47.0,0.0,0.0,0.0,0.0,0.0,4.884032703,0.0,0.0,-5.0,0.0,0.0,-0.0,0.0,0.0,2.8491208020000003,0.0,0.0,0.9700000286102295,0.36000001430511475,-142.8800048828125,0.0078125,0.0570068359375,0.96624755859375,31.450000762939453,0.0,-25.0,-0.0352020263671875,0.0164337158203125,Waiting,-5.006060606060606,4.25,-2065.0,-223.0,-1672.5,-1600.0,0.0,0.0,
1.7974490000000223,4.625,0.0,-78.0,0.0,0.0,0.0,0.0,0.125,3.7988277360000002,0.0,0.0,-14.0,0.0,0.0,-0.0,0.0,0.0,1.8395994210000002,0.0,0.0,47.0,0.0,0.0,0.0,0.0,0.0,4.882812,0.0,0.0,-5.0,0.0,0.0,-0.0,0.0,0.0,2.8479000990000003,0.0,0.0,0.9700000286102295,0.36000001430511475,-142.8800048828125,0.00518798828125,0.0550537109375,0.9854736328125,31.450000762939453,0.0,-22.0,-0.035430908203125,0.0162811279296875,Waiting,-4.981818181818182,4.125,-2065.0,-223.0,-1672.5,-1600.0,0.0,0.0,
1.8182740000000048,4.625,0.0,-78.0,0.0,0.0,0.0,0.0,0.125,3.7988277360000002,0.0,0.0,-14.0,0.0,0.0,-0.0,0.0,0.0,1.8383787180000002,0.0,0.0,47.0,0.0,0.0,0.0,0.0,0.0,4.884032703,0.0,0.0,-5.0,0.0,0.0,-0.0,0.0,0.0,2.8491208020000003,0.0,0.0,0.9800000190734863,0.3700000047683716,-142.8699951171875,0.009033203125,0.06005859375,0.98486328125,31.450000762939453,0.0,-28.0,-0.0356903076171875,0.0160675048828125,Waiting,-4.957575757575758,4.125,-2065.0,-223.0,-1672.5,-1600.0,0.0,0.0,
1.8381059999999998,4.625,0.0,-78.0,0.0,0.0,0.0,0.0,0.125,3.7988277360000002,0.0,0.0,-14.0,0.0,0.0,-0.0,0.0,0.0,1.8395994210000002,0.0,0.0,47.0,0.0,0.0,0.0,0.0,0.0,4.884032703,0.0,0.0,-5.0,0.0,0.0,-0.0,0.0,0.0,2.8479000990000003,0.0,0.0,1.0,0.3700000047683716,-142.8800048828125,0.00103759765625,0.0306396484375,1.0340576171875,31.450000762939453,0.0,-3.0,-0.03631591796875,0.0155181884765625,Waiting,-4.945454545454545,5.125,-2065.0,-223.0,-1665.0,-1600.0,0.0,0.0,
1.8578990000000049,4.625,0.0,-78.0,0.0,0.0,0.0,0.0,0.125,3.7988277360000002,0.0,0.0,-14.0,0.0,0.0,-0.0,0.0,0.0,1.8383787180000002,0.0,0.0,47.0,0.0,0.0,0.0,0.0,0.0,4.884032703,0.0,0.0,-5.0,0.0,0.0,-0.0,0.0,0.0,2.8491208020000003,0.0,0.0,0.9900000095367432,0.36000001430511475,-142.8800048828125,-0.01055908203125,0.02581787109375,1.00933837890625,31.450000762939453,0.0,8.0,-0.03631591796875,0.0155181884765625,Waiting,-5.054545454545455,5.125,-2065.0,-223.0,-1665.0,-1600.0,0.0,0.0,
1.881091000000015,4.625,0.0,-78.0,0.0,0.0,0.0,0.0,0.125,3.7976070330000002,0.0,0.0,-14.0,0.0,0.0,-0.0,0.0,0.0,1.8395994210000002,0.0,0.0,47.0,0.0,0.0,0.0,0.0,0.0,4.884032703,0.0,0.0,-5.0,0.0,0.0,-0.0,0.0,0.0,2.8479000990000003,0.0,0.0,0.9800000190734863,0.3499999940395355,-142.8800048828125,-0.02459716796875,0.02484130859375,0.97265625,31.450000762939453,0.0,19.0,-0.03631591796875,0.0154876708984375,Waiting,-5.010019550342131,4.375,-2332.0,-222.0,-1665.0,-1600.0,0.0,0.0,
1.897393000000011,5.0,0.0,-78.0,0.0,0.0,0.0,0.0,0.125,3.7988277360000002,0.0,0.0,-14.0,0.0,0.0,-0.0,0.0,0.0,1.8395994210000002,0.0,0.0,47.0,0.0,0.0,0.0,0.0,0.0,4.884032703,0.0,0.0,-5.0,0.0,0.0,-0.0,0.0,0.0,2.8479000990000003,0.0,0.0,0.9700000286102295,0.36000001430511475,-142.8800048828125,-0.00677490234375,0.0242919921875,1.014892578125,31.450000762939453,0.0,6.0,-0.03631591796875,0.015380859375,Waiting,-4.985874877810362,4.375,-2332.0,-222.0,-1665.0,-1600.0,0.0,0.0,
1.918296000000002,5.0,0.0,-78.0,0.0,0.0,0.0,0.0,0.125,3.7988277360000002,0.0,0.0,-14.0,0.0,0.0,-0.0,0.0,0.0,1.8395994210000002,0.0,0.0,47.0,0.0,0.0,0.0,0.0,0.0,4.885253406,0.0,0.0,-5.0,0.0,0.0,-0.0,0.0,0.0,2.8491208020000003,0.0,0.0,0.9800000190734863,0.36000001430511475,-142.8800048828125,-0.0101318359375,0.01654052734375,0.98095703125,31.450000762939453,0.0,13.0,-0.03631591796875,0.015380859375,Waiting,-4.973802541544477,4.375,-2332.0,-222.0,-1665.0,-1600.0,0.0,0.0,
1.9379630000000179,5.0,0.0,-78.0,0.0,0.0,0.0,0.0,0.125,3.8000484390000002,0.0,0.0,-14.0,0.0,0.0,-0.0,0.0,0.0,1.8395994210000002,0.0,0.0,47.0,0.0,0.0,0.0,0.0,0.0,4.884032703,0.0,0.0,-5.0,0.0,0.0,-0.0,0.0,0.0,2.8479000990000003,0.0,0.0,0.9800000190734863,0.36000001430511475,-142.8800048828125,-0.01885986328125,-4.2724609375E-4,1.05999755859375,31.450000762939453,0.0,31.0,-0.036285400390625,0.015380859375,Waiting,-4.961730205278592,4.125,-2332.0,-222.0,-1665.0,-1600.0,0.0,0.0,
1.95863400000002,5.0,0.0,-78.0,0.0,0.0,0.0,0.0,0.125,3.7951656270000003,0.0,0.0,-14.0,0.0,0.0,-0.0,0.0,0.0,1.8383787180000002,0.0,0.0,47.0,0.0,0.0,0.0,0.0,0.0,4.885253406,0.0,0.0,-5.0,0.0,0.0,-0.0,0.0,0.0,2.8430172870000003,0.0,0.0,0.9800000190734863,0.3700000047683716,-142.8800048828125,-0.00750732421875,-0.00799560546875,0.97265625,31.450000762939453,0.0,25.0,-0.0360870361328125,0.015380859375,Waiting,-4.937585532746823,4.125,-2332.0,-222.0,-1665.0,-1600.0,0.0,0.0,
1.9818740000000108,4.0,0.0,-78.0,0.0,0.0,0.0,0.0,0.125,3.8000484390000002,0.0,0.0,-14.0,0.0,0.0,-0.0,0.0,0.0,1.8395994210000002,0.0,0.0,47.0,0.0,0.0,0.0,0.0,0.0,4.884032703,0.0,0.0,-5.0,0.0,0.0,-0.0,0.0,0.0,2.8491208020000003,0.0,0.0,0.9700000286102295,0.36000001430511475,-142.8800048828125,0.00927734375,-0.00579833984375,0.99810791015625,31.450000762939453,0.0,11.0,-0.0359344482421875,0.015380859375,Waiting,-5.0462365591397855,4.125,-2598.0,-221.0,-1657.5,-1600.0,0.0,0.0,
1.9982380000000122,4.0,0.0,-78.0,0.0,0.0,0.0,0.0,0.125,3.8000484390000002,0.0,0.0,-14.0,0.0,0.0,-0.0,0.0,0.0,1.8383787180000002,0.0,0.0,47.0,0.0,0.0,0.0,0.0,0.0,4.884032703,0.0,0.0,-5.0,0.0,0.0,-0.0,0.0,0.0,2.8479000990000003,0.0,0.0,0.9800000190734863,0.3700000047683716,-142.8800048828125,0.00982666015625,0.01123046875,0.990966796875,31.450000762939453,0.0,0.0,-0.0357818603515625,0.015380859375,Waiting,-5.0341642228739,4.25,-2598.0,-221.0,-1657.5,-1600.0,0.0,0.0,
2.0182600000000095,4.0,0.0,-78.0,0.0,0.0,0.0,0.0,0.125,3.762206646,0.0,0.0,-14.0,0.0,0.0,-0.0,0.0,0.0,1.8395994210000002,0.0,0.0,47.0,0.0,0.0,0.0,0.0,0.0,4.884032703,0.0,0.0,-5.0,0.0,0.0,-0.0,0.0,0.0,2.8491208020000003,0.0,0.0,0.9800000190734863,0.36000001430511475,-142.8800048828125,-0.00238037109375,-0.013427734375,1.02191162109375,31.450000762939453,0.0,25.0,-0.0357513427734375,0.015380859375,Waiting,-5.010019550342131,4.25,-2598.0,-221.0,-1657.5,-1600.0,0.0,0.0,
2.0388099999999976,4.75,0.0,-78.0,0.0,0.0,0.0,0.0,0.125,3.7976070330000002,0.0,0.0,-14.0,0.0,0.0,-0.0,0.0,0.0,1.8395994210000002,0.0,0.0,47.0,0.0,0.0,0.0,0.0,0.0,4.884032703,0.0,0.0,-5.0,0.0,0.0,-0.0,0.0,0.0,2.8430172870000003,0.0,0.0,0.9800000190734863,0.36000001430511475,-142.8800048828125,-0.00238037109375,-0.013427734375,1.02191162109375,31.450000762939453,0.0,25.0,-0.0357513427734375,0.015380859375,Waiting,-4.9979472140762455,4.375,-2598.0,-221.0,-1657.5,-1600.0,0.0,0.0,
2.058534000000014,4.75,0.0,-78.0,0.0,0.0,0.0,0.0,0.125,3.7988277360000002,0.0,0.0,-14.0,0.0,0.0,-0.0,0.0,0.0,1.8383787180000002,0.0,0.0,47.0,0.0,0.0,0.0,0.0,0.0,4.882812,0.0,0.0,-5.0,0.0,0.0,-0.0,0.0,0.0,2.8491208020000003,0.0,0.0,0.9700000286102295,0.3499999940395355,-142.8800048828125,0.01434326171875,0.01275634765625,0.97027587890625,31.450000762939453,0.0,-4.0,-0.035614013671875,0.015380859375,Waiting,-4.985874877810362,4.25,-2598.0,-221.0,-1657.5,-1600.0,0.0,0.0,
2.081953000000009,4.75,0.0,-78.0,0.0,0.0,0.0,0.0,0.125,3.7988277360000002,0.0,0.0,-14.0,0.0,0.0,-0.0,0.0,0.0,1.8395994210000002,0.0,0.0,47.0,0.0,0.0,0.0,0.0,0.0,4.884032703,0.0,0.0,-5.0,0.0,0.0,-0.0,0.0,0.0,2.8491208020000003,0.0,0.0,0.9700000286102295,0.36000001430511475,-142.8800048828125,0.02947998046875,0.024658203125,0.96551513671875,31.450000762939453,0.0,-23.0,-0.0355682373046875,0.015380859375,Waiting,-4.961730205278592,4.25,-2598.0,-221.0,-1657.5,-1600.0,0.0,0.0,
2.0992630000000063,4.5,0.0,-78.0,0.0,0.0,0.0,0.0,0.125,3.8000484390000002,0.0,0.0,-14.0,0.0,0.0,-0.0,0.0,0.0,1.8395994210000002,0.0,0.0,47.0,0.0,0.0,0.0,0.0,0.0,4.885253406,0.0,0.0,-5.0,0.0,0.0,-0.0,0.0,0.0,2.8491208020000003,0.0,0.0,0.9800000190734863,0.3700000047683716,-142.8800048828125,0.01495361328125,0.03515625,1.0322265625,31.450000762939453,0.0,-17.0,-0.035552978515625,0.015380859375,Waiting,-4.949657869012707,4.125,-2864.0,-221.0,-1657.5,-1600.0,0.0,0.0,
2.1192190000000117,4.5,0.0,-78.0,0.0,0.0,0.0,0.0,0.125,3.7768550820000004,0.0,0.0,-14.0,0.0,0.0,-0.0,0.0,0.0,1.8395994210000002,0.0,0.0,47.0,0.0,0.0,0.0,0.0,0.0,4.884032703,0.0,0.0,-5.0,0.0,0.0,-0.0,0.0,0.0,2.8479000990000003,0.0,0.0,0.9800000190734863,0.3700000047683716,-142.8800048828125,0.02178955078125,-0.0074462890625,0.9814453125,31.450000762939453,0.0,2.0,-0.035552978515625,0.01544189453125,Waiting,-4.945454545454545,4.125,-2864.0,-221.0,-1657.5,-1600.0,0.0,0.0,
2.1378859999999986,4.5,0.0,-78.0,0.0,0.0,0.0,0.0,0.125,3.7988277360000002,0.0,0.0,-14.0,0.0,0.0,-0.0,0.0,0.0,1.8395994210000002,0.0,0.0,47.0,0.0,0.0,0.0,0.0,0.0,4.881591297,0.0,0.0,-5.0,0.0,0.0,-0.0,0.0,0.0,2.8491208020000003,0.0,0.0,0.9800000190734863,0.3700000047683716,-142.8800048828125,0.02276611328125,0.00909423828125,0.98797607421875,31.450000762939453,0.0,-8.0,-0.035552978515625,0.0155181884765625,Waiting,-4.933333333333334,4.125,-2864.0,-221.0,-1657.5,-1600.0,0.0,0.0,
2.1577309999999996,4.625,0.0,-78.0,0.0,0.0,0.0,0.0,0.125,3.7988277360000002,0.0,0.0,-14.0,0.0,0.0,-0.0,0.0,0.0,1.8395994210000002,0.0,0.0,47.0,0.0,0.0,0.0,0.0,0.0,4.884032703,0.0,0.0,-5.0,0.0,0.0,-0.0,0.0,0.0,2.8491208020000003,0.0,0.0,0.9900000095367432,0.3799999952316284,-142.8800048828125,0.02459716796875,0.00299072265625,0.98834228515625,31.450000762939453,0.0,-5.0,-0.035552978515625,0.015625,Waiting,-5.054545454545455,4.25,-2864.0,-221.0,-1650.0,-1600.0,0.0,0.0,
2.1807700000000185,4.625,0.0,-78.0,0.0,0.0,0.0,0.0,0.125,3.813476172,0.0,0.0,-14.0,0.0,0.0,-0.0,0.0,0.0,1.8383787180000002,0.0,0.0,47.0,0.0,0.0,0.0,0.0,0.0,4.882812,0.0,0.0,-5.0,0.0,0.0,-0.0,0.0,0.0,2.8479000990000003,0.0,0.0,0.9900000095367432,0.3799999952316284,-142.8800048828125,0.0084228515625,-0.01593017578125,1.02838134765625,31.450000762939453,0.0,19.0,-0.035552978515625,0.0159149169921875,Waiting,-5.03030303030303,4.25,-2864.0,-221.0,-1650.0,-1600.0,0.0,0.0,
2.1978460000000197,4.625,0.0,-78.0,0.0,0.0,0.0,0.0,0.125,3.7988277360000002,0.0,0.0,-14.0,0.0,0.0,-0.0,0.0,0.0,1.8395994210000002,0.0,0.0,47.0,0.0,0.0,0.0,0.0,0.0,4.882812,0.0,0.0,-5.0,0.0,0.0,-0.0,0.0,0.0,2.8479000990000003,0.0,0.0,0.9800000190734863,0.36000001430511475,-142.88999938964844,0.01947021484375,-0.0234375,1.008544921875,31.450000762939453,0.0,14.0,-0.035552978515625,0.01611328125,Waiting,-5.0181818181818185,4.375,-2864.0,-221.0,-1650.0,-1600.0,0.0,0.0,
2.2177540000000153,4.625,0.0,-78.0,0.0,0.0,0.0,0.0,0.125,3.8000484390000002,0.0,0.0,-14.0,0.0,0.0,-0.0,0.0,0.0,1.8395994210000002,0.0,0.0,47.0,0.0,0.0,0.0,0.0,0.0,4.885253406,0.0,0.0,-5.0,0.0,0.0,-0.0,0.0,0.0,2.8479000990000003,0.0,0.0,0.9800000190734863,0.3700000047683716,-142.88999938964844,0.0335693359375,0.009765625,1.00457763671875,31.450000762939453,0.0,-17.0,-0.035552978515625,0.0163726806640625,Waiting,-4.993939393939394,4.25,-2864.0,-221.0,-1650.0,-1600.0,0.0,0.0,
2.238612000000023,4.5,0.0,-78.0,0.0,0.0,0.0,0.0,0.125,3.813476172,0.0,0.0,-14.0,0.0,0.0,-0.0,0.0,0.0,1.8395994210000002,0.0,0.0,47.0,0.0,0.0,0.0,0.0,0.0,4.882812,0.0,0.0,-5.0,0.0,0.0,-0.0,0.0,0.0,2.8479000990000003,0.0,0.0,0.9800000190734863,0.3799999952316284,-142.8800048828125,0.01446533203125,0.03594970703125,1.04034423828125,31.43000030517578,0.0,-16.0,-0.0356292724609375,0.01690673828125,Waiting,-4.981818181818182,4.25,-3128.0,-220.0,-1650.0,-1600.0,0.0,0.0,
2.2579860000000043,4.5,0.0,-78.0,0.0,0.0,0.0,0.0,0.125,3.7988277360000002,0.0,0.0,-14.0,0.0,0.0,-0.0,0.0,0.0,1.8383787180000002,0.0,0.0,47.0,0.0,0.0,0.0,0.0,0.0,4.884032703,0.0,0.0,-5.0,0.0,0.0,-0.0,0.0,0.0,2.8491208020000003,0.0,0.0,0.9700000286102295,0.3799999952316284,-142.88999938964844,0.01171875,0.0802001953125,0.97271728515625,31.43000030517578,0.0,-42.0,-0.03582763671875,0.017333984375,Waiting,-4.957575757575758,4.25,-3128.0,-220.0,-1650.0,-1600.0,0.0,0.0,
2.2851089999999967,4.5,0.0,-78.0,0.0,0.0,0.0,0.0,0.125,3.8000484390000002,0.0,0.0,-14.0,0.0,0.0,-0.0,0.0,0.0,1.835937312,0.0,0.0,47.0,0.0,0.0,0.0,0.0,0.0,4.884032703,0.0,0.0,-5.0,0.0,0.0,-0.0,0.0,0.0,2.8479000990000003,0.0,0.0,0.9800000190734863,0.3799999952316284,-142.8800048828125,0.0133056640625,0.08306884765625,0.96868896484375,31.43000030517578,0.0,-45.0,-0.0360107421875,0.0174407958984375,Waiting,-4.945454545454545,4.125,-3128.0,-220.0,-1650.0,-1600.0,0.0,0.0,
2.298404999999999,4.375,0.0,-78.0,0.0,0.0,0.0,0.0,0.125,3.7976070330000002,0.0,0.0,-14.0,0.0,0.0,-0.0,0.0,0.0,1.8395994210000002,0.0,0.0,47.0,0.0,0.0,0.0,0.0,0.0,4.884032703,0.0,0.0,-5.0,0.0,0.0,-0.0,0.0,0.0,2.8479000990000003,0.0,0.0,0.9900000095367432,0.3799999952316284,-142.88999938964844,-0.0167236328125,0.048583984375,1.0157470703125,31.43000030517578,0.0,0.0,-0.0362091064453125,0.0175018310546875,Waiting,-4.945454545454545,4.125,-3128.0,-220.0,-1650.0,-1600.0,0.0,0.0,
2.3189280000000143,4.375,0.0,-78.0,0.0,0.0,0.0,0.0,0.125,3.7988277360000002,0.0,0.0,-14.0,0.0,0.0,-0.0,0.0,0.0,1.8395994210000002,0.0,0.0,47.0,0.0,0.0,0.0,0.0,0.0,4.882812,0.0,0.0,-5.0,0.0,0.0,-0.0,0.0,0.0,2.8442379900000003,0.0,0.0,0.9800000190734863,0.3700000047683716,-142.88999938964844,-0.02349853515625,0.0311279296875,1.01861572265625,31.43000030517578,0.0,15.0,-0.0362091064453125,0.0175018310546875,Waiting,-4.921212121212122,4.125,-3128.0,-220.0,-1650.0,-1600.0,0.0,0.0,
2.3381450000000186,4.375,0.0,-78.0,0.0,0.0,0.0,0.0,0.125,3.7988277360000002,0.0,0.0,-14.0,0.0,0.0,-0.0,0.0,0.0,1.8395994210000002,0.0,0.0,47.0,0.0,0.0,0.0,0.0,0.0,4.884032703,0.0,0.0,-5.0,0.0,0.0,-0.0,0.0,0.0,2.8479000990000003,0.0,0.0,0.9800000190734863,0.3700000047683716,-142.88999938964844,-0.00250244140625,0.011962890625,0.98333740234375,31.43000030517578,0.0,10.0,-0.0362091064453125,0.0175018310546875,Waiting,-5.042424242424243,4.125,-3128.0,-220.0,-1650.0,-1600.0,0.0,0.0,
2.358308000000019,4.375,0.0,-78.0,0.0,0.0,0.0,0.0,0.125,3.8330074200000004,0.0,0.0,-14.0,0.0,0.0,-0.0,0.0,0.0,1.8395994210000002,0.0,0.0,47.0,0.0,0.0,0.0,0.0,0.0,4.882812,0.0,0.0,-5.0,0.0,0.0,-0.0,0.0,0.0,2.8503415050000003,0.0,0.0,0.9800000190734863,0.38999998569488525,-142.8800048828125,-0.0224609375,0.01922607421875,1.0272216796875,31.43000030517578,0.0,22.0,-0.03619384765625,0.0174102783203125,Waiting,-5.03030303030303,4.25,-3392.0,-219.0,-1642.5,-1600.0,0.0,0.0,
2.380438000000024,4.25,0.0,-78.0,0.0,0.0,0.0,0.0,0.125,3.7988277360000002,0.0,0.0,-14.0,0.0,0.0,-0.0,0.0,0.0,1.8395994210000002,0.0,0.0,47.0,0.0,0.0,0.0,0.0,0.0,4.882812,0.0,0.0,-5.0,0.0,0.0,-0.0,0.0,0.0,2.8442379900000003,0.0,0.0,0.9800000190734863,0.38999998569488525,-142.88999938964844,-0.0240478515625,-0.02056884765625,1.00634765625,31.43000030517578,0.0,47.0,-0.0361175537109375,0.0173492431640625,Waiting,-5.0181818181818185,4.5,-3392.0,-219.0,-1642.5,-1600.0,0.0,0.0,
2.3976990000000225,4.25,0.0,-78.0,0.0,0.0,0.0,0.0,0.125,3.7988277360000002,0.0,0.0,-14.0,0.0,0.0,-0.0,0.0,0.0,1.8395994210000002,0.0,0.0,47.0,0.0,0.0,0.0,0.0,0.0,4.885253406,0.0,0.0,-5.0,0.0,0.0,-0.0,0.0,0.0,2.8491208020000003,0.0,0.0,0.9800000190734863,0.3799999952316284,-142.88999938964844,-0.0224609375,6.103515625E-5,0.9957275390625,31.43000030517578,0.0,33.0,-0.0359954833984375,0.0173492431640625,Waiting,-5.006060606060606,4.5,-3392.0,-219.0,-1642.5,-1600.0,0.0,0.0,
2.4181730000000097,4.25,0.0,-78.0,0.0,0.0,0.0,0.0,0.125,3.7988277360000002,0.0,0.0,-14.0,0.0,0.0,-0.0,0.0,0.0,1.8383787180000002,0.0,0.0,47.0,0.0,0.0,0.0,0.0,0.0,4.884032703,0.0,0.0,-5.0,0.0,0.0,-0.0,0.0,0.0,2.8479000990000003,0.0,0.0,0.9900000095367432,0.38999998569488525,-142.88999938964844,-0.004638671875,0.0140380859375,1.0257568359375,31.43000030517578,0.0,11.0,-0.03570556640625,0.0173492431640625,Waiting,-4.993939393939394,4.25,-3392.0,-219.0,-1642.5,-1600.0,0.0,0.0,
2.4382240000000164,4.25,0.0,-78.0,0.0,0.0,0.0,0.0,0.125,3.8000484390000002,0.0,0.0,-14.0,0.0,0.0,-0.0,0.0,0.0,1.8383787180000002,0.0,0.0,47.0,0.0,0.0,0.0,0.0,0.0,4.882812,0.0,0.0,-5.0,0.0,0.0,-0.0,0.0,0.0,2.8479000990000003,0.0,0.0,1.0,0.3799999952316284,-142.88999938964844,-0.002197265625,-0.01007080078125,1.03515625,31.43000030517578,0.0,24.0,-0.0355224609375,0.0173492431640625,Waiting,-4.981818181818182,4.25,-3392.0,-219.0,-1642.5,-1600.0,0.0,0.0,
2.4594060000000173,4.75,0.0,-78.0,0.0,0.0,0.0,0.0,0.125,3.7988277360000002,0.0,0.0,-14.0,0.0,0.0,-0.0,0.0,0.0,1.8383787180000002,0.0,0.0,47.0,0.0,0.0,0.0,0.0,0.0,4.884032703,0.0,0.0,-5.0,0.0,0.0,-0.0,0.0,0.0,2.8479000990000003,0.0,0.0,0.9900000095367432,0.3799999952316284,-142.88999938964844,0.01971435546875,0.03045654296875,0.98333740234375,31.43000030517578,0.0,-18.0,-0.0351409912109375,0.0173492431640625,Waiting,-4.957575757575758,4.125,-3655.0,-219.0,-1642.5,-1600.0,0.0,0.0,
2.481116000000009,4.75,0.0,-78.0,0.0,0.0,0.0,0.0,0.125,3.7988277360000002,0.0,0.0,-14.0,0.0,0.0,-0.0,0.0,0.0,1.8383787180000002,0.0,0.0,47.0,0.0,0.0,0.0,0.0,0.0,4.882812,0.0,0.0,-5.0,0.0,0.0,-0.0,0.0,0.0,2.8479000990000003,0.0,0.0,0.9900000095367432,0.38999998569488525,-142.88999938964844,0.03619384765625,0.00518798828125,1.0213623046875,31.43000030517578,0.0,-15.0,-0.0351409912109375,0.017364501953125,Waiting,-4.945454545454545,4.125,-3655.0,-219.0,-1642.5,-1600.0,0.0,0.0,
2.498445000000007,4.75,0.0,-78.0,0.0,0.0,0.0,0.0,0.125,3.7988277360000002,0.0,0.0,-14.0,0.0,0.0,-0.0,0.0,0.0,1.8395994210000002,0.0,0.0,47.0,0.0,0.0,0.0,0.0,0.0,4.884032703,0.0,0.0,-5.0,0.0,0.0,-0.0,0.0,0.0,2.8479000990000003,0.0,0.0,0.9900000095367432,0.3799999952316284,-142.88999938964844,0.02313232421875,-0.0072021484375,1.0272216796875,31.43000030517578,0.0,2.0,-0.0351409912109375,0.017425537109375,Waiting,-4.945454545454545,4.125,-3655.0,-219.0,-1642.5,-1600.0,0.0,0.0,
2.517912000000011,4.5,0.0,-78.0,0.0,0.0,0.0,0.0,0.125,3.7988277360000002,0.0,0.0,-14.0,0.0,0.0,-0.0,0.0,0.0,1.8395994210000002,0.0,0.0,47.0,0.0,0.0,0.0,0.0,0.0,4.884032703,0.0,0.0,-5.0,0.0,0.0,-0.0,0.0,0.0,2.8479000990000003,0.0,0.0,1.0,0.3799999952316284,-142.88999938964844,0.037109375,-3.0517578125E-4,1.00457763671875,31.43000030517578,0.0,-13.0,-0.0351409912109375,0.0176849365234375,Waiting,-4.921212121212122,4.125,-3655.0,-219.0,-1642.5,-1600.0,0.0,0.0,
2.538388000000006,4.5,0.0,-78.0,0.0,0.0,0.0,0.0,0.125,3.8000484390000002,0.0,0.0,-14.0,0.0,0.0,-0.0,0.0,0.0,1.8395994210000002,0.0,0.0,47.0,0.0,0.0,0.0,0.0,0.0,4.884032703,0.0,0.0,-5.0,0.0,0.0,-0.0,0.0,0.0,2.8491208020000003,0.0,0.0,1.0,0.38999998569488525,-142.88999938964844,0.0086669921875,-0.004150390625,1.0020751953125,31.43000030517578,0.0,11.0,-0.0351409912109375,0.01788330078125,Waiting,-4.909090909090909,4.0,-3655.0,-219.0,-1642.5,-1600.0,0.0,0.0,
2.558342000000004,4.5,0.0,-78.0,0.0,0.0,0.0,0.0,0.125,3.7988277360000002,0.0,0.0,-14.0,0.0,0.0,-0.0,0.0,0.0,1.8395994210000002,0.0,0.0,47.0,0.0,0.0,0.0,0.0,0.0,4.882812,0.0,0.0,-5.0,0.0,0.0,-0.0,0.0,0.0,2.8479000990000003,0.0,0.0,1.0,0.3799999952316284,-142.88999938964844,0.005615234375,0.00213623046875,1.03369140625,31.43000030517578,0.0,10.0,-0.0351409912109375,0.01788330078125,Waiting,-5.042424242424243,4.25,-3655.0,-219.0,-1635.0,-1600.0,0.0,0.0,
2.5815080000000017,4.75,0.0,-78.0,0.0,0.0,0.0,0.0,0.125,3.7866207060000003,0.0,0.0,-14.0,0.0,0.0,-0.0,0.0,0.0,1.8383787180000002,0.0,0.0,47.0,0.0,0.0,0.0,0.0,0.0,4.882812,0.0,0.0,-5.0,0.0,0.0,-0.0,0.0,0.0,2.8479000990000003,0.0,0.0,0.9900000095367432,0.38999998569488525,-142.88999938964844,0.0372314453125,0.03857421875,0.99896240234375,31.43000030517578,0.0,-36.0,-0.0351715087890625,0.01788330078125,Waiting,-5.03030303030303,4.375,-3918.0,-218.0,-1635.0,-1600.0,0.0,0.0,
2.597982000000018,4.75,0.0,-78.0,0.0,0.0,0.0,0.0,0.125,3.7988277360000002,0.0,0.0,-14.0,0.0,0.0,-0.0,0.0,0.0,1.8395994210000002,0.0,0.0,47.0,0.0,0.0,0.0,0.0,0.0,4.882812,0.0,0.0,-5.0,0.0,0.0,-0.0,0.0,0.0,2.8491208020000003,0.0,0.0,0.9900000095367432,0.38999998569488525,-142.88999938964844,0.00225830078125,0.040283203125,1.0638427734375,31.43000030517578,0.0,-9.0,-0.035247802734375,0.0178680419921875,Waiting,-5.03030303030303,4.5,-3918.0,-218.0,-1635.0,-1600.0,0.0,0.0,
2.6181350000000094,4.75,0.0,-78.0,0.0,0.0,0.0,0.0,0.125,3.7988277360000002,0.0,0.0,-14.0,0.0,0.0,-0.0,0.0,0.0,1.8383787180000002,0.0,0.0,47.0,0.0,0.0,0.0,0.0,0.0,4.884032703,0.0,0.0,-5.0,0.0,0.0,-0.0,0.0,0.0,2.8442379900000003,0.0,0.0,0.9800000190734863,0.38999998569488525,-142.88999938964844,0.0042724609375,0.04998779296875,0.9803466796875,31.43000030517578,0.0,-18.0,-0.0353240966796875,0.017822265625,Waiting,-5.0181818181818185,4.375,-3918.0,-218.0,-1635.0,-1600.0,0.0,0.0,
2.6375330000000248,4.375,0.0,-78.0,0.0,0.0,0.0,0.0,0.125,3.8000484390000002,0.0,0.0,-14.0,0.0,0.0,-0.0,0.0,0.0,1.8395994210000002,0.0,0.0,47.0,0.0,0.0,0.0,0.0,0.0,4.884032703,0.0,0.0,-5.0,0.0,0.0,-0.0,0.0,0.0,2.8491208020000003,0.0,0.0,1.0,0.38999998569488525,-142.88999938964844,-0.001220703125,0.0599365234375,1.0047607421875,31.43000030517578,0.0,-19.0,-0.0353240966796875,0.017547607421875,Waiting,-5.006060606060606,4.25,-3918.0,-218.0,-1635.0,-1600.0,0.0,0.0,
2.658029999999999,4.375,0.0,-78.0,0.0,0.0,0.0,0.0,0.125,3.7988277360000002,0.0,0.0,-14.0,0.0,0.0,-0.0,0.0,0.0,1.8383787180000002,0.0,0.0,47.0,0.0,0.0,0.0,0.0,0.0,4.884032703,0.0,0.0,-5.0,0.0,0.0,-0.0,0.0,0.0,2.8491208020000003,0.0,0.0,1.0,0.38999998569488525,-142.88999938964844,-0.01190185546875,0.03485107421875,1.02899169921875,31.43000030517578,0.0,4.0,-0.0353240966796875,0.0173492431640625,Waiting,-4.993939393939394,4.25,-3918.0,-218.0,-1635.0,-1600.0,0.0,0.0,
2.681482000000018,4.375,0.0,-78.0,0.0,0.0,0.0,0.0,0.125,3.8000484390000002,0.0,0.0,-14.0,0.0,0.0,-0.0,0.0,0.0,1.8395994210000002,0.0,0.0,47.0,0.0,0.0,0.0,0.0,0.0,4.882812,0.0,0.0,-5.0,0.0,0.0,-0.0,0.0,0.0,2.8491208020000003,0.0,0.0,1.0,0.38999998569488525,-142.88999938964844,0.00872802734375,0.02301025390625,0.968017578125,31.43000030517578,0.0,-5.0,-0.0353240966796875,0.016845703125,Waiting,-4.981818181818182,4.25,-3918.0,-218.0,-1635.0,-1600.0,0.0,0.0,
2.697434999999998,4.375,0.0,-78.0,0.0,0.0,0.0,0.0,0.125,3.7976070330000002,0.0,0.0,-14.0,0.0,0.0,-0.0,0.0,0.0,1.8395994210000002,0.0,0.0,47.0,0.0,0.0,0.0,0.0,0.0,4.882812,0.0,0.0,-5.0,0.0,0.0,-0.0,0.0,0.0,2.8479000990000003,0.0,0.0,1.0,0.38999998569488525,-142.88999938964844,-0.006591796875,0.00146484375,1.0467529296875,31.43000030517578,0.0,21.0,-0.0353240966796875,0.016845703125,Waiting,-4.96969696969697,4.25,-3918.0,-218.0,-1635.0,-1600.0,0.0,0.0,
2.717510000000009,4.625,0.0,-78.0,0.0,0.0,0.0,0.0,0.125,3.8000484390000002,0.0,0.0,-14.0,0.0,0.0,-0.0,0.0,0.0,1.8383787180000002,0.0,0.0,47.0,0.0,0.0,0.0,0.0,0.0,4.885253406,0.0,0.0,-5.0,0.0,0.0,-0.0,0.0,0.0,2.8466793960000003,0.0,0.0,1.0,0.38999998569488525,-142.88999938964844,-0.03118896484375,-0.0111083984375,1.015869140625,31.43000030517578,0.0,47.0,-0.0352630615234375,0.016845703125,Waiting,-4.957575757575758,4.125,-4184.0,-218.0,-1635.0,-1600.0,0.0,0.0,
2.7374619999999994,4.625,0.0,-78.0,0.0,0.0,0.0,0.0,0.125,3.7988277360000002,0.0,0.0,-14.0,0.0,0.0,-0.0,0.0,0.0,1.8395994210000002,0.0,0.0,47.0,0.0,0.0,0.0,0.0,0.0,4.880370594,0.0,0.0,-5.0,0.0,0.0,-0.0,0.0,0.0,2.8479000990000003,0.0,0.0,1.0,0.38999998569488525,-142.88999938964844,6.7138671875E-4,-0.01513671875,0.99444580078125,31.43000030517578,0.0,20.0,-0.0350341796875,0.0168609619140625,Waiting,-4.945454545454545,4.125,-4184.0,-218.0,-1635.0,-1600.0,0.0,0.0,
2.75761500000002,4.625,0.0,-78.0,0.0,0.0,0.0,0.0,0.125,3.8000484390000002,0.0,0.0,-14.0,0.0,0.0,-0.0,0.0,0.0,1.8395994210000002,0.0,0.0,47.0,0.0,0.0,0.0,0.0,0.0,4.884032703,0.0,0.0,-5.0,0.0,0.0,-0.0,0.0,0.0,2.8479000990000003,0.0,0.0,1.0,0.38999998569488525,-142.88999938964844,-0.0084228515625,-0.0074462890625,1.017578125,31.43000030517578,0.0,27.0,-0.034881591796875,0.01690673828125,Waiting,-4.933333333333334,4.125,-4184.0,-218.0,-1635.0,-1600.0,0.0,0.0,
2.778057000000001,4.75,0.0,-78.0,0.0,0.0,0.0,0.0,0.125,3.8000484390000002,0.0,0.0,-14.0,0.0,0.0,-0.0,0.0,0.0,1.8395994210000002,0.0,0.0,47.0,0.0,0.0,0.0,0.0,0.0,4.884032703,0.0,0.0,-5.0,0.0,0.0,-0.0,0.0,0.0,2.8491208020000003,0.0,0.0,1.0,0.3700000047683716,-142.88999938964844,-0.00732421875,0.0108642578125,0.9844970703125,31.43000030517578,0.0,14.0,-0.034698486328125,0.0169677734375,Waiting,-4.921212121212122,4.125,-4184.0,-218.0,-1635.0,-1600.0,0.0,0.0,
2.798100000000006,4.75,0.0,-78.0,0.0,0.0,0.0,0.0,0.125,3.7988277360000002,0.0,0.0,-14.0,0.0,0.0,-0.0,0.0,0.0,1.8395994210000002,0.0,0.0,47.0,0.0,0.0,0.0,0.0,0.0,4.884032703,0.0,0.0,-5.0,0.0,0.0,-0.0,0.0,0.0,2.8491208020000003,0.0,0.0,1.0,0.38999998569488525,-142.88999938964844,0.02362060546875,0.0201416015625,1.02886962890625,31.43000030517578,0.0,-14.0,-0.03436279296875,0.0169677734375,Waiting,-4.909090909090909,4.125,-4184.0,-218.0,-1635.0,-1600.0,0.0,0.0,
2.8172820000000067,4.75,0.0,-78.0,0.0,0.0,0.0,0.0,0.125,3.7780757850000004,0.0,0.0,-14.0,0.0,0.0,-0.0,0.0,0.0,1.8395994210000002,0.0,0.0,47.0,0.0,0.0,0.0,0.0,0.0,4.884032703,0.0,0.0,-5.0,0.0,0.0,-0.0,0.0,0.0,2.8479000990000003,0.0,0.0,1.0,0.3799999952316284,-142.88999938964844,0.015380859375,-0.00225830078125,1.00567626953125,31.43000030517578,0.0,5.0,-0.034210205078125,0.0169830322265625,Waiting,-4.909090909090909,4.0,-4184.0,-218.0,-1635.0,-1600.0,0.0,0.0,
2.8385320000000065,4.5,0.0,-78.0,0.0,0.0,0.0,0.0,0.125,3.7988277360000002,0.0,0.0,-14.0,0.0,0.0,-0.0,0.0,0.0,1.8383787180000002,0.0,0.0,47.0,0.0,0.0,0.0,0.0,0.0,4.882812,0.0,0.0,-5.0,0.0,0.0,-0.0,0.0,0.0,2.8479000990000003,0.0,0.0,1.0,0.3799999952316284,-142.88999938964844,0.0242919921875,0.01251220703125,0.96875,31.43000030517578,0.0,-11.0,-0.034210205078125,0.01702880859375,Waiting,-5.03030303030303,4.0,-4441.0,-218.0,-1627.5,-1600.0,0.0,0.0,
2.8573479999999982,4.5,0.0,-78.0,0.0,0.0,0.0,0.0,0.125,3.8000484390000002,0.0,0.0,-14.0,0.0,0.0,-0.0,0.0,0.0,1.8395994210000002,0.0,0.0,47.0,0.0,0.0,0.0,0.0,0.0,4.884032703,0.0,0.0,-5.0,0.0,0.0,-0.0,0.0,0.0,2.8491208020000003,0.0,0.0,1.0,0.3799999952316284,-142.88999938964844,0.00653076171875,0.00738525390625,1.02093505859375,31.43000030517578,0.0,6.0,-0.034210205078125,0.01708984375,Waiting,-5.0181818181818185,4.25,-4441.0,-218.0,-1627.5,-1600.0,0.0,0.0,
2.8793160000000206,4.5,0.0,-78.0,0.0,0.0,0.0,0.0,0.125,3.7976070330000002,0.0,0.0,-14.0,0.0,0.0,-0.0,0.0,0.0,1.8395994210000002,0.0,0.0,47.0,0.0,0.0,0.0,0.0,0.0,4.884032703,0.0,0.0,-5.0,0.0,0.0,-0.0,0.0,0.0,2.8479000990000003,0.0,0.0,1.0,0.3700000047683716,-142.88999938964844,0.02789306640625,0.02020263671875,1.00970458984375,31.43000030517578,0.0,-18.0,-0.034210205078125,0.01708984375,Waiting,-5.006060606060606,4.375,-4441.0,-218.0,-1627.5,-1600.0,0.0,0.0,
2.8980409999999974,4.5,0.0,-78.0,0.0,0.0,0.0,0.0,0.125,3.7976070330000002,0.0,0.0,-14.0,0.0,0.0,-0.0,0.0,0.0,1.8395994210000002,0.0,0.0,47.0,0.0,0.0,0.0,0.0,0.0,4.884032703,0.0,0.0,-5.0,0.0,0.0,-0.0,0.0,0.0,2.8479000990000003,0.0,0.0,1.0,0.3700000047683716,-142.88999938964844,0.0391845703125,0.0355224609375,1.0162353515625,31.43000030517578,0.0,-36.0,-0.0342559814453125,0.01708984375,Waiting,-5.006060606060606,4.5,-4441.0,-218.0,-1627.5,-1600.0,0.0,0.0,
2.917811000000016,4.25,0.0,-78.0,0.0,0.0,0.0,0.0,0.125,3.7976070330000002,0.0,0.0,-14.0,0.0,0.0,-0.0,0.0,0.0,1.8383787180000002,0.0,0.0,47.0,0.0,0.0,0.0,0.0,0.0,4.882812,0.0,0.0,-5.0,0.0,0.0,-0.0,0.0,0.0,2.8479000990000003,0.0,0.0,0.9900000095367432,0.3799999952316284,-142.88999938964844,-0.02093505859375,0.05596923828125,1.02880859375,31.43000030517578,0.0,0.0,-0.0344390869140625,0.0170440673828125,Waiting,-4.993939393939394,4.25,-4441.0,-218.0,-1627.5,-1600.0,0.0,0.0,
2.9383830000000017,4.25,0.0,-78.0,0.0,0.0,0.0,0.0,0.125,3.7988277360000002,0.0,0.0,-14.0,0.0,0.0,-0.0,0.0,0.0,1.8395994210000002,0.0,0.0,47.0,0.0,0.0,0.0,0.0,0.0,4.884032703,0.0,0.0,-5.0,0.0,0.0,-0.0,0.0,0.0,2.8479000990000003,0.0,0.0,0.9900000095367432,0.3799999952316284,-142.88999938964844,0.0054931640625,0.0770263671875,0.961669921875,31.43000030517578,0.0,-35.0,-0.034576416015625,0.016937255859375,Waiting,-4.981818181818182,4.25,-4441.0,-218.0,-1627.5,-1600.0,0.0,0.0,
2.957890000000014,4.75,0.0,-78.0,0.0,0.0,0.0,0.0,0.125,3.7988277360000002,0.0,0.0,-14.0,0.0,0.0,-0.0,0.0,0.0,1.8383787180000002,0.0,0.0,47.0,0.0,0.0,0.0,0.0,0.0,4.882812,0.0,0.0,-5.0,0.0,0.0,-0.0,0.0,0.0,2.8466793960000003,0.0,0.0,1.0,0.3799999952316284,-142.88999938964844,-0.0181884765625,0.05975341796875,0.99139404296875,31.43000030517578,0.0,-5.0,-0.03472900390625,0.0167694091796875,Waiting,-4.981818181818182,4.25,-4702.0,-217.0,-1627.5,-1600.0,0.0,0.0,
2.9789809999999997,4.75,0.0,-78.0,0.0,0.0,0.0,0.0,0.125,3.7988277360000002,0.0,0.0,-14.0,0.0,0.0,-0.0,0.0,0.0,1.8395994210000002,0.0,0.0,47.0,0.0,0.0,0.0,0.0,0.0,4.884032703,0.0,0.0,-5.0,0.0,0.0,-0.0,0.0,0.0,2.8491208020000003,0.0,0.0,1.0099999904632568,0.3799999952316284,-142.88999938964844,-0.0286865234375,0.02435302734375,1.02545166015625,31.43000030517578,0.0,24.0,-0.0348663330078125,0.01654052734375,Waiting,-4.96969696969697,4.25,-4702.0,-217.0,-1627.5,-1600.0,0.0,0.0,
2.998687000000005,4.75,0.0,-78.0,0.0,0.0,0.0,0.0,0.125,3.7988277360000002,0.0,0.0,-14.0,0.0,0.0,-0.0,0.0,0.0,1.8395994210000002,0.0,0.0,47.0,0.0,0.0,0.0,0.0,0.0,4.885253406,0.0,0.0,-5.0,0.0,0.0,-0.0,0.0,0.0,2.8491208020000003,0.0,0.0,1.0099999904632568,0.3700000047683716,-142.88999938964844,-0.0089111328125,0.03155517578125,0.99969482421875,31.43000030517578,0.0,3.0,-0.0349884033203125,0.0162811279296875,Waiting,-4.957575757575758,4.125,-4702.0,-217.0,-1627.5,-1600.0,0.0,0.0,
3.019458000000013,4.75,0.0,-78.0,0.0,0.0,0.0,0.0,0.125,3.7988277360000002,0.0,0.0,-14.0,0.0,0.0,-0.0,0.0,0.0,1.8395994210000002,0.0,0.0,47.0,0.0,0.0,0.0,0.0,0.0,4.884032703,0.0,0.0,-5.0,0.0,0.0,-0.0,0.0,0.0,2.8442379900000003,0.0,0.0,1.0099999904632568,0.3799999952316284,-142.88999938964844,-0.009521484375,0.00323486328125,1.03558349609375,31.43000030517578,0.0,22.0,-0.0352020263671875,0.0157012939453125,Waiting,-4.945454545454545,4.125,-4702.0,-217.0,-1627.5,-1600.0,0.0,0.0,
3.0379250000000173,4.625,0.0,-78.0,0.0,0.0,0.0,0.0,0.125,3.7988277360000002,0.0,0.0,-14.0,0.0,0.0,-0.0,0.0,0.0,1.8395994210000002,0.0,0.0,47.0,0.0,0.0,0.0,0.0,0.0,4.875487782,0.0,0.0,-5.0,0.0,0.0,-0.0,0.0,0.0,2.8491208020000003,0.0,0.0,1.0,0.38999998569488525,-142.88999938964844,-0.0118408203125,-0.01397705078125,0.9952392578125,31.43000030517578,0.0,33.0,-0.0352630615234375,0.0157012939453125,Waiting,-4.945454545454545,4.125,-4702.0,-217.0,-1627.5,-1600.0,0.0,0.0,
3.057308000000019,4.625,0.0,-78.0,0.0,0.0,0.0,0.0,0.125,3.7988277360000002,0.0,0.0,-14.0,0.0,0.0,-0.0,0.0,0.0,1.8395994210000002,0.0,0.0,47.0,0.0,0.0,0.0,0.0,0.0,4.884032703,0.0,0.0,-5.0,0.0,0.0,-0.0,0.0,0.0,2.8491208020000003,0.0,0.0,1.0,0.38999998569488525,-142.88999938964844,-0.012451171875,0.01373291015625,0.9879150390625,31.43000030517578,0.0,17.0,-0.0352783203125,0.0157012939453125,Waiting,-4.933333333333334,4.125,-4702.0,-217.0,-1627.5,-1600.0,0.0,0.0,
3.0779130000000006,4.5,0.0,-78.0,0.0,0.0,0.0,0.0,0.125,3.8000484390000002,0.0,0.0,-14.0,0.0,0.0,-0.0,0.0,0.0,1.8395994210000002,0.0,0.0,47.0,0.0,0.0,0.0,0.0,0.0,4.881591297,0.0,0.0,-5.0,0.0,0.0,-0.0,0.0,0.0,2.8491208020000003,0.0,0.0,1.0099999904632568,0.3799999952316284,-142.88999938964844,-0.0213623046875,0.00927734375,1.0386962890625,31.43000030517578,0.0,28.0,-0.035247802734375,0.0157012939453125,Waiting,-4.941055718475074,4.125,-4963.0,-217.0,-1627.5,-1600.0,0.0,0.0,
3.098543000000005,4.5,0.0,-78.0,0.0,0.0,0.0,0.0,0.125,3.7988277360000002,0.0,0.0,-14.0,0.0,0.0,-0.0,0.0,0.0,1.8383787180000002,0.0,0.0,47.0,0.0,0.0,0.0,0.0,0.0,4.884032703,0.0,0.0,-5.0,0.0,0.0,-0.0,0.0,0.0,2.8479000990000003,0.0,0.0,1.0099999904632568,0.3799999952316284,-142.88999938964844,0.02154541015625,0.04217529296875,0.993408203125,31.43000030517578,0.0,-26.0,-0.03521728515625,0.0157012939453125,Waiting,-4.928885630498534,4.0,-4963.0,-217.0,-1627.5,-1600.0,0.7,1.25,
