Time,ClimberA1,ClimberA2,FRpos,FRCurrent,FRspeed,FRsetpoint,FRApos,FRACurrent,FREncpos,FREncSetpoint,FREncSpeed,FLpos,FLCurrent,FLspeed,FLsetpoint,FLApos,FLACurrent,FLEncpos,FLEncSetpoint,FLEncSpeed,BRpos,BRCurrent,BRspeed,BRsetpoint,BRApos,BRACurrent,BREncpos,BREncSetpoint,BREncSpeed,BLpos,BLCurrent,BLspeed,BLsetpoint,BLApos,BLACurrent,BLEncpos,BLEncSetpoint,BLEncSpeed,navx_Pitch,navx_Roll,navx_Yaw,navx_XAcc,navx_YAcc,navx_ZAcc,navx_Temp,navx_Bar,navx_Alt,navx_XDis,navx_YDis,GearPlacerState,ShootOutputV,ShootOutputCurrent,ShootEncPos,ShootEncVelocity,ShootSpeed,ShootSetpoint,CarouselSetpoint,CarouselCurrent,
0.1290559999998659,0.0,0.0,-30085.0,0.0,0.0,0.0,0.0,0.125,3.756103131,0.0,0.0,25643.0,0.0,0.0,-0.0,0.0,0.0,1.934814255,0.0,0.0,-25544.0,0.0,0.0,0.0,0.0,0.0,4.8107905230000005,0.0,0.0,29642.0,0.0,0.0,-0.0,0.0,0.0,2.882079783,0.0,0.0,0.8799999952316284,0.7900000214576721,171.17999267578125,0.01226806640625,0.0146484375,0.99114990234375,32.72999954223633,0.0,1.0,0.0384674072265625,-0.059844970703125,Closing,0.0,0.0,-4.0,0.0,0.0,0.0,0.0,0.0,
0.19123099999991244,0.0,0.0,-30085.0,0.0,0.0,0.0,0.0,0.125,3.757323834,0.0,-0.0012207029999995456,25643.0,0.0,0.0,-0.0,0.0,0.0,1.936034958,0.0,0.0,-25544.0,0.0,0.0,0.0,0.0,0.0,4.8107905230000005,0.0,4.822779296999999,29642.0,0.0,0.0,-0.0,0.0,0.0,2.883300486,0.0,0.0,0.8199999928474426,0.75,171.1699981689453,0.00494384765625,-0.012451171875,1.0238037109375,32.72999954223633,0.0,4.0,0.0384674072265625,-0.0595245361328125,Closing,0.0,0.0,-4.0,0.0,0.0,0.0,0.0,0.0,
0.2502660000000615,0.0,0.0,-30085.0,0.0,0.0,0.0,0.0,0.0,3.757323834,0.0,0.0,25643.0,0.0,0.0,-0.0,0.0,0.0,1.936034958,0.0,0.0,-25544.0,0.0,0.0,0.0,0.0,0.0,4.838866692,0.0,0.0,29642.0,0.0,0.0,-0.0,0.0,0.0,2.882079783,0.0,0.0,0.8799999952316284,0.7900000214576721,171.17999267578125,0.0194091796875,0.059326171875,1.03094482421875,32.75,0.0,1.0,0.0384674072265625,-0.059051513671875,Closing,0.0,0.0,-4.0,0.0,0.0,0.0,0.0,0.0,
0.309903999999864,0.0,0.0,-30085.0,0.0,0.0,0.0,0.0,0.0,3.757323834,0.0,0.0024414059999999793,25643.0,0.0,0.0,-0.0,0.0,0.0,1.936034958,0.0,0.0,-25544.0,0.0,0.0,0.0,0.0,0.0,4.893798327,0.0,0.035400387000000144,29642.0,0.0,0.0,-0.0,0.0,0.0,2.882079783,0.0,0.0,0.9100000262260437,0.8100000023841858,171.17999267578125,0.00830078125,0.00830078125,0.973876953125,32.75,0.0,4.0,0.0384674072265625,-0.05914306640625,Closing,0.0,0.0,-4.0,0.0,0.0,0.0,0.0,0.0,
0.3723200000000652,0.0,0.0,-30085.0,0.0,0.0,0.0,0.0,0.125,3.757323834,0.0,-0.0012207030000004337,25643.0,0.0,0.0,-0.0,0.0,0.0,1.936034958,0.0,0.0,-25544.0,0.0,0.0,0.0,0.0,0.0,4.9255366050000005,0.0,0.0,29642.0,0.0,0.0,-0.0,0.0,0.0,2.88085908,0.0,0.0,0.9200000166893005,0.7699999809265137,171.1999969482422,0.0087890625,0.01934814453125,0.968505859375,32.75,0.0,4.0,0.0384674072265625,-0.05914306640625,Closing,0.0,0.0,-4.0,0.0,0.0,0.0,0.0,0.0,
0.43478599999984724,0.0,0.0,-30085.0,0.0,0.0,0.0,0.0,0.0,3.757323834,0.0,0.0,25643.0,0.0,0.0,-0.0,0.0,0.0,1.936034958,0.0,0.0,-25544.0,0.0,0.0,0.0,0.0,0.0,4.930419417,0.0,0.02685546600000066,29642.0,0.0,0.0,-0.0,0.0,0.0,2.882079783,0.0,0.0,0.9100000262260437,0.7900000214576721,171.1999969482422,0.023681640625,-4.8828125E-4,1.02264404296875,32.75,0.0,-8.0,0.0384674072265625,-0.05914306640625,Closing,0.0,0.0,-4.0,0.0,0.0,0.0,0.0,0.0,
0.4977409999999218,0.0,0.0,-30085.0,0.0,0.0,0.0,0.0,0.125,3.760985943,0.0,-0.0012207029999995456,25643.0,0.0,0.0,-0.0,0.0,0.0,1.934814255,0.0,0.0,-25544.0,0.0,0.0,0.0,0.0,0.0,4.930419417,0.0,-4.944234376,29642.0,0.0,0.0,-0.0,0.0,0.0,2.882079783,0.0,0.0,0.8700000047683716,0.7900000214576721,171.1999969482422,0.010986328125,0.009521484375,0.99951171875,32.75,0.0,1.0,0.0384674072265625,-0.05914306640625,Closing,0.0,0.0,-4.0,0.0,0.0,0.0,0.0,0.0,
0.5584089999999851,0.0,0.0,-30085.0,0.0,0.0,0.0,0.0,0.0,3.756103131,0.0,0.0012207029999995456,25643.0,0.0,0.0,-0.0,0.0,0.0,1.936034958,0.0,0.0,-25544.0,0.0,0.0,0.0,0.0,0.0,4.93164012,0.0,0.0012207029999995456,29642.0,0.0,0.0,-0.0,0.0,0.0,2.882079783,0.0,0.0,0.8700000047683716,0.7799999713897705,171.1999969482422,0.007568359375,0.018310546875,0.99737548828125,32.75,0.0,6.0,0.0384674072265625,-0.05914306640625,Closing,0.0,0.0,-4.0,0.0,0.0,0.0,0.0,0.0,
0.6232260000000243,0.0,0.0,-30085.0,0.0,0.0,0.0,0.0,0.0,3.757323834,0.0,0.0,25643.0,0.0,0.0,-0.0,0.0,0.0,1.936034958,0.0,0.0,-25544.0,0.0,0.0,0.0,0.0,0.0,4.930419417,0.0,0.0,29642.0,0.0,0.0,-0.0,0.0,0.0,2.882079783,0.0,0.0,0.8799999952316284,0.7699999809265137,171.17999267578125,0.01824951171875,0.01849365234375,0.98992919921875,32.75,0.0,-4.0,0.0384674072265625,-0.05914306640625,Closing,0.0,0.0,-4.0,0.0,0.0,0.0,0.0,0.0,
0.688464999999851,0.0,0.0,-30085.0,0.0,0.0,0.0,0.0,0.125,3.757323834,0.0,0.0,25643.0,0.0,0.0,-0.0,0.0,0.0,1.934814255,0.0,0.0,-25544.0,0.0,0.0,0.0,0.0,0.0,4.932860823,0.0,0.0,29642.0,0.0,0.0,-0.0,0.0,0.0,2.882079783,0.0,0.0,0.8799999952316284,0.7900000214576721,171.17999267578125,0.0189208984375,0.012451171875,1.0028076171875,32.75,0.0,-5.0,0.0384674072265625,-0.05914306640625,Closing,0.0,0.0,-4.0,0.0,0.0,0.0,0.0,0.0,
0.7491739999998827,0.0,0.0,-30085.0,0.0,0.0,0.0,0.0,0.125,3.756103131,0.0,0.0,25643.0,0.0,0.0,-0.0,0.0,0.0,1.936034958,0.0,0.0,-25544.0,0.0,0.0,0.0,0.0,0.0,4.934081526,0.0,0.0,29642.0,0.0,0.0,-0.0,0.0,0.0,2.882079783,0.0,0.0,0.8600000143051147,0.7699999809265137,171.17999267578125,0.00762939453125,0.00653076171875,1.01690673828125,32.7599983215332,0.0,4.0,0.0384674072265625,-0.05914306640625,Closing,0.0,0.0,-4.0,0.0,0.0,0.0,0.0,0.0,
0.8096780000000726,0.0,0.0,-30085.0,0.0,0.0,0.0,0.0,0.0,3.756103131,0.0,-0.0012207029999995456,25643.0,0.0,0.0,-0.0,0.0,0.0,1.936034958,0.0,0.0,-25544.0,0.0,0.0,0.0,0.0,0.0,4.930419417,0.0,0.0,29642.0,0.0,0.0,-0.0,0.0,0.0,2.882079783,0.0,0.0,0.8700000047683716,0.7699999809265137,171.19000244140625,0.01904296875,0.0263671875,0.99298095703125,32.7599983215332,0.0,-3.0,0.0384674072265625,-0.05914306640625,Closing,0.0,0.0,-4.0,0.0,0.0,0.0,0.0,0.0,
0.8702970000000205,0.0,0.0,-30085.0,0.0,0.0,0.0,0.0,0.125,3.762206646,0.0,0.003662109000000413,25643.0,0.0,0.0,-0.0,0.0,0.0,1.934814255,0.0,0.0,-25544.0,0.0,0.0,0.0,0.0,0.0,4.93164012,0.0,0.0,29642.0,0.0,0.0,-0.0,0.0,0.0,2.882079783,0.0,0.0,0.8899999856948853,0.7799999713897705,171.17999267578125,0.0145263671875,0.0191650390625,1.00933837890625,32.7599983215332,0.0,0.0,0.0384674072265625,-0.05914306640625,Closing,0.0,0.0,-4.0,0.0,0.0,0.0,0.0,0.0,
0.9334909999999218,0.0,0.0,-30085.0,0.0,0.0,0.0,0.0,0.0,3.760985943,0.0,-0.0024414060000008675,25643.0,0.0,0.0,-0.0,0.0,0.0,1.936034958,0.0,0.0,-25544.0,0.0,0.0,0.0,0.0,0.0,4.93164012,0.0,0.0,29642.0,0.0,0.0,-0.0,0.0,0.0,2.883300486,0.0,0.0012207029999999897,0.8799999952316284,0.7799999713897705,171.17999267578125,0.00341796875,0.0474853515625,1.00140380859375,32.7599983215332,0.0,15.0,0.0384674072265625,-0.0591583251953125,Closing,0.0,0.0,-4.0,0.0,0.0,0.0,0.0,0.0,
0.9939490000000224,0.0,0.0,-30085.0,0.0,0.0,0.0,0.0,0.0,3.756103131,0.0,-0.0012207029999995456,25643.0,0.0,0.0,-0.0,0.0,0.0,1.936034958,0.0,0.0,-25544.0,0.0,0.0,0.0,0.0,0.0,4.930419417,0.0,-0.0012207029999995456,29642.0,0.0,0.0,-0.0,0.0,0.0,2.882079783,0.0,-0.0012207029999999897,0.8799999952316284,0.7699999809265137,171.19000244140625,0.010498046875,-0.0028076171875,0.98114013671875,32.7599983215332,0.0,0.0,0.0384674072265625,-0.0592803955078125,Closing,0.0,0.0,-4.0,0.0,0.0,0.0,0.0,0.0,
1.0532989999998827,0.0,0.0,-30085.0,0.0,0.0,0.0,0.0,0.0,3.757323834,0.0,0.0012207029999995456,25643.0,0.0,0.0,-0.0,0.0,0.0,1.936034958,0.0,0.0,-25544.0,0.0,0.0,0.0,0.0,0.0,4.932860823,0.0,0.0,29642.0,0.0,0.0,-0.0,0.0,0.0,2.882079783,0.0,0.0,0.8700000047683716,0.7799999713897705,171.1699981689453,0.01495361328125,0.00823974609375,0.98760986328125,32.7599983215332,0.0,-2.0,0.0384674072265625,-0.0592803955078125,Closing,0.0,0.0,-4.0,0.0,0.0,0.0,0.0,0.0,
1.1162339999999384,0.0,0.0,-30085.0,0.0,0.0,0.0,0.0,0.125,3.756103131,0.0,-0.0012207029999995456,25643.0,0.0,0.0,-0.0,0.0,0.0,1.936034958,0.0,0.0,-25544.0,0.0,0.0,0.0,0.0,0.0,4.930419417,0.0,0.0,29642.0,0.0,0.0,-0.0,0.0,0.0,2.882079783,0.0,0.0012207029999999897,0.8799999952316284,0.7699999809265137,171.17999267578125,0.01300048828125,0.0194091796875,1.00634765625,32.7599983215332,0.0,1.0,0.0384674072265625,-0.0592803955078125,Closing,0.0,0.0,-4.0,0.0,0.0,0.0,0.0,0.0,
1.1836589999999851,0.0,0.0,-30085.0,0.0,0.0,0.0,0.0,0.125,3.757323834,0.0,0.0,25643.0,0.0,0.0,-0.0,0.0,0.0,1.936034958,0.0,0.0,-25544.0,0.0,0.0,0.0,0.0,0.0,4.932860823,0.0,0.0012207029999995456,29642.0,0.0,0.0,-0.0,0.0,0.0,2.882079783,0.0,0.0,0.8799999952316284,0.7699999809265137,171.1699981689453,0.01190185546875,0.0042724609375,0.99298095703125,32.7599983215332,0.0,-12.0,0.0384674072265625,-0.0592803955078125,Closing,0.0,0.0,-4.0,0.0,0.0,0.0,0.0,0.0,
1.2515409999999683,0.0,0.0,-30085.0,0.0,0.0,0.0,0.0,0.125,3.757323834,0.0,0.0012207029999995456,25643.0,0.0,0.0,-0.0,0.0,0.0,1.934814255,0.0,0.0,-25544.0,0.0,0.0,0.0,0.0,0.0,4.932860823,0.0,0.0,29642.0,0.0,0.0,-0.0,0.0,0.0,2.882079783,0.0,0.0,0.8700000047683716,0.7699999809265137,171.17999267578125,0.0167236328125,0.015380859375,1.01104736328125,32.7599983215332,0.0,-3.0,0.0384674072265625,-0.0592803955078125,Closing,0.0,0.0,-4.0,0.0,0.0,0.0,0.0,0.0,
1.3145500000000465,0.0,0.0,-30085.0,0.0,0.0,0.0,0.0,0.0,3.760985943,0.0,-0.0012207029999995456,25643.0,0.0,0.0,-0.0,0.0,0.0,1.936034958,0.0,0.0,-25544.0,0.0,0.0,0.0,0.0,0.0,4.930419417,0.0,0.0,29642.0,0.0,0.0,-0.0,0.0,0.0,2.882079783,0.0,-0.0012207029999999897,0.8799999952316284,0.7699999809265137,171.1699981689453,0.012451171875,0.01959228515625,1.0023193359375,32.7599983215332,0.0,1.0,0.0384674072265625,-0.0592803955078125,Closing,0.0,0.0,-4.0,0.0,0.0,0.0,0.0,0.0,
1.376777000000002,0.0,0.0,-30085.0,0.0,0.0,0.0,0.0,0.0,3.756103131,0.0,0.0,25643.0,0.0,0.0,-0.0,0.0,0.0,1.936034958,0.0,0.0,-25544.0,0.0,0.0,0.0,0.0,0.0,4.930419417,0.0,0.0,29642.0,0.0,0.0,-0.0,0.0,0.0,2.883300486,0.0,0.0,0.8799999952316284,0.7699999809265137,171.1699981689453,0.0135498046875,0.01312255859375,1.0018310546875,32.7599983215332,0.0,0.0,0.0384674072265625,-0.0592803955078125,Closing,0.0,0.0,-4.0,0.0,0.0,0.0,0.0,0.0,
1.438219000000041,0.0,0.0,-30085.0,0.0,0.0,0.0,0.0,0.125,3.762206646,0.0,-0.0012207029999995456,25643.0,0.0,0.0,-0.0,0.0,0.0,1.937255661,0.0,0.0,-25544.0,0.0,0.0,0.0,0.0,0.0,4.9206537930000005,0.0,0.0012207029999995456,29642.0,0.0,0.0,-0.0,0.0,0.0,2.882079783,0.0,0.0,0.8700000047683716,0.7699999809265137,171.1699981689453,0.01312255859375,0.01171875,0.997314453125,32.7599983215332,0.0,0.0,0.0384674072265625,-0.0592803955078125,Closing,0.0,0.0,-4.0,0.0,0.0,0.0,0.0,0.0,
1.5064150000000374,0.0,0.0,-30085.0,0.0,0.0,0.0,0.0,0.125,3.757323834,0.0,0.0,25643.0,0.0,0.0,-0.0,0.0,0.0,1.936034958,0.0,0.0,-25544.0,0.0,0.0,0.0,0.0,0.0,4.888915515,0.0,4.944234376,29642.0,0.0,0.0,-0.0,0.0,0.0,2.883300486,0.0,0.0012207029999999897,0.8799999952316284,0.7699999809265137,171.1699981689453,0.01458740234375,0.02459716796875,1.00018310546875,32.7599983215332,0.0,0.0,0.0384674072265625,-0.0592803955078125,Closing,0.0,0.0,-4.0,0.0,0.0,0.0,0.0,0.0,
1.5673799999998883,0.0,0.0,-30085.0,0.0,0.0,0.0,0.0,0.125,3.762206646,0.0,0.0012207029999995456,25643.0,0.0,0.0,-0.0,0.0,0.0,1.936034958,0.0,0.0,-25544.0,0.0,0.0,0.0,0.0,0.0,4.853515128000001,0.0,-0.03417968399999971,29642.0,0.0,0.0,-0.0,0.0,0.0,2.882079783,0.0,-0.0024414059999999793,0.8799999952316284,0.7699999809265137,171.1699981689453,0.01165771484375,0.01092529296875,0.99053955078125,32.7599983215332,0.0,1.0,0.0384674072265625,-0.0592803955078125,Closing,0.0,0.0,-4.0,0.0,0.0,0.0,0.0,0.0,
1.6324290000000037,0.0,0.0,-30085.0,0.0,0.0,0.0,0.0,0.0,3.756103131,0.0,-0.0012207029999995456,25643.0,0.0,0.0,-0.0,0.0,0.0,1.936034958,0.0,0.0,-25544.0,0.0,0.0,0.0,0.0,0.0,4.852294425,0.0,-0.035400387000000144,29642.0,0.0,0.0,-0.0,0.0,0.0,2.882079783,0.0,0.0012207029999999897,0.8799999952316284,0.7699999809265137,171.1699981689453,0.01995849609375,0.0146484375,0.9925537109375,32.7599983215332,0.0,-6.0,0.0384674072265625,-0.0592803955078125,Closing,0.0,0.0,-4.0,0.0,0.0,0.0,0.0,0.0,
1.6933300000000746,0.0,0.0,-30085.0,0.0,0.0,0.0,0.0,0.125,3.757323834,0.0,0.0012207029999995456,25643.0,0.0,0.0,-0.0,0.0,0.0,1.936034958,0.0,0.0,-25544.0,0.0,0.0,0.0,0.0,0.0,4.854735831,0.0,0.0,29642.0,0.0,0.0,-0.0,0.0,0.0,2.88085908,0.0,0.0012207029999999897,0.8799999952316284,0.7699999809265137,171.1699981689453,0.01263427734375,0.02191162109375,1.01141357421875,32.7599983215332,0.0,2.0,0.0384674072265625,-0.0592803955078125,Closing,0.0,0.0,-4.0,0.0,0.0,0.0,0.0,0.0,
1.7554620000000578,0.0,0.0,-30085.0,0.0,0.0,0.0,0.0,0.0,3.757323834,0.0,-0.0012207029999995456,25643.0,0.0,0.0,-0.0,0.0,0.0,1.936034958,0.0,0.0,-25544.0,0.0,0.0,0.0,0.0,0.0,4.8730463760000005,0.0,0.0,29642.0,0.0,0.0,-0.0,0.0,0.0,2.882079783,0.0,-0.0012207029999999897,0.8799999952316284,0.7599999904632568,171.16000366210938,0.01776123046875,0.0115966796875,1.0059814453125,32.72999954223633,0.0,-4.0,0.0384674072265625,-0.0592803955078125,Closing,0.0,0.0,-4.0,0.0,0.0,0.0,0.0,0.0,
1.8164849999998696,0.0,0.0,-30085.0,0.0,0.0,0.0,0.0,0.125,3.756103131,0.0,0.0,25643.0,0.0,0.0,-0.0,0.0,0.0,1.934814255,0.0,0.0,-25544.0,0.0,0.0,0.0,0.0,0.0,4.898681139000001,0.0,0.021972653999999814,29642.0,0.0,0.0,-0.0,0.0,0.0,2.883300486,0.0,0.0,0.8799999952316284,0.7699999809265137,171.16000366210938,0.0162353515625,0.01654052734375,1.00732421875,32.72999954223633,0.0,-2.0,0.0384674072265625,-0.0592803955078125,Closing,0.0,0.0,-4.0,0.0,0.0,0.0,0.0,0.0,
1.885714999999851,0.0,0.0,-30085.0,0.0,0.0,0.0,0.0,0.125,3.762206646,0.0,0.0012207029999995456,25643.0,0.0,0.0,-0.0,0.0,0.0,1.936034958,0.0,0.0,-25544.0,0.0,0.0,0.0,0.0,0.0,4.932860823,0.0,0.02441406000000068,29642.0,0.0,0.0,-0.0,0.0,0.0,2.882079783,0.0,0.0012207029999999897,0.8899999856948853,0.7699999809265137,171.1699981689453,0.0159912109375,2.44140625E-4,0.99151611328125,32.72999954223633,0.0,-4.0,0.0384674072265625,-0.0592803955078125,Closing,0.0,0.0,-4.0,0.0,0.0,0.0,0.0,0.0,
1.9484830000000075,0.0,0.0,-30085.0,0.0,0.0,0.0,0.0,0.0,3.757323834,0.0,-0.0012207029999995456,25643.0,0.0,0.0,-0.0,0.0,0.0,1.936034958,0.0,0.0,-25544.0,0.0,0.0,0.0,0.0,0.0,0.020751951,0.0,-4.9161582070000005,29642.0,0.0,0.0,-0.0,0.0,0.0,2.882079783,0.0,0.0,0.8799999952316284,0.7699999809265137,171.1699981689453,0.01434326171875,0.0196533203125,1.00994873046875,32.72999954223633,0.0,0.0,0.0384674072265625,-0.0592803955078125,Closing,0.0,0.0,-4.0,0.0,0.0,0.0,0.0,0.0,
2.0109159999999684,0.0,0.0,-30085.0,0.0,0.0,0.0,0.0,0.0,3.758544537,0.0,0.0012207029999995456,25643.0,0.0,0.0,-0.0,0.0,0.0,1.934814255,0.0,0.0,-25544.0,0.0,0.0,0.0,0.0,0.0,0.042724605,0.0,0.04189112799999961,29642.0,0.0,0.0,-0.0,0.0,0.0,2.882079783,0.0,-0.0012207029999999897,0.8799999952316284,0.7699999809265137,171.1699981689453,0.01849365234375,0.016357421875,0.99810791015625,32.72999954223633,0.0,-4.0,0.0384674072265625,-0.0592803955078125,Closing,0.0,0.0,-4.0,0.0,0.0,0.0,0.0,0.0,
2.075960999999894,0.0,0.0,-30085.0,0.0,0.0,0.0,0.0,0.0,3.760985943,0.0,0.0,25643.0,0.0,0.0,-0.0,0.0,0.0,1.936034958,0.0,0.0,-25544.0,0.0,0.0,0.0,0.0,0.0,0.042724605,0.0,0.0,29642.0,0.0,0.0,-0.0,0.0,0.0,2.88085908,0.0,0.0,0.8899999856948853,0.7699999809265137,171.1699981689453,0.0137939453125,0.01910400390625,1.00396728515625,32.72999954223633,0.0,0.0,0.0384674072265625,-0.0592803955078125,Closing,0.0,0.0,-4.0,0.0,0.0,0.0,0.0,0.0,
2.1446089999999387,0.0,0.0,-30085.0,0.0,0.0,0.0,0.0,0.0,3.756103131,0.0,0.0012207029999995456,25643.0,0.0,0.0,-0.0,0.0,0.0,1.936034958,0.0,0.0,-25544.0,0.0,0.0,0.0,0.0,0.0,0.047607417,0.0,0.0012207030000004337,29642.0,0.0,0.0,-0.0,0.0,0.0,2.877196971,0.0,0.0012207029999999897,0.8899999856948853,0.7699999809265137,171.1699981689453,0.0096435546875,0.0135498046875,1.00665283203125,32.72999954223633,0.0,3.0,0.0384674072265625,-0.0592803955078125,Closing,0.0,0.0,-4.0,0.0,0.0,0.0,0.0,0.0,
2.210935999999987,0.0,0.0,-30085.0,0.0,0.0,0.0,0.0,0.0,3.757323834,0.0,0.0,25643.0,0.0,0.0,-0.0,0.0,0.0,1.936034958,0.0,0.0,-25544.0,0.0,0.0,0.0,0.0,0.0,0.047607417,0.0,0.0012207029999995456,29642.0,0.0,0.0,-0.0,0.0,0.0,2.882079783,0.0,0.0,0.8899999856948853,0.7699999809265137,171.1699981689453,0.01885986328125,0.0150146484375,1.00146484375,32.72999954223633,0.0,-5.0,0.0384674072265625,-0.0592803955078125,Closing,0.0,0.0,-4.0,0.0,0.0,0.0,0.0,0.0,
2.287152999999933,0.0,0.0,-30085.0,0.0,0.0,0.0,0.0,0.0,3.757323834,0.0,0.0,25643.0,0.0,0.0,-0.0,0.0,0.0,1.934814255,0.0,0.0,-25544.0,0.0,0.0,0.0,0.0,0.0,0.047607417,0.0,0.0,29642.0,0.0,0.0,-0.0,0.0,0.0,2.882079783,0.0,0.0,0.8999999761581421,0.7799999713897705,171.1699981689453,0.016845703125,0.0185546875,0.99774169921875,32.720001220703125,0.0,-2.0,0.0384674072265625,-0.0592803955078125,Closing,0.0,0.0,-4.0,0.0,0.0,0.0,0.0,0.0,
2.3569960000000427,0.0,0.0,-30085.0,0.0,0.0,0.0,0.0,0.0,3.762206646,0.0,-0.0012207029999995456,25643.0,0.0,0.0,-0.0,0.0,0.0,1.934814255,0.0,0.0,-25544.0,0.0,0.0,0.0,0.0,0.0,0.015869139,0.0,0.0,29642.0,0.0,0.0,-0.0,0.0,0.0,2.883300486,0.0,0.0,0.8999999761581421,0.7799999713897705,171.1699981689453,0.01446533203125,0.01214599609375,1.00274658203125,32.720001220703125,0.0,-1.0,0.0384674072265625,-0.0592803955078125,Closing,0.0,0.0,-4.0,0.0,0.0,0.0,0.0,0.0,
2.430760000000009,0.0,0.0,-30085.0,0.0,0.0,0.0,0.0,0.125,3.757323834,0.0,0.0,25643.0,0.0,0.0,-0.0,0.0,0.0,1.936034958,0.0,0.0,-25544.0,0.0,0.0,0.0,0.0,0.0,4.912108872,0.0,0.0,29642.0,0.0,0.0,-0.0,0.0,0.0,2.88085908,0.0,0.0,0.8999999761581421,0.7799999713897705,171.1699981689453,0.00836181640625,0.0096435546875,0.99786376953125,32.720001220703125,0.0,4.0,0.0384674072265625,-0.0592803955078125,Closing,0.0,0.0,-4.0,0.0,0.0,0.0,0.0,0.0,
2.4952369999999644,0.0,0.0,-30085.0,0.0,0.0,0.0,0.0,0.0,3.757323834,0.0,0.0024414059999999793,25643.0,0.0,0.0,-0.0,0.0,0.0,1.936034958,0.0,0.0,-25544.0,0.0,0.0,0.0,0.0,0.0,4.8681635640000005,0.0,0.0,29642.0,0.0,0.0,-0.0,0.0,0.0,2.882079783,0.0,0.0,0.8999999761581421,0.7799999713897705,171.1699981689453,0.01470947265625,0.01953125,0.99652099609375,32.720001220703125,0.0,0.0,0.0384674072265625,-0.0592803955078125,Closing,0.0,0.0,-4.0,0.0,0.0,0.0,0.0,0.0,
2.621207999999868,0.0,0.0,-30085.0,0.0,0.0,0.0,0.0,0.125,3.756103131,0.0,0.0,25643.0,0.0,0.0,-0.0,0.0,0.0,1.936034958,0.0,0.0,-25544.0,0.0,0.0,0.0,0.0,0.0,4.908446763000001,0.0,0.0,29642.0,0.0,0.0,-0.0,0.0,0.0,2.882079783,0.0,0.0,0.8899999856948853,0.7900000214576721,171.16000366210938,0.0047607421875,0.0220947265625,1.00238037109375,32.75,0.0,9.0,0.0384674072265625,-0.0592803955078125,Closing,0.0,0.0,-4.0,0.0,0.0,0.0,0.0,0.0,
2.8496709999998564,0.0,0.0,-30085.0,0.0,0.0,0.0,0.0,0.125,3.757323834,0.0,0.0,25643.0,0.0,0.0,-0.0,0.0,0.0,1.936034958,0.0,0.0,-25544.0,0.0,0.0,0.0,0.0,0.0,0.083007804,0.0,0.0,29642.0,0.0,0.0,-0.0,0.0,0.0,2.883300486,0.0,0.0,0.8899999856948853,0.7900000214576721,171.14999389648438,0.021728515625,0.01104736328125,0.99310302734375,32.75,0.0,-8.0,0.0384674072265625,-0.0592803955078125,Closing,0.0,0.0,-4.0,0.0,0.0,0.0,0.0,0.0,
2.996226000000024,0.0,0.0,-30085.0,0.0,0.0,0.0,0.0,0.0,3.757323834,0.0,0.0,25643.0,0.0,0.0,-0.0,0.0,0.0,1.936034958,0.0,0.0,-25544.0,0.0,0.0,0.0,0.0,0.0,0.114746082,0.0,-4.838866692,29642.0,0.0,0.0,-0.0,0.0,0.0,2.882079783,0.0,0.0,0.8899999856948853,0.7900000214576721,171.14999389648438,0.011474609375,0.01788330078125,1.00543212890625,32.75,0.0,2.0,0.0384674072265625,-0.0592803955078125,Closing,0.0,0.0,-4.0,0.0,0.0,0.0,0.0,0.0,
3.068097999999998,0.0,0.0,-30085.0,0.0,0.0,0.0,0.0,0.0,3.756103131,0.0,0.0,25643.0,0.0,0.0,-0.0,0.0,0.0,1.936034958,0.0,0.0,-25544.0,0.0,0.0,0.0,0.0,0.0,0.072021477,0.0,0.030517575000000186,29642.0,0.0,0.0,-0.0,0.0,0.0,2.882079783,0.0,0.0,0.8899999856948853,0.7900000214576721,171.14999389648438,0.01727294921875,0.00933837890625,1.00946044921875,32.75,0.0,-4.0,0.0384674072265625,-0.0592803955078125,Closing,0.0,0.0,-4.0,0.0,0.0,0.0,0.0,0.0,
3.1348340000000317,0.0,0.0,-30085.0,0.0,0.0,0.0,0.0,0.125,3.757323834,0.0,-0.0012207029999995456,25643.0,0.0,0.0,-0.0,0.0,0.0,1.936034958,0.0,0.0,-25544.0,0.0,0.0,0.0,0.0,0.0,4.91943309,0.0,-0.048828120000000474,29642.0,0.0,0.0,-0.0,0.0,0.0,2.883300486,0.0,0.0,0.8899999856948853,0.7900000214576721,171.14999389648438,0.01141357421875,0.0140380859375,1.0162353515625,32.75,0.0,2.0,0.0384674072265625,-0.0592803955078125,Closing,0.0,0.0,-4.0,0.0,0.0,0.0,0.0,0.0,
3.2017129999999887,0.0,0.0,-30085.0,0.0,0.0,0.0,0.0,0.125,3.757323834,0.0,0.0012207029999995456,25643.0,0.0,0.0,-0.0,0.0,0.0,1.934814255,0.0,0.0,-25544.0,0.0,0.0,0.0,0.0,0.0,4.864501455,0.0,4.849853019,29642.0,0.0,0.0,-0.0,0.0,0.0,2.882079783,0.0,0.0,0.8999999761581421,0.7900000214576721,171.14999389648438,0.02142333984375,0.0113525390625,1.0101318359375,32.75,0.0,-8.0,0.0384674072265625,-0.0592803955078125,Closing,0.0,0.0,-4.0,0.0,0.0,0.0,0.0,0.0,
3.271043000000063,0.0,0.0,-30085.0,0.0,0.0,0.0,0.0,0.125,3.757323834,0.0,-0.0012207029999995456,25643.0,0.0,0.0,-0.0,0.0,0.0,1.936034958,0.0,0.0,-25544.0,0.0,0.0,0.0,0.0,0.0,4.83398388,0.0,-0.056152337999999524,29642.0,0.0,0.0,-0.0,0.0,0.0,2.882079783,0.0,0.0,0.8899999856948853,0.7900000214576721,171.14999389648438,0.01373291015625,0.01715087890625,1.0111083984375,32.75,0.0,0.0,0.0384674072265625,-0.0592803955078125,Closing,0.0,0.0,-4.0,0.0,0.0,0.0,0.0,0.0,
3.3399020000000017,0.0,0.0,-30085.0,0.0,0.0,0.0,0.0,0.125,3.760985943,0.0,0.0012207029999995456,25643.0,0.0,0.0,-0.0,0.0,0.0,1.936034958,0.0,0.0,-25544.0,0.0,0.0,0.0,0.0,0.0,4.840087395,0.0,-0.02441406000000068,29642.0,0.0,0.0,-0.0,0.0,0.0,2.882079783,0.0,0.0,0.8999999761581421,0.7799999713897705,171.14999389648438,0.01153564453125,0.01580810546875,1.00909423828125,32.75,0.0,2.0,0.0384674072265625,-0.0592803955078125,Closing,0.0,0.0,-4.0,0.0,0.0,0.0,0.0,0.0,
3.4090439999999944,0.0,0.0,-30085.0,0.0,0.0,0.0,0.0,0.125,3.757323834,0.0,0.0,25643.0,0.0,0.0,-0.0,0.0,0.0,1.936034958,0.0,0.0,-25544.0,0.0,0.0,0.0,0.0,0.0,4.8632807520000005,0.0,0.007324217999999938,29642.0,0.0,0.0,-0.0,0.0,0.0,2.88085908,0.0,-0.0012207029999999897,0.8899999856948853,0.7900000214576721,171.14999389648438,0.0166015625,0.01519775390625,0.99365234375,32.75,0.0,-2.0,0.0384674072265625,-0.0592803955078125,Closing,0.0,0.0,-4.0,0.0,0.0,0.0,0.0,0.0,
3.4719150000000374,0.0,0.0,-30085.0,0.0,0.0,0.0,0.0,0.125,3.756103131,0.0,0.0,25643.0,0.0,0.0,-0.0,0.0,0.0,1.936034958,0.0,0.0,-25544.0,0.0,0.0,0.0,0.0,0.0,4.927978011,0.0,0.0,29642.0,0.0,0.0,-0.0,0.0,0.0,2.883300486,0.0,0.0,0.8899999856948853,0.7799999713897705,171.14999389648438,0.001953125,0.0189208984375,1.00634765625,32.75,0.0,12.0,0.0384674072265625,-0.0592803955078125,Closing,0.0,0.0,-4.0,0.0,0.0,0.0,0.0,0.0,
3.541089999999851,0.0,0.0,-30085.0,0.0,0.0,0.0,0.0,0.125,3.756103131,0.0,-0.0012207029999995456,25643.0,0.0,0.0,-0.0,0.0,0.0,1.936034958,0.0,0.0,-25544.0,0.0,0.0,0.0,0.0,0.0,0.017089842,0.0,0.058593743999999504,29642.0,0.0,0.0,-0.0,0.0,0.0,2.882079783,0.0,0.0012207029999999897,0.8899999856948853,0.7699999809265137,171.14999389648438,0.01165771484375,0.01641845703125,1.01556396484375,32.75,0.0,2.0,0.0384674072265625,-0.0592803955078125,Closing,0.0,0.0,-4.0,0.0,0.0,0.0,0.0,0.0,
3.607097000000067,0.0,0.0,-30085.0,0.0,0.0,0.0,0.0,0.0,3.757323834,0.0,0.0012207029999995456,25643.0,0.0,0.0,-0.0,0.0,0.0,1.936034958,0.0,0.0,-25544.0,0.0,0.0,0.0,0.0,0.0,0.021972654,0.0,-4.910888169,29642.0,0.0,0.0,-0.0,0.0,0.0,2.882079783,0.0,-0.0012207029999999897,0.8899999856948853,0.7799999713897705,171.14999389648438,0.01849365234375,0.02032470703125,1.0120849609375,32.75,0.0,-3.0,0.0384674072265625,-0.0592803955078125,Closing,0.0,0.0,-4.0,0.0,0.0,0.0,0.0,0.0,
3.6705069999999833,0.0,0.0,-30085.0,0.0,0.0,0.0,0.0,0.125,3.756103131,0.0,-0.0012207029999995456,25643.0,0.0,0.0,-0.0,0.0,0.0,1.936034958,0.0,0.0,-25544.0,0.0,0.0,0.0,0.0,0.0,4.935302229,0.0,0.0,29642.0,0.0,0.0,-0.0,0.0,0.0,2.883300486,0.0,0.0,0.8899999856948853,0.7799999713897705,171.14999389648438,0.009765625,0.0191650390625,1.004638671875,32.75,0.0,4.0,0.0384674072265625,-0.0592803955078125,Closing,0.0,0.0,-4.0,0.0,0.0,0.0,0.0,0.0,
3.741776000000071,0.0,0.0,-30085.0,0.0,0.0,0.0,0.0,0.125,3.757323834,0.0,0.0012207029999995456,25643.0,0.0,0.0,-0.0,0.0,0.0,1.934814255,0.0,0.0,-25544.0,0.0,0.0,0.0,0.0,0.0,4.9230951990000005,0.0,-0.02846339500000017,29642.0,0.0,0.0,-0.0,0.0,0.0,2.882079783,0.0,0.0,0.8899999856948853,0.7699999809265137,171.14999389648438,0.01531982421875,0.01275634765625,1.00408935546875,32.75,0.0,-2.0,0.0384674072265625,-0.0592803955078125,Closing,0.0,0.0,-4.0,0.0,0.0,0.0,0.0,0.0,
3.8101739999998827,0.0,0.0,-30085.0,0.0,0.0,0.0,0.0,0.125,3.757323834,0.0,0.0012207030000004337,25643.0,0.0,0.0,-0.0,0.0,0.0,1.936034958,0.0,0.0,-25544.0,0.0,0.0,0.0,0.0,0.0,4.9206537930000005,0.0,4.939351564,29642.0,0.0,0.0,-0.0,0.0,0.0,2.882079783,0.0,-0.0012207029999999897,0.8899999856948853,0.7799999713897705,171.14999389648438,0.01220703125,0.0166015625,1.0010986328125,32.790000915527344,0.0,1.0,0.0384674072265625,-0.0592803955078125,Closing,0.0,0.0,-4.0,0.0,0.0,0.0,0.0,0.0,
3.8711979999998585,0.0,0.0,-30085.0,0.0,0.0,0.0,0.0,0.0,3.756103131,0.0,-0.0024414059999999793,25643.0,0.0,0.0,-0.0,0.0,0.0,1.936034958,0.0,0.0,-25544.0,0.0,0.0,0.0,0.0,0.0,4.921874496,0.0,-0.0012207029999995456,29642.0,0.0,0.0,-0.0,0.0,0.0,2.882079783,0.0,0.0,0.8899999856948853,0.7799999713897705,171.14999389648438,0.01422119140625,0.01641845703125,1.005126953125,32.790000915527344,0.0,0.0,0.0384674072265625,-0.0592803955078125,Closing,0.0,0.0,-4.0,0.0,0.0,0.0,0.0,0.0,
3.940780999999959,0.0,0.0,-30085.0,0.0,0.0,0.0,0.0,0.0,3.756103131,0.0,0.0012207029999995456,25643.0,0.0,0.0,-0.0,0.0,0.0,1.934814255,0.0,0.0,-25544.0,0.0,0.0,0.0,0.0,0.0,4.9230951990000005,0.0,0.0012207029999995456,29642.0,0.0,0.0,-0.0,0.0,0.0,2.882079783,0.0,0.0012207029999999897,0.8899999856948853,0.7699999809265137,171.14999389648438,0.01019287109375,0.0159912109375,0.99884033203125,32.790000915527344,0.0,3.0,0.0384674072265625,-0.0592803955078125,Closing,0.0,0.0,-4.0,0.0,0.0,0.0,0.0,0.0,
4.002280999999959,0.0,0.0,-30085.0,0.0,0.0,0.0,0.0,0.125,3.756103131,0.0,0.0012207030000004337,25643.0,0.0,0.0,-0.0,0.0,0.0,1.936034958,0.0,0.0,-25544.0,0.0,0.0,0.0,0.0,0.0,4.9206537930000005,0.0,0.0,29642.0,0.0,0.0,-0.0,0.0,0.0,2.882079783,0.0,0.0,0.8799999952316284,0.7799999713897705,171.14999389648438,0.01824951171875,0.0093994140625,1.00457763671875,32.790000915527344,0.0,-5.0,0.0384674072265625,-0.0592803955078125,Closing,0.0,0.0,-4.0,0.0,0.0,0.0,0.0,0.0,
4.067939000000013,0.0,0.0,-30085.0,0.0,0.0,0.0,0.0,0.125,3.757323834,0.0,-0.0024414059999999793,25643.0,0.0,0.0,-0.0,0.0,0.0,1.934814255,0.0,0.0,-25544.0,0.0,0.0,0.0,0.0,0.0,4.94384715,0.0,0.0,29642.0,0.0,0.0,-0.0,0.0,0.0,2.882079783,0.0,0.0,0.8799999952316284,0.7799999713897705,171.14999389648438,0.0137939453125,0.0169677734375,1.00323486328125,32.790000915527344,0.0,0.0,0.0384674072265625,-0.0592803955078125,Closing,0.0,0.0,-4.0,0.0,0.0,0.0,0.0,0.0,
4.130980999999912,0.0,0.0,-30085.0,0.0,0.0,0.0,0.0,0.0,3.762206646,0.0,0.0,25643.0,0.0,0.0,-0.0,0.0,0.0,1.936034958,0.0,0.0,-25544.0,0.0,0.0,0.0,0.0,0.0,4.941405744,0.0,-4.9356894549999994,29642.0,0.0,0.0,-0.0,0.0,0.0,2.882079783,0.0,0.0,0.8899999856948853,0.7699999809265137,171.14999389648438,0.01605224609375,0.01995849609375,1.01531982421875,32.790000915527344,0.0,-1.0,0.0384674072265625,-0.0592803955078125,Closing,0.0,0.0,-4.0,0.0,0.0,0.0,0.0,0.0,
4.192318999999901,0.0,0.0,-30085.0,0.0,0.0,0.0,0.0,0.125,3.757323834,0.0,0.0012207029999995456,25643.0,0.0,0.0,-0.0,0.0,0.0,1.936034958,0.0,0.0,-25544.0,0.0,0.0,0.0,0.0,0.0,4.940185041,0.0,0.0,29642.0,0.0,0.0,-0.0,0.0,0.0,2.882079783,0.0,0.0,0.8899999856948853,0.7799999713897705,171.13999938964844,0.0184326171875,0.0145263671875,1.00152587890625,32.790000915527344,0.0,-4.0,0.0384674072265625,-0.0592803955078125,Closing,0.0,0.0,-4.0,0.0,0.0,0.0,0.0,0.0,
4.253662999999943,0.0,0.0,-30085.0,0.0,0.0,0.0,0.0,0.125,3.757323834,0.0,-0.0012207029999995456,25643.0,0.0,0.0,-0.0,0.0,0.0,1.936034958,0.0,0.0,-25544.0,0.0,0.0,0.0,0.0,0.0,4.9157709810000005,0.0,0.0012207029999995456,29642.0,0.0,0.0,-0.0,0.0,0.0,2.882079783,0.0,0.0,0.8899999856948853,0.7900000214576721,171.13999938964844,0.0177001953125,0.00543212890625,1.00048828125,32.790000915527344,0.0,-5.0,0.0384674072265625,-0.0592803955078125,Closing,0.0,0.0,-4.0,0.0,0.0,0.0,0.0,0.0,
4.316222999999998,0.0,0.0,-30085.0,0.0,0.0,0.0,0.0,0.125,3.756103131,0.0,0.0012207029999995456,25643.0,0.0,0.0,-0.0,0.0,0.0,1.936034958,0.0,0.0,-25544.0,0.0,0.0,0.0,0.0,0.0,4.91943309,0.0,4.92958594,29642.0,0.0,0.0,-0.0,0.0,0.0,2.882079783,0.0,0.0,0.8899999856948853,0.7900000214576721,171.13999938964844,0.01007080078125,0.01141357421875,0.9912109375,32.75,0.0,2.0,0.0384674072265625,-0.0592803955078125,Closing,0.0,0.0,-4.0,0.0,0.0,0.0,0.0,0.0,
4.386091000000015,0.0,0.0,-30085.0,0.0,0.0,0.0,0.0,0.125,3.762206646,0.0,0.0,25643.0,0.0,0.0,-0.0,0.0,0.0,1.934814255,0.0,0.0,-25544.0,0.0,0.0,0.0,0.0,0.0,4.91943309,0.0,0.0,29642.0,0.0,0.0,-0.0,0.0,0.0,2.882079783,0.0,0.0,0.8899999856948853,0.7799999713897705,171.13999938964844,0.0101318359375,0.01812744140625,0.995849609375,32.75,0.0,3.0,0.0384674072265625,-0.0592803955078125,Closing,0.0,0.0,-4.0,0.0,0.0,0.0,0.0,0.0,
4.450050000000046,0.0,0.0,-30085.0,0.0,0.0,0.0,0.0,0.0,3.757323834,0.0,-0.0024414059999999793,25643.0,0.0,0.0,-0.0,0.0,0.0,1.936034958,0.0,0.0,-25544.0,0.0,0.0,0.0,0.0,0.0,4.9182123870000005,0.0,0.0,29642.0,0.0,0.0,-0.0,0.0,0.0,2.882079783,0.0,-0.0012207029999999897,0.8899999856948853,0.7900000214576721,171.13999938964844,0.01336669921875,0.01751708984375,1.0010986328125,32.75,0.0,0.0,0.0384674072265625,-0.0592803955078125,Closing,0.0,0.0,-4.0,0.0,0.0,0.0,0.0,0.0,
4.510604999999981,0.0,0.0,-30085.0,0.0,0.0,0.0,0.0,0.0,3.757323834,0.0,0.0012207029999995456,25643.0,0.0,0.0,-0.0,0.0,0.0,1.936034958,0.0,0.0,-25544.0,0.0,0.0,0.0,0.0,0.0,4.9206537930000005,0.0,0.0,29642.0,0.0,0.0,-0.0,0.0,0.0,2.882079783,0.0,0.0,0.8899999856948853,0.7900000214576721,171.14999389648438,0.01318359375,0.01361083984375,0.9967041015625,32.75,0.0,0.0,0.0384674072265625,-0.0592803955078125,Closing,0.0,0.0,-4.0,0.0,0.0,0.0,0.0,0.0,
4.572587000000058,0.0,0.0,-30085.0,0.0,0.0,0.0,0.0,0.125,3.760985943,0.0,0.0,25643.0,0.0,0.0,-0.0,0.0,0.0,1.936034958,0.0,0.0,-25544.0,0.0,0.0,0.0,0.0,0.0,4.927978011,0.0,0.007324217999999938,29642.0,0.0,0.0,-0.0,0.0,0.0,2.882079783,0.0,0.0,0.8899999856948853,0.7900000214576721,171.14999389648438,0.01458740234375,0.01544189453125,0.9979248046875,32.75,0.0,0.0,0.0384674072265625,-0.0592803955078125,Closing,0.0,0.0,-4.0,0.0,0.0,0.0,0.0,0.0,
4.635625999999931,0.0,0.0,-30085.0,0.0,0.0,0.0,0.0,0.0,3.756103131,0.0,-0.0012207029999995456,25643.0,0.0,0.0,-0.0,0.0,0.0,1.936034958,0.0,0.0,-25544.0,0.0,0.0,0.0,0.0,0.0,4.926757308,0.0,0.0,29642.0,0.0,0.0,-0.0,0.0,0.0,2.883300486,0.0,0.0012207029999999897,0.8899999856948853,0.7900000214576721,171.14999389648438,0.00982666015625,0.01312255859375,0.9989013671875,32.75,0.0,3.0,0.0384674072265625,-0.0592803955078125,Closing,0.0,0.0,-4.0,0.0,0.0,0.0,0.0,0.0,
4.69654700000002,0.0,0.0,-30085.0,0.0,0.0,0.0,0.0,0.125,3.762206646,0.0,0.0,25643.0,0.0,0.0,-0.0,0.0,0.0,1.936034958,0.0,0.0,-25544.0,0.0,0.0,0.0,0.0,0.0,4.927978011,0.0,0.0,29642.0,0.0,0.0,-0.0,0.0,0.0,2.882079783,0.0,0.0,0.8899999856948853,0.7900000214576721,171.14999389648438,0.01495361328125,0.017333984375,1.0006103515625,32.75,0.0,0.0,0.0384674072265625,-0.0592803955078125,Closing,0.0,0.0,-4.0,0.0,0.0,0.0,0.0,0.0,
4.758922999999951,0.0,0.0,-30085.0,0.0,0.0,0.0,0.0,0.125,3.756103131,0.0,0.0012207029999995456,25643.0,0.0,0.0,-0.0,0.0,0.0,1.934814255,0.0,0.0,-25544.0,0.0,0.0,0.0,0.0,0.0,4.921874496,0.0,0.0,29642.0,0.0,0.0,-0.0,0.0,0.0,2.882079783,0.0,0.0,0.8899999856948853,0.7900000214576721,171.13999938964844,0.01531982421875,0.01812744140625,1.0045166015625,32.75,0.0,-1.0,0.0384674072265625,-0.0592803955078125,Closing,0.0,0.0,-4.0,0.0,0.0,0.0,0.0,0.0,
4.824625,0.0,0.0,-30085.0,0.0,0.0,0.0,0.0,0.125,3.758544537,0.0,-0.0012207029999995456,25643.0,0.0,0.0,-0.0,0.0,0.0,1.936034958,0.0,0.0,-25544.0,0.0,0.0,0.0,0.0,0.0,4.9206537930000005,0.0,-0.004882811999999959,29642.0,0.0,0.0,-0.0,0.0,0.0,2.882079783,0.0,0.0,0.8899999856948853,0.7900000214576721,171.13999938964844,0.01483154296875,0.0120849609375,1.0054931640625,32.77000045776367,0.0,-1.0,0.0384674072265625,-0.0592803955078125,Closing,0.0,0.0,-4.0,0.0,0.0,0.0,0.0,0.0,
4.89323900000006,0.0,0.0,-30085.0,0.0,0.0,0.0,0.0,0.125,3.756103131,0.0,0.0012207029999995456,25643.0,0.0,0.0,-0.0,0.0,0.0,1.936034958,0.0,0.0,-25544.0,0.0,0.0,0.0,0.0,0.0,4.9230951990000005,0.0,0.0,29642.0,0.0,0.0,-0.0,0.0,0.0,2.882079783,0.0,0.0,0.8899999856948853,0.7900000214576721,171.13999938964844,0.0133056640625,0.0146484375,0.9940185546875,32.77000045776367,0.0,0.0,0.0384674072265625,-0.0592803955078125,Closing,0.0,0.0,-4.0,0.0,0.0,0.0,0.0,0.0,
4.9531969999999275,0.0,0.0,-30085.0,0.0,0.0,0.0,0.0,0.125,3.756103131,0.0,-0.0012207029999995456,25643.0,0.0,0.0,-0.0,0.0,0.0,1.936034958,0.0,0.0,-25544.0,0.0,0.0,0.0,0.0,0.0,4.9230951990000005,0.0,0.0,29642.0,0.0,0.0,-0.0,0.0,0.0,2.882079783,0.0,0.0,0.8899999856948853,0.7900000214576721,171.13999938964844,0.01580810546875,0.01641845703125,0.988525390625,32.77000045776367,0.0,-1.0,0.0384674072265625,-0.0592803955078125,Closing,0.0,0.0,-4.0,0.0,0.0,0.0,0.0,0.0,
5.012795999999857,0.0,0.0,-30085.0,0.0,0.0,0.0,0.0,0.125,3.757323834,0.0,0.0012207029999995456,25643.0,0.0,0.0,-0.0,0.0,0.0,1.934814255,0.0,0.0,-25544.0,0.0,0.0,0.0,0.0,0.0,4.921874496,0.0,0.0,29642.0,0.0,0.0,-0.0,0.0,0.0,2.882079783,0.0,0.0,0.8799999952316284,0.7900000214576721,171.13999938964844,0.01763916015625,0.0140380859375,0.99456787109375,32.77000045776367,0.0,-3.0,0.0384674072265625,-0.0592803955078125,Closing,0.0,0.0,-4.0,0.0,0.0,0.0,0.0,0.0,
5.071966999999946,0.0,0.0,-30085.0,0.0,0.0,0.0,0.0,0.0,3.757323834,0.0,0.0,25643.0,0.0,0.0,-0.0,0.0,0.0,1.936034958,0.0,0.0,-25544.0,0.0,0.0,0.0,0.0,0.0,4.921874496,0.0,0.0,29642.0,0.0,0.0,-0.0,0.0,0.0,2.882079783,0.0,-0.0012207029999999897,0.8799999952316284,0.7900000214576721,171.14999389648438,0.01177978515625,0.017822265625,0.98291015625,32.77000045776367,0.0,2.0,0.0384674072265625,-0.0592803955078125,Closing,0.0,0.0,-4.0,0.0,0.0,0.0,0.0,0.0,
5.135670999999856,0.0,0.0,-30085.0,0.0,0.0,0.0,0.0,0.125,3.762206646,0.0,-0.0012207029999995456,25643.0,0.0,0.0,-0.0,0.0,0.0,1.936034958,0.0,0.0,-25544.0,0.0,0.0,0.0,0.0,0.0,4.921874496,0.0,0.0,29642.0,0.0,0.0,-0.0,0.0,0.0,2.882079783,0.0,0.0,0.8999999761581421,0.7799999713897705,171.14999389648438,0.01068115234375,0.01800537109375,0.99761962890625,32.77000045776367,0.0,3.0,0.0384674072265625,-0.0592803955078125,Closing,0.0,0.0,-4.0,0.0,0.0,0.0,0.0,0.0,
5.194727999999887,0.0,0.0,-30085.0,0.0,0.0,0.0,0.0,0.125,3.757323834,0.0,0.0,25643.0,0.0,0.0,-0.0,0.0,0.0,1.936034958,0.0,0.0,-25544.0,0.0,0.0,0.0,0.0,0.0,4.9206537930000005,0.0,0.0,29642.0,0.0,0.0,-0.0,0.0,0.0,2.882079783,0.0,0.0,0.8899999856948853,0.7900000214576721,171.14999389648438,0.01513671875,0.01434326171875,1.00323486328125,32.77000045776367,0.0,-1.0,0.0384674072265625,-0.0592803955078125,Closing,0.0,0.0,-4.0,0.0,0.0,0.0,0.0,0.0,
5.253949000000023,0.0,0.0,-30085.0,0.0,0.0,0.0,0.0,0.125,3.757323834,0.0,0.0012207029999995456,25643.0,0.0,0.0,-0.0,0.0,0.0,1.934814255,0.0,0.0,-25544.0,0.0,0.0,0.0,0.0,0.0,4.9230951990000005,0.0,0.0,29642.0,0.0,0.0,-0.0,0.0,0.0,2.88085908,0.0,0.0,0.8899999856948853,0.7900000214576721,171.14999389648438,0.01422119140625,0.013427734375,1.00067138671875,32.77000045776367,0.0,0.0,0.0384674072265625,-0.0592803955078125,Closing,0.0,0.0,-4.0,0.0,0.0,0.0,0.0,0.0,
5.315240999999922,0.0,0.0,-30085.0,0.0,0.0,0.0,0.0,0.0,3.757323834,0.0,-0.0012207029999995456,25643.0,0.0,0.0,-0.0,0.0,0.0,1.934814255,0.0,0.0,-25544.0,0.0,0.0,0.0,0.0,0.0,4.924315902,0.0,0.0,29642.0,0.0,0.0,-0.0,0.0,0.0,2.882079783,0.0,0.0,0.8999999761581421,0.7799999713897705,171.14999389648438,0.01043701171875,0.01904296875,1.0062255859375,32.75,0.0,3.0,0.0384674072265625,-0.0592803955078125,Closing,0.0,0.0,-4.0,0.0,0.0,0.0,0.0,0.0,
