Time,ClimberA1,ClimberA2,FRpos,FRCurrent,FRspeed,FRsetpoint,FRApos,FRACurrent,FREncpos,FREncSetpoint,FREncSpeed,FLpos,FLCurrent,FLspeed,FLsetpoint,FLApos,FLACurrent,FLEncpos,FLEncSetpoint,FLEncSpeed,BRpos,BRCurrent,BRspeed,BRsetpoint,BRApos,BRACurrent,BREncpos,BREncSetpoint,BREncSpeed,BLpos,BLCurrent,BLspeed,BLsetpoint,BLApos,BLACurrent,BLEncpos,BLEncSetpoint,BLEncSpeed,navx_Pitch,navx_Roll,navx_Yaw,navx_XAcc,navx_YAcc,navx_ZAcc,navx_Temp,navx_Bar,navx_Alt,navx_XDis,navx_YDis,GearPlacerState,ShootOutputV,ShootOutputCurrent,ShootEncPos,ShootEncVelocity,ShootSpeed,ShootSetpoint,CarouselSetpoint,CarouselCurrent,
0.14903699999998207,0.0,0.0,0.0,0.0,0.0,0.0,0.0,0.125,3.863524995,0.0,0.0,-2.0,0.0,0.0,-0.0,0.0,0.0,2.09960916,0.0,0.0,29.0,0.0,0.0,0.0,0.0,0.0,4.2724605,0.0,0.0,0.0,0.0,0.0,-0.0,0.0,0.0,2.9064938430000002,0.0,0.0,1.3700000047683716,0.8500000238418579,-29.979999542236328,0.016845703125,0.0184326171875,1.0078125,29.969999313354492,0.0,4.0,-0.037017822265625,-0.0498504638671875,Closing,0.0,0.0,0.0,0.0,0.0,0.0,0.0,0.0,
0.2504400000000023,0.0,0.0,0.0,0.0,0.0,0.0,0.0,0.125,3.861083589,0.0,0.0,-2.0,0.0,0.0,-0.0,0.0,0.0,2.084960724,0.0,0.0,29.0,0.0,0.0,0.0,0.0,0.0,4.2724605,0.0,0.0,0.0,0.0,0.0,-0.0,0.0,0.0,2.9064938430000002,0.0,0.0,1.3600000143051147,0.8100000023841858,-29.959999084472656,0.01251220703125,0.01434326171875,1.01348876953125,29.989999771118164,0.0,3.0,-0.037139892578125,-0.0498504638671875,Closing,0.0,0.0,0.0,0.0,0.0,0.0,0.0,0.0,
0.3524940000000061,0.0,0.0,0.0,0.0,0.0,0.0,0.0,0.125,3.862304292,0.0,0.0,-2.0,0.0,0.0,-0.0,0.0,0.0,1.932372849,0.0,0.0,29.0,0.0,0.0,0.0,0.0,0.0,4.266356985,0.0,0.0,0.0,0.0,0.0,-0.0,0.0,0.0,2.9064938430000002,0.0,0.0,1.3600000143051147,0.8299999833106995,-29.989999771118164,0.00537109375,0.0283203125,1.02178955078125,29.989999771118164,0.0,-10.0,-0.037139892578125,-0.0498504638671875,Closing,0.0,0.0,0.0,0.0,0.0,0.0,0.0,0.0,
0.45532600000000095,0.0,0.0,0.0,0.0,0.0,0.0,0.0,0.125,3.863524995,0.0,0.0,-2.0,0.0,0.0,-0.0,0.0,0.0,1.7919920040000001,0.0,0.0,29.0,0.0,0.0,0.0,0.0,0.0,4.2724605,0.0,0.0,0.0,0.0,0.0,-0.0,0.0,0.0,2.9064938430000002,0.0,0.0,1.3600000143051147,0.8399999737739563,-29.969999313354492,0.011474609375,0.03204345703125,1.011962890625,29.989999771118164,0.0,-6.0,-0.037139892578125,-0.0498504638671875,Closing,0.0,0.0,0.0,0.0,0.0,0.0,0.0,0.0,
0.5610810000000056,0.0,0.0,0.0,0.0,0.0,0.0,0.0,0.125,3.864745698,0.0,0.0,-2.0,0.0,0.0,-0.0,0.0,0.0,1.772460756,0.0,0.0,29.0,0.0,0.0,0.0,0.0,0.0,4.268798391,0.0,0.0,0.0,0.0,0.0,-0.0,0.0,0.0,2.9052731400000003,0.0,0.0,1.3600000143051147,0.8299999833106995,-29.979999542236328,0.02899169921875,0.02581787109375,1.00970458984375,29.989999771118164,0.0,11.0,-0.037139892578125,-0.0498504638671875,Closing,0.0,0.0,0.0,0.0,0.0,0.0,0.0,0.0,
0.664377999999997,0.0,0.0,0.0,0.0,0.0,0.0,0.0,0.125,3.862304292,0.0,0.0,-2.0,0.0,0.0,-0.0,0.0,0.0,1.849365045,0.0,0.0,29.0,0.0,0.0,0.0,0.0,0.0,4.270019094,0.0,0.0,0.0,0.0,0.0,-0.0,0.0,0.0,2.9052731400000003,0.0,0.0,1.3700000047683716,0.8199999928474426,-29.979999542236328,0.009765625,0.026611328125,0.995849609375,29.989999771118164,0.0,-5.0,-0.037139892578125,-0.0498504638671875,Closing,0.0,0.0,0.0,0.0,0.0,0.0,0.0,0.0,
0.7685380000000005,0.0,0.0,0.0,0.0,0.0,0.0,0.0,0.125,3.859862886,0.0,0.0,-2.0,0.0,0.0,-0.0,0.0,0.0,1.926269334,0.0,0.0,29.0,0.0,0.0,0.0,0.0,0.0,4.270019094,0.0,0.0,0.0,0.0,0.0,-0.0,0.0,0.0,2.9064938430000002,0.0,0.0,1.3700000047683716,0.8199999928474426,-30.0,0.01751708984375,0.0230712890625,1.01348876953125,29.989999771118164,0.0,3.0,-0.037139892578125,-0.0498504638671875,Closing,0.0,0.0,0.0,0.0,0.0,0.0,0.0,0.0,
0.8723949999999895,0.0,0.0,0.0,0.0,0.0,0.0,0.0,0.125,3.863524995,0.0,0.0,-2.0,0.0,0.0,-0.0,0.0,0.0,1.9421384730000002,0.0,0.0,29.0,0.0,0.0,0.0,0.0,0.0,4.2724605,0.0,0.0,0.0,0.0,0.0,-0.0,0.0,0.0,2.9064938430000002,0.0,0.0,1.350000023841858,0.8500000238418579,-29.989999771118164,0.014404296875,0.02459716796875,0.9947509765625,29.989999771118164,0.0,0.0,-0.037139892578125,-0.0498504638671875,Closing,0.0,0.0,0.0,0.0,0.0,0.0,0.0,0.0,
0.9761069999999891,0.0,0.0,0.0,0.0,0.0,0.0,0.0,0.125,3.852538668,0.0,0.0,-2.0,0.0,0.0,-0.0,0.0,0.0,1.9409177700000002,0.0,0.0,29.0,0.0,0.0,0.0,0.0,0.0,4.273681203000001,0.0,0.0,0.0,0.0,0.0,-0.0,0.0,0.0,2.9064938430000002,0.0,0.0,1.3600000143051147,0.8399999737739563,-29.989999771118164,0.0166015625,0.025634765625,0.9912109375,29.989999771118164,0.0,0.0,-0.037139892578125,-0.0498504638671875,Closing,0.0,0.0,0.0,0.0,0.0,0.0,0.0,0.0,
1.0886469999999973,0.0,0.0,0.0,0.0,0.0,0.0,0.0,0.125,3.863524995,0.0,0.0,-2.0,0.0,0.0,-0.0,0.0,0.0,1.9409177700000002,0.0,0.0,29.0,0.0,0.0,0.0,0.0,0.0,4.276122609000001,0.0,0.0,0.0,0.0,0.0,-0.0,0.0,0.0,2.9064938430000002,0.0,0.0,1.3600000143051147,0.8399999737739563,-30.0,0.01483154296875,0.02398681640625,1.01226806640625,29.989999771118164,0.0,0.0,-0.037139892578125,-0.0498504638671875,Closing,0.0,0.0,0.0,0.0,0.0,0.0,0.0,0.0,
1.2045119999999878,0.0,0.0,0.0,0.0,0.0,0.0,0.0,0.125,3.863524995,0.0,0.0,-2.0,0.0,0.0,-0.0,0.0,0.0,1.9409177700000002,0.0,0.0,29.0,0.0,0.0,0.0,0.0,0.0,4.271239797000001,0.0,0.0,0.0,0.0,0.0,-0.0,0.0,0.0,2.9064938430000002,0.0,0.0,1.3600000143051147,0.8399999737739563,-30.0,0.01611328125,0.0228271484375,1.0140380859375,30.020000457763672,0.0,1.0,-0.037139892578125,-0.0498504638671875,Closing,0.0,0.0,0.0,0.0,0.0,0.0,0.0,0.0,
1.3238919999999925,0.0,0.0,0.0,0.0,0.0,0.0,0.0,0.125,3.863524995,0.0,0.0,-2.0,0.0,0.0,-0.0,0.0,0.0,1.9409177700000002,0.0,0.0,29.0,0.0,0.0,0.0,0.0,0.0,4.2724605,0.0,0.0,0.0,0.0,0.0,-0.0,0.0,0.0,2.9064938430000002,0.0,0.0,1.3600000143051147,0.8500000238418579,-30.0,0.0157470703125,0.0260009765625,1.0045166015625,30.020000457763672,0.0,0.0,-0.037139892578125,-0.0498504638671875,Closing,0.0,0.0,0.0,0.0,0.0,0.0,0.0,0.0,
1.4338669999999984,0.0,0.0,0.0,0.0,0.0,0.0,0.0,0.125,3.863524995,0.0,0.0,-2.0,0.0,0.0,-0.0,0.0,0.0,1.936034958,0.0,0.0,29.0,0.0,0.0,0.0,0.0,0.0,4.2724605,0.0,0.0,0.0,0.0,0.0,-0.0,0.0,0.0,2.9064938430000002,0.0,0.0,1.3600000143051147,0.8399999737739563,-29.989999771118164,0.00982666015625,0.023193359375,1.0047607421875,30.020000457763672,0.0,-3.0,-0.037139892578125,-0.0498504638671875,Closing,0.0,0.0,0.0,0.0,0.0,0.0,0.0,0.0,
1.5504040000000094,0.0,0.0,0.0,0.0,0.0,0.0,0.0,0.125,3.863524995,0.0,0.0,-2.0,0.0,0.0,-0.0,0.0,0.0,1.931152146,0.0,0.0,29.0,0.0,0.0,0.0,0.0,0.0,4.2724605,0.0,0.0,0.0,0.0,0.0,-0.0,0.0,0.0,2.9064938430000002,0.0,0.0,1.350000023841858,0.8399999737739563,-30.0,0.01739501953125,0.0228271484375,1.0113525390625,30.020000457763672,0.0,2.0,-0.037139892578125,-0.0498504638671875,Closing,0.0,0.0,0.0,0.0,0.0,0.0,0.0,0.0,
1.6666749999999884,0.0,0.0,0.0,0.0,0.0,0.0,0.0,0.125,3.863524995,0.0,0.0,-2.0,0.0,0.0,-0.0,0.0,0.0,1.9238279280000001,0.0,0.0,29.0,0.0,0.0,0.0,0.0,0.0,4.2724605,0.0,0.0,0.0,0.0,0.0,-0.0,0.0,0.0,2.9064938430000002,0.0,0.0,1.3600000143051147,0.8399999737739563,-29.989999771118164,0.0208740234375,0.01934814453125,0.9969482421875,30.020000457763672,0.0,7.0,-0.037139892578125,-0.0498504638671875,Closing,0.0,0.0,0.0,0.0,0.0,0.0,0.0,0.0,
1.774532999999996,0.0,0.0,0.0,0.0,0.0,0.0,0.0,0.125,3.862304292,0.0,0.0,-2.0,0.0,0.0,-0.0,0.0,0.0,1.901855274,0.0,0.0,29.0,0.0,0.0,0.0,0.0,0.0,4.266356985,0.0,0.0,0.0,0.0,0.0,-0.0,0.0,0.0,2.9052731400000003,0.0,0.0,1.3600000143051147,0.8399999737739563,-29.989999771118164,0.0128173828125,0.0255126953125,1.01092529296875,30.020000457763672,0.0,-2.0,-0.037139892578125,-0.0498504638671875,Closing,0.0,0.0,0.0,0.0,0.0,0.0,0.0,0.0,
1.8879659999999858,0.0,0.0,0.0,0.0,0.0,0.0,0.0,0.125,3.863524995,0.0,0.0,-2.0,0.0,0.0,-0.0,0.0,0.0,1.8969724620000001,0.0,0.0,29.0,0.0,0.0,0.0,0.0,0.0,4.2724605,0.0,0.0,0.0,0.0,0.0,-0.0,0.0,0.0,2.9064938430000002,0.0,0.0,1.350000023841858,0.8299999833106995,-30.0,0.01513671875,0.02288818359375,1.01708984375,30.020000457763672,0.0,0.0,-0.037139892578125,-0.0498504638671875,Closing,0.0,0.0,0.0,0.0,0.0,0.0,0.0,0.0,
2.0050439999999945,0.0,0.0,0.0,0.0,0.0,0.0,0.0,0.125,3.862304292,0.0,0.0,-2.0,0.0,0.0,-0.0,0.0,0.0,1.903075977,0.0,0.0,29.0,0.0,0.0,0.0,0.0,0.0,4.251708549,0.0,0.0,0.0,0.0,0.0,-0.0,0.0,0.0,2.9077145460000002,0.0,0.0,1.340000033378601,0.8299999833106995,-29.989999771118164,0.015380859375,0.0216064453125,0.99700927734375,30.020000457763672,0.0,1.0,-0.037139892578125,-0.0498504638671875,Closing,0.0,0.0,0.0,0.0,0.0,0.0,0.0,0.0,
2.111582999999984,0.0,0.0,0.0,0.0,0.0,0.0,0.0,0.125,3.863524995,0.0,0.0,-2.0,0.0,0.0,-0.0,0.0,0.0,1.901855274,0.0,0.0,29.0,0.0,0.0,0.0,0.0,0.0,4.271239797000001,0.0,0.0,0.0,0.0,0.0,-0.0,0.0,0.0,2.9064938430000002,0.0,0.0,1.350000023841858,0.8399999737739563,-29.989999771118164,0.01416015625,0.02423095703125,0.99163818359375,30.020000457763672,0.0,0.0,-0.037139892578125,-0.0498504638671875,Closing,0.0,0.0,0.0,0.0,0.0,0.0,0.0,0.0,
2.22680799999999,0.0,0.0,0.0,0.0,0.0,0.0,0.0,0.125,3.863524995,0.0,0.0,-2.0,0.0,0.0,-0.0,0.0,0.0,1.901855274,0.0,0.0,29.0,0.0,0.0,0.0,0.0,0.0,4.267577688,0.0,0.0,0.0,0.0,0.0,-0.0,0.0,0.0,2.9064938430000002,0.0,0.0,1.3600000143051147,0.8299999833106995,-30.0,0.01873779296875,0.02386474609375,1.00848388671875,30.040000915527344,0.0,3.0,-0.037139892578125,-0.0498504638671875,Closing,0.0,0.0,0.0,0.0,0.0,0.0,0.0,0.0,
2.3315540000000037,0.0,0.0,0.0,0.0,0.0,0.0,0.0,0.125,3.864745698,0.0,0.0,-2.0,0.0,0.0,-0.0,0.0,0.0,1.954345503,0.0,0.0,29.0,0.0,0.0,0.0,0.0,0.0,4.271239797000001,0.0,0.0,0.0,0.0,0.0,-0.0,0.0,0.0,2.9064938430000002,0.0,0.0,1.3700000047683716,0.8299999833106995,-30.0,0.01544189453125,0.01873779296875,1.01739501953125,30.040000915527344,0.0,3.0,-0.037139892578125,-0.0498504638671875,Closing,0.0,0.0,0.0,0.0,0.0,0.0,0.0,0.0,
2.4507239999999872,0.0,0.0,0.0,0.0,0.0,0.0,0.0,0.125,3.876952728,0.0,0.0,-2.0,0.0,0.0,-0.0,0.0,0.0,1.978759563,0.0,0.0,29.0,0.0,0.0,0.0,0.0,0.0,4.266356985,0.0,0.0,0.0,0.0,0.0,-0.0,0.0,0.0,2.9052731400000003,0.0,0.0,1.3600000143051147,0.8199999928474426,-30.010000228881836,0.01043701171875,0.0360107421875,1.002685546875,30.040000915527344,0.0,-9.0,-0.037139892578125,-0.0498504638671875,Closing,0.0,0.0,0.0,0.0,0.0,0.0,0.0,0.0,
2.5632209999999906,0.0,0.0,0.0,0.0,0.0,0.0,0.0,0.125,3.863524995,0.0,0.0,-2.0,0.0,0.0,-0.0,0.0,0.0,1.9702146420000002,0.0,0.0,29.0,0.0,0.0,0.0,0.0,0.0,4.267577688,0.0,0.0,0.0,0.0,0.0,-0.0,0.0,0.0,2.9077145460000002,0.0,0.0,1.3700000047683716,0.8299999833106995,-30.010000228881836,0.02001953125,0.02783203125,1.006103515625,30.040000915527344,0.0,2.0,-0.037139892578125,-0.0498504638671875,Closing,0.0,0.0,0.0,0.0,0.0,0.0,0.0,0.0,
2.6743699999999953,0.0,0.0,0.0,0.0,0.0,0.0,0.0,0.125,3.863524995,0.0,0.0,-2.0,0.0,0.0,-0.0,0.0,0.0,1.8920896500000002,0.0,0.0,29.0,0.0,0.0,0.0,0.0,0.0,4.28466753,0.0,0.0,0.0,0.0,0.0,-0.0,0.0,0.0,2.9064938430000002,0.0,0.0,1.3700000047683716,0.8299999833106995,-30.010000228881836,0.0152587890625,0.02301025390625,1.00628662109375,30.040000915527344,0.0,1.0,-0.037139892578125,-0.0498504638671875,Closing,0.0,0.0,0.0,0.0,0.0,0.0,0.0,0.0,
2.779445999999996,0.0,0.0,0.0,0.0,0.0,0.0,0.0,0.125,3.863524995,0.0,0.0,-2.0,0.0,0.0,-0.0,0.0,0.0,1.8151853610000002,0.0,0.0,29.0,0.0,0.0,0.0,0.0,0.0,4.266356985,0.0,0.0,0.0,0.0,0.0,-0.0,0.0,0.0,2.9052731400000003,0.0,0.0,1.3700000047683716,0.8299999833106995,-30.010000228881836,0.0191650390625,0.02728271484375,1.0108642578125,30.010000228881836,0.0,2.0,-0.037139892578125,-0.0498504638671875,Closing,0.0,0.0,0.0,0.0,0.0,0.0,0.0,0.0,
2.886622999999992,0.0,0.0,0.0,0.0,0.0,0.0,0.0,0.125,3.863524995,0.0,0.0,-2.0,0.0,0.0,-0.0,0.0,0.0,1.8383787180000002,0.0,0.0,29.0,0.0,0.0,0.0,0.0,0.0,4.267577688,0.0,0.0,0.0,0.0,0.0,-0.0,0.0,0.0,2.9064938430000002,0.0,0.0,1.3600000143051147,0.8299999833106995,-30.010000228881836,0.016357421875,0.02972412109375,1.0079345703125,30.010000228881836,0.0,-1.0,-0.037139892578125,-0.0498504638671875,Closing,0.0,0.0,0.0,0.0,0.0,0.0,0.0,0.0,
2.989935999999987,0.0,0.0,0.0,0.0,0.0,0.0,0.0,0.125,3.863524995,0.0,0.0,-2.0,0.0,0.0,-0.0,0.0,0.0,1.859130669,0.0,0.0,29.0,0.0,0.0,0.0,0.0,0.0,4.2724605,0.0,0.0,0.0,0.0,0.0,-0.0,0.0,0.0,2.9064938430000002,0.0,0.0,1.3700000047683716,0.8299999833106995,-30.0,0.01824951171875,0.029541015625,1.00787353515625,30.010000228881836,0.0,0.0,-0.037139892578125,-0.0498504638671875,Closing,0.0,0.0,0.0,0.0,0.0,0.0,0.0,0.0,
3.091926999999996,0.0,0.0,0.0,0.0,0.0,0.0,0.0,0.125,3.862304292,0.0,0.0,-2.0,0.0,0.0,-0.0,0.0,0.0,1.8737791050000001,0.0,0.0,29.0,0.0,0.0,0.0,0.0,0.0,4.2724605,0.0,0.0,0.0,0.0,0.0,-0.0,0.0,0.0,2.9064938430000002,0.0,0.0,1.3600000143051147,0.8199999928474426,-30.010000228881836,0.013916015625,0.01861572265625,1.009033203125,30.010000228881836,0.0,2.0,-0.037139892578125,-0.0498504638671875,Closing,0.0,0.0,0.0,0.0,0.0,0.0,0.0,0.0,
3.194511999999988,0.0,0.0,0.0,0.0,0.0,0.0,0.0,0.125,3.870849213,0.0,0.0,-2.0,0.0,0.0,-0.0,0.0,0.0,1.9409177700000002,0.0,0.0,29.0,0.0,0.0,0.0,0.0,0.0,4.271239797000001,0.0,0.0,0.0,0.0,0.0,-0.0,0.0,0.0,2.9064938430000002,0.0,0.0,1.3600000143051147,0.8199999928474426,-30.010000228881836,0.009765625,0.028564453125,1.011962890625,30.010000228881836,0.0,-6.0,-0.037139892578125,-0.0498504638671875,Closing,0.0,0.0,0.0,0.0,0.0,0.0,0.0,0.0,
3.3071820000000005,0.0,0.0,0.0,0.0,0.0,0.0,0.0,0.125,3.863524995,0.0,0.0,-2.0,0.0,0.0,-0.0,0.0,0.0,1.936034958,0.0,0.0,29.0,0.0,0.0,0.0,0.0,0.0,4.2724605,0.0,0.0,0.0,0.0,0.0,-0.0,0.0,0.0,2.9064938430000002,0.0,0.0,1.350000023841858,0.8199999928474426,-30.010000228881836,0.01055908203125,0.0218505859375,1.0181884765625,30.040000915527344,0.0,-2.0,-0.037139892578125,-0.0498504638671875,Closing,0.0,0.0,0.0,0.0,0.0,0.0,0.0,0.0,
3.413630000000005,0.0,0.0,0.0,0.0,0.0,0.0,0.0,0.125,3.863524995,0.0,0.0,-2.0,0.0,0.0,-0.0,0.0,0.0,1.936034958,0.0,0.0,29.0,0.0,0.0,0.0,0.0,0.0,4.2724605,0.0,0.0,0.0,0.0,0.0,-0.0,0.0,0.0,2.9064938430000002,0.0,0.0,1.3600000143051147,0.8199999928474426,-30.010000228881836,0.01556396484375,0.0250244140625,1.00543212890625,30.040000915527344,0.0,0.0,-0.037139892578125,-0.0498504638671875,Closing,0.0,0.0,0.0,0.0,0.0,0.0,0.0,0.0,
3.516706999999995,0.0,0.0,0.0,0.0,0.0,0.0,0.0,0.125,3.863524995,0.0,0.0,-2.0,0.0,0.0,-0.0,0.0,0.0,1.8737791050000001,0.0,0.0,29.0,0.0,0.0,0.0,0.0,0.0,4.271239797000001,0.0,0.0,0.0,0.0,0.0,-0.0,0.0,0.0,2.9064938430000002,0.0,0.0,1.350000023841858,0.8299999833106995,-30.010000228881836,0.0167236328125,0.02960205078125,1.00848388671875,30.040000915527344,0.0,-1.0,-0.037139892578125,-0.0498504638671875,Closing,0.0,0.0,0.0,0.0,0.0,0.0,0.0,0.0,
3.6298709999999845,0.0,0.0,0.0,0.0,0.0,0.0,0.0,0.125,3.863524995,0.0,0.0,-2.0,0.0,0.0,-0.0,0.0,0.0,1.859130669,0.0,0.0,29.0,0.0,0.0,0.0,0.0,0.0,4.273681203000001,0.0,0.0,0.0,0.0,0.0,-0.0,0.0,0.0,2.9064938430000002,0.0,0.0,1.3600000143051147,0.8299999833106995,-30.010000228881836,0.0086669921875,0.02545166015625,1.01416015625,30.040000915527344,0.0,-5.0,-0.037139892578125,-0.0498504638671875,Closing,0.0,0.0,0.0,0.0,0.0,0.0,0.0,0.0,
3.733274999999994,0.0,0.0,0.0,0.0,0.0,0.0,0.0,0.125,3.863524995,0.0,0.0,-2.0,0.0,0.0,-0.0,0.0,0.0,1.859130669,0.0,0.0,29.0,0.0,0.0,0.0,0.0,0.0,4.2724605,0.0,0.0,0.0,0.0,0.0,-0.0,0.0,0.0,2.9052731400000003,0.0,0.0,1.3700000047683716,0.8299999833106995,-30.010000228881836,0.01861572265625,0.02264404296875,1.0128173828125,30.030000686645508,0.0,4.0,-0.037139892578125,-0.0498504638671875,Closing,0.0,0.0,0.0,0.0,0.0,0.0,0.0,0.0,
3.839008999999991,0.0,0.0,0.0,0.0,0.0,0.0,0.0,0.125,3.863524995,0.0,0.0,-2.0,0.0,0.0,-0.0,0.0,0.0,1.8640134810000002,0.0,0.0,29.0,0.0,0.0,0.0,0.0,0.0,4.266356985,0.0,0.0,0.0,0.0,0.0,-0.0,0.0,0.0,2.9028317340000003,0.0,0.0,1.3600000143051147,0.8299999833106995,-30.010000228881836,0.01153564453125,0.02093505859375,1.00439453125,30.030000686645508,0.0,-1.0,-0.037139892578125,-0.0498504638671875,Closing,0.0,0.0,0.0,0.0,0.0,0.0,0.0,0.0,
3.9424499999999827,0.0,0.0,0.0,0.0,0.0,0.0,0.0,0.125,3.863524995,0.0,0.0,-2.0,0.0,0.0,-0.0,0.0,0.0,1.8627927780000002,0.0,0.0,29.0,0.0,0.0,0.0,0.0,0.0,4.268798391,0.0,0.0,0.0,0.0,0.0,-0.0,0.0,0.0,2.9052731400000003,0.0,0.0,1.350000023841858,0.8199999928474426,-30.010000228881836,0.01007080078125,0.01287841796875,1.00732421875,30.030000686645508,0.0,1.0,-0.037139892578125,-0.0498504638671875,Closing,0.0,0.0,0.0,0.0,0.0,0.0,0.0,0.0,
4.046483000000007,0.0,0.0,0.0,0.0,0.0,0.0,0.0,0.125,3.864745698,0.0,0.0,-2.0,0.0,0.0,-0.0,0.0,0.0,1.8920896500000002,0.0,0.0,29.0,0.0,0.0,0.0,0.0,0.0,4.271239797000001,0.0,0.0,0.0,0.0,0.0,-0.0,0.0,0.0,2.9064938430000002,0.0,0.0,1.3700000047683716,0.8299999833106995,-30.020000457763672,0.0198974609375,0.01446533203125,0.993896484375,30.030000686645508,0.0,9.0,-0.037139892578125,-0.0498504638671875,Closing,0.0,0.0,0.0,0.0,0.0,0.0,0.0,0.0,
4.153612999999983,0.0,0.0,0.0,0.0,0.0,0.0,0.0,0.125,3.863524995,0.0,0.0,-2.0,0.0,0.0,-0.0,0.0,0.0,1.901855274,0.0,0.0,29.0,0.0,0.0,0.0,0.0,0.0,4.267577688,0.0,0.0,0.0,0.0,0.0,-0.0,0.0,0.0,2.9040524370000003,0.0,0.0,1.3700000047683716,0.8600000143051147,-30.010000228881836,-0.0042724609375,0.02130126953125,1.02008056640625,30.030000686645508,0.0,-15.0,-0.037139892578125,-0.0498504638671875,Closing,0.0,0.0,0.0,0.0,0.0,0.0,0.0,0.0,
4.254511999999988,0.0,0.0,0.0,0.0,0.0,0.0,0.0,0.125,3.863524995,0.0,0.0,-2.0,0.0,0.0,-0.0,0.0,0.0,1.901855274,0.0,0.0,29.0,0.0,0.0,0.0,0.0,0.0,4.265136282,0.0,0.0,0.0,0.0,0.0,-0.0,0.0,0.0,2.9064938430000002,0.0,0.0,1.350000023841858,0.8199999928474426,-30.010000228881836,0.03125,0.0225830078125,0.985595703125,30.059999465942383,0.0,15.0,-0.037139892578125,-0.0498504638671875,Closing,0.0,0.0,0.0,0.0,0.0,0.0,0.0,0.0,
4.366022999999987,0.0,0.0,0.0,0.0,0.0,0.0,0.0,0.125,3.863524995,0.0,0.0,-2.0,0.0,0.0,-0.0,0.0,0.0,1.901855274,0.0,0.0,29.0,0.0,0.0,0.0,0.0,0.0,4.267577688,0.0,0.0,0.0,0.0,0.0,-0.0,0.0,0.0,2.9064938430000002,0.0,0.0,1.3600000143051147,0.8399999737739563,-30.010000228881836,0.01031494140625,0.025146484375,1.01123046875,30.059999465942383,0.0,-4.0,-0.037139892578125,-0.0498504638671875,Closing,0.0,0.0,0.0,0.0,0.0,0.0,0.0,0.0,
4.46844200000001,0.0,0.0,0.0,0.0,0.0,0.0,0.0,0.125,3.863524995,0.0,0.0,-2.0,0.0,0.0,-0.0,0.0,0.0,1.901855274,0.0,0.0,29.0,0.0,0.0,0.0,0.0,0.0,4.2724605,0.0,0.0,0.0,0.0,0.0,-0.0,0.0,0.0,2.915038764,0.0,0.0,1.350000023841858,0.8199999928474426,-30.010000228881836,0.014892578125,0.019775390625,1.00592041015625,30.059999465942383,0.0,2.0,-0.037139892578125,-0.0498504638671875,Closing,0.0,0.0,0.0,0.0,0.0,0.0,0.0,0.0,
4.572112999999983,0.0,0.0,0.0,0.0,0.0,0.0,0.0,0.125,3.862304292,0.0,0.0,-2.0,0.0,0.0,-0.0,0.0,0.0,1.9152830070000002,0.0,0.0,29.0,0.0,0.0,0.0,0.0,0.0,4.271239797000001,0.0,0.0,0.0,0.0,0.0,-0.0,0.0,0.0,2.9052731400000003,0.0,0.0,1.3600000143051147,0.8399999737739563,-30.010000228881836,0.0074462890625,0.02215576171875,1.00408935546875,30.059999465942383,0.0,-5.0,-0.037139892578125,-0.0498504638671875,Closing,0.0,0.0,0.0,0.0,0.0,0.0,0.0,0.0,
4.67810500000001,0.0,0.0,0.0,0.0,0.0,0.0,0.0,0.125,3.863524995,0.0,0.0,-2.0,0.0,0.0,-0.0,0.0,0.0,1.859130669,0.0,0.0,29.0,0.0,0.0,0.0,0.0,0.0,4.2724605,0.0,0.0,0.0,0.0,0.0,-0.0,0.0,0.0,2.9064938430000002,0.0,0.0,1.3600000143051147,0.8399999737739563,-30.010000228881836,0.02081298828125,0.01556396484375,1.00579833984375,30.059999465942383,0.0,9.0,-0.037139892578125,-0.0498504638671875,Closing,0.0,0.0,0.0,0.0,0.0,0.0,0.0,0.0,
4.789147999999987,0.0,0.0,0.0,0.0,0.0,0.0,0.0,0.125,3.862304292,0.0,0.0,-2.0,0.0,0.0,-0.0,0.0,0.0,1.859130669,0.0,0.0,29.0,0.0,0.0,0.0,0.0,0.0,4.274901906,0.0,0.0,0.0,0.0,0.0,-0.0,0.0,0.0,2.9064938430000002,0.0,0.0,1.3600000143051147,0.8399999737739563,-30.010000228881836,0.01678466796875,0.02081298828125,1.0184326171875,30.030000686645508,0.0,3.0,-0.037139892578125,-0.0498504638671875,Closing,0.0,0.0,0.0,0.0,0.0,0.0,0.0,0.0,
4.8876419999999925,0.0,0.0,0.0,0.0,0.0,0.0,0.0,0.125,3.863524995,0.0,0.0,-2.0,0.0,0.0,-0.0,0.0,0.0,1.857909966,0.0,0.0,29.0,0.0,0.0,0.0,0.0,0.0,4.2724605,0.0,0.0,0.0,0.0,0.0,-0.0,0.0,0.0,2.9064938430000002,0.0,0.0,1.3700000047683716,0.8399999737739563,-30.010000228881836,0.0145263671875,0.02587890625,1.01483154296875,30.030000686645508,0.0,-1.0,-0.037139892578125,-0.0498504638671875,Closing,0.0,0.0,0.0,0.0,0.0,0.0,0.0,0.0,
4.988652999999991,0.0,0.0,0.0,0.0,0.0,0.0,0.0,0.125,3.863524995,0.0,0.0,-2.0,0.0,0.0,-0.0,0.0,0.0,1.936034958,0.0,0.0,29.0,0.0,0.0,0.0,0.0,0.0,4.266356985,0.0,0.0,0.0,0.0,0.0,-0.0,0.0,0.0,2.9064938430000002,0.0,0.0,1.3700000047683716,0.8299999833106995,-30.010000228881836,0.012939453125,0.02099609375,1.02142333984375,30.030000686645508,0.0,0.0,-0.037139892578125,-0.0498504638671875,Closing,0.0,0.0,0.0,0.0,0.0,0.0,0.0,0.0,
5.089794999999984,0.0,0.0,0.0,0.0,0.0,0.0,0.0,0.125,3.863524995,0.0,0.0,-2.0,0.0,0.0,-0.0,0.0,0.0,1.933593552,0.0,0.0,29.0,0.0,0.0,0.0,0.0,0.0,4.2724605,0.0,0.0,0.0,0.0,0.0,-0.0,0.0,0.0,2.9064938430000002,0.0,0.0,1.3700000047683716,0.8500000238418579,-30.020000457763672,0.0169677734375,0.02154541015625,1.0091552734375,30.030000686645508,0.0,2.0,-0.037139892578125,-0.0498504638671875,Closing,0.0,0.0,0.0,0.0,0.0,0.0,0.0,0.0,
5.191742999999987,0.0,0.0,0.0,0.0,0.0,0.0,0.0,0.125,3.862304292,0.0,0.0,-2.0,0.0,0.0,-0.0,0.0,0.0,1.931152146,0.0,0.0,29.0,0.0,0.0,0.0,0.0,0.0,4.2724605,0.0,0.0,0.0,0.0,0.0,-0.0,0.0,0.0,2.9064938430000002,0.0,0.0,1.3600000143051147,0.8199999928474426,-30.020000457763672,0.0108642578125,0.02392578125,1.0162353515625,30.030000686645508,0.0,-3.0,-0.037139892578125,-0.0498504638671875,Closing,0.0,0.0,0.0,0.0,0.0,0.0,0.0,0.0,
5.294749000000011,0.0,0.0,0.0,0.0,0.0,0.0,0.0,0.125,3.863524995,0.0,0.0,-2.0,0.0,0.0,-0.0,0.0,0.0,1.877441214,0.0,0.0,29.0,0.0,0.0,0.0,0.0,0.0,4.257812064,0.0,0.0,0.0,0.0,0.0,-0.0,0.0,0.0,2.9077145460000002,0.0,0.0,1.3600000143051147,0.8500000238418579,-30.020000457763672,0.01422119140625,0.02386474609375,1.00750732421875,30.040000915527344,0.0,0.0,-0.037139892578125,-0.0498504638671875,Closing,0.0,0.0,0.0,0.0,0.0,0.0,0.0,0.0,
5.410540999999998,0.0,0.0,0.0,0.0,0.0,0.0,0.0,0.125,3.863524995,0.0,0.0,-2.0,0.0,0.0,-0.0,0.0,0.0,1.877441214,0.0,0.0,29.0,0.0,0.0,0.0,0.0,0.0,4.2724605,0.0,0.0,0.0,0.0,0.0,-0.0,0.0,0.0,2.9064938430000002,0.0,0.0,1.3600000143051147,0.8299999833106995,-30.020000457763672,0.01971435546875,0.0225830078125,1.00640869140625,30.040000915527344,0.0,5.0,-0.037139892578125,-0.0498504638671875,Closing,0.0,0.0,0.0,0.0,0.0,0.0,0.0,0.0,
5.512817999999999,0.0,0.0,0.0,0.0,0.0,0.0,0.0,0.125,3.863524995,0.0,0.0012207029999999897,-2.0,0.0,0.0,-0.0,0.0,0.0,1.887206838,0.0,0.0,29.0,0.0,0.0,0.0,0.0,0.0,4.270019094,0.0,0.0,0.0,0.0,0.0,-0.0,0.0,0.0,2.9064938430000002,0.0,0.0,1.350000023841858,0.8399999737739563,-30.020000457763672,0.00421142578125,0.02435302734375,0.97991943359375,30.040000915527344,0.0,-9.0,-0.037139892578125,-0.0498504638671875,Closing,0.0,0.0,0.0,0.0,0.0,0.0,0.0,0.0,
5.613853999999992,0.0,0.0,0.0,0.0,0.0,0.0,0.0,0.125,3.863524995,0.0,0.0,-2.0,0.0,0.0,-0.0,0.0,0.0,1.936034958,0.0,0.0,29.0,0.0,0.0,0.0,0.0,0.0,4.271239797000001,0.0,0.0,0.0,0.0,0.0,-0.0,0.0,0.0,2.9064938430000002,0.0,0.0,1.3700000047683716,0.8299999833106995,-30.030000686645508,0.01171875,0.02587890625,1.0059814453125,30.040000915527344,0.0,-3.0,-0.037139892578125,-0.0498504638671875,Closing,0.0,0.0,0.0,0.0,0.0,0.0,0.0,0.0,
5.725804999999993,0.0,0.0,0.0,0.0,0.0,0.0,0.0,0.125,3.863524995,0.0,0.0,-2.0,0.0,0.0,-0.0,0.0,0.0,1.931152146,0.0,0.0,29.0,0.0,0.0,0.0,0.0,0.0,4.271239797000001,0.0,0.0,0.0,0.0,0.0,-0.0,0.0,0.0,2.9040524370000003,0.0,0.0,1.350000023841858,0.8299999833106995,-30.020000457763672,0.01092529296875,0.02435302734375,1.01165771484375,30.040000915527344,0.0,-3.0,-0.037139892578125,-0.0498504638671875,Closing,0.0,0.0,0.0,0.0,0.0,0.0,0.0,0.0,
5.831736000000005,0.0,0.0,0.0,0.0,0.0,0.0,0.0,0.125,3.863524995,0.0,0.0,-2.0,0.0,0.0,-0.0,0.0,0.0,1.8920896500000002,0.0,0.0,29.0,0.0,0.0,0.0,0.0,0.0,4.267577688,0.0,0.0,0.0,0.0,0.0,-0.0,0.0,0.0,2.9052731400000003,0.0,0.0,1.350000023841858,0.8399999737739563,-30.020000457763672,0.01446533203125,0.02520751953125,0.99835205078125,30.049999237060547,0.0,0.0,-0.037139892578125,-0.0498504638671875,Closing,0.0,0.0,0.0,0.0,0.0,0.0,0.0,0.0,
5.932954999999987,0.0,0.0,0.0,0.0,0.0,0.0,0.0,0.125,3.863524995,0.0,0.0,-2.0,0.0,0.0,-0.0,0.0,0.0,1.8933103530000002,0.0,0.0,29.0,0.0,0.0,0.0,0.0,0.0,4.2724605,0.0,0.0,0.0,0.0,0.0,-0.0,0.0,0.0,2.9052731400000003,0.0,0.0,1.3600000143051147,0.8299999833106995,-30.030000686645508,0.01837158203125,0.02166748046875,0.98956298828125,30.049999237060547,0.0,4.0,-0.037139892578125,-0.0498504638671875,Closing,0.0,0.0,0.0,0.0,0.0,0.0,0.0,0.0,
6.035927999999985,0.0,0.0,0.0,0.0,0.0,0.0,0.0,0.125,3.862304292,0.0,0.0,-2.0,0.0,0.0,-0.0,0.0,0.0,1.8920896500000002,0.0,0.0,29.0,0.0,0.0,0.0,0.0,0.0,4.266356985,0.0,0.0,0.0,0.0,0.0,-0.0,0.0,0.0,2.9064938430000002,0.0,0.0,1.3600000143051147,0.8299999833106995,-30.020000457763672,0.015380859375,0.02392578125,1.0067138671875,30.049999237060547,0.0,0.0,-0.037139892578125,-0.0498504638671875,Closing,0.0,0.0,0.0,0.0,0.0,0.0,0.0,0.0,
6.147073999999993,0.0,0.0,0.0,0.0,0.0,0.0,0.0,0.125,3.862304292,0.0,0.0,-2.0,0.0,0.0,-0.0,0.0,0.0,1.8920896500000002,0.0,0.0,29.0,0.0,0.0,0.0,0.0,0.0,4.2724605,0.0,0.0,0.0,0.0,0.0,-0.0,0.0,0.0,2.9064938430000002,0.0,0.0,1.3600000143051147,0.8399999737739563,-30.020000457763672,0.0177001953125,0.02520751953125,1.0098876953125,30.049999237060547,0.0,1.0,-0.037139892578125,-0.0498504638671875,Closing,0.0,0.0,0.0,0.0,0.0,0.0,0.0,0.0,
6.248948999999993,0.0,0.0,0.0,0.0,0.0,0.0,0.0,0.125,3.864745698,0.0,0.0,-2.0,0.0,0.0,-0.0,0.0,0.0,1.8933103530000002,0.0,0.0,29.0,0.0,0.0,0.0,0.0,0.0,4.273681203000001,0.0,0.0,0.0,0.0,0.0,-0.0,0.0,0.0,2.9064938430000002,0.0,0.0,1.3600000143051147,0.8399999737739563,-30.030000686645508,0.01165771484375,0.024169921875,1.00592041015625,30.049999237060547,0.0,-2.0,-0.037139892578125,-0.0498504638671875,Closing,0.0,0.0,0.0,0.0,0.0,0.0,0.0,0.0,
6.353549999999989,0.0,0.0,0.0,0.0,0.0,0.0,0.0,0.125,3.863524995,0.0,0.0,-2.0,0.0,0.0,-0.0,0.0,0.0,1.936034958,0.0,0.0,29.0,0.0,0.0,0.0,0.0,0.0,4.271239797000001,0.0,0.0,0.0,0.0,0.0,-0.0,0.0,0.0,2.9064938430000002,0.0,0.0,1.3700000047683716,0.8299999833106995,-30.040000915527344,0.0107421875,0.0262451171875,1.019775390625,30.040000915527344,0.0,-4.0,-0.037139892578125,-0.0498504638671875,Closing,0.0,0.0,0.0,0.0,0.0,0.0,0.0,0.0,
6.4640939999999825,0.0,0.0,0.0,0.0,0.0,0.0,0.0,0.125,3.862304292,0.0,0.0,-2.0,0.0,0.0,-0.0,0.0,0.0,1.931152146,0.0,0.0,29.0,0.0,0.0,0.0,0.0,0.0,4.271239797000001,0.0,0.0,0.0,0.0,0.0,-0.0,0.0,0.0,2.9052731400000003,0.0,0.0,1.3600000143051147,0.8500000238418579,-30.040000915527344,0.01202392578125,0.02777099609375,1.00689697265625,30.040000915527344,0.0,-4.0,-0.037139892578125,-0.0498504638671875,Closing,0.0,0.0,0.0,0.0,0.0,0.0,0.0,0.0,
6.571761999999988,0.0,0.0,0.0,0.0,0.0,0.0,0.0,0.125,3.863524995,0.0,0.0,-2.0,0.0,0.0,-0.0,0.0,0.0,1.931152146,0.0,0.0,29.0,0.0,0.0,0.0,0.0,0.0,4.2724605,0.0,0.0,0.0,0.0,0.0,-0.0,0.0,0.0,2.9064938430000002,0.0,0.0,1.3700000047683716,0.8500000238418579,-30.040000915527344,0.0174560546875,0.02685546875,1.00994873046875,30.040000915527344,0.0,0.0,-0.037139892578125,-0.0498504638671875,Closing,0.0,0.0,0.0,0.0,0.0,0.0,0.0,0.0,
6.673657999999996,0.0,0.0,0.0,0.0,0.0,0.0,0.0,0.125,3.862304292,0.0,0.0,-2.0,0.0,0.0,-0.0,0.0,0.0,1.911620898,0.0,0.0,29.0,0.0,0.0,0.0,0.0,0.0,4.266356985,0.0,0.0,0.0,0.0,0.0,-0.0,0.0,0.0,2.9064938430000002,0.0,0.0,1.3600000143051147,0.8500000238418579,-30.040000915527344,0.0198974609375,0.0205078125,1.00518798828125,30.040000915527344,0.0,5.0,-0.037139892578125,-0.0498504638671875,Closing,0.0,0.0,0.0,0.0,0.0,0.0,0.0,0.0,
6.779926999999996,0.0,0.0,0.0,0.0,0.0,0.0,0.0,0.125,3.862304292,0.0,0.0,-2.0,0.0,0.0,-0.0,0.0,0.0,1.8957517590000001,0.0,0.0,29.0,0.0,0.0,0.0,0.0,0.0,4.271239797000001,0.0,0.0,0.0,0.0,0.0,-0.0,0.0,0.0,2.9052731400000003,0.0,0.0,1.3600000143051147,0.8399999737739563,-30.020000457763672,0.0123291015625,0.02752685546875,1.0186767578125,30.040000915527344,0.0,-3.0,-0.037139892578125,-0.0498504638671875,Closing,0.0,0.0,0.0,0.0,0.0,0.0,0.0,0.0,
6.886046000000002,0.0,0.0,0.0,0.0,0.0,0.0,0.0,0.125,3.863524995,0.0,0.0,-2.0,0.0,0.0,-0.0,0.0,0.0,1.8969724620000001,0.0,0.0,29.0,0.0,0.0,0.0,0.0,0.0,4.273681203000001,0.0,0.0,0.0,0.0,0.0,-0.0,0.0,0.0,2.9064938430000002,0.0,0.0,1.3600000143051147,0.8399999737739563,-30.030000686645508,0.02001953125,0.021484375,1.00799560546875,30.040000915527344,0.0,5.0,-0.037139892578125,-0.0498504638671875,Closing,0.0,0.0,0.0,0.0,0.0,0.0,0.0,0.0,
6.992128999999986,0.0,0.0,0.0,0.0,0.0,0.0,0.0,0.125,3.863524995,0.0,0.0,-2.0,0.0,0.0,-0.0,0.0,0.0,1.8969724620000001,0.0,0.0,29.0,0.0,0.0,0.0,0.0,0.0,4.271239797000001,0.0,0.0,0.0,0.0,0.0,-0.0,0.0,0.0,2.9064938430000002,0.0,0.0,1.3600000143051147,0.8399999737739563,-30.020000457763672,0.01019287109375,0.02764892578125,1.0032958984375,30.040000915527344,0.0,-5.0,-0.037139892578125,-0.0498504638671875,Closing,0.0,0.0,0.0,0.0,0.0,0.0,0.0,0.0,
7.094761999999988,0.0,0.0,0.0,0.0,0.0,0.0,0.0,0.125,3.858642183,0.0,0.0,-2.0,0.0,0.0,-0.0,0.0,0.0,1.8969724620000001,0.0,0.0,29.0,0.0,0.0,0.0,0.0,0.0,4.266356985,0.0,0.0,0.0,0.0,0.0,-0.0,0.0,0.0,2.9064938430000002,0.0,0.0,1.3700000047683716,0.8399999737739563,-30.020000457763672,0.01666259765625,0.02655029296875,1.0106201171875,30.040000915527344,0.0,0.0,-0.037139892578125,-0.0498504638671875,Closing,0.0,0.0,0.0,0.0,0.0,0.0,0.0,0.0,
7.203244000000006,0.0,0.0,0.0,0.0,0.0,0.0,0.0,0.125,3.863524995,0.0,0.0,-2.0,0.0,0.0,-0.0,0.0,0.0,1.853027154,0.0,0.0,29.0,0.0,0.0,0.0,0.0,0.0,4.2724605,0.0,0.0,0.0,0.0,0.0,-0.0,0.0,0.0,2.9064938430000002,0.0,0.0,1.3600000143051147,0.8500000238418579,-30.020000457763672,0.021240234375,0.0126953125,1.00885009765625,30.040000915527344,0.0,11.0,-0.037139892578125,-0.0498504638671875,Closing,0.0,0.0,0.0,0.0,0.0,0.0,0.0,0.0,
7.310470999999991,0.0,0.0,0.0,0.0,0.0,0.0,0.0,0.125,3.864745698,0.0,0.0,-2.0,0.0,0.0,-0.0,0.0,0.0,1.859130669,0.0,0.0,29.0,0.0,0.0,0.0,0.0,0.0,4.271239797000001,0.0,0.0,0.0,0.0,0.0,-0.0,0.0,0.0,2.9040524370000003,0.0,0.0,1.3700000047683716,0.8399999737739563,-30.020000457763672,0.0103759765625,0.0238037109375,1.01239013671875,30.059999465942383,0.0,-3.0,-0.037139892578125,-0.0498504638671875,Closing,0.0,0.0,0.0,0.0,0.0,0.0,0.0,0.0,
7.415627000000008,0.0,0.0,0.0,0.0,0.0,0.0,0.0,0.125,3.863524995,0.0,0.0,-2.0,0.0,0.0,-0.0,0.0,0.0,1.860351372,0.0,0.0,29.0,0.0,0.0,0.0,0.0,0.0,4.270019094,0.0,0.0,0.0,0.0,0.0,-0.0,0.0,0.0,2.9064938430000002,0.0,0.0,1.3600000143051147,0.8500000238418579,-30.020000457763672,0.01739501953125,0.0247802734375,1.00482177734375,30.059999465942383,0.0,1.0,-0.037139892578125,-0.0498504638671875,Closing,0.0,0.0,0.0,0.0,0.0,0.0,0.0,0.0,
7.526707999999984,0.0,0.0,0.0,0.0,0.0,0.0,0.0,0.125,3.863524995,0.0,0.0,-2.0,0.0,0.0,-0.0,0.0,0.0,1.857909966,0.0,0.0,29.0,0.0,0.0,0.0,0.0,0.0,4.271239797000001,0.0,0.0,0.0,0.0,0.0,-0.0,0.0,0.0,2.9064938430000002,0.0,0.0,1.3700000047683716,0.8299999833106995,-30.020000457763672,0.013671875,0.0260009765625,1.01263427734375,30.059999465942383,0.0,-1.0,-0.037139892578125,-0.0498504638671875,Closing,0.0,0.0,0.0,0.0,0.0,0.0,0.0,0.0,
7.631470999999991,0.0,0.0,0.0,0.0,0.0,0.0,0.0,0.125,3.863524995,0.0,0.0,-2.0,0.0,0.0,-0.0,0.0,0.0,1.859130669,0.0,0.0,29.0,0.0,0.0,0.0,0.0,0.0,4.271239797000001,0.0,0.0,0.0,0.0,0.0,-0.0,0.0,0.0,2.9064938430000002,0.0,0.0,1.3700000047683716,0.8399999737739563,-30.010000228881836,0.0159912109375,0.02197265625,1.01092529296875,30.059999465942383,0.0,2.0,-0.037139892578125,-0.0498504638671875,Closing,0.0,0.0,0.0,0.0,0.0,0.0,0.0,0.0,
7.734783999999985,0.0,0.0,0.0,0.0,0.0,0.0,0.0,0.125,3.862304292,0.0,0.0,-2.0,0.0,0.0,-0.0,0.0,0.0,1.859130669,0.0,0.0,29.0,0.0,0.0,0.0,0.0,0.0,4.271239797000001,0.0,0.0,0.0,0.0,0.0,-0.0,0.0,0.0,2.9064938430000002,0.0,0.0,1.3700000047683716,0.8299999833106995,-30.020000457763672,0.01507568359375,0.02569580078125,1.00616455078125,30.059999465942383,0.0,0.0,-0.037139892578125,-0.0498504638671875,Closing,0.0,0.0,0.0,0.0,0.0,0.0,0.0,0.0,
7.840804000000004,0.0,0.0,0.0,0.0,0.0,0.0,0.0,0.125,3.868407807,0.0,0.0,-2.0,0.0,0.0,-0.0,0.0,0.0,1.859130669,0.0,0.0,29.0,0.0,0.0,0.0,0.0,0.0,4.2724605,0.0,0.0,0.0,0.0,0.0,-0.0,0.0,0.0,2.9064938430000002,0.0,0.0,1.3700000047683716,0.8399999737739563,-30.010000228881836,0.0146484375,0.02423095703125,1.00958251953125,30.09000015258789,0.0,0.0,-0.037139892578125,-0.0498504638671875,Closing,0.0,0.0,0.0,0.0,0.0,0.0,0.0,0.0,
7.946766999999992,0.0,0.0,0.0,0.0,0.0,0.0,0.0,0.125,3.863524995,0.0,0.0,-2.0,0.0,0.0,-0.0,0.0,0.0,1.931152146,0.0,0.0,29.0,0.0,0.0,0.0,0.0,0.0,4.270019094,0.0,0.0,0.0,0.0,0.0,-0.0,0.0,0.0,2.9052731400000003,0.0,0.0,1.3700000047683716,0.8399999737739563,-30.020000457763672,0.01397705078125,0.035888671875,1.00689697265625,30.09000015258789,0.0,-6.0,-0.037139892578125,-0.0498504638671875,Closing,0.0,0.0,0.0,0.0,0.0,0.0,0.0,0.0,
8.052842999999994,0.0,0.0,0.0,0.0,0.0,0.0,0.0,0.125,3.862304292,0.0,0.0,-2.0,0.0,0.0,-0.0,0.0,0.0,1.931152146,0.0,0.0,29.0,0.0,0.0,0.0,0.0,0.0,4.271239797000001,0.0,0.0,0.0,0.0,0.0,-0.0,0.0,0.0,2.9064938430000002,0.0,0.0,1.3600000143051147,0.8399999737739563,-30.010000228881836,0.015869140625,0.0206298828125,1.0078125,30.09000015258789,0.0,2.0,-0.037139892578125,-0.0498504638671875,Closing,0.0,0.0,0.0,0.0,0.0,0.0,0.0,0.0,
8.159079999999987,0.0,0.0,0.0,0.0,0.0,0.0,0.0,0.125,3.875732025,0.0,0.0,-2.0,0.0,0.0,-0.0,0.0,0.0,1.931152146,0.0,0.0,29.0,0.0,0.0,0.0,0.0,0.0,4.266356985,0.0,0.0,0.0,0.0,0.0,-0.0,0.0,0.0,2.9064938430000002,0.0,0.0,1.3700000047683716,0.8399999737739563,-30.010000228881836,0.01531982421875,0.027587890625,1.011962890625,30.09000015258789,0.0,-1.0,-0.037139892578125,-0.0498504638671875,Closing,0.0,0.0,0.0,0.0,0.0,0.0,0.0,0.0,
8.268046999999992,0.0,0.0,0.0,0.0,0.0,0.0,0.0,0.125,3.865966401,0.0,0.0,-2.0,0.0,0.0,-0.0,0.0,0.0,1.931152146,0.0,0.0012207029999999897,29.0,0.0,0.0,0.0,0.0,0.0,4.2724605,0.0,0.0,0.0,0.0,0.0,-0.0,0.0,0.0,2.9064938430000002,0.0,0.0,1.3600000143051147,0.8399999737739563,-30.010000228881836,0.0166015625,0.022216796875,1.00665283203125,30.09000015258789,0.0,2.0,-0.037139892578125,-0.0498504638671875,Closing,0.0,0.0,0.0,0.0,0.0,0.0,0.0,0.0,
8.370097999999999,0.0,0.0,0.0,0.0,0.0,0.0,0.0,0.125,3.863524995,0.0,0.0,-2.0,0.0,0.0,-0.0,0.0,0.0,1.926269334,0.0,0.0,29.0,0.0,0.0,0.0,0.0,0.0,4.2724605,0.0,0.0,0.0,0.0,0.0,-0.0,0.0,0.0,2.9064938430000002,0.0,0.0,1.3700000047683716,0.8399999737739563,-30.010000228881836,0.01422119140625,0.025634765625,1.0126953125,30.09000015258789,0.0,-1.0,-0.037139892578125,-0.0498504638671875,Closing,0.0,0.0,0.0,0.0,0.0,0.0,0.0,0.0,
8.475744999999995,0.0,0.0,0.0,0.0,0.0,0.0,0.0,0.125,3.862304292,0.0,0.0,-2.0,0.0,0.0,-0.0,0.0,0.0,1.929931443,0.0,0.0,29.0,0.0,0.0,0.0,0.0,0.0,4.2724605,0.0,0.0,0.0,0.0,0.0,-0.0,0.0,0.0,2.9064938430000002,0.0,0.0,1.3700000047683716,0.8500000238418579,-30.010000228881836,0.01483154296875,0.02337646484375,1.0054931640625,30.09000015258789,0.0,0.0,-0.037139892578125,-0.0498504638671875,Closing,0.0,0.0,0.0,0.0,0.0,0.0,0.0,0.0,
8.59231700000001,0.0,0.0,0.0,0.0,0.0,0.0,0.0,0.125,3.863524995,0.0,0.0,-2.0,0.0,0.0,-0.0,0.0,0.0,1.926269334,0.0,0.0,29.0,0.0,0.0,0.0,0.0,0.0,4.266356985,0.0,0.0,0.0,0.0,0.0,-0.0,0.0,0.0,2.9064938430000002,0.0,0.0,1.3700000047683716,0.8399999737739563,-30.010000228881836,0.0135498046875,0.0230712890625,1.0093994140625,30.09000015258789,0.0,0.0,-0.037139892578125,-0.0498504638671875,Closing,0.0,0.0,0.0,0.0,0.0,0.0,0.0,0.0,
8.706948999999993,0.0,0.0,0.0,0.0,0.0,0.0,0.0,0.125,3.862304292,0.0,0.0,-2.0,0.0,0.0,-0.0,0.0,0.0,1.931152146,0.0,0.0,29.0,0.0,0.0,0.0,0.0,0.0,4.271239797000001,0.0,0.0,0.0,0.0,0.0,-0.0,0.0,0.0,2.9064938430000002,0.0,0.0,1.3700000047683716,0.8500000238418579,-30.010000228881836,0.0174560546875,0.0206298828125,1.0079345703125,30.09000015258789,0.0,3.0,-0.037139892578125,-0.0498504638671875,Closing,0.0,0.0,0.0,0.0,0.0,0.0,0.0,0.0,
8.819260000000009,0.0,0.0,0.0,0.0,0.0,0.0,0.0,0.125,3.864745698,0.0,0.0,-2.0,0.0,0.0,-0.0,0.0,0.0,1.9165037100000002,0.0,0.0,29.0,0.0,0.0,0.0,0.0,0.0,4.265136282,0.0,0.0,0.0,0.0,0.0,-0.0,0.0,0.0,2.9064938430000002,0.0,0.0,1.3700000047683716,0.8500000238418579,-30.010000228881836,0.01422119140625,0.0235595703125,1.009765625,30.09000015258789,0.0,0.0,-0.037139892578125,-0.0498504638671875,Closing,0.0,0.0,0.0,0.0,0.0,0.0,0.0,0.0,
8.930581999999994,0.0,0.0,0.0,0.0,0.0,0.0,0.0,0.125,3.863524995,0.0,0.0,-2.0,0.0,0.0,-0.0,0.0,0.0,1.859130669,0.0,0.0,29.0,0.0,0.0,0.0,0.0,0.0,4.271239797000001,0.0,0.0,0.0,0.0,0.0,-0.0,0.0,0.0,2.9064938430000002,0.0,0.0,1.3700000047683716,0.8500000238418579,-30.010000228881836,0.01898193359375,0.02606201171875,0.997802734375,30.09000015258789,0.0,2.0,-0.037139892578125,-0.0498504638671875,Closing,0.0,0.0,0.0,0.0,0.0,0.0,0.0,0.0,
9.040380999999995,0.0,0.0,0.0,0.0,0.0,0.0,0.0,0.125,3.863524995,0.0,0.0,-2.0,0.0,0.0,-0.0,0.0,0.0,1.860351372,0.0,0.0,29.0,0.0,0.0,0.0,0.0,0.0,4.271239797000001,0.0,0.0,0.0,0.0,0.0,-0.0,0.0,0.0,2.9040524370000003,0.0,0.0,1.3700000047683716,0.8500000238418579,-30.010000228881836,0.01031494140625,0.026611328125,1.010986328125,30.09000015258789,0.0,-5.0,-0.037139892578125,-0.0498504638671875,Closing,0.0,0.0,0.0,0.0,0.0,0.0,0.0,0.0,
9.148798999999999,0.0,0.0,0.0,0.0,0.0,0.0,0.0,0.125,3.862304292,0.0,0.0,-2.0,0.0,0.0,-0.0,0.0,0.0,1.859130669,0.0,0.0,29.0,0.0,0.0,0.0,0.0,0.0,4.271239797000001,0.0,0.0,0.0,0.0,0.0,-0.0,0.0,0.0,2.9064938430000002,0.0,0.0,1.3700000047683716,0.8500000238418579,-30.010000228881836,0.0172119140625,0.028564453125,1.0101318359375,30.09000015258789,0.0,0.0,-0.037139892578125,-0.0498504638671875,Closing,0.0,0.0,0.0,0.0,0.0,0.0,0.0,0.0,
9.267415999999997,0.0,0.0,0.0,0.0,0.0,0.0,0.0,0.125,3.862304292,0.0,0.0,-2.0,0.0,0.0,-0.0,0.0,0.0,1.8640134810000002,0.0,0.0,29.0,0.0,0.0,0.0,0.0,0.0,4.2724605,0.0,0.0,0.0,0.0,0.0,-0.0,0.0,0.0,2.9052731400000003,0.0,0.0,1.3700000047683716,0.8500000238418579,-30.010000228881836,0.01544189453125,0.0220947265625,1.00946044921875,30.09000015258789,0.0,1.0,-0.037139892578125,-0.0498504638671875,Closing,0.0,0.0,0.0,0.0,0.0,0.0,0.0,0.0,
9.373699999999982,0.0,0.0,0.0,0.0,0.0,0.0,0.0,0.125,3.863524995,0.0,0.0,-2.0,0.0,0.0,-0.0,0.0,0.0,1.8640134810000002,0.0,0.0,29.0,0.0,0.0,0.0,0.0,0.0,4.271239797000001,0.0,0.0,0.0,0.0,0.0,-0.0,0.0,0.0,2.9077145460000002,0.0,0.0,1.3700000047683716,0.8500000238418579,-30.010000228881836,0.01422119140625,0.02545166015625,1.00048828125,30.09000015258789,0.0,-1.0,-0.037139892578125,-0.0498504638671875,Closing,0.0,0.0,0.0,0.0,0.0,0.0,0.0,0.0,
9.485864999999992,0.0,0.0,0.0,0.0,0.0,0.0,0.0,0.125,3.863524995,0.0,0.0,-2.0,0.0,0.0,-0.0,0.0,0.0,1.9213865220000002,0.0,0.0,29.0,0.0,0.0,0.0,0.0,0.0,4.271239797000001,0.0,0.0,0.0,0.0,0.0,-0.0,0.0,0.0,2.9052731400000003,0.0,0.0,1.3799999952316284,0.8399999737739563,-30.010000228881836,0.01953125,0.0364990234375,0.99932861328125,30.09000015258789,0.0,-2.0,-0.037139892578125,-0.0498504638671875,Closing,0.0,0.0,0.0,0.0,0.0,0.0,0.0,0.0,
9.594824999999982,0.0,0.0,0.0,0.0,0.0,0.0,0.0,0.125,3.864745698,0.0,0.0,-2.0,0.0,0.0,-0.0,0.0,0.0,1.9213865220000002,0.0,0.0,29.0,0.0,0.0,0.0,0.0,0.0,4.2724605,0.0,0.0,0.0,0.0,0.0,-0.0,0.0,0.0,2.9064938430000002,0.0,0.0,1.3700000047683716,0.8399999737739563,-30.010000228881836,0.0186767578125,0.0225830078125,1.00982666015625,30.09000015258789,0.0,4.0,-0.037139892578125,-0.0498504638671875,Closing,0.0,0.0,0.0,0.0,0.0,0.0,0.0,0.0,
9.708535999999993,0.0,0.0,0.0,0.0,0.0,0.0,0.0,0.125,3.863524995,0.0,0.0,-2.0,0.0,0.0,-0.0,0.0,0.0,1.9213865220000002,0.0,0.0,29.0,0.0,0.0,0.0,0.0,0.0,4.271239797000001,0.0,0.0,0.0,0.0,0.0,-0.0,0.0,0.0,2.9064938430000002,0.0,0.0,1.3700000047683716,0.8399999737739563,-30.010000228881836,0.01239013671875,0.0228271484375,1.009033203125,30.09000015258789,0.0,-1.0,-0.037139892578125,-0.0498504638671875,Closing,0.0,0.0,0.0,0.0,0.0,0.0,0.0,0.0,
9.826147999999986,0.0,0.0,0.0,0.0,0.0,0.0,0.0,0.125,3.863524995,0.0,0.0,-2.0,0.0,0.0,-0.0,0.0,0.0,1.9213865220000002,0.0,0.0,29.0,0.0,0.0,0.0,0.0,0.0,4.266356985,0.0,0.0,0.0,0.0,0.0,-0.0,0.0,0.0,2.9064938430000002,0.0,0.0,1.3600000143051147,0.8399999737739563,-30.010000228881836,0.0133056640625,0.02362060546875,1.00445556640625,30.09000015258789,0.0,-1.0,-0.037139892578125,-0.0498504638671875,Closing,0.0,0.0,0.0,0.0,0.0,0.0,0.0,0.0,
9.93324100000001,0.0,0.0,0.0,0.0,0.0,0.0,0.0,0.125,3.863524995,0.0,0.0,-2.0,0.0,0.0,-0.0,0.0,0.0,1.883544729,0.0,0.0,29.0,0.0,0.0,0.0,0.0,0.0,4.268798391,0.0,0.0,0.0,0.0,0.0,-0.0,0.0,0.0,2.9064938430000002,0.0,0.0,1.3600000143051147,0.8399999737739563,-30.010000228881836,0.0179443359375,0.02398681640625,1.00823974609375,30.110000610351562,0.0,2.0,-0.037139892578125,-0.0498504638671875,Closing,0.0,0.0,0.0,0.0,0.0,0.0,0.0,0.0,
10.047036999999982,0.0,0.0,0.0,0.0,0.0,0.0,0.0,0.125,3.868407807,0.0,0.0,-2.0,0.0,0.0,-0.0,0.0,0.0,1.882324026,0.0,0.0,29.0,0.0,0.0,0.0,0.0,0.0,4.273681203000001,0.0,0.0,0.0,0.0,0.0,-0.0,0.0,0.0,2.9064938430000002,0.0,0.0,1.350000023841858,0.8399999737739563,-30.010000228881836,0.01824951171875,0.02471923828125,1.0081787109375,30.110000610351562,0.0,2.0,-0.037139892578125,-0.0498504638671875,Closing,0.0,0.0,0.0,0.0,0.0,0.0,0.0,0.0,
10.149559999999997,0.0,0.0,0.0,0.0,0.0,0.0,0.0,0.125,3.862304292,0.0,0.0,-2.0,0.0,0.0,-0.0,0.0,0.0,1.882324026,0.0,0.0,29.0,0.0,0.0,0.0,0.0,0.0,4.2724605,0.0,0.0,0.0,0.0,0.0,-0.0,0.0,0.0,2.9064938430000002,0.0,0.0,1.3600000143051147,0.8399999737739563,-30.010000228881836,0.0185546875,0.02557373046875,1.0057373046875,30.110000610351562,0.0,2.0,-0.037139892578125,-0.0498504638671875,Closing,0.0,0.0,0.0,0.0,0.0,0.0,0.0,0.0,
10.253411999999981,0.0,0.0,0.0,0.0,0.0,0.0,0.0,0.125,3.863524995,0.0,0.0,-2.0,0.0,0.0,-0.0,0.0,0.0,1.887206838,0.0,0.0,29.0,0.0,0.0,0.0,0.0,0.0,4.267577688,0.0,0.0,0.0,0.0,0.0,-0.0,0.0,0.0,2.9064938430000002,0.0,0.0,1.3600000143051147,0.8399999737739563,-30.010000228881836,0.01214599609375,0.025146484375,1.0054931640625,30.110000610351562,0.0,-2.0,-0.037139892578125,-0.0498504638671875,Closing,0.0,0.0,0.0,0.0,0.0,0.0,0.0,0.0,
10.367671999999992,0.0,0.0,0.0,0.0,0.0,0.0,0.0,0.125,3.863524995,0.0,0.0,-2.0,0.0,0.0,-0.0,0.0,0.0,1.911620898,0.0,0.0,29.0,0.0,0.0,0.0,0.0,0.0,4.266356985,0.0,0.0,0.0,0.0,0.0,-0.0,0.0,0.0,2.9052731400000003,0.0,0.0,1.3600000143051147,0.8399999737739563,-30.010000228881836,0.01470947265625,0.02520751953125,1.00592041015625,30.079999923706055,0.0,0.0,-0.037139892578125,-0.0498504638671875,Closing,0.0,0.0,0.0,0.0,0.0,0.0,0.0,0.0,
10.472171999999992,0.0,0.0,0.0,0.0,0.0,0.0,0.0,0.125,3.863524995,0.0,-0.0012207029999999897,-2.0,0.0,0.0,-0.0,0.0,0.0,1.910400195,0.0,0.0,29.0,0.0,0.0,0.0,0.0,0.0,4.271239797000001,0.0,0.0,0.0,0.0,0.0,-0.0,0.0,0.0,2.8991696250000003,0.0,0.0,1.350000023841858,0.8399999737739563,-30.010000228881836,0.01373291015625,0.0205078125,1.0050048828125,30.079999923706055,0.0,0.0,-0.037139892578125,-0.0498504638671875,Closing,0.0,0.0,0.0,0.0,0.0,0.0,0.0,0.0,
10.579508999999991,0.0,0.0,0.0,0.0,0.0,0.0,0.0,0.125,3.863524995,0.0,0.0,-2.0,0.0,0.0,-0.0,0.0,0.0,1.906738086,0.0,0.0,29.0,0.0,0.0,0.0,0.0,0.0,4.271239797000001,0.0,0.0,0.0,0.0,0.0,-0.0,0.0,0.0,2.9064938430000002,0.0,0.0,1.3600000143051147,0.8399999737739563,-30.010000228881836,0.0155029296875,0.0257568359375,1.00616455078125,30.079999923706055,0.0,0.0,-0.037139892578125,-0.0498504638671875,Closing,0.0,0.0,0.0,0.0,0.0,0.0,0.0,0.0,
10.689214000000007,0.0,0.0,0.0,0.0,0.0,0.0,0.0,0.125,3.862304292,0.0,0.0,-2.0,0.0,0.0,-0.0,0.0,0.0,1.912841601,0.0,0.0,29.0,0.0,0.0,0.0,0.0,0.0,4.267577688,0.0,0.0,0.0,0.0,0.0,-0.0,0.0,0.0,2.9064938430000002,0.0,0.0,1.350000023841858,0.8399999737739563,-30.010000228881836,0.01531982421875,0.02215576171875,1.00909423828125,30.079999923706055,0.0,1.0,-0.037139892578125,-0.0498504638671875,Closing,0.0,0.0,0.0,0.0,0.0,0.0,0.0,0.0,
10.793022999999987,0.0,0.0,0.0,0.0,0.0,0.0,0.0,0.125,3.863524995,0.0,0.0,-2.0,0.0,0.0,-0.0,0.0,0.0,1.911620898,0.0,0.0,29.0,0.0,0.0,0.0,0.0,0.0,4.271239797000001,0.0,0.0,0.0,0.0,0.0,-0.0,0.0,0.0,2.9064938430000002,0.0,0.0,1.350000023841858,0.8399999737739563,-30.010000228881836,0.01202392578125,0.02532958984375,1.006591796875,30.079999923706055,0.0,-3.0,-0.037139892578125,-0.0498504638671875,Closing,0.0,0.0,0.0,0.0,0.0,0.0,0.0,0.0,
10.894111999999994,0.0,0.0,0.0,0.0,0.0,0.0,0.0,0.125,3.863524995,0.0,0.0,-2.0,0.0,0.0,-0.0,0.0,0.0,1.911620898,0.0,0.0,29.0,0.0,0.0,0.0,0.0,0.0,4.271239797000001,0.0,0.0,0.0,0.0,0.0,-0.0,0.0,0.0,2.9064938430000002,0.0,0.0,1.3600000143051147,0.8399999737739563,-30.010000228881836,0.01727294921875,0.024658203125,1.00347900390625,30.09000015258789,0.0,1.0,-0.037139892578125,-0.0498504638671875,Closing,0.0,0.0,0.0,0.0,0.0,0.0,0.0,0.0,
11.004446999999985,0.0,0.0,0.0,0.0,0.0,0.0,0.0,0.125,3.863524995,0.0,0.0,-2.0,0.0,0.0,-0.0,0.0,0.0,1.911620898,0.0,0.0,29.0,0.0,0.0,0.0,0.0,0.0,4.271239797000001,0.0,0.0,0.0,0.0,0.0,-0.0,0.0,0.0,2.9064938430000002,0.0,0.0,1.3600000143051147,0.8399999737739563,-30.010000228881836,0.01458740234375,0.0238037109375,1.00823974609375,30.09000015258789,0.0,0.0,-0.037139892578125,-0.0498504638671875,Closing,0.0,0.0,0.0,0.0,0.0,0.0,0.0,0.0,
11.106223999999987,0.0,0.0,0.0,0.0,0.0,0.0,0.0,0.125,3.863524995,0.0,0.0,-2.0,0.0,0.0,-0.0,0.0,0.0,1.911620898,0.0,0.0,29.0,0.0,0.0,0.0,0.0,0.0,4.271239797000001,0.0,0.0,0.0,0.0,0.0,-0.0,0.0,0.0,2.9064938430000002,0.0,0.0,1.350000023841858,0.8399999737739563,-30.010000228881836,0.01593017578125,0.02325439453125,1.00555419921875,30.09000015258789,0.0,1.0,-0.037139892578125,-0.0498504638671875,Closing,0.0,0.0,0.0,0.0,0.0,0.0,0.0,0.0,
11.209035999999992,0.0,0.0,0.0,0.0,0.0,0.0,0.0,0.125,3.863524995,0.0,0.0,-2.0,0.0,0.0,-0.0,0.0,0.0,1.911620898,0.0,0.0,29.0,0.0,0.0,0.0,0.0,0.0,4.270019094,0.0,0.0,0.0,0.0,0.0,-0.0,0.0,0.0,2.9052731400000003,0.0,0.0,1.350000023841858,0.8399999737739563,-30.010000228881836,0.01654052734375,0.02508544921875,1.00860595703125,30.09000015258789,0.0,0.0,-0.037139892578125,-0.0498504638671875,Closing,0.0,0.0,0.0,0.0,0.0,0.0,0.0,0.0,
11.31209599999999,0.0,0.0,0.0,0.0,0.0,0.0,0.0,0.125,3.862304292,0.0,0.0,-2.0,0.0,0.0,-0.0,0.0,0.0,1.911620898,0.0,0.0,29.0,0.0,0.0,0.0,0.0,0.0,4.271239797000001,0.0,0.0,0.0,0.0,0.0,-0.0,0.0,0.0,2.9064938430000002,0.0,0.0,1.350000023841858,0.8399999737739563,-30.010000228881836,0.01446533203125,0.0240478515625,1.0086669921875,30.09000015258789,0.0,0.0,-0.037139892578125,-0.0498504638671875,Closing,0.0,0.0,0.0,0.0,0.0,0.0,0.0,0.0,
11.421891999999993,0.0,0.0,0.0,0.0,0.0,0.0,0.0,0.125,3.864745698,0.0,0.0,-2.0,0.0,0.0,-0.0,0.0,0.0,1.911620898,0.0,0.0,29.0,0.0,0.0,0.0,0.0,0.0,4.2724605,0.0,0.0,0.0,0.0,0.0,-0.0,0.0,0.0,2.9064938430000002,0.0,0.0,1.350000023841858,0.8399999737739563,-30.010000228881836,0.01580810546875,0.02288818359375,1.00872802734375,30.079999923706055,0.0,1.0,-0.037139892578125,-0.0498504638671875,Closing,0.0,0.0,0.0,0.0,0.0,0.0,0.0,0.0,
11.533282999999996,0.0,0.0,0.0,0.0,0.0,0.0,0.0,0.125,3.863524995,0.0,0.0,-2.0,0.0,0.0,-0.0,0.0,0.0,1.911620898,0.0,0.0,29.0,0.0,0.0,0.0,0.0,0.0,4.271239797000001,0.0,0.0,0.0,0.0,0.0,-0.0,0.0,0.0,2.9052731400000003,0.0,0.0,1.350000023841858,0.8399999737739563,-30.020000457763672,0.0150146484375,0.02362060546875,1.01177978515625,30.079999923706055,0.0,0.0,-0.037139892578125,-0.0498504638671875,Closing,0.0,0.0,0.0,0.0,0.0,0.0,0.0,0.0,
11.63372200000001,0.0,0.0,0.0,0.0,0.0,0.0,0.0,0.125,3.862304292,0.0,0.0,-2.0,0.0,0.0,-0.0,0.0,0.0,1.910400195,0.0,0.0,29.0,0.0,0.0,0.0,0.0,0.0,4.256591361,0.0,0.0,0.0,0.0,0.0,-0.0,0.0,0.0,2.9052731400000003,0.0,0.0,1.350000023841858,0.8399999737739563,-30.020000457763672,0.0157470703125,0.02288818359375,1.0093994140625,30.079999923706055,0.0,1.0,-0.037139892578125,-0.0498504638671875,Closing,0.0,0.0,0.0,0.0,0.0,0.0,0.0,0.0,
11.742443,0.0,0.0,0.0,0.0,0.0,0.0,0.0,0.125,3.863524995,0.0,0.0,-2.0,0.0,0.0,-0.0,0.0,0.0,1.911620898,0.0,0.0,29.0,0.0,0.0,0.0,0.0,0.0,4.278564015000001,0.0,0.0,0.0,0.0,0.0,-0.0,0.0,0.0,2.9064938430000002,0.0,0.0,1.350000023841858,0.8399999737739563,-30.020000457763672,0.01519775390625,0.0211181640625,1.00628662109375,30.079999923706055,0.0,1.0,-0.037139892578125,-0.0498504638671875,Closing,0.0,0.0,0.0,0.0,0.0,0.0,0.0,0.0,
11.848030999999988,0.0,0.0,0.0,0.0,0.0,0.0,0.0,0.125,3.863524995,0.0,0.0,-2.0,0.0,0.0,-0.0,0.0,0.0,1.911620898,0.0,0.0,29.0,0.0,0.0,0.0,0.0,0.0,4.278564015000001,0.0,0.0,0.0,0.0,0.0,-0.0,0.0,0.0,2.9064938430000002,0.0,0.0,1.350000023841858,0.8399999737739563,-30.020000457763672,0.0198974609375,0.02117919921875,1.05474853515625,30.079999923706055,0.0,5.0,-0.037139892578125,-0.0498504638671875,Closing,0.0,0.0,0.0,0.0,0.0,0.0,0.0,0.0,
11.951695999999997,0.0,0.0,0.0,0.0,0.0,0.0,0.0,0.125,3.863524995,0.0,0.0,-2.0,0.0,0.0,-0.0,0.0,0.0,1.911620898,0.0,0.0,29.0,0.0,0.0,0.0,0.0,0.0,4.2724605,0.0,0.0,0.0,0.0,0.0,-0.0,0.0,0.0,2.9064938430000002,0.0,0.0,1.350000023841858,0.8399999737739563,-30.020000457763672,0.011962890625,0.02978515625,1.00579833984375,30.100000381469727,0.0,-5.0,-0.037139892578125,-0.0498504638671875,Closing,0.0,0.0,0.0,0.0,0.0,0.0,0.0,0.0,
12.054948999999993,0.0,0.0,0.0,0.0,0.0,0.0,0.0,0.125,3.862304292,0.0,0.0,-2.0,0.0,0.0,-0.0,0.0,0.0,1.911620898,0.0,0.0,29.0,0.0,0.0,0.0,0.0,0.0,4.271239797000001,0.0,0.0,0.0,0.0,0.0,-0.0,0.0,0.0,2.9064938430000002,0.0,0.0,1.350000023841858,0.8399999737739563,-30.020000457763672,0.00958251953125,0.02301025390625,1.02081298828125,30.100000381469727,0.0,-4.0,-0.037139892578125,-0.0498504638671875,Closing,0.0,0.0,0.0,0.0,0.0,0.0,0.0,0.0,
12.160775999999984,0.0,0.0,0.0,0.0,0.0,0.0,0.0,0.125,3.861083589,0.0,0.0,-2.0,0.0,0.0,-0.0,0.0,0.0,1.911620898,0.0,0.0,29.0,0.0,0.0,0.0,0.0,0.0,4.271239797000001,0.0,0.0,0.0,0.0,0.0,-0.0,0.0,0.0,2.9064938430000002,0.0,0.0,1.340000033378601,0.8299999833106995,-30.020000457763672,0.0135498046875,0.02081298828125,1.0166015625,30.100000381469727,0.0,0.0,-0.037139892578125,-0.0498504638671875,Closing,0.0,0.0,0.0,0.0,0.0,0.0,0.0,0.0,
12.269161999999982,0.0,0.0,0.0,0.0,0.0,0.0,0.0,0.125,3.863524995,0.0,0.0,-2.0,0.0,0.0,-0.0,0.0,0.0,1.911620898,0.0,0.0,29.0,0.0,0.0,0.0,0.0,0.0,4.2724605,0.0,0.0,0.0,0.0,0.0,-0.0,0.0,0.0,2.9064938430000002,0.0,0.0,1.350000023841858,0.8299999833106995,-30.020000457763672,0.01422119140625,0.0267333984375,1.0120849609375,30.100000381469727,0.0,-1.0,-0.037139892578125,-0.0498504638671875,Closing,0.0,0.0,0.0,0.0,0.0,0.0,0.0,0.0,
12.370961999999999,0.0,0.0,0.0,0.0,0.0,0.0,0.0,0.125,3.863524995,0.0,0.0,-2.0,0.0,0.0,-0.0,0.0,0.0,1.906738086,0.0,0.0,29.0,0.0,0.0,0.0,0.0,0.0,4.267577688,0.0,0.0,0.0,0.0,0.0,-0.0,0.0,0.0,2.9064938430000002,0.0,0.0,1.3300000429153442,0.8500000238418579,-30.010000228881836,0.01763916015625,0.0146484375,1.017333984375,30.100000381469727,0.0,6.0,-0.037139892578125,-0.0498504638671875,Closing,0.0,0.0,0.0,0.0,0.0,0.0,0.0,0.0,
12.475524999999994,0.0,0.0,0.0,0.0,0.0,0.0,0.0,0.125,3.863524995,0.0,0.0,-2.0,0.0,0.0,-0.0,0.0,0.0,1.906738086,0.0,0.0,29.0,0.0,0.0,0.0,0.0,0.0,4.2724605,0.0,0.0,0.0,0.0,0.0,-0.0,0.0,0.0,2.9064938430000002,0.0,0.0,1.340000033378601,0.8299999833106995,-30.010000228881836,0.02410888671875,0.03094482421875,0.99176025390625,30.110000610351562,0.0,4.0,-0.037139892578125,-0.0498504638671875,Closing,0.0,0.0,0.0,0.0,0.0,0.0,0.0,0.0,
12.587791999999986,0.0,0.0,0.0,0.0,0.0,0.0,0.0,0.125,3.863524995,0.0,0.0,-2.0,0.0,0.0,-0.0,0.0,0.0,1.906738086,0.0,0.0,29.0,0.0,0.0,0.0,0.0,0.0,4.2724605,0.0,0.0,0.0,0.0,0.0,-0.0,0.0,0.0,2.9089352490000002,0.0,0.0,1.350000023841858,0.8399999737739563,-30.010000228881836,0.0074462890625,0.01824951171875,1.0052490234375,30.110000610351562,0.0,-3.0,-0.037139892578125,-0.0498504638671875,Closing,0.0,0.0,0.0,0.0,0.0,0.0,0.0,0.0,
12.689869999999996,0.0,0.0,0.0,0.0,0.0,0.0,0.0,0.125,3.863524995,0.0,0.0,-2.0,0.0,0.0,-0.0,0.0,0.0,1.906738086,0.0,0.0,29.0,0.0,0.0,0.0,0.0,0.0,4.2724605,0.0,0.0,0.0,0.0,0.0,-0.0,0.0,0.0,2.9052731400000003,0.0,0.0,1.350000023841858,0.8399999737739563,-30.020000457763672,0.01708984375,0.02459716796875,0.9906005859375,30.110000610351562,0.0,1.0,-0.037139892578125,-0.0498504638671875,Closing,0.0,0.0,0.0,0.0,0.0,0.0,0.0,0.0,
12.795416999999986,0.0,0.0,0.0,0.0,0.0,0.0,0.0,0.125,3.863524995,0.0,0.0,-2.0,0.0,0.0,-0.0,0.0,0.0,1.906738086,0.0,0.0,29.0,0.0,0.0,0.0,0.0,0.0,4.2724605,0.0,0.0,0.0,0.0,0.0,-0.0,0.0,0.0,2.9064938430000002,0.0,0.0,1.350000023841858,0.8399999737739563,-30.010000228881836,0.01104736328125,0.02001953125,1.002685546875,30.110000610351562,0.0,-1.0,-0.037139892578125,-0.0498504638671875,Closing,0.0,0.0,0.0,0.0,0.0,0.0,0.0,0.0,
12.904448000000004,0.0,0.0,0.0,0.0,0.0,0.0,0.0,0.125,3.863524995,0.0,0.0,-2.0,0.0,0.0,-0.0,0.0,0.0,1.905517383,0.0,0.0,29.0,0.0,0.0,0.0,0.0,0.0,4.263915579,0.0,0.0,0.0,0.0,0.0,-0.0,0.0,0.0,2.9064938430000002,0.0,0.0,1.350000023841858,0.8399999737739563,-30.010000228881836,0.01629638671875,0.0257568359375,1.0068359375,30.110000610351562,0.0,0.0,-0.037139892578125,-0.0498504638671875,Closing,0.0,0.0,0.0,0.0,0.0,0.0,0.0,0.0,
13.00610500000001,0.0,0.0,0.0,0.0,0.0,0.0,0.0,0.125,3.864745698,0.0,0.0,-2.0,0.0,0.0,-0.0,0.0,0.0,1.906738086,0.0,0.0,29.0,0.0,0.0,0.0,0.0,0.0,4.2724605,0.0,0.0,0.0,0.0,0.0,-0.0,0.0,0.0,2.9052731400000003,0.0,0.0,1.350000023841858,0.8399999737739563,-30.010000228881836,0.01275634765625,0.0238037109375,0.99932861328125,30.170000076293945,0.0,-1.0,-0.037139892578125,-0.0498504638671875,Closing,0.0,0.0,0.0,0.0,0.0,0.0,0.0,0.0,
13.10713500000001,0.0,0.0,0.0,0.0,0.0,0.0,0.0,0.125,3.864745698,0.0,0.0,-2.0,0.0,0.0,-0.0,0.0,0.0,1.906738086,0.0,0.0,29.0,0.0,0.0,0.0,0.0,0.0,4.2724605,0.0,0.0,0.0,0.0,0.0,-0.0,0.0,0.0,2.9064938430000002,0.0,0.0,1.3600000143051147,0.8399999737739563,-30.020000457763672,0.0179443359375,0.02215576171875,1.00384521484375,30.170000076293945,0.0,3.0,-0.037139892578125,-0.0498504638671875,Closing,0.0,0.0,0.0,0.0,0.0,0.0,0.0,0.0,
13.209975999999996,0.0,0.0,0.0,0.0,0.0,0.0,0.0,0.0,3.863524995,0.0,0.0,-2.0,0.0,0.0,-0.0,0.0,0.0,1.906738086,0.0,0.0,29.0,0.0,0.0,0.0,0.0,0.0,4.2724605,0.0,0.0,0.0,0.0,0.0,-0.0,0.0,0.0,2.9064938430000002,0.0,0.0,1.350000023841858,0.8399999737739563,-30.020000457763672,0.01287841796875,0.02386474609375,1.0078125,30.170000076293945,0.0,-1.0,-0.037139892578125,-0.0498504638671875,Closing,0.0,0.0,0.0,0.0,0.0,0.0,0.0,0.0,
