Time,ClimberA1,ClimberA2,FRpos,FRCurrent,FRspeed,FRsetpoint,FRApos,FRACurrent,FREncpos,FREncSetpoint,FREncSpeed,FLpos,FLCurrent,FLspeed,FLsetpoint,FLApos,FLACurrent,FLEncpos,FLEncSetpoint,FLEncSpeed,BRpos,BRCurrent,BRspeed,BRsetpoint,BRApos,BRACurrent,BREncpos,BREncSetpoint,BREncSpeed,BLpos,BLCurrent,BLspeed,BLsetpoint,BLApos,BLACurrent,BLEncpos,BLEncSetpoint,BLEncSpeed,navx_Pitch,navx_Roll,navx_Yaw,navx_XAcc,navx_YAcc,navx_ZAcc,navx_Temp,navx_Bar,navx_Alt,navx_XDis,navx_YDis,GearPlacerState,ShootOutputV,ShootOutputCurrent,ShootEncPos,ShootEncVelocity,ShootSpeed,ShootSetpoint,CarouselSetpoint,CarouselCurrent,
0.12341899999999441,0.0,0.0,2793.0,0.125,-30.0,0.0,0.0,0.125,3.775634379,0.0,0.0,-3067.0,0.0,30.0,-0.0,0.0,0.0,1.887206838,0.0,0.0,3665.0,0.0,-15.0,0.0,0.0,0.0,4.8681635640000005,0.0,0.0,-2949.0,0.0,22.5,-0.0,0.0,0.0,2.8442379900000003,0.0,0.0,1.409999966621399,0.8199999928474426,102.44000244140625,-0.00506591796875,0.031982421875,1.05535888671875,31.450000762939453,0.0,10.0,-0.1578521728515625,0.4670562744140625,Waiting,0.0,0.0,-26331.0,0.0,0.0,0.0,0.0,0.0,
0.15396300000000337,0.0,0.0,2793.0,0.125,-22.5,0.0,0.0,0.125,3.7854000030000003,0.0,0.0341796840000006,-3067.0,0.0,7.5,-0.0,0.0,0.0,1.882324026,0.0,-0.0024414059999999793,3665.0,0.0,0.0,0.0,0.0,0.0,4.8681635640000005,0.0,0.0,-2949.0,0.0,0.0,-0.0,0.0,0.0,2.8442379900000003,0.0,0.0,1.3899999856948853,0.7900000214576721,102.47000122070312,-0.01593017578125,0.024169921875,0.9693603515625,31.450000762939453,0.0,6.0,-0.157806396484375,0.4671630859375,Closing,0.0,0.0,-26331.0,0.0,0.0,0.0,0.0,0.0,
0.1868469999999943,0.0,0.0,2793.0,0.0,0.0,0.0,0.0,0.125,3.7866207060000003,0.0,0.0341796840000006,-3067.0,0.0,0.0,-0.0,0.0,0.0,1.881103323,0.0,-0.0024414059999999793,3665.0,0.0,0.0,0.0,0.0,0.0,4.8706049700000005,0.0,0.0,-2949.0,0.0,0.0,-0.0,0.0,0.0,2.8430172870000003,0.0,0.0,1.3700000047683716,0.699999988079071,102.4800033569336,-0.02264404296875,-7.32421875E-4,1.038330078125,31.450000762939453,0.0,-17.0,-0.157806396484375,0.467742919921875,Closing,0.0,0.0,-26331.0,0.0,0.0,0.0,0.0,0.0,
0.21270699999999487,0.0,0.0,2793.0,0.0,0.0,0.0,0.0,0.125,3.7866207060000003,0.0,0.003662108999999525,-3067.0,0.0,0.0,-0.0,0.0,0.0,1.882324026,0.0,-0.0024414059999999793,3665.0,0.0,0.0,0.0,0.0,0.0,4.8681635640000005,0.0,0.0,-2949.0,0.0,0.0,-0.0,0.0,0.0,2.8430172870000003,0.0,0.0,1.340000033378601,0.6899999976158142,102.47000122070312,-3.0517578125E-4,9.765625E-4,0.9617919921875,31.450000762939453,0.0,-18.0,-0.157806396484375,0.4680328369140625,Closing,0.0,0.0,-26331.0,0.0,0.0,0.0,0.0,0.0,
0.2478000000000029,0.0,0.0,2793.0,0.0,0.0,0.0,0.0,0.0,3.7866207060000003,0.0,0.003662108999999525,-3067.0,0.0,0.0,-0.0,0.0,0.0,1.883544729,0.0,-0.0024414059999999793,3665.0,0.0,0.0,0.0,0.0,0.0,4.869384267,0.0,0.0,-2949.0,0.0,0.0,-0.0,0.0,0.0,2.8430172870000003,0.0,0.0,1.340000033378601,0.6800000071525574,102.44999694824219,0.0345458984375,0.0345458984375,1.0230712890625,31.450000762939453,0.0,5.0,-0.157806396484375,0.4683380126953125,Closing,0.0,0.0,-26331.0,0.0,0.0,0.0,0.0,0.0,
0.2760660000000062,0.0,0.0,2793.0,0.0,0.0,0.0,0.0,0.0,3.7866207060000003,0.0,0.0,-3067.0,0.0,0.0,-0.0,0.0,0.0,1.882324026,0.0,0.0,3665.0,0.0,0.0,0.0,0.0,0.0,4.8681635640000005,0.0,0.0,-2949.0,0.0,0.0,-0.0,0.0,0.0,2.8430172870000003,0.0,0.0,1.350000023841858,0.7200000286102295,102.44999694824219,0.02484130859375,0.0264892578125,0.9769287109375,31.450000762939453,0.0,0.0,-0.157806396484375,0.468231201171875,Closing,0.0,0.0,-26331.0,0.0,0.0,0.0,0.0,0.0,
0.3063129999999946,0.0,0.0,2793.0,0.0,0.0,0.0,0.0,0.0,3.749999616,0.0,0.0012207030000004337,-3067.0,0.0,0.0,-0.0,0.0,0.0,1.882324026,0.0,0.0,3665.0,0.0,0.0,0.0,0.0,0.0,4.869384267,0.0,0.0,-2949.0,0.0,0.0,-0.0,0.0,0.0,2.8442379900000003,0.0,0.0,1.3600000143051147,0.699999988079071,102.45999908447266,3.662109375E-4,0.0128173828125,1.037841796875,31.450000762939453,0.0,-8.0,-0.157806396484375,0.468231201171875,Closing,0.0,0.0,-26331.0,0.0,0.0,0.0,0.0,0.0,
0.3340149999999994,0.0,0.0,2793.0,0.0,0.0,0.0,0.0,0.0,3.7854000030000003,0.0,0.0012207030000004337,-3067.0,0.0,0.0,-0.0,0.0,0.0,1.882324026,0.0,0.0,3665.0,0.0,0.0,0.0,0.0,0.0,4.866942861,0.0,0.0,-2949.0,0.0,0.0,-0.0,0.0,0.0,2.8430172870000003,0.0,0.0,1.340000033378601,0.6899999976158142,102.47000122070312,-0.00469970703125,0.01373291015625,0.98974609375,31.450000762939453,0.0,-5.0,-0.157806396484375,0.468231201171875,Closing,0.0,0.0,-26331.0,0.0,0.0,0.0,0.0,0.0,
0.3637099999999919,0.0,0.0,2793.0,0.0,0.0,0.0,0.0,0.0,3.7866207060000003,0.0,-0.0012207030000004337,-3067.0,0.0,0.0,-0.0,0.0,0.0,1.883544729,0.0,0.0,3665.0,0.0,0.0,0.0,0.0,0.0,4.8706049700000005,0.0,0.0,-2949.0,0.0,0.0,-0.0,0.0,0.0,2.8430172870000003,0.0,0.0,1.3200000524520874,0.6499999761581421,102.47000122070312,3.0517578125E-4,0.0179443359375,1.03900146484375,31.450000762939453,0.0,-3.0,-0.157806396484375,0.46844482421875,Closing,0.0,0.0,-26331.0,0.0,0.0,0.0,0.0,0.0,
0.39350199999999314,0.0,0.0,2793.0,0.0,0.0,0.0,0.0,0.0,3.7866207060000003,0.0,-0.0012207030000004337,-3067.0,0.0,0.0,-0.0,0.0,0.0,1.883544729,0.0,0.0,3665.0,0.0,0.0,0.0,0.0,0.0,4.8681635640000005,0.0,0.0,-2949.0,0.0,0.0,-0.0,0.0,0.0,2.8430172870000003,0.0,0.0,1.3200000524520874,0.6399999856948853,102.45999908447266,3.662109375E-4,0.031982421875,1.018310546875,31.450000762939453,0.0,10.0,-0.157806396484375,0.46844482421875,Closing,0.0,0.0,-26331.0,0.0,0.0,0.0,0.0,0.0,
0.42551699999999254,0.0,0.0,2793.0,0.0,0.0,0.0,0.0,0.0,3.7866207060000003,0.0,0.0,-3067.0,0.0,0.0,-0.0,0.0,0.0,1.882324026,0.0,-0.0012207029999995456,3665.0,0.0,0.0,0.0,0.0,0.0,4.869384267,0.0,0.0,-2949.0,0.0,0.0,-0.0,0.0,0.0,2.8442379900000003,0.0,0.0,1.3200000524520874,0.6399999856948853,102.44999694824219,0.0205078125,0.0225830078125,1.0289306640625,31.450000762939453,0.0,-3.0,-0.157806396484375,0.46844482421875,Closing,0.0,0.0,-26331.0,0.0,0.0,0.0,0.0,0.0,
0.45305400000000373,0.0,0.0,2793.0,0.0,0.0,0.0,0.0,0.0,3.7866207060000003,0.0,0.0,-3067.0,0.0,0.0,-0.0,0.0,0.0,1.882324026,0.0,0.0012207029999995456,3665.0,0.0,0.0,0.0,0.0,0.0,4.869384267,0.0,0.0,-2949.0,0.0,0.0,-0.0,0.0,0.0,2.8430172870000003,0.0,0.0,1.3300000429153442,0.6499999761581421,102.45999908447266,0.0140380859375,0.02008056640625,1.01910400390625,31.450000762939453,0.0,-4.0,-0.157806396484375,0.46844482421875,Closing,0.0,0.0,-26331.0,0.0,0.0,0.0,0.0,0.0,
0.4880859999999957,0.0,0.0,2793.0,0.0,0.0,0.0,0.0,0.0,3.7866207060000003,0.0,0.0,-3067.0,0.0,0.0,-0.0,0.0,0.0,1.882324026,0.0,0.0012207029999995456,3665.0,0.0,0.0,0.0,0.0,0.0,4.8681635640000005,0.0,0.0,-2949.0,0.0,0.0,-0.0,0.0,0.0,2.8442379900000003,0.0,0.0,1.309999942779541,0.6499999761581421,102.45999908447266,-0.0032958984375,0.01129150390625,0.986572265625,31.450000762939453,0.0,-7.0,-0.157806396484375,0.46844482421875,Closing,0.0,0.0,-26331.0,0.0,0.0,0.0,0.0,0.0,
0.5133160000000062,0.0,0.0,2793.0,0.0,0.0,0.0,0.0,0.0,3.7841793000000004,0.0,0.0,-3067.0,0.0,0.0,-0.0,0.0,0.0,1.882324026,0.0,0.0,3665.0,0.0,0.0,0.0,0.0,0.0,4.869384267,0.0,0.0,-2949.0,0.0,0.0,-0.0,0.0,0.0,2.8442379900000003,0.0,0.0,1.2999999523162842,0.6200000047683716,102.45999908447266,-0.0142822265625,0.01617431640625,1.0367431640625,31.450000762939453,0.0,-1.0,-0.157806396484375,0.468475341796875,Closing,0.0,0.0,-26331.0,0.0,0.0,0.0,0.0,0.0,
0.5469489999999932,0.0,0.0,2793.0,0.0,0.0,0.0,0.0,0.0,3.7866207060000003,0.0,0.0,-3067.0,0.0,0.0,-0.0,0.0,0.0,1.882324026,0.0,0.0,3665.0,0.0,0.0,0.0,0.0,0.0,4.8681635640000005,0.0,0.0,-2949.0,0.0,0.0,-0.0,0.0,0.0,2.8442379900000003,0.0,0.0,1.2899999618530273,0.6000000238418579,102.45999908447266,0.00286865234375,0.01922607421875,0.9776611328125,31.450000762939453,0.0,-1.0,-0.157806396484375,0.468597412109375,Closing,0.0,0.0,-26331.0,0.0,0.0,0.0,0.0,0.0,
0.5756290000000008,0.0,0.0,2793.0,0.0,0.0,0.0,0.0,0.0,3.7854000030000003,0.0,0.0012207030000004337,-3067.0,0.0,0.0,-0.0,0.0,0.0,1.883544729,0.0,0.0,3665.0,0.0,0.0,0.0,0.0,0.0,4.869384267,0.0,0.0,-2949.0,0.0,0.0,-0.0,0.0,0.0,2.8442379900000003,0.0,0.0,1.2899999618530273,0.5899999737739563,102.45999908447266,0.00958251953125,0.01898193359375,1.03216552734375,31.459999084472656,0.0,-3.0,-0.157806396484375,0.468597412109375,Closing,0.0,0.0,-26331.0,0.0,0.0,0.0,0.0,0.0,
0.6065650000000024,0.0,0.0,2793.0,0.0,0.0,0.0,0.0,0.0,3.7866207060000003,0.0,0.0,-3067.0,0.0,0.0,-0.0,0.0,0.0,1.882324026,0.0,0.0,3665.0,0.0,0.0,0.0,0.0,0.0,4.8681635640000005,0.0,0.0,-2949.0,0.0,0.0,-0.0,0.0,0.0,2.8430172870000003,0.0,0.0,1.2899999618530273,0.6000000238418579,102.45999908447266,0.0208740234375,0.0218505859375,0.98187255859375,31.459999084472656,0.0,-2.0,-0.157806396484375,0.468597412109375,Closing,0.0,0.0,-26331.0,0.0,0.0,0.0,0.0,0.0,
0.6340620000000053,0.0,0.0,2793.0,0.0,0.0,0.0,0.0,0.0,3.7866207060000003,0.0,0.0,-3067.0,0.0,0.0,-0.0,0.0,0.0,1.882324026,0.0,0.0,3665.0,0.0,0.0,0.0,0.0,0.0,4.869384267,0.0,0.0,-2949.0,0.0,0.0,-0.0,0.0,0.0,2.8430172870000003,0.0,0.0,1.2899999618530273,0.6000000238418579,102.45999908447266,0.008544921875,0.0179443359375,1.0274658203125,31.459999084472656,0.0,-4.0,-0.157806396484375,0.468597412109375,Closing,0.0,0.0,-26331.0,0.0,0.0,0.0,0.0,0.0,
0.6610069999999978,0.0,0.0,2793.0,0.0,0.0,0.0,0.0,0.0,3.7866207060000003,0.0,-0.0012207030000004337,-3067.0,0.0,0.0,-0.0,0.0,0.0,1.882324026,0.0,0.0,3665.0,0.0,0.0,0.0,0.0,0.0,4.869384267,0.0,0.0,-2949.0,0.0,0.0,-0.0,0.0,0.0,2.8442379900000003,0.0,0.0,1.2699999809265137,0.5899999737739563,102.47000122070312,-0.0050048828125,0.01617431640625,0.9757080078125,31.459999084472656,0.0,-2.0,-0.157806396484375,0.468597412109375,Closing,0.0,0.0,-26331.0,0.0,0.0,0.0,0.0,0.0,
0.6907449999999954,0.0,0.0,2793.0,0.0,0.0,0.0,0.0,0.0,3.7866207060000003,0.0,-0.0012207030000004337,-3067.0,0.0,0.0,-0.0,0.0,0.0,1.882324026,0.0,0.0,3665.0,0.0,0.0,0.0,0.0,0.0,4.866942861,0.0,0.0,-2949.0,0.0,0.0,-0.0,0.0,0.0,2.8430172870000003,0.0,0.0,1.2799999713897705,0.5699999928474426,102.45999908447266,0.00494384765625,0.017578125,1.02154541015625,31.459999084472656,0.0,-4.0,-0.157806396484375,0.468597412109375,Closing,0.0,0.0,-26331.0,0.0,0.0,0.0,0.0,0.0,
0.715130999999994,0.0,0.0,2793.0,0.0,0.0,0.0,0.0,0.0,3.7866207060000003,0.0,-0.0012207030000004337,-3067.0,0.0,0.0,-0.0,0.0,0.0,1.883544729,0.0,0.0,3665.0,0.0,0.0,0.0,0.0,0.0,4.8706049700000005,0.0,0.0,-2949.0,0.0,0.0,-0.0,0.0,0.0,2.8442379900000003,0.0,0.0,1.2699999809265137,0.5699999928474426,102.45999908447266,0.00848388671875,0.01593017578125,0.98773193359375,31.459999084472656,0.0,-5.0,-0.157806396484375,0.468597412109375,Closing,0.0,0.0,-26331.0,0.0,0.0,0.0,0.0,0.0,
0.7479890000000013,0.0,0.0,2793.0,0.0,0.0,0.0,0.0,0.0,3.7854000030000003,0.0,-0.0012207030000004337,-3067.0,0.0,0.0,-0.0,0.0,0.0,1.884765432,0.0,0.0,3665.0,0.0,0.0,0.0,0.0,0.0,4.869384267,0.0,0.0,-2949.0,0.0,0.0,-0.0,0.0,0.0,2.8430172870000003,0.0,0.0,1.2699999809265137,0.5699999928474426,102.45999908447266,0.01116943359375,0.01812744140625,1.01251220703125,31.459999084472656,0.0,-4.0,-0.157806396484375,0.468597412109375,Closing,0.0,0.0,-26331.0,0.0,0.0,0.0,0.0,0.0,
0.776851999999999,0.0,0.0,2793.0,0.0,0.0,0.0,0.0,0.0,3.7854000030000003,0.0,0.0012207030000004337,-3067.0,0.0,0.0,-0.0,0.0,0.0,1.882324026,0.0,0.0,3665.0,0.0,0.0,0.0,0.0,0.0,4.8681635640000005,0.0,0.0,-2949.0,0.0,0.0,-0.0,0.0,0.0,2.8442379900000003,0.0,0.0,1.2699999809265137,0.5600000023841858,102.45999908447266,0.00555419921875,0.02069091796875,1.0206298828125,31.459999084472656,0.0,-1.0,-0.157806396484375,0.468597412109375,Closing,0.0,0.0,-26331.0,0.0,0.0,0.0,0.0,0.0,
0.8074119999999966,0.0,0.0,2793.0,0.0,0.0,0.0,0.0,0.0,3.7878414090000003,0.0,0.0,-3067.0,0.0,0.0,-0.0,0.0,0.0,1.882324026,0.0,0.0,3665.0,0.0,0.0,0.0,0.0,0.0,4.869384267,0.0,0.0,-2949.0,0.0,0.0,-0.0,0.0,0.0,2.8430172870000003,0.0,0.0,1.2599999904632568,0.550000011920929,102.45999908447266,1.220703125E-4,0.01025390625,1.00494384765625,31.459999084472656,0.0,-9.0,-0.157806396484375,0.468597412109375,Closing,0.0,0.0,-26331.0,0.0,0.0,0.0,0.0,0.0,
0.8358669999999984,0.0,0.0,2793.0,0.0,0.0,0.0,0.0,0.0,3.7866207060000003,0.0,0.0,-3067.0,0.0,0.0,-0.0,0.0,0.0,1.882324026,0.0,0.0,3665.0,0.0,0.0,0.0,0.0,0.0,4.8706049700000005,0.0,0.0,-2949.0,0.0,0.0,-0.0,0.0,0.0,2.8442379900000003,0.0,0.0,1.2599999904632568,0.5400000214576721,102.45999908447266,-0.00433349609375,0.01861572265625,1.0174560546875,31.459999084472656,0.0,0.0,-0.157806396484375,0.468597412109375,Closing,0.0,0.0,-26331.0,0.0,0.0,0.0,0.0,0.0,
0.8682829999999958,0.0,0.0,2793.0,0.0,0.0,0.0,0.0,0.0,3.7854000030000003,0.0,0.0,-3067.0,0.0,0.0,-0.0,0.0,0.0,1.882324026,0.0,0.0,3665.0,0.0,0.0,0.0,0.0,0.0,4.8681635640000005,0.0,0.0,-2949.0,0.0,0.0,-0.0,0.0,0.0,2.8430172870000003,0.0,0.0,1.25,0.5299999713897705,102.45999908447266,0.00408935546875,0.02020263671875,1.007568359375,31.459999084472656,0.0,0.0,-0.157806396484375,0.468597412109375,Closing,0.0,0.0,-26331.0,0.0,0.0,0.0,0.0,0.0,
0.8989599999999919,0.0,0.0,2793.0,0.0,0.0,0.0,0.0,0.0,3.7866207060000003,0.0,0.0,-3067.0,0.0,0.0,-0.0,0.0,0.0,1.882324026,0.0,0.0,3665.0,0.0,0.0,0.0,0.0,0.0,4.869384267,0.0,0.0,-2949.0,0.0,0.0,-0.0,0.0,0.0,2.8430172870000003,0.0,0.0,1.25,0.5299999713897705,102.45999908447266,0.0081787109375,0.018310546875,1.0052490234375,31.459999084472656,0.0,-3.0,-0.157806396484375,0.468597412109375,Closing,0.0,0.0,-26331.0,0.0,0.0,0.0,0.0,0.0,
0.9316630000000005,0.0,0.0,2793.0,0.0,0.0,0.0,0.0,0.0,3.7854000030000003,0.0,0.0,-3067.0,0.0,0.0,-0.0,0.0,0.0,1.882324026,0.0,0.0,3665.0,0.0,0.0,0.0,0.0,0.0,4.8681635640000005,0.0,0.0,-2949.0,0.0,0.0,-0.0,0.0,0.0,2.8442379900000003,0.0,0.0,1.2400000095367432,0.5299999713897705,102.45999908447266,0.00482177734375,0.02191162109375,1.00384521484375,31.459999084472656,0.0,1.0,-0.157806396484375,0.468597412109375,Closing,0.0,0.0,-26331.0,0.0,0.0,0.0,0.0,0.0,
0.9571600000000035,0.0,0.0,2793.0,0.0,0.0,0.0,0.0,0.0,3.7854000030000003,0.0,0.0,-3067.0,0.0,0.0,-0.0,0.0,0.0,1.883544729,0.0,0.0,3665.0,0.0,0.0,0.0,0.0,0.0,4.869384267,0.0,0.0,-2949.0,0.0,0.0,-0.0,0.0,0.0,2.8442379900000003,0.0,0.0,1.2400000095367432,0.5199999809265137,102.45999908447266,-6.7138671875E-4,0.01904296875,1.02142333984375,31.459999084472656,0.0,0.0,-0.157806396484375,0.468597412109375,Closing,0.0,0.0,-26331.0,0.0,0.0,0.0,0.0,0.0,
0.9912479999999924,0.0,0.0,2793.0,0.0,0.0,0.0,0.0,0.0,3.7866207060000003,0.0,0.0,-3067.0,0.0,0.0,-0.0,0.0,0.0,1.882324026,0.0,0.0,3665.0,0.0,0.0,0.0,0.0,0.0,4.8681635640000005,0.0,0.0,-2949.0,0.0,0.0,-0.0,0.0,0.0,2.8430172870000003,0.0,0.0,1.2300000190734863,0.5099999904632568,102.45999908447266,0.00152587890625,0.0211181640625,1.00787353515625,31.459999084472656,0.0,1.0,-0.157806396484375,0.468597412109375,Closing,0.0,0.0,-26331.0,0.0,0.0,0.0,0.0,0.0,
1.0167540000000008,0.0,0.0,2793.0,0.0,0.0,0.0,0.0,0.0,3.7866207060000003,0.0,-0.0012207030000004337,-3067.0,0.0,0.0,-0.0,0.0,0.0,1.883544729,0.0,-0.0012207029999995456,3665.0,0.0,0.0,0.0,0.0,0.0,4.864501455,0.0,0.0,-2949.0,0.0,0.0,-0.0,0.0,0.0,2.8442379900000003,0.0,0.0,1.2300000190734863,0.5,102.44999694824219,0.0062255859375,0.02349853515625,1.01690673828125,31.459999084472656,0.0,2.0,-0.157806396484375,0.468597412109375,Closing,0.0,0.0,-26331.0,0.0,0.0,0.0,0.0,0.0,
1.0498739999999962,0.0,0.0,2793.0,0.0,0.0,0.0,0.0,0.0,3.7866207060000003,0.0,-0.0012207030000004337,-3067.0,0.0,0.0,-0.0,0.0,0.0,1.882324026,0.0,-0.0012207029999995456,3665.0,0.0,0.0,0.0,0.0,0.0,4.8681635640000005,0.0,0.0,-2949.0,0.0,0.0,-0.0,0.0,0.0,2.8430172870000003,0.0,0.0,1.2200000286102295,0.5,102.45999908447266,0.004150390625,0.02056884765625,0.99859619140625,31.459999084472656,0.0,0.0,-0.157806396484375,0.468597412109375,Closing,0.0,0.0,-26331.0,0.0,0.0,0.0,0.0,0.0,
1.0814679999999934,0.0,0.0,2793.0,0.0,0.0,0.0,0.0,0.0,3.7866207060000003,0.0,0.0012207030000004337,-3067.0,0.0,0.0,-0.0,0.0,0.0,1.882324026,0.0,0.0012207029999995456,3665.0,0.0,0.0,0.0,0.0,0.0,4.858397940000001,0.0,0.0,-2949.0,0.0,0.0,-0.0,0.0,0.0,2.8442379900000003,0.0,0.0,1.2300000190734863,0.49000000953674316,102.45999908447266,0.006591796875,0.0216064453125,1.01336669921875,31.489999771118164,0.0,0.0,-0.157806396484375,0.468597412109375,Closing,0.0,0.0,-26331.0,0.0,0.0,0.0,0.0,0.0,
1.1093389999999927,0.0,0.0,2793.0,0.0,0.0,0.0,0.0,0.0,3.7854000030000003,0.0,0.0,-3067.0,0.0,0.0,-0.0,0.0,0.0,1.882324026,0.0,0.0,3665.0,0.0,0.0,0.0,0.0,0.0,4.869384267,0.0,0.0,-2949.0,0.0,0.0,-0.0,0.0,0.0,2.8430172870000003,0.0,0.0,1.2200000286102295,0.49000000953674316,102.45999908447266,0.0023193359375,0.01702880859375,0.99981689453125,31.489999771118164,0.0,-2.0,-0.157806396484375,0.468597412109375,Closing,0.0,0.0,-26331.0,0.0,0.0,0.0,0.0,0.0,
1.1390449999999983,0.0,0.0,2793.0,0.0,0.0,0.0,0.0,0.0,3.7866207060000003,0.0,0.0,-3067.0,0.0,0.0,-0.0,0.0,0.0,1.883544729,0.0,0.0,3665.0,0.0,0.0,0.0,0.0,0.0,4.869384267,0.0,0.0,-2949.0,0.0,0.0,-0.0,0.0,0.0,2.8430172870000003,0.0,0.0,1.2200000286102295,0.4699999988079071,102.45999908447266,0.00531005859375,0.02056884765625,1.01202392578125,31.489999771118164,0.0,0.0,-0.157806396484375,0.468597412109375,Closing,0.0,0.0,-26331.0,0.0,0.0,0.0,0.0,0.0,
1.169976999999999,0.0,0.0,2793.0,0.0,0.0,0.0,0.0,0.0,3.7866207060000003,0.0,0.0012207030000004337,-3067.0,0.0,0.0,-0.0,0.0,0.0,1.882324026,0.0,0.0,3665.0,0.0,0.0,0.0,0.0,0.0,4.869384267,0.0,0.0,-2949.0,0.0,0.0,-0.0,0.0,0.0,2.8442379900000003,0.0,0.0,1.2200000286102295,0.4699999988079071,102.45999908447266,0.0062255859375,0.020263671875,0.99371337890625,31.489999771118164,0.0,0.0,-0.157806396484375,0.468597412109375,Closing,0.0,0.0,-26331.0,0.0,0.0,0.0,0.0,0.0,
1.197229999999996,0.0,0.0,2793.0,0.0,0.0,0.0,0.0,0.0,3.7854000030000003,0.0,0.0012207030000004337,-3067.0,0.0,0.0,-0.0,0.0,0.0,1.883544729,0.0,0.0,3665.0,0.0,0.0,0.0,0.0,0.0,4.8681635640000005,0.0,0.0,-2949.0,0.0,0.0,-0.0,0.0,0.0,2.8442379900000003,0.0,0.0,1.2100000381469727,0.4699999988079071,102.45999908447266,0.00579833984375,0.022705078125,1.011474609375,31.489999771118164,0.0,1.0,-0.157806396484375,0.468597412109375,Closing,0.0,0.0,-26331.0,0.0,0.0,0.0,0.0,0.0,
1.22975,0.0,0.0,2793.0,0.0,0.0,0.0,0.0,0.0,3.7866207060000003,0.0,-0.0012207030000004337,-3067.0,0.0,0.0,-0.0,0.0,0.0,1.882324026,0.0,0.0,3665.0,0.0,0.0,0.0,0.0,0.0,4.8706049700000005,0.0,0.0,-2949.0,0.0,0.0,-0.0,0.0,0.0,2.8442379900000003,0.0,0.0,1.2100000381469727,0.46000000834465027,102.45999908447266,0.0018310546875,0.0206298828125,0.9993896484375,31.489999771118164,0.0,0.0,-0.157806396484375,0.468597412109375,Closing,0.0,0.0,-26331.0,0.0,0.0,0.0,0.0,0.0,
1.2546560000000027,0.0,0.0,2793.0,0.0,0.0,0.0,0.0,0.0,3.7866207060000003,0.0,0.0,-3067.0,0.0,0.0,-0.0,0.0,0.0,1.882324026,0.0,0.0,3665.0,0.0,0.0,0.0,0.0,0.0,4.8681635640000005,0.0,0.0,-2949.0,0.0,0.0,-0.0,0.0,0.0,2.8430172870000003,0.0,0.0,1.2000000476837158,0.44999998807907104,102.45999908447266,0.00238037109375,0.02239990234375,1.01397705078125,31.489999771118164,0.0,2.0,-0.157806396484375,0.468597412109375,Closing,0.0,0.0,-26331.0,0.0,0.0,0.0,0.0,0.0,
1.2876659999999975,0.0,0.0,2793.0,0.0,0.0,0.0,0.0,0.0,3.7866207060000003,0.0,0.0,-3067.0,0.0,0.0,-0.0,0.0,0.0,1.882324026,0.0,0.0,3665.0,0.0,0.0,0.0,0.0,0.0,4.8681635640000005,0.0,0.0,-2949.0,0.0,0.0,-0.0,0.0,0.0,2.8430172870000003,0.0,0.0,1.2000000476837158,0.44999998807907104,102.45999908447266,0.0072021484375,0.01885986328125,1.00128173828125,31.489999771118164,0.0,-2.0,-0.157806396484375,0.468597412109375,Closing,0.0,0.0,-26331.0,0.0,0.0,0.0,0.0,0.0,
1.325274000000005,0.0,0.0,2793.0,0.0,0.0,0.0,0.0,0.0,3.7866207060000003,0.0,0.0,-3067.0,0.0,0.0,-0.0,0.0,0.0,1.883544729,0.0,0.0,3665.0,0.0,0.0,0.0,0.0,0.0,4.864501455,0.0,0.0,-2949.0,0.0,0.0,-0.0,0.0,0.0,2.8430172870000003,0.0,0.0,1.2000000476837158,0.4399999976158142,102.45999908447266,0.0037841796875,0.021240234375,1.0028076171875,31.489999771118164,0.0,1.0,-0.157806396484375,0.468597412109375,Closing,0.0,0.0,-26331.0,0.0,0.0,0.0,0.0,0.0,
1.3523369999999995,0.0,0.0,2793.0,0.0,0.0,0.0,0.0,0.0,3.7866207060000003,0.0,0.0,-3067.0,0.0,0.0,-0.0,0.0,0.0,1.882324026,0.0,0.0,3665.0,0.0,0.0,0.0,0.0,0.0,4.8681635640000005,0.0,0.0,-2949.0,0.0,0.0,-0.0,0.0,0.0,2.8442379900000003,0.0,0.0,1.2000000476837158,0.4399999976158142,102.45999908447266,-0.00103759765625,0.02001953125,1.00482177734375,31.489999771118164,0.0,0.0,-0.157806396484375,0.468597412109375,Closing,0.0,0.0,-26331.0,0.0,0.0,0.0,0.0,0.0,
1.3877580000000016,0.0,0.0,2793.0,0.0,0.0,0.0,0.0,0.0,3.7866207060000003,0.0,0.0,-3067.0,0.0,0.0,-0.0,0.0,0.0,1.882324026,0.0,0.0,3665.0,0.0,0.0,0.0,0.0,0.0,4.866942861,0.0,0.0,-2949.0,0.0,0.0,-0.0,0.0,0.0,2.8442379900000003,0.0,0.0,1.2000000476837158,0.4300000071525574,102.45999908447266,-2.44140625E-4,0.02154541015625,1.00677490234375,31.489999771118164,0.0,2.0,-0.157806396484375,0.468597412109375,Closing,0.0,0.0,-26331.0,0.0,0.0,0.0,0.0,0.0,
1.413095000000001,0.0,0.0,2793.0,0.0,0.0,0.0,0.0,0.0,3.7854000030000003,0.0,0.0,-3067.0,0.0,0.0,-0.0,0.0,0.0,1.882324026,0.0,0.0,3665.0,0.0,0.0,0.0,0.0,0.0,4.871825673,0.0,0.0,-2949.0,0.0,0.0,-0.0,0.0,0.0,2.8417965840000003,0.0,0.0,1.190000057220459,0.4300000071525574,102.44999694824219,0.003173828125,0.020751953125,1.0089111328125,31.489999771118164,0.0,0.0,-0.157806396484375,0.468597412109375,Closing,0.0,0.0,-26331.0,0.0,0.0,0.0,0.0,0.0,
1.4481849999999976,0.0,0.0,2793.0,0.0,0.0,0.0,0.0,0.0,3.7854000030000003,0.0,0.0,-3067.0,0.0,0.0,-0.0,0.0,0.0,1.882324026,0.0,0.0,3665.0,0.0,0.0,0.0,0.0,0.0,4.869384267,0.0,0.0,-2949.0,0.0,0.0,-0.0,0.0,0.0,2.8430172870000003,0.0,0.0,1.190000057220459,0.41999998688697815,102.44999694824219,0.00628662109375,0.02008056640625,1.00537109375,31.489999771118164,0.0,0.0,-0.157806396484375,0.468597412109375,Closing,0.0,0.0,-26331.0,0.0,0.0,0.0,0.0,0.0,
1.4766349999999948,0.0,0.0,2793.0,0.0,0.0,0.0,0.0,0.0,3.7866207060000003,0.0,0.0012207030000004337,-3067.0,0.0,0.0,-0.0,0.0,0.0,1.882324026,0.0,0.0,3665.0,0.0,0.0,0.0,0.0,0.0,4.869384267,0.0,0.0,-2949.0,0.0,0.0,-0.0,0.0,0.0,2.8442379900000003,0.0,0.0,1.190000057220459,0.41999998688697815,102.44999694824219,0.005615234375,0.01959228515625,1.000244140625,31.489999771118164,0.0,0.0,-0.157806396484375,0.468597412109375,Closing,0.0,0.0,-26331.0,0.0,0.0,0.0,0.0,0.0,
1.5084869999999937,0.0,0.0,2793.0,0.125,0.0,442.96875,0.0,0.0,3.7866207060000003,0.5533560492066917,0.0,-3067.0,0.0,0.0,442.96875,0.0,0.0,1.882324026,4.397316058113637,0.0,3665.0,0.0,0.0,442.96875,0.0,0.0,4.8681635640000005,4.40175868900686,0.0,-2949.0,0.0,0.0,442.96875,0.0,0.0,2.8430172870000003,0.5515167311543303,0.0,1.1799999475479126,0.4099999964237213,102.44999694824219,0.00482177734375,0.01953125,1.00390625,31.489999771118164,0.0,0.0,-0.157806396484375,0.468597412109375,Closing,0.0,0.0,-26331.0,0.0,0.0,0.0,0.0,0.0,
1.543619000000006,0.0,0.0,2800.0,0.5,0.0,967.9687500000001,0.0,0.375,3.8342281230000004,0.5533560492066917,-0.0012207030000004337,-3057.0,0.125,0.0,967.9687500000001,0.0,1.125,1.849365045,4.397316058113637,-0.003662109000000413,3665.0,1.75,0.0,967.9687500000001,0.0,1.5,4.819335444,4.40175868900686,0.0012207029999995456,-2941.0,0.75,15.0,967.9687500000001,0.0,2.25,2.927245794,0.5515167311543303,0.0,1.1799999475479126,0.4099999964237213,102.44000244140625,-0.02093505859375,0.08612060546875,1.01605224609375,31.489999771118164,0.0,69.0,-0.1577606201171875,0.468597412109375,Closing,0.0,0.0,-26331.0,0.0,0.0,0.0,0.0,0.0,
1.5752869999999966,0.0,0.0,2800.0,4.75,30.0,2100.0,0.0,3.25,3.973388265,0.5533560492066917,0.0,-3057.0,3.5,75.0,2100.0,0.0,2.125,1.7395017750000001,4.397316058113637,0.0,3665.0,4.75,7.5,2100.0,0.0,1.75,4.681396005,4.40175868900686,0.0,-2941.0,2.375,52.5,2100.0,0.0,2.625,3.040771173,0.5515167311543303,0.0,1.190000057220459,0.44999998807907104,102.37999725341797,0.09088134765625,0.00799560546875,1.054931640625,31.489999771118164,0.0,-31.0,-0.1575164794921875,0.4684295654296875,Closing,0.0,0.0,-26331.0,0.0,0.0,0.0,0.0,0.0,
1.6008969999999971,0.0,0.0,2800.0,13.25,52.5,2100.0,0.0,3.0,4.060058178,0.5533560492066917,0.1220703000000003,-3057.0,11.75,262.5,2100.0,0.0,0.375,1.638183426,4.397316058113637,0.0,3665.0,21.0,90.0,2100.0,0.0,0.0,4.573974141,4.40175868900686,0.0,-2941.0,17.875,210.0,2100.0,0.0,0.5,3.123778977,0.5515167311543303,0.0,1.0099999904632568,0.1899999976158142,101.66000366210938,-0.07061767578125,0.087890625,1.134033203125,31.5,0.0,81.0,-0.158111572265625,0.4683990478515625,Closing,0.0,0.0,-26331.0,0.0,0.0,0.0,0.0,0.0,
1.6367369999999937,0.0,0.0,2800.0,27.625,142.5,2100.0,0.0,0.875,4.156493715,0.5533560492066917,0.10986326999999951,-3057.0,28.875,337.5,2100.0,0.0,0.375,1.567382652,4.397316058113637,-0.11352537900000037,3665.0,30.375,157.5,2100.0,0.0,0.0,4.50439407,4.40175868900686,-0.104980458,-2941.0,27.125,300.0,2100.0,0.0,0.5,3.179931315,0.5515167311543303,0.08789061600000014,0.9800000190734863,0.3400000035762787,101.12999725341797,0.01116943359375,-0.0211181640625,0.46649169921875,31.5,0.0,169.0,-0.1587677001953125,0.4683685302734375,Closing,0.0,0.0,-26331.0,0.0,0.0,0.0,0.0,0.0,
1.6695090000000055,0.0,0.0,2867.0,30.0,337.5,2100.0,0.0,0.5,4.229735895,0.5533560492066917,0.0,-2980.0,31.5,412.5,2100.0,0.0,0.5,1.494140472,4.397316058113637,0.0,3724.0,37.125,307.5,2100.0,0.0,0.0,4.438476108000001,4.40175868900686,0.0,-2863.0,31.625,427.5,2100.0,0.0,0.5,3.238525059,0.5515167311543303,0.0,1.2200000286102295,0.23999999463558197,98.91000366210938,0.1158447265625,0.1802978515625,0.87530517578125,31.5,0.0,142.0,-0.1589202880859375,0.468109130859375,Closing,0.0,0.0,-26331.0,0.0,0.0,0.0,0.0,0.0,
1.7031110000000045,0.0,0.0,2867.0,30.125,487.5,2100.0,0.0,0.375,4.257812064,0.5533560492066917,0.0646972589999999,-2980.0,32.5,450.0,2100.0,0.0,0.375,1.467285006,4.397316058113637,-0.0646972589999999,3724.0,38.125,397.5,2100.0,0.0,0.0,4.401855018,4.40175868900686,0.0,-2863.0,32.5,585.0,2100.0,0.0,0.25,3.2580563070000004,0.5515167311543303,0.0,1.1299999952316284,0.25,96.73999786376953,-0.08538818359375,-0.02935791015625,0.9786376953125,31.5,0.0,-37.0,-0.1590728759765625,0.4677276611328125,Closing,0.0,0.0,-26331.0,0.0,0.0,0.0,0.0,0.0,
1.7345599999999977,0.0,0.0,2867.0,28.625,810.0,2100.0,0.0,0.25,4.2883296390000005,0.5533560492066917,0.029296871999999752,-2980.0,34.75,660.0,2100.0,0.0,0.0,1.442870946,4.397316058113637,-0.03417968399999971,3724.0,37.0,607.5,2100.0,0.0,0.0,4.373778849,4.40175868900686,-0.03906249600000056,-2863.0,32.625,705.0,2100.0,0.0,0.25,3.2678219310000003,0.5515167311543303,0.01953124800000028,1.1799999475479126,0.23999999463558197,95.41000366210938,-0.0445556640625,-0.0809326171875,1.09326171875,31.5,0.0,-98.0,-0.1593017578125,0.4676971435546875,Closing,0.0,0.0,-26331.0,0.0,0.0,0.0,0.0,0.0,
1.7668990000000049,0.0,0.0,2867.0,27.125,960.0,2100.0,0.0,0.25,4.2956538570000005,0.5533560492066917,0.0,-2980.0,34.5,810.0,2100.0,0.0,0.0,1.414794777,4.397316058113637,0.0,3724.0,36.125,742.5,2100.0,0.0,0.0,4.3432612740000005,4.40175868900686,0.0,-2863.0,30.0,997.5,2100.0,0.0,0.25,3.277587555,0.5515167311543303,0.0,1.0399999618530273,0.33000001311302185,90.55000305175781,-0.005859375,0.11505126953125,0.9801025390625,31.5,0.0,97.0,-0.1609954833984375,0.467529296875,Closing,0.0,0.0,-26331.0,0.0,0.0,0.0,0.0,0.0,
1.7997079999999988,0.0,0.0,3070.0,24.0,1230.0,2100.0,0.0,0.25,4.298095263,0.5533560492066917,0.008544920999999484,-2796.0,30.625,1102.5,2100.0,0.0,0.0,1.386718608,4.397316058113637,-0.030517575000000186,3899.0,33.25,1042.5,2100.0,0.0,0.0,4.316405808,4.40175868900686,-0.040283198999999215,-2671.0,27.5,1147.5,2100.0,0.0,0.0,3.28369107,0.5515167311543303,0.009765623999999917,0.8799999952316284,0.4000000059604645,86.58000183105469,-0.142333984375,-0.14385986328125,0.86993408203125,31.5,0.0,-165.0,-0.16265869140625,0.467864990234375,Closing,0.0,0.0,-26331.0,0.0,0.0,0.0,0.0,0.0,
1.8325270000000018,0.0,0.0,3070.0,22.375,1357.5,2100.0,0.0,0.125,4.298095263,0.5533560492066917,0.004882811999999959,-2796.0,28.625,1237.5,2100.0,0.0,0.0,1.359863142,4.397316058113637,-0.02319335699999936,3899.0,30.375,1200.0,2100.0,0.0,0.0,4.305419481,4.40175868900686,-0.023193357000000248,-2671.0,23.625,1410.0,2100.0,0.0,0.0,3.292235991,0.5515167311543303,0.008544920999999928,0.9800000190734863,0.20999999344348907,82.0999984741211,-0.0826416015625,-0.03375244140625,1.4176025390625,31.5,0.0,-69.0,-0.1646881103515625,0.46856689453125,Closing,0.0,0.0,-26331.0,0.0,0.0,0.0,0.0,0.0,
1.8586670000000012,0.0,0.0,3070.0,19.625,1575.0,2100.0,0.0,0.125,4.302978075,0.5533560492066917,0.0,-2796.0,23.75,1522.5,2100.0,0.0,0.0,1.3220213490000001,4.397316058113637,0.0,3899.0,25.25,1470.0,2100.0,0.0,0.0,4.306640184,4.40175868900686,0.0,-2671.0,21.5,1537.5,2100.0,0.0,0.0,3.2958981,0.5515167311543303,0.0,0.8100000023841858,0.3799999952316284,77.13999938964844,-0.0618896484375,-0.249755859375,0.6865234375,31.5,0.0,-267.0,-0.16693115234375,0.4696044921875,Closing,0.0,0.0,-26331.0,0.0,0.0,0.0,0.0,0.0,
1.8930920000000042,0.0,0.0,3070.0,18.5,1672.5,2100.0,0.0,0.125,4.301757372,0.5533560492066917,0.006103515000000392,-2796.0,21.375,1642.5,2100.0,0.0,0.0,1.3159178340000002,4.397316058113637,-0.03906249599999967,3899.0,23.625,1582.5,2100.0,0.0,0.0,4.305419481,4.40175868900686,0.0,-2671.0,19.0,1642.5,2100.0,0.0,0.0,3.3129879420000004,0.5515167311543303,0.012207029999999897,0.8399999737739563,0.20999999344348907,71.79000091552734,-0.0369873046875,-0.1409912109375,1.5428466796875,31.5,0.0,-168.0,-0.1699371337890625,0.4701690673828125,Closing,0.0,0.0,-26331.0,0.0,0.0,0.0,0.0,0.0,
1.9268859999999985,0.0,0.0,3363.0,15.75,1822.5,2100.0,0.0,0.125,4.304198778,0.5533560492066917,0.0,-2499.0,16.25,1860.0,2100.0,0.0,0.0,1.30615221,4.397316058113637,0.0,4185.0,19.625,1770.0,2100.0,0.0,0.0,4.305419481,4.40175868900686,0.0,-2380.0,15.25,1822.5,2100.0,0.0,0.0,3.3203121600000003,0.5515167311543303,0.0,0.6700000166893005,0.47999998927116394,66.12000274658203,0.06146240234375,-0.08258056640625,0.61212158203125,31.5,0.0,-59.0,-0.17333984375,0.470123291015625,Closing,0.0,0.0,-26331.0,0.0,0.0,0.0,0.0,0.0,
1.9556640000000043,0.0,0.0,3363.0,14.625,1897.5,2100.0,0.0,0.125,4.302978075,0.5533560492066917,0.0,-2499.0,13.75,1950.0,2100.0,0.0,0.0,1.30615221,4.397316058113637,0.0,4185.0,18.0,1845.0,2100.0,0.0,0.0,4.322509323,4.40175868900686,0.0,-2380.0,13.125,1950.0,2100.0,0.0,0.0,3.3251949720000002,0.5515167311543303,0.0,0.7300000190734863,0.44999998807907104,60.130001068115234,-0.0377197265625,-0.142333984375,1.37042236328125,31.5,0.0,-162.0,-0.1769866943359375,0.4699554443359375,Closing,0.0,0.0,-26331.0,0.0,0.0,0.0,0.0,0.0,
1.9899750000000058,0.0,0.0,3363.0,12.25,2032.5,2064.131565726643,0.0,0.125,4.307860887,0.6038575820418912,0.0,-2499.0,11.125,2092.5,2236.800807874989,0.0,0.0,1.30615221,4.403373654418916,-0.0012207029999995456,4185.0,15.625,1972.5,1963.3407030371209,0.0,0.0,4.306640184,4.394850379412196,0.0,-2380.0,11.875,1995.0,2144.142124413253,0.0,0.0,3.336181299,0.5030637277823616,0.004882811999999959,0.6700000166893005,0.6000000238418579,53.90999984741211,0.05902099609375,-0.0479736328125,0.9327392578125,31.5,0.0,-18.0,-0.1807861328125,0.4698486328125,Closing,0.0,0.0,-26331.0,0.0,0.0,0.0,0.0,0.0,
2.016702000000005,0.0,0.0,3363.0,11.0,2092.5,2269.79116013045,0.0,0.125,4.307860887,1.102277248000778,0.0,-2137.0,10.375,2152.5,3594.0776190860533,0.0,0.0,1.301269398,4.420424845844454,0.0,4510.0,12.375,2017.5,616.5502355726793,0.0,0.0,4.306640184,4.266267207373432,0.0,-2041.0,14.625,2077.5,2854.045587301238,0.0,0.0,3.339843408,0.13086372648926847,0.0,0.5699999928474426,0.5299999713897705,44.209999084472656,0.0113525390625,0.08770751953125,1.38555908203125,31.5,0.0,50.0,-0.186859130859375,0.4695281982421875,Closing,0.0,0.0,-26331.0,0.0,0.0,0.0,0.0,0.0,
2.052144,0.0,0.0,3713.0,10.25,2197.5,2506.1515834457537,0.0,2.625,4.422606969,1.679550111526483,0.019531247999999835,-2137.0,23.75,2280.0,3578.970769363345,0.0,0.0,1.300048695,4.446952439860724,-0.003662109000000413,4510.0,4.875,2010.0,-1553.9243629339317,0.0,0.0,4.300536669,4.516524922440797,0.0,-2041.0,18.5,2130.0,2990.471022175139,0.0,0.0,3.339843408,4.729158578720538,0.0,0.8399999737739563,0.6700000166893005,37.61000061035156,-0.12469482421875,-0.13323974609375,0.9820556640625,31.5,0.0,-198.0,-0.1908416748046875,0.4700469970703125,Closing,0.0,0.0,-26331.0,0.0,0.0,0.0,0.0,0.0,
2.0894370000000055,0.0,0.0,3713.0,10.75,2227.5,-2666.538600343153,0.0,3.625,4.595946795000001,4.49542198441272,0.12084959700000031,-2137.0,30.25,2475.0,2964.288081239125,0.0,0.0,1.286620962,4.534039850231451,-0.004882811999999959,4510.0,14.625,1635.0,-2513.06915068302,0.0,0.0,4.300536669,4.5635169011065155,-0.004882811999999959,-2041.0,23.5,2265.0,2827.0288780928627,0.0,1.125,3.233642247,4.604049527600366,0.0,1.0299999713897705,0.5600000023841858,31.09000015258789,-0.0281982421875,0.179931640625,0.93890380859375,31.5,0.0,52.0,-0.19500732421875,0.4718017578125,Closing,0.0,0.0,-26331.0,0.0,0.0,0.0,0.0,0.0,
2.1179349999999975,0.0,0.0,3713.0,25.125,2130.0,-3043.4181820538165,0.0,2.25,4.824218256,4.621959654506971,0.0,-2137.0,25.875,2550.0,3043.4181820538165,0.0,0.0,1.28173815,4.607993217194801,0.0,4510.0,28.25,1282.5,-3043.4181820538165,0.0,0.0,4.316405808,4.612648696298858,0.0,-2041.0,23.75,2317.5,3043.4181820538165,0.0,1.125,3.046874688,4.606596573463585,0.0,1.4900000095367432,0.4099999964237213,21.829999923706055,-0.43212890625,0.32373046875,0.783203125,31.520000457763672,0.0,-293.0,-0.2018585205078125,0.4772491455078125,Closing,0.0,0.0,-26331.0,0.0,0.0,0.0,0.0,0.0,
2.1533329999999986,0.0,0.0,3873.0,40.25,1290.0,2660.212689357601,0.0,10.375,4.843749504,2.011054699794757,0.2160644309999995,-1724.0,17.125,2580.0,2660.212689357601,0.0,0.0,1.286620962,4.479477781886432,0.0,4550.0,43.625,427.5,-2660.212689357601,0.0,0.0,4.384765176,4.4840034211892075,0.0,-1679.0,25.25,2280.0,2660.212689357601,0.0,0.375,2.9431149330000004,4.4781200900956,0.0,1.4299999475479126,-0.1599999964237213,16.329999923706055,-0.549560546875,-0.04376220703125,0.937255859375,31.520000457763672,0.0,-543.0,-0.2088165283203125,0.4824676513671875,Closing,0.0,0.0,-26331.0,0.0,0.0,0.0,0.0,0.0,
2.1889379999999945,0.0,0.0,3873.0,34.5,780.0,1499.8175530042263,0.0,10.875,4.681396005,1.9191249867660511,-0.09033202200000012,-1724.0,16.75,2535.0,1499.8175530042263,0.0,0.125,1.286620962,4.387825858079208,0.0,4550.0,35.5,-7.5,-1499.8175530042263,0.0,0.0,4.420165563,4.392258900974823,0.06835936800000031,-1679.0,24.125,2145.0,1499.8175530042263,0.0,0.375,2.778320028,4.386495945210523,-0.13427732999999975,1.25,-0.3799999952316284,11.350000381469727,-0.39276123046875,0.15496826171875,1.04150390625,31.520000457763672,0.0,-352.0,-0.2181549072265625,0.4871368408203125,Closing,0.0,0.0,-26331.0,0.0,0.0,0.0,0.0,0.0,
2.216296000000002,0.0,0.0,3873.0,7.0,532.5,0.0,0.0,10.75,4.831542474,1.9191249867660511,-0.0927734280000001,-1724.0,8.375,2407.5,0.0,0.0,0.0,1.286620962,4.387825858079208,0.0,4550.0,11.0,-682.5,0.0,0.0,0.0,4.428710484000001,4.392258900974823,0.030517574999999297,-1679.0,17.875,2040.0,0.0,0.0,0.375,2.604980202,4.386495945210523,4.809560561,2.0,-0.6100000143051147,6.739999771118164,-0.32342529296875,0.300048828125,1.0579833984375,31.520000457763672,0.0,-278.0,-0.2289886474609375,0.49273681640625,Closing,0.0,0.0,-26331.0,0.0,0.0,0.0,0.0,0.0,
2.251319000000003,0.0,0.0,3873.0,1.75,907.5,0.0,0.0,10.125,0.13549803300000002,1.9191249867660511,-0.0927734280000001,-1724.0,3.0,2355.0,0.0,0.0,0.0,1.286620962,4.387825858079208,0.0,4550.0,5.125,-712.5,0.0,0.0,0.0,4.416503454,4.392258900974823,0.030517574999999297,-1679.0,3.0,1657.5,0.0,0.0,0.0,2.512206774,4.386495945210523,-0.16845701400000035,1.8300000429153442,-0.5299999713897705,2.6500000953674316,-0.158203125,0.0428466796875,0.8353271484375,31.520000457763672,0.0,-149.0,-0.24041748046875,0.499176025390625,Closing,0.0,0.0,-26331.0,0.0,0.0,0.0,0.0,0.0,
2.2868959999999934,0.0,0.0,4151.0,0.0,1755.0,0.0,0.0,1.25,0.393066366,1.9191249867660511,0.24902341200000055,-1378.0,0.0,2182.5,0.0,0.0,0.0,1.285400259,4.387825858079208,0.0,4510.0,0.0,-217.5,0.0,0.0,0.0,4.401855018,4.392258900974823,0.0,-1459.0,0.0,1410.0,0.0,0.0,0.0,2.414550534,4.386495945210523,-0.16845701400000035,2.25,-0.019999999552965164,-1.0099999904632568,-0.2059326171875,-0.08984375,0.95684814453125,31.520000457763672,0.0,-203.0,-0.2515869140625,0.50665283203125,Closing,0.0,0.0,-26331.0,0.0,0.0,0.0,0.0,0.0,
2.3155219999999974,0.0,0.0,4151.0,0.0,1785.0,-236.25,0.0,0.875,0.643310481,2.4465625564760636,0.0,-1378.0,0.0,2055.0,-236.25,0.0,0.625,1.2902830710000002,4.913669639806614,0.0,4510.0,0.0,247.5,236.25,0.0,0.125,4.3981929090000005,4.918633945363098,0.0,-1459.0,2.625,1020.0,-236.25,0.0,0.0,2.3767087410000003,4.91218034813967,0.0,1.5199999809265137,-0.36000001430511475,-4.949999809265137,0.21331787109375,-0.2069091796875,0.69464111328125,31.520000457763672,0.0,236.0,-0.270233154296875,0.5165252685546875,Closing,0.0,0.0,-26331.0,0.0,0.0,0.0,0.0,0.0,
2.3500169999999927,0.0,0.0,4151.0,14.375,1095.0,-2027.8125,0.0,0.625,0.91552725,2.413745002630022,0.27465817500000034,-1378.0,16.875,1672.5,-2027.8125,0.0,1.5,1.3745115780000001,4.880951252622074,0.019531247999999835,4510.0,0.0,247.5,2027.8125,0.0,0.75,4.429931187,4.885882502624724,0.0024414059999999793,-1459.0,9.5,892.5,-2027.8125,0.0,0.875,2.395019286,4.879471877621279,-0.03417968399999971,1.2799999713897705,0.25999999046325684,-6.519999980926514,0.1771240234375,-0.0587158203125,1.1802978515625,31.520000457763672,0.0,180.0,-0.2817840576171875,0.5211944580078125,Closing,0.0,0.0,-26331.0,0.0,0.0,0.0,0.0,0.0,
2.3827700000000043,0.0,0.0,4140.0,27.75,660.0,-2441.2499999999995,0.0,0.375,1.053466689,2.392096444707447,0.19531247999999968,-1358.0,31.0,1290.0,-2441.2499999999995,0.0,1.5,1.4770506300000001,4.8593681113733185,0.10131834899999959,4526.0,10.75,60.0,2441.2499999999995,0.0,0.75,4.508056179,4.864277555818028,0.03173827800000062,-1373.0,55.5,652.5,-2441.2499999999995,0.0,0.875,2.414550534,4.857895278039906,0.0183105449999994,0.699999988079071,0.41999998688697815,-7.420000076293945,0.8275146484375,-0.281982421875,0.9254150390625,31.520000457763672,0.0,851.0,-0.2918548583984375,0.5251312255859375,Closing,0.0,0.0,-26331.0,0.0,0.0,0.0,0.0,0.0,
2.4122060000000056,0.0,0.0,4140.0,40.0,-90.0,-2520.0,0.0,0.0,1.2121580790000002,2.379686443392436,0.0,-1358.0,42.5,67.5,-2520.0,0.0,0.125,1.572265464,4.846995610062281,0.0,4526.0,20.375,82.5,2520.0,0.0,0.125,4.56542922,4.851892554505666,0.0,-1373.0,77.625,495.0,-2520.0,0.0,0.0,2.452392327,4.845526526729266,0.0,-0.019999999552965164,1.590000033378601,-7.820000171661377,0.54150390625,-0.2547607421875,0.88873291015625,31.520000457763672,0.0,546.0,-0.298492431640625,0.528167724609375,Closing,0.0,0.0,-26331.0,0.0,0.0,0.0,0.0,0.0,
2.447187999999995,0.0,0.0,4140.0,36.375,-397.5,-2520.0,0.0,0.0,1.337890488,2.3741708865218696,0.15258787500000004,-1358.0,36.75,-592.5,-2520.0,0.0,0.0,1.624755693,4.841496719862355,0.08300780400000018,4526.0,36.875,232.5,2520.0,0.0,0.125,4.6057124190000005,4.84638810874886,0.05859374400000039,-1373.0,84.375,187.5,-2520.0,0.0,0.875,2.4816891990000003,4.8400293031964035,0.03173827799999884,-0.7900000214576721,2.049999952316284,-8.270000457763672,0.50018310546875,-0.54925537109375,0.96124267578125,31.520000457763672,0.0,537.0,-0.30224609375,0.52911376953125,Closing,0.0,0.0,-26331.0,0.0,0.0,0.0,0.0,0.0,
2.474875,0.0,0.0,4140.0,33.25,-862.5,-2520.0,0.0,0.125,1.380615093,2.367965882576837,0.0,-1358.0,27.875,-1492.5,-2520.0,0.0,0.0,1.64794905,4.835310465929243,0.0,4526.0,40.5,337.5,2520.0,0.0,0.125,4.630126479,4.8401956048117745,0.0,-1373.0,82.875,90.0,-2520.0,0.0,0.875,2.521972398,4.833844924264484,0.0,-1.2899999618530273,2.7200000286102295,-8.789999961853027,0.51605224609375,-0.30120849609375,1.155029296875,31.520000457763672,0.0,496.0,-0.3028411865234375,0.5273895263671875,Closing,0.0,0.0,-26331.0,0.0,0.0,0.0,0.0,0.0,
2.5078089999999937,0.0,0.0,3958.0,33.5,-997.5,-2520.0,0.0,0.125,1.431884619,2.3570726608806187,0.06103514999999993,-1570.0,27.875,-1440.0,-2520.0,0.0,0.0,1.652831862,4.8244501608981025,0.0,4631.0,44.25,577.5,2520.0,0.0,0.0,4.638671400000001,4.8293243275589415,0.0,-1411.0,71.75,-135.0,-2520.0,0.0,0.25,2.565917706,4.822987910899851,0.0,-1.6100000143051147,3.630000114440918,-9.609999656677246,0.60504150390625,-0.00360107421875,0.66888427734375,31.520000457763672,0.0,550.0,-0.298065185546875,0.522735595703125,Closing,0.0,0.0,-26331.0,0.0,0.0,0.0,0.0,0.0,
2.539273000000001,0.0,0.0,3958.0,29.5,-1170.0,-2520.0000000000005,0.0,0.125,1.41601548,2.349488782511817,0.019531247999999835,-1570.0,31.625,-1282.5,-2520.0000000000005,0.0,0.0,1.652831862,4.816889199164178,0.003662108999999525,4631.0,45.75,720.0,2520.0000000000005,0.0,0.0,4.647216321,4.821755726946725,0.009765623999999917,-1411.0,62.25,-502.5,-2520.0000000000005,0.0,0.0,2.60009739,4.815429240829415,0.035400386999999256,-1.5800000429153442,4.130000114440918,-10.130000114440918,0.59844970703125,0.0313720703125,1.073486328125,31.520000457763672,0.0,500.0,-0.2918701171875,0.5193939208984375,Closing,0.0,0.0,-26331.0,0.0,0.0,0.0,0.0,0.0,
2.5781100000000006,0.0,0.0,3958.0,21.875,-1492.5,-2519.9999999999995,0.0,0.125,1.3964842320000002,2.3423185539775426,0.0,-1570.0,37.5,-1095.0,-2519.9999999999995,0.0,0.0,1.6577146740000002,4.8097406373156435,0.0,4631.0,44.5,1035.0,2519.9999999999995,0.0,0.0,4.654540539,4.81459994286961,0.0,-1411.0,60.625,-697.5,-2519.9999999999995,0.0,0.0,2.6330563710000003,4.808282845649455,0.0,-1.600000023841858,4.599999904632568,-10.619999885559082,0.15850830078125,0.00543212890625,0.97784423828125,31.520000457763672,0.0,72.0,-0.2833404541015625,0.5167236328125,Closing,0.0,0.0,-26331.0,0.0,0.0,0.0,0.0,0.0,
2.6089949999999953,0.0,0.0,3958.0,19.875,-1732.5,-2519.9999999999995,0.0,0.125,1.363525251,2.335562001578013,0.0,-1570.0,37.625,-1380.0,-2519.9999999999995,0.0,0.0,1.6577146740000002,4.803004501573245,0.0,4631.0,41.375,1320.0,2519.9999999999995,0.0,0.0,4.6533198360000005,4.807857001574834,0.0,-1411.0,56.375,-1020.0,-2519.9999999999995,0.0,0.0,2.6464841040000002,4.801548751572768,0.0,-1.6699999570846558,5.099999904632568,-11.140000343322754,0.8858642578125,-0.1334228515625,0.97357177734375,31.479999542236328,0.0,800.0,-0.273040771484375,0.514129638671875,Closing,0.0,0.0,-26331.0,0.0,0.0,0.0,0.0,0.0,
2.6409639999999928,0.0,0.0,3612.0,16.75,-2122.5,-2520.0,0.0,0.125,1.339111191,2.3283917730437387,-0.025634762999999783,-1830.0,38.5,-1582.5,-2520.0,0.0,0.0,1.6601560800000001,4.79585593972471,-0.0012207029999995456,4868.0,39.75,1440.0,2520.0,0.0,0.0,4.645995618000001,4.8007012174977195,0.0,-1603.0,53.75,-1147.5,-2520.0,0.0,0.0,2.6403805890000003,4.7944023563928075,0.012207029999999897,-1.6200000047683716,5.5,-11.640000343322754,0.39813232421875,0.0303955078125,1.08355712890625,31.479999542236328,0.0,273.0,-0.2600555419921875,0.51226806640625,Closing,0.0,0.0,-26331.0,0.0,0.0,0.0,0.0,0.0,
2.670619000000006,0.0,0.0,3612.0,15.5,-2212.5,-2520.0,0.0,0.125,1.313476428,2.318325890466902,0.0,-1830.0,37.5,-1762.5,-2520.0,0.0,0.0,1.6601560800000001,4.785820473795467,0.0,4868.0,36.25,1672.5,2520.0,0.0,0.0,4.6606440540000005,4.790655612685946,0.0,-1603.0,49.5,-1380.0,-2520.0,0.0,0.0,2.651366916,4.784369932128324,0.0,-1.9299999475479126,5.960000038146973,-12.369999885559082,0.57257080078125,0.1195068359375,1.02606201171875,31.479999542236328,0.0,418.0,-0.2374114990234375,0.5103302001953125,Closing,0.0,0.0,-26331.0,0.0,0.0,0.0,0.0,0.0,
2.7054330000000046,0.0,0.0,3612.0,15.625,-2197.5,-2520.0,0.0,0.125,1.304931507,2.311431446022458,-0.021972653999999814,-1830.0,32.375,-2002.5,-2520.0,0.0,0.0,1.6625974860000001,4.778946862684355,0.0012207029999995456,4868.0,34.25,1785.0,2520.0,0.0,0.0,4.664306163,4.78377505713039,0.003662108999999525,-1603.0,48.0,-1485.0,-2520.0,0.0,0.0,2.652587619,4.7774984043505455,0.0,-1.8600000143051147,6.230000019073486,-12.850000381469727,0.25067138671875,0.03936767578125,1.30963134765625,31.479999542236328,0.0,85.0,-0.2203216552734375,0.5094451904296875,Closing,0.0,0.0,-26331.0,0.0,0.0,0.0,0.0,0.0,
2.734880000000005,0.0,0.0,3612.0,16.25,-2152.5,-2520.0,0.0,0.125,1.2951658830000001,2.3048127725177343,-0.015869138999999866,-1830.0,32.125,-2055.0,-2520.0,0.0,0.0,1.6613767830000001,4.7723481892002955,-0.0012207029999995456,4868.0,30.125,1987.5,2520.0,0.0,0.0,4.6630854600000005,4.777169716972775,0.004882811999999959,-1895.0,43.875,-1695.0,-2520.0,0.0,0.0,2.652587619,4.770901730868552,0.0,-2.049999952316284,6.619999885559082,-13.289999961853027,0.36334228515625,-0.02264404296875,0.53009033203125,31.479999542236328,0.0,292.0,-0.2023162841796875,0.508544921875,Closing,0.0,0.0,-26331.0,0.0,0.0,0.0,0.0,0.0,
2.7696059999999996,0.0,0.0,3267.0,17.75,-2122.5,-2520.0,0.0,0.125,1.286620962,2.298745667192671,0.0,-2185.0,28.75,-2152.5,-2520.0,0.0,0.0,1.6625974860000001,4.766299417191082,0.0,5205.0,28.0,2085.0,2520.0,0.0,0.0,4.665526866,4.771114833858278,0.0,-1895.0,42.625,-1800.0,-2520.0,0.0,0.0,2.656249728,4.764854792190922,0.0,-2.049999952316284,6.789999961853027,-13.770000457763672,0.365966796875,0.04290771484375,1.02642822265625,31.479999542236328,0.0,215.0,-0.1832275390625,0.507659912109375,Closing,0.0,0.0,-26331.0,0.0,0.0,0.0,0.0,0.0,
2.8001919999999956,0.0,0.0,3267.0,18.125,-2152.5,-2520.0,0.0,0.125,1.275634635,2.292126993687948,-0.010986327000000351,-2185.0,27.875,-2205.0,-2520.0,0.0,0.0,1.6625974860000001,4.759700743707021,0.0012207029999995456,5205.0,23.875,2250.0,2520.0,0.0,0.0,4.664306163,4.764509493700663,0.0,-1895.0,40.0,-1995.0,-2520.0,0.0,0.0,2.657470431,4.758258118708929,0.0,-1.9299999475479126,6.860000133514404,-14.229999542236328,0.19964599609375,0.0731201171875,1.46978759765625,31.479999542236328,0.0,-8.0,-0.163116455078125,0.5071563720703125,Closing,0.0,0.0,-26331.0,0.0,0.0,0.0,0.0,0.0,
2.834217000000004,0.0,0.0,3267.0,17.875,-2265.0,-2520.0000000000005,0.0,0.125,1.2658690110000002,2.2828884502304927,-0.008544920999999484,-2185.0,26.0,-2317.5,-2520.0000000000005,0.0,0.0,1.6625974860000001,4.750490116879675,-0.0012207029999995456,5205.0,22.125,2325.0,2520.0000000000005,0.0,0.0,4.677733896,4.755289561329947,0.0,-1895.0,38.25,-2085.0,-2520.0000000000005,0.0,0.0,2.655029025,4.749050283544594,0.0,-2.2699999809265137,7.340000152587891,-14.649999618530273,0.3775634765625,-0.02716064453125,0.12646484375,31.479999542236328,0.0,351.0,-0.142333984375,0.5069732666015625,Closing,0.0,0.0,-26331.0,0.0,0.0,0.0,0.0,0.0,
2.8670420000000014,0.0,0.0,2875.0,15.875,-2415.0,-2520.0,0.0,0.125,1.248779169,2.276683439710405,0.0,-2583.0,22.25,-2482.5,-2520.0,0.0,0.0,1.6625974860000001,4.744303856391377,0.0,5606.0,18.5,2475.0,2520.0,0.0,0.0,4.661864757,4.749097050831053,0.0,-2260.0,37.25,-2250.0,-2520.0,0.0,0.0,2.656249728,4.742865898059474,0.0,-1.8899999856948853,7.349999904632568,-15.350000381469727,0.3167724609375,-0.1185302734375,1.46783447265625,31.479999542236328,0.0,139.0,-0.1094207763671875,0.5070648193359375,Closing,0.0,0.0,-26331.0,0.0,0.0,0.0,0.0,0.0,
2.899267999999996,0.0,0.0,2875.0,14.75,-2482.5,-2520.0,0.0,0.125,1.2414549510000001,2.2703405502955123,-0.012207029999999897,-2583.0,21.25,-2542.5,-2520.0,0.0,0.0,1.667480298,4.737980133644739,0.0012207029999995456,5606.0,17.25,2535.0,2520.0,0.0,0.0,4.6630854600000005,4.742766939194997,0.0,-2260.0,36.625,-2400.0,-2520.0,0.0,0.0,2.658691134,4.736544091979662,0.0,-2.2200000286102295,7.679999828338623,-15.699999809265137,0.158447265625,-0.23687744140625,0.50341796875,31.479999542236328,0.0,144.0,-0.0867919921875,0.5073089599609375,Closing,0.0,0.0,-26331.0,0.0,0.0,0.0,0.0,0.0,
2.9343110000000014,0.0,0.0,2875.0,13.0,-2595.0,-2520.0,0.0,0.125,1.231689327,2.2627566719267107,-0.01586913900000031,-2583.0,17.0,-2655.0,-2520.0,0.0,0.0,1.667480298,4.730419171910816,0.003662109000000413,5606.0,14.75,2625.0,2520.0,0.0,0.0,4.661864757,4.735198338582781,0.0,-2260.0,34.375,-2467.5,-2520.0,0.0,0.0,2.657470431,4.728985421909226,0.0,-2.2799999713897705,7.820000171661377,-15.899999618530273,0.30535888671875,0.03314208984375,0.428955078125,31.479999542236328,0.0,220.0,-0.07513427734375,0.507354736328125,Closing,0.0,0.0,-26331.0,0.0,0.0,0.0,0.0,0.0,
2.980959999999992,0.0,0.0,2875.0,11.0,-2670.0,-2520.0,0.0,0.125,1.207275267,2.2627566719267107,0.0,-2583.0,14.75,-2737.5,-2520.0,0.0,0.0,1.667480298,4.730419171910816,0.0,5606.0,12.125,2685.0,2520.0,0.0,0.0,4.661864757,4.735198338582781,0.0,-2692.0,33.75,-2595.0,-2520.0,0.0,0.0,2.655029025,4.728985421909226,0.0,-2.1600000858306885,7.539999961853027,-16.440000534057617,0.22039794921875,-0.01397705078125,1.51458740234375,31.479999542236328,0.0,6.0,-0.0392913818359375,0.5077667236328125,Closing,0.0,0.0,-26331.0,0.0,0.0,0.0,0.0,0.0,
3.0072880000000004,0.0,0.0,2440.0,10.125,-2700.0,-2519.9999999999995,0.0,0.125,1.202392455,2.255310659302606,-0.021972653999999814,-3026.0,14.25,-2767.5,-2519.9999999999995,0.0,0.0,1.667480298,4.722995659324858,0.0,6045.0,11.375,2722.5,2519.9999999999995,0.0,0.0,4.661864757,4.727767325984107,0.0,-2692.0,32.0,-2715.0,-2519.9999999999995,0.0,0.0,2.66113254,4.721564159327083,0.0,-2.299999952316284,7.849999904632568,-16.719999313354492,0.17510986328125,-0.02008056640625,0.22998046875,31.479999542236328,0.0,138.0,-0.014801025390625,0.5084381103515625,Closing,0.0,0.0,-26331.0,0.0,0.0,0.0,0.0,0.0,
3.0352510000000037,0.0,0.0,2440.0,8.375,-2775.0,-2520.0,0.0,0.0,1.1877440190000002,2.2514497872458565,-0.010986326999999907,-3026.0,11.25,-2812.5,-2520.0,0.0,0.0,1.667480298,4.719146453883913,0.0,6045.0,9.5,2797.5,2520.0,0.0,0.0,4.661864757,4.723914231671228,0.0,-2692.0,32.25,-2767.5,-2520.0,0.0,0.0,2.657470431,4.717716120547719,0.003662108999999525,-2.0299999713897705,7.710000038146973,-17.059999465942383,0.14727783203125,0.081298828125,1.53057861328125,31.479999542236328,0.0,-96.0,0.0101165771484375,0.5091705322265625,Closing,0.0,0.0,-26331.0,0.0,0.0,0.0,0.0,0.0,
3.0670359999999928,0.0,0.0,2440.0,7.5,-2797.5,-2520.0000000000005,0.0,0.0,1.195068237,2.246761562919617,0.0,-3026.0,10.375,-2827.5,-2520.0000000000005,0.0,0.0,1.667480298,4.714472396230698,0.0,6045.0,8.625,2820.0,2520.0000000000005,0.0,0.0,4.665526866,4.71923545179367,0.0,-2692.0,32.0,-2820.0,-2520.0000000000005,0.0,0.0,2.666015352,4.713043479561805,0.0,-2.0799999237060547,7.71999979019165,-17.239999771118164,0.06781005859375,0.0150146484375,0.9825439453125,31.479999542236328,0.0,-76.0,0.0345306396484375,0.5103759765625,Closing,0.0,0.0,-26331.0,0.0,0.0,0.0,0.0,0.0,
3.096301999999996,0.0,0.0,2440.0,6.75,-2820.0,-2520.0,0.0,0.0,1.174316286,2.244279558711582,-0.010986326999999907,-3026.0,8.375,-2872.5,-2520.0,0.0,0.0,1.667480298,4.711997892035378,0.0,6045.0,7.125,2835.0,2520.0,0.0,0.0,4.6630854600000005,4.7167584475941124,0.0,-3167.0,30.625,-2917.5,-2520.0,0.0,0.0,2.670898164,4.710569725367758,0.0012207029999995456,-2.190000057220459,7.889999866485596,-17.40999984741211,0.095947265625,-0.10723876953125,0.70599365234375,31.479999542236328,0.0,21.0,0.0587158203125,0.5117950439453125,Closing,0.0,0.0,-26331.0,0.0,0.0,0.0,0.0,0.0,
3.128853999999992,0.0,0.0,1981.0,5.375,-2857.5,-2537.244464504012,0.0,0.0,1.1645506620000001,2.334098506082578,0.0,-3492.0,7.375,-2902.5,-2537.244464504012,0.0,0.0,1.67236311,4.801545428405051,0.0,6499.0,6.625,2835.0,2537.244464504012,0.0,0.0,4.670409678,4.80639645429756,0.0,-3167.0,30.625,-2962.5,-2537.244464504012,0.0,0.0,2.674560273,4.800090120637298,0.0,-1.9600000381469727,7.590000152587891,-17.5,0.17181396484375,0.12890625,1.41162109375,31.43000030517578,0.0,-68.0,0.08251953125,0.513519287109375,Closing,0.0,0.0,-26331.0,0.0,0.0,0.0,0.0,0.0,
3.154479999999996,0.0,0.0,1981.0,4.875,-2872.5,-3014.1813254182302,0.0,0.0,1.193847534,2.699518177657558,-0.006103514999999504,-3492.0,6.625,-2917.5,-3014.1813254182302,0.0,0.0,1.671142407,0.2168608906581894,0.003662109000000413,6499.0,6.5,2835.0,3014.1813254182302,0.0,0.0,4.672851084,0.21707998632464545,-0.0012207030000004337,-3167.0,30.0,-3007.5,-3014.1813254182302,0.0,0.0,2.680663788,0.2167951619582526,0.0,-2.109999895095825,7.650000095367432,-17.520000457763672,0.0885009765625,-0.0479736328125,0.67291259765625,31.43000030517578,0.0,4.0,0.10601806640625,0.5156097412109375,Closing,0.0,0.0,-26331.0,0.0,0.0,0.0,0.0,0.0,
3.1875169999999926,0.0,0.0,1981.0,7.0,-2902.5,-3271.50333669878,0.0,0.5,1.1596678500000002,2.8575567864443356,-0.003662109000000413,-3492.0,8.125,-2962.5,-3271.50333669878,0.0,0.625,1.6894529520000001,0.3744219452282464,0.0012207029999995456,6499.0,10.625,2842.5,3271.50333669878,0.0,0.625,4.72412061,0.3748002256336094,0.010986327000000351,-3167.0,28.625,-3090.0,-3271.50333669878,0.0,0.25,2.6892087090000003,0.37430846110663757,0.004882811999999959,-1.8600000143051147,7.46999979019165,-17.520000457763672,0.13494873046875,0.08184814453125,1.21051025390625,31.43000030517578,0.0,-58.0,0.1291351318359375,0.5178985595703125,Closing,0.0,0.0,-26331.0,0.0,0.0,0.0,0.0,0.0,
3.213304000000004,0.0,0.0,1981.0,9.125,-2932.5,-4200.0,0.0,0.875,1.173095583,3.0417786375473033,0.0,-3492.0,10.125,-2985.0,-3005.8225747600977,0.0,0.75,1.771240053,0.899097574282909,0.0,6499.0,13.75,2865.0,3373.288033279264,0.0,0.75,4.805907711000001,0.2617432262503507,0.0,-3673.0,27.125,-3112.5,-1665.5454080878471,0.0,0.5,2.767333701,0.5676596687662946,0.0,-1.9199999570846558,7.400000095367432,-17.489999771118164,0.2039794921875,-0.15093994140625,1.09429931640625,31.43000030517578,0.0,92.0,0.152313232421875,0.52032470703125,Closing,0.0,0.0,-26331.0,0.0,0.0,0.0,0.0,0.0,
3.245919999999998,0.0,0.0,1497.0,13.0,-2970.0,-4200.0,0.0,1.25,1.28173815,3.084937927345017,0.032958981000000165,-3986.0,10.125,-3030.0,-2960.653594911082,0.0,3.25,1.9238279280000001,1.0816927141534607,0.10009764600000004,6972.0,17.125,2955.0,3147.6860658553355,0.0,0.125,4.897460436,0.21148960765857022,0.08422850700000062,-3673.0,13.875,-3135.0,-1016.5614975198243,0.0,1.375,2.916259467,0.7579082257109457,0.08056639799999932,-1.899999976158142,7.699999809265137,-17.389999389648438,0.2186279296875,0.350830078125,0.515380859375,31.43000030517578,0.0,31.0,0.175689697265625,0.52349853515625,Closing,0.0,0.0,-26331.0,0.0,0.0,0.0,0.0,0.0,
3.271603000000003,0.0,0.0,1497.0,18.625,-3127.5,-4200.0,0.0,1.75,1.468505709,3.210829321934129,0.0,-3986.0,8.25,-3127.5,-3374.381097494298,0.0,3.75,2.16064431,1.3359594259409966,0.0,6972.0,15.625,3015.0,2676.1254240233225,0.0,0.125,0.04882812,0.2562502281179288,0.0,-3673.0,6.25,-3090.0,952.940226997912,0.0,1.375,3.037109064,4.07165420096063,0.0,-1.0299999713897705,7.420000076293945,-17.389999389648438,0.03228759765625,0.19720458984375,1.38165283203125,31.43000030517578,0.0,-205.0,0.19873046875,0.52886962890625,Closing,0.0,0.0,-26331.0,0.0,0.0,0.0,0.0,0.0,
3.306782999999996,0.0,0.0,1497.0,19.25,-3217.5,-4200.0,0.0,1.625,1.618652178,3.2466945799607356,0.15502928100000002,-3986.0,9.75,-3157.5,-3514.933304011555,0.0,2.625,2.348632572,1.3772509107870536,0.20263669799999917,6972.0,12.5,3045.0,2555.9392515873387,0.0,0.125,0.08544921,0.29299378138982407,0.09193995099999963,-3673.0,3.25,-2715.0,1116.9519190432643,0.0,9.75,2.9492184480000003,4.175238703988987,0.0,-0.4099999964237213,7.460000038146973,-17.440000534057617,0.28607177734375,0.4853515625,1.1639404296875,31.43000030517578,0.0,-20.0,0.2212066650390625,0.53631591796875,Closing,0.0,0.0,-26331.0,0.0,0.0,0.0,0.0,0.0,
3.335154999999999,0.0,0.0,1497.0,23.625,-3277.5,-4200.0,0.0,0.875,1.783447083,3.279365934417199,0.19287107400000014,-3986.0,16.25,-3157.5,-3644.4576153487046,0.0,1.125,2.5842282510000003,1.4120759477643234,0.2539062240000005,6972.0,5.875,2985.0,2447.148110928536,0.0,0.0,0.12573240900000002,0.3295983138536232,0.04638671399999961,-3673.0,5.375,-2362.5,1276.9515209647805,0.0,9.75,2.766112998,4.245553208890368,-0.09277342799999966,0.25999999046325684,6.929999828338623,-17.65999984741211,-0.5113525390625,0.5267333984375,0.17572021484375,31.43000030517578,0.0,-662.0,0.241241455078125,0.5472412109375,Closing,0.0,0.0,-26331.0,0.0,0.0,0.0,0.0,0.0,
3.365199999999997,0.0,0.0,995.0,26.5,-3210.0,-4200.0,0.0,0.875,1.9177244130000002,3.3266910778368928,0.0,-4476.0,24.75,-3052.5,-3832.2946346944473,0.0,1.25,2.8393551780000004,1.4581540503769312,0.0,7430.0,3.125,2812.5,2292.9942009270358,0.0,0.0,0.157470687,0.38896307289429466,0.0,-3949.0,8.625,-1545.0,1517.993600972306,0.0,1.125,2.550048567,4.319854814173172,0.0,1.5499999523162842,5.800000190734863,-18.829999923706055,-0.6905517578125,0.63775634765625,1.99993896484375,31.43000030517578,0.0,-1030.0,0.2630767822265625,0.5688323974609375,Closing,0.0,0.0,-26331.0,0.0,0.0,0.0,0.0,0.0,
3.3952419999999983,0.0,0.0,995.0,29.75,-2895.0,-3990.336567940806,0.0,1.0,1.9982908110000002,3.4830565863458487,0.13549803300000018,-4476.0,26.25,-3022.5,-4200.0,0.0,0.875,2.980956726,1.5803878559743363,0.25146481799999965,7430.0,2.5,2722.5,1770.3109448337198,0.0,0.0,0.18310545,0.6552524803785819,0.03173827799999973,-3949.0,10.25,-1185.0,2202.547369740875,0.0,0.375,2.4243161580000003,4.4469858778610805,-0.22949216399999983,1.5299999713897705,5.800000190734863,-19.309999465942383,-0.354248046875,0.485107421875,-0.070068359375,31.43000030517578,0.0,-486.0,0.2681121826171875,0.5767669677734375,Closing,0.0,0.0,-26331.0,0.0,0.0,0.0,0.0,0.0,
3.4299309999999967,0.0,0.0,995.0,29.375,-2745.0,-4024.0796407652656,0.0,1.0,2.03857401,3.4744402500940845,0.0,-4476.0,31.25,-2977.5,-4200.0,0.0,0.5,3.145751631,1.5719145690282803,0.0,7430.0,1.5,2647.5,1812.7477291586779,0.0,0.0,0.225830055,0.6414262572266599,0.0,-3949.0,16.625,-615.0,2175.508532354778,0.0,0.0,2.309570076,4.435332581434424,0.0,2.7699999809265137,3.869999885559082,-21.360000610351562,-0.61810302734375,0.5025634765625,1.99993896484375,31.43000030517578,0.0,-848.0,0.2779541015625,0.60235595703125,Closing,0.0,0.0,-26331.0,0.0,0.0,0.0,0.0,0.0,
3.4547590000000055,0.0,0.0,995.0,29.5,-2550.0,-3766.628946957206,0.0,1.125,2.086181427,3.5687722364511805,0.04394530799999963,-4476.0,37.625,-2797.5,-4200.0,0.0,0.25,3.240966465,1.6274493111387973,0.15136717200000005,7430.0,0.125,2490.0,1575.7008829236995,0.0,0.125,0.28442379900000003,0.8583426938174191,0.03906249600000056,-3958.0,17.625,-360.0,2436.255251075013,0.0,0.0,2.309570076,4.467010460740482,0.0,2.950000047683716,4.090000152587891,-22.1299991607666,-0.21295166015625,0.62652587890625,0.594970703125,31.43000030517578,0.0,-460.0,0.279052734375,0.6112213134765625,Closing,0.0,0.0,-26331.0,0.0,0.0,0.0,0.0,0.0,
3.489252999999997,0.0,0.0,594.0,30.25,-2512.5,-3788.456888453705,0.0,1.375,2.1166990020000003,3.5652816386873876,0.036621090000000134,-4909.0,37.75,-2692.5,-4200.0,0.0,0.125,3.3276363780000002,1.6202356313081612,0.10864256699999997,7807.0,0.125,2385.0,1611.2614981586632,0.0,0.125,0.38208003900000004,0.8560444009204077,0.08056639799999932,-3958.0,18.625,-127.5,2425.6458974417865,0.0,0.0,2.30712867,4.452898127635704,-0.003662108999999525,3.390000104904175,2.509999990463257,-24.780000686645508,-0.4095458984375,0.96435546875,1.560546875,31.43000030517578,0.0,-799.0,0.277099609375,0.63836669921875,Closing,0.0,0.0,-26331.0,0.0,0.0,0.0,0.0,0.0,
3.515301999999996,0.0,0.0,594.0,29.875,-2445.0,-2525.1920584135305,0.0,1.75,2.156982201,3.4781608732581937,0.0,-4909.0,44.875,-2392.5,-2545.9007468904765,0.0,0.125,3.38134731,1.500622536380248,0.0,7807.0,0.125,2160.0,1303.2508879759428,0.0,0.375,0.49926752700000004,0.7400505522082923,0.0,-3958.0,20.0,210.0,1342.9365428615038,0.0,0.0,2.314452888,4.239366685002533,0.0,3.940000057220459,1.8300000429153442,-26.760000228881836,-0.69647216796875,0.4935302734375,1.30572509765625,31.43000030517578,0.0,-840.0,0.2700042724609375,0.6575164794921875,Closing,0.0,0.0,-26331.0,0.0,0.0,0.0,0.0,0.0,
3.5492409999999945,0.0,0.0,594.0,30.0,-2407.5,-1097.0143012849608,0.0,1.375,2.16064431,3.420041048785153,0.04882812000000003,-4909.0,47.125,-2242.5,-1090.3824088991496,0.0,0.125,3.403319964,1.5271879502283647,0.05004882300000002,7807.0,0.375,2040.0,533.3436245848669,0.0,0.375,0.6079100940000001,0.5461221696174291,0.12329100300000029,-3958.0,14.875,300.0,519.5660134172606,0.0,0.0,2.305907967,4.3846052029976015,0.004882811999999959,4.010000228881836,1.090000033378601,-28.969999313354492,-0.50250244140625,0.2525634765625,-0.10504150390625,31.43000030517578,0.0,-563.0,0.2580413818359375,0.6762847900390625,Closing,0.0,0.0,-26331.0,0.0,0.0,0.0,0.0,0.0,
