Time,ClimberA1,ClimberA2,FRpos,FRCurrent,FRspeed,FRsetpoint,FRApos,FRACurrent,FREncpos,FREncSetpoint,FREncSpeed,FLpos,FLCurrent,FLspeed,FLsetpoint,FLApos,FLACurrent,FLEncpos,FLEncSetpoint,FLEncSpeed,BRpos,BRCurrent,BRspeed,BRsetpoint,BRApos,BRACurrent,BREncpos,BREncSetpoint,BREncSpeed,BLpos,BLCurrent,BLspeed,BLsetpoint,BLApos,BLACurrent,BLEncpos,BLEncSetpoint,BLEncSpeed,navx_Pitch,navx_Roll,navx_Yaw,navx_XAcc,navx_YAcc,navx_ZAcc,navx_Temp,navx_Bar,navx_Alt,navx_XDis,navx_YDis,GearPlacerState,ShootOutputV,ShootOutputCurrent,ShootEncPos,ShootEncVelocity,ShootSpeed,ShootSetpoint,CarouselSetpoint,CarouselCurrent,
0.20226900000008755,0.0,0.0,0.0,0.0,0.0,0.0,0.0,0.125,3.7292476650000004,0.0,0.0,19.0,0.0,0.0,-0.0,0.0,0.0,2.104491972,0.0,0.0,0.0,0.0,0.0,0.0,0.0,0.0,2.4279782670000003,0.0,0.0,42636.0,0.0,0.0,-0.0,0.0,0.0,2.5939938750000002,0.0,0.0,1.350000023841858,0.15000000596046448,-151.91000366210938,0.09429931640625,0.02215576171875,1.0484619140625,34.58000183105469,0.0,-79.0,0.0489349365234375,-0.00927734375,Waiting,0.0,0.0,-9260.0,0.0,0.0,0.0,0.0,0.0,
0.25560900000005493,0.0,0.0,0.0,0.0,0.0,0.0,0.0,0.0,3.7316890710000004,0.0,4.943248049000001,19.0,0.0,0.0,-0.0,0.0,0.0,2.104491972,0.0,0.0,0.0,0.0,0.0,0.0,0.0,0.0,2.4267575640000003,0.0,-0.004882811999999959,42636.0,0.0,0.0,-0.0,0.0,0.0,2.5927731720000002,0.0,0.06713866500000032,1.3600000143051147,0.15000000596046448,-151.91000366210938,0.02032470703125,0.014404296875,1.02203369140625,34.58000183105469,0.0,-10.0,0.0486907958984375,-0.009033203125,Waiting,0.0,0.0,-9260.0,0.0,0.0,0.0,0.0,0.0,
0.28617200000002047,0.0,0.0,0.0,0.0,0.0,0.0,0.0,0.0,3.7304683680000004,0.0,-0.0012207029999995456,19.0,0.0,0.0,-0.0,0.0,0.0,2.103271269,0.0,0.0,0.0,0.0,0.0,0.0,0.0,0.0,2.4267575640000003,0.0,0.0,42636.0,0.0,0.0,-0.0,0.0,0.0,2.595214578,0.0,0.0,1.350000023841858,0.1599999964237213,-151.91000366210938,-0.0836181640625,0.0208740234375,0.94384765625,34.58000183105469,0.0,76.0,0.0485687255859375,-0.008819580078125,Waiting,0.0,0.0,-9260.0,0.0,0.0,0.0,0.0,0.0,
0.3157760000000708,0.0,0.0,0.0,0.0,0.0,0.0,0.0,0.0,3.7316890710000004,0.0,-0.0012207029999995456,19.0,0.0,0.0,-0.0,0.0,0.0,2.104491972,0.0,0.0,0.0,0.0,0.0,0.0,0.0,0.0,2.4279782670000003,0.0,0.0,42636.0,0.0,0.0,-0.0,0.0,0.0,2.5891110630000003,0.0,0.0,1.340000033378601,0.17000000178813934,-151.91000366210938,-0.07159423828125,0.0250244140625,0.94720458984375,34.58000183105469,0.0,64.0,0.048858642578125,-0.0088043212890625,Waiting,0.0,0.0,-9260.0,0.0,0.0,0.0,0.0,0.0,
0.3504290000000037,0.0,0.0,0.0,0.0,0.0,0.0,0.0,0.0,3.7316890710000004,0.0,0.0012207029999995456,19.0,0.0,0.0,-0.0,0.0,0.0,2.104491972,0.0,0.0,0.0,0.0,0.0,0.0,0.0,0.0,2.4279782670000003,0.0,0.0,42636.0,0.0,0.0,-0.0,0.0,0.0,2.5915524690000002,0.0,0.0,1.350000023841858,0.15000000596046448,-151.91000366210938,0.08197021484375,0.031494140625,1.043212890625,34.58000183105469,0.0,-72.0,0.049407958984375,-0.009063720703125,Waiting,0.0,0.0,-9260.0,0.0,0.0,0.0,0.0,0.0,
0.3773960000000661,0.0,0.0,0.0,0.0,0.0,0.0,0.0,0.0,3.7304683680000004,0.0,0.0012207029999995456,19.0,0.0,0.0,-0.0,0.0,0.0,2.103271269,0.0,0.0,0.0,0.0,0.0,0.0,0.0,0.0,2.4267575640000003,0.0,0.0,42636.0,0.0,0.0,-0.0,0.0,0.0,2.5927731720000002,0.0,0.0,1.350000023841858,0.15000000596046448,-151.91000366210938,0.0606689453125,0.0087890625,1.0673828125,34.58000183105469,0.0,-43.0,0.0493621826171875,-0.0090789794921875,Waiting,0.0,0.0,-9260.0,0.0,0.0,0.0,0.0,0.0,
0.41431099999998694,0.0,0.0,0.0,0.0,0.0,0.0,0.0,0.0,3.7304683680000004,0.0,0.0,19.0,0.0,0.0,-0.0,0.0,0.0,2.103271269,0.0,0.0,0.0,0.0,0.0,0.0,0.0,0.0,2.4267575640000003,0.0,0.0,42636.0,0.0,0.0,-0.0,0.0,0.0,2.5927731720000002,0.0,0.0,1.3600000143051147,0.1599999964237213,-151.91000366210938,-0.03564453125,0.00372314453125,0.98309326171875,34.58000183105469,0.0,43.0,0.0491943359375,-0.0089263916015625,Waiting,0.0,0.0,-9260.0,0.0,0.0,0.0,0.0,0.0,
0.44770200000004845,0.0,0.0,0.0,0.0,0.0,0.0,0.0,0.0,3.7316890710000004,0.0,0.0,19.0,0.0,0.0,-0.0,0.0,0.0,2.104491972,0.0,0.0,0.0,0.0,0.0,0.0,0.0,0.0,2.4267575640000003,0.0,0.0,42636.0,0.0,0.0,-0.0,0.0,0.0,2.5891110630000003,0.0,0.0,1.350000023841858,0.17000000178813934,-151.91000366210938,-0.07928466796875,0.0120849609375,0.96099853515625,34.58000183105469,0.0,77.0,0.04931640625,-0.008941650390625,Waiting,0.0,0.0,-9260.0,0.0,0.0,0.0,0.0,0.0,
0.47559799999999813,0.0,0.0,0.0,0.0,0.0,0.0,0.0,0.0,3.7304683680000004,0.0,0.0,19.0,0.0,0.0,-0.0,0.0,0.0,2.103271269,0.0,0.0,0.0,0.0,0.0,0.0,0.0,0.0,2.4267575640000003,0.0,0.0,42636.0,0.0,0.0,-0.0,0.0,0.0,2.5891110630000003,0.0,-0.004882811999999959,1.340000033378601,0.1599999964237213,-151.91000366210938,0.006591796875,0.07061767578125,0.96044921875,34.58000183105469,0.0,-25.0,0.0496978759765625,-0.0091400146484375,Waiting,0.0,0.0,-9260.0,0.0,0.0,0.0,0.0,0.0,
0.5105550000000513,0.0,0.0,0.0,0.0,0.0,0.0,0.0,0.0,3.7304683680000004,0.0,0.0,19.0,0.0,0.0,-0.0,0.0,0.0,2.104491972,0.0,0.0,0.0,0.0,0.0,0.0,0.0,0.0,2.4279782670000003,0.0,0.0,42636.0,0.0,0.0,-0.0,0.0,0.0,2.5878903600000003,0.0,-0.004882811999999959,1.350000023841858,0.15000000596046448,-151.89999389648438,0.0816650390625,0.0189208984375,1.05975341796875,34.58000183105469,0.0,-66.0,0.0498809814453125,-0.0094146728515625,Waiting,0.0,0.0,-9260.0,0.0,0.0,0.0,0.0,0.0,
0.5359089999999851,0.0,0.0,0.0,0.0,0.0,0.0,0.0,0.0,3.7304683680000004,0.0,0.0,19.0,0.0,0.0,-0.0,0.0,0.0,2.103271269,0.0,0.0,0.0,0.0,0.0,0.0,0.0,0.0,2.4267575640000003,0.0,0.0,42636.0,0.0,0.0,-0.0,0.0,0.0,2.5866696570000003,0.0,0.0,1.3600000143051147,0.1599999964237213,-151.91000366210938,-0.02362060546875,0.01312255859375,0.98065185546875,34.58000183105469,0.0,28.0,0.0497283935546875,-0.009521484375,Waiting,0.0,0.0,-9260.0,0.0,0.0,0.0,0.0,0.0,
0.5715900000000839,0.0,0.0,0.0,0.0,0.0,0.0,0.0,0.0,3.7304683680000004,0.0,0.0,19.0,0.0,0.0,-0.0,0.0,0.0,2.103271269,0.0,0.0,0.0,0.0,0.0,0.0,0.0,0.0,2.4279782670000003,0.0,0.0,42636.0,0.0,0.0,-0.0,0.0,0.0,2.5891110630000003,0.0,0.0,1.3600000143051147,0.17000000178813934,-151.89999389648438,-0.063232421875,0.00177001953125,0.96295166015625,34.58000183105469,0.0,68.0,0.0498199462890625,-0.009552001953125,Waiting,0.0,0.0,-9260.0,0.0,0.0,0.0,0.0,0.0,
0.6020560000000987,0.0,0.0,0.0,0.0,0.0,0.0,0.0,0.0,3.7304683680000004,0.0,0.0,19.0,0.0,0.0,-0.0,0.0,0.0,2.103271269,0.0,0.0,0.0,0.0,0.0,0.0,0.0,0.0,2.4279782670000003,0.0,0.0,42636.0,0.0,0.0,-0.0,0.0,0.0,2.5891110630000003,0.0,0.0,1.340000033378601,0.1599999964237213,-151.89999389648438,0.015625,0.0787353515625,0.97100830078125,34.58000183105469,0.0,-37.0,0.0501556396484375,-0.009674072265625,Waiting,0.0,0.0,-9260.0,0.0,0.0,0.0,0.0,0.0,
0.6345210000000662,0.0,0.0,0.0,0.0,0.0,0.0,0.0,0.0,3.7304683680000004,0.0,0.0,19.0,0.0,0.0,-0.0,0.0,0.0,2.104491972,0.0,0.0,0.0,0.0,0.0,0.0,0.0,0.0,2.4279782670000003,0.0,0.0,42636.0,0.0,0.0,-0.0,0.0,0.0,2.5891110630000003,0.0,0.0,1.350000023841858,0.1599999964237213,-151.89999389648438,0.083251953125,0.00830078125,1.0721435546875,34.58000183105469,0.0,-62.0,0.0502471923828125,-0.0098419189453125,Waiting,0.0,0.0,-9260.0,0.0,0.0,0.0,0.0,0.0,
0.6699200000000419,0.0,0.0,0.0,0.0,0.0,0.0,0.0,0.0,3.7304683680000004,0.0,0.0,19.0,0.0,0.0,-0.0,0.0,0.0,2.104491972,0.0,0.0,0.0,0.0,0.0,0.0,0.0,0.0,2.4279782670000003,0.0,0.0,42636.0,0.0,0.0,-0.0,0.0,0.0,2.5891110630000003,0.0,0.0,1.3600000143051147,0.17000000178813934,-151.89999389648438,-0.00103759765625,0.0010986328125,1.00830078125,34.58000183105469,0.0,14.0,0.0501251220703125,-0.00982666015625,Waiting,0.0,0.0,-9260.0,0.0,0.0,0.0,0.0,0.0,
0.705560999999987,0.0,0.0,0.0,0.0,0.0,0.0,0.0,0.0,3.7304683680000004,0.0,0.0,19.0,0.0,0.0,-0.0,0.0,0.0,2.104491972,0.0,0.0,0.0,0.0,0.0,0.0,0.0,0.0,2.4279782670000003,0.0,0.0,42636.0,0.0,0.0,-0.0,0.0,0.0,2.5866696570000003,0.0,0.0,1.350000023841858,0.17000000178813934,-151.89999389648438,-0.06390380859375,0.0220947265625,0.9808349609375,34.58000183105469,0.0,59.0,0.0502777099609375,-0.00982666015625,Waiting,0.0,0.0,-9260.0,0.0,0.0,0.0,0.0,0.0,
0.7324570000000531,0.0,0.0,0.0,0.0,0.0,0.0,0.0,0.0,3.7304683680000004,0.0,0.0,19.0,0.0,0.0,-0.0,0.0,0.0,2.104491972,0.0,0.0,0.0,0.0,0.0,0.0,0.0,0.0,2.4279782670000003,0.0,0.0,42636.0,0.0,0.0,-0.0,0.0,0.0,2.5891110630000003,0.0,0.0,1.350000023841858,0.1599999964237213,-151.88999938964844,0.04388427734375,0.04888916015625,0.9833984375,34.58000183105469,0.0,-48.0,0.0505828857421875,-0.010040283203125,Waiting,0.0,0.0,-9260.0,0.0,0.0,0.0,0.0,0.0,
0.7678660000000381,0.0,0.0,0.0,0.0,0.0,0.0,0.0,0.0,3.7304683680000004,0.0,0.0,19.0,0.0,0.0,-0.0,0.0,0.0,2.104491972,0.0,0.0,0.0,0.0,0.0,0.0,0.0,0.0,2.4267575640000003,0.0,0.0,42636.0,0.0,0.0,-0.0,0.0,0.0,2.5891110630000003,0.0,0.0,1.350000023841858,0.1599999964237213,-151.88999938964844,0.0611572265625,0.02264404296875,1.09564208984375,34.58000183105469,0.0,-49.0,0.0506134033203125,-0.010162353515625,Waiting,0.0,0.0,-9260.0,0.0,0.0,0.0,0.0,0.0,
0.7962530000000261,0.0,0.0,0.0,0.0,0.0,0.0,0.0,0.0,3.7316890710000004,0.0,0.0,19.0,0.0,0.0,-0.0,0.0,0.0,2.104491972,0.0,0.0,0.0,0.0,0.0,0.0,0.0,0.0,2.4267575640000003,0.0,0.0,42636.0,0.0,0.0,-0.0,0.0,0.0,2.5891110630000003,0.0,0.0,1.350000023841858,0.17000000178813934,-151.88999938964844,-0.03778076171875,0.004150390625,0.96099853515625,34.58000183105469,0.0,44.0,0.0505218505859375,-0.0101776123046875,Waiting,0.0,0.0,-9260.0,0.0,0.0,0.0,0.0,0.0,
0.830329000000027,0.0,0.0,0.0,0.0,0.0,0.0,0.0,0.0,3.7304683680000004,0.0,0.0,19.0,0.0,0.0,-0.0,0.0,0.0,2.103271269,0.0,0.0,0.0,0.0,0.0,0.0,0.0,0.0,2.4267575640000003,0.0,0.0,42636.0,0.0,0.0,-0.0,0.0,0.0,2.5891110630000003,0.0,0.0,1.350000023841858,0.1599999964237213,-151.88999938964844,-0.0587158203125,0.00994873046875,0.97430419921875,34.58000183105469,0.0,60.0,0.050689697265625,-0.0101776123046875,Waiting,0.0,0.0,-9260.0,0.0,0.0,0.0,0.0,0.0,
0.859332000000053,0.0,0.0,0.0,0.0,0.0,0.0,0.0,0.0,3.7304683680000004,0.0,0.0,19.0,0.0,0.0,-0.0,0.0,0.0,2.103271269,0.0,0.0,0.0,0.0,0.0,0.0,0.0,0.0,2.4304196730000003,0.0,0.0,42636.0,0.0,0.0,-0.0,0.0,0.0,2.5891110630000003,0.0,0.0,1.340000033378601,0.1599999964237213,-151.88999938964844,-0.02252197265625,0.05938720703125,0.96405029296875,34.58000183105469,0.0,5.0,0.050872802734375,-0.010223388671875,Waiting,0.0,0.0,-9260.0,0.0,0.0,0.0,0.0,0.0,
0.8841530000000494,0.0,0.0,0.0,0.0,0.0,0.0,0.0,0.0,3.7292476650000004,0.0,0.0,19.0,0.0,0.0,-0.0,0.0,0.0,2.103271269,0.0,0.0,0.0,0.0,0.0,0.0,0.0,0.0,2.4267575640000003,0.0,0.0,42636.0,0.0,0.0,-0.0,0.0,0.0,2.5891110630000003,0.0,0.0,1.3600000143051147,0.1599999964237213,-151.8800048828125,0.0693359375,0.017822265625,1.09381103515625,34.58000183105469,0.0,-54.0,0.0510711669921875,-0.0103607177734375,Waiting,0.0,0.0,-9260.0,0.0,0.0,0.0,0.0,0.0,
0.9137449999999954,0.0,0.0,0.0,0.0,0.0,0.0,0.0,0.0,3.7304683680000004,0.0,-0.0012207029999995456,19.0,0.0,0.0,-0.0,0.0,0.0,2.103271269,0.0,0.0,0.0,0.0,0.0,0.0,0.0,0.0,2.4267575640000003,0.0,0.0,42636.0,0.0,0.0,-0.0,0.0,0.0,2.5878903600000003,0.0,0.0,1.3600000143051147,0.17000000178813934,-151.8800048828125,-0.03546142578125,0.01025390625,0.96905517578125,34.58000183105469,0.0,39.0,0.0509796142578125,-0.01031494140625,Waiting,0.0,0.0,-9260.0,0.0,0.0,0.0,0.0,0.0,
0.9503500000000932,0.0,0.0,0.0,0.0,0.0,0.0,0.0,0.0,3.7316890710000004,0.0,0.0012207029999995456,19.0,0.0,0.0,-0.0,0.0,0.0,2.104491972,0.0,0.0,0.0,0.0,0.0,0.0,0.0,0.0,2.4279782670000003,0.0,0.0,42636.0,0.0,0.0,-0.0,0.0,0.0,2.5866696570000003,0.0,0.0,1.3600000143051147,0.17000000178813934,-151.8800048828125,-0.0625,0.0113525390625,0.966552734375,34.58000183105469,0.0,63.0,0.0511322021484375,-0.010345458984375,Waiting,0.0,0.0,-9260.0,0.0,0.0,0.0,0.0,0.0,
0.9802730000000447,0.0,0.0,0.0,0.0,0.0,0.0,0.0,0.0,3.7304683680000004,0.0,0.0012207029999995456,19.0,0.0,0.0,-0.0,0.0,0.0,2.104491972,0.0,0.0,0.0,0.0,0.0,0.0,0.0,0.0,2.4267575640000003,0.0,0.0,42636.0,0.0,0.0,-0.0,0.0,0.0,2.5891110630000003,0.0,0.0,1.3600000143051147,0.1599999964237213,-151.8800048828125,0.03662109375,0.05078125,0.9793701171875,34.58000183105469,0.0,-42.0,0.0514373779296875,-0.010528564453125,Waiting,0.0,0.0,-9260.0,0.0,0.0,0.0,0.0,0.0,
1.0137790000000968,0.0,0.0,0.0,0.0,0.0,0.0,0.0,0.0,3.7243648530000004,0.0,0.0,19.0,0.0,0.0,-0.0,0.0,0.0,2.104491972,0.0,0.0,0.0,0.0,0.0,0.0,0.0,0.0,2.4267575640000003,0.0,0.0,42636.0,0.0,0.0,-0.0,0.0,0.0,2.5891110630000003,0.0,0.0,1.3600000143051147,0.1599999964237213,-151.8800048828125,0.067626953125,0.01739501953125,1.0946044921875,34.58000183105469,0.0,-52.0,0.051483154296875,-0.0106353759765625,Waiting,0.0,0.0,-9260.0,0.0,0.0,0.0,0.0,0.0,
1.0492020000000484,0.0,0.0,0.0,0.0,0.0,0.0,0.0,0.0,3.7304683680000004,0.0,0.0,19.0,0.0,0.0,-0.0,0.0,0.0,2.103271269,0.0,0.0,0.0,0.0,0.0,0.0,0.0,0.0,2.4279782670000003,0.0,0.0,42636.0,0.0,0.0,-0.0,0.0,0.0,2.5878903600000003,0.0,0.0,1.3600000143051147,0.17000000178813934,-151.8800048828125,-0.05694580078125,0.015869140625,0.9559326171875,34.54999923706055,0.0,55.0,0.0514678955078125,-0.0106353759765625,Waiting,0.0,0.0,-9260.0,0.0,0.0,0.0,0.0,0.0,
1.0808250000000699,0.0,0.0,0.0,0.0,0.0,0.0,0.0,0.0,3.7316890710000004,0.0,0.0,19.0,0.0,0.0,-0.0,0.0,0.0,2.104491972,0.0,0.0,0.0,0.0,0.0,0.0,0.0,0.0,2.4279782670000003,0.0,0.0,42636.0,0.0,0.0,-0.0,0.0,0.0,2.5891110630000003,0.0,0.0,1.350000023841858,0.1599999964237213,-151.8800048828125,-0.01336669921875,0.0701904296875,0.97662353515625,34.54999923706055,0.0,-7.0,0.0517578125,-0.0107879638671875,Waiting,0.0,0.0,-9260.0,0.0,0.0,0.0,0.0,0.0,
1.1142580000000308,0.0,0.0,0.0,0.0,0.0,0.0,0.0,0.0,3.7304683680000004,0.0,0.0,19.0,0.0,0.0,-0.0,0.0,0.0,2.103271269,0.0,0.0,0.0,0.0,0.0,0.0,0.0,0.0,2.4279782670000003,0.0,0.0,42636.0,0.0,0.0,-0.0,0.0,0.0,2.5878903600000003,0.0,0.0,1.350000023841858,0.15000000596046448,-151.8800048828125,0.0826416015625,0.01141357421875,1.05657958984375,34.54999923706055,0.0,-63.0,0.0519561767578125,-0.0110321044921875,Waiting,0.0,0.0,-9260.0,0.0,0.0,0.0,0.0,0.0,
1.1497120000000578,0.0,0.0,0.0,0.0,0.0,0.0,0.0,0.0,3.7304683680000004,0.0,0.0,19.0,0.0,0.0,-0.0,0.0,0.0,2.103271269,0.0,0.0,0.0,0.0,0.0,0.0,0.0,0.0,2.4279782670000003,0.0,0.0,42636.0,0.0,0.0,-0.0,0.0,0.0,2.5878903600000003,0.0,0.0,1.3600000143051147,0.1599999964237213,-151.8800048828125,0.001708984375,0.0081787109375,1.02679443359375,34.54999923706055,0.0,8.0,0.0518798828125,-0.0110626220703125,Waiting,0.0,0.0,-9260.0,0.0,0.0,0.0,0.0,0.0,
1.1804629999999887,0.0,0.0,0.0,0.0,0.0,0.0,0.0,0.0,3.7304683680000004,0.0,0.0,19.0,0.0,0.0,-0.0,0.0,0.0,2.104491972,0.0,0.0,0.0,0.0,0.0,0.0,0.0,0.0,2.4267575640000003,0.0,0.0,42636.0,0.0,0.0,-0.0,0.0,0.0,2.5891110630000003,0.0,0.0,1.350000023841858,0.17000000178813934,-151.8800048828125,-0.05096435546875,0.04510498046875,0.96234130859375,34.54999923706055,0.0,36.0,0.0520782470703125,-0.0110931396484375,Waiting,0.0,0.0,-9260.0,0.0,0.0,0.0,0.0,0.0,
1.2113100000000558,0.0,0.0,0.0,0.0,0.0,0.0,0.0,0.0,3.721923447,0.0,0.0,19.0,0.0,0.0,-0.0,0.0,0.0,2.104491972,0.0,0.0,0.0,0.0,0.0,0.0,0.0,0.0,2.4267575640000003,0.0,0.0,42636.0,0.0,0.0,-0.0,0.0,0.0,2.5891110630000003,0.0,0.0,1.3600000143051147,0.1599999964237213,-151.8800048828125,0.062744140625,0.0213623046875,1.01837158203125,34.54999923706055,0.0,-51.0,0.0523681640625,-0.0113067626953125,Waiting,0.0,0.0,-9260.0,0.0,0.0,0.0,0.0,0.0,
1.2418200000000652,0.0,0.0,0.0,0.0,0.0,0.0,0.0,0.0,3.7304683680000004,0.0,0.0,19.0,0.0,0.0,-0.0,0.0,0.0,2.102050566,0.0,0.0,0.0,0.0,0.0,0.0,0.0,0.0,2.4267575640000003,0.0,0.0,42636.0,0.0,0.0,-0.0,0.0,0.0,2.5878903600000003,0.0,0.0,1.3600000143051147,0.1599999964237213,-151.8800048828125,0.04827880859375,0.0133056640625,1.08026123046875,34.54999923706055,0.0,-34.0,0.0523681640625,-0.011383056640625,Waiting,0.0,0.0,-9260.0,0.0,0.0,0.0,0.0,0.0,
1.2826510000000708,0.0,0.0,0.0,0.0,0.0,0.0,0.0,0.0,3.7304683680000004,0.0,0.0,19.0,0.0,0.0,-0.0,0.0,0.0,2.103271269,0.0,0.0,0.0,0.0,0.0,0.0,0.0,0.0,2.4267575640000003,0.0,0.0,42636.0,0.0,0.0,-0.0,0.0,0.0,2.5891110630000003,0.0,0.0,1.350000023841858,0.17000000178813934,-151.8800048828125,-0.05706787109375,0.01190185546875,0.9630126953125,34.54999923706055,0.0,58.0,0.0523681640625,-0.0113372802734375,Waiting,0.0,0.0,-9260.0,0.0,0.0,0.0,0.0,0.0,
1.313829000000027,0.0,0.0,0.0,0.0,0.0,0.0,0.0,0.0,3.7304683680000004,0.0,-0.0012207029999995456,19.0,0.0,0.0,-0.0,0.0,0.0,2.104491972,0.0,0.0,0.0,0.0,0.0,0.0,0.0,0.0,2.4267575640000003,0.0,0.0,42636.0,0.0,0.0,-0.0,0.0,0.0,2.5891110630000003,0.0,0.0,1.340000033378601,0.1599999964237213,-151.8699951171875,-0.035888671875,0.06072998046875,0.95599365234375,34.54999923706055,0.0,16.0,0.0526275634765625,-0.01141357421875,Waiting,0.0,0.0,-9260.0,0.0,0.0,0.0,0.0,0.0,
1.3397470000000904,0.0,0.0,0.0,0.0,0.0,0.0,0.0,0.0,3.7304683680000004,0.0,0.0012207029999995456,19.0,0.0,0.0,-0.0,0.0,0.0,2.103271269,0.0,0.0,0.0,0.0,0.0,0.0,0.0,0.0,2.4279782670000003,0.0,0.0,42636.0,0.0,0.0,-0.0,0.0,0.0,2.5878903600000003,0.0,0.0,1.350000023841858,0.15000000596046448,-151.8699951171875,0.0765380859375,0.0155029296875,1.08935546875,34.54999923706055,0.0,-60.0,0.052886962890625,-0.01165771484375,Waiting,0.0,0.0,-9260.0,0.0,0.0,0.0,0.0,0.0,
1.3744629999999889,0.0,0.0,0.0,0.0,0.0,0.0,0.0,0.0,3.7304683680000004,0.0,0.0012207029999995456,19.0,0.0,0.0,-0.0,0.0,0.0,2.104491972,0.0,0.0,0.0,0.0,0.0,0.0,0.0,0.0,2.4267575640000003,0.0,0.0,42636.0,0.0,0.0,-0.0,0.0,0.0,2.5891110630000003,0.0,0.0,1.350000023841858,0.15000000596046448,-151.8699951171875,0.02874755859375,0.00555419921875,1.046875,34.54999923706055,0.0,-13.0,0.0528411865234375,-0.0116424560546875,Waiting,0.0,0.0,-9260.0,0.0,0.0,0.0,0.0,0.0,
1.4116230000000214,0.0,0.0,0.0,0.0,0.0,0.0,0.0,0.0,3.7304683680000004,0.0,0.0,19.0,0.0,0.0,-0.0,0.0,0.0,2.104491972,0.0,0.0,0.0,0.0,0.0,0.0,0.0,0.0,2.4267575640000003,0.0,0.0,42636.0,0.0,0.0,-0.0,0.0,0.0,2.5891110630000003,0.0,0.0,1.340000033378601,0.1599999964237213,-151.8699951171875,-0.06170654296875,0.02972412109375,0.95703125,34.54999923706055,0.0,53.0,0.053009033203125,-0.01165771484375,Waiting,0.0,0.0,-9260.0,0.0,0.0,0.0,0.0,0.0,
1.442301000000094,0.0,0.0,0.0,0.0,0.0,0.0,0.0,0.0,3.7280269620000004,0.0,0.0,19.0,0.0,0.0,-0.0,0.0,0.0,2.104491972,0.0,0.0,0.0,0.0,0.0,0.0,0.0,0.0,2.4267575640000003,0.0,0.0,42636.0,0.0,0.0,-0.0,0.0,0.0,2.5891110630000003,0.0,0.0,1.350000023841858,0.15000000596046448,-151.8699951171875,0.038818359375,0.03057861328125,0.996826171875,34.54999923706055,0.0,-35.0,0.05328369140625,-0.011871337890625,Waiting,0.0,0.0,-9260.0,0.0,0.0,0.0,0.0,0.0,
1.4711419999999926,0.0,0.0,0.0,0.0,0.0,0.0,0.0,0.0,3.7316890710000004,0.0,0.0,19.0,0.0,0.0,-0.0,0.0,0.0,2.104491972,0.0,0.0,0.0,0.0,0.0,0.0,0.0,0.0,2.4279782670000003,0.0,0.0,42636.0,0.0,0.0,-0.0,0.0,0.0,2.5891110630000003,0.0,0.0,1.350000023841858,0.15000000596046448,-151.86000061035156,0.06512451171875,0.01336669921875,1.0908203125,34.54999923706055,0.0,-48.0,0.0533447265625,-0.0119781494140625,Waiting,0.0,0.0,-9260.0,0.0,0.0,0.0,0.0,0.0,
1.5032550000000047,0.0,0.0,0.0,0.0,0.0,0.0,0.0,0.0,3.7304683680000004,0.0,0.0012207029999995456,19.0,0.0,0.0,-0.0,0.0,0.0,2.104491972,0.0,0.0,0.0,0.0,0.0,0.0,0.0,0.0,2.4267575640000003,0.0,0.0,42636.0,0.0,0.0,-0.0,0.0,0.0,2.5891110630000003,0.0,0.0,1.350000023841858,0.15000000596046448,-151.86000061035156,-0.04840087890625,0.00811767578125,0.9678955078125,34.54999923706055,0.0,51.0,0.053314208984375,-0.0119476318359375,Waiting,0.0,0.0,-9260.0,0.0,0.0,0.0,0.0,0.0,
1.530015000000014,0.0,0.0,0.0,0.0,0.0,0.0,0.0,0.0,3.7316890710000004,0.0,0.0012207029999995456,19.0,0.0,0.0,-0.0,0.0,0.0,2.103271269,0.0,0.0,0.0,0.0,0.0,0.0,0.0,0.0,2.4267575640000003,0.0,0.0,42636.0,0.0,0.0,-0.0,0.0,0.0,2.5903317660000003,0.0,0.0,1.3300000429153442,0.1599999964237213,-151.86000061035156,-0.0450439453125,0.063232421875,0.94158935546875,34.54999923706055,0.0,22.0,0.0535430908203125,-0.011993408203125,Waiting,0.0,0.0,-9260.0,0.0,0.0,0.0,0.0,0.0,
1.56126800000004,0.0,0.0,0.0,0.0,0.0,0.0,0.0,0.0,3.7316890710000004,0.0,-0.0012207029999995456,19.0,0.0,0.0,-0.0,0.0,0.0,2.104491972,0.0,0.0,0.0,0.0,0.0,0.0,0.0,0.0,2.4267575640000003,0.0,0.0,42636.0,0.0,0.0,-0.0,0.0,0.0,2.5891110630000003,0.0,0.0,1.340000033378601,0.1599999964237213,-151.86000061035156,0.06964111328125,0.01605224609375,1.0364990234375,34.54999923706055,0.0,-54.0,0.053802490234375,-0.0122222900390625,Waiting,0.0,0.0,-9260.0,0.0,0.0,0.0,0.0,0.0,
1.5895829999999842,0.0,0.0,0.0,0.0,0.0,0.0,0.0,0.0,3.7316890710000004,0.0,0.0,19.0,0.0,0.0,-0.0,0.0,0.0,2.103271269,0.0,0.0,0.0,0.0,0.0,0.0,0.0,0.0,2.4279782670000003,0.0,0.0,42636.0,0.0,0.0,-0.0,0.0,0.0,2.5891110630000003,0.0,0.0,1.350000023841858,0.15000000596046448,-151.85000610351562,0.0340576171875,0.00665283203125,1.05224609375,34.54999923706055,0.0,-18.0,0.0537872314453125,-0.012298583984375,Waiting,0.0,0.0,-9260.0,0.0,0.0,0.0,0.0,0.0,
1.6257290000000504,0.0,0.0,0.0,0.0,0.0,0.0,0.0,0.0,3.7316890710000004,0.0,0.0,19.0,0.0,0.0,-0.0,0.0,0.0,2.103271269,0.0,0.0,0.0,0.0,0.0,0.0,0.0,0.0,2.4279782670000003,0.0,0.0,42636.0,0.0,0.0,-0.0,0.0,0.0,2.5891110630000003,0.0,0.0,1.350000023841858,0.1599999964237213,-151.85000610351562,-0.0538330078125,0.0111083984375,0.96942138671875,34.54999923706055,0.0,55.0,0.0538330078125,-0.0122833251953125,Waiting,0.0,0.0,-9260.0,0.0,0.0,0.0,0.0,0.0,
1.6543610000000335,0.0,0.0,0.0,0.0,0.0,0.0,0.0,0.0,3.72314415,0.0,0.0,19.0,0.0,0.0,-0.0,0.0,0.0,2.104491972,0.0,0.0,0.0,0.0,0.0,0.0,0.0,0.0,2.4291989700000003,0.0,0.0,42636.0,0.0,0.0,-0.0,0.0,0.0,2.5878903600000003,0.0,0.0,1.340000033378601,0.1599999964237213,-151.86000061035156,-0.01898193359375,0.0745849609375,0.96173095703125,34.54999923706055,0.0,-5.0,0.0540924072265625,-0.012420654296875,Waiting,0.0,0.0,-9260.0,0.0,0.0,0.0,0.0,0.0,
1.683908000000054,0.0,0.0,0.0,0.0,0.0,0.0,0.0,0.0,3.7304683680000004,0.0,0.0,19.0,0.0,0.0,-0.0,0.0,0.0,2.103271269,0.0,0.0,0.0,0.0,0.0,0.0,0.0,0.0,2.4279782670000003,0.0,0.0,42636.0,0.0,0.0,-0.0,0.0,0.0,2.5878903600000003,0.0,0.0,1.340000033378601,0.15000000596046448,-151.86000061035156,0.071044921875,0.0164794921875,1.0579833984375,34.54999923706055,0.0,-56.0,0.054290771484375,-0.012664794921875,Waiting,0.0,0.0,-9260.0,0.0,0.0,0.0,0.0,0.0,
1.7137150000000838,0.0,0.0,0.0,0.0,0.0,0.0,0.0,0.0,3.7304683680000004,0.0,0.0,19.0,0.0,0.0,-0.0,0.0,0.0,2.104491972,0.0,0.0,0.0,0.0,0.0,0.0,0.0,0.0,2.4279782670000003,0.0,0.0,42636.0,0.0,0.0,-0.0,0.0,0.0,2.5891110630000003,0.0,0.0,1.350000023841858,0.15000000596046448,-151.85000610351562,0.00146484375,-0.00482177734375,1.01373291015625,34.54999923706055,0.0,14.0,0.05426025390625,-0.012725830078125,Waiting,0.0,0.0,-9260.0,0.0,0.0,0.0,0.0,0.0,
1.7375530000000727,0.0,0.0,0.0,0.0,0.0,0.0,0.0,0.0,3.7304683680000004,0.0,0.0,19.0,0.0,0.0,-0.0,0.0,0.0,2.103271269,0.0,0.0,0.0,0.0,0.0,0.0,0.0,0.0,2.4291989700000003,0.0,0.0,42636.0,0.0,0.0,-0.0,0.0,0.0,2.5891110630000003,0.0,0.0,1.350000023841858,0.15000000596046448,-151.85000610351562,-0.0615234375,0.0162353515625,0.9603271484375,34.54999923706055,0.0,59.0,0.05438232421875,-0.0127410888671875,Waiting,0.0,0.0,-9260.0,0.0,0.0,0.0,0.0,0.0,
1.7709220000000205,0.0,0.0,0.0,0.0,0.0,0.0,0.0,0.0,3.7316890710000004,0.0,0.0,19.0,0.0,0.0,-0.0,0.0,0.0,2.104491972,0.0,0.0,0.0,0.0,0.0,0.0,0.0,0.0,2.4279782670000003,0.0,0.0,42636.0,0.0,0.0,-0.0,0.0,0.0,2.5891110630000003,0.0,0.0,1.340000033378601,0.1599999964237213,-151.85000610351562,0.00189208984375,0.05242919921875,0.96710205078125,34.54999923706055,0.0,-13.0,0.0545196533203125,-0.0129547119140625,Waiting,0.0,0.0,-9260.0,0.0,0.0,0.0,0.0,0.0,
1.7962430000000167,0.0,0.0,0.0,0.0,0.0,0.0,0.0,0.0,3.7304683680000004,0.0,0.0012207029999995456,19.0,0.0,0.0,-0.0,0.0,0.0,2.103271269,0.0,0.0,0.0,0.0,0.0,0.0,0.0,0.0,2.4279782670000003,0.0,0.0,42636.0,0.0,0.0,-0.0,0.0,0.0,2.5891110630000003,0.0,0.0,1.350000023841858,0.15000000596046448,-151.85000610351562,0.07318115234375,0.01727294921875,1.09686279296875,34.54999923706055,0.0,-57.0,0.054351806640625,-0.013153076171875,Waiting,0.0,0.0,-9260.0,0.0,0.0,0.0,0.0,0.0,
1.8310040000000736,0.0,0.0,0.0,0.0,0.0,0.0,0.0,0.0,3.7316890710000004,0.0,0.0012207029999995456,19.0,0.0,0.0,-0.0,0.0,0.0,2.104491972,0.0,0.0,0.0,0.0,0.0,0.0,0.0,0.0,2.4279782670000003,0.0,0.0,42636.0,0.0,0.0,-0.0,0.0,0.0,2.5891110630000003,0.0,0.0,1.350000023841858,0.15000000596046448,-151.85000610351562,-0.03076171875,-0.00537109375,0.98114013671875,34.54999923706055,0.0,42.0,0.054046630859375,-0.0131683349609375,Waiting,0.0,0.0,-9260.0,0.0,0.0,0.0,0.0,0.0,
1.8650709999999964,0.0,0.0,0.0,0.0,0.0,0.0,0.0,0.0,3.7304683680000004,0.0,-0.0012207029999995456,19.0,0.0,0.0,-0.0,0.0,0.0,2.103271269,0.0,0.0,0.0,0.0,0.0,0.0,0.0,0.0,2.4279782670000003,0.0,0.0,42636.0,0.0,0.0,-0.0,0.0,0.0,2.5891110630000003,0.0,0.0,1.350000023841858,0.15000000596046448,-151.85000610351562,-0.05535888671875,0.0416259765625,0.9544677734375,34.54999923706055,0.0,42.0,0.053955078125,-0.0131988525390625,Waiting,0.0,0.0,-9260.0,0.0,0.0,0.0,0.0,0.0,
1.8909430000000866,0.0,0.0,0.0,0.0,0.0,0.0,0.0,0.0,3.7316890710000004,0.0,0.0012207029999995456,19.0,0.0,0.0,-0.0,0.0,0.0,2.104491972,0.0,0.0,0.0,0.0,0.0,0.0,0.0,0.0,2.4267575640000003,0.0,0.0,42636.0,0.0,0.0,-0.0,0.0,0.0,2.5891110630000003,0.0,0.0,1.350000023841858,0.15000000596046448,-151.83999633789062,0.04376220703125,0.02838134765625,1.007080078125,34.54999923706055,0.0,-38.0,0.053955078125,-0.0134429931640625,Waiting,0.0,0.0,-9260.0,0.0,0.0,0.0,0.0,0.0,
1.923386999999988,0.0,0.0,0.0,0.0,0.0,0.0,0.0,0.0,3.7304683680000004,0.0,0.0012207029999995456,19.0,0.0,0.0,-0.0,0.0,0.0,2.104491972,0.0,0.0,0.0,0.0,0.0,0.0,0.0,0.0,2.4279782670000003,0.0,0.0,42636.0,0.0,0.0,-0.0,0.0,0.0,2.5891110630000003,0.0,0.0,1.350000023841858,0.14000000059604645,-151.83999633789062,0.053955078125,0.00958251953125,1.0718994140625,34.54999923706055,0.0,-37.0,0.0537261962890625,-0.0135955810546875,Waiting,0.0,0.0,-9260.0,0.0,0.0,0.0,0.0,0.0,
1.953420000000042,0.0,0.0,0.0,0.0,0.0,0.0,0.0,0.0,3.7304683680000004,0.0,0.0,19.0,0.0,0.0,-0.0,0.0,0.0,2.103271269,0.0,0.0,0.0,0.0,0.0,0.0,0.0,0.0,2.4279782670000003,0.0,0.0,42636.0,0.0,0.0,-0.0,0.0,0.0,2.5891110630000003,0.0,0.0,1.350000023841858,0.15000000596046448,-151.83999633789062,-0.04559326171875,0.00836181640625,0.96917724609375,34.54999923706055,0.0,49.0,0.0534515380859375,-0.013580322265625,Waiting,0.0,0.0,-9260.0,0.0,0.0,0.0,0.0,0.0,
1.986185999999987,0.0,0.0,0.0,0.0,0.0,0.0,0.0,0.0,3.7316890710000004,0.0,0.0,19.0,0.0,0.0,-0.0,0.0,0.0,2.103271269,0.0,0.0,0.0,0.0,0.0,0.0,0.0,0.0,2.4267575640000003,0.0,0.0,42636.0,0.0,0.0,-0.0,0.0,0.0,2.5878903600000003,0.0,0.0,1.350000023841858,0.15000000596046448,-151.83999633789062,-0.0328369140625,0.0726318359375,0.9530029296875,34.54999923706055,0.0,7.0,0.05340576171875,-0.0136566162109375,Waiting,0.0,0.0,-9260.0,0.0,0.0,0.0,0.0,0.0,
2.0153040000000035,0.0,0.0,0.0,0.0,0.0,0.0,0.0,0.0,3.7304683680000004,0.0,-0.0012207029999995456,19.0,0.0,0.0,-0.0,0.0,0.0,2.103271269,0.0,0.0,0.0,0.0,0.0,0.0,0.0,0.0,2.4267575640000003,0.0,0.0,42636.0,0.0,0.0,-0.0,0.0,0.0,2.5891110630000003,0.0,0.0,1.350000023841858,0.15000000596046448,-151.8300018310547,0.0679931640625,0.01751708984375,1.0408935546875,34.54999923706055,0.0,-54.0,0.0533599853515625,-0.013885498046875,Waiting,0.0,0.0,-9260.0,0.0,0.0,0.0,0.0,0.0,
2.0478919999999925,0.0,0.0,0.0,0.0,0.0,0.0,0.0,0.0,3.7316890710000004,0.0,-0.0012207029999995456,19.0,0.0,0.0,-0.0,0.0,0.0,2.103271269,0.0,0.0,0.0,0.0,0.0,0.0,0.0,0.0,2.4279782670000003,0.0,0.0,42636.0,0.0,0.0,-0.0,0.0,0.0,2.5891110630000003,0.0,0.0,1.350000023841858,0.14000000059604645,-151.8300018310547,-0.03167724609375,0.002685546875,0.9796142578125,34.560001373291016,0.0,39.0,0.052947998046875,-0.013946533203125,Waiting,0.0,0.0,-9260.0,0.0,0.0,0.0,0.0,0.0,
2.075935999999987,0.0,0.0,0.0,0.0,0.0,0.0,0.0,0.0,3.7365718830000003,0.0,-0.0012207029999995456,19.0,0.0,0.0,-0.0,0.0,0.0,2.102050566,0.0,0.0,0.0,0.0,0.0,0.0,0.0,0.0,2.4279782670000003,0.0,0.0,42636.0,0.0,0.0,-0.0,0.0,0.0,2.5878903600000003,0.0,0.0,1.350000023841858,0.14000000059604645,-151.8300018310547,-0.056884765625,0.0059814453125,0.96246337890625,34.560001373291016,0.0,60.0,0.052886962890625,-0.013946533203125,Waiting,0.0,0.0,-9260.0,0.0,0.0,0.0,0.0,0.0,
2.109246000000043,0.0,0.0,0.0,0.0,0.0,0.0,0.0,0.0,3.7316890710000004,0.0,0.0012207029999995456,19.0,0.0,0.0,-0.0,0.0,0.0,2.104491972,0.0,0.0,0.0,0.0,0.0,0.0,0.0,0.0,2.419433346,0.0,0.0,42636.0,0.0,0.0,-0.0,0.0,0.0,2.5854489540000003,0.0,0.0,1.350000023841858,0.14000000059604645,-151.8300018310547,0.055419921875,0.02587890625,1.021728515625,34.560001373291016,0.0,-47.0,0.0528717041015625,-0.01422119140625,Waiting,0.0,0.0,-9260.0,0.0,0.0,0.0,0.0,0.0,
2.1352170000000625,0.0,0.0,0.0,0.0,0.0,0.0,0.0,0.0,3.7304683680000004,0.0,0.0012207029999995456,19.0,0.0,0.0,-0.0,0.0,0.0,2.104491972,0.0,0.0,0.0,0.0,0.0,0.0,0.0,0.0,2.4267575640000003,0.0,0.0,42636.0,0.0,0.0,-0.0,0.0,0.0,2.5891110630000003,0.0,0.0,1.350000023841858,0.14000000059604645,-151.8300018310547,0.03631591796875,0.00482177734375,1.056640625,34.560001373291016,0.0,-20.0,0.0525970458984375,-0.0143280029296875,Waiting,0.0,0.0,-9260.0,0.0,0.0,0.0,0.0,0.0,
2.1699890000000597,0.0,0.0,0.0,0.0,0.0,0.0,0.0,0.0,3.7304683680000004,0.0,0.0012207029999995456,19.0,0.0,0.0,-0.0,0.0,0.0,2.104491972,0.0,0.0,0.0,0.0,0.0,0.0,0.0,0.0,2.4279782670000003,0.0,0.0,42636.0,0.0,0.0,-0.0,0.0,0.0,2.5891110630000003,0.0,0.0,1.3600000143051147,0.15000000596046448,-151.8300018310547,-0.05157470703125,0.00335693359375,0.9698486328125,34.560001373291016,0.0,57.0,0.0523529052734375,-0.014312744140625,Waiting,0.0,0.0,-9260.0,0.0,0.0,0.0,0.0,0.0,
2.1972870000000113,0.0,0.0,0.0,0.0,0.0,0.0,0.0,0.0,3.7304683680000004,0.0,0.0,19.0,0.0,0.0,-0.0,0.0,0.0,2.104491972,0.0,0.0,0.0,0.0,0.0,0.0,0.0,0.0,2.4279782670000003,0.0,0.0,42636.0,0.0,0.0,-0.0,0.0,0.0,2.5891110630000003,0.0,0.0,1.350000023841858,0.15000000596046448,-151.8300018310547,-0.02142333984375,0.07757568359375,0.9627685546875,34.560001373291016,0.0,-4.0,0.0523223876953125,-0.0144195556640625,Waiting,0.0,0.0,-9260.0,0.0,0.0,0.0,0.0,0.0,
2.2307170000000625,0.0,0.0,0.0,0.0,0.0,0.0,0.0,0.0,3.7304683680000004,0.0,0.0,19.0,0.0,0.0,-0.0,0.0,0.0,2.103271269,0.0,0.0,0.0,0.0,0.0,0.0,0.0,0.0,2.4267575640000003,0.0,0.0,42636.0,0.0,0.0,-0.0,0.0,0.0,2.5891110630000003,0.0,0.0,1.350000023841858,0.15000000596046448,-151.8300018310547,0.0653076171875,0.01690673828125,1.05035400390625,34.560001373291016,0.0,-51.0,0.052215576171875,-0.0146484375,Waiting,0.0,0.0,-9260.0,0.0,0.0,0.0,0.0,0.0,
2.2773990000000923,0.0,0.0,0.0,0.0,0.0,0.0,0.0,0.0,3.7304683680000004,0.0,-0.0012207029999995456,19.0,0.0,0.0,-0.0,0.0,0.0,2.103271269,0.0,0.0,0.0,0.0,0.0,0.0,0.0,0.0,2.4279782670000003,0.0,0.0,42636.0,0.0,0.0,-0.0,0.0,0.0,2.5891110630000003,0.0,0.0,1.350000023841858,0.14000000059604645,-151.8300018310547,-0.0413818359375,0.0045166015625,0.986328125,34.560001373291016,0.0,47.0,0.0518035888671875,-0.014678955078125,Waiting,0.0,0.0,-9260.0,0.0,0.0,0.0,0.0,0.0,
2.311121000000043,0.0,0.0,0.0,0.125,0.0,-231.49606212973595,0.0,1.0,3.7353511800000003,0.5533560492066895,0.0,19.0,0.0,0.0,-231.49606212973595,0.0,0.0,2.108154081,4.397316058113635,0.0,0.0,0.0,0.0,-231.49606212973595,0.0,0.0,2.4267575640000003,4.401758689006861,0.0,42636.0,0.0,0.0,-231.49606212973595,0.0,0.0,2.5891110630000003,0.5515167311543324,0.0,1.350000023841858,0.15000000596046448,-151.8300018310547,-0.03131103515625,0.0718994140625,0.95269775390625,34.560001373291016,0.0,6.0,0.0517578125,-0.014739990234375,Waiting,0.0,0.0,-9260.0,0.0,0.0,0.0,0.0,0.0,
2.336063000000082,0.0,0.0,0.0,0.125,0.0,-562.2047066688538,0.0,2.0,3.758544537,0.5533560492066895,0.004882811999999959,19.0,0.0,0.0,-562.2047066688538,0.0,0.0,2.103271269,4.397316058113635,0.0,0.0,0.0,0.0,-562.2047066688538,0.0,0.0,2.4267575640000003,4.401758689006861,0.0,42636.0,0.0,0.0,-562.2047066688538,0.0,0.0,2.5891110630000003,0.5515167311543325,0.0,1.340000033378601,0.14000000059604645,-151.8300018310547,0.05389404296875,0.02337646484375,1.0313720703125,34.560001373291016,0.0,-44.0,0.0517120361328125,-0.0149688720703125,Waiting,0.0,0.0,-9260.0,0.0,0.0,0.0,0.0,0.0,
2.3713800000000047,0.0,0.0,0.0,0.25,0.0,-760.6299340724945,0.0,2.125,3.8928218670000003,0.5533560492066895,-4.895640632000001,19.0,1.125,0.0,-760.6299340724945,0.0,1.625,2.095947051,4.397316058113635,0.0,0.0,2.125,0.0,-760.6299340724945,0.0,2.0,2.347411869,4.401758689006861,-0.004882812000000403,42636.0,1.125,-15.0,-760.6299340724945,0.0,1.125,2.5927731720000002,0.5515167311543325,0.0,1.350000023841858,0.15000000596046448,-151.82000732421875,-0.103515625,0.00347900390625,1.05303955078125,34.560001373291016,0.0,103.0,0.0515594482421875,-0.015045166015625,Waiting,0.0,0.0,-9260.0,0.0,0.0,0.0,0.0,0.0,
2.399194000000018,0.0,0.0,0.0,1.375,0.0,-975.5905240774155,0.0,0.875,4.001464434,0.5533560492066895,0.10742186399999998,19.0,3.25,0.0,-975.5905240774155,0.0,1.875,2.048339634,4.397316058113635,0.0,0.0,4.125,0.0,-975.5905240774155,0.0,2.25,2.247314223,4.401758689006861,0.0,42617.0,2.625,-60.0,-975.5905240774155,0.0,1.375,2.706298551,0.5515167311543325,0.0,1.3200000524520874,0.10999999940395355,-151.6999969482422,-0.0618896484375,0.1419677734375,1.16571044921875,34.560001373291016,0.0,2.0,0.0518341064453125,-0.0152587890625,Waiting,0.0,0.0,-9260.0,0.0,0.0,0.0,0.0,0.0,
2.4308410000000147,0.0,0.0,0.0,2.75,0.0,-1025.1968622207642,0.0,0.875,4.106444892,0.5533560492066895,0.12695311200000026,19.0,5.875,0.0,-1025.1968622207642,0.0,2.0,1.9409177700000002,4.397316058113635,4.876978523,0.0,6.75,0.0,-1025.1968622207642,0.0,0.625,2.1643064190000003,4.401758689006861,-0.12329100300000029,42617.0,7.5,-150.0,-1025.1968622207642,0.0,0.25,2.7905270580000003,0.5515167311543325,0.0,1.2200000286102295,0.1899999976158142,-151.32000732421875,0.0367431640625,-0.07391357421875,0.814208984375,34.560001373291016,0.0,14.0,0.05230712890625,-0.015533447265625,Waiting,0.0,0.0,-9260.0,0.0,0.0,0.0,0.0,0.0,
2.4630590000000083,0.0,0.0,0.0,5.75,0.0,-1041.7322874069216,0.0,0.875,4.166259339,0.5533560492066895,0.0,19.0,11.625,0.0,-1041.7322874069216,0.0,0.75,1.8395994210000002,4.397316058113635,-0.10375975500000045,0.0,11.75,0.0,-1041.7322874069216,0.0,0.375,2.0617673670000003,4.401758689006861,-0.08666991299999971,42617.0,9.125,-180.0,-1041.7322874069216,0.0,0.25,2.858886426,0.5515167311543325,0.07934569500000022,1.2799999713897705,0.15000000596046448,-150.69000244140625,1.220703125E-4,0.00714111328125,1.20001220703125,34.560001373291016,0.0,12.0,0.0526885986328125,-0.0155029296875,Waiting,0.0,0.0,-9260.0,0.0,0.0,0.0,0.0,0.0,
2.4911380000000354,0.0,0.0,0.0,6.75,0.0,-1041.7322874069216,0.0,0.5,4.197997617,0.5533560492066895,0.06225585299999992,19.0,12.875,0.0,-1041.7322874069216,0.0,0.75,1.7346189630000002,4.397316058113635,0.0,0.0,12.75,0.0,-1041.7322874069216,0.0,0.375,1.990966593,4.401758689006861,0.0,42617.0,10.375,-195.0,-1041.7322874069216,0.0,0.25,2.8967282190000003,0.5515167311543325,0.0,1.25,0.1599999964237213,-149.8800048828125,-0.07843017578125,0.06585693359375,0.8397216796875,34.560001373291016,0.0,46.0,0.0532379150390625,-0.0155181884765625,Waiting,0.0,0.0,-9260.0,0.0,0.0,0.0,0.0,0.0,
2.524537000000011,0.0,0.0,0.0,8.0,0.0,-1041.7322874069216,0.0,0.5,4.179687072,0.5533560492066895,0.009765623999999917,19.0,14.125,0.0,-1041.7322874069216,0.0,0.25,1.671142407,4.397316058113635,-0.08911131899999969,0.0,13.125,0.0,-1041.7322874069216,0.0,0.0,1.9445798790000002,4.401758689006861,-0.06103515000000037,42581.0,11.75,-202.5,-1041.7322874069216,0.0,0.25,2.930907903,0.5515167311543325,0.04638671400000005,1.2100000381469727,0.09000000357627869,-148.82000732421875,0.017822265625,-0.064453125,1.0205078125,34.560001373291016,0.0,30.0,0.0540008544921875,-0.0157318115234375,Waiting,0.0,0.0,-9260.0,0.0,0.0,0.0,0.0,0.0,
2.552984999999986,0.0,0.0,0.0,9.875,0.0,-1041.7322874069216,0.0,0.5,4.1906733990000005,0.5533560492066895,0.0,19.0,15.125,0.0,-1041.7322874069216,0.0,0.125,1.6113279600000001,4.397316058113635,0.0,0.0,13.75,0.0,-1041.7322874069216,0.0,0.0,1.9165037100000002,4.401758689006861,0.0,42581.0,12.875,-240.0,-1041.7322874069216,0.0,0.0,2.9541012600000003,0.5515167311543325,0.029296871999999752,1.190000057220459,0.10999999940395355,-147.47999572753906,-0.006591796875,4.2724609375E-4,0.978759765625,34.560001373291016,0.0,18.0,0.0549468994140625,-0.0160369873046875,Waiting,0.0,0.0,-9260.0,0.0,0.0,0.0,0.0,0.0,
2.586609999999986,0.0,0.0,0.0,10.625,0.0,-1041.7322874069216,0.0,0.25,4.194335508,0.5533560492066895,0.0012207030000004337,19.0,18.125,0.0,-1041.7322874069216,0.0,0.0,1.6369627230000001,4.397316058113635,0.0,0.0,16.125,0.0,-1041.7322874069216,0.0,0.0,1.909179492,4.401758689006861,0.0,42581.0,12.25,-345.0,-1041.7322874069216,0.0,0.0,2.97851532,0.5515167311543325,0.0,1.2000000476837158,0.009999999776482582,-144.7899932861328,-0.01092529296875,-0.00860595703125,1.0655517578125,34.56999969482422,0.0,27.0,0.0547332763671875,-0.0167236328125,Waiting,0.0,0.0,-9260.0,0.0,0.0,0.0,0.0,0.0,
2.617244999999995,0.0,0.0,0.0,12.75,0.0,-1058.2677125930786,0.0,0.25,4.1906733990000005,0.5533560492066895,0.0,19.0,19.375,0.0,-1058.2677125930786,0.0,0.0,1.614990069,4.397316058113635,-0.007324217999999938,0.0,17.125,0.0,-1058.2677125930786,0.0,0.0,1.8981931650000001,4.401758689006861,-0.01342773300000033,42581.0,12.0,-405.0,-1058.2677125930786,0.0,0.0,2.9968258650000004,0.5515167311543325,0.026855465999999772,1.2999999523162842,-0.019999999552965164,-143.67999267578125,-0.216796875,0.23492431640625,1.2989501953125,34.56999969482422,0.0,52.0,0.054656982421875,-0.0171051025390625,Waiting,0.0,0.0,-9260.0,0.0,0.0,0.0,0.0,0.0,
2.649176000000094,0.0,0.0,0.0,14.375,0.0,-1058.2677125930786,0.0,0.25,4.194335508,0.5533560492066895,0.0,19.0,20.875,0.0,-1058.2677125930786,0.0,0.0,1.6113279600000001,4.397316058113635,0.0,0.0,20.5,0.0,-1058.2677125930786,0.0,0.0,1.901855274,4.401758689006861,0.0,42485.0,11.5,-555.0,-1058.2677125930786,0.0,0.0,3.0090328950000003,0.5515167311543325,0.0,1.309999942779541,-0.25,-139.72999572753906,0.0450439453125,0.20263671875,1.29534912109375,34.56999969482422,0.0,-150.0,0.0545501708984375,-0.01971435546875,Waiting,0.0,0.0,-9260.0,0.0,0.0,0.0,0.0,0.0,
2.6784590000000317,0.0,0.0,0.0,14.875,0.0,-1058.2677125930786,0.0,0.25,4.1931148050000004,0.5533560492066895,-0.0012207030000004337,19.0,23.0,0.0,-1058.2677125930786,0.0,0.0,1.6088865540000001,4.397316058113635,-0.004882811999999959,0.0,21.625,0.0,-1058.2677125930786,0.0,0.0,1.8981931650000001,4.401758689006861,0.0,42485.0,9.0,-720.0,-1058.2677125930786,0.0,0.0,3.021239925,0.5515167311543325,0.0,1.2699999809265137,-0.25,-136.55999755859375,0.018798828125,-0.00714111328125,0.81201171875,34.56999969482422,0.0,1.0,0.05413818359375,-0.0216827392578125,Waiting,0.0,0.0,-9260.0,0.0,0.0,0.0,0.0,0.0,
2.712140000000014,0.0,0.0,0.0,15.875,0.0,-1058.2677125930786,0.0,0.25,4.1931148050000004,0.5533560492066895,0.0,19.0,26.125,0.0,-1058.2677125930786,0.0,0.0,1.6101072570000001,4.397316058113635,0.0,0.0,23.25,0.0,-1058.2677125930786,0.0,0.0,1.8994138680000001,4.401758689006861,-0.0012207030000004337,42485.0,7.75,-802.5,-1058.2677125930786,0.0,0.0,3.032226252,0.5515167311543325,0.015869138999999866,1.309999942779541,-0.4000000059604645,-132.97999572753906,-0.1842041015625,0.05950927734375,1.228759765625,34.56999969482422,0.0,96.0,0.05426025390625,-0.02398681640625,Waiting,0.0,0.0,-9260.0,0.0,0.0,0.0,0.0,0.0,
2.7423800000000047,0.0,0.0,0.0,16.75,0.0,-1074.8031377792358,0.0,0.25,4.206542538,0.5533560492066895,0.0012207029999995456,19.0,26.875,0.0,-1074.8031377792358,0.0,0.0,1.6101072570000001,4.397316058113635,0.0,0.0,24.375,0.0,-1074.8031377792358,0.0,0.0,1.900634571,4.401758689006861,0.0,42485.0,5.5,-937.5,-1074.8031377792358,0.0,0.0,3.041991876,0.5515167311543325,0.0,1.2699999809265137,-0.5299999713897705,-128.97999572753906,0.0592041015625,-0.0269775390625,0.8092041015625,34.56999969482422,0.0,-6.0,0.0544891357421875,-0.0266571044921875,Waiting,0.0,0.0,-9260.0,0.0,0.0,0.0,0.0,0.0,
2.773082000000053,0.0,0.0,0.0,18.0,0.0,-1124.4094133377075,0.0,0.25,4.195556211,0.5533560492066895,-0.0012207029999995456,19.0,30.5,0.0,-1124.4094133377075,0.0,0.0,1.6040037420000002,4.397316058113635,0.0,0.0,26.0,0.0,-1124.4094133377075,0.0,0.0,1.900634571,4.401758689006861,0.0,42324.0,5.0,-997.5,-1124.4094133377075,0.0,0.0,3.034667658,0.5515167311543325,0.009765623999999917,1.340000033378601,-0.5899999737739563,-124.55999755859375,-0.15484619140625,0.11260986328125,1.14337158203125,34.56999969482422,0.0,10.0,0.054534912109375,-0.0295257568359375,Waiting,0.0,0.0,-9260.0,0.0,0.0,0.0,0.0,0.0,
2.80673900000006,0.0,0.0,0.0,18.875,0.0,-1140.9448385238647,0.0,0.25,4.1906733990000005,0.5533560492066895,0.0,19.0,32.0,0.0,-1140.9448385238647,0.0,0.0,1.6040037420000002,4.397316058113635,0.0,0.0,27.75,0.0,-1140.9448385238647,0.0,0.0,1.900634571,4.401758689006861,0.0,42324.0,2.75,-1087.5,-1140.9448385238647,0.0,0.0,3.041991876,0.5515167311543325,0.0,1.1799999475479126,-0.800000011920929,-119.76000213623047,-0.1551513671875,0.071533203125,1.119384765625,34.56999969482422,0.0,27.0,0.0547943115234375,-0.0329437255859375,Waiting,0.0,0.0,-9260.0,0.0,0.0,0.0,0.0,0.0,
2.8343190000000176,0.0,0.0,0.0,19.625,0.0,-1157.480263710022,0.0,0.25,4.21142535,0.5533560492066895,0.0,19.0,37.0,0.0,-1157.480263710022,0.0,0.0,1.6088865540000001,4.397316058113635,0.0,0.0,29.875,0.0,-1157.480263710022,0.0,0.0,1.900634571,4.401758689006861,0.0,42324.0,1.625,-1147.5,-1157.480263710022,0.0,0.0,3.045653985,0.5515167311543325,0.0,1.149999976158142,-0.8600000143051147,-114.5999984741211,0.0068359375,0.01263427734375,0.99932861328125,34.56999969482422,0.0,-2.0,0.0548858642578125,-0.0368194580078125,Waiting,0.0,0.0,-9260.0,0.0,0.0,0.0,0.0,0.0,
2.8684629999999887,0.0,0.0,0.0,21.75,0.0,-1157.480263710022,0.0,0.25,4.1931148050000004,0.5533560492066895,0.0,19.0,38.75,0.0,-1157.480263710022,0.0,0.0,1.59912093,4.397316058113635,-0.0012207029999995456,0.0,31.125,0.0,-1157.480263710022,0.0,0.0,1.901855274,4.401758689006861,0.0,42103.0,0.625,-1222.5,-1157.480263710022,0.0,0.0,3.045653985,0.5515167311543325,0.004882811999999959,0.9599999785423279,-1.1299999952316284,-106.16999816894531,-0.06719970703125,0.13330078125,1.046875,34.56999969482422,0.0,-98.0,0.0552978515625,-0.043609619140625,Waiting,0.0,0.0,-9260.0,0.0,0.0,0.0,0.0,0.0,
2.89541100000008,0.0,0.0,0.0,22.5,0.0,-1174.0156888961792,0.0,0.25,4.19921832,0.5533560492066895,0.004882811999999959,19.0,40.0,0.0,-1174.0156888961792,0.0,0.0,1.600341633,4.397316058113635,0.0,0.0,32.375,0.0,-1174.0156888961792,0.0,0.0,1.900634571,4.401758689006861,0.0,42103.0,0.0,-1402.5,-1174.0156888961792,0.0,0.0,3.045653985,0.5515167311543325,0.0,0.9200000166893005,-1.1799999475479126,-103.19000244140625,0.12518310546875,-0.0843505859375,0.7935791015625,34.56999969482422,0.0,62.0,0.0554046630859375,-0.04595947265625,Waiting,0.0,0.0,-9260.0,0.0,0.0,0.0,0.0,0.0,
2.9287630000000355,0.0,0.0,0.0,21.5,0.0,-1190.5512392520905,0.0,0.25,4.196776914,0.5533560492066895,-0.0012207030000004337,19.0,40.375,0.0,-1190.5512392520905,0.0,0.0,1.595458821,4.397316058113635,0.0,0.0,31.125,0.0,-1190.5512392520905,0.0,0.0,1.912841601,4.401758689006861,0.0012207030000004337,42103.0,0.0,-1477.5,-1190.5512392520905,0.0,0.0,3.045653985,0.5515167311543325,0.0,0.800000011920929,-1.25,-97.0,-0.11199951171875,0.1392822265625,1.04083251953125,34.56999969482422,0.0,-112.0,0.055572509765625,-0.05096435546875,Waiting,0.0,0.0,-9260.0,0.0,0.0,0.0,0.0,0.0,
2.9592600000000093,0.0,0.0,0.0,20.625,0.0,-1372.44091629982,0.0,0.25,4.200439023,0.5533560492066895,0.0,19.0,39.75,0.0,-1372.44091629982,0.0,0.0,1.594238118,4.397316058113635,0.0,0.0,30.875,0.0,-1372.44091629982,0.0,0.0,1.901855274,4.401758689006861,0.0,42103.0,0.0,-1567.5,-1372.44091629982,0.0,0.0,3.046874688,0.5515167311543325,-0.0012207029999999897,0.6200000047683716,-1.4500000476837158,-90.5199966430664,0.1490478515625,-0.0067138671875,0.98876953125,34.56999969482422,0.0,16.0,0.0555267333984375,-0.056243896484375,Waiting,0.0,0.0,-9260.0,0.0,0.0,0.0,0.0,0.0,
2.9911650000000374,0.0,0.0,0.0,19.125,0.0,-1703.1495451927185,0.0,0.25,4.19921832,0.5533560492066895,0.0,20.0,37.625,0.0,-1703.1495451927185,0.0,0.0,1.595458821,4.397316058113635,0.0,0.0,30.375,0.0,-1703.1495451927185,0.0,0.0,1.900634571,4.401758689006861,0.0,41836.0,0.0,-1605.0,-1703.1495451927185,0.0,0.0,3.045653985,0.5515167311543325,0.0,0.4099999964237213,-1.4600000381469727,-83.79000091552734,-0.04461669921875,0.0823974609375,0.94757080078125,34.56999969482422,0.0,-77.0,0.0550079345703125,-0.0587310791015625,Waiting,0.0,0.0,-9260.0,0.0,0.0,0.0,0.0,0.0,
3.024649000000092,0.0,0.0,0.0,18.375,0.0,-1835.4330718517301,0.0,0.25,4.19921832,0.5533560492066895,0.0,20.0,36.5,0.0,-1835.4330718517301,0.0,0.0,1.594238118,4.397316058113635,-0.0012207030000004337,0.0,29.875,0.0,-1835.4330718517301,0.0,0.0,1.900634571,4.401758689006861,0.0012207030000004337,41836.0,0.0,-1687.5,-1835.4330718517301,0.0,0.0,3.046874688,0.5515167311543325,0.0,0.3199999928474426,-1.600000023841858,-76.83000183105469,-0.0765380859375,0.093994140625,1.48046875,34.56999969482422,0.0,-91.0,0.054229736328125,-0.0589599609375,Waiting,0.0,0.0,-9260.0,0.0,0.0,0.0,0.0,0.0,
3.0529550000000745,0.0,0.0,0.0,17.375,0.0,-1918.1101977825167,0.0,0.25,4.201659726,0.5533560492066895,0.0,20.0,35.25,-30.0,-1918.1101977825167,0.0,0.0,1.595458821,4.397316058113635,0.0,0.0,29.5,0.0,-1918.1101977825167,0.0,0.0,1.900634571,4.401758689006861,0.0,41836.0,0.0,-1732.5,-1918.1101977825167,0.0,0.0,3.0505367970000004,0.5515167311543325,0.004882812000000403,0.009999999776482582,-1.4900000095367432,-69.62999725341797,-0.01336669921875,0.1158447265625,0.47784423828125,34.56999969482422,0.0,-108.0,0.0528564453125,-0.05938720703125,Waiting,0.0,0.0,-9260.0,0.0,0.0,0.0,0.0,0.0,
3.0863790000000737,0.0,0.0,0.0,17.0,0.0,-1918.1101977825167,0.0,0.25,4.205321835,0.5533560492066895,-0.0012207030000004337,20.0,34.625,-90.0,-1918.1101977825167,0.0,0.0,1.590576009,4.397316058113635,-0.0012207030000004337,0.0,28.125,0.0,-1918.1101977825167,0.0,0.0,1.901855274,4.401758689006861,-0.0012207030000004337,41836.0,0.0,-1830.0,-1918.1101977825167,0.0,0.0,3.0505367970000004,0.5515167311543325,0.0,-0.019999999552965164,-1.6100000143051147,-62.20000076293945,-0.0413818359375,0.10455322265625,1.5382080078125,34.54999923706055,0.0,-92.0,0.0508880615234375,-0.0596923828125,Waiting,0.0,0.0,-9260.0,0.0,0.0,0.0,0.0,0.0,
3.1157540000000736,0.0,0.0,0.0,16.125,0.0,-2033.858299255371,0.0,0.125,4.210204647,0.5533560492066895,0.0,-92.0,33.0,-345.0,-2033.858299255371,0.0,0.0,1.590576009,4.397316058113635,-0.003662108999999525,0.0,28.0,0.0,-2033.858299255371,0.0,0.0,1.900634571,4.401758689006861,0.0012207030000004337,41526.0,0.0,-1875.0,-2033.858299255371,0.0,0.0,3.0517575000000003,0.5515167311543325,0.0,-0.3100000023841858,-1.4900000095367432,-54.529998779296875,0.02459716796875,0.18499755859375,0.52764892578125,34.54999923706055,0.0,-130.0,0.04840087890625,-0.0599822998046875,Waiting,0.0,0.0,-9260.0,0.0,0.0,0.0,0.0,0.0,
3.1490230000000445,0.0,0.0,0.0,15.75,0.0,-2066.929149627686,0.0,0.125,4.21142535,0.5533560492066895,0.004882811999999959,-92.0,32.0,-900.0,-2066.929149627686,0.0,0.0,1.590576009,4.397316058113635,0.0,0.0,26.5,0.0,-2066.929149627686,0.0,0.0,1.900634571,4.401758689006861,0.0,41526.0,0.0,-1965.0,-2066.929149627686,0.0,0.0,3.0505367970000004,0.5515167311543325,0.0,-0.41999998688697815,-1.4700000286102295,-42.68000030517578,0.02734375,0.12896728515625,1.17156982421875,34.54999923706055,0.0,-50.0,0.0444488525390625,-0.05902099609375,Waiting,0.0,0.0,-9260.0,0.0,0.0,0.0,0.0,0.0,
3.1785270000000017,0.0,0.0,0.0,15.375,0.0,-2066.929149627686,0.0,0.125,4.215087459,0.5533560492066895,0.0,-92.0,30.875,-1237.5,-2066.929149627686,0.0,0.0,1.590576009,4.397316058113635,0.0,0.0,26.125,0.0,-2066.929149627686,0.0,0.0,1.900634571,4.401758689006861,0.0,41526.0,0.0,-2002.5,-2066.929149627686,0.0,0.0,3.0554196090000003,0.5515167311543325,0.0024414059999999793,-0.4699999988079071,-1.4800000190734863,-38.650001525878906,0.05535888671875,0.01123046875,1.12030029296875,34.54999923706055,0.0,53.0,0.04315185546875,-0.0583648681640625,Waiting,0.0,0.0,-9260.0,0.0,0.0,0.0,0.0,0.0,
3.2104220000000203,0.0,0.0,0.0,15.0,0.0,-2083.4645748138432,0.0,0.125,4.215087459,0.5533560492066895,0.0,-92.0,29.5,-1500.0,-2083.4645748138432,0.0,0.0,1.585693197,4.397316058113635,0.0,0.0,25.25,0.0,-2083.4645748138432,0.0,0.0,1.901855274,4.401758689006861,0.0,41526.0,0.0,-2077.5,-2083.4645748138432,0.0,0.0,3.0554196090000003,0.5515167311543325,0.003662108999999969,-0.6399999856948853,-1.3799999952316284,-26.299999237060547,-0.1630859375,0.0902099609375,1.20269775390625,34.54999923706055,0.0,-166.0,0.037811279296875,-0.055572509765625,Waiting,0.0,0.0,-9260.0,0.0,0.0,0.0,0.0,0.0,
3.2357200000000885,0.0,0.0,0.0,14.375,0.0,-2083.4645748138432,0.0,0.125,4.216308162,0.5533560492066895,0.0,-324.0,28.75,-1612.5,-2083.4645748138432,0.0,0.0,1.585693197,4.397316058113635,0.0,0.0,24.625,0.0,-2083.4645748138432,0.0,0.0,1.900634571,4.401758689006861,0.0,41183.0,0.0,-2107.5,-2083.4645748138432,0.0,0.0,3.0566403120000003,0.5515167311543325,0.0,-0.8700000047683716,-1.3200000524520874,-17.889999389648438,-0.002685546875,-0.003173828125,0.7401123046875,34.54999923706055,0.0,11.0,0.033477783203125,-0.0533599853515625,Waiting,0.0,0.0,-9260.0,0.0,0.0,0.0,0.0,0.0,
3.2686750000000466,0.0,0.0,0.0,14.25,0.0,-2083.4645748138432,0.0,0.125,4.217528865,0.5533560492066895,0.0,-324.0,28.25,-1455.0,-2083.4645748138432,0.0,0.0,1.5869139,4.397316058113635,0.0,0.0,24.25,0.0,-2083.4645748138432,0.0,0.0,1.9201658190000002,4.401758689006861,-0.0012207030000004337,41183.0,0.0,-2152.5,-2083.4645748138432,0.0,0.0,3.0566403120000003,0.5515167311543325,0.0,-0.9900000095367432,-1.1200000047683716,-9.380000114440918,0.028076171875,0.11688232421875,1.06964111328125,34.54999923706055,0.0,26.0,0.0293731689453125,-0.0506439208984375,Waiting,0.0,0.0,-9260.0,0.0,0.0,0.0,0.0,0.0,
3.2957560000000523,0.0,0.0,0.0,14.0,0.0,-2083.4645748138432,0.0,0.125,4.212646053,0.5533560492066895,0.0,-324.0,27.5,-1087.5,-2083.4645748138432,0.0,0.0,1.585693197,4.397316058113635,0.0,0.0,24.0,0.0,-2083.4645748138432,0.0,0.0,1.900634571,4.401758689006861,0.0,41183.0,0.0,-2175.0,-2083.4645748138432,0.0,0.0,3.0554196090000003,0.5515167311543325,0.0,-0.9599999785423279,-1.090000033378601,-0.75,-0.18255615234375,0.1722412109375,1.34210205078125,34.54999923706055,0.0,-159.0,0.0251007080078125,-0.047027587890625,Waiting,0.0,0.0,-9260.0,0.0,0.0,0.0,0.0,0.0,
3.331719000000041,0.0,0.0,0.0,13.625,0.0,-2100.0,0.0,0.125,4.223632380000001,0.5533560492066895,0.003662109000000413,-324.0,26.625,-945.0,-2100.0,0.0,0.0,1.585693197,4.397316058113635,0.0,0.0,23.625,0.0,-2100.0,0.0,0.0,1.901855274,4.401758689006861,0.0,41183.0,0.0,-2205.0,-2100.0,0.0,0.0,3.0554196090000003,0.5515167311543325,0.0,-1.0800000429153442,-0.8399999737739563,7.949999809265137,0.125732421875,0.1295166015625,0.3692626953125,34.54999923706055,0.0,148.0,0.020355224609375,-0.0424346923828125,Waiting,0.0,0.0,-9260.0,0.0,0.0,0.0,0.0,0.0,
3.364560999999987,0.0,0.0,0.0,13.0,0.0,-2100.0,0.0,0.125,4.219970271,0.5533560492066895,0.0,-429.0,25.5,-690.0,-2100.0,0.0,0.0,1.585693197,4.397316058113635,-0.003662109000000413,0.0,22.375,0.0,-2100.0,0.0,0.0,1.8994138680000001,4.401758689006861,0.0,40828.0,0.0,-2212.5,-2100.0,0.0,0.0,3.0554196090000003,0.5515167311543325,-0.0012207029999999897,-0.9900000095367432,-0.8500000238418579,16.75,-0.0919189453125,0.2613525390625,1.66851806640625,34.54999923706055,0.0,19.0,0.015777587890625,-0.0368499755859375,Waiting,0.0,0.0,-9260.0,0.0,0.0,0.0,0.0,0.0,
3.392663000000059,0.0,0.0,0.0,12.625,0.0,-2100.0,0.0,0.125,4.226073786000001,0.5533560492066895,0.0,-429.0,25.0,-562.5,-2100.0,0.0,0.0,1.5808103850000002,4.397316058113635,0.0,0.0,22.5,0.0,-2100.0,0.0,0.0,1.8981931650000001,4.401758689006861,0.0,40828.0,0.0,-2212.5,-2100.0,0.0,0.0,3.0590817180000003,0.5515167311543325,0.0,-1.1399999856948853,-0.5099999904632568,25.59000015258789,0.08880615234375,-0.1810302734375,0.25189208984375,34.54999923706055,0.0,6.0,0.011383056640625,-0.0306396484375,Waiting,0.0,0.0,-9260.0,0.0,0.0,0.0,0.0,0.0,
3.428319000000018,0.0,0.0,0.0,12.25,0.0,-2100.0,0.0,0.125,4.227294489,0.5533560492066895,0.003662109000000413,-429.0,23.375,-270.0,-2100.0,0.0,0.0,1.5808103850000002,4.397316058113635,0.0,0.0,22.25,0.0,-2100.0,0.0,0.0,1.900634571,4.401758689006861,-0.0012207030000004337,40828.0,0.0,-2205.0,-2100.0,0.0,0.0,3.0554196090000003,0.5515167311543325,0.0,-1.0099999904632568,-0.5899999737739563,34.5099983215332,0.1483154296875,0.40380859375,1.34832763671875,34.54999923706055,0.0,375.0,0.007171630859375,-0.0242767333984375,Waiting,0.0,0.0,-9260.0,0.0,0.0,0.0,0.0,0.0,
3.4564370000000344,0.0,0.0,0.0,11.75,0.0,-2100.0,0.0,0.125,4.2358394100000005,0.5533560492066895,0.0,-429.0,22.625,-165.0,-2100.0,0.0,0.0,1.5820310880000001,4.397316058113635,0.0,0.0,22.875,0.0,-2100.0,0.0,0.0,1.8969724620000001,4.401758689006861,0.0,40828.0,0.0,-2190.0,-2100.0,0.0,0.0,3.0554196090000003,0.5515167311543325,0.0,-1.0499999523162842,-0.27000001072883606,43.40999984741211,-0.080078125,0.29010009765625,0.8624267578125,34.54999923706055,0.0,155.0,0.0034637451171875,-0.0173187255859375,Waiting,0.0,0.0,-9260.0,0.0,0.0,0.0,0.0,0.0,
3.489959000000032,0.0,0.0,0.0,11.5,0.0,-2100.0,0.0,0.125,4.244384331,0.5533560492066895,0.014648435999999876,-462.0,21.875,-97.5,-2100.0,0.0,0.0,1.5808103850000002,4.397316058113635,0.0,0.0,22.25,0.0,-2100.0,0.0,0.0,1.900634571,4.401758689006861,0.0,40479.0,0.0,-2182.5,-2100.0,0.0,0.0,3.0541989060000003,0.5515167311543325,0.0,-0.9100000262260437,-0.3400000035762787,56.900001525878906,-0.142333984375,-0.08856201171875,1.7252197265625,34.54999923706055,0.0,-123.0,-0.001312255859375,-0.00567626953125,Waiting,0.0,0.0,-9260.0,0.0,0.0,0.0,0.0,0.0,
3.5240460000000895,0.0,0.0,0.0,11.5,0.0,-2100.0,0.0,0.125,4.249267143,0.5533560492066895,0.0,-462.0,21.75,-172.5,-2100.0,0.0,0.0,1.5808103850000002,4.397316058113635,0.0,0.0,22.5,0.0,-2100.0,0.0,0.0,1.8969724620000001,4.401758689006861,0.0024414059999999793,40479.0,0.0,-2190.0,-2100.0,0.0,0.0,3.0554196090000003,0.5515167311543325,0.0,-0.8199999928474426,-0.2199999988079071,65.97000122070312,0.0037841796875,0.06744384765625,0.76446533203125,34.54999923706055,0.0,74.0,-0.00384521484375,0.0030517578125,Waiting,0.0,0.0,-9260.0,0.0,0.0,0.0,0.0,0.0,
3.552716000000015,0.0,0.0,0.0,11.25,0.0,-2100.0,0.0,0.125,4.255370658,0.5533560492066895,0.0,-462.0,21.5,-315.0,-2100.0,0.0,0.0,1.5795896820000002,4.397316058113635,0.0,0.0,23.625,0.0,-2100.0,0.0,0.0,1.901855274,4.401758689006861,0.0,40479.0,0.0,-2205.0,-2100.0,0.0,0.0,3.0554196090000003,0.5515167311543325,0.0,-0.8799999952316284,0.0,75.12000274658203,-0.1177978515625,0.2469482421875,1.10406494140625,34.54999923706055,0.0,224.0,-0.006072998046875,0.0117645263671875,Waiting,0.0,0.0,-9260.0,0.0,0.0,0.0,0.0,0.0,
3.586237000000081,0.0,0.0,0.0,11.0,0.0,-2100.0,0.0,0.125,4.257812064,0.5533560492066895,0.0,-462.0,21.75,-405.0,-2100.0,0.0,0.0,1.613769366,4.397316058113635,0.0,0.0,23.375,0.0,-2100.0,0.0,0.0,1.8994138680000001,4.401758689006861,0.0,40479.0,0.0,-2235.0,-2100.0,0.0,0.0,3.0554196090000003,0.5515167311543325,0.0,-0.5600000023841858,-0.09000000357627869,84.33000183105469,-0.13763427734375,0.271728515625,1.161865234375,34.529998779296875,0.0,268.0,-0.00732421875,0.0213775634765625,Waiting,0.0,0.0,-9260.0,0.0,0.0,0.0,0.0,0.0,
3.6188740000000688,0.0,0.0,0.0,10.125,0.0,-2100.0,0.0,0.125,4.261474173,0.5533560492066895,0.0,-565.0,22.75,-645.0,-2100.0,0.0,0.0,1.5808103850000002,4.397316058113635,0.0,0.0,23.75,0.0,-2100.0,0.0,0.0,1.901855274,4.401758689006861,0.0012207030000004337,40117.0,0.0,-2250.0,-2100.0,0.0,0.0,3.0554196090000003,0.5515167311543325,0.0,-0.5799999833106995,0.1599999964237213,93.5999984741211,-0.18792724609375,0.14141845703125,0.77801513671875,34.529998779296875,0.0,161.0,-0.0075836181640625,0.0315399169921875,Waiting,0.0,0.0,-9260.0,0.0,0.0,0.0,0.0,0.0,
3.650683000000077,0.0,0.0,0.0,10.125,0.0,-2100.0,0.0,0.125,4.261474173,0.5533560492066895,0.0,-565.0,22.625,-757.5,-2100.0,0.0,0.0,1.5759275730000002,4.397316058113635,0.0,0.0,23.75,0.0,-2100.0,0.0,0.0,1.900634571,4.401758689006861,0.0,40117.0,0.0,-2272.5,-2100.0,0.0,0.0,3.0554196090000003,0.5515167311543325,0.0,-0.36000001430511475,0.0,102.91999816894531,-0.1248779296875,0.17169189453125,1.28125,34.529998779296875,0.0,203.0,-0.0069427490234375,0.0425567626953125,Waiting,0.0,0.0,-9260.0,0.0,0.0,0.0,0.0,0.0,
3.6771870000000346,0.0,0.0,0.0,10.125,0.0,-2100.0,0.0,0.125,4.261474173,0.5533560492066895,0.0012207029999995456,-565.0,22.875,-847.5,-2100.0,0.0,0.0,1.5771482760000002,4.397316058113635,-0.0012207029999995456,0.0,23.75,0.0,-2100.0,0.0,0.0,1.900634571,4.401758689006861,0.0012207030000004337,40117.0,0.0,-2287.5,-2100.0,0.0,0.0,3.0554196090000003,0.5515167311543325,0.0,-0.20999999344348907,0.14000000059604645,112.2699966430664,0.05926513671875,0.09991455078125,0.77911376953125,34.529998779296875,0.0,73.0,-0.0053253173828125,0.053558349609375,Waiting,0.0,0.0,-9260.0,0.0,0.0,0.0,0.0,0.0,
3.709654000000097,0.0,0.0,0.0,10.125,0.0,-2100.0,0.0,0.125,4.261474173,0.5533560492066895,0.0,-565.0,22.75,-780.0,-2100.0,0.0,0.0,1.5783689790000002,4.397316058113635,0.0,0.0,23.375,0.0,-2100.0,0.0,0.0,1.900634571,4.401758689006861,0.0,39750.0,0.0,-2287.5,-2100.0,0.0,0.0,3.0554196090000003,0.5515167311543325,0.0,-0.12999999523162842,0.07999999821186066,121.6500015258789,-0.12481689453125,0.1483154296875,0.588134765625,34.529998779296875,0.0,193.0,-0.002593994140625,0.0642852783203125,Waiting,0.0,0.0,-9260.0,0.0,0.0,0.0,0.0,0.0,
3.735777000000002,0.0,0.0,0.0,10.125,0.0,-2100.0,0.0,0.125,4.262694876,0.5533560492066895,0.0012207029999995456,-674.0,22.75,-780.0,-2100.0,0.0,0.0,1.5759275730000002,4.397316058113635,0.0,0.0,23.375,0.0,-2100.0,0.0,0.0,1.900634571,4.401758689006861,0.0,39750.0,0.0,-2295.0,-2100.0,0.0,0.0,3.0554196090000003,0.5515167311543325,0.0,0.07000000029802322,0.03999999910593033,131.0500030517578,0.16015625,0.15435791015625,1.15234375,34.529998779296875,0.0,10.0,0.001220703125,0.0747528076171875,Waiting,0.0,0.0,-9260.0,0.0,0.0,0.0,0.0,0.0,
3.7706660000000847,0.0,0.0,0.0,10.375,0.0,-2100.0,0.0,0.125,4.261474173,0.5533560492066895,-0.0012207029999995456,-674.0,23.0,-907.5,-2100.0,0.0,0.0,1.5759275730000002,4.397316058113635,0.0,0.0,23.625,0.0,-2100.0,0.0,0.0,1.900634571,4.401758689006861,0.0,39750.0,0.0,-2302.5,-2100.0,0.0,0.0,3.0554196090000003,0.5515167311543325,0.0,0.14000000059604645,-0.05999999865889549,140.4600067138672,0.03009033203125,0.11151123046875,0.6260986328125,34.529998779296875,0.0,46.0,0.006011962890625,0.084747314453125,Waiting,0.0,0.0,-9260.0,0.0,0.0,0.0,0.0,0.0,
3.796439000000013,0.0,0.0,0.0,10.375,0.0,-2100.0,0.0,0.125,4.261474173,0.5533560492066895,0.0012207029999995456,-674.0,23.0,-1072.5,-2100.0,0.0,0.0,1.5771482760000002,4.397316058113635,0.0,0.0,23.125,0.0,-2100.0,0.0,0.0,1.901855274,4.401758689006861,0.0,39750.0,0.0,-2317.5,-2100.0,0.0,0.0,3.0554196090000003,0.5515167311543325,0.0,0.10000000149011612,-0.07999999821186066,149.86000061035156,-0.10052490234375,0.42633056640625,1.03875732421875,34.529998779296875,0.0,75.0,0.0142669677734375,0.0982208251953125,Waiting,0.0,0.0,-9260.0,0.0,0.0,0.0,0.0,0.0,
3.8311010000000243,0.0,0.0,0.0,10.25,0.0,-2100.0,0.0,0.125,4.266356985,0.5533560492066895,-0.0012207029999995456,-674.0,23.125,-1350.0,-2100.0,0.0,0.0,1.597900227,4.397316058113635,0.0,0.0,23.125,0.0,-2100.0,0.0,0.0,1.900634571,4.401758689006861,0.0012207030000004337,39377.0,0.125,-2325.0,-2100.0,0.0,0.0,3.0566403120000003,0.5515167311543325,0.0,0.2800000011920929,-0.33000001311302185,159.25,-0.17474365234375,0.083984375,1.120849609375,34.529998779296875,0.0,185.0,0.0174102783203125,0.1022491455078125,Waiting,0.0,0.0,-9260.0,0.0,0.0,0.0,0.0,0.0,
3.862886000000057,0.0,0.0,0.0,10.25,0.0,-2100.0,0.0,0.125,4.267577688,0.5533560492066895,0.0,-925.0,23.25,-1447.5,-2100.0,0.0,0.0,1.5759275730000002,4.397316058113635,0.0,0.0,22.625,0.0,-2100.0,0.0,0.0,1.8957517590000001,4.401758689006861,0.0,39377.0,0.25,-2325.0,-2100.0,0.0,0.0,3.0554196090000003,0.5515167311543325,0.0,0.23999999463558197,-0.5099999904632568,173.2899932861328,0.023193359375,0.0455322265625,0.9947509765625,34.529998779296875,0.0,-27.0,0.0274810791015625,0.113739013671875,Waiting,0.0,0.0,-9260.0,0.0,0.0,0.0,0.0,0.0,
