Time,ClimberA1,ClimberA2,FRpos,FRCurrent,FRspeed,FRsetpoint,FRApos,FRACurrent,FREncpos,FREncSetpoint,FREncSpeed,FLpos,FLCurrent,FLspeed,FLsetpoint,FLApos,FLACurrent,FLEncpos,FLEncSetpoint,FLEncSpeed,BRpos,BRCurrent,BRspeed,BRsetpoint,BRApos,BRACurrent,BREncpos,BREncSetpoint,BREncSpeed,BLpos,BLCurrent,BLspeed,BLsetpoint,BLApos,BLACurrent,BLEncpos,BLEncSetpoint,BLEncSpeed,navx_Pitch,navx_Roll,navx_Yaw,navx_XAcc,navx_YAcc,navx_ZAcc,navx_Temp,navx_Bar,navx_Alt,navx_XDis,navx_YDis,GearPlacerState,ShootOutputV,ShootOutputCurrent,ShootEncPos,ShootEncVelocity,ShootSpeed,ShootSetpoint,CarouselSetpoint,CarouselCurrent,
0.15461900000018067,0.0,0.0,0.0,0.0,0.0,0.0,0.0,0.125,3.77197227,0.0,0.0,-747.0,0.0,0.0,0.0,0.0,0.0,2.0703122880000002,0.0,0.0,0.0,0.0,0.0,0.0,0.0,0.0,4.218749568,0.0,0.0,-16473.0,0.0,0.0,0.0,0.0,0.0,2.4328610790000003,0.0,0.0,-0.10000000149011612,88.62000274658203,-106.29000091552734,1.00616455078125,-0.00189208984375,-0.0267333984375,35.47999954223633,0.0,2.0,0.059051513671875,-0.020660400390625,Waiting,0.0,0.0,-24581.0,0.0,0.0,0.0,0.0,0.0,
0.2803870000001043,0.0,0.0,0.0,0.0,0.0,0.0,0.0,0.125,3.77197227,0.0,0.0,-747.0,0.0,0.0,-0.0,0.0,0.0,2.0703122880000002,0.0,0.0,0.0,0.0,0.0,0.0,0.0,0.0,4.218749568,0.0,0.0,-16473.0,0.0,0.0,-0.0,0.0,0.0,2.457275139,0.0,0.0,-0.10000000149011612,88.61000061035156,-106.37999725341797,1.007080078125,-0.00140380859375,-0.02825927734375,35.47999954223633,0.0,4.0,0.059051513671875,-0.020660400390625,Waiting,0.0,0.0,-24581.0,0.0,0.0,0.0,0.0,0.0,
0.3987270000001881,0.0,0.0,0.0,0.0,0.0,0.0,0.0,0.125,3.77197227,0.0,0.0,-747.0,0.0,0.0,-0.0,0.0,0.0,2.0703122880000002,0.0,0.0,0.0,0.0,0.0,0.0,0.0,0.0,4.215087459,0.0,0.0,-16473.0,0.0,0.0,-0.0,0.0,0.0,2.467040763,0.0,0.0,-0.10000000149011612,88.61000061035156,-106.37999725341797,1.00653076171875,-0.00152587890625,-0.0235595703125,35.47999954223633,0.0,0.0,0.059051513671875,-0.020660400390625,Waiting,0.0,0.0,-24581.0,0.0,0.0,0.0,0.0,0.0,
0.5194610000001266,0.0,0.0,0.0,0.0,0.0,0.0,0.0,0.125,3.770751567,0.0,0.0,-747.0,0.0,0.0,-0.0,0.0,0.0,2.0703122880000002,0.0,0.0,0.0,0.0,0.0,0.0,0.0,0.0,4.218749568,0.0,0.0,-16473.0,0.0,0.0,-0.0,0.0,0.0,2.467040763,0.0,0.0,-0.10000000149011612,88.61000061035156,-106.37999725341797,1.0047607421875,-0.00347900390625,-0.02667236328125,35.439998626708984,0.0,2.0,0.059051513671875,-0.020660400390625,Waiting,0.0,0.0,-24581.0,0.0,0.0,0.0,0.0,0.0,
0.6301060000001453,0.0,0.0,0.0,0.0,0.0,0.0,0.0,0.125,3.770751567,0.0,0.0,-747.0,0.0,0.0,-0.0,0.0,0.0,2.0690915850000002,0.0,0.0,0.0,0.0,0.0,0.0,0.0,0.0,4.218749568,0.0,0.0,-16473.0,0.0,0.0,-0.0,0.0,0.0,2.46582006,0.0,0.0,-0.10000000149011612,88.62000274658203,-106.2699966430664,1.00146484375,-2.44140625E-4,-0.0238037109375,35.439998626708984,0.0,0.0,0.059051513671875,-0.020660400390625,Waiting,0.0,0.0,-24581.0,0.0,0.0,0.0,0.0,0.0,
0.7487350000001024,0.0,0.0,0.0,0.0,0.0,0.0,0.0,0.125,3.770751567,0.0,0.0,-747.0,0.0,0.0,-0.0,0.0,0.0,2.0703122880000002,0.0,0.0,0.0,0.0,0.0,0.0,0.0,0.0,4.219970271,0.0,0.0,-16473.0,0.0,0.0,-0.0,0.0,0.0,2.467040763,0.0,0.0,-0.10999999940395355,88.62000274658203,-106.27999877929688,1.0047607421875,-1.220703125E-4,-0.02459716796875,35.439998626708984,0.0,0.0,0.059051513671875,-0.020660400390625,Waiting,0.0,0.0,-24581.0,0.0,0.0,0.0,0.0,0.0,
0.8718240000000224,0.0,0.0,0.0,0.0,0.0,0.0,0.0,0.125,3.77197227,0.0,0.0,-747.0,0.0,0.0,-0.0,0.0,0.0,2.0703122880000002,0.0,0.0,0.0,0.0,0.0,0.0,0.0,0.0,4.218749568,0.0,0.0,-16473.0,0.0,0.0,-0.0,0.0,0.0,2.467040763,0.0,0.0,-0.10000000149011612,88.62000274658203,-106.2699966430664,1.004638671875,-0.00250244140625,-0.0242919921875,35.439998626708984,0.0,0.0,0.059051513671875,-0.020660400390625,Waiting,0.0,0.0,-24581.0,0.0,0.0,0.0,0.0,0.0,
0.986658000000054,0.0,0.0,0.0,0.0,0.0,0.0,0.0,0.125,3.77197227,0.0,0.0,-747.0,0.0,0.0,-0.0,0.0,0.0,2.0703122880000002,0.0,0.0,0.0,0.0,0.0,0.0,0.0,0.0,4.218749568,0.0,0.0,-16473.0,0.0,0.0,-0.0,0.0,0.0,2.46582006,0.0,0.0,-0.10000000149011612,88.61000061035156,-106.37999725341797,1.00335693359375,-0.00140380859375,-0.0267333984375,35.470001220703125,0.0,2.0,0.059051513671875,-0.020660400390625,Waiting,0.0,0.0,-24581.0,0.0,0.0,0.0,0.0,0.0,
1.1063880000000355,0.0,0.0,0.0,0.0,0.0,0.0,0.0,0.125,3.767089458,0.0,0.0,-747.0,0.0,0.0,-0.0,0.0,0.0,2.0703122880000002,0.0,0.0,0.0,0.0,0.0,0.0,0.0,0.0,4.218749568,0.0,0.0,-16473.0,0.0,0.0,-0.0,0.0,0.0,2.467040763,0.0,0.0,-0.10000000149011612,88.61000061035156,-106.37999725341797,1.00628662109375,-0.00335693359375,-0.02374267578125,35.470001220703125,0.0,0.0,0.059051513671875,-0.020660400390625,Waiting,0.0,0.0,-24581.0,0.0,0.0,0.0,0.0,0.0,
1.225155000000028,0.0,0.0,0.0,0.0,0.0,0.0,0.0,0.125,3.770751567,0.0,0.0,-747.0,0.0,0.0,-0.0,0.0,0.0,2.0703122880000002,0.0,0.0,0.0,0.0,0.0,0.0,0.0,0.0,4.218749568,0.0,0.0,-16473.0,0.0,0.0,-0.0,0.0,0.0,2.46582006,0.0,0.0,-0.10000000149011612,88.61000061035156,-106.4000015258789,1.00579833984375,0.0028076171875,-0.02825927734375,35.470001220703125,0.0,3.0,0.059051513671875,-0.020660400390625,Waiting,0.0,0.0,-24581.0,0.0,0.0,0.0,0.0,0.0,
1.345597000000067,0.0,0.0,0.0,0.0,0.0,0.0,0.0,0.125,3.77197227,0.0,0.0,-747.0,0.0,0.0,-0.0,0.0,0.0,2.0703122880000002,0.0,0.0,0.0,0.0,0.0,0.0,0.0,0.0,4.219970271,0.0,0.0,-16473.0,0.0,0.0,-0.0,0.0,0.0,2.46582006,0.0,0.0,-0.10000000149011612,88.61000061035156,-106.4000015258789,1.00433349609375,-0.0037841796875,-0.0189208984375,35.470001220703125,0.0,-5.0,0.059051513671875,-0.020660400390625,Waiting,0.0,0.0,-24581.0,0.0,0.0,0.0,0.0,0.0,
1.4724140000001062,0.0,0.0,0.0,0.0,0.0,0.0,0.0,0.125,3.770751567,0.0,0.0,-747.0,0.0,0.0,-0.0,0.0,0.0,2.0703122880000002,0.0,0.0,0.0,0.0,0.0,0.0,0.0,0.0,4.218749568,0.0,0.0,-16473.0,0.0,0.0,-0.0,0.0,0.0,2.467040763,0.0,0.0,-0.10999999940395355,88.61000061035156,-106.38999938964844,1.0045166015625,4.2724609375E-4,-0.02691650390625,35.5,0.0,2.0,0.059051513671875,-0.020660400390625,Waiting,0.0,0.0,-24581.0,0.0,0.0,0.0,0.0,0.0,
1.5951990000000225,0.0,0.0,0.0,0.0,0.0,0.0,0.0,0.125,3.770751567,0.0,0.0,-747.0,0.0,0.0,-0.0,0.0,0.0,2.0703122880000002,0.0,0.0,0.0,0.0,0.0,0.0,0.0,0.0,4.219970271,0.0,0.0,-16473.0,0.0,0.0,-0.0,0.0,0.0,2.467040763,0.0,0.0,-0.10000000149011612,88.61000061035156,-106.37999725341797,1.00592041015625,-0.0013427734375,-0.02459716796875,35.5,0.0,0.0,0.059051513671875,-0.020660400390625,Waiting,0.0,0.0,-24581.0,0.0,0.0,0.0,0.0,0.0,
1.7226040000000502,0.0,0.0,0.0,0.0,0.0,0.0,0.0,0.125,3.770751567,0.0,0.0,-747.0,0.0,0.0,-0.0,0.0,0.0,2.0703122880000002,0.0,0.0,0.0,0.0,0.0,0.0,0.0,0.0,4.218749568,0.0,0.0,-16473.0,0.0,0.0,-0.0,0.0,0.0,2.46582006,0.0,0.0,-0.09000000357627869,88.61000061035156,-106.37999725341797,0.9984130859375,-0.0072021484375,-0.01165771484375,35.5,0.0,-11.0,0.05908203125,-0.020660400390625,Waiting,0.0,0.0,-24581.0,0.0,0.0,0.0,0.0,0.0,
1.8425250000001396,0.0,0.0,0.0,0.0,0.0,0.0,0.0,0.125,3.770751567,0.0,0.0,-747.0,0.0,0.0,-0.0,0.0,0.0,2.0666501790000003,0.0,0.0,0.0,0.0,0.0,0.0,0.0,0.0,4.218749568,0.0,0.0,-16473.0,0.0,0.0,-0.0,0.0,0.0,2.5268552100000004,0.0,0.0,-0.09000000357627869,88.61000061035156,-106.37999725341797,1.006103515625,3.662109375E-4,-0.01611328125,35.5,0.0,-8.0,0.0590972900390625,-0.020660400390625,Waiting,0.0,0.0,-24581.0,0.0,0.0,0.0,0.0,0.0,
1.9631800000001676,0.0,0.0,0.0,0.0,0.0,0.0,0.0,0.125,3.770751567,0.0,0.0,-747.0,0.0,0.0,-0.0,0.0,0.0,2.0703122880000002,0.0,0.0,0.0,0.0,0.0,0.0,0.0,0.0,4.221190974000001,0.0,0.0,-16473.0,0.0,0.0,-0.0,0.0,0.0,2.564697003,0.0,0.0,-0.09000000357627869,88.62000274658203,-106.2699966430664,0.9921875,0.0057373046875,-0.010986328125,35.4900016784668,0.0,-13.0,0.0596466064453125,-0.0200958251953125,Waiting,0.0,0.0,-24581.0,0.0,0.0,0.0,0.0,0.0,
2.0820760000001175,0.0,0.0,0.0,0.0,0.0,0.0,0.0,0.125,3.77197227,0.0,0.0,-747.0,0.0,0.0,-0.0,0.0,0.0,2.0703122880000002,0.0,0.0,0.0,0.0,0.0,0.0,0.0,0.0,4.219970271,0.0,0.0,-16473.0,0.0,0.0,-0.0,0.0,0.0,2.564697003,0.0,0.0,-0.09000000357627869,88.61000061035156,-106.37999725341797,1.00897216796875,-0.00341796875,-0.0238037109375,35.4900016784668,0.0,0.0,0.0596466064453125,-0.0200958251953125,Waiting,0.0,0.0,-24581.0,0.0,0.0,0.0,0.0,0.0,
2.201340000000084,0.0,0.0,0.0,0.0,0.0,0.0,0.0,0.125,3.773192973,0.0,0.0,-747.0,0.0,0.0,-0.0,0.0,0.0,2.0703122880000002,0.0,0.0,0.0,0.0,0.0,0.0,0.0,0.0,4.219970271,0.0,0.0,-16473.0,0.0,0.0,-0.0,0.0,0.0,2.564697003,0.0,0.0,-0.09000000357627869,88.61000061035156,-106.36000061035156,1.00286865234375,-0.00128173828125,-0.0267333984375,35.4900016784668,0.0,2.0,0.0596466064453125,-0.0200958251953125,Waiting,0.0,0.0,-24581.0,0.0,0.0,0.0,0.0,0.0,
2.324618000000017,0.0,0.0,0.0,0.0,0.0,0.0,0.0,0.125,3.770751567,0.0,0.0,-747.0,0.0,0.0,-0.0,0.0,0.0,2.0703122880000002,0.0,0.0,0.0,0.0,0.0,0.0,0.0,0.0,4.217528865,0.0,0.0,-16473.0,0.0,0.0,-0.0,0.0,0.0,2.554931379,0.0,0.0,-0.09000000357627869,88.62000274658203,-106.25,1.0072021484375,-0.0045166015625,-0.02520751953125,35.4900016784668,0.0,1.0,0.0596466064453125,-0.0200958251953125,Waiting,0.0,0.0,-24581.0,0.0,0.0,0.0,0.0,0.0,
2.4444890000000594,0.0,0.0,0.0,0.0,0.0,0.0,0.0,0.125,3.77197227,0.0,0.0,-747.0,0.0,0.0,-0.0,0.0,0.0,2.0703122880000002,0.0,0.0,0.0,0.0,0.0,0.0,0.0,0.0,4.218749568,0.0,0.0,-16473.0,0.0,0.0,-0.0,0.0,0.0,2.419433346,0.0,0.0,-0.09000000357627869,88.62000274658203,-106.25,1.01318359375,-0.0159912109375,-0.04852294921875,35.459999084472656,0.0,25.0,0.059661865234375,-0.0200958251953125,Waiting,0.0,0.0,-24581.0,0.0,0.0,0.0,0.0,0.0,
2.567031000000192,0.0,0.0,0.0,0.0,0.0,0.0,0.0,0.125,3.77197227,0.0,0.0,-747.0,0.0,0.0,-0.0,0.0,0.0,2.0703122880000002,0.0,0.0,0.0,0.0,0.0,0.0,0.0,0.0,4.218749568,0.0,0.0,-16473.0,0.0,0.0,-0.0,0.0,0.0,2.3803708500000003,0.0,0.0,-0.10000000149011612,88.61000061035156,-106.3499984741211,1.01019287109375,0.0068359375,-0.01214599609375,35.459999084472656,0.0,-12.0,0.0597381591796875,-0.0200958251953125,Waiting,0.0,0.0,-24581.0,0.0,0.0,0.0,0.0,0.0,
2.6888649999999905,0.0,0.0,0.0,0.0,0.0,0.0,0.0,0.125,3.77197227,0.0,0.0,-747.0,0.0,0.0,-0.0,0.0,0.0,2.071532991,0.0,0.0,0.0,0.0,0.0,0.0,0.0,0.0,4.215087459,0.0,0.0,-16473.0,0.0,0.0,-0.0,0.0,0.0,2.45361303,0.0,0.0,-0.09000000357627869,88.61000061035156,-106.36000061035156,1.006103515625,-0.0048828125,-0.024658203125,35.459999084472656,0.0,0.0,0.0597381591796875,-0.0200958251953125,Waiting,0.0,0.0,-24581.0,0.0,0.0,0.0,0.0,0.0,
2.8096720000000204,0.0,0.0,0.0,0.0,0.0,0.0,0.0,0.125,3.77197227,0.0,0.0,-747.0,0.0,0.0,-0.0,0.0,0.0,2.0703122880000002,0.0,0.0,0.0,0.0,0.0,0.0,0.0,0.0,4.218749568,0.0,0.0,-16473.0,0.0,0.0,-0.0,0.0,0.0,2.608642311,0.0,0.0,-0.09000000357627869,88.62000274658203,-106.2300033569336,0.97442626953125,-0.0244140625,-0.0211181640625,35.459999084472656,0.0,0.0,0.0596771240234375,-0.0201416015625,Waiting,0.0,0.0,-24581.0,0.0,0.0,0.0,0.0,0.0,
2.9283649999999906,0.0,0.0,0.0,0.0,0.0,0.0,0.0,0.125,3.77197227,0.0,0.0,-747.0,0.0,0.0,-0.0,0.0,0.0,2.0703122880000002,0.0,0.0,0.0,0.0,0.0,0.0,0.0,0.0,4.212646053,0.0,0.0,-16473.0,0.0,0.0,-0.0,0.0,0.0,2.62451145,0.0,0.0,-0.09000000357627869,88.62000274658203,-106.2300033569336,0.9835205078125,0.0025634765625,-0.0074462890625,35.459999084472656,0.0,-16.0,0.0596771240234375,-0.0201873779296875,Waiting,0.0,0.0,-24581.0,0.0,0.0,0.0,0.0,0.0,
3.046569000000134,0.0,0.0,0.0,0.0,0.0,0.0,0.0,0.125,3.77197227,0.0,0.0,-747.0,0.0,0.0,-0.0,0.0,0.0,2.072753694,0.0,0.0,0.0,0.0,0.0,0.0,0.0,0.0,4.218749568,0.0,0.0,-16473.0,0.0,0.0,-0.0,0.0,0.0,2.559814191,0.0,0.0,-0.09000000357627869,88.62000274658203,-106.25,1.0079345703125,1.8310546875E-4,-0.0218505859375,35.47999954223633,0.0,-2.0,0.0596771240234375,-0.0201873779296875,Waiting,0.0,0.0,-24581.0,0.0,0.0,0.0,0.0,0.0,
3.1685770000000484,0.0,0.0,0.0,0.0,0.0,0.0,0.0,0.125,3.770751567,0.0,0.0,-747.0,0.0,0.0,-0.0,0.0,0.0,2.0690915850000002,0.0,0.0,0.0,0.0,0.0,0.0,0.0,0.0,4.218749568,0.0,0.0,-16473.0,0.0,0.0,-0.0,0.0,0.0,2.471923575,0.0,0.0,-0.09000000357627869,88.62000274658203,-106.25,1.00787353515625,-0.00750732421875,-0.02435302734375,35.47999954223633,0.0,0.0,0.0596771240234375,-0.0201873779296875,Waiting,0.0,0.0,-24581.0,0.0,0.0,0.0,0.0,0.0,
3.285068000000203,0.0,0.0,0.0,0.0,0.0,0.0,0.0,0.125,3.770751567,0.0,0.0,-747.0,0.0,0.0,-0.0,0.0,0.0,2.0703122880000002,0.0,0.0,0.0,0.0,0.0,0.0,0.0,0.0,4.218749568,0.0,0.0,-16473.0,0.0,0.0,-0.0,0.0,0.0,2.401122801,0.0,0.0,-0.10000000149011612,88.62000274658203,-106.2699966430664,1.00384521484375,-0.0093994140625,-0.02557373046875,35.47999954223633,0.0,2.0,0.0596771240234375,-0.0201873779296875,Waiting,0.0,0.0,-24581.0,0.0,0.0,0.0,0.0,0.0,
3.409656000000192,0.0,0.0,0.0,0.0,0.0,0.0,0.0,0.125,3.77197227,0.0,0.0,-747.0,0.0,0.0,-0.0,0.0,0.0,2.0703122880000002,0.0,0.0,0.0,0.0,0.0,0.0,0.0,0.0,4.218749568,0.0,0.0,-16473.0,0.0,0.0,-0.0,0.0,0.0,2.456054436,0.0,0.0,-0.09000000357627869,88.61000061035156,-106.36000061035156,1.00958251953125,0.0023193359375,-0.01409912109375,35.47999954223633,0.0,-10.0,0.0596771240234375,-0.0201873779296875,Waiting,0.0,0.0,-24581.0,0.0,0.0,0.0,0.0,0.0,
3.533060000000056,0.0,0.0,0.0,0.0,0.0,0.0,0.0,0.125,3.77197227,0.0,0.0,-747.0,0.0,0.0,-0.0,0.0,0.0,2.0703122880000002,0.0,0.0,0.0,0.0,0.0,0.0,0.0,0.0,4.217528865,0.0,0.0,-16473.0,0.0,0.0,-0.0,0.0,0.0,2.496337635,0.0,0.0,-0.10000000149011612,88.61000061035156,-106.37000274658203,1.00677490234375,-0.002197265625,-0.02032470703125,35.4900016784668,0.0,-3.0,0.0596771240234375,-0.0201873779296875,Waiting,0.0,0.0,-24581.0,0.0,0.0,0.0,0.0,0.0,
3.648874000000069,0.0,0.0,0.0,0.0,0.0,0.0,0.0,0.125,3.770751567,0.0,0.0,-747.0,0.0,0.0,-0.0,0.0,0.0,2.0690915850000002,0.0,0.0,0.0,0.0,0.0,0.0,0.0,0.0,4.218749568,0.0,0.0,-16473.0,0.0,0.0,-0.0,0.0,0.0,2.496337635,0.0,0.0,-0.10000000149011612,88.5999984741211,-106.4800033569336,1.00701904296875,-0.003173828125,-0.026611328125,35.4900016784668,0.0,2.0,0.0596771240234375,-0.0201873779296875,Waiting,0.0,0.0,-24581.0,0.0,0.0,0.0,0.0,0.0,
3.7683510000000244,0.0,0.0,0.0,0.0,0.0,0.0,0.0,0.125,3.770751567,0.0,0.0,-747.0,0.0,0.0,-0.0,0.0,0.0,2.0703122880000002,0.0,0.0,0.0,0.0,0.0,0.0,0.0,0.0,4.218749568,0.0,0.0,-16473.0,0.0,0.0,-0.0,0.0,0.0,2.496337635,0.0,0.0,-0.10000000149011612,88.5999984741211,-106.48999786376953,1.009033203125,2.44140625E-4,-0.02569580078125,35.4900016784668,0.0,1.0,0.0596771240234375,-0.0201873779296875,Waiting,0.0,0.0,-24581.0,0.0,0.0,0.0,0.0,0.0,
3.8892930000000634,0.0,0.0,0.0,0.0,0.0,0.0,0.0,0.125,3.770751567,0.0,0.0,-747.0,0.0,0.0,-0.0,0.0,0.0,2.0703122880000002,0.0,0.0,0.0,0.0,0.0,0.0,0.0,0.0,4.218749568,0.0,0.0,-16473.0,0.0,0.0,-0.0,0.0,0.0,2.496337635,0.0,0.0,-0.10999999940395355,88.5999984741211,-106.5,1.0057373046875,0.001708984375,-0.0234375,35.4900016784668,0.0,-1.0,0.0596771240234375,-0.0201873779296875,Waiting,0.0,0.0,-24581.0,0.0,0.0,0.0,0.0,0.0,
4.009603000000119,0.0,0.0,0.0,0.0,0.0,0.0,0.0,0.125,3.770751567,0.0,0.0,-747.0,0.0,0.0,-0.0,0.0,0.0,2.0703122880000002,0.0,0.0,0.0,0.0,0.0,0.0,0.0,0.0,4.218749568,0.0,0.0,-16473.0,0.0,0.0,-0.0,0.0,0.0,2.496337635,0.0,0.0,-0.10999999940395355,88.58999633789062,-106.61000061035156,1.0042724609375,9.765625E-4,-0.023193359375,35.47999954223633,0.0,-1.0,0.0596771240234375,-0.0201873779296875,Waiting,0.0,0.0,-24581.0,0.0,0.0,0.0,0.0,0.0,
4.129550000000046,0.0,0.0,0.0,0.0,0.0,0.0,0.0,0.125,3.77197227,0.0,0.0,-747.0,0.0,0.0,-0.0,0.0,0.0,2.071532991,0.0,0.0,0.0,0.0,0.0,0.0,0.0,0.0,4.219970271,0.0,0.0,-16473.0,0.0,0.0,-0.0,0.0,0.0,2.496337635,0.0,0.0,-0.10000000149011612,88.58999633789062,-106.58999633789062,1.00604248046875,-0.001220703125,-0.022216796875,35.47999954223633,0.0,-2.0,0.0596771240234375,-0.0201873779296875,Waiting,0.0,0.0,-24581.0,0.0,0.0,0.0,0.0,0.0,
4.2470900000000835,0.0,0.0,0.0,0.0,0.0,0.0,0.0,0.125,3.770751567,0.0,0.0,-747.0,0.0,0.0,-0.0,0.0,0.0,2.0703122880000002,0.0,0.0,0.0,0.0,0.0,0.0,0.0,0.0,4.217528865,0.0,0.0,-16473.0,0.0,0.0,-0.0,0.0,0.0,2.495116932,0.0,0.0,-0.10000000149011612,88.58999633789062,-106.58999633789062,1.0068359375,-7.32421875E-4,-0.0250244140625,35.47999954223633,0.0,0.0,0.0596771240234375,-0.0201873779296875,Waiting,0.0,0.0,-24581.0,0.0,0.0,0.0,0.0,0.0,
4.366721000000136,0.0,0.0,0.0,0.0,0.0,0.0,0.0,0.125,3.77197227,0.0,0.0,-747.0,0.0,0.0,-0.0,0.0,0.0,2.0703122880000002,0.0,0.0,0.0,0.0,0.0,0.0,0.0,0.0,4.218749568,0.0,0.0,-16473.0,0.0,0.0,-0.0,0.0,0.0,2.495116932,0.0,0.0,-0.10000000149011612,88.58999633789062,-106.58999633789062,1.00469970703125,-9.1552734375E-4,-0.02105712890625,35.47999954223633,0.0,-3.0,0.0596771240234375,-0.0201873779296875,Waiting,0.0,0.0,-24581.0,0.0,0.0,0.0,0.0,0.0,
4.480442000000039,0.0,0.0,0.0,0.0,0.0,0.0,0.0,0.125,3.770751567,0.0,0.0,-747.0,0.0,0.0,-0.0,0.0,0.0,2.0703122880000002,0.0,0.0,0.0,0.0,0.0,0.0,0.0,0.0,4.218749568,0.0,0.0,-16473.0,0.0,0.0,-0.0,0.0,0.0,2.496337635,0.0,0.0,-0.10000000149011612,88.58999633789062,-106.58999633789062,1.007080078125,3.0517578125E-4,-0.02874755859375,35.47999954223633,0.0,4.0,0.0596771240234375,-0.0201873779296875,Waiting,0.0,0.0,-24581.0,0.0,0.0,0.0,0.0,0.0,
4.597310000000056,0.0,0.0,0.0,0.0,0.0,0.0,0.0,0.125,3.77197227,0.0,0.0,-747.0,0.0,0.0,-0.0,0.0,0.0,2.0703122880000002,0.0,0.0,0.0,0.0,0.0,0.0,0.0,0.0,4.218749568,0.0,0.0,-16473.0,0.0,0.0,-0.0,0.0,0.0,2.496337635,0.0,0.0,-0.10000000149011612,88.58999633789062,-106.58999633789062,1.009033203125,-0.00341796875,-0.024658203125,35.470001220703125,0.0,0.0,0.0596771240234375,-0.0201873779296875,Waiting,0.0,0.0,-24581.0,0.0,0.0,0.0,0.0,0.0,
4.71921800000011,0.0,0.0,0.0,0.0,0.0,0.0,0.0,0.125,3.77197227,0.0,0.0,-747.0,0.0,0.0,-0.0,0.0,0.0,2.0703122880000002,0.0,0.0,0.0,0.0,0.0,0.0,0.0,0.0,4.219970271,0.0,0.0,-16473.0,0.0,0.0,-0.0,0.0,0.0,2.495116932,0.0,0.0,-0.10000000149011612,88.58999633789062,-106.58999633789062,1.00531005859375,-0.00372314453125,-0.02728271484375,35.470001220703125,0.0,2.0,0.0596771240234375,-0.0201873779296875,Waiting,0.0,0.0,-24581.0,0.0,0.0,0.0,0.0,0.0,
4.835668999999994,0.0,0.0,0.0,0.0,0.0,0.0,0.0,0.125,3.773192973,0.0,0.0,-747.0,0.0,0.0,-0.0,0.0,0.0,2.0703122880000002,0.0,0.0,0.0,0.0,0.0,0.0,0.0,0.0,4.219970271,0.0,0.0,-16473.0,0.0,0.0,-0.0,0.0,0.0,2.496337635,0.0,0.0,-0.10000000149011612,88.58999633789062,-106.58999633789062,1.0040283203125,8.544921875E-4,-0.03045654296875,35.470001220703125,0.0,5.0,0.0596771240234375,-0.0201873779296875,Waiting,0.0,0.0,-24581.0,0.0,0.0,0.0,0.0,0.0,
4.950005000000121,0.0,0.0,0.0,0.0,0.0,0.0,0.0,0.125,3.770751567,0.0,0.0,-747.0,0.0,0.0,-0.0,0.0,0.0,2.0690915850000002,0.0,0.0,0.0,0.0,0.0,0.0,0.0,0.0,4.218749568,0.0,0.0,-16473.0,0.0,0.0,-0.0,0.0,0.0,2.496337635,0.0,0.0,-0.10000000149011612,88.58000183105469,-106.69000244140625,1.0048828125,-0.004150390625,-0.02069091796875,35.470001220703125,0.0,-3.0,0.0596771240234375,-0.0201873779296875,Waiting,0.0,0.0,-24581.0,0.0,0.0,0.0,0.0,0.0,
5.076148000000044,0.0,0.0,0.0,0.0,0.0,0.0,0.0,0.125,3.770751567,0.0,0.0,-747.0,0.0,0.0,-0.0,0.0,0.0,2.0690915850000002,0.0,0.0,0.0,0.0,0.0,0.0,0.0,0.0,4.218749568,0.0,0.0,-16473.0,0.0,0.0,-0.0,0.0,0.0,2.495116932,0.0,0.0,-0.10999999940395355,88.58999633789062,-106.56999969482422,1.00299072265625,-0.00140380859375,-0.02349853515625,35.470001220703125,0.0,-1.0,0.0596771240234375,-0.0201873779296875,Waiting,0.0,0.0,-24581.0,0.0,0.0,0.0,0.0,0.0,
5.19012900000019,0.0,0.0,0.0,0.0,0.0,0.0,0.0,0.125,3.770751567,0.0,0.0,-747.0,0.0,0.0,-0.0,0.0,0.0,2.0703122880000002,0.0,0.0,0.0,0.0,0.0,0.0,0.0,0.0,4.218749568,0.0,0.0,-16473.0,0.0,0.0,-0.0,0.0,0.0,2.496337635,0.0,0.0,-0.10999999940395355,88.58999633789062,-106.56999969482422,1.00262451171875,-0.0050048828125,-0.02764892578125,35.470001220703125,0.0,3.0,0.0596771240234375,-0.0201873779296875,Waiting,0.0,0.0,-24581.0,0.0,0.0,0.0,0.0,0.0,
5.308194000000134,0.0,0.0,0.0,0.0,0.0,0.0,0.0,0.125,3.770751567,0.0,0.0,-747.0,0.0,0.0,-0.0,0.0,0.0,2.0703122880000002,0.0,0.0,0.0,0.0,0.0,0.0,0.0,0.0,4.217528865,0.0,0.0,-16473.0,0.0,0.0,-0.0,0.0,0.0,2.50244115,0.0,0.0,-0.10999999940395355,88.58999633789062,-106.55000305175781,1.0028076171875,-0.0018310546875,-0.02349853515625,35.470001220703125,0.0,0.0,0.0596771240234375,-0.0201873779296875,Waiting,0.0,0.0,-24581.0,0.0,0.0,0.0,0.0,0.0,
5.428904000000097,0.0,0.0,0.0,0.0,0.0,0.0,0.0,0.125,3.77197227,0.0,0.0,-747.0,0.0,0.0,-0.0,0.0,0.0,2.0703122880000002,0.0,0.0,0.0,0.0,0.0,0.0,0.0,0.0,4.218749568,0.0,0.0,-16473.0,0.0,0.0,-0.0,0.0,0.0,2.496337635,0.0,0.0,-0.10999999940395355,88.58999633789062,-106.55000305175781,1.0040283203125,-0.00445556640625,-0.02520751953125,35.470001220703125,0.0,0.0,0.0596771240234375,-0.0201873779296875,Waiting,0.0,0.0,-24581.0,0.0,0.0,0.0,0.0,0.0,
5.550243000000017,0.0,0.0,0.0,0.0,0.0,0.0,0.0,0.125,3.77197227,0.0,0.0,-747.0,0.0,0.0,-0.0,0.0,0.0,2.0703122880000002,0.0,0.0,0.0,0.0,0.0,0.0,0.0,0.0,4.218749568,0.0,0.0,-16473.0,0.0,0.0,-0.0,0.0,0.0,2.495116932,0.0,0.0,-0.10999999940395355,88.58999633789062,-106.55000305175781,1.00323486328125,-0.00250244140625,-0.02130126953125,35.45000076293945,0.0,-3.0,0.0596771240234375,-0.0201873779296875,Waiting,0.0,0.0,-24581.0,0.0,0.0,0.0,0.0,0.0,
5.682192000000039,0.0,0.0,0.0,0.0,0.0,0.0,0.0,0.125,3.77197227,0.0,0.0,-747.0,0.0,0.0,-0.0,0.0,0.0,2.071532991,0.0,0.0,0.0,0.0,0.0,0.0,0.0,0.0,4.218749568,0.0,0.0,-16473.0,0.0,0.0,-0.0,0.0,0.0,2.496337635,0.0,0.0,-0.10999999940395355,88.58999633789062,-106.55000305175781,1.00299072265625,3.0517578125E-4,-0.02069091796875,35.45000076293945,0.0,-3.0,0.0596771240234375,-0.0201873779296875,Waiting,0.0,0.0,-24581.0,0.0,0.0,0.0,0.0,0.0,
5.807366000000155,0.0,0.0,0.0,0.0,0.0,0.0,0.0,0.125,3.770751567,0.0,0.0,-747.0,0.0,0.0,-0.0,0.0,0.0,2.0703122880000002,0.0,0.0,0.0,0.0,0.0,0.0,0.0,0.0,4.217528865,0.0,0.0,-16473.0,0.0,0.0,-0.0,0.0,0.0,2.501220447,0.0,0.0,-0.10999999940395355,88.58999633789062,-106.52999877929688,1.00738525390625,-5.4931640625E-4,-0.02301025390625,35.45000076293945,0.0,-1.0,0.0596771240234375,-0.0201873779296875,Waiting,0.0,0.0,-24581.0,0.0,0.0,0.0,0.0,0.0,
5.935725000000093,0.0,0.0,0.0,0.0,0.0,0.0,0.0,0.125,3.77197227,0.0,0.0,-747.0,0.0,0.0,-0.0,0.0,0.0,2.0703122880000002,0.0,0.0,0.0,0.0,0.0,0.0,0.0,0.0,4.218749568,0.0,0.0,-16473.0,0.0,0.0,-0.0,0.0,0.0,2.501220447,0.0,0.0,-0.10000000149011612,88.58999633789062,-106.55000305175781,1.01104736328125,-0.00347900390625,-0.02880859375,35.45000076293945,0.0,4.0,0.0596771240234375,-0.0201873779296875,Waiting,0.0,0.0,-24581.0,0.0,0.0,0.0,0.0,0.0,
6.063405000000028,0.0,0.0,0.0,0.0,0.0,0.0,0.0,0.125,3.770751567,0.0,0.0,-747.0,0.0,0.0,-0.0,0.0,0.0,2.0703122880000002,0.0,0.0,0.0,0.0,0.0,0.0,0.0,0.0,4.218749568,0.0,0.0,-16473.0,0.0,0.0,-0.0,0.0,0.0,2.496337635,0.0,0.0,-0.10000000149011612,88.58999633789062,-106.55000305175781,1.00677490234375,-0.0030517578125,-0.029052734375,35.470001220703125,0.0,4.0,0.0596771240234375,-0.0201873779296875,Waiting,0.0,0.0,-24581.0,0.0,0.0,0.0,0.0,0.0,
6.187154000000097,0.0,0.0,0.0,0.0,0.0,0.0,0.0,0.125,3.770751567,0.0,0.0,-747.0,0.0,0.0,-0.0,0.0,0.0,2.0703122880000002,0.0,0.0,0.0,0.0,0.0,0.0,0.0,0.0,4.217528865,0.0,0.0,-16473.0,0.0,0.0,-0.0,0.0,0.0,2.495116932,0.0,0.0,-0.10000000149011612,88.58000183105469,-106.63999938964844,1.00616455078125,0.001953125,-0.02130126953125,35.470001220703125,0.0,-3.0,0.0596771240234375,-0.0201873779296875,Waiting,0.0,0.0,-24581.0,0.0,0.0,0.0,0.0,0.0,
6.323509000000079,0.0,0.0,0.0,0.0,0.0,0.0,0.0,0.125,3.770751567,0.0,0.0,-747.0,0.0,0.0,-0.0,0.0,0.0,2.0703122880000002,0.0,0.0,0.0,0.0,0.0,0.0,0.0,0.0,4.218749568,0.0,0.0,-16473.0,0.0,0.0,-0.0,0.0,0.0,2.496337635,0.0,0.0,-0.10999999940395355,88.58999633789062,-106.52999877929688,1.0045166015625,-0.00115966796875,-0.02471923828125,35.470001220703125,0.0,0.0,0.0596771240234375,-0.0201873779296875,Waiting,0.0,0.0,-24581.0,0.0,0.0,0.0,0.0,0.0,
6.448693000000203,0.0,0.0,0.0,0.0,0.0,0.0,0.0,0.125,3.77197227,0.0,0.0,-747.0,0.0,0.0,-0.0,0.0,0.0,2.0703122880000002,0.0,0.0,0.0,0.0,0.0,0.0,0.0,0.0,4.217528865,0.0,0.0,-16473.0,0.0,0.0,-0.0,0.0,0.0,2.495116932,0.0,0.0,-0.10000000149011612,88.58000183105469,-106.62000274658203,1.00653076171875,-0.00335693359375,-0.02325439453125,35.470001220703125,0.0,-1.0,0.0596771240234375,-0.0201873779296875,Waiting,0.0,0.0,-24581.0,0.0,0.0,0.0,0.0,0.0,
6.579055000000167,0.0,0.0,0.0,0.0,0.0,0.0,0.0,0.125,3.770751567,0.0,0.0,-747.0,0.0,0.0,-0.0,0.0,0.0,2.0690915850000002,0.0,0.0,0.0,0.0,0.0,0.0,0.0,0.0,4.217528865,0.0,0.0,-16473.0,0.0,0.0,-0.0,0.0,0.0,2.501220447,0.0,0.0,-0.10000000149011612,88.58000183105469,-106.62000274658203,1.00384521484375,-0.00335693359375,-0.02178955078125,35.470001220703125,0.0,-2.0,0.0596771240234375,-0.0201873779296875,Waiting,0.0,0.0,-24581.0,0.0,0.0,0.0,0.0,0.0,
6.70468200000003,0.0,0.0,0.0,0.0,0.0,0.0,0.0,0.125,3.770751567,0.0,0.0,-747.0,0.0,0.0,-0.0,0.0,0.0,2.0690915850000002,0.0,0.0,0.0,0.0,0.0,0.0,0.0,0.0,4.218749568,0.0,0.0,-16473.0,0.0,0.0,-0.0,0.0,0.0,2.501220447,0.0,0.0,-0.10999999940395355,88.58000183105469,-106.5999984741211,1.0047607421875,-0.002197265625,-0.02349853515625,35.470001220703125,0.0,-1.0,0.0596771240234375,-0.0201873779296875,Waiting,0.0,0.0,-24581.0,0.0,0.0,0.0,0.0,0.0,
6.829018000000157,0.0,0.0,0.0,0.0,0.0,0.0,0.0,0.125,3.770751567,0.0,0.0,-747.0,0.0,0.0,-0.0,0.0,0.0,2.0703122880000002,0.0,0.0,0.0,0.0,0.0,0.0,0.0,0.0,4.219970271,0.0,0.0,-16473.0,0.0,0.0,-0.0,0.0,0.0,2.496337635,0.0,0.0,-0.10999999940395355,88.58999633789062,-106.48999786376953,1.00604248046875,-0.0030517578125,-0.0247802734375,35.470001220703125,0.0,0.0,0.0596771240234375,-0.0201873779296875,Waiting,0.0,0.0,-24581.0,0.0,0.0,0.0,0.0,0.0,
6.956501000000164,0.0,0.0,0.0,0.0,0.0,0.0,0.0,0.125,3.770751567,0.0,0.0,-747.0,0.0,0.0,-0.0,0.0,0.0,2.0703122880000002,0.0,0.0,0.0,0.0,0.0,0.0,0.0,0.0,4.218749568,0.0,0.0,-16473.0,0.0,0.0,-0.0,0.0,0.0,2.50244115,0.0,0.0,-0.10999999940395355,88.58999633789062,-106.5999984741211,1.00518798828125,-0.00323486328125,-0.02655029296875,35.470001220703125,0.0,2.0,0.0596771240234375,-0.0201873779296875,Waiting,0.0,0.0,-24581.0,0.0,0.0,0.0,0.0,0.0,
7.086924000000115,0.0,0.0,0.0,0.0,0.0,0.0,0.0,0.125,3.77197227,0.0,0.0,-747.0,0.0,0.0,-0.0,0.0,0.0,2.0703122880000002,0.0,0.0,0.0,0.0,0.0,0.0,0.0,0.0,4.218749568,0.0,0.0,-16473.0,0.0,0.0,-0.0,0.0,0.0,2.496337635,0.0,0.0,-0.10000000149011612,88.58000183105469,-106.62000274658203,1.00604248046875,-0.001220703125,-0.0247802734375,35.4900016784668,0.0,0.0,0.0596771240234375,-0.0201873779296875,Waiting,0.0,0.0,-24581.0,0.0,0.0,0.0,0.0,0.0,
7.2065290000000966,0.0,0.0,0.0,0.0,0.0,0.0,0.0,0.125,3.773192973,0.0,0.0,-747.0,0.0,0.0,-0.0,0.0,0.0,2.0703122880000002,0.0,0.0,0.0,0.0,0.0,0.0,0.0,0.0,4.219970271,0.0,0.0,-16473.0,0.0,0.0,-0.0,0.0,0.0,2.501220447,0.0,0.0,-0.10000000149011612,88.58999633789062,-106.58000183105469,1.002197265625,-7.9345703125E-4,-0.02532958984375,35.4900016784668,0.0,0.0,0.0596771240234375,-0.0201873779296875,Waiting,0.0,0.0,-24581.0,0.0,0.0,0.0,0.0,0.0,
7.327883000000147,0.0,0.0,0.0,0.0,0.0,0.0,0.0,0.125,3.770751567,0.0,0.0,-747.0,0.0,0.0,-0.0,0.0,0.0,2.071532991,0.0,0.0,0.0,0.0,0.0,0.0,0.0,0.0,4.218749568,0.0,0.0,-16473.0,0.0,0.0,-0.0,0.0,0.0,2.497558338,0.0,0.0,-0.10000000149011612,88.58999633789062,-106.58000183105469,1.00408935546875,-1.220703125E-4,-0.02581787109375,35.4900016784668,0.0,1.0,0.0596771240234375,-0.0201873779296875,Waiting,0.0,0.0,-24581.0,0.0,0.0,0.0,0.0,0.0,
7.444293999999994,0.0,0.0,0.0,0.0,0.0,0.0,0.0,0.125,3.77197227,0.0,0.0,-747.0,0.0,0.0,-0.0,0.0,0.0,2.0703122880000002,0.0,0.0,0.0,0.0,0.0,0.0,0.0,0.0,4.218749568,0.0,0.0,-16473.0,0.0,0.0,-0.0,0.0,0.0,2.496337635,0.0,0.0,-0.10000000149011612,88.58999633789062,-106.58000183105469,1.00726318359375,-0.0047607421875,-0.02685546875,35.4900016784668,0.0,2.0,0.0596771240234375,-0.0201873779296875,Waiting,0.0,0.0,-24581.0,0.0,0.0,0.0,0.0,0.0,
7.562705000000075,0.0,0.0,0.0,0.0,0.0,0.0,0.0,0.125,3.77197227,0.0,0.0,-747.0,0.0,0.0,-0.0,0.0,0.0,2.0703122880000002,0.0,0.0,0.0,0.0,0.0,0.0,0.0,0.0,4.218749568,0.0,0.0,-16473.0,0.0,0.0,-0.0,0.0,0.0,2.496337635,0.0,0.0,-0.10000000149011612,88.58999633789062,-106.44000244140625,1.00421142578125,-0.00225830078125,-0.0244140625,35.470001220703125,0.0,0.0,0.0596771240234375,-0.0201873779296875,Waiting,0.0,0.0,-24581.0,0.0,0.0,0.0,0.0,0.0,
7.688960000000195,0.0,0.0,0.0,0.0,0.0,0.0,0.0,0.125,3.77197227,0.0,0.0,-747.0,0.0,0.0,-0.0,0.0,0.0,2.0703122880000002,0.0,0.0,0.0,0.0,0.0,0.0,0.0,0.0,4.218749568,0.0,0.0,-16473.0,0.0,0.0,-0.0,0.0,0.0,2.501220447,0.0,0.0,-0.10000000149011612,88.58000183105469,-106.55999755859375,1.0037841796875,9.765625E-4,-0.02203369140625,35.470001220703125,0.0,-2.0,0.0596771240234375,-0.0201873779296875,Waiting,0.0,0.0,-24581.0,0.0,0.0,0.0,0.0,0.0,
7.813511000000173,0.0,0.0,0.0,0.0,0.0,0.0,0.0,0.125,3.77197227,0.0,0.0,-747.0,0.0,0.0,-0.0,0.0,0.0,2.0703122880000002,0.0,0.0,0.0,0.0,0.0,0.0,0.0,0.0,4.218749568,0.0,0.0,-16473.0,0.0,0.0,-0.0,0.0,0.0,2.496337635,0.0,0.0,-0.10000000149011612,88.58000183105469,-106.55999755859375,1.00390625,-0.002685546875,-0.030517578125,35.470001220703125,0.0,5.0,0.0596771240234375,-0.0201873779296875,Waiting,0.0,0.0,-24581.0,0.0,0.0,0.0,0.0,0.0,
7.933084000000032,0.0,0.0,0.0,0.0,0.0,0.0,0.0,0.125,3.77197227,0.0,0.0,-747.0,0.0,0.0,-0.0,0.0,0.0,2.0703122880000002,0.0,0.0,0.0,0.0,0.0,0.0,0.0,0.0,4.218749568,0.0,0.0,-16473.0,0.0,0.0,-0.0,0.0,0.0,2.50244115,0.0,0.0,-0.10000000149011612,88.58000183105469,-106.55999755859375,1.00457763671875,-1.220703125E-4,-0.02325439453125,35.470001220703125,0.0,-1.0,0.0596771240234375,-0.0201873779296875,Waiting,0.0,0.0,-24581.0,0.0,0.0,0.0,0.0,0.0,
8.050398000000044,0.0,0.0,0.0,0.0,0.0,0.0,0.0,0.125,3.770751567,0.0,0.0,-747.0,0.0,0.0,-0.0,0.0,0.0,2.0703122880000002,0.0,0.0,0.0,0.0,0.0,0.0,0.0,0.0,4.218749568,0.0,0.0,-16473.0,0.0,0.0,-0.0,0.0,0.0,2.496337635,0.0,0.0,-0.10000000149011612,88.58000183105469,-106.55999755859375,1.0072021484375,-4.2724609375E-4,-0.02508544921875,35.470001220703125,0.0,0.0,0.0596771240234375,-0.0201873779296875,Waiting,0.0,0.0,-24581.0,0.0,0.0,0.0,0.0,0.0,
8.167486000000034,0.0,0.0,0.0,0.0,0.0,0.0,0.0,0.125,3.77197227,0.0,0.0,-747.0,0.0,0.0,-0.0,0.0,0.0,2.0703122880000002,0.0,0.0,0.0,0.0,0.0,0.0,0.0,0.0,4.219970271,0.0,0.0,-16473.0,0.0,0.0,-0.0,0.0,0.0,2.501220447,0.0,0.0,-0.10000000149011612,88.58000183105469,-106.55999755859375,0.99822998046875,-0.0032958984375,-0.02880859375,35.470001220703125,0.0,4.0,0.0596771240234375,-0.0201873779296875,Waiting,0.0,0.0,-24581.0,0.0,0.0,0.0,0.0,0.0,
8.287665000000038,0.0,0.0,0.0,0.0,0.0,0.0,0.0,0.125,3.77197227,0.0,0.0,-747.0,0.0,0.0,-0.0,0.0,0.0,2.0703122880000002,0.0,0.0,0.0,0.0,0.0,0.0,0.0,0.0,4.219970271,0.0,0.0,-16473.0,0.0,0.0,-0.0,0.0,0.0,2.50244115,0.0,0.0,-0.10000000149011612,88.58000183105469,-106.55999755859375,1.0023193359375,-0.004150390625,-0.0296630859375,35.470001220703125,0.0,5.0,0.0596771240234375,-0.0201873779296875,Waiting,0.0,0.0,-24581.0,0.0,0.0,0.0,0.0,0.0,
8.407111000000034,0.0,0.0,0.0,0.0,0.0,0.0,0.0,0.125,3.770751567,0.0,0.0,-747.0,0.0,0.0,-0.0,0.0,0.0,2.0703122880000002,0.0,0.0,0.0,0.0,0.0,0.0,0.0,0.0,4.218749568,0.0,0.0,-16473.0,0.0,0.0,-0.0,0.0,0.0,2.497558338,0.0,0.0,-0.10000000149011612,88.58000183105469,-106.58000183105469,1.0059814453125,3.0517578125E-4,-0.0252685546875,35.470001220703125,0.0,0.0,0.0596771240234375,-0.0201873779296875,Waiting,0.0,0.0,-24581.0,0.0,0.0,0.0,0.0,0.0,
8.530162000000011,0.0,0.0,0.0,0.0,0.0,0.0,0.0,0.125,3.770751567,0.0,0.0,-747.0,0.0,0.0,-0.0,0.0,0.0,2.1618650130000003,0.0,0.0,0.0,0.0,0.0,0.0,0.0,0.0,4.218749568,0.0,0.0,-16473.0,0.0,0.0,-0.0,0.0,0.0,2.50244115,0.0,0.0,-0.10000000149011612,88.58000183105469,-106.55999755859375,0.99560546875,0.01239013671875,-0.013427734375,35.470001220703125,0.0,-12.0,0.0596771240234375,-0.0201873779296875,Waiting,0.0,0.0,-24581.0,0.0,0.0,0.0,0.0,0.0,
8.647906000000193,0.0,0.0,0.0,0.0,0.0,0.0,0.0,0.125,3.770751567,0.0,0.0,-747.0,0.0,0.0,-0.0,0.0,0.0,2.152099389,0.0,0.0,0.0,0.0,0.0,0.0,0.0,0.0,4.218749568,0.0,0.0,-16473.0,0.0,0.0,-0.0,0.0,0.0,2.496337635,0.0,0.0,-0.10000000149011612,88.58999633789062,-106.58000183105469,1.0062255859375,0.005859375,-0.01953125,35.470001220703125,0.0,-5.0,0.0596771240234375,-0.0201873779296875,Waiting,0.0,0.0,-24581.0,0.0,0.0,0.0,0.0,0.0,
8.767362000000197,0.0,0.0,0.0,0.0,0.0,0.0,0.0,0.125,3.77197227,0.0,0.0,-747.0,0.0,0.0,-0.0,0.0,0.0,2.127685329,0.0,0.0,0.0,0.0,0.0,0.0,0.0,0.0,4.218749568,0.0,0.0,-16473.0,0.0,0.0,-0.0,0.0,0.0,2.50244115,0.0,0.0,-0.10000000149011612,88.58000183105469,-106.58000183105469,1.00689697265625,-0.00726318359375,-0.02899169921875,35.470001220703125,0.0,4.0,0.0596771240234375,-0.0201873779296875,Waiting,0.0,0.0,-24581.0,0.0,0.0,0.0,0.0,0.0,
8.893164000000105,0.0,0.0,0.0,0.0,0.0,0.0,0.0,0.125,3.77197227,0.0,0.0,-747.0,0.0,0.0,-0.0,0.0,0.0,2.028808386,0.0,0.0,0.0,0.0,0.0,0.0,0.0,0.0,4.219970271,0.0,0.0,-16473.0,0.0,0.0,-0.0,0.0,0.0,2.496337635,0.0,0.0,-0.10000000149011612,88.5999984741211,-106.33999633789062,1.0074462890625,5.4931640625E-4,-0.021240234375,35.470001220703125,0.0,-3.0,0.0596771240234375,-0.0201873779296875,Waiting,0.0,0.0,-24581.0,0.0,0.0,0.0,0.0,0.0,
9.010022000000113,0.0,0.0,0.0,0.0,0.0,0.0,0.0,0.125,3.77197227,0.0,0.0,-747.0,0.0,0.0,-0.0,0.0,0.0,2.032470495,0.0,0.0,0.0,0.0,0.0,0.0,0.0,0.0,4.219970271,0.0,0.0,-16473.0,0.0,0.0,-0.0,0.0,0.0,2.501220447,0.0,0.0,-0.09000000357627869,88.5999984741211,-106.43000030517578,0.99298095703125,0.007080078125,-0.0146484375,35.470001220703125,0.0,-10.0,0.0596771240234375,-0.0201873779296875,Waiting,0.0,0.0,-24581.0,0.0,0.0,0.0,0.0,0.0,
9.131560000000055,0.0,0.0,0.0,0.0,0.0,0.0,0.0,0.125,3.770751567,0.0,0.0,-747.0,0.0,0.0,-0.0,0.0,0.0,2.0654294760000003,0.0,0.0,0.0,0.0,0.0,0.0,0.0,0.0,4.221190974000001,0.0,0.0,-16473.0,0.0,0.0,-0.0,0.0,0.0,2.50244115,0.0,0.0,-0.10000000149011612,88.58000183105469,-106.55999755859375,1.01275634765625,-0.007080078125,-0.03143310546875,35.5,0.0,6.0,0.0596771240234375,-0.0201873779296875,Waiting,0.0,0.0,-24581.0,0.0,0.0,0.0,0.0,0.0,
9.252536000000081,0.0,0.0,0.0,0.0,0.0,0.0,0.0,0.125,3.77197227,0.0,0.0,-747.0,0.0,0.0,-0.0,0.0,0.0,2.0751951,0.0,0.0,0.0,0.0,0.0,0.0,0.0,0.0,4.219970271,0.0,0.0,-16473.0,0.0,0.0,-0.0,0.0,0.0,2.495116932,0.0,0.0,-0.09000000357627869,88.58999633789062,-106.55999755859375,1.0062255859375,-0.00567626953125,-0.02911376953125,35.5,0.0,4.0,0.0596771240234375,-0.0201873779296875,Waiting,0.0,0.0,-24581.0,0.0,0.0,0.0,0.0,0.0,
9.369641000000062,0.0,0.0,0.0,0.0,0.0,0.0,0.0,0.125,3.77197227,0.0,0.0,-747.0,0.0,0.0,-0.0,0.0,0.0,2.0751951,0.0,0.0,0.0,0.0,0.0,0.0,0.0,0.0,4.217528865,0.0,0.0,-16473.0,0.0,0.0,-0.0,0.0,0.0,2.501220447,0.0,0.0,-0.09000000357627869,88.58999633789062,-106.47000122070312,1.00323486328125,-1.8310546875E-4,-0.02960205078125,35.5,0.0,4.0,0.0596771240234375,-0.0201873779296875,Waiting,0.0,0.0,-24581.0,0.0,0.0,0.0,0.0,0.0,
9.506040000000038,0.0,0.0,0.0,0.0,0.0,0.0,0.0,0.125,3.770751567,0.0,0.0,-747.0,0.0,0.0,-0.0,0.0,0.0,2.0751951,0.0,0.0,0.0,0.0,0.0,0.0,0.0,0.0,4.219970271,0.0,0.0,-16473.0,0.0,0.0,-0.0,0.0,0.0,2.496337635,0.0,0.0,-0.09000000357627869,88.58999633789062,-106.47000122070312,1.0067138671875,-0.00140380859375,-0.02166748046875,35.5,0.0,-2.0,0.0596771240234375,-0.0201873779296875,Waiting,0.0,0.0,-24581.0,0.0,0.0,0.0,0.0,0.0,
9.627608000000007,0.0,0.0,0.0,0.0,0.0,0.0,0.0,0.125,3.77197227,0.0,0.0,-747.0,0.0,0.0,-0.0,0.0,0.0,2.0751951,0.0,0.0,0.0,0.0,0.0,0.0,0.0,0.0,4.219970271,0.0,0.0,-16473.0,0.0,0.0,-0.0,0.0,0.0,2.496337635,0.0,0.0,-0.10000000149011612,88.58000183105469,-106.5999984741211,1.00146484375,-0.00274658203125,-0.02294921875,35.45000076293945,0.0,-1.0,0.0596771240234375,-0.0201873779296875,Waiting,0.0,0.0,-24581.0,0.0,0.0,0.0,0.0,0.0,
9.747589000000152,0.0,0.0,0.0,0.0,0.0,0.0,0.0,0.125,3.770751567,0.0,0.0,-747.0,0.0,0.0,-0.0,0.0,0.0,2.0703122880000002,0.0,0.0,0.0,0.0,0.0,0.0,0.0,0.0,4.219970271,0.0,0.0,-16473.0,0.0,0.0,-0.0,0.0,0.0,2.496337635,0.0,0.0,-0.09000000357627869,88.58000183105469,-106.61000061035156,1.00274658203125,-0.00225830078125,-0.02142333984375,35.45000076293945,0.0,-3.0,0.0596771240234375,-0.0201873779296875,Waiting,0.0,0.0,-24581.0,0.0,0.0,0.0,0.0,0.0,
9.870701000000118,0.0,0.0,0.0,0.0,0.0,0.0,0.0,0.125,3.77197227,0.0,0.0,-747.0,0.0,0.0,-0.0,0.0,0.0,2.0605466640000003,0.0,0.0,0.0,0.0,0.0,0.0,0.0,0.0,4.218749568,0.0,0.0,-16473.0,0.0,0.0,-0.0,0.0,0.0,2.501220447,0.0,0.0,-0.09000000357627869,88.58000183105469,-106.61000061035156,1.0050048828125,-0.00201416015625,-0.025390625,35.45000076293945,0.0,0.0,0.0596771240234375,-0.0201873779296875,Waiting,0.0,0.0,-24581.0,0.0,0.0,0.0,0.0,0.0,
9.990799000000116,0.0,0.0,0.0,0.0,0.0,0.0,0.0,0.125,3.770751567,0.0,0.0,-747.0,0.0,0.0,-0.0,0.0,0.0,2.0617673670000003,0.0,0.0,0.0,0.0,0.0,0.0,0.0,0.0,4.218749568,0.0,0.0,-16473.0,0.0,0.0,-0.0,0.0,0.0,2.501220447,0.0,0.0,-0.09000000357627869,88.58000183105469,-106.61000061035156,1.0059814453125,-0.00335693359375,-0.021728515625,35.45000076293945,0.0,-2.0,0.0596771240234375,-0.0201873779296875,Waiting,0.0,0.0,-24581.0,0.0,0.0,0.0,0.0,0.0,
10.112815000000177,0.0,0.0,0.0,0.0,0.0,0.0,0.0,0.125,3.77197227,0.0,0.0,-747.0,0.0,0.0,-0.0,0.0,0.0,2.0605466640000003,0.0,0.0,0.0,0.0,0.0,0.0,0.0,0.0,4.218749568,0.0,0.0,-16473.0,0.0,0.0,-0.0,0.0,0.0,2.501220447,0.0,0.0,-0.10000000149011612,88.58999633789062,-106.52999877929688,1.00677490234375,-0.00390625,-0.0213623046875,35.52000045776367,0.0,-2.0,0.0596771240234375,-0.0201873779296875,Waiting,0.0,0.0,-24581.0,0.0,0.0,0.0,0.0,0.0,
10.232316000000107,0.0,0.0,0.0,0.0,0.0,0.0,0.0,0.125,3.770751567,0.0,0.0,-747.0,0.0,0.0,-0.0,0.0,0.0,2.0605466640000003,0.0,0.0,0.0,0.0,0.0,0.0,0.0,0.0,4.218749568,0.0,0.0,-16473.0,0.0,0.0,-0.0,0.0,0.0,2.501220447,0.0,0.0,-0.10000000149011612,88.58999633789062,-106.52999877929688,1.00360107421875,-0.00164794921875,-0.0194091796875,35.52000045776367,0.0,-5.0,0.0596771240234375,-0.0201873779296875,Waiting,0.0,0.0,-24581.0,0.0,0.0,0.0,0.0,0.0,
10.356216000000014,0.0,0.0,0.0,0.0,0.0,0.0,0.0,0.125,3.770751567,0.0,0.0,-747.0,0.0,0.0,-0.0,0.0,0.0,2.147216577,0.0,0.0,0.0,0.0,0.0,0.0,0.0,0.0,4.218749568,0.0,0.0,-16473.0,0.0,0.0,-0.0,0.0,0.0,2.496337635,0.0,0.0,-0.09000000357627869,88.58999633789062,-106.54000091552734,1.00506591796875,-0.00726318359375,-0.02557373046875,35.52000045776367,0.0,1.0,0.0596771240234375,-0.0201873779296875,Waiting,0.0,0.0,-24581.0,0.0,0.0,0.0,0.0,0.0,
10.48008799999999,0.0,0.0,0.0,0.0,0.0,0.0,0.0,0.125,3.770751567,0.0,0.0,-747.0,0.0,0.0,-0.0,0.0,0.0,2.147216577,0.0,0.0,0.0,0.0,0.0,0.0,0.0,0.0,4.219970271,0.0,0.0,-16473.0,0.0,0.0,-0.0,0.0,0.0,2.50244115,0.0,0.0,-0.10000000149011612,88.58000183105469,-106.63999938964844,1.00482177734375,-0.00396728515625,-0.030517578125,35.52000045776367,0.0,6.0,0.0596771240234375,-0.0201873779296875,Waiting,0.0,0.0,-24581.0,0.0,0.0,0.0,0.0,0.0,
10.598143000000157,0.0,0.0,0.0,0.0,0.0,0.0,0.0,0.125,3.77197227,0.0,0.0,-747.0,0.0,0.0,-0.0,0.0,0.0,2.093505645,0.0,0.0,0.0,0.0,0.0,0.0,0.0,0.0,4.217528865,0.0,0.0,-16473.0,0.0,0.0,-0.0,0.0,0.0,2.496337635,0.0,0.0,-0.10000000149011612,88.58000183105469,-106.66000366210938,1.00079345703125,6.7138671875E-4,-0.0218505859375,35.4900016784668,0.0,-2.0,0.0596771240234375,-0.0201873779296875,Waiting,0.0,0.0,-24581.0,0.0,0.0,0.0,0.0,0.0,
10.712874000000069,0.0,0.0,0.0,0.0,0.0,0.0,0.0,0.125,3.77197227,0.0,0.0,-747.0,0.0,0.0,-0.0,0.0,0.0,2.0178220590000002,0.0,0.0,0.0,0.0,0.0,0.0,0.0,0.0,4.219970271,0.0,0.0,-16473.0,0.0,0.0,-0.0,0.0,0.0,2.501220447,0.0,0.0,-0.10000000149011612,88.58999633789062,-106.55000305175781,0.99151611328125,0.00189208984375,-0.03717041015625,35.4900016784668,0.0,12.0,0.0596771240234375,-0.0202484130859375,Waiting,0.0,0.0,-24581.0,0.0,0.0,0.0,0.0,0.0,
10.833263000000036,0.0,0.0,0.0,0.0,0.0,0.0,0.0,0.125,3.77197227,0.0,0.0,-747.0,0.0,0.0,-0.0,0.0,0.0,2.031249792,0.0,0.0,0.0,0.0,0.0,0.0,0.0,0.0,4.218749568,0.0,0.0,-16473.0,0.0,0.0,-0.0,0.0,0.0,2.501220447,0.0,0.0,-0.10000000149011612,88.58999633789062,-106.55000305175781,1.00494384765625,0.0064697265625,-0.0281982421875,35.4900016784668,0.0,3.0,0.0596771240234375,-0.0202484130859375,Waiting,0.0,0.0,-24581.0,0.0,0.0,0.0,0.0,0.0,
10.954051000000211,0.0,0.0,0.0,0.0,0.0,0.0,0.0,0.125,3.770751567,0.0,0.0,-747.0,0.0,0.0,-0.0,0.0,0.0,2.052001743,0.0,0.0,0.0,0.0,0.0,0.0,0.0,0.0,4.218749568,0.0,0.0,-16473.0,0.0,0.0,-0.0,0.0,0.0,2.50244115,0.0,0.0,-0.10999999940395355,88.5999984741211,-106.44000244140625,1.00146484375,0.0,-0.0242919921875,35.4900016784668,0.0,0.0,0.0596771240234375,-0.0202484130859375,Waiting,0.0,0.0,-24581.0,0.0,0.0,0.0,0.0,0.0,
11.069007000000216,0.0,0.0,0.0,0.0,0.0,0.0,0.0,0.125,3.77197227,0.0,0.0,-747.0,0.0,0.0,-0.0,0.0,0.0,2.094726348,0.0,0.0,0.0,0.0,0.0,0.0,0.0,0.0,4.219970271,0.0,0.0,-16473.0,0.0,0.0,-0.0,0.0,0.0,2.50244115,0.0,0.0,-0.10999999940395355,88.58999633789062,-106.55000305175781,1.00885009765625,-0.0035400390625,-0.02606201171875,35.4900016784668,0.0,1.0,0.0596771240234375,-0.0202484130859375,Waiting,0.0,0.0,-24581.0,0.0,0.0,0.0,0.0,0.0,
11.193206000000005,0.0,0.0,0.0,0.0,0.0,0.0,0.0,0.125,3.77197227,0.0,0.0,-747.0,0.0,0.0,-0.0,0.0,0.0,2.1179197050000003,0.0,0.0,0.0,0.0,0.0,0.0,0.0,0.0,4.217528865,0.0,0.0,-16473.0,0.0,0.0,-0.0,0.0,0.0,2.496337635,0.0,0.0,-0.10999999940395355,88.58999633789062,-106.55000305175781,1.00665283203125,-0.00567626953125,-0.0220947265625,35.4900016784668,0.0,-2.0,0.0596771240234375,-0.0202484130859375,Waiting,0.0,0.0,-24581.0,0.0,0.0,0.0,0.0,0.0,
11.315950000000186,0.0,0.0,0.0,0.0,0.0,0.0,0.0,0.125,3.770751567,0.0,0.0,-747.0,0.0,0.0,-0.0,0.0,0.0,2.1179197050000003,0.0,0.0,0.0,0.0,0.0,0.0,0.0,0.0,4.218749568,0.0,0.0,-16473.0,0.0,0.0,-0.0,0.0,0.0,2.501220447,0.0,0.0,-0.10000000149011612,88.58999633789062,-106.55000305175781,1.00360107421875,-0.001953125,-0.027099609375,35.4900016784668,0.0,2.0,0.0596771240234375,-0.0202484130859375,Waiting,0.0,0.0,-24581.0,0.0,0.0,0.0,0.0,0.0,
11.438336000000128,0.0,0.0,0.0,0.0,0.0,0.0,0.0,0.125,3.770751567,0.0,0.0,-747.0,0.0,0.0,-0.0,0.0,0.0,2.089843536,0.0,0.0,0.0,0.0,0.0,0.0,0.0,0.0,4.218749568,0.0,0.0,-16473.0,0.0,0.0,-0.0,0.0,0.0,2.501220447,0.0,0.0,-0.10999999940395355,88.58999633789062,-106.56999969482422,1.002197265625,0.01513671875,-0.01068115234375,35.4900016784668,0.0,-15.0,0.0596771240234375,-0.0202484130859375,Waiting,0.0,0.0,-24581.0,0.0,0.0,0.0,0.0,0.0,
11.554010000000009,0.0,0.0,0.0,0.0,0.0,0.0,0.0,0.125,3.77197227,0.0,0.0,-747.0,0.0,0.0,-0.0,0.0,0.0,2.089843536,0.0,0.0,0.0,0.0,0.0,0.0,0.0,0.0,4.217528865,0.0,0.0,-16473.0,0.0,0.0,-0.0,0.0,0.0,2.496337635,0.0,0.0,-0.10999999940395355,88.58999633789062,-106.56999969482422,1.007080078125,-0.00274658203125,-0.02581787109375,35.4900016784668,0.0,1.0,0.0596771240234375,-0.0202484130859375,Waiting,0.0,0.0,-24581.0,0.0,0.0,0.0,0.0,0.0,
11.673705000000075,0.0,0.0,0.0,0.0,0.0,0.0,0.0,0.125,3.770751567,0.0,0.0,-747.0,0.0,0.0,-0.0,0.0,0.0,2.088622833,0.0,0.0,0.0,0.0,0.0,0.0,0.0,0.0,4.219970271,0.0,0.0,-16473.0,0.0,0.0,-0.0,0.0,0.0,2.50244115,0.0,0.0,-0.10999999940395355,88.58999633789062,-106.56999969482422,1.0048828125,0.003173828125,-0.0245361328125,35.5099983215332,0.0,0.0,0.0596771240234375,-0.0202484130859375,Waiting,0.0,0.0,-24581.0,0.0,0.0,0.0,0.0,0.0,
11.802944000000133,0.0,0.0,0.0,0.0,0.0,0.0,0.0,0.125,3.770751567,0.0,0.0,-747.0,0.0,0.0,-0.0,0.0,0.0,2.089843536,0.0,0.0,0.0,0.0,0.0,0.0,0.0,0.0,4.218749568,0.0,0.0,-16473.0,0.0,0.0,-0.0,0.0,0.0,2.50244115,0.0,0.0,-0.10999999940395355,88.58999633789062,-106.56999969482422,1.00579833984375,-1.220703125E-4,-0.0233154296875,35.5099983215332,0.0,-1.0,0.0596771240234375,-0.0202484130859375,Waiting,0.0,0.0,-24581.0,0.0,0.0,0.0,0.0,0.0,
11.923560000000055,0.0,0.0,0.0,0.0,0.0,0.0,0.0,0.125,3.770751567,0.0,0.0,-747.0,0.0,0.0,-0.0,0.0,0.0,2.084960724,0.0,0.0,0.0,0.0,0.0,0.0,0.0,0.0,4.219970271,0.0,0.0,-16473.0,0.0,0.0,-0.0,0.0,0.0,2.50244115,0.0,0.0,-0.10000000149011612,88.58999633789062,-106.58999633789062,1.00555419921875,-0.0025634765625,-0.0272216796875,35.5099983215332,0.0,2.0,0.0596771240234375,-0.0202484130859375,Waiting,0.0,0.0,-24581.0,0.0,0.0,0.0,0.0,0.0,
12.04280100000021,0.0,0.0,0.0,0.0,0.0,0.0,0.0,0.125,3.770751567,0.0,0.0,-747.0,0.0,0.0,-0.0,0.0,0.0,2.089843536,0.0,0.0,0.0,0.0,0.0,0.0,0.0,0.0,4.218749568,0.0,0.0,-16473.0,0.0,0.0,-0.0,0.0,0.0,2.496337635,0.0,0.0,-0.10999999940395355,88.58999633789062,-106.56999969482422,1.00592041015625,9.765625E-4,-0.01995849609375,35.5099983215332,0.0,-4.0,0.0596771240234375,-0.0202484130859375,Waiting,0.0,0.0,-24581.0,0.0,0.0,0.0,0.0,0.0,
12.160261000000173,0.0,0.0,0.0,0.0,0.0,0.0,0.0,0.125,3.77197227,0.0,0.0,-747.0,0.0,0.0,-0.0,0.0,0.0,2.084960724,0.0,0.0,0.0,0.0,0.0,0.0,0.0,0.0,4.218749568,0.0,0.0,-16473.0,0.0,0.0,-0.0,0.0,0.0,2.501220447,0.0,0.0,-0.10999999940395355,88.5999984741211,-106.45999908447266,1.00616455078125,0.00390625,-0.029541015625,35.4900016784668,0.0,4.0,0.0596771240234375,-0.0202484130859375,Waiting,0.0,0.0,-24581.0,0.0,0.0,0.0,0.0,0.0,
12.278125,0.0,0.0,0.0,0.0,0.0,0.0,0.0,0.125,3.770751567,0.0,0.0,-747.0,0.0,0.0,-0.0,0.0,0.0,2.089843536,0.0,0.0,0.0,0.0,0.0,0.0,0.0,0.0,4.218749568,0.0,0.0,-16473.0,0.0,0.0,-0.0,0.0,0.0,2.501220447,0.0,0.0,-0.10999999940395355,88.5999984741211,-106.4800033569336,1.00665283203125,-0.001708984375,-0.02557373046875,35.4900016784668,0.0,1.0,0.0596771240234375,-0.0202484130859375,Waiting,0.0,0.0,-24581.0,0.0,0.0,0.0,0.0,0.0,
12.4020140000002,0.0,0.0,0.0,0.0,0.0,0.0,0.0,0.125,3.77197227,0.0,0.0,-747.0,0.0,0.0,-0.0,0.0,0.0,2.088622833,0.0,0.0,0.0,0.0,0.0,0.0,0.0,0.0,4.218749568,0.0,0.0,-16473.0,0.0,0.0,-0.0,0.0,0.0,2.50244115,0.0,0.0,-0.10999999940395355,88.5999984741211,-106.4800033569336,1.01287841796875,-0.003662109375,-0.0223388671875,35.4900016784668,0.0,-2.0,0.0596771240234375,-0.0202484130859375,Waiting,0.0,0.0,-24581.0,0.0,0.0,0.0,0.0,0.0,
12.524924000000116,0.0,0.0,0.0,0.0,0.0,0.0,0.0,0.125,3.77197227,0.0,0.0,-747.0,0.0,0.0,-0.0,0.0,0.0,2.089843536,0.0,0.0,0.0,0.0,0.0,0.0,0.0,0.0,4.218749568,0.0,0.0,-16473.0,0.0,0.0,-0.0,0.0,0.0,2.501220447,0.0,0.0,-0.10999999940395355,88.5999984741211,-106.4800033569336,1.0010986328125,6.103515625E-5,-0.02813720703125,35.4900016784668,0.0,3.0,0.0596771240234375,-0.0202484130859375,Waiting,0.0,0.0,-24581.0,0.0,0.0,0.0,0.0,0.0,
12.646508000000146,0.0,0.0,0.0,0.0,0.0,0.0,0.0,0.125,3.77197227,0.0,0.0,-747.0,0.0,0.0,-0.0,0.0,0.0,2.088622833,0.0,0.0,0.0,0.0,0.0,0.0,0.0,0.0,4.219970271,0.0,0.0,-16473.0,0.0,0.0,-0.0,0.0,0.0,2.496337635,0.0,0.0,-0.10999999940395355,88.5999984741211,-106.4800033569336,1.0057373046875,-0.00299072265625,-0.028564453125,35.470001220703125,0.0,4.0,0.0596771240234375,-0.0202484130859375,Waiting,0.0,0.0,-24581.0,0.0,0.0,0.0,0.0,0.0,
12.764633000000147,0.0,0.0,0.0,0.0,0.0,0.0,0.0,0.125,3.77197227,0.0,0.0,-747.0,0.0,0.0,-0.0,0.0,0.0,2.088622833,0.0,0.0,0.0,0.0,0.0,0.0,0.0,0.0,4.219970271,0.0,0.0,-16473.0,0.0,0.0,-0.0,0.0,0.0,2.5842282510000003,0.0,0.0,-0.10999999940395355,88.58999633789062,-106.56999969482422,1.01055908203125,0.003662109375,-0.0360107421875,35.470001220703125,0.0,10.0,0.0597686767578125,-0.0202484130859375,Waiting,0.0,0.0,-24581.0,0.0,0.0,0.0,0.0,0.0,
12.888428000000072,0.0,0.0,0.0,0.0,0.0,0.0,0.0,0.125,3.77197227,0.0,0.0,-747.0,0.0,0.0,-0.0,0.0,0.0,2.083740021,0.0,0.0,0.0,0.0,0.0,0.0,0.0,0.0,4.218749568,0.0,0.0,-16473.0,0.0,0.0,-0.0,0.0,0.0,2.564697003,0.0,0.0,-0.10999999940395355,88.5999984741211,-106.45999908447266,1.0025634765625,7.32421875E-4,-0.020263671875,35.470001220703125,0.0,-4.0,0.059814453125,-0.0202484130859375,Waiting,0.0,0.0,-24581.0,0.0,0.0,0.0,0.0,0.0,
13.009918000000063,0.0,0.0,0.0,0.0,0.0,0.0,0.0,0.125,3.770751567,0.0,0.0,-747.0,0.0,0.0,-0.0,0.0,0.0,2.089843536,0.0,0.0,0.0,0.0,0.0,0.0,0.0,0.0,4.218749568,0.0,0.0,-16473.0,0.0,0.0,-0.0,0.0,0.0,2.5305173190000003,0.0,0.0,-0.10000000149011612,88.58999633789062,-106.58999633789062,1.006103515625,3.0517578125E-4,-0.0244140625,35.470001220703125,0.0,0.0,0.059814453125,-0.0202484130859375,Waiting,0.0,0.0,-24581.0,0.0,0.0,0.0,0.0,0.0,
13.143596000000136,0.0,0.0,0.0,0.0,0.0,0.0,0.0,0.125,3.770751567,0.0,0.0,-747.0,0.0,0.0,-0.0,0.0,0.0,2.084960724,0.0,0.0,0.0,0.0,0.0,0.0,0.0,0.0,4.219970271,0.0,0.0,-16473.0,0.0,0.0,-0.0,0.0,0.0,2.515868883,0.0,0.0,-0.10999999940395355,88.58999633789062,-106.58999633789062,1.00274658203125,0.00115966796875,-0.0279541015625,35.4900016784668,0.0,3.0,0.059814453125,-0.0202484130859375,Waiting,0.0,0.0,-24581.0,0.0,0.0,0.0,0.0,0.0,
13.266976000000025,0.0,0.0,0.0,0.0,0.0,0.0,0.0,0.125,3.770751567,0.0,0.0,-747.0,0.0,0.0,-0.0,0.0,0.0,2.088622833,0.0,0.0,0.0,0.0,0.0,0.0,0.0,0.0,4.218749568,0.0,0.0,-16473.0,0.0,0.0,-0.0,0.0,0.0,2.46582006,0.0,0.0,-0.10999999940395355,88.58999633789062,-106.56999969482422,1.00567626953125,-3.662109375E-4,-0.02191162109375,35.4900016784668,0.0,-2.0,0.059814453125,-0.0202484130859375,Waiting,0.0,0.0,-24581.0,0.0,0.0,0.0,0.0,0.0,
13.40057200000016,0.0,0.0,0.0,0.0,0.0,0.0,0.0,0.125,3.77197227,0.0,0.0,-747.0,0.0,0.0,-0.0,0.0,0.0,2.088622833,0.0,0.0,0.0,0.0,0.0,0.0,0.0,0.0,4.217528865,0.0,0.0,-16473.0,0.0,0.0,-0.0,0.0,0.0,2.4328610790000003,0.0,0.0,-0.10000000149011612,88.5999984741211,-106.4800033569336,0.99951171875,-0.00634765625,-0.02862548828125,35.4900016784668,0.0,4.0,0.0596923828125,-0.0202484130859375,Waiting,0.0,0.0,-24581.0,0.0,0.0,0.0,0.0,0.0,
13.521417000000133,0.0,0.0,0.0,0.0,0.0,0.0,0.0,0.125,3.77197227,0.0,0.0,-747.0,0.0,0.0,-0.0,0.0,0.0,2.088622833,0.0,0.0,0.0,0.0,0.0,0.0,0.0,0.0,4.218749568,0.0,0.0,-16473.0,0.0,0.0,-0.0,0.0,0.0,2.447509515,0.0,0.0,-0.10000000149011612,88.58999633789062,-106.58999633789062,1.01043701171875,-0.00860595703125,-0.03216552734375,35.4900016784668,0.0,8.0,0.0596923828125,-0.0202484130859375,Waiting,0.0,0.0,-24581.0,0.0,0.0,0.0,0.0,0.0,
13.645802000000142,0.0,0.0,0.0,0.0,0.0,0.0,0.0,0.125,3.77197227,0.0,0.0,-747.0,0.0,0.0,-0.0,0.0,0.0,2.084960724,0.0,0.0,0.0,0.0,0.0,0.0,0.0,0.0,4.218749568,0.0,0.0,-16473.0,0.0,0.0,-0.0,0.0,0.0,2.4829099020000003,0.0,0.0,-0.10000000149011612,88.58999633789062,-106.58999633789062,1.00897216796875,-0.005126953125,-0.025390625,35.470001220703125,0.0,1.0,0.0596923828125,-0.0202484130859375,Waiting,0.0,0.0,-24581.0,0.0,0.0,0.0,0.0,0.0,
13.778796000000089,0.0,0.0,0.0,0.0,0.0,0.0,0.0,0.125,3.77197227,0.0,0.0,-747.0,0.0,0.0,-0.0,0.0,0.0,2.084960724,0.0,0.0,0.0,0.0,0.0,0.0,0.0,0.0,4.219970271,0.0,0.0,-16473.0,0.0,0.0,-0.0,0.0,0.0,2.5842282510000003,0.0,0.0,-0.10000000149011612,88.58999633789062,-106.58999633789062,1.00445556640625,-0.00164794921875,-0.03057861328125,35.470001220703125,0.0,6.0,0.0596923828125,-0.0202484130859375,Waiting,0.0,0.0,-24581.0,0.0,0.0,0.0,0.0,0.0,
13.908595000000204,0.0,0.0,0.0,0.0,0.0,0.0,0.0,0.125,3.770751567,0.0,0.0,-747.0,0.0,0.0,-0.0,0.0,0.0,2.088622833,0.0,0.0,0.0,0.0,0.0,0.0,0.0,0.0,4.221190974000001,0.0,0.0,-16473.0,0.0,0.0,-0.0,0.0,0.0,2.564697003,0.0,0.0,-0.10000000149011612,88.58999633789062,-106.5999984741211,0.99713134765625,-6.103515625E-5,-0.018798828125,35.470001220703125,0.0,-5.0,0.0596923828125,-0.0202484130859375,Waiting,0.0,0.0,-24581.0,0.0,0.0,0.0,0.0,0.0,
14.034393000000156,0.0,0.0,0.0,0.0,0.0,0.0,0.0,0.125,3.773192973,0.0,0.0,-747.0,0.0,0.0,-0.0,0.0,0.0,2.088622833,0.0,0.0,0.0,0.0,0.0,0.0,0.0,0.0,4.218749568,0.0,0.0,-16473.0,0.0,0.0,-0.0,0.0,0.0,2.554931379,0.0,0.0,-0.10000000149011612,88.58999633789062,-106.5999984741211,1.003662109375,-0.00128173828125,-0.0247802734375,35.470001220703125,0.0,0.0,0.0596923828125,-0.0202484130859375,Waiting,0.0,0.0,-24581.0,0.0,0.0,0.0,0.0,0.0,
14.163533999999984,0.0,0.0,0.0,0.0,0.0,0.0,0.0,0.125,3.773192973,0.0,0.0,-747.0,0.0,0.0,-0.0,0.0,0.0,2.089843536,0.0,0.0,0.0,0.0,0.0,0.0,0.0,0.0,4.219970271,0.0,0.0,-16473.0,0.0,0.0,-0.0,0.0,0.0,2.5402829430000002,0.0,0.0,-0.10000000149011612,88.58999633789062,-106.5999984741211,1.0047607421875,-0.00103759765625,-0.0220947265625,35.400001525878906,0.0,-2.0,0.0596923828125,-0.0202484130859375,Waiting,0.0,0.0,-24581.0,0.0,0.0,0.0,0.0,0.0,
14.287146000000183,0.0,0.0,0.0,0.0,0.0,0.0,0.0,0.125,3.770751567,0.0,0.0,-747.0,0.0,0.0,-0.0,0.0,0.0,2.084960724,0.0,0.0,0.0,0.0,0.0,0.0,0.0,0.0,4.219970271,0.0,0.0,-16473.0,0.0,0.0,-0.0,0.0,0.0,2.452392327,0.0,0.0,-0.10000000149011612,88.5999984741211,-106.51000213623047,1.0047607421875,0.00189208984375,-0.01910400390625,35.400001525878906,0.0,-5.0,0.0596923828125,-0.0202484130859375,Waiting,0.0,0.0,-24581.0,0.0,0.0,0.0,0.0,0.0,
14.420931000000099,0.0,0.0,0.0,0.0,0.0,0.0,0.0,0.125,3.769530864,0.0,0.0,-747.0,0.0,0.0,-0.0,0.0,0.0,2.089843536,0.0,0.0,0.0,0.0,0.0,0.0,0.0,0.0,4.218749568,0.0,0.0,-16473.0,0.0,0.0,-0.0,0.0,0.0,2.457275139,0.0,0.0,-0.10000000149011612,88.58999633789062,-106.62000274658203,1.00128173828125,0.00115966796875,-0.03155517578125,35.400001525878906,0.0,6.0,0.0596923828125,-0.0202484130859375,Waiting,0.0,0.0,-24581.0,0.0,0.0,0.0,0.0,0.0,
14.542508000000147,0.0,0.0,0.0,0.0,0.0,0.0,0.0,0.125,3.77197227,0.0,0.0,-747.0,0.0,0.0,-0.0,0.0,0.0,2.083740021,0.0,0.0,0.0,0.0,0.0,0.0,0.0,0.0,4.218749568,0.0,0.0,-16473.0,0.0,0.0,-0.0,0.0,0.0,2.457275139,0.0,0.0,-0.10000000149011612,88.58000183105469,-106.7300033569336,1.010009765625,-0.0067138671875,-0.0328369140625,35.400001525878906,0.0,8.0,0.0596923828125,-0.0202484130859375,Waiting,0.0,0.0,-24581.0,0.0,0.0,0.0,0.0,0.0,
14.660918999999994,0.0,0.0,0.0,0.0,0.0,0.0,0.0,0.125,3.77197227,0.0,0.0,-747.0,0.0,0.0,-0.0,0.0,0.0,2.091064239,0.0,0.0,0.0,0.0,0.0,0.0,0.0,0.0,4.218749568,0.0,0.0,-16473.0,0.0,0.0,-0.0,0.0,0.0,2.457275139,0.0,0.0,-0.10999999940395355,88.58000183105469,-106.72000122070312,1.00732421875,-0.0050048828125,-0.02880859375,35.400001525878906,0.0,4.0,0.0596923828125,-0.0202484130859375,Waiting,0.0,0.0,-24581.0,0.0,0.0,0.0,0.0,0.0,
14.779602000000189,0.0,0.0,0.0,0.0,0.0,0.0,0.0,0.125,3.770751567,0.0,0.0,-747.0,0.0,0.0,-0.0,0.0,0.0,2.088622833,0.0,0.0,0.0,0.0,0.0,0.0,0.0,0.0,4.217528865,0.0,0.0,-16473.0,0.0,0.0,-0.0,0.0,0.0,2.491454823,0.0,0.0,-0.10999999940395355,88.58000183105469,-106.72000122070312,1.00152587890625,-0.00103759765625,-0.01507568359375,35.41999816894531,0.0,-9.0,0.0596923828125,-0.0202484130859375,Waiting,0.0,0.0,-24581.0,0.0,0.0,0.0,0.0,0.0,
14.90069800000009,0.0,0.0,0.0,0.0,0.0,0.0,0.0,0.125,3.769530864,0.0,0.0,-747.0,0.0,0.0,-0.0,0.0,0.0,2.088622833,0.0,0.0,0.0,0.0,0.0,0.0,0.0,0.0,4.218749568,0.0,0.0,-16473.0,0.0,0.0,-0.0,0.0,0.0,2.5939938750000002,0.0,0.0,-0.10999999940395355,88.58999633789062,-106.61000061035156,1.00531005859375,-0.0113525390625,-0.0225830078125,35.41999816894531,0.0,-1.0,0.0596923828125,-0.0201416015625,Waiting,0.0,0.0,-24581.0,0.0,0.0,0.0,0.0,0.0,
15.020324000000022,0.0,0.0,0.0,0.0,0.0,0.0,0.0,0.125,3.773192973,0.0,0.0,-747.0,0.0,0.0,-0.0,0.0,0.0,2.084960724,0.0,0.0,0.0,0.0,0.0,0.0,0.0,0.0,4.216308162,0.0,0.0,-16473.0,0.0,0.0,-0.0,0.0,0.0,2.559814191,0.0,0.0,-0.10999999940395355,88.58999633789062,-106.61000061035156,1.00738525390625,6.103515625E-4,-0.02777099609375,35.41999816894531,0.0,2.0,0.0596923828125,-0.0201416015625,Waiting,0.0,0.0,-24581.0,0.0,0.0,0.0,0.0,0.0,
15.144875,0.0,0.0,0.0,0.0,0.0,0.0,0.0,0.125,3.770751567,0.0,0.0,-747.0,0.0,0.0,-0.0,0.0,0.0,2.084960724,0.0,0.0,0.0,0.0,0.0,0.0,0.0,0.0,4.219970271,0.0,0.0,-16473.0,0.0,0.0,-0.0,0.0,0.0,2.521972398,0.0,0.0,-0.10999999940395355,88.58000183105469,-106.72000122070312,1.001708984375,-0.0054931640625,-0.0244140625,35.41999816894531,0.0,0.0,0.0596923828125,-0.0201416015625,Waiting,0.0,0.0,-24581.0,0.0,0.0,0.0,0.0,0.0,
15.262100000000093,0.0,0.0,0.0,0.0,0.0,0.0,0.0,0.125,3.77197227,0.0,0.0,-747.0,0.0,0.0,-0.0,0.0,0.0,2.089843536,0.0,0.0,0.0,0.0,0.0,0.0,0.0,0.0,4.218749568,0.0,0.0,-16473.0,0.0,0.0,-0.0,0.0,0.0,2.510986071,0.0,0.0,-0.10000000149011612,88.58999633789062,-106.58999633789062,1.006103515625,-0.0018310546875,-0.0247802734375,35.40999984741211,0.0,0.0,0.0596923828125,-0.0201416015625,Waiting,0.0,0.0,-24581.0,0.0,0.0,0.0,0.0,0.0,
15.377834000000032,0.0,0.0,0.0,0.0,0.0,0.0,0.0,0.125,3.77197227,0.0,0.0,-747.0,0.0,0.0,-0.0,0.0,0.0,2.083740021,0.0,0.0,0.0,0.0,0.0,0.0,0.0,0.0,4.218749568,0.0,0.0,-16473.0,0.0,0.0,-0.0,0.0,0.0,2.510986071,0.0,0.0,-0.10999999940395355,88.58999633789062,-106.56999969482422,1.00360107421875,-0.00103759765625,-0.0205078125,35.40999984741211,0.0,-4.0,0.0596923828125,-0.0201416015625,Waiting,0.0,0.0,-24581.0,0.0,0.0,0.0,0.0,0.0,
15.494176000000211,0.0,0.0,0.0,0.0,0.0,0.0,0.0,0.125,3.770751567,0.0,0.0,-747.0,0.0,0.0,-0.0,0.0,0.0,2.088622833,0.0,0.0,0.0,0.0,0.0,0.0,0.0,0.0,4.218749568,0.0,0.0,-16473.0,0.0,0.0,-0.0,0.0,0.0,2.510986071,0.0,0.0,-0.10999999940395355,88.58999633789062,-106.58999633789062,1.005859375,-0.00146484375,-0.0238037109375,35.40999984741211,0.0,0.0,0.0596923828125,-0.0201416015625,Waiting,0.0,0.0,-24581.0,0.0,0.0,0.0,0.0,0.0,
15.620734000000171,0.0,0.0,0.0,0.0,0.0,0.0,0.0,0.125,3.770751567,0.0,0.0,-747.0,0.0,0.0,-0.0,0.0,0.0,2.088622833,0.0,0.0,0.0,0.0,0.0,0.0,0.0,0.0,4.219970271,0.0,0.0,-16473.0,0.0,0.0,-0.0,0.0,0.0,2.510986071,0.0,0.0,-0.10999999940395355,88.5999984741211,-106.45999908447266,1.00494384765625,-0.0050048828125,-0.02490234375,35.40999984741211,0.0,0.0,0.0596923828125,-0.0201416015625,Waiting,0.0,0.0,-24581.0,0.0,0.0,0.0,0.0,0.0,
15.743643000000157,0.0,0.0,0.0,0.0,0.0,0.0,0.0,0.125,3.77197227,0.0,0.0,-747.0,0.0,0.0,-0.0,0.0,0.0,2.084960724,0.0,0.0,0.0,0.0,0.0,0.0,0.0,0.0,4.221190974000001,0.0,0.0,-16473.0,0.0,0.0,-0.0,0.0,0.0,2.512206774,0.0,0.0,-0.10999999940395355,88.58999633789062,-106.56999969482422,1.00457763671875,-0.001708984375,-0.02203369140625,35.41999816894531,0.0,-2.0,0.0596923828125,-0.0201416015625,Waiting,0.0,0.0,-24581.0,0.0,0.0,0.0,0.0,0.0,
15.861060999999987,0.0,0.0,0.0,0.0,0.0,0.0,0.0,0.125,3.77197227,0.0,0.0,-747.0,0.0,0.0,-0.0,0.0,0.0,2.088622833,0.0,0.0,0.0,0.0,0.0,0.0,0.0,0.0,4.218749568,0.0,0.0,-16473.0,0.0,0.0,-0.0,0.0,0.0,2.512206774,0.0,0.0,-0.10000000149011612,88.58999633789062,-106.55000305175781,1.006591796875,-0.00225830078125,-0.02923583984375,35.41999816894531,0.0,4.0,0.0596923828125,-0.0201416015625,Waiting,0.0,0.0,-24581.0,0.0,0.0,0.0,0.0,0.0,
15.975266999999992,0.0,0.0,0.0,0.0,0.0,0.0,0.0,0.125,3.77197227,0.0,0.0,-747.0,0.0,0.0,-0.0,0.0,0.0,2.088622833,0.0,0.0,0.0,0.0,0.0,0.0,0.0,0.0,4.218749568,0.0,0.0,-16473.0,0.0,0.0,-0.0,0.0,0.0,2.510986071,0.0,0.0,-0.10000000149011612,88.5999984741211,-106.44999694824219,1.00665283203125,-0.0015869140625,-0.02789306640625,35.41999816894531,0.0,3.0,0.0596923828125,-0.0201416015625,Waiting,0.0,0.0,-24581.0,0.0,0.0,0.0,0.0,0.0,
16.089722000000066,0.0,0.0,0.0,0.0,0.0,0.0,0.0,0.125,3.751220319,0.0,0.0,-747.0,0.0,0.0,-0.0,0.0,0.0,2.084960724,0.0,0.0,0.0,0.0,0.0,0.0,0.0,0.0,4.218749568,0.0,0.0,-16473.0,0.0,0.0,-0.0,0.0,0.0,2.510986071,0.0,0.0,-0.10000000149011612,88.5999984741211,-106.4800033569336,1.00482177734375,-0.00665283203125,-0.02618408203125,35.41999816894531,0.0,2.0,0.0596923828125,-0.0201416015625,Waiting,0.0,0.0,-24581.0,0.0,0.0,0.0,0.0,0.0,
16.213641000000063,0.0,0.0,0.0,0.0,0.0,0.0,0.0,0.125,3.658446891,0.0,0.0,-747.0,0.0,0.0,-0.0,0.0,0.0,2.088622833,0.0,0.0,0.0,0.0,0.0,0.0,0.0,0.0,4.219970271,0.0,0.0,-16473.0,0.0,0.0,-0.0,0.0,0.0,2.512206774,0.0,0.0,-0.10000000149011612,88.5999984741211,-106.48999786376953,1.00689697265625,-0.0064697265625,-0.029296875,35.459999084472656,0.0,5.0,0.0596923828125,-0.0201416015625,Waiting,0.0,0.0,-24581.0,0.0,0.0,0.0,0.0,0.0,
16.33838400000008,0.0,0.0,0.0,0.0,0.0,0.0,0.0,0.125,3.6926265750000002,0.0,0.0,-747.0,0.0,0.0,-0.0,0.0,0.0,2.088622833,0.0,0.0,0.0,0.0,0.0,0.0,0.0,0.0,4.217528865,0.0,0.0,-16473.0,0.0,0.0,-0.0,0.0,0.0,2.509765368,0.0,0.0,-0.10000000149011612,88.5999984741211,-106.4800033569336,1.0087890625,-1.220703125E-4,-0.01953125,35.459999084472656,0.0,-5.0,0.0596923828125,-0.0201416015625,Waiting,0.0,0.0,-24581.0,0.0,0.0,0.0,0.0,0.0,
16.46036300000013,0.0,0.0,0.0,0.0,0.0,0.0,0.0,0.125,3.7365718830000003,0.0,0.0,-747.0,0.0,0.0,-0.0,0.0,0.0,2.089843536,0.0,0.0,0.0,0.0,0.0,0.0,0.0,0.0,4.219970271,0.0,0.0,-16473.0,0.0,0.0,-0.0,0.0,0.0,2.508544665,0.0,0.0,-0.10000000149011612,88.5999984741211,-106.51000213623047,1.00823974609375,0.00372314453125,-0.02545166015625,35.459999084472656,0.0,0.0,0.0596923828125,-0.0201416015625,Waiting,0.0,0.0,-24581.0,0.0,0.0,0.0,0.0,0.0,
16.575449000000024,0.0,0.0,0.0,0.0,0.0,0.0,0.0,0.125,3.8488765590000003,0.0,0.0,-747.0,0.0,0.0,-0.0,0.0,0.0,2.089843536,0.0,0.0,0.0,0.0,0.0,0.0,0.0,0.0,4.218749568,0.0,0.0,-16473.0,0.0,0.0,-0.0,0.0,0.0,2.510986071,0.0,0.0,-0.09000000357627869,88.5999984741211,-106.47000122070312,1.00091552734375,-0.00677490234375,-0.025634765625,35.459999084472656,0.0,1.0,0.0596923828125,-0.0201416015625,Waiting,0.0,0.0,-24581.0,0.0,0.0,0.0,0.0,0.0,
