Time,ClimberA1,ClimberA2,FRpos,FRCurrent,FRspeed,FRsetpoint,FRApos,FRACurrent,FREncpos,FREncSetpoint,FREncSpeed,FLpos,FLCurrent,FLspeed,FLsetpoint,FLApos,FLACurrent,FLEncpos,FLEncSetpoint,FLEncSpeed,BRpos,BRCurrent,BRspeed,BRsetpoint,BRApos,BRACurrent,BREncpos,BREncSetpoint,BREncSpeed,BLpos,BLCurrent,BLspeed,BLsetpoint,BLApos,BLACurrent,BLEncpos,BLEncSetpoint,BLEncSpeed,navx_Pitch,navx_Roll,navx_Yaw,navx_XAcc,navx_YAcc,navx_ZAcc,navx_Temp,navx_Bar,navx_Alt,navx_XDis,navx_YDis,GearPlacerState,ShootOutputV,ShootOutputCurrent,ShootEncPos,ShootEncVelocity,ShootSpeed,ShootSetpoint,CarouselSetpoint,CarouselCurrent,
0.2215929999999935,0.0,0.0,0.0,0.0,0.0,0.0,0.0,0.0,1.120605354,0.01,0.0,0.0,0.0,0.0,0.0,0.0,0.0,0.996093648,0.01,0.0,0.0,0.0,0.0,0.0,0.0,0.0,2.3266599180000003,0.01,0.0,0.0,0.0,0.0,0.0,0.0,0.0,1.3757322810000001,0.01,0.0,-0.3700000047683716,89.36000061035156,-90.37999725341797,0.9913330078125,-0.08837890625,-0.0233154296875,28.479999542236328,0.0,82.0,0.1012725830078125,0.057281494140625,Waiting,0.0,0.0,0.0,0.0,0.0,0.0,0.0,0.0,
0.2923940000000002,0.0,0.0,0.0,0.0,0.0,0.0,0.0,0.0,1.120605354,0.0,0.0,0.0,0.0,0.0,-0.0,0.0,0.0,0.9973143510000001,0.0,0.0,0.0,0.0,0.0,0.0,0.0,0.0,2.3266599180000003,0.0,0.0,0.0,0.0,0.0,-0.0,0.0,0.0,1.3757322810000001,0.0,0.0,-0.3799999952316284,89.37999725341797,-90.38999938964844,0.9918212890625,-0.08489990234375,-0.00494384765625,28.479999542236328,0.0,69.0,0.10589599609375,0.057281494140625,Waiting,0.0,0.0,0.0,0.0,0.0,0.0,0.0,0.0,
0.3187930000000051,0.0,0.0,0.0,0.0,0.0,0.0,0.0,0.0,1.120605354,0.0,2.2433846510000004,0.0,0.0,0.0,-0.0,0.0,0.0,0.9973143510000001,0.0,4.045093648,0.0,0.0,0.0,0.0,0.0,3.5,2.337646245,0.0,3.0506599179999996,0.0,0.0,0.0,-0.0,0.0,7.0,1.4233396980000002,0.0,3.4520115779999996,-0.3799999952316284,89.37999725341797,-90.38999938964844,0.9884033203125,-0.0859375,-0.0198974609375,28.479999542236328,0.0,79.0,0.1072998046875,0.057281494140625,Waiting,0.0,0.0,0.0,0.0,0.0,0.0,0.0,0.0,
0.3477799999999988,0.0,0.0,0.0,0.0,0.0,0.0,0.0,6.25,1.03759755,0.0,2.2433846510000004,0.0,0.0,0.0,-0.0,0.0,4.375,1.077880749,0.0,4.045093648,0.0,0.0,0.0,0.0,0.0,6.875,2.496337635,0.0,3.0506599179999996,0.0,0.0,0.0,-0.0,0.0,8.125,1.6064451480000002,0.0,3.4520115779999996,-0.3799999952316284,89.36000061035156,-90.4000015258789,0.9881591796875,-0.06170654296875,-0.03997802734375,28.479999542236328,0.0,55.0,0.1104278564453125,0.0573577880859375,Waiting,0.0,0.0,0.0,0.0,0.0,0.0,0.0,0.0,
0.3721000000000058,0.0,0.0,0.0,0.0,0.0,0.0,0.0,6.75,0.8300780400000001,0.0,-0.025634762999999783,0.0,0.0,0.0,-0.0,0.0,5.375,1.252441278,0.0,0.019531247999999835,0.0,0.0,0.0,0.0,0.0,7.25,2.717284878,0.0,0.06225585299999992,0.0,0.0,0.0,-0.0,0.0,7.875,1.8176267670000001,0.0,0.10620116100000043,-0.3799999952316284,89.36000061035156,-90.4000015258789,0.9908447265625,-0.10906982421875,0.0067138671875,28.479999542236328,0.0,102.0,0.1139373779296875,0.0575408935546875,Waiting,0.0,0.0,0.0,0.0,0.0,0.0,0.0,0.0,
0.39374499999999535,0.0,0.0,0.0,0.0,0.0,0.0,0.0,3.5,0.6481932930000001,0.0,-0.025634762999999783,0.0,0.0,0.0,-0.0,0.0,5.875,1.436767431,0.0,0.019531247999999835,0.0,0.0,0.0,0.0,0.0,4.375,2.9052731400000003,0.0,0.06225585299999992,-4.0,0.0,-7.5,-0.0,0.0,2.0,1.9970701080000002,0.0,0.10620116100000043,-0.38999998569488525,89.3499984741211,-90.4000015258789,0.99041748046875,-0.09918212890625,-0.0155029296875,28.479999542236328,0.0,92.0,0.1158599853515625,0.0576324462890625,Waiting,0.0,0.0,0.0,0.0,0.0,0.0,0.0,0.0,
0.42829199999998674,0.0,0.0,0.0,0.0,0.0,0.0,0.0,0.75,0.391845663,0.0,-0.37109371199999996,0.0,0.0,0.0,-0.0,0.0,0.75,1.691894358,0.0,0.30761715600000006,0.0,0.0,0.0,0.0,0.0,0.375,3.14941374,0.0,0.367431603,-4.0,0.0,-22.5,-0.0,0.0,0.25,2.303466561,0.0,0.35400386999999967,-0.3799999952316284,89.37999725341797,-90.38999938964844,0.9886474609375,-0.1085205078125,0.002197265625,28.479999542236328,0.0,101.0,0.122314453125,0.057586669921875,Waiting,0.0,0.0,0.0,0.0,0.0,0.0,0.0,0.0,
0.45935599999999976,0.0,0.0,0.0,0.0,0.0,0.0,0.0,0.25,0.106201161,0.0,-0.473632764,0.0,0.0,0.0,-0.0,0.0,0.25,1.907958789,0.0,0.4626464370000001,0.0,0.0,0.0,0.0,0.0,0.125,3.449706678,0.0,0.4992675270000002,-4.0,0.0,-22.5,-0.0,0.0,0.25,2.5402829430000002,0.0,0.5053710420000002,-0.3799999952316284,89.37999725341797,-90.38999938964844,0.99444580078125,-0.04278564453125,-0.013427734375,28.479999542236328,0.0,36.0,0.1271209716796875,0.0575408935546875,Waiting,0.0,0.0,0.0,0.0,0.0,0.0,0.0,0.0,
0.48645999999999184,0.0,0.0,0.0,0.0,0.0,0.0,0.0,0.25,4.8730463760000005,0.0,-0.473632764,0.0,0.0,0.0,-0.0,0.0,0.0,1.9946287020000002,0.0,0.4626464370000001,0.0,0.0,0.0,0.0,0.0,0.125,3.6291500190000003,0.0,0.4992675270000002,-4.0,0.0,-15.0,-0.0,0.0,0.25,2.708739957,0.0,0.5053710420000002,-0.3700000047683716,89.38999938964844,-90.38999938964844,0.98321533203125,-0.02691650390625,-0.02008056640625,28.479999542236328,0.0,20.0,0.12957763671875,0.0575408935546875,Waiting,0.0,0.0,0.0,0.0,0.0,0.0,0.0,0.0,
0.5077440000000061,0.0,0.0,0.0,0.0,0.0,0.0,0.0,0.375,4.691161629000001,0.0,-0.473632764,0.0,0.0,0.0,-0.0,0.0,0.0,2.032470495,0.0,-4.718287133,0.0,0.0,0.0,0.0,0.0,0.125,3.8464351530000003,0.0,0.40649409899999966,-4.0,0.0,-7.5,-0.0,0.0,0.0,2.8454586930000003,0.0,0.3881835539999994,-0.3799999952316284,89.36000061035156,-90.38999938964844,0.99627685546875,0.0025634765625,-0.02288818359375,28.479999542236328,0.0,-8.0,0.13458251953125,0.057525634765625,Waiting,0.0,0.0,0.0,0.0,0.0,0.0,0.0,0.0,
0.5314919999999984,0.0,0.0,0.0,0.0,0.0,0.0,0.0,0.375,4.497069852,0.0,-0.4144399189999999,0.0,0.0,0.0,-0.0,0.0,0.125,2.028808386,0.0,-4.718287133,0.0,0.0,0.0,0.0,0.0,0.0,4.000243731,0.0,0.40649409899999966,-4.0,0.0,0.0,-0.0,0.0,0.0,2.939452824,0.0,0.3881835539999994,-0.3799999952316284,89.36000061035156,-90.4000015258789,1.013427734375,-0.01605224609375,-0.0179443359375,28.479999542236328,0.0,9.0,0.13458251953125,0.057525634765625,Waiting,0.0,0.0,0.0,0.0,0.0,0.0,0.0,0.0,
0.5516769999999961,0.0,0.0,0.0,0.0,0.0,0.0,0.0,0.375,4.334716353,0.0,-0.4144399189999999,0.0,0.0,0.0,-0.0,0.0,0.125,2.022704871,0.0,-4.718287133,0.0,0.0,0.0,0.0,0.0,0.0,4.125976140000001,0.0,0.40649409899999966,-4.0,0.0,0.0,-0.0,0.0,0.0,3.0126950040000002,0.0,0.3881835539999994,-0.3799999952316284,89.3499984741211,-90.4000015258789,0.9954833984375,-0.007568359375,-0.0015869140625,28.479999542236328,0.0,0.0,0.13458251953125,0.0576019287109375,Waiting,0.0,0.0,0.0,0.0,0.0,0.0,0.0,0.0,
0.5772099999999919,0.0,0.0,0.0,0.0,0.0,0.0,0.0,0.25,4.104003486,0.0,-0.39672847500000064,0.0,0.0,0.0,-0.0,0.0,0.0,1.9995115140000002,0.0,0.010986326999999907,0.0,0.0,0.0,0.0,0.0,0.0,4.266356985,0.0,0.3894042569999998,-4.0,0.0,0.0,-0.0,0.0,0.0,3.037109064,0.0,-4.7143457269999995,-0.38999998569488525,89.37000274658203,-90.38999938964844,1.00799560546875,-0.001953125,-0.0032958984375,28.479999542236328,0.0,-5.0,0.13458251953125,0.0576324462890625,Waiting,0.0,0.0,0.0,0.0,0.0,0.0,0.0,0.0,
0.6009860000000045,0.0,0.0,0.0,0.0,0.0,0.0,0.0,0.0,3.919677333,0.0,-0.36865230599999954,0.0,0.0,0.0,-0.0,0.0,0.0,1.9702146420000002,0.0,-0.03417968399999993,0.0,0.0,0.0,0.0,0.0,0.0,4.326171432000001,0.0,-4.730611350999999,-4.0,0.0,0.0,-0.0,0.0,0.0,2.9956051620000004,0.0,0.07324217999999982,-0.3700000047683716,89.38999938964844,-90.37999725341797,1.024169921875,-0.02081298828125,-0.00433349609375,28.479999542236328,0.0,13.0,0.13458251953125,0.0576324462890625,Waiting,0.0,0.0,0.0,0.0,0.0,0.0,0.0,0.0,
0.6339919999999983,0.0,0.0,0.0,0.0,0.0,0.0,0.0,0.0,3.80859336,0.0,-0.36865230599999954,0.0,0.0,0.0,-0.0,0.0,0.0,1.9519040970000001,0.0,-0.03417968399999993,0.0,0.0,0.0,0.0,0.0,0.0,4.334716353,0.0,-4.730611350999999,-4.0,0.0,0.0,-0.0,0.0,0.0,2.9602047750000002,0.0,0.07324217999999982,-0.3799999952316284,89.38999938964844,-90.38999938964844,1.00244140625,-0.01763916015625,-0.00799560546875,28.479999542236328,0.0,10.0,0.13458251953125,0.0576324462890625,Waiting,0.0,0.0,0.0,0.0,0.0,0.0,0.0,0.0,
0.655554999999993,0.0,0.0,0.0,0.0,0.0,0.0,0.0,0.0,3.7768550820000004,0.0,-0.36865230599999954,0.0,0.0,0.0,-0.0,0.0,0.0,1.934814255,0.0,-0.03417968399999993,0.0,0.0,0.0,0.0,0.0,0.0,4.328612838000001,0.0,0.05981444699999994,-4.0,0.0,0.0,-0.0,0.0,0.0,2.926025091,0.0,-0.08178710099999975,-0.3799999952316284,89.37999725341797,-90.38999938964844,1.0069580078125,0.005859375,-0.01654052734375,28.479999542236328,0.0,-12.0,0.13458251953125,0.0576324462890625,Waiting,0.0,0.0,0.0,0.0,0.0,0.0,0.0,0.0,
0.6846259999999893,0.0,0.0,0.0,0.0,0.0,0.0,0.0,0.0,3.7426753980000003,0.0,4.718638697,0.0,0.0,0.0,-0.0,0.0,0.0,1.9165037100000002,0.0,-0.04882812000000003,0.0,0.0,0.0,0.0,0.0,0.0,4.320067917,0.0,0.05981444699999994,-4.0,0.0,0.0,-0.0,0.0,0.0,2.9003903280000003,0.0,-0.08178710099999975,-0.3799999952316284,89.36000061035156,-90.4000015258789,1.02081298828125,0.02093505859375,-0.00628662109375,28.479999542236328,0.0,-27.0,0.134490966796875,0.0576324462890625,Waiting,0.0,0.0,0.0,0.0,0.0,0.0,0.0,0.0,
0.7069340000000084,0.0,0.0,0.0,0.0,0.0,0.0,0.0,0.0,3.7475582100000002,0.0,4.718638697,0.0,0.0,0.0,-0.0,0.0,0.0,1.906738086,0.0,-0.04882812000000003,0.0,0.0,0.0,0.0,0.0,0.0,4.306640184,0.0,-0.01586913900000031,-4.0,0.0,0.0,-0.0,0.0,0.0,2.882079783,0.0,-0.05371093199999999,-0.38999998569488525,89.36000061035156,-90.4000015258789,1.018310546875,0.04266357421875,-0.02703857421875,28.479999542236328,0.0,-49.0,0.134368896484375,0.0576324462890625,Waiting,0.0,0.0,0.0,0.0,0.0,0.0,0.0,0.0,
0.7296149999999907,0.0,0.0,0.0,0.0,0.0,0.0,0.0,0.0,3.757323834,0.0,-0.04150390200000054,0.0,0.0,0.0,-0.0,0.0,0.0,1.901855274,0.0,-0.029296871999999974,0.0,0.0,0.0,0.0,0.0,0.0,4.289550342,0.0,-0.01586913900000031,-4.0,0.0,0.0,-0.0,0.0,0.0,2.872314159,0.0,-0.05371093199999999,-0.38999998569488525,89.3499984741211,-90.4000015258789,1.0018310546875,0.05218505859375,-0.00762939453125,28.479999542236328,0.0,-59.0,0.134185791015625,0.0576324462890625,Waiting,0.0,0.0,0.0,0.0,0.0,0.0,0.0,0.0,
0.7514029999999912,0.0,0.0,0.0,0.0,0.0,0.0,0.0,0.0,3.767089458,0.0,-0.04150390200000054,0.0,0.0,0.0,-0.0,0.0,0.0,1.901855274,0.0,-0.029296871999999974,0.0,0.0,0.0,0.0,0.0,0.0,4.2932124510000005,0.0,-0.01586913900000031,-4.0,0.0,0.0,-0.0,0.0,0.0,2.860107129,0.0,-0.05371093199999999,-0.4000000059604645,89.3499984741211,-90.41999816894531,1.00982666015625,0.0692138671875,0.01483154296875,28.5,0.0,-76.0,0.1334991455078125,0.0576171875,Waiting,0.0,0.0,0.0,0.0,0.0,0.0,0.0,0.0,
0.7938189999999886,0.0,0.0,0.0,0.0,0.0,0.0,0.0,0.0,3.7890621120000003,0.0,0.01586913900000031,0.0,0.0,0.0,-0.0,0.0,0.0,1.901855274,0.0,-0.013427733000000108,0.0,0.0,0.0,0.0,0.0,0.0,4.257812064,0.0,-0.03173827799999973,-4.0,0.0,0.0,-0.0,0.0,0.0,2.8527829110000003,0.0,4.915761721999999,-0.4000000059604645,89.37000274658203,-90.41000366210938,1.006103515625,0.0870361328125,0.00640869140625,28.5,0.0,-94.0,0.1316070556640625,0.0573577880859375,Waiting,0.0,0.0,0.0,0.0,0.0,0.0,0.0,0.0,
0.8293740000000107,0.0,0.0,0.0,0.0,0.0,0.0,0.0,0.0,3.8415523410000003,0.0,0.032958981000000165,0.0,0.0,0.0,-0.0,0.0,0.0,1.901855274,0.0,0.0,0.0,0.0,0.0,0.0,0.0,0.0,4.237060113,0.0,-0.035400387000000144,-4.0,0.0,0.0,-0.0,0.0,0.0,2.8479000990000003,0.0,-0.01586913900000031,-0.4000000059604645,89.37000274658203,-90.41000366210938,1.01702880859375,0.08929443359375,-0.03961181640625,28.5,0.0,-95.0,0.1297760009765625,0.05706787109375,Waiting,0.0,0.0,0.0,0.0,0.0,0.0,0.0,0.0,
0.8518159999999916,0.0,0.0,0.0,0.0,0.0,0.0,0.0,0.0,3.813476172,0.0,0.032958981000000165,0.0,0.0,0.0,-0.0,0.0,0.0,1.901855274,0.0,0.0,0.0,0.0,0.0,0.0,0.0,0.0,4.2431636280000005,0.0,-0.035400387000000144,-4.0,0.0,0.0,-0.0,0.0,0.0,2.8479000990000003,0.0,-0.01586913900000031,-0.38999998569488525,89.37000274658203,-90.4000015258789,0.9500732421875,0.048828125,-0.0072021484375,28.5,0.0,-55.0,0.12750244140625,0.0567626953125,Waiting,0.0,0.0,0.0,0.0,0.0,0.0,0.0,0.0,
0.8732049999999872,0.0,0.0,0.0,0.0,0.0,0.0,0.0,0.0,3.819579687,0.0,0.019531247999999835,0.0,0.0,0.0,-0.0,0.0,0.0,1.901855274,0.0,0.0,0.0,0.0,0.0,0.0,0.0,0.0,4.239501519,0.0,-0.008544920999999484,-4.0,0.0,0.0,-0.0,0.0,0.0,2.8491208020000003,0.0,-0.003662108999999525,-0.38999998569488525,89.3499984741211,-90.41000366210938,0.96270751953125,0.07354736328125,6.7138671875E-4,28.5,0.0,-80.0,0.1248931884765625,0.0565643310546875,Waiting,0.0,0.0,0.0,0.0,0.0,0.0,0.0,0.0,
0.9025020000000077,0.0,0.0,0.0,0.0,0.0,0.0,0.0,0.0,3.82080039,0.0,0.019531247999999835,0.0,0.0,0.0,-0.0,0.0,0.0,1.903075977,0.0,0.0,0.0,0.0,0.0,0.0,0.0,0.0,4.237060113,0.0,-0.008544920999999484,-4.0,0.0,0.0,-0.0,0.0,0.0,2.8491208020000003,0.0,-0.003662108999999525,-0.4000000059604645,89.3499984741211,-90.41000366210938,1.02874755859375,0.0511474609375,0.00616455078125,28.5,0.0,-58.0,0.1234283447265625,0.05645751953125,Waiting,0.0,0.0,0.0,0.0,0.0,0.0,0.0,0.0,
0.9320750000000116,0.0,0.0,0.0,0.0,0.0,0.0,0.0,0.0,3.82080039,0.0,0.004882811999999959,0.0,0.0,0.0,-0.0,0.0,0.0,1.901855274,0.0,0.0,0.0,0.0,0.0,0.0,0.0,0.0,4.237060113,0.0,-0.004882811999999959,-4.0,0.0,0.0,-0.0,0.0,0.0,2.8479000990000003,0.0,0.0,-0.4099999964237213,89.3499984741211,-90.41999816894531,0.994873046875,0.0706787109375,0.06658935546875,28.5,0.0,-79.0,0.1202239990234375,0.0564117431640625,Waiting,0.0,0.0,0.0,0.0,0.0,0.0,0.0,0.0,
0.9519769999999844,0.0,0.0,0.0,0.0,0.0,0.0,0.0,0.0,3.819579687,0.0,0.004882811999999959,0.0,0.0,0.0,-0.0,0.0,0.0,1.901855274,0.0,0.0,0.0,0.0,0.0,0.0,0.0,0.0,4.2382808160000005,0.0,0.0,-4.0,0.0,0.0,-0.0,0.0,0.0,2.8479000990000003,0.0,0.0,-0.4000000059604645,89.3499984741211,-90.41999816894531,1.00384521484375,0.034912109375,0.01580810546875,28.5,0.0,-42.0,0.1166229248046875,0.056182861328125,Waiting,0.0,0.0,0.0,0.0,0.0,0.0,0.0,0.0,
0.9843539999999921,0.0,0.0,0.0,0.0,0.0,0.0,0.0,0.0,3.819579687,0.0,0.0,0.0,0.0,0.0,-0.0,0.0,0.0,1.901855274,0.0,0.0,0.0,0.0,0.0,0.0,0.0,0.0,4.2382808160000005,0.0,0.0,-4.0,0.0,0.0,-0.0,0.0,0.0,2.8491208020000003,0.0,0.0,-0.4099999964237213,89.36000061035156,-90.41999816894531,1.0052490234375,0.05975341796875,0.006103515625,28.5,0.0,-67.0,0.114715576171875,0.0560302734375,Waiting,0.0,0.0,0.0,0.0,0.0,0.0,0.0,0.0,
1.0005750000000115,0.0,0.0,0.0,0.0,0.0,0.0,0.0,0.0,3.825683202,0.0,0.0,0.0,0.0,0.0,-0.0,0.0,0.0,1.901855274,0.0,0.0,0.0,0.0,0.0,0.0,0.0,0.0,4.2382808160000005,0.0,0.0,-4.0,0.0,0.0,-0.0,0.0,0.0,2.8491208020000003,0.0,0.0,-0.4000000059604645,89.36000061035156,-90.41999816894531,0.98699951171875,0.04833984375,-0.03106689453125,28.5,0.0,-54.0,0.1106414794921875,0.055633544921875,Waiting,0.0,0.0,0.0,0.0,0.0,0.0,0.0,0.0,
1.02275,0.0,0.0,0.0,0.0,0.0,0.0,0.0,0.0,3.825683202,0.0,0.0,0.0,0.0,0.0,-0.0,0.0,0.0,1.901855274,0.0,0.0,0.0,0.0,0.0,0.0,0.0,0.0,4.239501519,0.0,-0.0012207030000004337,-4.0,0.0,0.0,-0.0,0.0,0.0,2.8479000990000003,0.0,0.0,-0.4000000059604645,89.36000061035156,-90.41999816894531,1.05364990234375,0.0592041015625,0.013671875,28.5,0.0,-67.0,0.1085052490234375,0.0554351806640625,Waiting,0.0,0.0,0.0,0.0,0.0,0.0,0.0,0.0,
1.041731999999989,0.0,0.0,0.0,0.0,0.0,0.0,0.0,0.0,3.824462499,0.0,0.0,0.0,0.0,0.0,-0.0,0.0,0.0,1.901855274,0.0,0.0,0.0,0.0,0.0,0.0,0.0,0.0,4.2382808160000005,0.0,-0.0012207030000004337,-4.0,0.0,0.0,-0.0,0.0,0.0,2.8491208020000003,0.0,0.0,-0.4000000059604645,89.36000061035156,-90.41999816894531,0.97760009765625,0.031005859375,-0.00860595703125,28.5,0.0,-37.0,0.1062774658203125,0.05523681640625,Waiting,0.0,0.0,0.0,0.0,0.0,0.0,0.0,0.0,
1.0604769999999843,0.0,0.0,0.0,0.0,0.0,0.0,0.0,0.0,3.825683202,0.0,0.0024414059999999793,0.0,0.0,0.0,-0.0,0.0,0.0,1.901855274,0.0,0.0,0.0,0.0,0.0,0.0,0.0,0.0,4.239501519,0.0,0.0,-4.0,0.0,0.0,-0.0,0.0,0.0,2.8479000990000003,0.0,0.0012207030000004337,-0.4000000059604645,89.3499984741211,-90.41999816894531,1.00347900390625,0.0137939453125,-4.8828125E-4,28.5,0.0,-21.0,0.1016845703125,0.055023193359375,Waiting,0.0,0.0,0.0,0.0,0.0,0.0,0.0,0.0,
1.083912000000011,0.0,0.0,0.0,0.0,0.0,0.0,0.0,0.0,3.824462499,0.0,0.0024414059999999793,0.0,0.0,0.0,-0.0,0.0,0.0,1.901855274,0.0,0.0,0.0,0.0,0.0,0.0,0.0,0.0,4.239501519,0.0,0.0,-4.0,0.0,0.0,-0.0,0.0,0.0,2.8491208020000003,0.0,0.0012207030000004337,-0.4000000059604645,89.3499984741211,-90.41999816894531,1.01397705078125,-0.00347900390625,0.00567626953125,28.5,0.0,-3.0,0.099365234375,0.055023193359375,Waiting,0.0,0.0,0.0,0.0,0.0,0.0,0.0,0.0,
1.1013539999999922,0.0,0.0,0.0,0.0,0.0,0.0,0.0,0.0,3.825683202,0.0,0.0024414059999999793,0.0,0.0,0.0,-0.0,0.0,0.0,1.901855274,0.0,0.0,0.0,0.0,0.0,0.0,0.0,0.0,4.237060113,0.0,0.0,-4.0,0.0,0.0,-0.0,0.0,0.0,2.8491208020000003,0.0,0.0012207030000004337,-0.38999998569488525,89.36000061035156,-90.41000366210938,1.0118408203125,-0.00762939453125,0.0162353515625,28.5,0.0,0.0,0.097015380859375,0.0550079345703125,Waiting,0.0,0.0,0.0,0.0,0.0,0.0,0.0,0.0,
1.128079999999987,0.0,0.0,0.0,0.0,0.0,0.0,0.0,0.0,3.824462499,0.0,0.0024414059999999793,0.0,0.0,0.0,-0.0,0.0,0.0,1.901855274,0.0,0.0,0.0,0.0,0.0,0.0,0.0,0.0,4.2382808160000005,0.0,0.0,-4.0,0.0,0.0,-0.0,0.0,0.0,2.8540036140000002,0.0,0.0,-0.38999998569488525,89.37000274658203,-90.4000015258789,1.00115966796875,-0.01519775390625,-0.0089111328125,28.5,0.0,8.0,0.097015380859375,0.0549774169921875,Waiting,0.0,0.0,0.0,0.0,0.0,0.0,0.0,0.0,
1.1474789999999921,0.0,0.0,0.0,0.0,0.0,0.0,0.0,0.0,3.825683202,0.0,0.0024414059999999793,0.0,0.0,0.0,-0.0,0.0,0.0,1.901855274,0.0,0.0,0.0,0.0,0.0,0.0,0.0,0.0,4.2382808160000005,0.0,0.0,-4.0,0.0,0.0,-0.0,0.0,0.0,2.8491208020000003,0.0,0.0,-0.38999998569488525,89.37000274658203,-90.4000015258789,1.0047607421875,-0.03955078125,-0.00677490234375,28.5,0.0,32.0,0.0970458984375,0.054931640625,Waiting,0.0,0.0,0.0,0.0,0.0,0.0,0.0,0.0,
1.1684040000000095,0.0,0.0,0.0,0.0,0.0,0.0,0.0,0.0,3.825683202,0.0,0.0,0.0,0.0,0.0,-0.0,0.0,0.0,1.901855274,0.0,0.0,0.0,0.0,0.0,0.0,0.0,0.0,4.2382808160000005,0.0,0.0,-4.0,0.0,0.0,-0.0,0.0,0.0,2.8491208020000003,0.0,-0.0012207030000004337,-0.38999998569488525,89.37999725341797,-90.4000015258789,1.01312255859375,-0.05572509765625,-0.01885986328125,28.5,0.0,48.0,0.097259521484375,0.054931640625,Waiting,0.0,0.0,0.0,0.0,0.0,0.0,0.0,0.0,
1.1880320000000064,0.0,0.0,0.0,0.0,0.0,0.0,0.0,0.0,3.825683202,0.0,0.0,0.0,0.0,0.0,-0.0,0.0,0.0,1.903075977,0.0,0.0,0.0,0.0,0.0,0.0,0.0,0.0,4.2382808160000005,0.0,0.0,-4.0,0.0,0.0,-0.0,0.0,0.0,2.8479000990000003,0.0,-0.0012207030000004337,-0.38999998569488525,89.37000274658203,-90.4000015258789,0.99517822265625,-0.0721435546875,-0.0374755859375,28.5,0.0,65.0,0.09747314453125,0.054962158203125,Waiting,0.0,0.0,0.0,0.0,0.0,0.0,0.0,0.0,
1.2067809999999881,0.0,0.0,0.0,0.0,0.0,0.0,0.0,0.0,3.825683202,0.0,0.0,0.0,0.0,0.0,-0.0,0.0,0.0,1.901855274,0.0,0.0,0.0,0.0,0.0,0.0,0.0,0.0,4.2382808160000005,0.0,0.0,-4.0,0.0,0.0,-0.0,0.0,0.0,2.8479000990000003,0.0,-0.0012207030000004337,-0.38999998569488525,89.36000061035156,-90.4000015258789,1.00238037109375,-0.072998046875,-0.01629638671875,28.5,0.0,66.0,0.0977783203125,0.0550079345703125,Waiting,0.0,0.0,0.0,0.0,0.0,0.0,0.0,0.0,
1.228801999999996,0.0,0.0,0.0,0.0,0.0,0.0,0.0,0.0,3.824462499,0.0,0.0,0.0,0.0,0.0,-0.0,0.0,0.0,1.903075977,0.0,0.0,0.0,0.0,0.0,0.0,0.0,0.0,4.2382808160000005,0.0,0.0,-4.0,0.0,0.0,-0.0,0.0,0.0,2.8479000990000003,0.0,0.0,-0.3799999952316284,89.36000061035156,-90.4000015258789,0.9891357421875,-0.09979248046875,-0.026611328125,28.5,0.0,93.0,0.09869384765625,0.0550689697265625,Waiting,0.0,0.0,0.0,0.0,0.0,0.0,0.0,0.0,
1.2484659999999859,0.0,0.0,0.0,0.0,0.0,0.0,0.0,0.0,3.825683202,0.0,0.0,0.0,0.0,0.0,-0.0,0.0,0.0,1.901855274,0.0,0.0,0.0,0.0,0.0,0.0,0.0,0.0,4.2382808160000005,0.0,0.0,-4.0,0.0,0.0,-0.0,0.0,0.0,2.8540036140000002,0.0,0.0,-0.38999998569488525,89.37000274658203,-90.4000015258789,0.98583984375,-0.09783935546875,-0.0128173828125,28.520000457763672,0.0,91.0,0.099334716796875,0.0550689697265625,Waiting,0.0,0.0,0.0,0.0,0.0,0.0,0.0,0.0,
1.2698619999999936,0.0,0.0,0.0,0.0,0.0,0.0,0.0,0.0,3.825683202,0.0,0.0,0.0,0.0,0.0,-0.0,0.0,0.0,1.901855274,0.0,0.0,0.0,0.0,0.0,0.0,0.0,0.0,4.239501519,0.0,0.0,-4.0,0.0,0.0,-0.0,0.0,0.0,2.8491208020000003,0.0,0.0012207030000004337,-0.38999998569488525,89.37000274658203,-90.4000015258789,0.99407958984375,-0.0853271484375,-0.02569580078125,28.520000457763672,0.0,78.0,0.1009674072265625,0.0551300048828125,Waiting,0.0,0.0,0.0,0.0,0.0,0.0,0.0,0.0,
1.2923589999999967,0.0,0.0,0.0,0.0,0.0,0.0,0.0,0.0,3.825683202,0.0,0.0,0.0,0.0,0.0,-0.0,0.0,0.0,1.901855274,0.0,0.0,0.0,0.0,0.0,0.0,0.0,0.0,4.2382808160000005,0.0,0.0,-4.0,0.0,0.0,-0.0,0.0,0.0,2.8491208020000003,0.0,0.0012207030000004337,-0.3799999952316284,89.37000274658203,-90.4000015258789,0.99554443359375,-0.0814208984375,-0.015869140625,28.520000457763672,0.0,74.0,0.1019439697265625,0.0551910400390625,Waiting,0.0,0.0,0.0,0.0,0.0,0.0,0.0,0.0,
1.3097779999999912,0.0,0.0,0.0,0.0,0.0,0.0,0.0,0.0,3.825683202,0.0,0.0,0.0,0.0,0.0,-0.0,0.0,0.0,1.901855274,0.0,0.0,0.0,0.0,0.0,0.0,0.0,0.0,4.237060113,0.0,0.0012207030000004337,-4.0,0.0,0.0,-0.0,0.0,0.0,2.8479000990000003,0.0,0.0,-0.3799999952316284,89.37999725341797,-90.4000015258789,1.00164794921875,-0.0623779296875,-0.014404296875,28.520000457763672,0.0,55.0,0.104156494140625,0.0551910400390625,Waiting,0.0,0.0,0.0,0.0,0.0,0.0,0.0,0.0,
1.330655999999988,0.0,0.0,0.0,0.0,0.0,0.0,0.0,0.0,3.825683202,0.0,0.0,0.0,0.0,0.0,-0.0,0.0,0.0,1.901855274,0.0,0.0,0.0,0.0,0.0,0.0,0.0,0.0,4.237060113,0.0,0.0012207030000004337,-4.0,0.0,0.0,-0.0,0.0,0.0,2.8491208020000003,0.0,0.0,-0.38999998569488525,89.37000274658203,-90.4000015258789,1.0064697265625,-0.056640625,-0.02032470703125,28.520000457763672,0.0,49.0,0.105377197265625,0.0551910400390625,Waiting,0.0,0.0,0.0,0.0,0.0,0.0,0.0,0.0,
1.3493530000000027,0.0,0.0,0.0,0.0,0.0,0.0,0.0,0.0,3.825683202,0.0,0.0,0.0,0.0,0.0,-0.0,0.0,0.0,1.901855274,0.0,0.0,0.0,0.0,0.0,0.0,0.0,0.0,4.2382808160000005,0.0,0.0012207030000004337,-4.0,0.0,0.0,-0.0,0.0,0.0,2.8491208020000003,0.0,0.0,-0.38999998569488525,89.37000274658203,-90.4000015258789,1.0,-0.049072265625,-0.023681640625,28.520000457763672,0.0,42.0,0.106658935546875,0.0551910400390625,Waiting,0.0,0.0,0.0,0.0,0.0,0.0,0.0,0.0,
1.371524999999994,0.0,0.0,0.0,0.0,0.0,0.0,0.0,0.0,3.825683202,0.0,0.0,0.0,0.0,0.0,-0.0,0.0,0.0,1.901855274,0.0,0.0,0.0,0.0,0.0,0.0,0.0,0.0,4.2382808160000005,0.0,-0.0012207030000004337,-4.0,0.0,0.0,-0.0,0.0,0.0,2.8479000990000003,0.0,-0.0012207030000004337,-0.38999998569488525,89.36000061035156,-90.4000015258789,1.01251220703125,0.00286865234375,-0.00244140625,28.520000457763672,0.0,-10.0,0.10931396484375,0.0551910400390625,Waiting,0.0,0.0,0.0,0.0,0.0,0.0,0.0,0.0,
1.3905709999999962,0.0,0.0,0.0,0.0,0.0,0.0,0.0,0.0,3.824462499,0.0,0.0,0.0,0.0,0.0,-0.0,0.0,0.0,1.903075977,0.0,0.0,0.0,0.0,0.0,0.0,0.0,0.0,4.2382808160000005,0.0,-0.0012207030000004337,-4.0,0.0,0.0,-0.0,0.0,0.0,2.8491208020000003,0.0,-0.0012207030000004337,-0.4000000059604645,89.36000061035156,-90.41000366210938,1.01007080078125,0.01312255859375,-0.0013427734375,28.520000457763672,0.0,-20.0,0.1106109619140625,0.0551910400390625,Waiting,0.0,0.0,0.0,0.0,0.0,0.0,0.0,0.0,
1.4098949999999895,0.0,0.0,0.0,0.0,0.0,0.0,0.0,0.0,3.824462499,0.0,0.0,0.0,0.0,0.0,-0.0,0.0,0.0,1.901855274,0.0,0.0,0.0,0.0,0.0,0.0,0.0,0.0,4.237060113,0.0,0.0012207030000004337,-4.0,0.0,0.0,-0.0,0.0,0.0,2.8479000990000003,0.0,0.0,-0.4000000059604645,89.3499984741211,-90.41000366210938,1.0113525390625,0.0196533203125,6.103515625E-4,28.520000457763672,0.0,-26.0,0.11187744140625,0.0551910400390625,Waiting,0.0,0.0,0.0,0.0,0.0,0.0,0.0,0.0,
1.430372000000003,0.0,0.0,0.0,0.0,0.0,0.0,0.0,0.0,3.824462499,0.0,0.0,0.0,0.0,0.0,-0.0,0.0,0.0,1.901855274,0.0,0.0,0.0,0.0,0.0,0.0,0.0,0.0,4.239501519,0.0,0.0012207030000004337,-4.0,0.0,0.0,-0.0,0.0,0.0,2.8479000990000003,0.0,0.0,-0.4000000059604645,89.3499984741211,-90.41000366210938,1.00579833984375,0.04864501953125,0.0052490234375,28.520000457763672,0.0,-69.0,0.114227294921875,0.0551910400390625,Waiting,0.0,0.0,0.0,0.0,0.0,0.0,0.0,0.0,
1.448195000000007,0.0,0.0,0.0,0.0,0.0,0.0,0.0,0.0,3.825683202,0.0,0.0,0.0,0.0,0.0,-0.0,0.0,0.0,1.901855274,0.0,0.0,0.0,0.0,0.0,0.0,0.0,0.0,4.2382808160000005,0.0,0.0012207030000004337,-4.0,0.0,0.0,-0.0,0.0,0.0,2.8491208020000003,0.0,0.0,-0.4000000059604645,89.36000061035156,-90.41999816894531,1.0201416015625,0.083251953125,0.0137939453125,28.520000457763672,0.0,-90.0,0.115234375,0.0551605224609375,Waiting,0.0,0.0,0.0,0.0,0.0,0.0,0.0,0.0,
1.4709549999999871,0.0,0.0,0.0,0.0,0.0,0.0,0.0,0.0,3.825683202,0.0,0.0,0.0,0.0,0.0,-0.0,0.0,0.0,1.901855274,0.0,0.0,0.0,0.0,0.0,0.0,0.0,0.0,4.237060113,0.0,-0.0012207030000004337,-4.0,0.0,0.0,-0.0,0.0,0.0,2.8491208020000003,0.0,0.0,-0.4099999964237213,89.36000061035156,-90.41999816894531,1.0091552734375,0.0753173828125,0.0235595703125,28.520000457763672,0.0,-83.0,0.1161346435546875,0.0550994873046875,Waiting,0.0,0.0,0.0,0.0,0.0,0.0,0.0,0.0,
1.4888500000000058,0.0,0.0,0.0,0.0,0.0,0.0,0.0,0.0,3.825683202,0.0,0.0,0.0,0.0,0.0,-0.0,0.0,0.0,1.901855274,0.0,0.0,0.0,0.0,0.0,0.0,0.0,0.0,4.237060113,0.0,-0.0012207030000004337,-4.0,0.0,0.0,-0.0,0.0,0.0,2.8491208020000003,0.0,0.0,-0.4099999964237213,89.36000061035156,-90.41999816894531,1.0166015625,0.08245849609375,0.00604248046875,28.520000457763672,0.0,-90.0,0.116912841796875,0.0550079345703125,Waiting,0.0,0.0,0.0,0.0,0.0,0.0,0.0,0.0,
1.5075359999999929,0.0,0.0,0.0,0.0,0.0,0.0,0.0,0.0,3.825683202,0.0,0.0,0.0,0.0,0.0,-0.0,0.0,0.0,1.901855274,0.0,0.0,0.0,0.0,0.0,0.0,0.0,0.0,4.239501519,0.0,-0.0012207030000004337,-4.0,0.0,0.0,-0.0,0.0,0.0,2.8479000990000003,0.0,0.0,-0.4099999964237213,89.3499984741211,-90.41999816894531,1.00274658203125,0.0751953125,0.0040283203125,28.520000457763672,0.0,-82.0,0.1181182861328125,0.0550079345703125,Waiting,0.0,0.0,0.0,0.0,0.0,0.0,0.0,0.0,
1.530201000000001,0.0,0.0,0.0,0.0,0.0,0.0,0.0,0.0,3.825683202,0.0,0.0,0.0,0.0,0.0,-0.0,0.0,0.0,1.901855274,0.0,0.0,0.0,0.0,0.0,0.0,0.0,0.0,4.2382808160000005,0.0,0.0,-4.0,0.0,0.0,-0.0,0.0,0.0,2.8479000990000003,0.0,0.0,-0.4099999964237213,89.3499984741211,-90.41999816894531,1.0289306640625,0.0714111328125,0.00286865234375,28.520000457763672,0.0,-79.0,0.1185455322265625,0.0550079345703125,Waiting,0.0,0.0,0.0,0.0,0.0,0.0,0.0,0.0,
1.548505999999994,0.0,0.0,0.0,0.0,0.0,0.0,0.0,0.0,3.825683202,0.0,0.0,0.0,0.0,0.0,-0.0,0.0,0.0,1.901855274,0.0,0.0,0.0,0.0,0.0,0.0,0.0,0.0,4.2382808160000005,0.0,0.0,-4.0,0.0,0.0,-0.0,0.0,0.0,2.8491208020000003,0.0,0.0,-0.41999998688697815,89.33999633789062,-90.43000030517578,0.99609375,0.03424072265625,-0.019775390625,28.520000457763672,0.0,-41.0,0.118896484375,0.0550079345703125,Waiting,0.0,0.0,0.0,0.0,0.0,0.0,0.0,0.0,
1.5683299999999871,0.0,0.0,0.0,0.0,0.0,0.0,0.0,0.0,3.825683202,0.0,0.0,0.0,0.0,0.0,-0.0,0.0,0.0,1.903075977,0.0,0.0,0.0,0.0,0.0,0.0,0.0,0.0,4.237060113,0.0,0.0,-4.0,0.0,0.0,-0.0,0.0,0.0,2.8479000990000003,0.0,0.0,-0.38999998569488525,89.36000061035156,-90.4000015258789,0.99603271484375,-0.07733154296875,-0.03765869140625,28.520000457763672,0.0,71.0,0.1194915771484375,0.0550079345703125,Waiting,0.0,0.0,0.0,0.0,0.0,0.0,0.0,0.0,
1.5879809999999999,0.0,0.0,0.0,0.0,0.0,0.0,0.0,0.0,3.825683202,0.0,0.0,0.0,0.0,0.0,-0.0,0.0,0.0,1.901855274,0.0,0.0,0.0,0.0,0.0,0.0,0.0,0.0,4.237060113,0.0,0.0,-4.0,0.0,0.0,-0.0,0.0,0.0,2.8491208020000003,0.0,0.0,-0.38999998569488525,89.33999633789062,-90.41000366210938,1.017333984375,0.00970458984375,-0.0384521484375,28.520000457763672,0.0,-16.0,0.1198272705078125,0.0550689697265625,Waiting,0.0,0.0,0.0,0.0,0.0,0.0,0.0,0.0,
1.606978000000003,0.0,0.0,0.0,0.0,0.0,0.0,0.0,0.0,3.825683202,0.0,0.0,0.0,0.0,0.0,-0.0,0.0,0.0,1.901855274,0.0,0.0,0.0,0.0,0.0,0.0,0.0,0.0,4.2382808160000005,0.0,0.0,-4.0,0.0,0.0,-0.0,0.0,0.0,2.8491208020000003,0.0,0.0,-0.38999998569488525,89.36000061035156,-90.4000015258789,0.98291015625,-0.0452880859375,0.0264892578125,28.520000457763672,0.0,37.0,0.1201934814453125,0.05511474609375,Waiting,0.0,0.0,0.0,0.0,0.0,0.0,0.0,0.0,
1.628063999999984,0.0,0.0,0.0,0.0,0.0,0.0,0.0,0.0,3.824462499,0.0,0.0,0.0,0.0,0.0,-0.0,0.0,0.0,1.901855274,0.0,0.0,0.0,0.0,0.0,0.0,0.0,0.0,4.237060113,0.0,0.0,-4.0,0.0,0.0,-0.0,0.0,0.0,2.8479000990000003,0.0,0.0,-0.38999998569488525,89.36000061035156,-90.4000015258789,1.02789306640625,-0.0745849609375,-0.03173828125,28.520000457763672,0.0,67.0,0.1210784912109375,0.0551300048828125,Waiting,0.0,0.0,0.0,0.0,0.0,0.0,0.0,0.0,
1.646774999999994,0.0,0.0,0.0,0.0,0.0,0.0,0.0,0.0,3.825683202,0.0,0.0,0.0,0.0,0.0,-0.0,0.0,0.0,1.901855274,0.0,0.0,0.0,0.0,0.0,0.0,0.0,0.0,4.239501519,0.0,0.0,-4.0,0.0,0.0,-0.0,0.0,0.0,2.8491208020000003,0.0,0.0,-0.3799999952316284,89.37000274658203,-90.38999938964844,0.9769287109375,-0.07415771484375,0.0068359375,28.520000457763672,0.0,67.0,0.1216583251953125,0.055145263671875,Waiting,0.0,0.0,0.0,0.0,0.0,0.0,0.0,0.0,
1.6672390000000015,0.0,0.0,0.0,0.0,0.0,0.0,0.0,0.0,3.825683202,0.0,0.0,0.0,0.0,0.0,-0.0,0.0,0.0,1.903075977,0.0,0.0,0.0,0.0,0.0,0.0,0.0,0.0,4.2382808160000005,0.0,0.0,-4.0,0.0,0.0,-0.0,0.0,0.0,2.8527829110000003,0.0,0.0,-0.3799999952316284,89.37999725341797,-90.38999938964844,1.0098876953125,-0.112548828125,-0.01739501953125,28.520000457763672,0.0,105.0,0.122344970703125,0.0551605224609375,Waiting,0.0,0.0,0.0,0.0,0.0,0.0,0.0,0.0,
1.6865219999999972,0.0,0.0,0.0,0.0,0.0,0.0,0.0,0.0,3.825683202,0.0,0.0,0.0,0.0,0.0,-0.0,0.0,0.0,1.901855274,0.0,0.0,0.0,0.0,0.0,0.0,0.0,0.0,4.2382808160000005,0.0,0.0,-4.0,0.0,0.0,-0.0,0.0,0.0,2.8479000990000003,0.0,0.0,-0.3799999952316284,89.37000274658203,-90.4000015258789,0.98895263671875,-0.099853515625,0.01336669921875,28.520000457763672,0.0,92.0,0.124114990234375,0.055267333984375,Waiting,0.0,0.0,0.0,0.0,0.0,0.0,0.0,0.0,
1.7067520000000076,0.0,0.0,0.0,0.0,0.0,0.0,0.0,0.0,3.825683202,0.0,0.0,0.0,0.0,0.0,-0.0,0.0,0.0,1.901855274,0.0,0.0,0.0,0.0,0.0,0.0,0.0,0.0,4.2382808160000005,0.0,0.0,-4.0,0.0,0.0,-0.0,0.0,0.0,2.8479000990000003,0.0,0.0,-0.3700000047683716,89.37000274658203,-90.37999725341797,1.00140380859375,-0.06964111328125,-0.05267333984375,28.520000457763672,0.0,63.0,0.1251678466796875,0.0553436279296875,Waiting,0.0,0.0,0.0,0.0,0.0,0.0,0.0,0.0,
1.7290829999999842,0.0,0.0,0.0,0.0,0.0,0.0,0.0,0.0,3.824462499,0.0,0.0,0.0,0.0,0.0,-0.0,0.0,0.0,1.901855274,0.0,0.0,0.0,0.0,0.0,0.0,0.0,0.0,4.237060113,0.0,0.0,-4.0,0.0,0.0,-0.0,0.0,0.0,2.8479000990000003,0.0,0.0,-0.36000001430511475,89.37999725341797,-90.37000274658203,1.00372314453125,-0.03411865234375,-0.0218505859375,28.520000457763672,0.0,27.0,0.12750244140625,0.055572509765625,Waiting,0.0,0.0,0.0,0.0,0.0,0.0,0.0,0.0,
1.7480020000000076,0.0,0.0,0.0,0.0,0.0,0.0,0.0,0.0,3.824462499,0.0,0.0,0.0,0.0,0.0,-0.0,0.0,0.0,1.901855274,0.0,0.0,0.0,0.0,0.0,0.0,0.0,0.0,4.237060113,0.0,0.0,-4.0,0.0,0.0,-0.0,0.0,0.0,2.8479000990000003,0.0,0.0,-0.3499999940395355,89.37999725341797,-90.36000061035156,1.02178955078125,-0.03924560546875,-0.01617431640625,28.469999313354492,0.0,33.0,0.1287384033203125,0.055572509765625,Waiting,0.0,0.0,0.0,0.0,0.0,0.0,0.0,0.0,
1.7686630000000005,0.0,0.0,0.0,0.0,0.0,0.0,0.0,0.0,3.824462499,0.0,0.0,0.0,0.0,0.0,-0.0,0.0,0.0,1.901855274,0.0,-0.0012207029999999897,0.0,0.0,0.0,0.0,0.0,0.0,4.2382808160000005,0.0,0.0,-4.0,0.0,0.0,-0.0,0.0,0.0,2.8479000990000003,0.0,0.0012207030000004337,-0.36000001430511475,89.37999725341797,-90.37000274658203,1.00811767578125,-0.03125,-0.0194091796875,28.469999313354492,0.0,25.0,0.1300201416015625,0.055572509765625,Waiting,0.0,0.0,0.0,0.0,0.0,0.0,0.0,0.0,
1.7883060000000115,0.0,0.0,0.0,0.0,0.0,0.0,0.0,0.0,3.825683202,0.0,0.0,0.0,0.0,0.0,-0.0,0.0,0.0,1.903075977,0.0,-0.0012207029999999897,0.0,0.0,0.0,0.0,0.0,0.0,4.2382808160000005,0.0,0.0,-4.0,0.0,0.0,-0.0,0.0,0.0,2.8527829110000003,0.0,0.0012207030000004337,-0.3700000047683716,89.37000274658203,-90.37999725341797,0.97552490234375,0.0120849609375,0.0050048828125,28.469999313354492,0.0,-18.0,0.1325225830078125,0.055572509765625,Waiting,0.0,0.0,0.0,0.0,0.0,0.0,0.0,0.0,
1.8078060000000113,0.0,0.0,0.0,0.0,0.0,0.0,0.0,0.0,3.825683202,0.0,0.0,0.0,0.0,0.0,-0.0,0.0,0.0,1.901855274,0.0,-0.0012207029999999897,0.0,0.0,0.0,0.0,0.0,0.0,4.2382808160000005,0.0,0.0,-4.0,0.0,0.0,-0.0,0.0,0.0,2.8479000990000003,0.0,0.0012207030000004337,-0.3799999952316284,89.37000274658203,-90.4000015258789,1.033203125,0.059326171875,4.8828125E-4,28.469999313354492,0.0,-66.0,0.1337127685546875,0.055572509765625,Waiting,0.0,0.0,0.0,0.0,0.0,0.0,0.0,0.0,
1.8303919999999925,0.0,0.0,0.0,0.0,0.0,0.0,0.0,0.0,3.825683202,0.0,0.0,0.0,0.0,0.0,-0.0,0.0,0.0,1.901855274,0.0,0.0012207029999999897,0.0,0.0,0.0,0.0,0.0,0.0,4.2382808160000005,0.0,0.0,-4.0,0.0,0.0,-0.0,0.0,0.0,2.8491208020000003,0.0,-0.0012207030000004337,-0.38999998569488525,89.36000061035156,-90.41000366210938,0.984130859375,0.046875,0.03289794921875,28.469999313354492,0.0,-54.0,0.1358184814453125,0.0554656982421875,Waiting,0.0,0.0,0.0,0.0,0.0,0.0,0.0,0.0,
1.86455799999999,0.0,0.0,0.0,0.0,0.0,0.0,0.0,0.0,3.824462499,0.0,0.0,0.0,0.0,0.0,-0.0,0.0,0.0,1.901855274,0.0,-0.0012207029999999897,0.0,0.0,0.0,0.0,0.0,0.0,4.2382808160000005,0.0,0.0,-4.0,0.0,0.0,-0.0,0.0,0.0,2.8479000990000003,0.0,0.0,-0.4000000059604645,89.36000061035156,-90.41999816894531,0.9981689453125,0.07293701171875,0.02337646484375,28.469999313354492,0.0,-80.0,0.1367340087890625,0.05535888671875,Waiting,0.0,0.0,0.0,0.0,0.0,0.0,0.0,0.0,
1.8871989999999932,0.0,0.0,0.0,0.0,0.0,0.0,0.0,0.0,3.825683202,0.0,0.0,0.0,0.0,0.0,-0.0,0.0,0.0,1.901855274,0.0,-0.0012207029999999897,0.0,0.0,0.0,0.0,0.0,0.0,4.237060113,0.0,0.0,-4.0,0.0,0.0,-0.0,0.0,0.0,2.8491208020000003,0.0,0.0,-0.38999998569488525,89.37000274658203,-90.4000015258789,1.0177001953125,0.07891845703125,0.0068359375,28.469999313354492,0.0,-86.0,0.138153076171875,0.0550384521484375,Waiting,0.0,0.0,0.0,0.0,0.0,0.0,0.0,0.0,
1.9068360000000102,0.0,0.0,0.0,0.0,0.0,0.0,0.0,0.0,3.824462499,0.0,0.0,0.0,0.0,0.0,-0.0,0.0,0.0,1.901855274,0.0,-0.0012207029999999897,0.0,0.0,0.0,0.0,0.0,0.0,4.237060113,0.0,0.0,-4.0,0.0,0.0,-0.0,0.0,0.0,2.8479000990000003,0.0,0.0,-0.3799999952316284,89.37999725341797,-90.38999938964844,1.00982666015625,0.05279541015625,0.00494384765625,28.469999313354492,0.0,-59.0,0.138702392578125,0.0550384521484375,Waiting,0.0,0.0,0.0,0.0,0.0,0.0,0.0,0.0,
1.9280299999999988,0.0,0.0,0.0,0.0,0.0,0.0,0.0,0.0,3.824462499,0.0,0.0,0.0,0.0,0.0,-0.0,0.0,0.0,1.8969724620000001,0.0,0.0,0.0,0.0,0.0,0.0,0.0,0.0,4.2382808160000005,0.0,0.0,-4.0,0.0,0.0,-0.0,0.0,0.0,2.8479000990000003,0.0,0.0,-0.3700000047683716,89.37999725341797,-90.37000274658203,1.012451171875,0.017578125,-0.02081298828125,28.469999313354492,0.0,-23.0,0.1396026611328125,0.0550384521484375,Waiting,0.0,0.0,0.0,0.0,0.0,0.0,0.0,0.0,
1.9464929999999876,0.0,0.0,0.0,0.0,0.0,0.0,0.0,0.0,3.824462499,0.0,0.0,0.0,0.0,0.0,-0.0,0.0,0.0,1.8969724620000001,0.0,0.0,0.0,0.0,0.0,0.0,0.0,0.0,4.2382808160000005,0.0,0.0,-4.0,0.0,0.0,-0.0,0.0,0.0,2.8479000990000003,0.0,0.0,-0.3499999940395355,89.37999725341797,-90.36000061035156,1.02154541015625,-0.0029296875,-0.0306396484375,28.469999313354492,0.0,-2.0,0.1399993896484375,0.0550689697265625,Waiting,0.0,0.0,0.0,0.0,0.0,0.0,0.0,0.0,
1.9657369999999936,0.0,0.0,0.0,0.0,0.0,0.0,0.0,0.0,3.825683202,0.0,0.0,0.0,0.0,0.0,-0.0,0.0,0.0,1.901855274,0.0,0.0012207029999999897,0.0,0.0,0.0,0.0,0.0,0.0,4.237060113,0.0,0.0,-4.0,0.0,0.0,-0.0,0.0,0.0,2.8479000990000003,0.0,0.0,-0.3499999940395355,89.37000274658203,-90.36000061035156,0.99609375,-0.047607421875,-0.0255126953125,28.469999313354492,0.0,41.0,0.14044189453125,0.05511474609375,Waiting,0.0,0.0,0.0,0.0,0.0,0.0,0.0,0.0,
1.9863819999999832,0.0,0.0,0.0,0.0,0.0,0.0,0.0,0.0,3.824462499,0.0,0.0,0.0,0.0,0.0,-0.0,0.0,0.0,1.901855274,0.0,0.0012207029999999897,0.0,0.0,0.0,0.0,0.0,0.0,4.2382808160000005,0.0,0.0,-4.0,0.0,0.0,-0.0,0.0,0.0,2.8479000990000003,0.0,0.0,-0.36000001430511475,89.37000274658203,-90.37999725341797,1.0008544921875,-0.053466796875,-0.0286865234375,28.469999313354492,0.0,47.0,0.14093017578125,0.0551910400390625,Waiting,0.0,0.0,0.0,0.0,0.0,0.0,0.0,0.0,
2.003834999999992,0.0,0.0,0.0,0.0,0.0,0.0,0.0,0.0,3.825683202,0.0,0.0,0.0,0.0,0.0,-0.0,0.0,0.0,1.901855274,0.0,0.0012207029999999897,0.0,0.0,0.0,0.0,0.0,0.0,4.2382808160000005,0.0,0.0,-4.0,0.0,0.0,-0.0,0.0,0.0,2.8479000990000003,0.0,0.0,-0.3700000047683716,89.37000274658203,-90.38999938964844,0.98541259765625,-0.11077880859375,-0.0185546875,28.469999313354492,0.0,104.0,0.1421966552734375,0.0551910400390625,Waiting,0.0,0.0,0.0,0.0,0.0,0.0,0.0,0.0,
2.023631999999983,0.0,0.0,0.0,0.0,0.0,0.0,0.0,0.0,3.825683202,0.0,0.0,0.0,0.0,0.0,-0.0,0.0,0.0,1.901855274,0.0,-0.0012207029999999897,0.0,0.0,0.0,0.0,0.0,0.0,4.2382808160000005,0.0,0.0,-4.0,0.0,0.0,-0.0,0.0,0.0,2.8491208020000003,0.0,0.0012207030000004337,-0.38999998569488525,89.37000274658203,-90.4000015258789,0.98028564453125,-0.10516357421875,-0.00286865234375,28.469999313354492,0.0,98.0,0.143035888671875,0.0551910400390625,Waiting,0.0,0.0,0.0,0.0,0.0,0.0,0.0,0.0,
2.0415899999999967,0.0,0.0,0.0,0.0,0.0,0.0,0.0,0.0,3.825683202,0.0,0.0,0.0,0.0,0.0,-0.0,0.0,0.0,1.8981931650000001,0.0,-0.0012207029999999897,0.0,0.0,0.0,0.0,0.0,0.0,4.239501519,0.0,0.0,-4.0,0.0,0.0,-0.0,0.0,0.0,2.8491208020000003,0.0,0.0012207030000004337,-0.3799999952316284,89.37999725341797,-90.4000015258789,0.999755859375,-0.086669921875,0.0025634765625,28.469999313354492,0.0,79.0,0.1439971923828125,0.0551910400390625,Waiting,0.0,0.0,0.0,0.0,0.0,0.0,0.0,0.0,
2.060720000000001,0.0,0.0,0.0,0.0,0.0,0.0,0.0,0.0,3.825683202,0.0,0.0,0.0,0.0,0.0,-0.0,0.0,0.0,1.901855274,0.0,-0.0012207029999999897,0.0,0.0,0.0,0.0,0.0,0.0,4.239501519,0.0,0.0012207030000004337,-4.0,0.0,0.0,-0.0,0.0,0.0,2.8491208020000003,0.0,-0.0012207030000004337,-0.3700000047683716,89.4000015258789,-90.37999725341797,1.01068115234375,-0.064453125,-0.00445556640625,28.469999313354492,0.0,57.0,0.146209716796875,0.0551910400390625,Waiting,0.0,0.0,0.0,0.0,0.0,0.0,0.0,0.0,
2.0816259999999893,0.0,0.0,0.0,0.0,0.0,0.0,0.0,0.0,3.825683202,0.0,0.0,0.0,0.0,0.0,-0.0,0.0,0.0,1.901855274,0.0,0.0012207029999999897,0.0,0.0,0.0,0.0,0.0,0.0,4.239501519,0.0,0.0012207030000004337,-4.0,0.0,0.0,-0.0,0.0,0.0,2.8479000990000003,0.0,-0.0012207030000004337,-0.36000001430511475,89.4000015258789,-90.37000274658203,1.0201416015625,-0.03692626953125,-0.01226806640625,28.469999313354492,0.0,30.0,0.1474151611328125,0.0551910400390625,Waiting,0.0,0.0,0.0,0.0,0.0,0.0,0.0,0.0,
2.100881999999983,0.0,0.0,0.0,0.0,0.0,0.0,0.0,0.0,3.825683202,0.0,0.0,0.0,0.0,0.0,-0.0,0.0,0.0,1.901855274,0.0,0.0012207029999999897,0.0,0.0,0.0,0.0,0.0,0.0,4.2382808160000005,0.0,0.0012207030000004337,-4.0,0.0,0.0,-0.0,0.0,0.0,2.8491208020000003,0.0,-0.0012207030000004337,-0.36000001430511475,89.38999938964844,-90.37000274658203,1.01629638671875,-0.00592041015625,-0.0225830078125,28.469999313354492,0.0,0.0,0.148651123046875,0.0551910400390625,Waiting,0.0,0.0,0.0,0.0,0.0,0.0,0.0,0.0,
2.1220419999999867,0.0,0.0,0.0,0.0,0.0,0.0,0.0,0.0,3.826903905,0.0,0.0,0.0,0.0,0.0,-0.0,0.0,0.0,1.901855274,0.0,0.0,0.0,0.0,0.0,0.0,0.0,0.0,4.2382808160000005,0.0,-0.0012207030000004337,-4.0,0.0,0.0,-0.0,0.0,0.0,2.8479000990000003,0.0,0.0024414059999999793,-0.36000001430511475,89.37999725341797,-90.37000274658203,1.01702880859375,0.0302734375,-0.01104736328125,28.469999313354492,0.0,-36.0,0.1498565673828125,0.0551910400390625,Waiting,0.0,0.0,0.0,0.0,0.0,0.0,0.0,0.0,
2.1403189999999888,0.0,0.0,0.0,0.0,0.0,0.0,0.0,0.0,3.824462499,0.0,0.0,0.0,0.0,0.0,-0.0,0.0,0.0,1.901855274,0.0,0.0,0.0,0.0,0.0,0.0,0.0,0.0,4.2382808160000005,0.0,-0.0012207030000004337,-4.0,0.0,0.0,-0.0,0.0,0.0,2.8479000990000003,0.0,0.0024414059999999793,-0.36000001430511475,89.37000274658203,-90.37000274658203,1.03094482421875,0.0775146484375,-0.01055908203125,28.469999313354492,0.0,-83.0,0.15203857421875,0.0551910400390625,Waiting,0.0,0.0,0.0,0.0,0.0,0.0,0.0,0.0,
2.16106700000001,0.0,0.0,0.0,0.0,0.0,0.0,0.0,0.0,3.825683202,0.0,0.0,0.0,0.0,0.0,-0.0,0.0,0.0,1.901855274,0.0,0.0,0.0,0.0,0.0,0.0,0.0,0.0,4.2382808160000005,0.0,-0.0012207030000004337,-4.0,0.0,0.0,-0.0,0.0,0.0,2.8479000990000003,0.0,-0.0012207029999995456,-0.36000001430511475,89.3499984741211,-90.37000274658203,1.0093994140625,0.0841064453125,0.00469970703125,28.469999313354492,0.0,-90.0,0.1529693603515625,0.0551910400390625,Waiting,0.0,0.0,0.0,0.0,0.0,0.0,0.0,0.0,
2.18043299999999,0.0,0.0,0.0,0.0,0.0,0.0,0.0,0.0,3.825683202,0.0,0.0,0.0,0.0,0.0,-0.0,0.0,0.0,1.901855274,0.0,-0.0012207029999999897,0.0,0.0,0.0,0.0,0.0,0.0,4.2382808160000005,0.0,0.0012207030000004337,-4.0,0.0,0.0,-0.0,0.0,0.0,2.8466793960000003,0.0,-0.0012207029999995456,-0.3799999952316284,89.3499984741211,-90.38999938964844,1.0103759765625,0.0887451171875,0.00811767578125,28.469999313354492,0.0,-95.0,0.1537628173828125,0.0551910400390625,Waiting,0.0,0.0,0.0,0.0,0.0,0.0,0.0,0.0,
2.2006039999999922,0.0,0.0,0.0,0.0,0.0,0.0,0.0,0.0,3.824462499,0.0,0.0,0.0,0.0,0.0,-0.0,0.0,0.0,1.901855274,0.0,-0.0012207029999999897,0.0,0.0,0.0,0.0,0.0,0.0,4.239501519,0.0,0.0012207030000004337,-4.0,0.0,0.0,-0.0,0.0,0.0,2.8491208020000003,0.0,-0.0012207029999995456,-0.4000000059604645,89.3499984741211,-90.41000366210938,0.9954833984375,0.05780029296875,0.0233154296875,28.469999313354492,0.0,-65.0,0.1550445556640625,0.0551605224609375,Waiting,0.0,0.0,0.0,0.0,0.0,0.0,0.0,0.0,
2.2226000000000057,0.0,0.0,0.0,0.0,0.0,0.0,0.0,0.0,3.826903905,0.0,0.0,0.0,0.0,0.0,-0.0,0.0,0.0,1.903075977,0.0,0.0,0.0,0.0,0.0,0.0,0.0,0.0,4.2382808160000005,0.0,0.0,-4.0,0.0,0.0,-0.0,0.0,0.0,2.8479000990000003,0.0,0.0,-0.4099999964237213,89.36000061035156,-90.41999816894531,0.9974365234375,0.0391845703125,0.017333984375,28.469999313354492,0.0,-46.0,0.1555633544921875,0.055084228515625,Waiting,0.0,0.0,0.0,0.0,0.0,0.0,0.0,0.0,
2.239978000000003,0.0,0.0,0.0,0.0,0.0,0.0,0.0,0.0,3.825683202,0.0,0.0,0.0,0.0,0.0,-0.0,0.0,0.0,1.8981931650000001,0.0,0.0,0.0,0.0,0.0,0.0,0.0,0.0,4.2382808160000005,0.0,0.0,-4.0,0.0,0.0,-0.0,0.0,0.0,2.8491208020000003,0.0,0.0,-0.4099999964237213,89.37000274658203,-90.41999816894531,1.0096435546875,0.0172119140625,0.00640869140625,28.469999313354492,0.0,-24.0,0.156036376953125,0.05499267578125,Waiting,0.0,0.0,0.0,0.0,0.0,0.0,0.0,0.0,
2.2608979999999863,0.0,0.0,0.0,0.0,0.0,0.0,0.0,0.0,3.824462499,0.0,0.0,0.0,0.0,0.0,-0.0,0.0,0.0,1.901855274,0.0,0.0,0.0,0.0,0.0,0.0,0.0,0.0,4.237060113,0.0,0.0,-4.0,0.0,0.0,-0.0,0.0,0.0,2.8491208020000003,0.0,0.0012207029999995456,-0.3799999952316284,89.38999938964844,-90.4000015258789,1.0140380859375,-0.0194091796875,-0.0162353515625,28.479999542236328,0.0,12.0,0.1569366455078125,0.05499267578125,Waiting,0.0,0.0,0.0,0.0,0.0,0.0,0.0,0.0,
2.281521999999997,0.0,0.0,0.0,0.0,0.0,0.0,0.0,0.0,3.825683202,0.0,0.0,0.0,0.0,0.0,-0.0,0.0,0.0,1.901855274,0.0,0.0012207029999999897,0.0,0.0,0.0,0.0,0.0,0.0,4.2382808160000005,0.0,0.0,-4.0,0.0,0.0,-0.0,0.0,0.0,2.8479000990000003,0.0,0.0012207029999995456,-0.3700000047683716,89.38999938964844,-90.37999725341797,1.0023193359375,-0.04766845703125,-0.032470703125,28.479999542236328,0.0,41.0,0.1574249267578125,0.0550079345703125,Waiting,0.0,0.0,0.0,0.0,0.0,0.0,0.0,0.0,
2.3013770000000076,0.0,0.0,0.0,0.0,0.0,0.0,0.0,0.0,3.825683202,0.0,0.0,0.0,0.0,0.0,-0.0,0.0,0.0,1.901855274,0.0,0.0012207029999999897,0.0,0.0,0.0,0.0,0.0,0.0,4.2382808160000005,0.0,0.0,-4.0,0.0,0.0,-0.0,0.0,0.0,2.8491208020000003,0.0,0.0012207029999995456,-0.3499999940395355,89.38999938964844,-90.36000061035156,1.00494384765625,-0.0689697265625,-0.03839111328125,28.479999542236328,0.0,63.0,0.157989501953125,0.0550689697265625,Waiting,0.0,0.0,0.0,0.0,0.0,0.0,0.0,0.0,
2.3227699999999896,0.0,0.0,0.0,0.0,0.0,0.0,0.0,0.0,3.825683202,0.0,0.0,0.0,0.0,0.0,-0.0,0.0,0.0,1.901855274,0.0,0.0,0.0,0.0,0.0,0.0,0.0,0.0,4.2382808160000005,0.0,0.0,-4.0,0.0,0.0,-0.0,0.0,0.0,2.8527829110000003,0.0,-0.0012207029999995456,-0.3499999940395355,89.37000274658203,-90.36000061035156,1.00006103515625,-0.0968017578125,-0.05755615234375,28.479999542236328,0.0,91.0,0.159423828125,0.0553131103515625,Waiting,0.0,0.0,0.0,0.0,0.0,0.0,0.0,0.0,
2.341508999999991,0.0,0.0,0.0,0.0,0.0,0.0,0.0,0.0,3.825683202,0.0,0.0,0.0,0.0,0.0,-0.0,0.0,0.0,1.8969724620000001,0.0,0.0,0.0,0.0,0.0,0.0,0.0,0.0,4.2382808160000005,0.0,0.0,-4.0,0.0,0.0,-0.0,0.0,0.0,2.8479000990000003,0.0,-0.0012207029999995456,-0.3499999940395355,89.36000061035156,-90.36000061035156,1.00531005859375,-0.09619140625,-0.0423583984375,28.479999542236328,0.0,90.0,0.1603240966796875,0.0555267333984375,Waiting,0.0,0.0,0.0,0.0,0.0,0.0,0.0,0.0,
2.360030999999988,0.0,0.0,0.0,0.0,0.0,0.0,0.0,0.0,3.824462499,0.0,0.0,0.0,0.0,0.0,-0.0,0.0,0.0,1.901855274,0.0,0.0,0.0,0.0,0.0,0.0,0.0,0.0,4.239501519,0.0,0.0,-4.0,0.0,0.0,-0.0,0.0,0.0,2.8527829110000003,0.0,-0.0012207029999995456,-0.3700000047683716,89.36000061035156,-90.37999725341797,1.00201416015625,-0.089599609375,-0.02490234375,28.479999542236328,0.0,83.0,0.1613311767578125,0.055755615234375,Waiting,0.0,0.0,0.0,0.0,0.0,0.0,0.0,0.0,
2.3799610000000104,0.0,0.0,0.0,0.0,0.0,0.0,0.0,0.0,3.824462499,0.0,0.0,0.0,0.0,0.0,-0.0,0.0,0.0,1.901855274,0.0,-0.0012207029999999897,0.0,0.0,0.0,0.0,0.0,0.0,4.2382808160000005,0.0,0.0,-4.0,0.0,0.0,-0.0,0.0,0.0,2.8491208020000003,0.0,0.0,-0.38999998569488525,89.36000061035156,-90.4000015258789,0.99896240234375,-0.03759765625,0.0123291015625,28.479999542236328,0.0,30.0,0.1636199951171875,0.056243896484375,Waiting,0.0,0.0,0.0,0.0,0.0,0.0,0.0,0.0,
2.400475999999995,0.0,0.0,0.0,0.0,0.0,0.0,0.0,0.0,3.825683202,0.0,0.0,0.0,0.0,0.0,-0.0,0.0,0.0,1.901855274,0.0,-0.0012207029999999897,0.0,0.0,0.0,0.0,0.0,0.0,4.2382808160000005,0.0,0.0,-4.0,0.0,0.0,-0.0,0.0,0.0,2.8479000990000003,0.0,0.0,-0.4000000059604645,89.37000274658203,-90.41999816894531,1.00274658203125,0.00750732421875,0.02093505859375,28.479999542236328,0.0,-15.0,0.1648101806640625,0.0564422607421875,Waiting,0.0,0.0,0.0,0.0,0.0,0.0,0.0,0.0,
2.4227309999999997,0.0,0.0,0.0,0.0,0.0,0.0,0.0,0.0,3.825683202,0.0,0.0,0.0,0.0,0.0,-0.0,0.0,0.0,1.903075977,0.0,0.0012207029999999897,0.0,0.0,0.0,0.0,0.0,0.0,4.239501519,0.0,0.0,-4.0,0.0,0.0,-0.0,0.0,0.0,2.8491208020000003,0.0,0.0,-0.38999998569488525,89.38999938964844,-90.4000015258789,1.000732421875,0.07525634765625,0.03436279296875,28.479999542236328,0.0,-82.0,0.1669921875,0.0566864013671875,Waiting,0.0,0.0,0.0,0.0,0.0,0.0,0.0,0.0,
2.440203999999998,0.0,0.0,0.0,0.0,0.0,0.0,0.0,0.0,3.825683202,0.0,0.0,0.0,0.0,0.0,-0.0,0.0,0.0,1.8969724620000001,0.0,0.0012207029999999897,0.0,0.0,0.0,0.0,0.0,0.0,4.2382808160000005,0.0,0.0,-4.0,0.0,0.0,-0.0,0.0,0.0,2.8491208020000003,0.0,0.0,-0.38999998569488525,89.38999938964844,-90.4000015258789,1.01275634765625,0.09063720703125,0.0157470703125,28.479999542236328,0.0,-98.0,0.16790771484375,0.0567474365234375,Waiting,0.0,0.0,0.0,0.0,0.0,0.0,0.0,0.0,
2.4613209999999963,0.0,0.0,0.0,0.0,0.0,0.0,0.0,0.0,3.825683202,0.0,0.0,0.0,0.0,0.0,-0.0,0.0,0.0,1.901855274,0.0,0.0012207029999999897,0.0,0.0,0.0,0.0,0.0,0.0,4.2382808160000005,0.0,0.0,-4.0,0.0,0.0,-0.0,0.0,0.0,2.8491208020000003,0.0,0.0,-0.3799999952316284,89.37999725341797,-90.4000015258789,1.013671875,0.083984375,4.2724609375E-4,28.479999542236328,0.0,-90.0,0.1686859130859375,0.0567779541015625,Waiting,0.0,0.0,0.0,0.0,0.0,0.0,0.0,0.0,
2.480997000000003,0.0,0.0,0.0,0.0,0.0,0.0,0.0,0.0,3.825683202,0.0,0.0,0.0,0.0,0.0,-0.0,0.0,0.0,1.903075977,0.0,-0.0012207029999999897,0.0,0.0,0.0,0.0,0.0,0.0,4.2382808160000005,0.0,0.0,-4.0,0.0,0.0,-0.0,0.0,0.0,2.8491208020000003,0.0,0.0,-0.3799999952316284,89.37000274658203,-90.4000015258789,1.0152587890625,0.07159423828125,-0.0069580078125,28.479999542236328,0.0,-78.0,0.16937255859375,0.0568084716796875,Waiting,0.0,0.0,0.0,0.0,0.0,0.0,0.0,0.0,
2.5004040000000094,0.0,0.0,0.0,0.0,0.0,0.0,0.0,0.0,3.825683202,0.0,0.0,0.0,0.0,0.0,-0.0,0.0,0.0,1.901855274,0.0,-0.0012207029999999897,0.0,0.0,0.0,0.0,0.0,0.0,4.2382808160000005,0.0,0.0,-4.0,0.0,0.0,-0.0,0.0,0.0,2.8527829110000003,0.0,0.0,-0.3700000047683716,89.3499984741211,-90.37999725341797,1.01104736328125,0.02099609375,-0.048828125,28.479999542236328,0.0,-26.0,0.17047119140625,0.05694580078125,Waiting,0.0,0.0,0.0,0.0,0.0,0.0,0.0,0.0,
2.5230259999999833,0.0,0.0,0.0,0.0,0.0,0.0,0.0,0.0,3.825683202,0.0,0.0,0.0,0.0,0.0,-0.0,0.0,0.0,1.901855274,0.0,0.0,0.0,0.0,0.0,0.0,0.0,0.0,4.2382808160000005,0.0,0.0,-4.0,0.0,0.0,-0.0,0.0,0.0,2.8491208020000003,0.0,0.0012207029999995456,-0.3700000047683716,89.33999633789062,-90.37999725341797,1.001220703125,-0.01580810546875,-0.0301513671875,28.479999542236328,0.0,9.0,0.170989990234375,0.0570831298828125,Waiting,0.0,0.0,0.0,0.0,0.0,0.0,0.0,0.0,
2.540389999999985,0.0,0.0,0.0,0.0,0.0,0.0,0.0,0.0,3.825683202,0.0,0.0,0.0,0.0,0.0,-0.0,0.0,0.0,1.8969724620000001,0.0,0.0,0.0,0.0,0.0,0.0,0.0,0.0,4.239501519,0.0,0.0,-4.0,0.0,0.0,-0.0,0.0,0.0,2.8491208020000003,0.0,0.0012207029999995456,-0.3700000047683716,89.33999633789062,-90.37999725341797,0.99615478515625,-0.0859375,-0.01849365234375,28.479999542236328,0.0,79.0,0.17218017578125,0.0574188232421875,Waiting,0.0,0.0,0.0,0.0,0.0,0.0,0.0,0.0,
2.5607600000000095,0.0,0.0,0.0,0.0,0.0,0.0,0.0,0.0,3.825683202,0.0,0.0,0.0,0.0,0.0,-0.0,0.0,0.0,1.901855274,0.0,0.0,0.0,0.0,0.0,0.0,0.0,0.0,4.2382808160000005,0.0,0.0,-4.0,0.0,0.0,-0.0,0.0,0.0,2.8540036140000002,0.0,0.0012207029999995456,-0.38999998569488525,89.36000061035156,-90.4000015258789,0.9857177734375,-0.09161376953125,-2.44140625E-4,28.479999542236328,0.0,84.0,0.172943115234375,0.0574188232421875,Waiting,0.0,0.0,0.0,0.0,0.0,0.0,0.0,0.0,
2.581356999999989,0.0,0.0,0.0,0.0,0.0,0.0,0.0,0.0,3.825683202,0.0,0.0,0.0,0.0,0.0,-0.0,0.0,0.0,1.8969724620000001,0.0,0.0012207029999999897,0.0,0.0,0.0,0.0,0.0,0.0,4.239501519,0.0,0.0,-4.0,0.0,0.0,-0.0,0.0,0.0,2.8491208020000003,0.0,0.0,-0.3799999952316284,89.37000274658203,-90.4000015258789,0.993896484375,-0.08966064453125,0.00372314453125,28.479999542236328,0.0,82.0,0.1738128662109375,0.0574188232421875,Waiting,0.0,0.0,0.0,0.0,0.0,0.0,0.0,0.0,
2.600563999999984,0.0,0.0,0.0,0.0,0.0,0.0,0.0,0.0,3.824462499,0.0,0.0,0.0,0.0,0.0,-0.0,0.0,0.0,1.901855274,0.0,0.0012207029999999897,0.0,0.0,0.0,0.0,0.0,0.0,4.2382808160000005,0.0,0.0,-4.0,0.0,0.0,-0.0,0.0,0.0,2.8479000990000003,0.0,0.0,-0.3700000047683716,89.4000015258789,-90.37999725341797,1.010986328125,-0.0611572265625,0.0025634765625,28.479999542236328,0.0,54.0,0.17584228515625,0.0574188232421875,Waiting,0.0,0.0,0.0,0.0,0.0,0.0,0.0,0.0,
2.623021999999997,0.0,0.0,0.0,0.0,0.0,0.0,0.0,0.0,3.825683202,0.0,0.0,0.0,0.0,0.0,-0.0,0.0,0.0,1.8969724620000001,0.0,0.0,0.0,0.0,0.0,0.0,0.0,0.0,4.239501519,0.0,0.0,-4.0,0.0,0.0,-0.0,0.0,0.0,2.8491208020000003,0.0,-0.0024414059999999793,-0.3799999952316284,89.4000015258789,-90.38999938964844,1.01300048828125,-0.0296630859375,-0.00592041015625,28.479999542236328,0.0,22.0,0.1769561767578125,0.0574188232421875,Waiting,0.0,0.0,0.0,0.0,0.0,0.0,0.0,0.0,
2.6404320000000006,0.0,0.0,0.0,0.0,0.0,0.0,0.0,0.0,3.824462499,0.0,0.0,0.0,0.0,0.0,-0.0,0.0,0.0,1.901855274,0.0,0.0,0.0,0.0,0.0,0.0,0.0,0.0,4.2382808160000005,0.0,0.0,-4.0,0.0,0.0,-0.0,0.0,0.0,2.8540036140000002,0.0,-0.0024414059999999793,-0.3700000047683716,89.38999938964844,-90.38999938964844,1.01409912109375,0.00872802734375,-0.01611328125,28.479999542236328,0.0,-15.0,0.178070068359375,0.0574188232421875,Waiting,0.0,0.0,0.0,0.0,0.0,0.0,0.0,0.0,
2.6605370000000113,0.0,0.0,0.0,0.0,0.0,0.0,0.0,0.0,3.825683202,0.0,0.0,0.0,0.0,0.0,-0.0,0.0,0.0,1.901855274,0.0,0.0,0.0,0.0,0.0,0.0,0.0,0.0,4.2382808160000005,0.0,0.0,-4.0,0.0,0.0,-0.0,0.0,0.0,2.8479000990000003,0.0,-0.0024414059999999793,-0.3799999952316284,89.3499984741211,-90.38999938964844,1.01348876953125,0.08148193359375,-0.01239013671875,28.479999542236328,0.0,-88.0,0.18011474609375,0.0574188232421875,Waiting,0.0,0.0,0.0,0.0,0.0,0.0,0.0,0.0,
2.6816440000000004,0.0,0.0,0.0,0.0,0.0,0.0,0.0,0.0,3.825683202,0.0,0.0,0.0,0.0,0.0,-0.0,0.0,0.0,1.8969724620000001,0.0,0.0,0.0,0.0,0.0,0.0,0.0,0.0,4.2382808160000005,0.0,0.0,-4.0,0.0,0.0,-0.0,0.0,0.0,2.8540036140000002,0.0,0.003662108999999525,-0.3799999952316284,89.33999633789062,-90.38999938964844,1.014404296875,0.09124755859375,-0.0081787109375,28.479999542236328,0.0,-97.0,0.1809539794921875,0.0574188232421875,Waiting,0.0,0.0,0.0,0.0,0.0,0.0,0.0,0.0,
2.7008489999999874,0.0,0.0,0.0,0.0,0.0,0.0,0.0,0.0,3.825683202,0.0,0.0,0.0,0.0,0.0,-0.0,0.0,0.0,1.901855274,0.0,0.0,0.0,0.0,0.0,0.0,0.0,0.0,4.2382808160000005,0.0,0.0,-4.0,0.0,0.0,-0.0,0.0,0.0,2.8527829110000003,0.0,0.003662108999999525,-0.3799999952316284,89.33000183105469,-90.4000015258789,1.0087890625,0.07989501953125,0.00469970703125,28.479999542236328,0.0,-86.0,0.181671142578125,0.0574188232421875,Waiting,0.0,0.0,0.0,0.0,0.0,0.0,0.0,0.0,
2.723912000000011,0.0,0.0,0.0,0.0,0.0,0.0,0.0,0.0,3.825683202,0.0,0.0,0.0,0.0,0.0,-0.0,0.0,0.0,1.901855274,0.0,4.946558594,0.0,0.0,0.0,0.0,0.0,0.0,4.2382808160000005,0.0,0.0,-4.0,0.0,0.0,-0.0,0.0,0.0,2.8491208020000003,0.0,0.0,-0.4000000059604645,89.33999633789062,-90.41000366210938,1.00189208984375,0.034912109375,0.007080078125,28.479999542236328,0.0,-42.0,0.1828155517578125,0.0574188232421875,Waiting,0.0,0.0,0.0,0.0,0.0,0.0,0.0,0.0,
2.7410899999999967,0.0,0.0,0.0,0.0,0.0,0.0,0.0,0.0,3.825683202,0.0,0.0,0.0,0.0,0.0,-0.0,0.0,0.0,1.903075977,0.0,4.946558594,0.0,0.0,0.0,0.0,0.0,0.0,4.2382808160000005,0.0,0.0,-4.0,0.0,0.0,-0.0,0.0,0.0,2.8491208020000003,0.0,0.0,-0.38999998569488525,89.3499984741211,-90.4000015258789,1.00653076171875,-0.00311279296875,0.00799560546875,28.479999542236328,0.0,-4.0,0.183319091796875,0.0574188232421875,Waiting,0.0,0.0,0.0,0.0,0.0,0.0,0.0,0.0,
2.7608889999999957,0.0,0.0,0.0,0.0,0.0,0.0,0.0,0.0,3.825683202,0.0,0.0,0.0,0.0,0.0,-0.0,0.0,0.0,1.901855274,0.0,4.946558594,0.0,0.0,0.0,0.0,0.0,0.0,4.2382808160000005,0.0,0.0,-4.0,0.0,0.0,-0.0,0.0,0.0,2.8491208020000003,0.0,0.0,-0.3799999952316284,89.38999938964844,-90.38999938964844,0.9989013671875,-0.06964111328125,-0.01104736328125,28.520000457763672,0.0,63.0,0.1844329833984375,0.0574188232421875,Waiting,0.0,0.0,0.0,0.0,0.0,0.0,0.0,0.0,
2.7806039999999923,0.0,0.0,0.0,0.0,0.0,0.0,0.0,0.0,3.825683202,0.0,0.0,0.0,0.0,0.0,-0.0,0.0,0.0,1.901855274,0.0,0.0,0.0,0.0,0.0,0.0,0.0,0.0,4.239501519,0.0,0.0,-4.0,0.0,0.0,-0.0,0.0,0.0,2.8479000990000003,0.0,-0.002441405999999091,-0.3700000047683716,89.4000015258789,-90.37999725341797,0.99713134765625,-0.0928955078125,-0.01422119140625,28.520000457763672,0.0,86.0,0.1851348876953125,0.0574188232421875,Waiting,0.0,0.0,0.0,0.0,0.0,0.0,0.0,0.0,
2.801271000000008,0.0,0.0,0.0,0.0,0.0,0.0,0.0,0.0,3.825683202,0.0,0.0,0.0,0.0,0.0,-0.0,0.0,0.0,1.901855274,0.0,0.0,0.0,0.0,0.0,0.0,0.0,0.0,4.237060113,0.0,0.0,-4.0,0.0,0.0,-0.0,0.0,0.0,2.8491208020000003,0.0,-0.002441405999999091,-0.3700000047683716,89.4000015258789,-90.37999725341797,0.99713134765625,-0.0928955078125,-0.01422119140625,28.520000457763672,0.0,86.0,0.1851348876953125,0.0574188232421875,Waiting,0.0,0.0,0.0,0.0,0.0,0.0,0.0,0.0,
2.8235359999999927,0.0,0.0,0.0,0.0,0.0,0.0,0.0,0.0,3.826903905,0.0,0.0,0.0,0.0,0.0,-0.0,0.0,0.0,1.8969724620000001,0.0,-4.946558594,0.0,0.0,0.0,0.0,0.0,0.0,4.2382808160000005,0.0,0.0,-4.0,0.0,0.0,-0.0,0.0,0.0,2.8479000990000003,0.0,0.0,-0.3499999940395355,89.38999938964844,-90.36000061035156,1.01092529296875,-0.07574462890625,-0.03887939453125,28.520000457763672,0.0,70.0,0.1879730224609375,0.05755615234375,Waiting,0.0,0.0,0.0,0.0,0.0,0.0,0.0,0.0,
2.840516000000003,0.0,0.0,0.0,0.0,0.0,0.0,0.0,0.0,3.825683202,0.0,0.0,0.0,0.0,0.0,-0.0,0.0,0.0,1.901855274,0.0,-4.946558594,0.0,0.0,0.0,0.0,0.0,0.0,4.2382808160000005,0.0,0.0,-4.0,0.0,0.0,-0.0,0.0,0.0,2.8491208020000003,0.0,0.0,-0.3499999940395355,89.37999725341797,-90.36000061035156,1.01885986328125,-0.03961181640625,-0.03289794921875,28.520000457763672,0.0,33.0,0.189117431640625,0.05767822265625,Waiting,0.0,0.0,0.0,0.0,0.0,0.0,0.0,0.0,
2.8615009999999894,0.0,0.0,0.0,0.0,0.0,0.0,0.0,0.0,3.825683202,0.0,0.0,0.0,0.0,0.0,-0.0,0.0,0.0,1.901855274,0.0,-4.946558594,0.0,0.0,0.0,0.0,0.0,0.0,4.2382808160000005,0.0,0.0,-4.0,0.0,0.0,-0.0,0.0,0.0,2.8491208020000003,0.0,0.0,-0.36000001430511475,89.36000061035156,-90.37000274658203,1.01824951171875,-0.0023193359375,-0.02618408203125,28.520000457763672,0.0,-3.0,0.190277099609375,0.057830810546875,Waiting,0.0,0.0,0.0,0.0,0.0,0.0,0.0,0.0,
2.8808099999999977,0.0,0.0,0.0,0.0,0.0,0.0,0.0,0.0,3.825683202,0.0,0.0,0.0,0.0,0.0,-0.0,0.0,0.0,1.901855274,0.0,0.0,0.0,0.0,0.0,0.0,0.0,0.0,4.239501519,0.0,0.0,-4.0,0.0,0.0,-0.0,0.0,0.0,2.8527829110000003,0.0,0.0012207029999995456,-0.36000001430511475,89.3499984741211,-90.37999725341797,1.01605224609375,0.02532958984375,-0.00164794921875,28.520000457763672,0.0,-31.0,0.19140625,0.057830810546875,Waiting,0.0,0.0,0.0,0.0,0.0,0.0,0.0,0.0,
2.9013310000000057,0.0,0.0,0.0,0.0,0.0,0.0,0.0,0.0,3.825683202,0.0,0.0,0.0,0.0,0.0,-0.0,0.0,0.0,1.903075977,0.0,0.0,0.0,0.0,0.0,0.0,0.0,0.0,4.2382808160000005,0.0,0.0,-4.0,0.0,0.0,-0.0,0.0,0.0,2.8491208020000003,0.0,0.0012207029999995456,-0.3799999952316284,89.3499984741211,-90.38999938964844,1.00921630859375,0.083740234375,0.01446533203125,28.520000457763672,0.0,-90.0,0.19342041015625,0.05780029296875,Waiting,0.0,0.0,0.0,0.0,0.0,0.0,0.0,0.0,
2.922948000000004,0.0,0.0,0.0,0.0,0.0,0.0,0.0,0.0,3.826903905,0.0,0.0,0.0,0.0,0.0,-0.0,0.0,0.0,1.901855274,0.0,0.0,0.0,0.0,0.0,0.0,0.0,0.0,4.2382808160000005,0.0,0.0,-4.0,0.0,0.0,-0.0,0.0,0.0,2.8491208020000003,0.0,-0.0024414059999999793,-0.38999998569488525,89.3499984741211,-90.4000015258789,1.00775146484375,0.071533203125,0.029052734375,28.520000457763672,0.0,-79.0,0.194244384765625,0.0577392578125,Waiting,0.0,0.0,0.0,0.0,0.0,0.0,0.0,0.0,
2.9401479999999864,0.0,0.0,0.0,0.0,0.0,0.0,0.0,0.0,3.825683202,0.0,0.0,0.0,0.0,0.0,-0.0,0.0,0.0,1.901855274,0.0,0.0,0.0,0.0,0.0,0.0,0.0,0.0,4.2382808160000005,0.0,0.0,-4.0,0.0,0.0,-0.0,0.0,0.0,2.8479000990000003,0.0,-0.0024414059999999793,-0.38999998569488525,89.36000061035156,-90.41000366210938,0.99188232421875,0.05780029296875,0.0379638671875,28.520000457763672,0.0,-65.0,0.194976806640625,0.0576171875,Waiting,0.0,0.0,0.0,0.0,0.0,0.0,0.0,0.0,
2.961290000000008,0.0,0.0,0.0,0.0,0.0,0.0,0.0,0.0,3.824462499,0.0,0.0,0.0,0.0,0.0,-0.0,0.0,0.0,1.901855274,0.0,0.0,0.0,0.0,0.0,0.0,0.0,0.0,4.2382808160000005,0.0,0.0,-4.0,0.0,0.0,-0.0,0.0,0.0,2.8491208020000003,0.0,-0.0024414059999999793,-0.38999998569488525,89.37999725341797,-90.4000015258789,1.0076904296875,0.01226806640625,-0.0050048828125,28.520000457763672,0.0,-19.0,0.1962432861328125,0.0572662353515625,Waiting,0.0,0.0,0.0,0.0,0.0,0.0,0.0,0.0,
2.980965999999986,0.0,0.0,0.0,0.0,0.0,0.0,0.0,0.0,3.825683202,0.0,0.0,0.0,0.0,0.0,-0.0,0.0,0.0,1.903075977,0.0,0.0,0.0,0.0,0.0,0.0,0.0,0.0,4.2382808160000005,0.0,0.0,-4.0,0.0,0.0,-0.0,0.0,0.0,2.8479000990000003,0.0,0.0,-0.38999998569488525,89.37999725341797,-90.4000015258789,1.0076904296875,0.01226806640625,-0.0050048828125,28.520000457763672,0.0,-19.0,0.1962432861328125,0.0572662353515625,Waiting,0.0,0.0,0.0,0.0,0.0,0.0,0.0,0.0,
3.000837999999989,0.0,0.0,0.0,0.0,0.0,0.0,0.0,0.0,3.825683202,0.0,0.0,0.0,0.0,0.0,-0.0,0.0,0.0,1.901855274,0.0,0.0,0.0,0.0,0.0,0.0,0.0,0.0,4.2382808160000005,0.0,0.0,-4.0,0.0,0.0,-0.0,0.0,0.0,2.8479000990000003,0.0,0.0,-0.36000001430511475,89.37999725341797,-90.37999725341797,1.009033203125,-0.06634521484375,-0.036376953125,28.520000457763672,0.0,60.0,0.197509765625,0.0572967529296875,Waiting,0.0,0.0,0.0,0.0,0.0,0.0,0.0,0.0,
3.0238800000000046,0.0,0.0,0.0,0.0,0.0,0.0,0.0,0.0,3.825683202,0.0,0.0,0.0,0.0,0.0,-0.0,0.0,0.0,1.901855274,0.0,0.0,0.0,0.0,0.0,0.0,0.0,0.0,4.241942925,0.0,0.0,-4.0,0.0,0.0,-0.0,0.0,0.0,2.8540036140000002,0.0,0.0012207030000004337,-0.36000001430511475,89.37999725341797,-90.37000274658203,1.00384521484375,-0.0931396484375,-0.04461669921875,28.520000457763672,0.0,87.0,0.1982879638671875,0.057373046875,Waiting,0.0,0.0,0.0,0.0,0.0,0.0,0.0,0.0,
3.0514619999999995,0.0,0.0,0.0,0.0,0.0,0.0,0.0,0.0,3.825683202,0.0,0.0,0.0,0.0,0.0,-0.0,0.0,0.0,1.901855274,0.0,0.0,0.0,0.0,0.0,0.0,0.0,0.0,4.250487846,0.0,0.0,-4.0,0.0,0.0,-0.0,0.0,0.0,2.8479000990000003,0.0,0.0012207030000004337,-0.3499999940395355,89.36000061035156,-90.36000061035156,1.00439453125,-0.10711669921875,-0.044189453125,28.520000457763672,0.0,101.0,0.2001953125,0.0576629638671875,Waiting,0.0,0.0,0.0,0.0,0.0,0.0,0.0,0.0,
3.0715419999999867,0.0,0.0,0.0,0.0,0.0,0.0,0.0,0.0,3.824462499,0.0,0.0,0.0,0.0,0.0,-0.0,0.0,0.0,1.901855274,0.0,0.0,0.0,0.0,0.0,0.0,0.0,0.0,4.250487846,0.0,0.013427732999999442,-4.0,0.0,0.0,-0.0,0.0,0.0,2.8479000990000003,0.0,-0.0012207030000004337,-0.36000001430511475,89.3499984741211,-90.37000274658203,1.0115966796875,-0.07415771484375,-0.01629638671875,28.520000457763672,0.0,67.0,0.201324462890625,0.0578765869140625,Waiting,0.0,0.0,0.0,0.0,0.0,0.0,0.0,0.0,
