Time,ClimberA1,ClimberA2,FRpos,FRCurrent,FRspeed,FRsetpoint,FRApos,FRACurrent,FREncpos,FREncSetpoint,FREncSpeed,FLpos,FLCurrent,FLspeed,FLsetpoint,FLApos,FLACurrent,FLEncpos,FLEncSetpoint,FLEncSpeed,BRpos,BRCurrent,BRspeed,BRsetpoint,BRApos,BRACurrent,BREncpos,BREncSetpoint,BREncSpeed,BLpos,BLCurrent,BLspeed,BLsetpoint,BLApos,BLACurrent,BLEncpos,BLEncSetpoint,BLEncSpeed,navx_Pitch,navx_Roll,navx_Yaw,navx_XAcc,navx_YAcc,navx_ZAcc,navx_Temp,navx_Bar,navx_Alt,navx_XDis,navx_YDis,GearPlacerState,ShootOutputV,ShootOutputCurrent,ShootEncPos,ShootEncVelocity,ShootSpeed,ShootSetpoint,CarouselSetpoint,CarouselCurrent,
0.1553880000000354,0.0,0.0,0.0,0.0,0.0,0.0,0.0,0.125,3.875732025,0.0,0.0,0.0,0.0,0.0,-0.0,0.0,0.0,1.851806451,0.0,0.0,0.0,0.0,0.0,0.0,0.0,0.0,4.223632380000001,0.0,0.0,0.0,0.0,0.0,-0.0,0.0,0.0,2.8527829110000003,0.0,0.0,-0.10000000149011612,88.62000274658203,-109.54000091552734,0.99444580078125,-0.006591796875,-0.0157470703125,35.31999969482422,0.0,-7.0,-0.0168914794921875,-4.2724609375E-4,Waiting,0.0,0.0,0.0,0.0,0.0,0.0,0.0,0.0,
0.19428799999994226,0.0,0.0,0.0,0.0,0.0,0.0,0.0,0.125,3.875732025,0.0,0.0,0.0,0.0,0.0,-0.0,0.0,0.0,1.861572075,0.0,0.008544921000000372,0.0,0.0,0.0,0.0,0.0,0.0,4.222411677,0.0,-0.0024414059999999793,0.0,0.0,0.0,-0.0,0.0,0.0,2.8527829110000003,0.0,-0.0012207030000004337,-0.09000000357627869,88.62999725341797,-109.41000366210938,0.9151611328125,-0.07098388671875,-0.04638671875,35.31999969482422,0.0,29.0,-0.0167999267578125,-5.79833984375E-4,Waiting,0.0,0.0,0.0,0.0,0.0,0.0,0.0,0.0,
0.23993599999998697,0.0,0.0,0.0,0.0,0.0,0.0,0.0,0.125,3.874511322,0.0,0.0,0.0,0.0,0.0,-0.0,0.0,0.0,1.859130669,0.0,0.0012207029999995456,0.0,0.0,0.0,0.0,0.0,0.0,4.223632380000001,0.0,0.0012207030000004337,0.0,0.0,0.0,-0.0,0.0,0.0,2.8527829110000003,0.0,0.0012207030000004337,-0.10000000149011612,88.62999725341797,-109.41000366210938,1.10357666015625,0.02581787109375,0.00506591796875,35.31999969482422,0.0,-33.0,-0.0163726806640625,-6.103515625E-4,Waiting,0.0,0.0,0.0,0.0,0.0,0.0,0.0,0.0,
0.3055670000000391,0.0,0.0,0.0,0.0,0.0,0.0,0.0,0.125,3.875732025,0.0,0.0,0.0,0.0,0.0,-0.0,0.0,0.0,1.859130669,0.0,-0.0012207029999995456,0.0,0.0,0.0,0.0,0.0,0.0,4.223632380000001,0.0,-0.0012207030000004337,0.0,0.0,0.0,-0.0,0.0,0.0,2.8503415050000003,0.0,0.0,-0.10000000149011612,88.62999725341797,-109.41000366210938,1.01202392578125,-0.00970458984375,-0.01361083984375,35.31999969482422,0.0,-9.0,-0.016387939453125,-1.8310546875E-4,Waiting,0.0,0.0,0.0,0.0,0.0,0.0,0.0,0.0,
0.3525570000000298,0.0,0.0,0.0,0.0,0.0,0.0,0.0,0.125,3.876952728,0.0,0.0,0.0,0.0,0.0,-0.0,0.0,0.0,1.853027154,0.0,0.0,0.0,0.0,0.0,0.0,0.0,0.0,4.227294489,0.0,0.0,0.0,0.0,0.0,-0.0,0.0,0.0,2.8540036140000002,0.0,-0.0012207030000004337,-0.09000000357627869,88.63999938964844,-109.30999755859375,0.9217529296875,-0.037109375,-0.0447998046875,35.33000183105469,0.0,25.0,-0.016357421875,1.52587890625E-5,Waiting,0.0,0.0,0.0,0.0,0.0,0.0,0.0,0.0,
0.39084799999999814,0.0,0.0,0.0,0.0,0.0,0.0,0.0,0.125,3.875732025,0.0,0.0,0.0,0.0,0.0,-0.0,0.0,0.0,1.853027154,0.0,0.0012207029999995456,0.0,0.0,0.0,0.0,0.0,0.0,4.223632380000001,0.0,0.0012207030000004337,0.0,0.0,0.0,-0.0,0.0,0.0,2.8540036140000002,0.0,0.0,-0.10999999940395355,88.62999725341797,-109.41999816894531,1.08062744140625,0.0438232421875,-0.0057373046875,35.33000183105469,0.0,-22.0,-0.0161285400390625,9.1552734375E-5,Waiting,0.0,0.0,0.0,0.0,0.0,0.0,0.0,0.0,
0.4307930000000633,0.0,0.0,0.0,0.0,0.0,0.0,0.0,0.125,3.875732025,0.0,0.0,0.0,0.0,0.0,-0.0,0.0,0.0,1.859130669,0.0,-0.0012207029999995456,0.0,0.0,0.0,0.0,0.0,0.0,4.223632380000001,0.0,0.0,0.0,0.0,0.0,-0.0,0.0,0.0,2.8540036140000002,0.0,0.0,-0.10000000149011612,88.62999725341797,-109.38999938964844,1.11602783203125,0.00982666015625,0.0,35.33000183105469,0.0,-27.0,-0.0160980224609375,1.8310546875E-4,Waiting,0.0,0.0,0.0,0.0,0.0,0.0,0.0,0.0,
0.4703170000000391,0.0,0.0,0.0,0.0,0.0,0.0,0.0,0.125,3.875732025,0.0,0.0,0.0,0.0,0.0,-0.0,0.0,0.0,1.859130669,0.0,-0.0012207029999995456,0.0,0.0,0.0,0.0,0.0,0.0,4.223632380000001,0.0,0.0,0.0,0.0,0.0,-0.0,0.0,0.0,2.8527829110000003,0.0,0.0,-0.10000000149011612,88.63999938964844,-109.27999877929688,0.96044921875,-0.02783203125,-0.04302978515625,35.33000183105469,0.0,22.0,-0.016204833984375,5.950927734375E-4,Waiting,0.0,0.0,0.0,0.0,0.0,0.0,0.0,0.0,
0.5118079999999608,0.0,0.0,0.0,0.0,0.0,0.0,0.0,0.125,3.876952728,0.0,0.0,0.0,0.0,0.0,-0.0,0.0,0.0,1.854247857,0.0,-0.0012207030000004337,0.0,0.0,0.0,0.0,0.0,0.0,4.223632380000001,0.0,-0.0012207030000004337,0.0,0.0,0.0,-0.0,0.0,0.0,2.8527829110000003,0.0,0.0,-0.10000000149011612,88.63999938964844,-109.30999755859375,0.941650390625,0.00244140625,-0.04803466796875,35.33000183105469,0.0,25.0,-0.0160675048828125,6.866455078125E-4,Waiting,0.0,0.0,0.0,0.0,0.0,0.0,0.0,0.0,
0.5659010000000708,0.0,0.0,0.0,0.0,0.0,0.0,0.0,0.125,3.874511322,0.0,0.0,0.0,0.0,0.0,-0.0,0.0,0.0,1.859130669,0.0,0.0012207030000004337,0.0,0.0,0.0,0.0,0.0,0.0,4.224853083,0.0,0.0012207030000004337,0.0,0.0,0.0,-0.0,0.0,0.0,2.8527829110000003,0.0,0.0012207030000004337,-0.10000000149011612,88.63999938964844,-109.26000213623047,1.1055908203125,0.01165771484375,-0.00390625,35.33000183105469,0.0,-22.0,-0.0158538818359375,8.23974609375E-4,Waiting,0.0,0.0,0.0,0.0,0.0,0.0,0.0,0.0,
0.6117930000000633,0.0,0.0,0.0,0.0,0.0,0.0,0.0,0.125,3.875732025,0.0,0.0,0.0,0.0,0.0,-0.0,0.0,0.0,1.859130669,0.0,0.0,0.0,0.0,0.0,0.0,0.0,0.0,4.224853083,0.0,0.0,0.0,0.0,0.0,-0.0,0.0,0.0,2.8527829110000003,0.0,0.0,-0.09000000357627869,88.63999938964844,-109.27999877929688,0.9573974609375,-0.02783203125,-0.04736328125,35.33000183105469,0.0,26.0,-0.01593017578125,0.0012664794921875,Waiting,0.0,0.0,0.0,0.0,0.0,0.0,0.0,0.0,
0.6516240000000689,0.0,0.0,0.0,0.0,0.0,0.0,0.0,0.125,3.876952728,0.0,0.0,0.0,0.0,0.0,-0.0,0.0,0.0,1.857909966,0.0,0.0,0.0,0.0,0.0,0.0,0.0,0.0,4.223632380000001,0.0,-0.0012207030000004337,0.0,0.0,0.0,-0.0,0.0,0.0,2.8515622080000003,0.0,-0.0012207030000004337,-0.09000000357627869,88.6500015258789,-109.18000030517578,1.00994873046875,0.02728271484375,-0.0118408203125,35.33000183105469,0.0,-13.0,-0.0158233642578125,0.0013580322265625,Waiting,0.0,0.0,0.0,0.0,0.0,0.0,0.0,0.0,
0.7069429999999702,0.0,0.0,0.0,0.0,0.0,0.0,0.0,0.125,3.875732025,0.0,0.0,0.0,0.0,0.0,-0.0,0.0,0.0,1.854247857,0.0,0.0012207029999995456,0.0,0.0,0.0,0.0,0.0,0.0,4.223632380000001,0.0,0.0,0.0,0.0,0.0,-0.0,0.0,0.0,2.8527829110000003,0.0,0.0012207030000004337,-0.10000000149011612,88.63999938964844,-109.27999877929688,1.103515625,0.02056884765625,-0.00677490234375,35.33000183105469,0.0,-20.0,-0.015899658203125,0.00152587890625,Waiting,0.0,0.0,0.0,0.0,0.0,0.0,0.0,0.0,
0.7461300000001211,0.0,0.0,0.0,0.0,0.0,0.0,0.0,0.125,3.876952728,0.0,0.0,0.0,0.0,0.0,-0.0,0.0,0.0,1.857909966,0.0,-0.0024414059999999793,0.0,0.0,0.0,0.0,0.0,0.0,4.224853083,0.0,0.0012207030000004337,0.0,0.0,0.0,-0.0,0.0,0.0,2.8540036140000002,0.0,0.0,-0.09000000357627869,88.6500015258789,-109.12999725341797,0.92938232421875,-0.07928466796875,-0.0550537109375,35.33000183105469,0.0,38.0,-0.0163116455078125,0.0019989013671875,Waiting,0.0,0.0,0.0,0.0,0.0,0.0,0.0,0.0,
0.7869599999999628,0.0,0.0,0.0,0.0,0.0,0.0,0.0,0.125,3.872069916,0.0,0.0012207029999999897,0.0,0.0,0.0,-0.0,0.0,0.0,1.859130669,0.0,0.0,0.0,0.0,0.0,0.0,0.0,0.0,4.223632380000001,0.0,0.0,0.0,0.0,0.0,-0.0,0.0,0.0,2.8527829110000003,0.0,0.0,-0.09000000357627869,88.6500015258789,-109.16000366210938,0.97430419921875,0.01629638671875,-0.03961181640625,35.33000183105469,0.0,-13.0,-0.0163421630859375,0.002044677734375,Waiting,0.0,0.0,0.0,0.0,0.0,0.0,0.0,0.0,
0.8238070000000298,0.0,0.0,0.0,0.0,0.0,0.0,0.0,0.0,3.875732025,0.0,-0.0012207029999999897,0.0,0.0,0.0,-0.0,0.0,0.0,1.854247857,0.0,0.0012207030000004337,0.0,0.0,0.0,0.0,0.0,0.0,4.222411677,0.0,0.0,0.0,0.0,0.0,-0.0,0.0,0.0,2.8527829110000003,0.0,-0.0012207030000004337,-0.10000000149011612,88.63999938964844,-109.26000213623047,1.02618408203125,0.02484130859375,3.0517578125E-4,35.33000183105469,0.0,-26.0,-0.016448974609375,0.0024261474609375,Waiting,0.0,0.0,0.0,0.0,0.0,0.0,0.0,0.0,
0.8808989999999758,0.0,0.0,0.0,0.0,0.0,0.0,0.0,0.0,3.876952728,0.0,-0.0012207029999999897,0.0,0.0,0.0,-0.0,0.0,0.0,1.853027154,0.0,0.0012207030000004337,0.0,0.0,0.0,0.0,0.0,0.0,4.223632380000001,0.0,-0.0012207030000004337,0.0,0.0,0.0,-0.0,0.0,0.0,2.8527829110000003,0.0,0.0,-0.07999999821186066,88.6500015258789,-109.1500015258789,0.92962646484375,-0.0601806640625,-0.0506591796875,35.33000183105469,0.0,32.0,-0.0166168212890625,0.00274658203125,Waiting,0.0,0.0,0.0,0.0,0.0,0.0,0.0,0.0,
0.916841999999946,0.0,0.0,0.0,0.0,0.0,0.0,0.0,0.125,3.875732025,0.0,0.0,0.0,0.0,0.0,-0.0,0.0,0.0,1.859130669,0.0,0.0012207029999995456,0.0,0.0,0.0,0.0,0.0,0.0,4.224853083,0.0,-0.0012207030000004337,0.0,0.0,0.0,-0.0,0.0,0.0,2.8527829110000003,0.0,0.0,-0.09000000357627869,88.63999938964844,-109.27999877929688,1.01617431640625,0.03173828125,-0.0093994140625,35.33000183105469,0.0,-16.0,-0.0166015625,0.002777099609375,Waiting,0.0,0.0,0.0,0.0,0.0,0.0,0.0,0.0,
0.965971000000136,0.0,0.0,0.0,0.0,0.0,0.0,0.0,0.125,3.875732025,0.0,0.0,0.0,0.0,0.0,-0.0,0.0,0.0,1.853027154,0.0,-0.0024414059999999793,0.0,0.0,0.0,0.0,0.0,0.0,4.223632380000001,0.0,0.0,0.0,0.0,0.0,-0.0,0.0,0.0,2.8515622080000003,0.0,0.0,-0.10999999940395355,88.62999725341797,-109.37000274658203,1.036376953125,0.02484130859375,9.765625E-4,35.33000183105469,0.0,-27.0,-0.016632080078125,0.0031280517578125,Waiting,0.0,0.0,0.0,0.0,0.0,0.0,0.0,0.0,
0.9983270000000485,0.0,0.0,0.0,0.0,0.0,0.0,0.0,0.125,3.875732025,0.0,0.0,0.0,0.0,0.0,-0.0,0.0,0.0,1.860351372,0.0,0.0024414059999999793,0.0,0.0,0.0,0.0,0.0,0.0,4.222411677,0.0,0.0012207030000004337,0.0,0.0,0.0,-0.0,0.0,0.0,2.8552243170000002,0.0,0.0012207030000004337,-0.09000000357627869,88.6500015258789,-109.12999725341797,0.9278564453125,-0.0828857421875,-0.053466796875,35.33000183105469,0.0,37.0,-0.0167694091796875,0.0034637451171875,Waiting,0.0,0.0,0.0,0.0,0.0,0.0,0.0,0.0,
1.0348290000001434,0.0,0.0,0.0,0.0,0.0,0.0,0.0,0.125,3.875732025,0.0,0.0012207029999999897,0.0,0.0,0.0,-0.0,0.0,0.0,1.859130669,0.0,-0.0012207029999995456,0.0,0.0,0.0,0.0,0.0,0.0,4.223632380000001,0.0,0.0,0.0,0.0,0.0,-0.0,0.0,0.0,2.8527829110000003,0.0,0.0,-0.10000000149011612,88.63999938964844,-109.26000213623047,0.99981689453125,0.027099609375,-0.0062255859375,35.33000183105469,0.0,-19.0,-0.0167083740234375,0.003448486328125,Waiting,0.0,0.0,0.0,0.0,0.0,0.0,0.0,0.0,
1.0718610000000335,0.0,0.0,0.0,0.0,0.0,0.0,0.0,0.0,3.875732025,0.0,0.0012207029999999897,0.0,0.0,0.0,-0.0,0.0,0.0,1.853027154,0.0,-0.0012207030000004337,0.0,0.0,0.0,0.0,0.0,0.0,4.222411677,0.0,-0.0012207030000004337,0.0,0.0,0.0,-0.0,0.0,0.0,2.8527829110000003,0.0,-0.0012207030000004337,-0.14000000059604645,88.69000244140625,-108.63999938964844,1.1141357421875,0.401611328125,-0.022216796875,35.33000183105469,0.0,-30.0,-0.0172119140625,0.0041961669921875,Waiting,0.0,0.0,0.0,0.0,0.0,0.0,0.0,0.0,
1.1172069999999368,0.0,0.0,0.0,0.0,0.0,0.0,0.0,0.125,3.876952728,0.0,-0.0012207029999999897,0.0,0.0,0.0,-0.0,0.0,0.0,1.857909966,0.0,-0.0012207030000004337,0.0,0.0,0.0,0.0,0.0,0.0,4.223632380000001,0.0,-0.0012207030000004337,0.0,0.0,0.0,-0.0,0.0,0.0,2.8527829110000003,0.0,-0.0012207030000004337,-0.14000000059604645,88.70999908447266,-108.08999633789062,1.002197265625,0.17266845703125,0.60430908203125,35.33000183105469,0.0,-637.0,-0.0170745849609375,0.0057525634765625,Waiting,0.0,0.0,0.0,0.0,0.0,0.0,0.0,0.0,
1.161192000000039,0.0,0.0,0.0,0.0,0.0,0.0,0.0,0.125,3.875732025,0.0,0.0,0.0,0.0,0.0,-0.0,0.0,0.0,1.8457029360000001,0.0,0.0012207030000004337,0.0,0.0,0.0,0.0,0.0,0.0,4.221190974000001,0.0,0.0012207030000004337,0.0,0.0,0.0,-0.0,0.0,0.0,2.8527829110000003,0.0,0.0012207030000004337,-0.20999999344348907,88.55000305175781,-110.30999755859375,0.88909912109375,0.0604248046875,0.06280517578125,35.33000183105469,0.0,-89.0,-0.017486572265625,0.006866455078125,Waiting,0.0,0.0,0.0,0.0,0.0,0.0,0.0,0.0,
1.2019490000000224,0.0,0.0,0.0,0.0,0.0,0.0,0.0,0.125,3.874511322,0.0,0.0012207029999999897,0.0,0.0,0.0,-0.0,0.0,0.0,1.854247857,0.0,-0.003662109000000413,0.0,0.0,0.0,0.0,0.0,0.0,4.223632380000001,0.0,0.0,0.0,0.0,0.0,-0.0,0.0,0.0,2.8527829110000003,0.0,0.0,-0.18000000715255737,88.58000183105469,-110.12000274658203,1.142822265625,-0.11322021484375,-0.01409912109375,35.33000183105469,0.0,-6.0,-0.01800537109375,0.0078125,Waiting,0.0,0.0,0.0,0.0,0.0,0.0,0.0,0.0,
1.2361629999999422,0.0,0.0,0.0,0.0,0.0,0.0,0.0,0.125,3.873290619,0.0,0.0,0.0,0.0,0.0,-0.0,0.0,0.0,1.859130669,0.0,0.003662109000000413,0.0,0.0,0.0,0.0,0.0,0.0,4.222411677,0.0,0.0,0.0,0.0,0.0,-0.0,0.0,0.0,2.8540036140000002,0.0,-0.0012207030000004337,-0.30000001192092896,88.58999633789062,-109.56999969482422,0.9169921875,-0.0235595703125,0.126220703125,35.33000183105469,0.0,-146.0,-0.018798828125,0.008636474609375,Waiting,0.0,0.0,0.0,0.0,0.0,0.0,0.0,0.0,
1.2735670000000392,0.0,0.0,0.0,0.0,0.0,0.0,0.0,0.125,3.875732025,0.0,0.0,0.0,0.0,0.0,-0.0,0.0,0.0,1.854247857,0.0,0.003662109000000413,0.0,0.0,0.0,0.0,0.0,0.0,4.224853083,0.0,0.0,0.0,0.0,0.0,-0.0,0.0,0.0,2.8527829110000003,0.0,-0.0012207030000004337,-0.30000001192092896,88.5999984741211,-109.97000122070312,1.2403564453125,0.12713623046875,-0.3331298828125,35.33000183105469,0.0,293.0,-0.0194091796875,0.00885009765625,Waiting,0.0,0.0,0.0,0.0,0.0,0.0,0.0,0.0,
1.311316000000108,0.0,0.0,0.0,0.0,0.0,0.0,0.0,0.125,3.874511322,0.0,0.0,0.0,0.0,0.0,-0.0,0.0,0.0,1.854247857,0.0,-0.0012207030000004337,0.0,0.0,0.0,0.0,0.0,0.0,4.223632380000001,0.0,0.0,0.0,0.0,0.0,-0.0,0.0,0.0,2.8515622080000003,0.0,0.0012207030000004337,-0.23000000417232513,88.69000244140625,-108.55000305175781,0.97308349609375,0.0966796875,0.0269775390625,35.33000183105469,0.0,-55.0,-0.0199737548828125,0.0098419189453125,Waiting,0.0,0.0,0.0,0.0,0.0,0.0,0.0,0.0,
1.3460730000000913,0.0,0.0,0.0,0.0,0.0,0.0,0.0,0.125,3.875732025,0.0,-0.0012207029999999897,0.0,0.0,0.0,-0.0,0.0,0.0,1.853027154,0.0,-0.0012207029999995456,0.0,0.0,0.0,0.0,0.0,0.0,4.224853083,0.0,0.0,0.0,0.0,0.0,-0.0,0.0,0.0,2.8527829110000003,0.0,0.0,-0.27000001072883606,88.43000030517578,-111.98999786376953,0.8731689453125,-0.27056884765625,0.0272216796875,35.33000183105469,0.0,-32.0,-0.02020263671875,0.0107421875,Waiting,0.0,0.0,0.0,0.0,0.0,0.0,0.0,0.0,
1.3820609999999869,0.0,0.0,0.0,0.0,0.0,0.0,0.0,0.125,3.875732025,0.0,-0.0012207029999999897,0.0,0.0,0.0,-0.0,0.0,0.0,1.857909966,0.0,-0.0012207029999995456,0.0,0.0,0.0,0.0,0.0,0.0,4.222411677,0.0,0.0,0.0,0.0,0.0,-0.0,0.0,0.0,2.8527829110000003,0.0,0.0,-0.33000001311302185,88.56999969482422,-110.16999816894531,1.31634521484375,0.0316162109375,-0.4031982421875,35.310001373291016,0.0,367.0,-0.0200042724609375,0.0117645263671875,Waiting,0.0,0.0,0.0,0.0,0.0,0.0,0.0,0.0,
1.4152380000001286,0.0,0.0,0.0,0.0,0.0,0.0,0.0,0.125,3.874511322,0.0,0.0012207029999999897,0.0,0.0,0.0,-0.0,0.0,0.0,1.853027154,0.0,0.003662108999999525,0.0,0.0,0.0,0.0,0.0,0.0,4.224853083,0.0,0.0,0.0,0.0,0.0,-0.0,0.0,0.0,2.8527829110000003,0.0,0.0,-0.3199999928474426,88.66999816894531,-108.44999694824219,1.14300537109375,-0.1573486328125,0.18426513671875,35.310001373291016,0.0,-198.0,-0.0189056396484375,0.013824462890625,Waiting,0.0,0.0,0.0,0.0,0.0,0.0,0.0,0.0,
1.4526680000000634,0.0,0.0,0.0,0.0,0.0,0.0,0.0,0.0,3.876952728,0.0,0.0,0.0,0.0,0.0,-0.0,0.0,0.0,1.854247857,0.0,-0.0024414059999999793,0.0,0.0,0.0,0.0,0.0,0.0,4.223632380000001,0.0,0.0,0.0,0.0,0.0,-0.0,0.0,0.0,2.8540036140000002,0.0,-0.0012207030000004337,-0.36000001430511475,88.43000030517578,-111.9800033569336,1.072998046875,-0.0836181640625,-0.39068603515625,35.310001373291016,0.0,366.0,-0.018524169921875,0.01513671875,Waiting,0.0,0.0,0.0,0.0,0.0,0.0,0.0,0.0,
1.489655000000028,0.0,0.0,0.0,0.0,0.0,0.0,0.0,0.0,3.8928218670000003,0.0,0.0,0.0,0.0,0.0,-0.0,0.0,0.0,1.854247857,0.0,-0.0012207029999995456,0.0,0.0,0.0,0.0,0.0,0.0,4.223632380000001,0.0,0.0,0.0,0.0,0.0,-0.0,0.0,0.0,2.8527829110000003,0.0,0.0012207030000004337,-0.33000001311302185,88.7300033569336,-107.98999786376953,1.22540283203125,0.02191162109375,-0.0667724609375,35.310001373291016,0.0,38.0,-0.0176544189453125,0.0175323486328125,Waiting,0.0,0.0,0.0,0.0,0.0,0.0,0.0,0.0,
1.527063000000082,0.0,0.0,0.0,0.0,0.0,0.0,0.0,0.0,3.875732025,0.0,0.0,0.0,0.0,0.0,-0.0,0.0,0.0,1.854247857,0.0,-0.0012207029999995456,0.0,0.0,0.0,0.0,0.0,0.0,4.224853083,0.0,0.0,0.0,0.0,0.0,-0.0,0.0,0.0,2.8527829110000003,0.0,0.0,-0.33000001311302185,88.43000030517578,-112.27999877929688,1.2166748046875,0.30078125,-0.6009521484375,35.310001373291016,0.0,546.0,-0.01715087890625,0.0186920166015625,Waiting,0.0,0.0,0.0,0.0,0.0,0.0,0.0,0.0,
1.5610949999999721,0.0,0.0,0.0,0.0,0.0,0.0,0.0,0.0,3.875732025,0.0,0.0,0.0,0.0,0.0,-0.0,0.0,0.0,1.854247857,0.0,-0.0012207030000004337,0.0,0.0,0.0,0.0,0.0,0.0,4.223632380000001,0.0,0.0,0.0,0.0,0.0,-0.0,0.0,0.0,2.8527829110000003,0.0,0.0,-0.23999999463558197,88.91000366210938,-105.26000213623047,1.13299560546875,-0.1119384765625,0.553955078125,35.310001373291016,0.0,-565.0,-0.016815185546875,0.0207366943359375,Waiting,0.0,0.0,0.0,0.0,0.0,0.0,0.0,0.0,
1.5917679999999237,0.0,0.0,0.0,0.0,0.0,0.0,0.0,0.0,3.876952728,0.0,-0.0012207029999999897,0.0,0.0,0.0,-0.0,0.0,0.0,1.853027154,0.0,0.0,0.0,0.0,0.0,0.0,0.0,0.0,4.223632380000001,0.0,-0.0012207030000004337,0.0,0.0,0.0,-0.0,0.0,0.0,2.8527829110000003,0.0,-0.0012207030000004337,-0.23999999463558197,88.45999908447266,-111.48999786376953,0.82147216796875,-0.1978759765625,0.2860107421875,35.310001373291016,0.0,-288.0,-0.016387939453125,0.0238800048828125,Waiting,0.0,0.0,0.0,0.0,0.0,0.0,0.0,0.0,
1.62791100000008,0.0,0.0,0.0,0.0,0.0,0.0,0.0,0.0,3.874511322,0.0,-0.0012207029999999897,0.0,0.0,0.0,-0.0,0.0,0.0,1.854247857,0.0,0.0,0.0,0.0,0.0,0.0,0.0,0.0,4.223632380000001,0.0,-0.0012207030000004337,0.0,0.0,0.0,-0.0,0.0,0.0,2.8540036140000002,0.0,0.0012207030000004337,-0.11999999731779099,88.80000305175781,-107.05999755859375,1.00347900390625,-0.0032958984375,-0.2255859375,35.310001373291016,0.0,204.0,-0.016326904296875,0.02459716796875,Waiting,0.0,0.0,0.0,0.0,0.0,0.0,0.0,0.0,
1.6671959999999963,0.0,0.0,0.0,0.0,0.0,0.0,0.0,0.125,3.875732025,0.0,0.0,0.0,0.0,0.0,-0.0,0.0,0.0,1.853027154,0.0,0.0,0.0,0.0,0.0,0.0,0.0,0.0,4.223632380000001,0.0,0.0,0.0,0.0,0.0,-0.0,0.0,0.0,2.8540036140000002,0.0,0.0012207030000004337,-0.23999999463558197,88.41000366210938,-112.08999633789062,0.8194580078125,0.12420654296875,0.40594482421875,35.310001373291016,0.0,-431.0,-0.015350341796875,0.0267486572265625,Waiting,0.0,0.0,0.0,0.0,0.0,0.0,0.0,0.0,
1.6960790000001433,0.0,0.0,0.0,0.0,0.0,0.0,0.0,0.125,3.875732025,0.0,0.0,0.0,0.0,0.0,-0.0,0.0,0.0,1.854247857,0.0,0.0,0.0,0.0,0.0,0.0,0.0,0.0,4.223632380000001,0.0,0.0012207030000004337,0.0,0.0,0.0,-0.0,0.0,0.0,2.8527829110000003,0.0,-0.0012207030000004337,-0.20999999344348907,88.5199966430664,-111.25,1.3570556640625,-0.15948486328125,-0.7159423828125,35.310001373291016,0.0,689.0,-0.0147552490234375,0.028778076171875,Waiting,0.0,0.0,0.0,0.0,0.0,0.0,0.0,0.0,
1.7324869999999646,0.0,0.0,0.0,0.0,0.0,0.0,0.0,0.125,3.875732025,0.0,0.0,0.0,0.0,0.0,-0.0,0.0,0.0,1.859130669,0.0,0.0,0.0,0.0,0.0,0.0,0.0,0.0,4.223632380000001,0.0,0.0012207030000004337,0.0,0.0,0.0,-0.0,0.0,0.0,2.8527829110000003,0.0,0.0012207030000004337,-0.27000001072883606,88.83999633789062,-105.98999786376953,0.5198974609375,0.1971435546875,0.97845458984375,35.310001373291016,0.0,-999.0,-0.0135955810546875,0.0309906005859375,Waiting,0.0,0.0,0.0,0.0,0.0,0.0,0.0,0.0,
1.7713489999999292,0.0,0.0,0.0,0.0,0.0,0.0,0.0,0.125,3.875732025,0.0,0.0,0.0,0.0,0.0,-0.0,0.0,0.0,1.854247857,0.0,0.0,0.0,0.0,0.0,0.0,0.0,0.0,4.224853083,0.0,0.0,0.0,0.0,0.0,-0.0,0.0,0.0,2.8540036140000002,0.0,0.0012207030000004337,-0.30000001192092896,88.70999908447266,-108.5,0.9227294921875,-0.16741943359375,-0.4305419921875,35.310001373291016,0.0,420.0,-0.01373291015625,0.033538818359375,Waiting,0.0,0.0,0.0,0.0,0.0,0.0,0.0,0.0,
1.8040420000001323,0.0,0.0,0.0,0.0,0.0,0.0,0.0,0.125,3.875732025,0.0,0.0012207029999999897,0.0,0.0,0.0,-0.0,0.0,0.0,1.859130669,0.0,0.0,0.0,0.0,0.0,0.0,0.0,0.0,4.223632380000001,0.0,0.0,0.0,0.0,0.0,-0.0,0.0,0.0,2.8527829110000003,0.0,0.0,-0.2199999988079071,88.91000366210938,-105.41999816894531,0.99322509765625,-0.0504150390625,0.156982421875,35.310001373291016,0.0,-171.0,-0.0135955810546875,0.03753662109375,Waiting,0.0,0.0,0.0,0.0,0.0,0.0,0.0,0.0,
1.8365279999999329,0.0,0.0,0.0,0.0,0.0,0.0,0.0,0.0,3.875732025,0.0,0.0012207029999999897,0.0,0.0,0.0,-0.0,0.0,0.0,1.854247857,0.0,0.0,0.0,0.0,0.0,0.0,0.0,0.0,4.224853083,0.0,0.0,0.0,0.0,0.0,-0.0,0.0,0.0,2.8527829110000003,0.0,-0.0012207030000004337,-0.30000001192092896,88.4800033569336,-110.93000030517578,0.61907958984375,0.1531982421875,0.0103759765625,35.310001373291016,0.0,-36.0,-0.0131378173828125,0.0396575927734375,Waiting,0.0,0.0,0.0,0.0,0.0,0.0,0.0,0.0,
1.8721110000000336,0.0,0.0,0.0,0.0,0.0,0.0,0.0,0.0,3.874511322,0.0,0.0,0.0,0.0,0.0,-0.0,0.0,0.0,1.853027154,0.0,0.0,0.0,0.0,0.0,0.0,0.0,0.0,4.224853083,0.0,0.0,0.0,0.0,0.0,-0.0,0.0,0.0,2.8527829110000003,0.0,-0.0012207030000004337,-0.2199999988079071,88.91999816894531,-105.41000366210938,1.21954345703125,-0.171875,-0.11676025390625,35.310001373291016,0.0,105.0,-0.0132598876953125,0.0417327880859375,Waiting,0.0,0.0,0.0,0.0,0.0,0.0,0.0,0.0,
1.9106130000001285,0.0,0.0,0.0,0.0,0.0,0.0,0.0,0.125,3.875732025,0.0,-0.0012207029999999897,0.0,0.0,0.0,-0.0,0.0,0.0,1.859130669,0.0,0.0,0.0,0.0,0.0,0.0,0.0,0.0,4.223632380000001,0.0,0.0,0.0,0.0,0.0,-0.0,0.0,0.0,2.838134475,0.0,0.0012207030000004337,-0.28999999165534973,88.7300033569336,-107.43000030517578,1.12603759765625,0.08697509765625,0.58746337890625,35.310001373291016,0.0,-616.0,-0.011505126953125,0.0440826416015625,Waiting,0.0,0.0,0.0,0.0,0.0,0.0,0.0,0.0,
1.9446370000001043,0.0,0.0,0.0,0.0,0.0,0.0,0.0,0.125,3.875732025,0.0,0.0,0.0,0.0,0.0,-0.0,0.0,0.0,1.853027154,0.0,0.0,0.0,0.0,0.0,0.0,0.0,0.0,4.223632380000001,0.0,0.0,0.0,0.0,0.0,-0.0,0.0,0.0,2.8527829110000003,0.0,0.0,-0.3700000047683716,88.77999877929688,-112.16999816894531,1.22998046875,0.01812744140625,-0.48907470703125,35.310001373291016,0.0,453.0,-0.0105743408203125,0.046142578125,Waiting,0.0,0.0,0.0,0.0,0.0,0.0,0.0,0.0,
1.9813610000000335,0.0,0.0,0.0,0.0,0.0,0.0,0.0,0.125,3.875732025,0.0,0.0,0.0,0.0,0.0,-0.0,0.0,0.0,1.853027154,0.0,0.0,0.0,0.0,0.0,0.0,0.0,0.0,4.223632380000001,0.0,0.0,0.0,0.0,0.0,-0.0,0.0,0.0,2.8527829110000003,0.0,0.0,-0.3100000023841858,88.83999633789062,-106.12999725341797,0.8782958984375,-0.0628662109375,0.22393798828125,35.310001373291016,0.0,-236.0,-0.00970458984375,0.0472412109375,Waiting,0.0,0.0,0.0,0.0,0.0,0.0,0.0,0.0,
2.0143600000001025,0.0,0.0,0.0,0.0,0.0,0.0,0.0,0.0,3.874511322,0.0,0.0012207029999999897,0.0,0.0,0.0,-0.0,0.0,0.0,1.854247857,0.0,0.0,0.0,0.0,0.0,0.0,0.0,0.0,4.223632380000001,0.0,0.0,0.0,0.0,0.0,-0.0,0.0,0.0,2.8515622080000003,0.0,0.0,-0.36000001430511475,88.4800033569336,-111.27999877929688,1.02386474609375,-0.13031005859375,-0.22589111328125,35.310001373291016,0.0,207.0,-0.008575439453125,0.047943115234375,Waiting,0.0,0.0,0.0,0.0,0.0,0.0,0.0,0.0,
2.0515620000001507,0.0,0.0,0.0,0.0,0.0,0.0,0.0,0.0,3.875732025,0.0,-0.0012207029999999897,0.0,0.0,0.0,-0.0,0.0,0.0,1.853027154,0.0,0.0,0.0,0.0,0.0,0.0,0.0,0.0,4.223632380000001,0.0,0.0012207029999995456,0.0,0.0,0.0,-0.0,0.0,0.0,2.8527829110000003,0.0,-0.0012207030000004337,-0.33000001311302185,88.81999969482422,-106.36000061035156,1.09991455078125,9.1552734375E-4,0.1768798828125,35.310001373291016,0.0,-198.0,-0.007568359375,0.0485076904296875,Waiting,0.0,0.0,0.0,0.0,0.0,0.0,0.0,0.0,
2.0868819999999833,0.0,0.0,0.0,0.0,0.0,0.0,0.0,0.0,3.875732025,0.0,-0.0012207029999999897,0.0,0.0,0.0,-0.0,0.0,0.0,1.854247857,0.0,0.0,0.0,0.0,0.0,0.0,0.0,0.0,4.228515192000001,0.0,-0.0012207029999995456,0.0,0.0,0.0,-0.0,0.0,0.0,2.8515622080000003,0.0,0.0012207030000004337,-0.33000001311302185,88.62000274658203,-109.12000274658203,0.95458984375,-0.02215576171875,0.23016357421875,35.310001373291016,0.0,-250.0,-0.0058441162109375,0.0494842529296875,Waiting,0.0,0.0,0.0,0.0,0.0,0.0,0.0,0.0,
2.1247569999999834,0.0,0.0,0.0,0.0,0.0,0.0,0.0,0.125,3.8842769460000004,0.0,0.0012207029999999897,0.0,0.0,0.0,-0.0,0.0,0.0,1.850585748,0.0,0.0,0.0,0.0,0.0,0.0,0.0,0.0,4.229735895,0.0,-0.0012207029999995456,0.0,0.0,0.0,-0.0,0.0,0.0,2.8515622080000003,0.0,0.0012207030000004337,-0.3100000023841858,88.76000213623047,-107.5199966430664,0.95831298828125,-0.09149169921875,-0.21820068359375,35.310001373291016,0.0,203.0,-0.0049896240234375,0.0499420166015625,Waiting,0.0,0.0,0.0,0.0,0.0,0.0,0.0,0.0,
2.1581359999999403,0.0,0.0,0.0,0.0,0.0,0.0,0.0,0.125,3.875732025,0.0,-0.0012207029999999897,0.0,0.0,0.0,-0.0,0.0,0.0,1.854247857,0.0,0.0,0.0,0.0,0.0,0.0,0.0,0.0,4.223632380000001,0.0,0.0,0.0,0.0,0.0,-0.0,0.0,0.0,2.8527829110000003,0.0,0.0,-0.3100000023841858,88.7300033569336,-107.7300033569336,1.04534912109375,0.02838134765625,0.09503173828125,35.310001373291016,0.0,-119.0,-0.0031585693359375,0.050537109375,Waiting,0.0,0.0,0.0,0.0,0.0,0.0,0.0,0.0,
2.1901629999999424,0.0,0.0,0.0,0.0,0.0,0.0,0.0,0.125,3.875732025,0.0,0.0,0.0,0.0,0.0,-0.0,0.0,0.0,1.854247857,0.0,0.0,0.0,0.0,0.0,0.0,0.0,0.0,4.223632380000001,0.0,-0.0012207030000004337,0.0,0.0,0.0,-0.0,0.0,0.0,2.8527829110000003,0.0,-0.0012207030000004337,-0.33000001311302185,88.61000061035156,-109.47000122070312,1.04718017578125,-0.03515625,-0.11474609375,35.310001373291016,0.0,91.0,-0.0020294189453125,0.0511474609375,Waiting,0.0,0.0,0.0,0.0,0.0,0.0,0.0,0.0,
2.233746999999974,0.0,0.0,0.0,0.0,0.0,0.0,0.0,0.125,3.875732025,0.0,0.0,0.0,0.0,0.0,-0.0,0.0,0.0,1.854247857,0.0,0.0,0.0,0.0,0.0,0.0,0.0,0.0,4.223632380000001,0.0,-0.0012207030000004337,0.0,0.0,0.0,-0.0,0.0,0.0,2.8527829110000003,0.0,0.0012207030000004337,-0.2800000011920929,88.72000122070312,-108.1500015258789,0.96875,-0.0355224609375,-0.1002197265625,35.310001373291016,0.0,81.0,-4.57763671875E-4,0.0518951416015625,Waiting,0.0,0.0,0.0,0.0,0.0,0.0,0.0,0.0,
2.270178000000073,0.0,0.0,0.0,0.0,0.0,0.0,0.0,0.125,3.876952728,0.0,0.0,0.0,0.0,0.0,-0.0,0.0,0.0,1.854247857,0.0,0.0,0.0,0.0,0.0,0.0,0.0,0.0,4.223632380000001,0.0,0.0012207030000004337,0.0,0.0,0.0,-0.0,0.0,0.0,2.8515622080000003,0.0,0.0012207030000004337,-0.3100000023841858,88.66000366210938,-108.87000274658203,1.0137939453125,0.01629638671875,0.04644775390625,35.310001373291016,0.0,-70.0,6.40869140625E-4,0.0523223876953125,Waiting,0.0,0.0,0.0,0.0,0.0,0.0,0.0,0.0,
2.305563000000082,0.0,0.0,0.0,0.0,0.0,0.0,0.0,0.125,3.874511322,0.0,0.0,0.0,0.0,0.0,-0.0,0.0,0.0,1.853027154,0.0,0.0,0.0,0.0,0.0,0.0,0.0,0.0,4.223632380000001,0.0,0.0,0.0,0.0,0.0,-0.0,0.0,0.0,2.8527829110000003,0.0,-0.0012207030000004337,-0.30000001192092896,88.6500015258789,-108.83999633789062,1.03302001953125,0.0450439453125,-0.03594970703125,35.310001373291016,0.0,8.0,0.0019989013671875,0.053436279296875,Waiting,0.0,0.0,0.0,0.0,0.0,0.0,0.0,0.0,
2.340222000000067,0.0,0.0,0.0,0.0,0.0,0.0,0.0,0.125,3.875732025,0.0,0.0,0.0,0.0,0.0,-0.0,0.0,0.0,1.854247857,0.0,0.0,0.0,0.0,0.0,0.0,0.0,0.0,4.223632380000001,0.0,-0.0012207030000004337,0.0,0.0,0.0,-0.0,0.0,0.0,2.8515622080000003,0.0,0.0012207030000004337,-0.2800000011920929,88.72000122070312,-107.97000122070312,0.94500732421875,-0.0545654296875,-0.06036376953125,35.310001373291016,0.0,43.0,0.0028076171875,0.054412841796875,Waiting,0.0,0.0,0.0,0.0,0.0,0.0,0.0,0.0,
2.374579000000143,0.0,0.0,0.0,0.0,0.0,0.0,0.0,0.125,3.875732025,0.0,0.0,0.0,0.0,0.0,-0.0,0.0,0.0,1.854247857,0.0,0.0,0.0,0.0,0.0,0.0,0.0,0.0,4.222411677,0.0,-0.0012207030000004337,0.0,0.0,0.0,-0.0,0.0,0.0,2.8527829110000003,0.0,0.0012207030000004337,-0.28999999165534973,88.63999938964844,-109.12000274658203,0.9051513671875,0.02227783203125,-0.06103515625,35.310001373291016,0.0,38.0,0.003997802734375,0.0551910400390625,Waiting,0.0,0.0,0.0,0.0,0.0,0.0,0.0,0.0,
2.412033000000054,0.0,0.0,0.0,0.0,0.0,0.0,0.0,0.125,3.875732025,0.0,0.0,0.0,0.0,0.0,-0.0,0.0,0.0,1.8432615300000001,0.0,0.0,0.0,0.0,0.0,0.0,0.0,0.0,4.226073786000001,0.0,0.0,0.0,0.0,0.0,-0.0,0.0,0.0,2.8527829110000003,0.0,-0.0012207030000004337,-0.2800000011920929,88.66999816894531,-108.75,1.0863037109375,0.00616455078125,-0.06390380859375,35.349998474121094,0.0,38.0,0.0059356689453125,0.056488037109375,Waiting,0.0,0.0,0.0,0.0,0.0,0.0,0.0,0.0,
2.4536060000001454,0.0,0.0,0.0,0.0,0.0,0.0,0.0,0.125,3.875732025,0.0,0.0,0.0,0.0,0.0,-0.0,0.0,0.0,1.854247857,0.0,0.0,0.0,0.0,0.0,0.0,0.0,0.0,4.223632380000001,0.0,0.0,0.0,0.0,0.0,-0.0,0.0,0.0,2.8527829110000003,0.0,0.0012207030000004337,-0.28999999165534973,88.68000030517578,-108.58000183105469,1.01165771484375,-0.033447265625,0.00653076171875,35.349998474121094,0.0,-27.0,0.007232666015625,0.057403564453125,Waiting,0.0,0.0,0.0,0.0,0.0,0.0,0.0,0.0,
2.4891990000000224,0.0,0.0,0.0,0.0,0.0,0.0,0.0,0.125,3.875732025,0.0,0.0,0.0,0.0,0.0,-0.0,0.0,0.0,1.854247857,0.0,0.0,0.0,0.0,0.0,0.0,0.0,0.0,4.223632380000001,0.0,0.0,0.0,0.0,0.0,-0.0,0.0,0.0,2.8527829110000003,0.0,-0.0012207030000004337,-0.25999999046325684,88.66999816894531,-108.69000244140625,0.95001220703125,-0.01416015625,0.01702880859375,35.349998474121094,0.0,-37.0,0.009185791015625,0.0584716796875,Waiting,0.0,0.0,0.0,0.0,0.0,0.0,0.0,0.0,
2.528848999999929,0.0,0.0,0.0,0.0,0.0,0.0,0.0,0.125,3.874511322,0.0,0.0,0.0,0.0,0.0,-0.0,0.0,0.0,1.853027154,0.0,0.0,0.0,0.0,0.0,0.0,0.0,0.0,4.222411677,0.0,0.0,0.0,0.0,0.0,-0.0,0.0,0.0,2.8527829110000003,0.0,-0.0012207030000004337,-0.27000001072883606,88.69000244140625,-108.45999908447266,1.02679443359375,0.04315185546875,-0.0164794921875,35.349998474121094,0.0,-9.0,0.0102996826171875,0.0591583251953125,Waiting,0.0,0.0,0.0,0.0,0.0,0.0,0.0,0.0,
2.563657000000123,0.0,0.0,0.0,0.0,0.0,0.0,0.0,0.125,3.874511322,0.0,0.0,0.0,0.0,0.0,-0.0,0.0,0.0,1.853027154,0.0,0.0,0.0,0.0,0.0,0.0,0.0,0.0,4.223632380000001,0.0,0.0012207030000004337,0.0,0.0,0.0,-0.0,0.0,0.0,2.8540036140000002,0.0,0.0012207030000004337,-0.27000001072883606,88.66000366210938,-108.70999908447266,1.008544921875,-0.00189208984375,-0.02960205078125,35.349998474121094,0.0,6.0,0.011962890625,0.0606231689453125,Waiting,0.0,0.0,0.0,0.0,0.0,0.0,0.0,0.0,
2.592064000000013,0.0,0.0,0.0,0.0,0.0,0.0,0.0,0.125,3.875732025,0.0,0.0,0.0,0.0,0.0,-0.0,0.0,0.0,1.854247857,0.0,0.0,0.0,0.0,0.0,0.0,0.0,0.0,4.223632380000001,0.0,-0.0012207030000004337,0.0,0.0,0.0,-0.0,0.0,0.0,2.8527829110000003,0.0,0.0,-0.25,88.66000366210938,-108.81999969482422,0.97943115234375,-0.070068359375,-0.020263671875,35.349998474121094,0.0,2.0,0.013214111328125,0.0615386962890625,Waiting,0.0,0.0,0.0,0.0,0.0,0.0,0.0,0.0,
2.629617000000086,0.0,0.0,0.0,0.0,0.0,0.0,0.0,0.125,3.876952728,0.0,0.0,0.0,0.0,0.0,-0.0,0.0,0.0,1.854247857,0.0,0.0,0.0,0.0,0.0,0.0,0.0,0.0,4.223632380000001,0.0,-0.0012207030000004337,0.0,0.0,0.0,-0.0,0.0,0.0,2.8527829110000003,0.0,-0.0012207030000004337,-0.23999999463558197,88.69000244140625,-108.44999694824219,0.9476318359375,0.00372314453125,-0.03076171875,35.349998474121094,0.0,9.0,0.0143890380859375,0.0619049072265625,Waiting,0.0,0.0,0.0,0.0,0.0,0.0,0.0,0.0,
2.666444000000134,0.0,0.0,0.0,0.0,0.0,0.0,0.0,0.125,3.878173431,0.0,0.0,0.0,0.0,0.0,-0.0,0.0,0.0,1.853027154,0.0,0.0,0.0,0.0,0.0,0.0,0.0,0.0,4.223632380000001,0.0,0.0,0.0,0.0,0.0,-0.0,0.0,0.0,2.8527829110000003,0.0,-0.0012207030000004337,-0.25,88.66000366210938,-108.94999694824219,1.072265625,0.0338134765625,0.0,35.349998474121094,0.0,-27.0,0.0155487060546875,0.062042236328125,Waiting,0.0,0.0,0.0,0.0,0.0,0.0,0.0,0.0,
2.695381000000052,0.0,0.0,0.0,0.0,0.0,0.0,0.0,0.125,3.875732025,0.0,0.0,0.0,0.0,0.0,-0.0,0.0,0.0,1.853027154,0.0,0.0,0.0,0.0,0.0,0.0,0.0,0.0,4.223632380000001,0.0,0.0,0.0,0.0,0.0,-0.0,0.0,0.0,2.8527829110000003,0.0,0.0,-0.23000000417232513,88.69000244140625,-108.56999969482422,1.00115966796875,-0.04022216796875,-0.0506591796875,35.349998474121094,0.0,30.0,0.017181396484375,0.0625457763671875,Waiting,0.0,0.0,0.0,0.0,0.0,0.0,0.0,0.0,
2.730780999999959,0.0,0.0,0.0,0.0,0.0,0.0,0.0,0.125,3.874511322,0.0,0.0,0.0,0.0,0.0,-0.0,0.0,0.0,1.854247857,0.0,0.0,0.0,0.0,0.0,0.0,0.0,0.0,4.223632380000001,0.0,0.0,0.0,0.0,0.0,-0.0,0.0,0.0,2.8527829110000003,0.0,0.0012207030000004337,-0.2199999988079071,88.68000030517578,-108.69999694824219,0.95440673828125,-0.0247802734375,-0.03131103515625,35.349998474121094,0.0,11.0,0.0183563232421875,0.062713623046875,Waiting,0.0,0.0,0.0,0.0,0.0,0.0,0.0,0.0,
2.765627000000095,0.0,0.0,0.0,0.0,0.0,0.0,0.0,0.125,3.879394134,0.0,0.0,0.0,0.0,0.0,-0.0,0.0,0.0,1.854247857,0.0,0.0,0.0,0.0,0.0,0.0,0.0,0.0,4.222411677,0.0,0.0012207030000004337,0.0,0.0,0.0,-0.0,0.0,0.0,2.8540036140000002,0.0,0.0012207030000004337,-0.23000000417232513,88.66000366210938,-108.95999908447266,0.995849609375,0.04296875,-0.0101318359375,35.349998474121094,0.0,-15.0,0.0183563232421875,0.0628814697265625,Waiting,0.0,0.0,0.0,0.0,0.0,0.0,0.0,0.0,
2.795290999999968,0.0,0.0,0.0,0.0,0.0,0.0,0.0,0.125,3.8830562430000004,0.0,0.0,0.0,0.0,0.0,-0.0,0.0,0.0,1.853027154,0.0,0.0,0.0,0.0,0.0,0.0,0.0,0.0,4.223632380000001,0.0,0.0,0.0,0.0,0.0,-0.0,0.0,0.0,2.8527829110000003,0.0,0.0,-0.23999999463558197,88.68000030517578,-108.55000305175781,1.09832763671875,0.04852294921875,-0.025390625,35.349998474121094,0.0,-2.0,0.018280029296875,0.0632781982421875,Waiting,0.0,0.0,0.0,0.0,0.0,0.0,0.0,0.0,
2.8308610000000334,0.0,0.0,0.0,0.0,0.0,0.0,0.0,0.125,3.874511322,0.0,0.0,0.0,0.0,0.0,-0.0,0.0,0.0,1.853027154,0.0,0.0,0.0,0.0,0.0,0.0,0.0,0.0,4.223632380000001,0.0,0.0,0.0,0.0,0.0,-0.0,0.0,0.0,2.8527829110000003,0.0,0.0,-0.20999999344348907,88.68000030517578,-108.69000244140625,0.9793701171875,-0.05401611328125,-0.02899169921875,35.349998474121094,0.0,10.0,0.0182647705078125,0.064056396484375,Waiting,0.0,0.0,0.0,0.0,0.0,0.0,0.0,0.0,
2.869655999999959,0.0,0.0,0.0,0.0,0.0,-708.7499999999999,0.0,0.125,3.874511322,0.9832856330023872,0.0,0.0,0.25,0.0,708.7499999999999,0.0,0.0,1.854247857,0.9803143831041123,0.0,0.0,0.375,0.0,-708.7499999999999,0.0,0.0,4.223632380000001,0.9813047997368707,0.0,0.0,0.375,0.0,708.7499999999999,0.0,0.0,2.8552243170000002,0.9800172581142849,-0.0012207030000004337,-0.2199999988079071,88.66999816894531,-108.80000305175781,0.937255859375,-0.00225830078125,-0.01629638671875,35.349998474121094,0.0,-5.0,0.0182647705078125,0.064361572265625,Waiting,0.0,0.0,0.0,0.0,0.0,0.0,0.0,0.0,
2.9008830000001473,0.0,0.0,0.0,1.75,0.0,-1949.0624999999998,0.0,0.125,3.879394134,0.9817688468085396,0.0,0.0,0.875,0.0,1949.0624999999998,0.0,3.75,1.906738086,0.9788021802690293,0.0,0.0,7.5,0.0,-1949.0624999999998,0.0,5.0,4.256591361,0.9797910691155328,0.0,0.0,5.875,82.5,1949.0624999999998,0.0,2.0,2.934570012,0.9785055136150784,0.0,-0.2199999988079071,88.66999816894531,-108.80000305175781,1.0960693359375,-0.0185546875,-0.06451416015625,35.33000183105469,0.0,40.0,0.018035888671875,0.0649871826171875,Waiting,0.0,0.0,0.0,0.0,0.0,0.0,0.0,0.0,
2.9358950000000186,0.0,0.0,0.0,8.75,0.0,-2520.0,0.0,5.5,3.974608968,0.9817688468085396,0.007324218000000382,0.0,12.5,0.0,2520.0,0.0,5.125,2.089843536,0.9788021802690293,0.0,0.0,10.375,0.0,-2520.0,0.0,6.375,4.465331574,0.9797910691155328,0.0,0.0,8.25,247.5,2520.0,0.0,7.375,3.1604000670000003,0.9785055136150784,0.0,-0.20999999344348907,88.6500015258789,-109.05999755859375,0.9459228515625,-0.05999755859375,0.0335693359375,35.33000183105469,0.0,-51.0,0.0179443359375,0.0649261474609375,Waiting,0.0,0.0,0.0,0.0,0.0,0.0,0.0,0.0,
2.9734229999999515,0.0,0.0,0.0,12.25,0.0,-2520.0,0.0,5.875,4.282226124,0.9781838114420573,0.18798826200000018,1.0,16.75,0.0,2520.0,0.0,2.125,2.353515384,0.9752279780069987,0.23681638199999977,0.0,13.75,0.0,-2520.0,0.0,2.0,4.733886234,0.9762132558186849,0.24536130300000014,141.0,8.75,990.0,2520.0,0.0,0.875,3.408202776,0.9749323946634928,0.2502441150000001,-0.20000000298023224,88.66000366210938,-109.05000305175781,0.99957275390625,-0.05419921875,-0.12969970703125,35.33000183105469,0.0,109.0,0.0177001953125,0.0646209716796875,Waiting,0.0,0.0,0.0,0.0,0.0,0.0,0.0,0.0,
3.013873000000138,0.0,0.0,0.0,14.125,0.0,-2520.0,0.0,0.625,4.611815934,0.9810794654846192,0.0,1.0,14.0,0.0,2520.0,0.0,0.375,2.617187232,0.9781148820877075,0.0,0.0,13.125,0.0,-2520.0,0.0,0.125,0.072021477,0.9791030765533447,0.0,141.0,2.5,1957.5,2520.0,0.0,0.25,3.6938472780000002,0.9778184237480163,0.24169919400000017,-0.17000000178813934,88.72000122070312,-108.18000030517578,0.94354248046875,-0.15618896484375,-0.22430419921875,35.33000183105469,0.0,213.0,0.0171051025390625,0.064453125,Waiting,0.0,0.0,0.0,0.0,0.0,0.0,0.0,0.0,
3.0483900000001305,0.0,0.0,0.0,11.375,0.0,-2520.0,0.0,0.25,4.8205561470000005,0.9903179957919652,0.0,1.0,9.5,0.0,2520.0,0.0,0.125,2.781982137,0.9873254958046807,0.0,0.0,11.0,0.0,-2520.0,0.0,0.0,0.225830055,0.9883229958004421,0.0,141.0,0.0,2452.5,2520.0,0.0,0.0,3.927001551,0.9870262458059522,0.0,-0.1899999976158142,88.66999816894531,-108.8499984741211,1.04437255859375,0.01287841796875,-0.06689453125,35.33000183105469,0.0,41.0,0.0175323486328125,0.0640869140625,Waiting,0.0,0.0,0.0,0.0,0.0,0.0,0.0,0.0,
3.084976000000024,0.0,0.0,0.0,7.625,0.0,-2520.0,0.0,0.125,4.9255366050000005,0.9825962516784669,0.19287107400000014,1.0,6.75,0.0,2520.0,0.0,0.0,2.861327832,0.9796270849227905,0.0,0.0,8.125,0.0,-2520.0,0.0,0.0,0.301513641,0.9806168071746826,0.0,521.0,0.0,2422.5,2520.0,0.0,0.0,4.061278881,0.9793301682472229,0.0,-0.20000000298023224,88.66000366210938,-108.91999816894531,1.07586669921875,-0.08258056640625,-0.04888916015625,35.33000183105469,0.0,29.0,0.0189666748046875,0.0638580322265625,Waiting,0.0,0.0,0.0,0.0,0.0,0.0,0.0,0.0,
3.1240700000000654,0.0,0.0,0.0,6.0,0.0,-2520.0,0.0,0.25,0.018310545,0.980114247470432,0.09765624000000006,1.0,5.375,0.0,2520.0,0.0,0.125,2.927245794,0.9771525807274712,0.09033202199999968,0.0,4.875,0.0,-2520.0,0.0,0.0,0.34179684,0.9781398029751248,0.07568358600000025,521.0,1.25,2055.0,2520.0,0.0,0.0,4.061278881,0.9768564140531751,0.13061522099999978,-0.2199999988079071,88.66999816894531,-108.75,0.9881591796875,0.02197265625,0.01483154296875,35.33000183105469,0.0,-39.0,0.0201263427734375,0.063446044921875,Waiting,0.0,0.0,0.0,0.0,0.0,0.0,0.0,0.0,
3.1529920000000855,0.0,0.0,0.0,4.0,0.0,-2520.0000000000005,0.0,0.125,0.042724605,0.9824583333333334,0.0,1.0,4.375,0.0,2520.0000000000005,0.0,0.125,2.940673527,0.9794895833333332,0.0,0.0,3.875,0.0,-2520.0000000000005,0.0,0.0,0.37841793,0.9804791666666667,0.0,521.0,4.125,1762.5,2520.0000000000005,0.0,0.0,4.029540603,0.9791927083333333,0.0,-0.23999999463558197,88.69999694824219,-108.23999786376953,1.031494140625,0.02264404296875,-0.05474853515625,35.33000183105469,0.0,29.0,0.021453857421875,0.0631103515625,Waiting,0.0,0.0,0.0,0.0,0.0,0.0,0.0,0.0,
3.189557999999961,0.0,0.0,0.0,3.0,0.0,-2520.0,0.0,0.125,0.046386714,0.9894906961229114,0.023193357000000248,0.0,3.875,0.0,2520.0,0.0,0.0,2.940673527,0.9865006960339016,0.0,0.0,3.75,0.0,-2520.0,0.0,0.0,0.360107385,0.9874973627302381,0.0,822.0,4.75,1755.0,2520.0,0.0,0.0,3.977050374,0.9862016960250006,0.0,-0.23000000417232513,88.66999816894531,-108.76000213623047,0.98077392578125,-0.0224609375,0.01861572265625,35.33000183105469,0.0,-39.0,0.0223846435546875,0.0627899169921875,Waiting,0.0,0.0,0.0,0.0,0.0,0.0,0.0,0.0,
3.2276500000001396,0.0,0.0,0.0,2.875,0.0,-2520.0,0.0,0.125,0.031738278,0.9823204149882,0.0012207029999999897,0.0,3.5,0.0,2520.0,0.0,0.0,2.930907903,0.9793520817438761,0.0,0.0,3.875,0.0,-2520.0,0.0,0.0,0.32958981000000004,0.9803415261586507,-0.019531247999999835,822.0,3.625,2017.5,2520.0,0.0,0.0,3.920898036,0.9790552484194437,-0.05004882300000002,-0.23000000417232513,88.68000030517578,-108.61000061035156,1.086181640625,0.05133056640625,0.0313720703125,35.33000183105469,0.0,-59.0,0.0233154296875,0.0623779296875,Waiting,0.0,0.0,0.0,0.0,0.0,0.0,0.0,0.0,
3.268346000000136,0.0,0.0,0.0,2.75,0.0,-2520.0,0.0,0.125,4.929198714,0.980252060614692,0.0,0.0,3.5,0.0,2520.0,0.0,0.0,2.926025091,0.9772899774339463,0.0,0.0,3.75,0.0,-2520.0,0.0,0.0,0.301513641,0.9782773384941948,0.0,822.0,1.25,2355.0,2520.0,0.0,0.0,3.868407807,0.9769937691158719,-0.05493163499999998,-0.20000000298023224,88.66999816894531,-108.7699966430664,1.026611328125,-0.0743408203125,0.0045166015625,35.33000183105469,0.0,-23.0,0.0245513916015625,0.062042236328125,Waiting,0.0,0.0,0.0,0.0,0.0,0.0,0.0,0.0,
3.300576000000117,0.0,0.0,0.0,2.625,0.0,-2520.0,0.0,0.125,4.884032703,0.98218260184394,0.0,0.0,3.5,0.0,2520.0,0.0,0.0,2.912597358,0.979214685037401,0.0,0.0,3.5,0.0,-2520.0,0.0,0.0,0.27832028400000003,0.9802039906395806,0.0,1211.0,0.625,2467.5,2520.0,0.0,0.0,3.8330074200000004,0.9789178933567471,0.0,-0.2199999988079071,88.66999816894531,-108.7300033569336,1.04571533203125,0.0189208984375,0.0234375,35.33000183105469,0.0,-48.0,0.0255584716796875,0.06146240234375,Waiting,0.0,0.0,0.0,0.0,0.0,0.0,0.0,0.0,
3.3365230000000445,0.0,0.0,0.0,2.375,0.0,-2520.0,0.0,0.125,4.853515128000001,0.9827340648227268,-0.048828120000000474,0.0,4.0,0.0,2520.0,0.0,0.0,2.9064938430000002,0.9797644816292657,0.0,0.0,3.0,0.0,-2520.0,0.0,0.0,0.273437472,0.9807543426937527,0.0,1211.0,0.75,2422.5,2520.0,0.0,0.0,3.804931251,0.9794675233099196,0.0,-0.23000000417232513,88.72000122070312,-108.11000061035156,0.939697265625,-0.015869140625,-0.0731201171875,35.33000183105469,0.0,53.0,0.0260467529296875,0.06146240234375,Waiting,0.0,0.0,0.0,0.0,0.0,0.0,0.0,0.0,
3.374285000000149,0.0,0.0,0.0,2.125,0.0,-2520.0,0.0,0.125,4.827880365,0.9912832138061525,-0.03173827799999973,0.0,3.25,0.0,2520.0,0.0,0.0,2.9016110310000003,0.9882877971649169,-0.007324217999999938,0.0,2.875,0.0,-2520.0,0.0,0.0,0.263671848,0.9892862693786622,-0.010986326999999907,1211.0,2.0,2257.5,2520.0,0.0,0.0,3.7768550820000004,0.9879882555007934,-0.032958981000000165,-0.23000000417232513,88.69999694824219,-108.37000274658203,0.9874267578125,-0.0467529296875,0.03448486328125,35.33000183105469,0.0,-53.0,0.026519775390625,0.0612335205078125,Waiting,0.0,0.0,0.0,0.0,0.0,0.0,0.0,0.0,
3.4109810000001453,0.0,0.0,0.0,2.0,0.0,-2520.0,0.0,0.125,4.819335444,0.9876980732387968,0.0,0.0,3.125,0.0,2520.0,0.0,0.0,2.9016110310000003,0.9847134900199042,0.0,0.0,3.25,0.0,-2520.0,0.0,0.0,0.263671848,0.9857083510928684,0.0,1211.0,3.375,2160.0,2520.0,0.0,0.0,3.7280269620000004,0.984415031698015,0.0,-0.23000000417232513,88.66000366210938,-108.87000274658203,1.05908203125,0.0498046875,-0.09063720703125,35.36000061035156,0.0,62.0,0.027191162109375,0.0607147216796875,Waiting,0.0,0.0,0.0,0.0,0.0,0.0,0.0,0.0,
3.4507390000000595,0.0,0.0,0.0,2.125,0.0,-2520.0,0.0,0.0,4.819335444,0.9808036287943523,0.0,1.0,3.375,0.0,2520.0,0.0,0.0,2.9028317340000003,0.9778398789087931,0.0,0.0,3.5,0.0,-2520.0,0.0,0.0,0.262451145,0.9788277955373128,0.0,1566.0,3.0,2235.0,2520.0,0.0,0.0,3.753661725,0.9775435039202373,0.0,-0.1599999964237213,88.62999725341797,-109.37000274658203,1.02728271484375,-0.00689697265625,-0.05194091796875,35.36000061035156,0.0,27.0,0.0283966064453125,0.06060791015625,Waiting,0.0,0.0,0.0,0.0,0.0,0.0,0.0,0.0,
3.488633000000147,0.0,0.0,0.0,2.125,0.0,-2520.0,0.0,0.0,4.819335444,0.9739091843499079,0.0012207029999995456,1.0,3.375,0.0,2520.0,0.0,0.0,2.9040524370000003,0.9709662677976819,0.0,0.0,3.5,0.0,-2520.0,0.0,0.0,0.263671848,0.9719472399817572,0.0,1566.0,2.0,2400.0,2520.0,0.0,0.0,3.7817378940000004,0.9706719761424594,0.0,-0.14000000059604645,88.6500015258789,-109.0999984741211,1.03118896484375,0.0172119140625,0.04315185546875,35.36000061035156,0.0,-68.0,0.0292816162109375,0.060455322265625,Waiting,0.0,0.0,0.0,0.0,0.0,0.0,0.0,0.0,
3.525434000000125,0.0,0.0,0.0,2.125,0.0,-2520.0,0.0,0.0,4.8205561470000005,0.9776322432623971,0.0,1.0,3.875,0.0,2520.0,0.0,0.0,2.9040524370000003,0.9746780765321519,0.0,0.0,3.25,0.0,-2520.0,0.0,0.0,0.263671848,0.9756627987755669,0.0,1566.0,1.625,2452.5,2520.0,0.0,0.0,3.82080039,0.9743826598591274,0.032958981000000165,-0.12999999523162842,88.69000244140625,-108.61000061035156,1.00164794921875,0.09246826171875,-0.04241943359375,35.36000061035156,0.0,13.0,0.0299835205078125,0.0605926513671875,Waiting,0.0,0.0,0.0,0.0,0.0,0.0,0.0,0.0,
3.5556680000000633,0.0,0.0,0.0,2.125,0.0,-2520.0000000000005,0.0,0.0,4.8205561470000005,0.984388769361708,0.0,1.0,4.0,0.0,2520.0000000000005,0.0,0.0,2.9028317340000003,0.9814141860538058,0.0,0.0,3.0,0.0,-2520.0000000000005,0.0,0.0,0.263671848,0.9824057138231066,0.0,1961.0,1.375,2475.0,2520.0000000000005,0.0,0.0,3.8305660140000004,0.9811167277230156,0.0,-0.10000000149011612,88.68000030517578,-108.75,0.92425537109375,-0.14593505859375,-0.087158203125,35.36000061035156,0.0,75.0,0.03082275390625,0.06085205078125,Waiting,0.0,0.0,0.0,0.0,0.0,0.0,0.0,0.0,
3.5920749999999533,0.0,0.0,0.0,2.125,0.0,-2520.0000000000005,0.0,0.0,4.819335444,0.9824583333333334,0.0,1.0,3.125,0.0,2520.0000000000005,0.0,0.0,2.9016110310000003,0.9794895833333332,0.0,0.0,3.25,0.0,-2520.0000000000005,0.0,0.0,0.26489255100000003,0.9804791666666667,0.0,1961.0,1.625,2445.0,2520.0000000000005,0.0,0.0,3.8403316380000003,0.9791927083333333,0.0,-0.10000000149011612,88.66000366210938,-108.94999694824219,0.949951171875,0.0928955078125,0.0703125,35.36000061035156,0.0,-98.0,0.0317840576171875,0.060943603515625,Waiting,0.0,0.0,0.0,0.0,0.0,0.0,0.0,0.0,
3.6287129999999888,0.0,0.0,0.0,2.0,0.0,-2520.0000000000005,0.0,0.0,4.8181147410000005,0.9797005976359051,-0.0024414059999999793,1.0,2.875,0.0,2520.0000000000005,0.0,0.0,2.9016110310000003,0.9767401808420817,0.0,0.0,3.25,0.0,-2520.0000000000005,0.0,0.0,0.262451145,0.9777269864400228,0.0,1961.0,2.125,2377.5,2520.0000000000005,0.0,0.0,3.8403316380000003,0.9764441391626993,0.009765623999999917,-0.07000000029802322,88.68000030517578,-108.66000366210938,1.12249755859375,0.07049560546875,-0.064697265625,35.36000061035156,0.0,33.0,0.0325164794921875,0.0614776611328125,Waiting,0.0,0.0,0.0,0.0,0.0,0.0,0.0,0.0,
3.663746000000043,0.0,0.0,0.0,2.0,0.0,-2520.0,0.0,0.0,4.8181147410000005,0.9834235513475207,0.0,1.0,2.875,0.0,2520.0,0.0,0.0,2.9016110310000003,0.9804518846935696,0.0,0.0,3.0,0.0,-2520.0,0.0,0.0,0.263671848,0.9814424402448866,0.0,2343.0,2.625,2362.5,2520.0,0.0,0.0,3.8391109350000003,0.9801547180281744,0.0,-0.03999999910593033,88.68000030517578,-108.66999816894531,1.0120849609375,0.07452392578125,0.0355224609375,35.36000061035156,0.0,-63.0,0.0339508056640625,0.062225341796875,Waiting,0.0,0.0,0.0,0.0,0.0,0.0,0.0,0.0,
3.695625,0.0,0.0,0.0,2.125,0.0,-2520.0,0.0,0.0,4.819335444,0.9835614696926542,0.0,1.0,3.25,0.0,2520.0,0.0,0.0,2.9016110310000003,0.9805893862830267,0.0,0.0,2.875,0.0,-2520.0,0.0,0.0,0.262451145,0.9815800807529026,0.0,2343.0,2.375,2407.5,2520.0,0.0,0.0,3.8391109350000003,0.980292177942064,0.0,-0.019999999552965164,88.69999694824219,-108.37999725341797,1.1513671875,-0.0067138671875,-0.07208251953125,35.36000061035156,0.0,46.0,0.0347137451171875,0.062835693359375,Waiting,0.0,0.0,0.0,0.0,0.0,0.0,0.0,0.0,
3.7329680000001098,0.0,0.0,0.0,2.125,0.0,-2520.0,0.0,0.0,4.819335444,0.9943167861938478,-0.0012207030000004337,1.0,3.375,0.0,2520.0,0.0,0.0,2.9028317340000003,0.9913122028350829,0.0,0.0,3.25,0.0,-2520.0,0.0,0.0,0.263671848,0.9923137306213379,0.0,2343.0,2.125,2445.0,2520.0,0.0,0.0,3.8391109350000003,0.9910117444992065,0.0,-0.03999999910593033,88.73999786376953,-107.88999938964844,1.0858154296875,-0.0447998046875,0.05633544921875,35.36000061035156,0.0,-76.0,0.035675048828125,0.0627899169921875,Waiting,0.0,0.0,0.0,0.0,0.0,0.0,0.0,0.0,
3.7686990000000224,0.0,0.0,0.0,2.125,0.0,-2520.0,0.0,0.0,4.819335444,0.9944547045389812,0.0,1.0,3.375,0.0,2520.0,0.0,0.0,2.9016110310000003,0.9914497044245402,0.0,0.0,3.25,0.0,-2520.0,0.0,0.0,0.263671848,0.9924513711293539,0.0,2343.0,1.75,2482.5,2520.0,0.0,0.0,3.8391109350000003,0.9911492044130961,0.0,-0.03999999910593033,88.76000213623047,-107.62999725341797,1.06048583984375,-0.04473876953125,-0.00286865234375,35.36000061035156,0.0,-16.0,0.036834716796875,0.062469482421875,Waiting,0.0,0.0,0.0,0.0,0.0,0.0,0.0,0.0,
3.7967409999999218,0.0,0.0,0.0,2.125,0.0,-2520.0000000000005,0.0,0.125,4.814452632,0.9979019267612035,0.0,0.0,3.375,0.0,2520.0000000000005,0.0,0.0,2.9016110310000003,0.9948865099800956,0.0,0.0,3.25,0.0,-2520.0000000000005,0.0,0.0,0.262451145,0.9958916489071317,0.0,2741.0,1.75,2490.0,2520.0000000000005,0.0,0.0,3.8391109350000003,0.994584968301985,0.0,-0.05999999865889549,88.77999877929688,-107.3499984741211,1.15155029296875,-0.00799560546875,-0.044189453125,35.36000061035156,0.0,20.0,0.0377349853515625,0.0621490478515625,Waiting,0.0,0.0,0.0,0.0,0.0,0.0,0.0,0.0,
3.834118999999948,0.0,0.0,0.0,2.125,0.0,-2520.0,0.0,0.125,4.8205561470000005,1.0017627988179525,-0.0012207029999995456,0.0,3.125,0.0,2520.0,0.0,0.0,2.9028317340000003,0.9987357154210408,0.0,0.0,3.25,0.0,-2520.0,0.0,0.0,0.263671848,0.9997447432200114,0.0012207029999999897,2741.0,2.0,2467.5,2520.0,0.0,0.0,3.8391109350000003,0.9984330070813496,0.0,-0.10999999940395355,88.79000091552734,-107.2699966430664,0.91961669921875,-0.03070068359375,-0.051513671875,35.36000061035156,0.0,34.0,0.0390167236328125,0.062042236328125,Waiting,0.0,0.0,0.0,0.0,0.0,0.0,0.0,0.0,
3.874084000000032,0.0,0.0,0.0,2.0,0.0,-2520.0000000000005,0.0,0.125,4.819335444,1.0047963712056478,0.0,0.0,2.75,0.0,2520.0000000000005,0.0,0.0,2.9028317340000003,1.0017601210912068,0.0,0.0,3.25,0.0,-2520.0000000000005,0.0,0.0,0.262451145,1.0027722044626872,-0.0012207029999999897,2741.0,2.25,2445.0,2520.0000000000005,0.0,0.0,3.8391109350000003,1.0014564960797627,0.0,-0.14000000059604645,88.77999877929688,-107.26000213623047,0.9783935546875,0.0205078125,-0.060791015625,35.36000061035156,0.0,38.0,0.039886474609375,0.0616912841796875,Waiting,0.0,0.0,0.0,0.0,0.0,0.0,0.0,0.0,
3.910137000000104,0.0,0.0,0.0,2.125,0.0,-2520.0,0.0,0.125,4.819335444,1.0030037483215333,0.0,1.0,2.75,0.0,2520.0,0.0,0.0,2.9028317340000003,0.9999729150772094,0.0,0.0,3.0,0.0,-2520.0,0.0,0.0,0.263671848,1.0009831928253174,0.0,3134.0,2.25,2445.0,2520.0,0.0,0.0,3.8378902320000003,0.9996698317527771,0.0,-0.1899999976158142,88.7699966430664,-107.41999816894531,1.0086669921875,0.041015625,-0.00836181640625,35.36000061035156,0.0,-15.0,0.040679931640625,0.0613861083984375,Waiting,0.0,0.0,0.0,0.0,0.0,0.0,0.0,0.0,
3.9435960000001358,0.0,0.0,0.0,2.0,0.0,-2520.0,0.0,0.125,4.819335444,1.0007975808037652,-0.0024414059999999793,1.0,3.125,0.0,2520.0,0.0,0.0,2.9028317340000003,0.9977734140608046,0.0,0.0,3.25,0.0,-2520.0,0.0,0.0,0.263671848,0.9987814696417915,0.0,3134.0,2.25,2460.0,2520.0,0.0,0.0,3.8513179650000002,0.9974709973865085,0.0,-0.1899999976158142,88.77999877929688,-107.30999755859375,0.938720703125,-0.10430908203125,-0.07794189453125,35.36000061035156,0.0,64.0,0.0421295166015625,0.060821533203125,Waiting,0.0,0.0,0.0,0.0,0.0,0.0,0.0,0.0,
3.977312000000151,0.0,0.0,0.0,2.0,0.0,-2520.0000000000005,0.0,0.125,4.819335444,1.002314366997613,0.0024414059999999793,1.0,3.125,0.0,2520.0000000000005,0.0,0.0,2.9028317340000003,0.9992856168958876,0.0,0.0,3.0,0.0,-2520.0000000000005,0.0,0.0,0.263671848,1.0002952002631293,0.0,3134.0,2.0,2490.0,2520.0000000000005,0.0,0.0,3.8391109350000003,0.998982741885715,0.0,-0.23000000417232513,88.76000213623047,-107.41000366210938,1.053955078125,0.010498046875,-0.03973388671875,35.36000061035156,0.0,16.0,0.0433197021484375,0.0605010986328125,Waiting,0.0,0.0,0.0,0.0,0.0,0.0,0.0,0.0,
4.013415999999968,0.0,0.0,0.0,2.125,0.0,-2520.0,0.0,0.125,4.819335444,1.0009353939480252,0.0,1.0,3.125,0.0,2520.0,0.0,0.0,2.9028317340000003,0.9979108107672797,0.0,0.0,2.875,0.0,-2520.0,0.0,0.0,0.26855466,0.9989190051608615,0.0,3134.0,2.0,2505.0,2520.0,0.0,0.0,3.8439937470000003,0.9976083524492052,0.0,-0.25,88.75,-107.56999969482422,1.04119873046875,0.00762939453125,0.04052734375,35.36000061035156,0.0,-63.0,0.04327392578125,0.0605010986328125,Waiting,0.0,0.0,0.0,0.0,0.0,0.0,0.0,0.0,
4.049674000000116,0.0,0.0,0.0,2.125,0.0,-2519.9999999999995,0.0,0.125,4.819335444,0.9983155765957303,0.0,0.0,3.125,0.0,2519.9999999999995,0.0,0.0,2.9028317340000003,0.9952989098654852,0.0,0.0,3.25,0.0,-2519.9999999999995,0.0,0.0,0.263671848,0.9963044654422336,0.0,3535.0,2.0,2505.0,2519.9999999999995,0.0,0.0,3.8391109350000003,0.9949972431924607,0.0,-0.25,88.70999908447266,-108.06999969482422,0.9674072265625,0.0706787109375,-0.0198974609375,35.36000061035156,0.0,-6.0,0.043304443359375,0.0602569580078125,Waiting,0.0,0.0,0.0,0.0,0.0,0.0,0.0,0.0,
4.0867530000000265,0.0,0.0,0.0,2.125,0.0,-2520.0,0.0,0.125,4.8205561470000005,0.9918347819858129,-0.0024414059999999793,0.0,3.125,0.0,2520.0,0.0,0.0,2.9028317340000003,0.9888376986397637,0.0,0.0,3.5,0.0,-2520.0,0.0,0.0,0.263671848,0.9898367264217801,0.0,3535.0,2.0,2490.0,2520.0,0.0,0.0,3.8403316380000003,0.9885379903051588,0.0,-0.23000000417232513,88.7300033569336,-107.91000366210938,1.12579345703125,0.06317138671875,0.0364990234375,35.36000061035156,0.0,-65.0,0.0432586669921875,0.0601959228515625,Waiting,0.0,0.0,0.0,0.0,0.0,0.0,0.0,0.0,
4.12130700000003,0.0,0.0,0.0,2.125,0.0,-2520.0,0.0,0.125,4.8205561470000005,0.9940409495035808,0.0,0.0,3.125,0.0,2520.0,0.0,0.0,2.9028317340000003,0.9910371996561685,0.0,0.0,3.25,0.0,-2520.0,0.0,0.0,0.263671848,0.992038449605306,0.0,3535.0,2.25,2475.0,2520.0,0.0,0.0,3.8391109350000003,0.9907368246714274,0.0,-0.20000000298023224,88.70999908447266,-108.18000030517578,1.02288818359375,-0.07177734375,0.02630615234375,35.36000061035156,0.0,-44.0,0.0434722900390625,0.0604095458984375,Waiting,0.0,0.0,0.0,0.0,0.0,0.0,0.0,0.0,
4.154611999999965,0.0,0.0,0.0,2.125,0.0,-2520.0,0.0,0.125,4.819335444,0.9903179957919652,0.0,1.0,3.25,0.0,2520.0,0.0,0.0,2.9028317340000003,0.9873254958046807,0.0,0.0,3.25,0.0,-2520.0,0.0,0.0,0.263671848,0.9883229958004421,0.0,3932.0,2.25,2475.0,2520.0,0.0,0.0,3.8403316380000003,0.9870262458059522,0.0,-0.18000000715255737,88.72000122070312,-108.0199966430664,1.005126953125,0.0731201171875,0.0670166015625,35.36000061035156,0.0,-94.0,0.04364013671875,0.0605316162109375,Waiting,0.0,0.0,0.0,0.0,0.0,0.0,0.0,0.0,
4.189955000000075,0.0,0.0,0.0,2.125,0.0,-2520.0,0.0,0.125,4.819335444,0.9925242685106067,0.0012207030000004337,1.0,3.25,0.0,2520.0,0.0,0.0,2.9016110310000003,0.9895251017040676,0.0,0.0,3.25,0.0,-2520.0,0.0,0.0,0.263671848,0.990524823972914,0.0,3932.0,2.125,2490.0,2520.0,0.0,0.0,3.8391109350000003,0.9892251850234137,0.0,-0.17000000178813934,88.70999908447266,-108.29000091552734,0.98956298828125,-0.0357666015625,-0.13677978515625,35.36000061035156,0.0,116.0,0.043670654296875,0.06085205078125,Waiting,0.0,0.0,0.0,0.0,0.0,0.0,0.0,0.0,
4.22606799999997,0.0,0.0,0.0,2.0,0.0,-2520.0,0.0,0.125,4.8107905230000005,0.9888012095981176,0.0,1.0,3.5,0.0,2520.0,0.0,0.0,2.9016110310000003,0.9858132929695976,0.0,0.0,3.5,0.0,-2520.0,0.0,0.0,0.262451145,0.9868092651791043,0.0012207029999999897,3932.0,2.0,2512.5,2520.0,0.0,0.0,3.8391109350000003,0.9855145013067457,0.0,-0.14000000059604645,88.72000122070312,-108.0,0.8941650390625,0.041748046875,-0.0013427734375,35.36000061035156,0.0,-21.0,0.0439453125,0.061279296875,Waiting,0.0,0.0,0.0,0.0,0.0,0.0,0.0,0.0,
4.257398000000045,0.0,0.0,0.0,2.125,0.0,-2520.0000000000005,0.0,0.125,4.819335444,0.9928000000000001,0.0,1.0,3.375,0.0,2520.0000000000005,0.0,0.0,2.9028317340000003,0.9897999999999999,0.0,0.0,3.5,0.0,-2520.0000000000005,0.0,0.0,0.263671848,0.9908,0.0,4336.0,2.0,2512.5,2520.0000000000005,0.0,0.0,3.8378902320000003,0.9894999999999999,0.0,-0.14000000059604645,88.70999908447266,-108.12999725341797,1.0230712890625,-0.040283203125,-0.05859375,35.36000061035156,0.0,38.0,0.0439910888671875,0.061614990234375,Waiting,0.0,0.0,0.0,0.0,0.0,0.0,0.0,0.0,
4.295708000000101,0.0,0.0,0.0,2.125,0.0,-2520.0,0.0,0.125,4.8205561470000005,0.9910074823167591,0.0,0.0,3.25,0.0,2520.0,0.0,0.0,2.9016110310000003,0.9880128988689846,0.0,0.0,3.25,0.0,-2520.0,0.0,0.0,0.263671848,0.9890110933515761,0.0,4336.0,2.0,2520.0,2520.0,0.0,0.0,3.8403316380000003,0.9877134405242072,0.0,-0.15000000596046448,88.73999786376953,-107.87000274658203,1.02117919921875,0.04638671875,0.00189208984375,35.36000061035156,0.0,-27.0,0.04400634765625,0.0619049072265625,Waiting,0.0,0.0,0.0,0.0,0.0,0.0,0.0,0.0,
4.331100000000093,0.0,0.0,0.0,2.125,0.0,-2520.0,0.0,0.125,4.8205561470000005,0.9981776582505969,0.0012207029999995456,0.0,3.375,0.0,2520.0,0.0,0.0,2.9028317340000003,0.9951614082760281,0.0,0.0,3.0,0.0,-2520.0,0.0,0.0,0.26489255100000003,0.9961668249342177,0.0012207029999999897,4336.0,2.0,2512.5,2520.0,0.0,0.0,3.8403316380000003,0.9948597832785712,0.0,-0.1599999964237213,88.73999786376953,-107.9000015258789,1.052734375,-0.08270263671875,-0.11956787109375,35.36000061035156,0.0,101.0,0.04400634765625,0.0620574951171875,Waiting,0.0,0.0,0.0,0.0,0.0,0.0,0.0,0.0,
4.369624000000069,0.0,0.0,0.0,2.0,0.0,-2520.0000000000005,0.0,0.125,4.8205561470000005,0.9965229537116158,0.0,0.0,3.25,0.0,2520.0000000000005,0.0,0.0,2.9040524370000003,0.9935117038514878,0.0,0.0,3.25,0.0,-2520.0000000000005,0.0,0.0,0.263671848,0.9945154538048638,0.0,4336.0,2.0,2505.0,2520.0000000000005,0.0,0.0,3.8403316380000003,0.9932105788654751,0.0,-0.20000000298023224,88.75,-107.63999938964844,1.080078125,0.070068359375,0.02911376953125,35.36000061035156,0.0,-57.0,0.044097900390625,0.0619964599609375,Waiting,0.0,0.0,0.0,0.0,0.0,0.0,0.0,0.0,
4.398167000000132,0.0,0.0,0.0,2.0,0.0,-2520.0,0.0,0.125,4.8181147410000005,0.99776400841607,0.0,0.0,3.375,0.0,2520.0,0.0,0.0,2.9016110310000003,0.9947490083906385,0.0,0.0,3.25,0.0,-2520.0,0.0,0.0,0.26489255100000003,0.9957540083991157,0.0,4737.0,2.125,2505.0,2520.0,0.0,0.0,3.8391109350000003,0.9944475083880954,0.0,-0.1899999976158142,88.77999877929688,-107.26000213623047,1.057861328125,-0.152587890625,-0.035888671875,35.36000061035156,0.0,23.0,0.0440521240234375,0.0621490478515625,Waiting,0.0,0.0,0.0,0.0,0.0,0.0,0.0,0.0,
4.436169999999925,0.0,0.0,0.0,2.125,0.0,-866.25,0.0,0.125,4.819335444,1.0028659351772733,0.0024414059999999793,0.0,3.25,0.0,866.25,0.0,0.0,2.9016110310000003,0.9998355183707343,0.0,0.0,3.25,0.0,-866.25,0.0,0.0,0.263671848,1.0008456573062472,0.0,4737.0,1.5,2505.0,866.25,0.0,0.0,3.8476558560000003,0.9995324766900804,0.0,-0.23999999463558197,88.7699966430664,-107.23999786376953,1.1087646484375,0.03338623046875,0.1361083984375,35.349998474121094,0.0,-161.0,0.0441436767578125,0.0617523193359375,Waiting,0.0,0.0,0.0,0.0,0.0,0.0,0.0,0.0,
4.474802000000142,0.0,0.0,0.0,1.25,0.0,0.0,0.0,0.125,4.819335444,1.0028659351772733,0.0,0.0,1.75,0.0,0.0,0.0,0.0,2.9016110310000003,0.9998355183707343,0.0,0.0,1.375,0.0,0.0,0.0,0.0,0.263671848,1.0008456573062472,0.0,4737.0,0.75,2437.5,0.0,0.0,0.0,3.8964839760000003,0.9995324766900804,0.0,-0.27000001072883606,88.81999969482422,-106.62000274658203,1.13592529296875,-0.10968017578125,0.03155517578125,35.349998474121094,0.0,-47.0,0.0437774658203125,0.06158447265625,Waiting,0.0,0.0,0.0,0.0,0.0,0.0,0.0,0.0,
4.512880000000121,0.0,0.0,0.0,0.375,0.0,0.0,0.0,0.125,4.8205561470000005,1.0028659351772733,-0.0024414059999999793,1.0,0.5,0.0,0.0,0.0,0.0,2.9028317340000003,0.9998355183707343,0.0,0.0,0.5,0.0,0.0,0.0,0.0,0.263671848,1.0008456573062472,0.0,4989.0,0.0,1575.0,0.0,0.0,0.0,3.911132412,0.9995324766900804,0.06103514999999993,-0.36000001430511475,88.80000305175781,-106.4800033569336,0.99652099609375,-0.0333251953125,0.13848876953125,35.349998474121094,0.0,-156.0,0.0431671142578125,0.0608673095703125,Waiting,0.0,0.0,0.0,0.0,0.0,0.0,0.0,0.0,
4.554155999999959,0.0,0.0,0.0,0.0,0.0,0.0,0.0,0.125,4.8156733350000005,1.0028659351772733,0.0012207030000004337,1.0,0.0,0.0,0.0,0.0,0.0,2.9016110310000003,0.9998355183707343,0.0,0.0,0.0,0.0,0.0,0.0,0.0,0.263671848,1.0008456573062472,0.0012207029999999897,4989.0,0.0,1170.0,0.0,0.0,0.0,3.909911709,0.9995324766900804,0.010986326999999907,-0.4000000059604645,88.79000091552734,-106.52999877929688,1.111328125,0.0745849609375,-0.0135498046875,35.349998474121094,0.0,-14.0,0.0421600341796875,0.059814453125,Waiting,0.0,0.0,0.0,0.0,0.0,0.0,0.0,0.0,
4.593402000000002,0.0,0.0,0.0,0.0,0.0,0.0,0.0,0.125,4.814452632,1.0028659351772733,0.0012207030000004337,1.0,0.0,0.0,0.0,0.0,0.0,2.9016110310000003,0.9998355183707343,0.0,0.0,0.0,0.0,0.0,0.0,0.0,0.263671848,1.0008456573062472,-0.0012207029999999897,4989.0,0.0,540.0,0.0,0.0,0.0,3.912353115,0.9995324766900804,0.0,-0.3700000047683716,88.83999633789062,-106.01000213623047,0.97998046875,-0.0328369140625,-0.07379150390625,35.349998474121094,0.0,56.0,0.0415496826171875,0.0593719482421875,Waiting,0.0,0.0,0.0,0.0,0.0,0.0,0.0,0.0,
