Time,ClimberA1,ClimberA2,FRpos,FRCurrent,FRspeed,FRsetpoint,FRApos,FRACurrent,FREncpos,FREncSetpoint,FREncSpeed,FLpos,FLCurrent,FLspeed,FLsetpoint,FLApos,FLACurrent,FLEncpos,FLEncSetpoint,FLEncSpeed,BRpos,BRCurrent,BRspeed,BRsetpoint,BRApos,BRACurrent,BREncpos,BREncSetpoint,BREncSpeed,BLpos,BLCurrent,BLspeed,BLsetpoint,BLApos,BLACurrent,BLEncpos,BLEncSetpoint,BLEncSpeed,navx_Pitch,navx_Roll,navx_Yaw,navx_XAcc,navx_YAcc,navx_ZAcc,navx_Temp,navx_Bar,navx_Alt,navx_XDis,navx_YDis,GearPlacerState,ShootOutputV,ShootOutputCurrent,ShootEncPos,ShootEncVelocity,ShootSpeed,ShootSetpoint,CarouselSetpoint,CarouselCurrent,
0.13925800000014715,0.0,0.0,0.0,0.0,0.0,0.0,0.0,0.0,3.7463375070000002,0.0,0.0,-747.0,0.0,0.0,0.0,0.0,0.0,2.089843536,0.0,0.0,0.0,0.0,0.0,0.0,0.0,0.0,2.397460692,0.0,0.0,-16473.0,0.0,0.0,0.0,0.0,0.0,2.462157951,0.0,0.0,-0.07000000029802322,88.58000183105469,-105.13999938964844,1.00469970703125,6.103515625E-5,-0.023681640625,35.58000183105469,0.0,-1.0,0.071014404296875,-0.0152435302734375,Waiting,0.0,0.0,-24581.0,0.0,0.0,0.0,0.0,0.0,
0.40317900000000373,0.0,0.0,0.0,0.0,0.0,0.0,0.0,0.0,3.7475582100000002,0.0,0.0,-747.0,0.0,0.0,-0.0,0.0,0.0,2.089843536,0.0,0.0,0.0,0.0,0.0,0.0,0.0,0.0,2.393798583,0.0,0.0,-16473.0,0.0,0.0,-0.0,0.0,0.0,2.460937248,0.0,0.0,-0.07000000029802322,88.58000183105469,-105.1500015258789,1.00506591796875,-2.44140625E-4,-0.02447509765625,35.59000015258789,0.0,0.0,0.071014404296875,-0.0152435302734375,Waiting,0.0,0.0,-24581.0,0.0,0.0,0.0,0.0,0.0,
0.6661130000001285,0.0,0.0,0.0,0.0,0.0,0.0,0.0,0.0,3.7463375070000002,0.0,0.0,-747.0,0.0,0.0,-0.0,0.0,0.0,2.089843536,0.0,0.0,0.0,0.0,0.0,0.0,0.0,0.0,2.396239989,0.0,0.0,-16473.0,0.0,0.0,-0.0,0.0,0.0,2.462157951,0.0,0.0,-0.07000000029802322,88.58000183105469,-105.1500015258789,1.00616455078125,0.00140380859375,-0.0234375,35.59000015258789,0.0,-1.0,0.071014404296875,-0.0152435302734375,Waiting,0.0,0.0,-24581.0,0.0,0.0,0.0,0.0,0.0,
0.9084060000001919,0.0,0.0,0.0,5.875,0.0,-2520.0,0.0,0.375,0.216064431,1.2409999999999985,0.0,-775.0,8.0,-15.0,-2520.0,0.0,0.375,0.809326089,3.711749999999998,0.0,0.0,4.375,0.0,2520.0,0.0,0.125,0.8923338930000001,3.7154999999999982,0.0,-16926.0,1.375,-2040.0,-2520.0,0.0,0.375,1.076660046,3.7106249999999985,0.0,-0.25999999046325684,88.56999969482422,-105.12999725341797,1.07086181640625,0.02618408203125,-0.01861572265625,35.59000015258789,0.0,-10.0,0.06549072265625,-0.0211639404296875,Waiting,0.0,0.0,-24581.0,0.0,0.0,0.0,0.0,0.0,
1.1545310000001918,0.0,0.0,0.0,2.375,0.0,-2520.0,0.0,0.125,0.40161128700000004,1.2409999999999985,0.0,-776.0,3.75,0.0,-2520.0,0.0,0.0,0.363769494,3.711749999999998,0.0,0.0,3.625,0.0,2520.0,0.0,0.0,0.872802645,3.7154999999999982,0.0,-17588.0,1.25,-2377.5,-2520.0,0.0,0.0,0.9313963890000001,3.7106249999999985,0.0,-0.2199999988079071,88.55999755859375,-105.30999755859375,1.06243896484375,-0.01947021484375,0.05902099609375,35.58000183105469,0.0,-83.0,0.0636749267578125,-0.0311126708984375,Waiting,0.0,0.0,-24581.0,0.0,0.0,0.0,0.0,0.0,
1.4051970000001601,0.0,0.0,0.0,2.125,0.0,-2520.0,0.0,0.125,4.665526866,1.2409999999999985,0.0,-775.0,3.875,0.0,-2520.0,0.0,0.125,1.102294809,3.711749999999998,0.0,0.0,3.375,0.0,2520.0,0.0,0.0,1.511230314,3.7154999999999982,0.0,-18337.0,2.5,-2400.0,-2520.0,0.0,0.0,1.6015623360000002,3.7106249999999985,0.0,-0.1899999976158142,88.55999755859375,-105.33000183105469,0.99493408203125,-0.1011962890625,-0.0567626953125,35.58000183105469,0.0,40.0,0.0614471435546875,-0.036834716796875,Waiting,0.0,0.0,-24581.0,0.0,0.0,0.0,0.0,0.0,
1.6524210000000894,0.0,0.0,0.0,2.125,0.0,-2520.0,0.0,0.125,4.932860823,1.2409999999999985,0.0,-776.0,3.875,0.0,-2520.0,0.0,0.0,1.070556531,3.711749999999998,0.0,0.0,3.75,0.0,2520.0,0.0,0.0,1.19628894,3.7154999999999982,0.0,-19105.0,3.0,-2460.0,-2520.0,0.0,0.0,1.2939451800000001,3.7106249999999985,0.0,-0.25999999046325684,88.62999725341797,-104.52999877929688,1.0579833984375,-0.04095458984375,-0.08135986328125,35.58000183105469,0.0,59.0,0.0608978271484375,-0.0379486083984375,Waiting,0.0,0.0,-24581.0,0.0,0.0,0.0,0.0,0.0,
1.8966530000001658,0.0,0.0,0.0,2.125,0.0,-2520.0,0.0,0.125,0.43945308000000005,1.2409999999999985,0.0,-775.0,3.375,0.0,-2520.0,0.0,0.0,0.626220639,3.711749999999998,0.0,0.0,2.75,0.0,2520.0,0.0,0.0,0.626220639,3.7154999999999982,0.0,-19902.0,2.75,-2512.5,-2520.0,0.0,0.0,0.864257724,3.7106249999999985,0.0,-0.25,88.61000061035156,-104.7300033569336,1.0584716796875,0.01629638671875,0.01141357421875,35.58000183105469,0.0,-38.0,0.0610809326171875,-0.03759765625,Waiting,0.0,0.0,-24581.0,0.0,0.0,0.0,0.0,0.0,
2.143560000000056,0.0,0.0,0.0,2.125,0.0,-2520.0,0.0,0.125,4.716796392,1.2409999999999985,0.0,-776.0,3.75,0.0,-2520.0,0.0,0.0,0.9484862310000001,3.711749999999998,0.0,0.0,3.125,0.0,2520.0,0.0,0.125,1.595458821,3.7154999999999982,0.0,-20708.0,2.875,-2505.0,-2520.0,0.0,0.0,1.6113279600000001,3.7106249999999985,0.0,-0.18000000715255737,88.61000061035156,-104.79000091552734,0.978759765625,-0.013916015625,-0.00146484375,35.54999923706055,0.0,-20.0,0.05902099609375,-0.03668212890625,Waiting,0.0,0.0,-24581.0,0.0,0.0,0.0,0.0,0.0,
2.386966000000015,0.0,0.0,0.0,2.125,0.0,-2520.0,0.0,0.125,0.062255853,1.2409999999999985,0.0,-776.0,3.5,0.0,-2520.0,0.0,0.0,0.9057616260000001,3.711749999999998,0.0,0.0,3.375,0.0,2520.0,0.0,0.0,1.070556531,3.7154999999999982,0.0,-21907.0,3.125,-2520.0,-2520.0,0.0,0.0,1.158447147,3.7106249999999985,0.0,-0.15000000596046448,88.54000091552734,-105.47000122070312,0.97540283203125,-0.0220947265625,0.01531982421875,35.54999923706055,0.0,-37.0,0.0593109130859375,-0.03741455078125,Waiting,0.0,0.0,-24581.0,0.0,0.0,0.0,0.0,0.0,
2.6326680000000633,0.0,0.0,0.0,2.125,0.0,-2520.0,0.0,0.125,0.136718736,1.2409999999999985,0.0,-775.0,3.375,0.0,-2520.0,0.0,0.0,0.821533119,3.711749999999998,0.0,0.0,3.0,0.0,2520.0,0.0,0.0,1.07421864,3.7154999999999982,0.0,-22715.0,3.125,-2520.0,-2520.0,0.0,0.0,1.260986199,3.7106249999999985,0.0,-0.11999999731779099,88.58999633789062,-105.06999969482422,1.01422119140625,-0.0281982421875,4.2724609375E-4,35.56999969482422,0.0,-22.0,0.0592193603515625,-0.0391387939453125,Waiting,0.0,0.0,-24581.0,0.0,0.0,0.0,0.0,0.0,
2.8866980000000915,0.0,0.0,0.0,2.0,0.0,-2520.0,0.0,0.125,4.903563951000001,1.2409999999999985,0.0,-775.0,3.5,0.0,-2520.0,0.0,0.0,0.819091713,3.711749999999998,0.0,0.0,3.125,0.0,2520.0,0.0,0.0,1.229247921,3.7154999999999982,0.0,-23520.0,3.25,-2520.0,-2520.0,0.0,0.0,1.3427733000000002,3.7106249999999985,0.0,-0.07999999821186066,88.58000183105469,-105.16000366210938,1.0721435546875,-0.074951171875,0.00604248046875,35.56999969482422,0.0,-25.0,0.0554656982421875,-0.039520263671875,Waiting,0.0,0.0,-24581.0,0.0,0.0,0.0,0.0,0.0,
3.1312070000001695,0.0,0.0,0.0,2.0,0.0,-2520.0,0.0,0.125,4.940185041,1.2409999999999985,0.0,-775.0,3.375,0.0,-2520.0,0.0,0.0,0.820312416,3.711749999999998,0.0,0.0,3.375,0.0,2520.0,0.0,0.0,1.2158201880000001,3.7154999999999982,0.0,-24328.0,3.25,-2527.5,-2520.0,0.0,0.0,1.2707518230000001,3.7106249999999985,0.0,-0.07999999821186066,88.58999633789062,-105.02999877929688,1.03533935546875,0.00531005859375,0.09942626953125,35.58000183105469,0.0,-124.0,0.05560302734375,-0.0388946533203125,Waiting,0.0,0.0,-24581.0,0.0,0.0,0.0,0.0,0.0,
3.3747900000000373,0.0,0.0,0.0,2.0,0.0,-2520.0,0.0,0.125,0.057373041,1.2409999999999985,0.0,-775.0,3.125,0.0,-2520.0,0.0,0.0,0.8178710100000001,3.711749999999998,0.0,0.0,3.375,0.0,2520.0,0.0,0.0,1.195068237,3.7154999999999982,0.0,-25138.0,3.0,-2527.5,-2520.0,0.0,0.0,1.256103387,3.7106249999999985,0.0,-0.10000000149011612,88.5999984741211,-104.95999908447266,0.9998779296875,0.059326171875,0.02886962890625,35.58000183105469,0.0,-58.0,0.0562286376953125,-0.0408172607421875,Waiting,0.0,0.0,-24581.0,0.0,0.0,0.0,0.0,0.0,
3.6161710000000893,0.0,0.0,0.0,2.0,0.0,-2520.0,0.0,0.125,0.062255853,1.2409999999999985,0.0,-775.0,3.375,0.0,-2520.0,0.0,0.0,0.8178710100000001,3.711749999999998,0.0,0.0,3.625,0.0,2520.0,0.0,0.0,1.195068237,3.7154999999999982,0.0,-25945.0,3.125,-2527.5,-2520.0,0.0,0.0,1.253661981,3.7106249999999985,0.0,-0.05000000074505806,88.56999969482422,-105.20999908447266,1.03466796875,0.00384521484375,-0.02392578125,35.599998474121094,0.0,-2.0,0.056488037109375,-0.040802001953125,Waiting,0.0,0.0,-24581.0,0.0,0.0,0.0,0.0,0.0,
3.86759300000011,0.0,0.0,0.0,2.125,0.0,-2520.0,0.0,0.125,0.023193357,1.2409999999999985,0.0,-776.0,3.375,0.0,-2520.0,0.0,0.0,0.819091713,3.711749999999998,0.0,0.0,3.125,0.0,2520.0,0.0,0.0,1.195068237,3.7154999999999982,0.0,-26754.0,3.0,-2527.5,-2520.0,0.0,0.0,1.251220575,3.7106249999999985,0.0,-0.05999999865889549,88.5199966430664,-105.7300033569336,1.010009765625,0.0244140625,-0.08221435546875,35.599998474121094,0.0,53.0,0.0582733154296875,-0.03814697265625,Waiting,0.0,0.0,-24581.0,0.0,0.0,0.0,0.0,0.0,
4.116566000000108,0.0,0.0,0.0,2.125,0.0,-2520.0,0.0,0.0,4.941405744,1.2409999999999985,0.0,-775.0,3.125,0.0,-2520.0,0.0,0.0,0.820312416,3.711749999999998,0.0,0.0,3.125,0.0,2520.0,0.0,0.0,1.19628894,3.7154999999999982,0.0,-27566.0,2.625,-2535.0,-2520.0,0.0,0.0,1.251220575,3.7106249999999985,0.0,-0.10000000149011612,88.51000213623047,-105.80999755859375,0.94970703125,0.0673828125,0.03985595703125,35.59000015258789,0.0,-70.0,0.0592193603515625,-0.0379791259765625,Waiting,0.0,0.0,-24581.0,0.0,0.0,0.0,0.0,0.0,
4.36575400000019,0.0,0.0,0.0,2.125,0.0,-2520.0,0.0,0.125,4.941405744,1.2409999999999985,0.0,-776.0,3.375,0.0,-2520.0,0.0,0.0,0.819091713,3.711749999999998,0.0,0.0,3.125,0.0,2520.0,0.0,0.0,1.19628894,3.7154999999999982,0.0,-28378.0,2.375,-2535.0,-2520.0,0.0,0.0,1.251220575,3.7106249999999985,0.0,-0.029999999329447746,88.52999877929688,-105.61000061035156,1.06683349609375,-0.0709228515625,-0.07354736328125,35.59000015258789,0.0,52.0,0.06005859375,-0.0370330810546875,Waiting,0.0,0.0,-24581.0,0.0,0.0,0.0,0.0,0.0,
4.610086000000127,0.0,0.0,0.0,2.0,0.0,-2520.0,0.0,0.125,0.034179684,1.2409999999999985,0.0,-776.0,3.375,0.0,-2520.0,0.0,0.0,0.8178710100000001,3.711749999999998,0.0,0.0,3.125,0.0,2520.0,0.0,0.0,1.19628894,3.7154999999999982,0.0,-29190.0,2.375,-2535.0,-2520.0,0.0,0.0,1.251220575,3.7106249999999985,0.0,-0.05999999865889549,88.54000091552734,-105.55000305175781,0.945556640625,0.01422119140625,-0.06298828125,35.56999969482422,0.0,37.0,0.0625,-0.036407470703125,Waiting,0.0,0.0,-24581.0,0.0,0.0,0.0,0.0,0.0,
4.850853000000119,0.0,0.0,0.0,2.125,0.0,-2520.0,0.0,0.125,0.041503902,1.2409999999999985,0.0,-776.0,3.75,0.0,-2520.0,0.0,0.0,0.8178710100000001,3.711749999999998,0.0,0.0,3.125,0.0,2520.0,0.0,0.0,1.19628894,3.7154999999999982,0.0,-29998.0,2.375,-2520.0,-2520.0,0.0,0.0,1.251220575,3.7106249999999985,0.0,-0.12999999523162842,88.58999633789062,-104.97000122070312,0.9805908203125,-0.02899169921875,0.0126953125,35.56999969482422,0.0,-33.0,0.0633087158203125,-0.0350799560546875,Waiting,0.0,0.0,-24581.0,0.0,0.0,0.0,0.0,0.0,
5.089581000000005,0.0,0.0,0.0,2.0,0.0,-2520.0,0.0,0.125,0.042724605,1.2409999999999985,0.0,-775.0,3.125,0.0,-2520.0,0.0,0.0,0.819091713,3.711749999999998,0.0,0.0,3.0,0.0,2520.0,0.0,0.0,1.19628894,3.7154999999999982,0.0,-30807.0,2.5,-2520.0,-2520.0,0.0,0.0,1.248779169,3.7106249999999985,0.0,-0.09000000357627869,88.61000061035156,-104.75,0.92657470703125,-0.016845703125,-0.02581787109375,35.59000015258789,0.0,4.0,0.0631561279296875,-0.0328521728515625,Waiting,0.0,0.0,-24581.0,0.0,0.0,0.0,0.0,0.0,
5.350388000000035,0.0,0.0,0.0,2.125,0.0,-2520.0,0.0,0.125,0.047607417,1.2409999999999985,0.0,-775.0,3.125,0.0,-2520.0,0.0,0.0,0.819091713,3.711749999999998,0.0,0.0,3.125,0.0,2520.0,0.0,0.0,1.193847534,3.7154999999999982,0.0,-31616.0,2.375,-2527.5,-2520.0,0.0,0.0,1.251220575,3.7106249999999985,0.0,-0.11999999731779099,88.62999725341797,-104.58000183105469,0.97210693359375,-0.01031494140625,-0.04150390625,35.59000015258789,0.0,19.0,0.06292724609375,-0.0302734375,Waiting,0.0,0.0,-24581.0,0.0,0.0,0.0,0.0,0.0,
5.588180000000167,0.0,0.0,0.0,0.0,0.0,0.0,0.0,0.125,0.047607417,1.2409999999999985,0.0,-776.0,0.0,0.0,0.0,0.0,0.0,0.8178710100000001,3.711749999999998,0.0,0.0,0.0,0.0,0.0,0.0,0.0,1.19628894,3.7154999999999982,0.0,-32285.0,0.0,-1267.5,0.0,0.0,0.0,1.251220575,3.7106249999999985,0.0,-0.12999999523162842,88.62999725341797,-104.58000183105469,0.9268798828125,0.03497314453125,-0.00689697265625,35.599998474121094,0.0,-18.0,0.0636749267578125,-0.0303802490234375,Waiting,0.0,0.0,-24581.0,0.0,0.0,0.0,0.0,0.0,
5.828452000000048,0.0,0.0,0.0,0.0,0.0,0.0,0.0,0.125,0.047607417,1.2409999999999985,0.0,-775.0,0.0,0.0,0.0,0.0,0.0,0.8178710100000001,3.711749999999998,0.0,0.0,0.0,0.0,0.0,0.0,0.0,1.19628894,3.7154999999999982,0.0,-32386.0,0.0,0.0,0.0,0.0,0.0,1.252441278,3.7106249999999985,0.0,-0.10999999940395355,88.5999984741211,-104.98999786376953,1.01983642578125,-0.015625,-0.05694580078125,35.599998474121094,0.0,33.0,0.0635833740234375,-0.0304107666015625,Waiting,0.0,0.0,-24581.0,0.0,0.0,0.0,0.0,0.0,
6.068820000000065,0.0,0.0,0.0,0.0,0.0,0.0,0.0,0.125,0.047607417,1.2409999999999985,0.0,-776.0,0.0,0.0,0.0,0.0,0.0,0.8178710100000001,3.711749999999998,0.0,0.0,0.0,0.0,0.0,0.0,0.0,1.195068237,3.7154999999999982,0.0,-32386.0,0.0,0.0,0.0,0.0,0.0,1.251220575,3.7106249999999985,0.0,-0.12999999523162842,88.58000183105469,-105.0999984741211,0.99969482421875,-0.006103515625,-0.0289306640625,35.58000183105469,0.0,4.0,0.063751220703125,-0.0305633544921875,Waiting,0.0,0.0,-24581.0,0.0,0.0,0.0,0.0,0.0,
6.310114999999991,0.0,0.0,0.0,0.0,0.0,0.0,0.0,0.125,0.047607417,1.2409999999999985,0.0,-776.0,0.0,0.0,0.0,0.0,0.0,0.819091713,3.711749999999998,0.0,0.0,0.0,0.0,0.0,0.0,0.0,1.195068237,3.7154999999999982,0.0,-32386.0,0.0,0.0,0.0,0.0,0.0,1.251220575,3.7106249999999985,0.0,-0.11999999731779099,88.58000183105469,-105.08000183105469,1.00189208984375,6.103515625E-5,-0.02362060546875,35.58000183105469,0.0,-1.0,0.063751220703125,-0.0305633544921875,Waiting,0.0,0.0,-24581.0,0.0,0.0,0.0,0.0,0.0,
6.575893000000156,0.0,0.0,0.0,0.0,0.0,0.0,0.0,0.125,0.047607417,1.2409999999999985,0.0,-776.0,0.0,0.0,0.0,0.0,0.0,0.8178710100000001,3.711749999999998,0.0,0.0,0.0,0.0,0.0,0.0,0.0,1.19628894,3.7154999999999982,0.0,-32386.0,0.0,0.0,0.0,0.0,0.0,1.251220575,3.7106249999999985,0.0,-0.10999999940395355,88.58999633789062,-105.06999969482422,1.00714111328125,-0.00189208984375,-0.0257568359375,35.56999969482422,0.0,1.0,0.063751220703125,-0.0305633544921875,Waiting,0.0,0.0,-24581.0,0.0,0.0,0.0,0.0,0.0,
6.83303600000008,0.0,0.0,0.0,0.0,0.0,0.0,0.0,0.125,0.047607417,1.2409999999999985,0.0,-776.0,0.0,0.0,0.0,0.0,0.0,0.8178710100000001,3.711749999999998,0.0,0.0,0.0,0.0,0.0,0.0,0.0,1.195068237,3.7154999999999982,0.0,-32386.0,0.0,0.0,0.0,0.0,0.0,1.251220575,3.7106249999999985,0.0,-0.09000000357627869,88.58999633789062,-105.05000305175781,1.002197265625,-6.7138671875E-4,-0.02423095703125,35.56999969482422,0.0,0.0,0.063751220703125,-0.0305633544921875,Waiting,0.0,0.0,-24581.0,0.0,0.0,0.0,0.0,0.0,
7.092613000000129,0.0,0.0,0.0,0.0,0.0,0.0,0.0,0.125,0.046386714,1.2409999999999985,0.0,-776.0,0.0,0.0,0.0,0.0,0.0,0.8178710100000001,3.711749999999998,0.0,0.0,0.0,0.0,0.0,0.0,0.0,1.19628894,3.7154999999999982,0.0,-32386.0,0.0,0.0,0.0,0.0,0.0,1.251220575,3.7106249999999985,0.0,-0.09000000357627869,88.58999633789062,-105.0199966430664,1.0047607421875,-0.00146484375,-0.02496337890625,35.560001373291016,0.0,0.0,0.063751220703125,-0.0305633544921875,Waiting,0.0,0.0,-24581.0,0.0,0.0,0.0,0.0,0.0,
7.354298000000185,0.0,0.0,0.0,0.0,0.0,0.0,0.0,0.125,0.047607417,1.2409999999999985,0.0,-776.0,0.0,0.0,0.0,0.0,0.0,0.8178710100000001,3.711749999999998,0.0,0.0,0.0,0.0,0.0,0.0,0.0,1.19628894,3.7154999999999982,0.0,-32386.0,0.0,0.0,0.0,0.0,0.0,1.251220575,3.7106249999999985,0.0,-0.09000000357627869,88.58000183105469,-105.12000274658203,1.00482177734375,-0.0013427734375,-0.02642822265625,35.560001373291016,0.0,1.0,0.063751220703125,-0.0305633544921875,Waiting,0.0,0.0,-24581.0,0.0,0.0,0.0,0.0,0.0,
7.6140979999999985,0.0,0.0,0.0,0.0,0.0,0.0,0.0,0.125,0.047607417,1.2409999999999985,0.0,-776.0,0.0,0.0,0.0,0.0,0.0,0.8178710100000001,3.711749999999998,0.0,0.0,0.0,0.0,0.0,0.0,0.0,1.195068237,3.7154999999999982,0.0,-32386.0,0.0,0.0,0.0,0.0,0.0,1.251220575,3.7106249999999985,0.0,-0.09000000357627869,88.56999969482422,-105.19999694824219,1.0072021484375,-7.32421875E-4,-0.02325439453125,35.56999969482422,0.0,-1.0,0.063751220703125,-0.0305633544921875,Waiting,0.0,0.0,-24581.0,0.0,0.0,0.0,0.0,0.0,
7.878978000000119,0.0,0.0,0.0,0.0,0.0,0.0,0.0,0.125,0.047607417,1.2409999999999985,0.0,-776.0,0.0,0.0,0.0,0.0,0.0,0.8178710100000001,3.711749999999998,0.0,0.0,0.0,0.0,0.0,0.0,0.0,1.195068237,3.7154999999999982,0.0,-32386.0,0.0,0.0,0.0,0.0,0.0,1.251220575,3.7106249999999985,0.0,-0.09000000357627869,88.58000183105469,-105.0999984741211,1.00433349609375,-3.662109375E-4,-0.02716064453125,35.56999969482422,0.0,2.0,0.063751220703125,-0.0305633544921875,Waiting,0.0,0.0,-24581.0,0.0,0.0,0.0,0.0,0.0,
8.133466000000015,0.0,0.0,0.0,0.0,0.0,0.0,0.0,0.125,0.047607417,1.2409999999999985,0.0,-776.0,0.0,0.0,0.0,0.0,0.0,0.8178710100000001,3.711749999999998,0.0,0.0,0.0,0.0,0.0,0.0,0.0,1.19628894,3.7154999999999982,0.0,-32386.0,0.0,0.0,0.0,0.0,0.0,1.251220575,3.7106249999999985,0.0,-0.07999999821186066,88.58000183105469,-105.11000061035156,1.00543212890625,0.001220703125,-0.02593994140625,35.58000183105469,0.0,0.0,0.063751220703125,-0.0305633544921875,Waiting,0.0,0.0,-24581.0,0.0,0.0,0.0,0.0,0.0,
8.38842200000002,0.0,0.0,0.0,0.0,0.0,0.0,0.0,0.125,0.047607417,1.2409999999999985,0.0,-776.0,0.0,0.0,0.0,0.0,0.0,0.819091713,3.711749999999998,0.0,0.0,0.0,0.0,0.0,0.0,0.0,1.19628894,3.7154999999999982,0.0,-32386.0,0.0,0.0,0.0,0.0,0.0,1.252441278,3.7106249999999985,0.0,-0.09000000357627869,88.58000183105469,-105.0999984741211,1.003662109375,-2.44140625E-4,-0.02667236328125,35.58000183105469,0.0,1.0,0.063751220703125,-0.0305633544921875,Waiting,0.0,0.0,-24581.0,0.0,0.0,0.0,0.0,0.0,
8.633247000000207,0.0,0.0,0.0,0.0,0.0,0.0,0.0,0.125,0.046386714,1.2409999999999985,0.0,-776.0,0.0,0.0,0.0,0.0,0.0,0.819091713,3.711749999999998,0.0,0.0,0.0,0.0,0.0,0.0,0.0,1.195068237,3.7154999999999982,0.0,-32386.0,0.0,0.0,0.0,0.0,0.0,1.251220575,3.7106249999999985,0.0,-0.09000000357627869,88.58000183105469,-105.0999984741211,1.00311279296875,0.003662109375,-0.0242919921875,35.58000183105469,0.0,0.0,0.063751220703125,-0.0305633544921875,Waiting,0.0,0.0,-24581.0,0.0,0.0,0.0,0.0,0.0,
8.875124000000069,0.0,0.0,0.0,0.0,0.0,0.0,0.0,0.125,0.047607417,1.2409999999999985,0.0,-776.0,0.0,0.0,0.0,0.0,0.0,0.8178710100000001,3.711749999999998,0.0,0.0,0.0,0.0,0.0,0.0,0.0,1.19628894,3.7154999999999982,0.0,-32386.0,0.0,0.0,0.0,0.0,0.0,1.251220575,3.7106249999999985,0.0,-0.09000000357627869,88.58000183105469,-105.0999984741211,1.00567626953125,1.8310546875E-4,-0.02532958984375,35.58000183105469,0.0,0.0,0.063751220703125,-0.0305633544921875,Waiting,0.0,0.0,-24581.0,0.0,0.0,0.0,0.0,0.0,
9.124059000000125,0.0,0.0,0.0,0.0,0.0,0.0,0.0,0.125,0.047607417,1.2409999999999985,0.0,-776.0,0.0,0.0,0.0,0.0,0.0,0.819091713,3.711749999999998,0.0,0.0,0.0,0.0,0.0,0.0,0.0,1.19628894,3.7154999999999982,0.0,-32386.0,0.0,0.0,0.0,0.0,0.0,1.251220575,3.7106249999999985,0.0,-0.07999999821186066,88.58000183105469,-105.08000183105469,1.00341796875,-0.00146484375,-0.0225830078125,35.56999969482422,0.0,-2.0,0.063751220703125,-0.0305633544921875,Waiting,0.0,0.0,-24581.0,0.0,0.0,0.0,0.0,0.0,
9.36393600000022,0.0,0.0,0.0,0.0,0.0,0.0,0.0,0.125,0.047607417,1.2409999999999985,0.0,-776.0,0.0,0.0,0.0,0.0,0.0,0.819091713,3.711749999999998,0.0,0.0,0.0,0.0,0.0,0.0,0.0,1.19628894,3.7154999999999982,0.0,-32386.0,0.0,0.0,0.0,0.0,0.0,1.252441278,3.7106249999999985,0.0,-0.07999999821186066,88.58000183105469,-105.05999755859375,1.005615234375,-0.0013427734375,-0.02227783203125,35.56999969482422,0.0,-2.0,0.063751220703125,-0.0305633544921875,Waiting,0.0,0.0,-24581.0,0.0,0.0,0.0,0.0,0.0,
9.596487000000197,0.0,0.0,0.0,0.0,0.0,0.0,0.0,0.125,0.046386714,1.2409999999999985,0.0,-776.0,0.0,0.0,0.0,0.0,0.0,0.819091713,3.711749999999998,0.0,0.0,0.0,0.0,0.0,0.0,0.0,1.19628894,3.7154999999999982,0.0,-32386.0,0.0,0.0,0.0,0.0,0.0,1.251220575,3.7106249999999985,0.0,-0.09000000357627869,88.58999633789062,-104.97000122070312,1.0035400390625,-0.0032958984375,-0.01824951171875,35.560001373291016,0.0,-6.0,0.063751220703125,-0.0305633544921875,Waiting,0.0,0.0,-24581.0,0.0,0.0,0.0,0.0,0.0,
9.836976000000025,0.0,0.0,0.0,0.0,0.0,0.0,0.0,0.125,0.046386714,1.2409999999999985,0.0,-776.0,0.0,0.0,0.0,0.0,0.0,0.819091713,3.711749999999998,0.0,0.0,0.0,0.0,0.0,0.0,0.0,1.195068237,3.7154999999999982,0.0,-32386.0,0.0,0.0,0.0,0.0,0.0,1.252441278,3.7106249999999985,0.0,-0.09000000357627869,88.58999633789062,-104.97000122070312,1.0048828125,0.0,-0.02099609375,35.560001373291016,0.0,-3.0,0.063751220703125,-0.0305633544921875,Waiting,0.0,0.0,-24581.0,0.0,0.0,0.0,0.0,0.0,
10.086518000000156,0.0,0.0,0.0,0.0,0.0,0.0,0.0,0.125,0.046386714,1.2409999999999985,0.0,-776.0,0.0,0.0,0.0,0.0,0.0,0.8178710100000001,3.711749999999998,0.0,0.0,0.0,0.0,0.0,0.0,0.0,1.19628894,3.7154999999999982,0.0,-32386.0,0.0,0.0,0.0,0.0,0.0,1.252441278,3.7106249999999985,0.0,-0.07999999821186066,88.58999633789062,-104.94999694824219,1.00634765625,-7.32421875E-4,-0.024658203125,35.560001373291016,0.0,0.0,0.063751220703125,-0.0305633544921875,Waiting,0.0,0.0,-24581.0,0.0,0.0,0.0,0.0,0.0,
10.333636000000173,0.0,0.0,0.0,0.0,0.0,0.0,0.0,0.125,0.047607417,1.2409999999999985,0.0,-776.0,0.0,0.0,0.0,0.0,0.0,0.8178710100000001,3.711749999999998,0.0,0.0,0.0,0.0,0.0,0.0,0.0,1.195068237,3.7154999999999982,0.0,-32386.0,0.0,0.0,0.0,0.0,0.0,1.249999872,3.7106249999999985,0.0,-0.07999999821186066,88.58999633789062,-104.95999908447266,1.00396728515625,-0.00189208984375,-0.02386474609375,35.54999923706055,0.0,0.0,0.063751220703125,-0.0305633544921875,Waiting,0.0,0.0,-24581.0,0.0,0.0,0.0,0.0,0.0,
10.576976000000025,0.0,0.0,0.0,0.0,0.0,0.0,0.0,0.125,0.047607417,1.2409999999999985,0.0,-776.0,0.0,0.0,0.0,0.0,0.0,0.8178710100000001,3.711749999999998,0.0,0.0,0.0,0.0,0.0,0.0,0.0,1.19628894,3.7154999999999982,0.0,-32386.0,0.0,0.0,0.0,0.0,0.0,1.252441278,3.7106249999999985,0.0,-0.07999999821186066,88.58000183105469,-105.05999755859375,1.00384521484375,2.44140625E-4,-0.02691650390625,35.54999923706055,0.0,2.0,0.063751220703125,-0.0305633544921875,Waiting,0.0,0.0,-24581.0,0.0,0.0,0.0,0.0,0.0,
10.814165000000036,0.0,0.0,0.0,0.0,0.0,0.0,0.0,0.125,0.047607417,1.2409999999999985,0.0,-776.0,0.0,0.0,0.0,0.0,0.0,0.819091713,3.711749999999998,0.0,0.0,0.0,0.0,0.0,0.0,0.0,1.19628894,3.7154999999999982,0.0,-32386.0,0.0,0.0,0.0,0.0,0.0,1.251220575,3.7106249999999985,0.0,-0.07000000029802322,88.58000183105469,-105.05000305175781,1.0047607421875,-0.001708984375,-0.0264892578125,35.56999969482422,0.0,1.0,0.063751220703125,-0.0305633544921875,Waiting,0.0,0.0,-24581.0,0.0,0.0,0.0,0.0,0.0,
11.063245000000112,0.0,0.0,0.0,0.0,0.0,0.0,0.0,0.125,0.047607417,1.2409999999999985,0.0,-776.0,0.0,0.0,0.0,0.0,0.0,0.8178710100000001,3.711749999999998,0.0,0.0,0.0,0.0,0.0,0.0,0.0,1.195068237,3.7154999999999982,0.0,-32386.0,0.0,0.0,0.0,0.0,0.0,1.251220575,3.7106249999999985,0.0,-0.07999999821186066,88.58000183105469,-105.05999755859375,1.00640869140625,-0.00225830078125,-0.0247802734375,35.56999969482422,0.0,0.0,0.063751220703125,-0.0305633544921875,Waiting,0.0,0.0,-24581.0,0.0,0.0,0.0,0.0,0.0,
11.308163000000174,0.0,0.0,0.0,0.0,0.0,0.0,0.0,0.125,0.047607417,1.2409999999999985,0.0,-776.0,0.0,0.0,0.0,0.0,0.0,0.8178710100000001,3.711749999999998,0.0,0.0,0.0,0.0,0.0,0.0,0.0,1.19628894,3.7154999999999982,0.0,-32386.0,0.0,0.0,0.0,0.0,0.0,1.252441278,3.7106249999999985,0.0,-0.09000000357627869,88.56999969482422,-105.1500015258789,1.00762939453125,-0.00103759765625,-0.02783203125,35.560001373291016,0.0,2.0,0.063751220703125,-0.0305633544921875,Waiting,0.0,0.0,-24581.0,0.0,0.0,0.0,0.0,0.0,
11.555213000000222,0.0,0.0,0.0,0.0,0.0,0.0,0.0,0.125,0.046386714,1.2409999999999985,0.0,-776.0,0.0,0.0,0.0,0.0,0.0,0.8178710100000001,3.711749999999998,0.0,0.0,0.0,0.0,0.0,0.0,0.0,1.19628894,3.7154999999999982,0.0,-32386.0,0.0,0.0,0.0,0.0,0.0,1.251220575,3.7106249999999985,0.0,-0.07999999821186066,88.56999969482422,-105.16000366210938,1.004150390625,-7.32421875E-4,-0.0201416015625,35.560001373291016,0.0,-4.0,0.063751220703125,-0.0305633544921875,Waiting,0.0,0.0,-24581.0,0.0,0.0,0.0,0.0,0.0,
11.803340000000084,0.0,0.0,0.0,0.0,0.0,0.0,0.0,0.125,0.047607417,1.2409999999999985,0.0,-776.0,0.0,0.0,0.0,0.0,0.0,0.819091713,3.711749999999998,0.0,0.0,0.0,0.0,0.0,0.0,0.0,1.19628894,3.7154999999999982,0.0,-32386.0,0.0,0.0,0.0,0.0,0.0,1.251220575,3.7106249999999985,0.0,-0.07999999821186066,88.58000183105469,-105.05999755859375,1.00567626953125,-5.4931640625E-4,-0.02777099609375,35.56999969482422,0.0,2.0,0.063751220703125,-0.0305633544921875,Waiting,0.0,0.0,-24581.0,0.0,0.0,0.0,0.0,0.0,
12.049748000000138,0.0,0.0,0.0,0.0,0.0,0.0,0.0,0.125,0.046386714,1.2409999999999985,0.0,-776.0,0.0,0.0,0.0,0.0,0.0,0.819091713,3.711749999999998,0.0,0.0,0.0,0.0,0.0,0.0,0.0,1.195068237,3.7154999999999982,0.0,-32386.0,0.0,0.0,0.0,0.0,0.0,1.251220575,3.7106249999999985,0.0,-0.07999999821186066,88.56999969482422,-105.19000244140625,1.004150390625,-2.44140625E-4,-0.0211181640625,35.56999969482422,0.0,-3.0,0.063751220703125,-0.0305633544921875,Waiting,0.0,0.0,-24581.0,0.0,0.0,0.0,0.0,0.0,
12.294699000000023,0.0,0.0,0.0,0.0,0.0,0.0,0.0,0.125,0.046386714,1.2409999999999985,0.0,-776.0,0.0,0.0,0.0,0.0,0.0,0.8178710100000001,3.711749999999998,0.0,0.0,0.0,0.0,0.0,0.0,0.0,1.195068237,3.7154999999999982,0.0,-32386.0,0.0,0.0,0.0,0.0,0.0,1.251220575,3.7106249999999985,0.0,-0.07999999821186066,88.58000183105469,-105.0999984741211,1.00506591796875,-0.00140380859375,-0.02325439453125,35.61000061035156,0.0,-1.0,0.063751220703125,-0.0305633544921875,Waiting,0.0,0.0,-24581.0,0.0,0.0,0.0,0.0,0.0,
12.535563000000082,0.0,0.0,0.0,0.0,0.0,0.0,0.0,0.125,0.047607417,1.2409999999999985,0.0,-776.0,0.0,0.0,0.0,0.0,0.0,0.8178710100000001,3.711749999999998,0.0,0.0,0.0,0.0,0.0,0.0,0.0,1.195068237,3.7154999999999982,0.0,-32386.0,0.0,0.0,0.0,0.0,0.0,1.251220575,3.7106249999999985,0.0,-0.07999999821186066,88.5999984741211,-104.87999725341797,1.0040283203125,-0.00311279296875,-0.02032470703125,35.61000061035156,0.0,-3.0,0.063751220703125,-0.0305633544921875,Waiting,0.0,0.0,-24581.0,0.0,0.0,0.0,0.0,0.0,
12.780606000000144,0.0,0.0,0.0,0.0,0.0,0.0,0.0,0.125,0.047607417,1.2409999999999985,0.0,-776.0,0.0,0.0,0.0,0.0,0.0,0.8178710100000001,3.711749999999998,0.0,0.0,0.0,0.0,0.0,0.0,0.0,1.195068237,3.7154999999999982,0.0,-32386.0,0.0,0.0,0.0,0.0,0.0,1.252441278,3.7106249999999985,0.0,-0.07999999821186066,88.58999633789062,-104.95999908447266,1.00604248046875,-6.103515625E-4,-0.0244140625,35.56999969482422,0.0,0.0,0.063751220703125,-0.0305633544921875,Waiting,0.0,0.0,-24581.0,0.0,0.0,0.0,0.0,0.0,
13.027279000000096,0.0,0.0,0.0,0.0,0.0,0.0,0.0,0.125,0.046386714,1.2409999999999985,0.0,-776.0,0.0,0.0,0.0,0.0,0.0,0.819091713,3.711749999999998,0.0,0.0,0.0,0.0,0.0,0.0,0.0,1.195068237,3.7154999999999982,0.0,-32386.0,0.0,0.0,0.0,0.0,0.0,1.251220575,3.7106249999999985,0.0,-0.07999999821186066,88.58000183105469,-105.05999755859375,1.0054931640625,-0.00164794921875,-0.02117919921875,35.56999969482422,0.0,-3.0,0.063751220703125,-0.0305633544921875,Waiting,0.0,0.0,-24581.0,0.0,0.0,0.0,0.0,0.0,
13.259420000000159,0.0,0.0,0.0,0.0,0.0,0.0,0.0,0.125,0.046386714,1.2409999999999985,0.0,-776.0,0.0,0.0,0.0,0.0,0.0,0.8178710100000001,3.711749999999998,0.0,0.0,0.0,0.0,0.0,0.0,0.0,1.19628894,3.7154999999999982,0.0,-32386.0,0.0,0.0,0.0,0.0,0.0,1.251220575,3.7106249999999985,0.0,-0.07999999821186066,88.58999633789062,-104.9800033569336,1.00421142578125,-0.00140380859375,-0.02325439453125,35.56999969482422,0.0,-1.0,0.063751220703125,-0.0305633544921875,Waiting,0.0,0.0,-24581.0,0.0,0.0,0.0,0.0,0.0,
13.502213000000221,0.0,0.0,0.0,0.0,0.0,0.0,0.0,0.125,0.046386714,1.2409999999999985,0.0,-776.0,0.0,0.0,0.0,0.0,0.0,0.8178710100000001,3.711749999999998,0.0,0.0,0.0,0.0,0.0,0.0,0.0,1.19628894,3.7154999999999982,0.0,-32386.0,0.0,0.0,0.0,0.0,0.0,1.251220575,3.7106249999999985,0.0,-0.09000000357627869,88.58999633789062,-104.97000122070312,1.00537109375,-0.00250244140625,-0.02191162109375,35.56999969482422,0.0,-2.0,0.063751220703125,-0.0305633544921875,Waiting,0.0,0.0,-24581.0,0.0,0.0,0.0,0.0,0.0,
13.748003000000026,0.0,0.0,0.0,0.0,0.0,0.0,0.0,0.125,0.046386714,1.2409999999999985,0.0,-776.0,0.0,0.0,0.0,0.0,0.0,0.8178710100000001,3.711749999999998,0.0,0.0,0.0,0.0,0.0,0.0,0.0,1.19628894,3.7154999999999982,0.0,-32386.0,0.0,0.0,0.0,0.0,0.0,1.252441278,3.7106249999999985,0.0,-0.09000000357627869,88.58000183105469,-105.05999755859375,1.00567626953125,-0.0037841796875,-0.0220947265625,35.56999969482422,0.0,-2.0,0.063751220703125,-0.0305633544921875,Waiting,0.0,0.0,-24581.0,0.0,0.0,0.0,0.0,0.0,
14.00697800000012,0.0,0.0,0.0,0.0,0.0,0.0,0.0,0.125,0.046386714,1.2409999999999985,0.0,-776.0,0.0,0.0,0.0,0.0,0.0,0.8178710100000001,3.711749999999998,0.0,0.0,0.0,0.0,0.0,0.0,0.0,1.195068237,3.7154999999999982,0.0,-32386.0,0.0,0.0,0.0,0.0,0.0,1.252441278,3.7106249999999985,0.0,-0.09000000357627869,88.58000183105469,-105.06999969482422,1.00335693359375,-0.00189208984375,-0.02642822265625,35.56999969482422,0.0,1.0,0.063751220703125,-0.0305633544921875,Waiting,0.0,0.0,-24581.0,0.0,0.0,0.0,0.0,0.0,
14.27635300000012,0.0,0.0,0.0,0.0,0.0,0.0,0.0,0.125,0.047607417,1.2409999999999985,0.0,-776.0,0.0,0.0,0.0,0.0,0.0,0.819091713,3.711749999999998,0.0,0.0,0.0,0.0,0.0,0.0,0.0,1.19628894,3.7154999999999982,0.0,-32386.0,0.0,0.0,0.0,0.0,0.0,1.251220575,3.7106249999999985,0.0,-0.09000000357627869,88.58000183105469,-105.06999969482422,1.00347900390625,-0.00201416015625,-0.0220947265625,35.560001373291016,0.0,-2.0,0.063751220703125,-0.0305633544921875,Waiting,0.0,0.0,-24581.0,0.0,0.0,0.0,0.0,0.0,
14.533308000000194,0.0,0.0,0.0,0.0,0.0,0.0,0.0,0.125,0.047607417,1.2409999999999985,0.0,-776.0,0.0,0.0,0.0,0.0,0.0,0.819091713,3.711749999999998,0.0,0.0,0.0,0.0,0.0,0.0,0.0,1.19628894,3.7154999999999982,0.0,-32386.0,0.0,0.0,0.0,0.0,0.0,1.252441278,3.7106249999999985,0.0,-0.09000000357627869,88.58999633789062,-104.97000122070312,1.00579833984375,-0.0028076171875,-0.0284423828125,35.560001373291016,0.0,3.0,0.063751220703125,-0.0305633544921875,Waiting,0.0,0.0,-24581.0,0.0,0.0,0.0,0.0,0.0,
14.797425000000047,0.0,0.0,0.0,0.0,0.0,0.0,0.0,0.125,0.047607417,1.2409999999999985,0.0,-776.0,0.0,0.0,0.0,0.0,0.0,0.8178710100000001,3.711749999999998,0.0,0.0,0.0,0.0,0.0,0.0,0.0,1.195068237,3.7154999999999982,0.0,-32386.0,0.0,0.0,0.0,0.0,0.0,1.251220575,3.7106249999999985,0.0,-0.07999999821186066,88.58999633789062,-104.94999694824219,1.00311279296875,-0.00299072265625,-0.02227783203125,35.54999923706055,0.0,-2.0,0.063751220703125,-0.0305633544921875,Waiting,0.0,0.0,-24581.0,0.0,0.0,0.0,0.0,0.0,
15.053580000000075,0.0,0.0,0.0,0.0,0.0,0.0,0.0,0.125,0.046386714,1.2409999999999985,0.0,-776.0,0.0,0.0,0.0,0.0,0.0,0.819091713,3.711749999999998,0.0,0.0,0.0,0.0,0.0,0.0,0.0,1.195068237,3.7154999999999982,0.0,-32386.0,0.0,0.0,0.0,0.0,0.0,1.251220575,3.7106249999999985,0.0,-0.09000000357627869,88.58999633789062,-104.97000122070312,1.00433349609375,-0.0032958984375,-0.02301025390625,35.54999923706055,0.0,-1.0,0.063751220703125,-0.0305633544921875,Waiting,0.0,0.0,-24581.0,0.0,0.0,0.0,0.0,0.0,
15.313889000000199,0.0,0.0,0.0,0.0,0.0,0.0,0.0,0.125,0.047607417,1.2409999999999985,0.0,-776.0,0.0,0.0,0.0,0.0,0.0,0.819091713,3.711749999999998,0.0,0.0,0.0,0.0,0.0,0.0,0.0,1.195068237,3.7154999999999982,0.0,-32386.0,0.0,0.0,0.0,0.0,0.0,1.251220575,3.7106249999999985,0.0,-0.10000000149011612,88.58000183105469,-105.06999969482422,1.00408935546875,-0.0035400390625,-0.021240234375,35.58000183105469,0.0,-3.0,0.063751220703125,-0.0305633544921875,Waiting,0.0,0.0,-24581.0,0.0,0.0,0.0,0.0,0.0,
15.56437900000019,0.0,0.0,0.0,0.0,0.0,0.0,0.0,0.125,0.047607417,1.2409999999999985,0.0,-776.0,0.0,0.0,0.0,0.0,0.0,0.8178710100000001,3.711749999999998,0.0,0.0,0.0,0.0,0.0,0.0,0.0,1.195068237,3.7154999999999982,0.0,-32386.0,0.0,0.0,0.0,0.0,0.0,1.251220575,3.7106249999999985,0.0,-0.10000000149011612,88.58000183105469,-105.06999969482422,1.0062255859375,-0.00140380859375,-0.02484130859375,35.58000183105469,0.0,0.0,0.063751220703125,-0.0305633544921875,Waiting,0.0,0.0,-24581.0,0.0,0.0,0.0,0.0,0.0,
15.800728000000118,0.0,0.0,0.0,0.0,0.0,0.0,0.0,0.125,0.047607417,1.2409999999999985,0.0,-776.0,0.0,0.0,0.0,0.0,0.0,0.819091713,3.711749999999998,0.0,0.0,0.0,0.0,0.0,0.0,0.0,1.195068237,3.7154999999999982,0.0,-32386.0,0.0,0.0,0.0,0.0,0.0,1.251220575,3.7106249999999985,0.0,-0.09000000357627869,88.58000183105469,-105.05999755859375,1.0042724609375,7.9345703125E-4,-0.029052734375,35.54999923706055,0.0,4.0,0.063751220703125,-0.0305633544921875,Waiting,0.0,0.0,-24581.0,0.0,0.0,0.0,0.0,0.0,
16.049618000000017,0.0,0.0,0.0,0.0,0.0,0.0,0.0,0.125,0.047607417,1.2409999999999985,0.0,-776.0,0.0,0.0,0.0,0.0,0.0,0.819091713,3.711749999999998,0.0,0.0,0.0,0.0,0.0,0.0,0.0,1.19628894,3.7154999999999982,0.0,-32386.0,0.0,0.0,0.0,0.0,0.0,1.251220575,3.7106249999999985,0.0,-0.09000000357627869,88.58000183105469,-105.05999755859375,1.00738525390625,-0.00433349609375,-0.025634765625,35.54999923706055,0.0,1.0,0.063751220703125,-0.0305633544921875,Waiting,0.0,0.0,-24581.0,0.0,0.0,0.0,0.0,0.0,
16.291897000000112,0.0,0.0,0.0,0.0,0.0,0.0,0.0,0.125,0.047607417,1.2409999999999985,0.0,-776.0,0.0,0.0,0.0,0.0,0.0,0.8178710100000001,3.711749999999998,0.0,0.0,0.0,0.0,0.0,0.0,0.0,1.195068237,3.7154999999999982,0.0,-32386.0,0.0,0.0,0.0,0.0,0.0,1.251220575,3.7106249999999985,0.0,-0.09000000357627869,88.58000183105469,-105.05999755859375,1.007568359375,-0.0013427734375,-0.0296630859375,35.56999969482422,0.0,4.0,0.063751220703125,-0.0305633544921875,Waiting,0.0,0.0,-24581.0,0.0,0.0,0.0,0.0,0.0,
16.53283200000017,0.0,0.0,0.0,0.0,0.0,0.0,0.0,0.125,0.047607417,1.2409999999999985,0.0,-776.0,0.0,0.0,0.0,0.0,0.0,0.8178710100000001,3.711749999999998,0.0,0.0,0.0,0.0,0.0,0.0,0.0,1.19628894,3.7154999999999982,0.0,-32386.0,0.0,0.0,0.0,0.0,0.0,1.252441278,3.7106249999999985,0.0,-0.10000000149011612,88.56999969482422,-105.1500015258789,1.0054931640625,-0.00299072265625,-0.02801513671875,35.56999969482422,0.0,3.0,0.063751220703125,-0.0305633544921875,Waiting,0.0,0.0,-24581.0,0.0,0.0,0.0,0.0,0.0,
16.786011000000173,0.0,0.0,0.0,0.0,0.0,0.0,0.0,0.125,0.047607417,1.2409999999999985,0.0,-776.0,0.0,0.0,0.0,0.0,0.0,0.819091713,3.711749999999998,0.0,0.0,0.0,0.0,0.0,0.0,0.0,1.19628894,3.7154999999999982,0.0,-32386.0,0.0,0.0,0.0,0.0,0.0,1.251220575,3.7106249999999985,0.0,-0.10000000149011612,88.56999969482422,-105.1500015258789,1.00634765625,-0.003173828125,-0.02313232421875,35.560001373291016,0.0,-1.0,0.063751220703125,-0.0305633544921875,Waiting,0.0,0.0,-24581.0,0.0,0.0,0.0,0.0,0.0,
17.016033000000053,0.0,0.0,0.0,0.0,0.0,0.0,0.0,0.125,0.047607417,1.2409999999999985,0.0,-776.0,0.0,0.0,0.0,0.0,0.0,0.819091713,3.711749999999998,0.0,0.0,0.0,0.0,0.0,0.0,0.0,1.19628894,3.7154999999999982,0.0,-32386.0,0.0,0.0,0.0,0.0,0.0,1.252441278,3.7106249999999985,0.0,-0.10000000149011612,88.56999969482422,-105.13999938964844,1.00579833984375,-0.00189208984375,-0.02252197265625,35.560001373291016,0.0,-2.0,0.063751220703125,-0.0305633544921875,Waiting,0.0,0.0,-24581.0,0.0,0.0,0.0,0.0,0.0,
17.26915600000019,0.0,0.0,0.0,0.0,0.0,0.0,0.0,0.125,0.047607417,1.2409999999999985,0.0,-776.0,0.0,0.0,0.0,0.0,0.0,0.819091713,3.711749999999998,0.0,0.0,0.0,0.0,0.0,0.0,0.0,1.19628894,3.7154999999999982,0.0,-32386.0,0.0,0.0,0.0,0.0,0.0,1.251220575,3.7106249999999985,0.0,-0.10000000149011612,88.58000183105469,-105.04000091552734,1.005859375,-0.0023193359375,-0.02777099609375,35.58000183105469,0.0,3.0,0.063751220703125,-0.0305633544921875,Waiting,0.0,0.0,-24581.0,0.0,0.0,0.0,0.0,0.0,
17.509939000000013,0.0,0.0,0.0,0.0,0.0,0.0,0.0,0.125,0.047607417,1.2409999999999985,0.0,-776.0,0.0,0.0,0.0,0.0,0.0,0.819091713,3.711749999999998,0.0,0.0,0.0,0.0,0.0,0.0,0.0,1.193847534,3.7154999999999982,0.0,-32386.0,0.0,0.0,0.0,0.0,0.0,1.251220575,3.7106249999999985,0.0,-0.10000000149011612,88.58000183105469,-105.05999755859375,1.004638671875,-0.00299072265625,-0.0269775390625,35.58000183105469,0.0,2.0,0.063751220703125,-0.0305633544921875,Waiting,0.0,0.0,-24581.0,0.0,0.0,0.0,0.0,0.0,
17.751049000000116,0.0,0.0,0.0,0.0,0.0,0.0,0.0,0.125,0.047607417,1.2409999999999985,0.0,-776.0,0.0,0.0,0.0,0.0,0.0,0.819091713,3.711749999999998,0.0,0.0,0.0,0.0,0.0,0.0,0.0,1.195068237,3.7154999999999982,0.0,-32386.0,0.0,0.0,0.0,0.0,0.0,1.251220575,3.7106249999999985,0.0,-0.10999999940395355,88.56999969482422,-105.1500015258789,1.0035400390625,-9.765625E-4,-0.0291748046875,35.560001373291016,0.0,4.0,0.063751220703125,-0.0305633544921875,Waiting,0.0,0.0,-24581.0,0.0,0.0,0.0,0.0,0.0,
17.99972400000016,0.0,0.0,0.0,0.0,0.0,0.0,0.0,0.375,3.663329703,0.0,0.0,-776.0,0.0,0.0,-0.0,0.0,0.5,2.0751951,0.0,0.0,0.0,0.0,0.0,0.0,0.0,0.125,2.658691134,0.0,0.0,-32386.0,0.0,0.0,-0.0,0.0,0.25,2.6318356680000004,0.0,0.0,-0.10000000149011612,88.55999755859375,-105.20999908447266,1.05108642578125,0.0377197265625,0.0369873046875,35.560001373291016,0.0,-66.0,0.0637664794921875,-0.030548095703125,Waiting,0.0,0.0,-24581.0,0.0,0.0,0.0,0.0,0.0,
18.243726000000024,0.0,0.0,0.0,0.0,0.0,0.0,0.0,0.125,3.144530928,0.0,0.0,-776.0,0.0,0.0,-0.0,0.0,0.0,3.5742183840000004,0.0,0.0,0.0,0.0,0.0,0.0,0.0,0.0,2.9296872,0.0,0.0,-32385.0,0.0,0.0,-0.0,0.0,0.0,3.1054684320000003,0.0,0.0,-0.12999999523162842,88.58000183105469,-105.06999969482422,0.9879150390625,-0.00885009765625,-0.02545166015625,35.560001373291016,0.0,1.0,0.064117431640625,-0.0311279296875,Waiting,0.0,0.0,-24581.0,0.0,0.0,0.0,0.0,0.0,
18.47698999999999,0.0,0.0,0.0,0.0,0.0,0.0,0.0,0.25,4.222411677,0.0,0.0,-776.0,0.0,0.0,-0.0,0.0,0.25,2.1972654,0.0,0.0,0.0,0.0,0.0,0.0,0.0,0.0,1.8957517590000001,0.0,0.0,-32385.0,0.0,0.0,-0.0,0.0,0.0,1.987304484,0.0,0.0,-0.14000000059604645,88.55999755859375,-105.2300033569336,1.0223388671875,0.01531982421875,0.0283203125,35.56999969482422,0.0,-55.0,0.06317138671875,-0.031280517578125,Waiting,0.0,0.0,-24581.0,0.0,0.0,0.0,0.0,0.0,
18.72022800000012,0.0,0.0,0.0,0.0,0.0,0.0,0.0,0.25,3.647460564,0.0,0.0,-776.0,0.0,0.0,-0.0,0.0,0.0,1.5258787500000002,0.0,0.0,0.0,0.0,0.0,0.0,0.0,0.125,2.6367184800000003,0.0,0.0,-32385.0,0.0,0.0,-0.0,0.0,0.0,2.666015352,0.0,0.0,-0.09000000357627869,88.5999984741211,-104.83000183105469,1.0445556640625,-0.01654052734375,-0.038818359375,35.56999969482422,0.0,14.0,0.063690185546875,-0.0283355712890625,Waiting,0.0,0.0,-24581.0,0.0,0.0,0.0,0.0,0.0,
18.970337000000058,0.0,0.0,0.0,0.0,0.0,0.0,0.0,0.125,3.5314937790000003,0.0,0.0,-776.0,0.0,0.0,-0.0,0.0,0.25,2.459716545,0.0,0.0,0.0,0.0,0.0,0.0,0.0,0.0,2.491454823,0.0,0.0,-32385.0,0.0,0.0,-0.0,0.0,0.0,2.66113254,0.0,0.0,-0.09000000357627869,88.58000183105469,-104.98999786376953,1.00701904296875,-0.0023193359375,-0.0057373046875,35.56999969482422,0.0,-18.0,0.063568115234375,-0.0275726318359375,Waiting,0.0,0.0,-24581.0,0.0,0.0,0.0,0.0,0.0,
19.213715000000082,0.0,0.0,0.0,0.0,0.0,0.0,0.0,0.125,3.9025874910000002,0.0,0.0,-776.0,0.0,0.0,-0.0,0.0,0.0,2.152099389,0.0,0.0,0.0,0.0,0.0,0.0,0.0,0.0,2.296142343,0.0,0.0,-32385.0,0.0,0.0,-0.0,0.0,0.0,2.357177493,0.0,0.0,-0.09000000357627869,88.58000183105469,-104.97000122070312,1.014892578125,-0.01300048828125,-0.0450439453125,35.56999969482422,0.0,20.0,0.063690185546875,-0.027679443359375,Waiting,0.0,0.0,-24581.0,0.0,0.0,0.0,0.0,0.0,
19.45389000000013,0.0,0.0,0.0,0.0,0.0,0.0,0.0,0.125,3.7854000030000003,0.0,0.0,-776.0,0.0,0.0,-0.0,0.0,0.0,1.829833797,0.0,0.0,0.0,0.0,0.0,0.0,0.0,0.0,2.4365231880000002,0.0,0.0,-32385.0,0.0,0.0,-0.0,0.0,0.0,2.491454823,0.0,0.0,-0.10000000149011612,88.56999969482422,-105.08999633789062,1.0087890625,0.0013427734375,-0.02471923828125,35.58000183105469,0.0,0.0,0.063720703125,-0.0277862548828125,Waiting,0.0,0.0,-24581.0,0.0,0.0,0.0,0.0,0.0,
19.697243000000018,0.0,0.0,0.0,0.0,0.0,0.0,0.0,0.125,3.6779781390000004,0.0,0.0,-776.0,0.0,0.0,-0.0,0.0,0.0,2.1618650130000003,0.0,0.0,0.0,0.0,0.0,0.0,0.0,0.0,2.548827864,0.0,0.0,-32385.0,0.0,0.0,-0.0,0.0,0.0,2.618407935,0.0,0.0,-0.09000000357627869,88.58000183105469,-104.95999908447266,1.00177001953125,0.0040283203125,-0.02386474609375,35.58000183105469,0.0,-1.0,0.063720703125,-0.0277862548828125,Waiting,0.0,0.0,-24581.0,0.0,0.0,0.0,0.0,0.0,
19.93659200000018,0.0,0.0,0.0,0.0,0.0,0.0,0.0,0.125,3.757323834,0.0,0.0,-776.0,0.0,0.0,-0.0,0.0,0.0,2.143554468,0.0,0.0,0.0,0.0,0.0,0.0,0.0,0.0,2.3217771060000003,0.0,0.0,-32385.0,0.0,0.0,-0.0,0.0,0.0,2.521972398,0.0,0.0,-0.09000000357627869,88.58000183105469,-104.95999908447266,1.01043701171875,-0.0091552734375,-0.02667236328125,35.58000183105469,0.0,2.0,0.063720703125,-0.0277862548828125,Waiting,0.0,0.0,-24581.0,0.0,0.0,0.0,0.0,0.0,
20.178530000000027,0.0,0.0,0.0,0.0,0.0,0.0,0.0,0.125,3.7878414090000003,0.0,0.0,-776.0,0.0,0.0,-0.0,0.0,0.0,2.037353307,0.0,0.0,0.0,0.0,0.0,0.0,0.0,0.0,2.4328610790000003,0.0,0.0,-32385.0,0.0,0.0,-0.0,0.0,0.0,2.406005613,0.0,0.0,-0.09000000357627869,88.58000183105469,-104.94000244140625,1.012939453125,-0.01348876953125,-0.00543212890625,35.58000183105469,0.0,-18.0,0.063720703125,-0.0279083251953125,Waiting,0.0,0.0,-24581.0,0.0,0.0,0.0,0.0,0.0,
20.427284000000217,0.0,0.0,0.0,0.0,0.0,0.0,0.0,0.125,3.762206646,0.0,0.0,-776.0,0.0,0.0,-0.0,0.0,0.0,2.055663852,0.0,0.0,0.0,0.0,0.0,0.0,0.0,0.0,2.4853513080000003,0.0,0.0,-32385.0,0.0,0.0,-0.0,0.0,0.0,2.5305173190000003,0.0,0.0,-0.09000000357627869,88.58999633789062,-104.94000244140625,1.00543212890625,-7.32421875E-4,-0.03167724609375,35.560001373291016,0.0,6.0,0.063720703125,-0.0279083251953125,Waiting,0.0,0.0,-24581.0,0.0,0.0,0.0,0.0,0.0,
20.67173900000006,0.0,0.0,0.0,0.0,0.0,0.0,0.0,0.125,3.762206646,0.0,0.0,-776.0,0.0,0.0,-0.0,0.0,0.0,2.0654294760000003,0.0,0.0,0.0,0.0,0.0,0.0,0.0,0.0,2.393798583,0.0,0.0,-32385.0,0.0,0.0,-0.0,0.0,0.0,2.5830075480000003,0.0,0.0,-0.09000000357627869,88.58999633789062,-104.83999633789062,1.00830078125,-0.00238037109375,-0.027099609375,35.560001373291016,0.0,2.0,0.063720703125,-0.0279083251953125,Waiting,0.0,0.0,-24581.0,0.0,0.0,0.0,0.0,0.0,
20.9095290000001,0.0,0.0,0.0,0.0,0.0,0.0,0.0,0.125,3.75976524,0.0,0.0,-776.0,0.0,0.0,-0.0,0.0,0.0,2.0654294760000003,0.0,0.0,0.0,0.0,0.0,0.0,0.0,0.0,2.369384523,0.0,0.0,-32385.0,0.0,0.0,-0.0,0.0,0.0,2.559814191,0.0,0.0,-0.07999999821186066,88.58999633789062,-104.83999633789062,1.00726318359375,-5.4931640625E-4,-0.021240234375,35.56999969482422,0.0,-3.0,0.063720703125,-0.0279083251953125,Waiting,0.0,0.0,-24581.0,0.0,0.0,0.0,0.0,0.0,
21.15120900000003,0.0,0.0,0.0,0.0,0.0,0.0,0.0,0.125,3.762206646,0.0,0.0,-776.0,0.0,0.0,-0.0,0.0,0.0,2.0654294760000003,0.0,0.0,0.0,0.0,0.0,0.0,0.0,0.0,2.412109128,0.0,0.0,-32385.0,0.0,0.0,-0.0,0.0,0.0,2.506103259,0.0,0.0,-0.09000000357627869,88.58000183105469,-104.91999816894531,1.00775146484375,3.662109375E-4,-0.0291748046875,35.56999969482422,0.0,4.0,0.063720703125,-0.0279083251953125,Waiting,0.0,0.0,-24581.0,0.0,0.0,0.0,0.0,0.0,
21.40889199999999,0.0,0.0,0.0,0.0,0.0,0.0,0.0,0.125,3.760985943,0.0,0.0,-776.0,0.0,0.0,-0.0,0.0,0.0,2.0703122880000002,0.0,0.0,0.0,0.0,0.0,0.0,0.0,0.0,2.4316403760000003,0.0,0.0,-32385.0,0.0,0.0,-0.0,0.0,0.0,2.491454823,0.0,0.0,-0.09000000357627869,88.58000183105469,-104.91999816894531,1.003662109375,-0.00250244140625,-0.0235595703125,35.560001373291016,0.0,-1.0,0.063720703125,-0.0279083251953125,Waiting,0.0,0.0,-24581.0,0.0,0.0,0.0,0.0,0.0,
21.67271800000011,0.0,0.0,0.0,0.0,0.0,0.0,0.0,0.125,3.75976524,0.0,0.0,-776.0,0.0,0.0,-0.0,0.0,0.0,2.0654294760000003,0.0,0.0,0.0,0.0,0.0,0.0,0.0,0.0,2.4328610790000003,0.0,0.0,-32385.0,0.0,0.0,-0.0,0.0,0.0,2.491454823,0.0,0.0,-0.09000000357627869,88.56999969482422,-104.98999786376953,1.00811767578125,-0.00225830078125,-0.0196533203125,35.560001373291016,0.0,-5.0,0.063720703125,-0.0279083251953125,Waiting,0.0,0.0,-24581.0,0.0,0.0,0.0,0.0,0.0,
21.930871000000042,0.0,0.0,0.0,0.0,0.0,0.0,0.0,0.125,3.762206646,0.0,0.0,-776.0,0.0,0.0,-0.0,0.0,0.0,2.0703122880000002,0.0,0.0,0.0,0.0,0.0,0.0,0.0,0.0,2.4328610790000003,0.0,0.0,-32385.0,0.0,0.0,-0.0,0.0,0.0,2.49023412,0.0,0.0,-0.09000000357627869,88.58000183105469,-104.88999938964844,1.007568359375,-0.00469970703125,-0.02435302734375,35.529998779296875,0.0,0.0,0.063720703125,-0.0279083251953125,Waiting,0.0,0.0,-24581.0,0.0,0.0,0.0,0.0,0.0,
22.189852000000187,0.0,0.0,0.0,0.0,0.0,0.0,0.0,0.125,3.762206646,0.0,0.0,-776.0,0.0,0.0,-0.0,0.0,0.0,2.0654294760000003,0.0,0.0,0.0,0.0,0.0,0.0,0.0,0.0,2.4316403760000003,0.0,0.0,-32385.0,0.0,0.0,-0.0,0.0,0.0,2.491454823,0.0,0.0,-0.09000000357627869,88.58999633789062,-104.88999938964844,1.00482177734375,0.0010986328125,-0.02197265625,35.529998779296875,0.0,-2.0,0.063720703125,-0.0279083251953125,Waiting,0.0,0.0,-24581.0,0.0,0.0,0.0,0.0,0.0,
22.449326000000116,0.0,0.0,0.0,0.0,0.0,0.0,0.0,0.125,3.760985943,0.0,0.0,-776.0,0.0,0.0,-0.0,0.0,0.0,2.0654294760000003,0.0,0.0,0.0,0.0,0.0,0.0,0.0,0.0,2.4316403760000003,0.0,0.0,-32385.0,0.0,0.0,-0.0,0.0,0.0,2.491454823,0.0,0.0,-0.07999999821186066,88.58000183105469,-104.87999725341797,1.0045166015625,-0.004150390625,-0.025634765625,35.540000915527344,0.0,1.0,0.063720703125,-0.0279083251953125,Waiting,0.0,0.0,-24581.0,0.0,0.0,0.0,0.0,0.0,
22.70818900000001,0.0,0.0,0.0,0.0,0.0,0.0,0.0,0.125,3.762206646,0.0,0.0,-776.0,0.0,0.0,-0.0,0.0,0.0,2.0654294760000003,0.0,0.0,0.0,0.0,0.0,0.0,0.0,0.0,2.4328610790000003,0.0,0.0,-32385.0,0.0,0.0,-0.0,0.0,0.0,2.491454823,0.0,0.0,-0.09000000357627869,88.58000183105469,-104.86000061035156,1.00341796875,-0.002685546875,-0.0281982421875,35.540000915527344,0.0,3.0,0.063720703125,-0.0279083251953125,Waiting,0.0,0.0,-24581.0,0.0,0.0,0.0,0.0,0.0,
22.949516000000063,0.0,0.0,0.0,0.0,0.0,0.0,0.0,0.125,3.760985943,0.0,0.0,-776.0,0.0,0.0,-0.0,0.0,0.0,2.0654294760000003,0.0,0.0,0.0,0.0,0.0,0.0,0.0,0.0,2.4316403760000003,0.0,0.0,-32385.0,0.0,0.0,-0.0,0.0,0.0,2.491454823,0.0,0.0,-0.09000000357627869,88.58999633789062,-104.75,1.00653076171875,-0.00189208984375,-0.01995849609375,35.540000915527344,0.0,-4.0,0.063720703125,-0.0279083251953125,Waiting,0.0,0.0,-24581.0,0.0,0.0,0.0,0.0,0.0,
23.19932200000016,0.0,0.0,0.0,0.0,0.0,0.0,0.0,0.125,3.760985943,0.0,0.0,-776.0,0.0,0.0,-0.0,0.0,0.0,2.0666501790000003,0.0,0.0,0.0,0.0,0.0,0.0,0.0,0.0,2.4328610790000003,0.0,0.0,-32385.0,0.0,0.0,-0.0,0.0,0.0,2.491454823,0.0,0.0,-0.09000000357627869,88.58999633789062,-104.8499984741211,1.0035400390625,-2.44140625E-4,-0.0250244140625,35.540000915527344,0.0,0.0,0.063720703125,-0.0279083251953125,Waiting,0.0,0.0,-24581.0,0.0,0.0,0.0,0.0,0.0,
23.43603100000019,0.0,0.0,0.0,0.0,0.0,0.0,0.0,0.125,3.762206646,0.0,0.0,-776.0,0.0,0.0,-0.0,0.0,0.0,2.0654294760000003,0.0,0.0,0.0,0.0,0.0,0.0,0.0,0.0,2.4328610790000003,0.0,0.0,-32385.0,0.0,0.0,-0.0,0.0,0.0,2.491454823,0.0,0.0,-0.09000000357627869,88.58999633789062,-104.8499984741211,1.0067138671875,2.44140625E-4,-0.02105712890625,35.56999969482422,0.0,-3.0,0.063720703125,-0.0279083251953125,Waiting,0.0,0.0,-24581.0,0.0,0.0,0.0,0.0,0.0,
23.682086000000126,0.0,0.0,0.0,0.0,0.0,0.0,0.0,0.125,3.762206646,0.0,0.0,-776.0,0.0,0.0,-0.0,0.0,0.0,2.0654294760000003,0.0,0.0,0.0,0.0,0.0,0.0,0.0,0.0,2.4316403760000003,0.0,0.0,-32385.0,0.0,0.0,-0.0,0.0,0.0,2.491454823,0.0,0.0,-0.07999999821186066,88.5999984741211,-104.7300033569336,1.006103515625,-0.0030517578125,-0.02520751953125,35.56999969482422,0.0,0.0,0.063720703125,-0.0279083251953125,Waiting,0.0,0.0,-24581.0,0.0,0.0,0.0,0.0,0.0,
23.927528000000166,0.0,0.0,0.0,0.0,0.0,0.0,0.0,0.125,3.762206646,0.0,0.0,-776.0,0.0,0.0,-0.0,0.0,0.0,2.0654294760000003,0.0,0.0,0.0,0.0,0.0,0.0,0.0,0.0,2.4316403760000003,0.0,0.0,-32385.0,0.0,0.0,-0.0,0.0,0.0,2.491454823,0.0,0.0,-0.09000000357627869,88.5999984741211,-104.6500015258789,1.00347900390625,-0.00213623046875,-0.02362060546875,35.54999923706055,0.0,0.0,0.063720703125,-0.0279083251953125,Waiting,0.0,0.0,-24581.0,0.0,0.0,0.0,0.0,0.0,
24.168347999999998,0.0,0.0,0.0,0.0,0.0,0.0,0.0,0.125,3.762206646,0.0,0.0,-776.0,0.0,0.0,-0.0,0.0,0.0,2.0654294760000003,0.0,0.0,0.0,0.0,0.0,0.0,0.0,0.0,2.4316403760000003,0.0,0.0,-32385.0,0.0,0.0,-0.0,0.0,0.0,2.491454823,0.0,0.0,-0.09000000357627869,88.5999984741211,-104.63999938964844,1.00494384765625,-0.00177001953125,-0.02215576171875,35.54999923706055,0.0,-2.0,0.063720703125,-0.0279083251953125,Waiting,0.0,0.0,-24581.0,0.0,0.0,0.0,0.0,0.0,
24.416676000000212,0.0,0.0,0.0,0.0,0.0,0.0,0.0,0.125,3.762206646,0.0,0.0,-776.0,0.0,0.0,-0.0,0.0,0.0,2.0654294760000003,0.0,0.0,0.0,0.0,0.0,0.0,0.0,0.0,2.4316403760000003,0.0,0.0,-32385.0,0.0,0.0,-0.0,0.0,0.0,2.49023412,0.0,0.0,-0.07999999821186066,88.5999984741211,-104.63999938964844,1.00567626953125,6.103515625E-4,-0.02642822265625,35.560001373291016,0.0,1.0,0.063720703125,-0.0279083251953125,Waiting,0.0,0.0,-24581.0,0.0,0.0,0.0,0.0,0.0,
24.667091000000013,0.0,0.0,0.0,0.0,0.0,0.0,0.0,0.125,3.762206646,0.0,0.0,-776.0,0.0,0.0,-0.0,0.0,0.0,2.0654294760000003,0.0,0.0,0.0,0.0,0.0,0.0,0.0,0.0,2.4316403760000003,0.0,0.0,-32385.0,0.0,0.0,-0.0,0.0,0.0,2.491454823,0.0,0.0,-0.07999999821186066,88.5999984741211,-104.62000274658203,1.004638671875,-0.0020751953125,-0.0283203125,35.560001373291016,0.0,3.0,0.063720703125,-0.0279083251953125,Waiting,0.0,0.0,-24581.0,0.0,0.0,0.0,0.0,0.0,
24.91112900000019,0.0,0.0,0.0,0.0,0.0,0.0,0.0,0.125,3.762206646,0.0,0.0,-776.0,0.0,0.0,-0.0,0.0,0.0,2.0654294760000003,0.0,0.0,0.0,0.0,0.0,0.0,0.0,0.0,2.4328610790000003,0.0,0.0,-32385.0,0.0,0.0,-0.0,0.0,0.0,2.491454823,0.0,0.0,-0.07999999821186066,88.5999984741211,-104.72000122070312,1.0047607421875,-0.0047607421875,-0.02178955078125,35.58000183105469,0.0,-2.0,0.063720703125,-0.0279083251953125,Waiting,0.0,0.0,-24581.0,0.0,0.0,0.0,0.0,0.0,
25.15125,0.0,0.0,0.0,0.0,0.0,0.0,0.0,0.125,3.760985943,0.0,0.0,-776.0,0.0,0.0,-0.0,0.0,0.0,2.0703122880000002,0.0,0.0,0.0,0.0,0.0,0.0,0.0,0.0,2.4328610790000003,0.0,0.0,-32385.0,0.0,0.0,-0.0,0.0,0.0,2.491454823,0.0,0.0,-0.07999999821186066,88.5999984741211,-104.69999694824219,1.006591796875,-0.00164794921875,-0.0263671875,35.58000183105469,0.0,1.0,0.063720703125,-0.0279083251953125,Waiting,0.0,0.0,-24581.0,0.0,0.0,0.0,0.0,0.0,
25.38868700000015,0.0,0.0,0.0,0.0,0.0,0.0,0.0,0.125,3.762206646,0.0,0.0,-776.0,0.0,0.0,-0.0,0.0,0.0,2.0654294760000003,0.0,0.0,0.0,0.0,0.0,0.0,0.0,0.0,2.4328610790000003,0.0,0.0,-32385.0,0.0,0.0,-0.0,0.0,0.0,2.491454823,0.0,0.0,-0.09000000357627869,88.58999633789062,-104.72000122070312,1.0042724609375,-0.0020751953125,-0.0224609375,35.58000183105469,0.0,-2.0,0.063720703125,-0.0279083251953125,Waiting,0.0,0.0,-24581.0,0.0,0.0,0.0,0.0,0.0,
25.634358000000006,0.0,0.0,0.0,0.0,0.0,0.0,0.0,0.125,3.760985943,0.0,0.0,-776.0,0.0,0.0,-0.0,0.0,0.0,2.0654294760000003,0.0,0.0,0.0,0.0,0.0,0.0,0.0,0.0,2.4328610790000003,0.0,0.0,-32385.0,0.0,0.0,-0.0,0.0,0.0,2.491454823,0.0,0.0,-0.09000000357627869,88.58999633789062,-104.80000305175781,1.00482177734375,-0.00164794921875,-0.029052734375,35.58000183105469,0.0,4.0,0.063720703125,-0.0279083251953125,Waiting,0.0,0.0,-24581.0,0.0,0.0,0.0,0.0,0.0,
25.87597200000007,0.0,0.0,0.0,0.0,0.0,0.0,0.0,0.125,3.762206646,0.0,0.0,-776.0,0.0,0.0,-0.0,0.0,0.0,2.0654294760000003,0.0,0.0,0.0,0.0,0.0,0.0,0.0,0.0,2.4316403760000003,0.0,0.0,-32385.0,0.0,0.0,-0.0,0.0,0.0,2.491454823,0.0,0.0,-0.09000000357627869,88.5999984741211,-104.66999816894531,1.0047607421875,-0.00128173828125,-0.0269775390625,35.58000183105469,0.0,2.0,0.063720703125,-0.0279083251953125,Waiting,0.0,0.0,-24581.0,0.0,0.0,0.0,0.0,0.0,
26.11590900000022,0.0,0.0,0.0,0.0,0.0,0.0,0.0,0.125,3.760985943,0.0,0.0,-776.0,0.0,0.0,-0.0,0.0,0.0,2.0666501790000003,0.0,0.0,0.0,0.0,0.0,0.0,0.0,0.0,2.4328610790000003,0.0,0.0,-32385.0,0.0,0.0,-0.0,0.0,0.0,2.491454823,0.0,0.0,-0.09000000357627869,88.58999633789062,-104.66999816894531,1.00567626953125,-0.004150390625,-0.02911376953125,35.560001373291016,0.0,4.0,0.063720703125,-0.0279083251953125,Waiting,0.0,0.0,-24581.0,0.0,0.0,0.0,0.0,0.0,
26.355330000000073,0.0,0.0,0.0,0.0,0.0,0.0,0.0,0.125,3.762206646,0.0,0.0,-776.0,0.0,0.0,-0.0,0.0,0.0,2.0666501790000003,0.0,0.0,0.0,0.0,0.0,0.0,0.0,0.0,2.4328610790000003,0.0,0.0,-32385.0,0.0,0.0,-0.0,0.0,0.0,2.49023412,0.0,0.0,-0.09000000357627869,88.58000183105469,-104.7699966430664,1.0047607421875,-0.004150390625,-0.02081298828125,35.560001373291016,0.0,-3.0,0.063720703125,-0.0279083251953125,Waiting,0.0,0.0,-24581.0,0.0,0.0,0.0,0.0,0.0,
26.596538000000177,0.0,0.0,0.0,0.0,0.0,0.0,0.0,0.125,3.760985943,0.0,0.0,-776.0,0.0,0.0,-0.0,0.0,0.0,2.0654294760000003,0.0,0.0,0.0,0.0,0.0,0.0,0.0,0.0,2.4328610790000003,0.0,0.0,-32385.0,0.0,0.0,-0.0,0.0,0.0,2.491454823,0.0,0.0,-0.07999999821186066,88.58000183105469,-104.8499984741211,1.005859375,-0.00396728515625,-0.023193359375,35.56999969482422,0.0,-1.0,0.063720703125,-0.0279083251953125,Waiting,0.0,0.0,-24581.0,0.0,0.0,0.0,0.0,0.0,
26.833101000000024,0.0,0.0,0.0,0.0,0.0,0.0,0.0,0.125,3.762206646,0.0,0.0,-776.0,0.0,0.0,-0.0,0.0,0.0,2.0654294760000003,0.0,0.0,0.0,0.0,0.0,0.0,0.0,0.0,2.4328610790000003,0.0,0.0,-32385.0,0.0,0.0,-0.0,0.0,0.0,2.491454823,0.0,0.0,-0.07999999821186066,88.58999633789062,-104.75,1.003173828125,-0.00238037109375,-0.02410888671875,35.56999969482422,0.0,0.0,0.063720703125,-0.0279083251953125,Waiting,0.0,0.0,-24581.0,0.0,0.0,0.0,0.0,0.0,
27.076131000000053,0.0,0.0,0.0,0.0,0.0,0.0,0.0,0.125,3.762206646,0.0,0.0,-776.0,0.0,0.0,-0.0,0.0,0.0,2.0654294760000003,0.0,0.0,0.0,0.0,0.0,0.0,0.0,0.0,2.4316403760000003,0.0,0.0,-32385.0,0.0,0.0,-0.0,0.0,0.0,2.491454823,0.0,0.0,-0.07999999821186066,88.58000183105469,-104.75,1.0037841796875,-0.002197265625,-0.02374267578125,35.56999969482422,0.0,0.0,0.063720703125,-0.0279083251953125,Waiting,0.0,0.0,-24581.0,0.0,0.0,0.0,0.0,0.0,
27.320414000000106,0.0,0.0,0.0,0.0,0.0,0.0,0.0,0.125,3.762206646,0.0,0.0,-776.0,0.0,0.0,-0.0,0.0,0.0,2.0654294760000003,0.0,0.0,0.0,0.0,0.0,0.0,0.0,0.0,2.4328610790000003,0.0,0.0,-32385.0,0.0,0.0,-0.0,0.0,0.0,2.491454823,0.0,0.0,-0.07000000029802322,88.58000183105469,-104.8499984741211,1.00567626953125,-0.00177001953125,-0.021728515625,35.56999969482422,0.0,-3.0,0.063720703125,-0.0279083251953125,Waiting,0.0,0.0,-24581.0,0.0,0.0,0.0,0.0,0.0,
27.568907000000124,0.0,0.0,0.0,0.0,0.0,0.0,0.0,0.125,3.760985943,0.0,0.0,-776.0,0.0,0.0,-0.0,0.0,0.0,2.0654294760000003,0.0,0.0,0.0,0.0,0.0,0.0,0.0,0.0,2.4316403760000003,0.0,0.0,-32385.0,0.0,0.0,-0.0,0.0,0.0,2.491454823,0.0,0.0,-0.07000000029802322,88.56999969482422,-104.83999633789062,1.00494384765625,-0.001708984375,-0.02825927734375,35.56999969482422,0.0,3.0,0.063720703125,-0.0279083251953125,Waiting,0.0,0.0,-24581.0,0.0,0.0,0.0,0.0,0.0,
27.79653000000003,0.0,0.0,0.0,0.0,0.0,0.0,0.0,0.125,3.760985943,0.0,0.0,-776.0,0.0,0.0,-0.0,0.0,0.0,2.0654294760000003,0.0,0.0,0.0,0.0,0.0,0.0,0.0,0.0,2.4328610790000003,0.0,0.0,-32385.0,0.0,0.0,-0.0,0.0,0.0,2.491454823,0.0,0.0,-0.07999999821186066,88.58000183105469,-104.83000183105469,1.00537109375,-0.00189208984375,-0.02325439453125,35.56999969482422,0.0,-1.0,0.063720703125,-0.0279083251953125,Waiting,0.0,0.0,-24581.0,0.0,0.0,0.0,0.0,0.0,
28.04311400000006,0.0,0.0,0.0,0.0,0.0,0.0,0.0,0.125,3.762206646,0.0,0.0,-776.0,0.0,0.0,-0.0,0.0,0.0,2.0654294760000003,0.0,0.0,0.0,0.0,0.0,0.0,0.0,0.0,2.4316403760000003,0.0,0.0,-32385.0,0.0,0.0,-0.0,0.0,0.0,2.491454823,0.0,0.0,-0.07999999821186066,88.58000183105469,-104.83000183105469,1.00567626953125,-0.003173828125,-0.02471923828125,35.54999923706055,0.0,0.0,0.063720703125,-0.0279083251953125,Waiting,0.0,0.0,-24581.0,0.0,0.0,0.0,0.0,0.0,
28.287845000000203,0.0,0.0,0.0,0.0,0.0,0.0,0.0,0.125,3.762206646,0.0,0.0,-776.0,0.0,0.0,-0.0,0.0,0.0,2.0654294760000003,0.0,0.0,0.0,0.0,0.0,0.0,0.0,0.0,2.4316403760000003,0.0,0.0,-32385.0,0.0,0.0,-0.0,0.0,0.0,2.491454823,0.0,0.0,-0.07999999821186066,88.58000183105469,-104.83000183105469,1.00653076171875,-1.8310546875E-4,-0.02630615234375,35.54999923706055,0.0,1.0,0.063720703125,-0.0279083251953125,Waiting,0.0,0.0,-24581.0,0.0,0.0,0.0,0.0,0.0,
28.53765000000014,0.0,0.0,0.0,0.0,0.0,0.0,0.0,0.125,3.760985943,0.0,0.0,-776.0,0.0,0.0,-0.0,0.0,0.0,2.0654294760000003,0.0,0.0,0.0,0.0,0.0,0.0,0.0,0.0,2.4328610790000003,0.0,0.0,-32385.0,0.0,0.0,-0.0,0.0,0.0,2.491454823,0.0,0.0,-0.07000000029802322,88.56999969482422,-104.91000366210938,1.00567626953125,-0.00274658203125,-0.019287109375,35.56999969482422,0.0,-5.0,0.063720703125,-0.0279083251953125,Waiting,0.0,0.0,-24581.0,0.0,0.0,0.0,0.0,0.0,
28.805640000000132,0.0,0.0,0.0,0.0,0.0,0.0,0.0,0.125,3.762206646,0.0,0.0,-776.0,0.0,0.0,-0.0,0.0,0.0,2.0654294760000003,0.0,0.0,0.0,0.0,0.0,0.0,0.0,0.0,2.4328610790000003,0.0,0.0,-32385.0,0.0,0.0,-0.0,0.0,0.0,2.49023412,0.0,0.0,-0.07000000029802322,88.56999969482422,-104.91999816894531,1.00421142578125,-0.00140380859375,-0.0250244140625,35.56999969482422,0.0,0.0,0.063720703125,-0.0279083251953125,Waiting,0.0,0.0,-24581.0,0.0,0.0,0.0,0.0,0.0,
29.06777100000018,0.0,0.0,0.0,0.0,0.0,0.0,0.0,0.125,3.760985943,0.0,0.0,-776.0,0.0,0.0,-0.0,0.0,0.0,2.0654294760000003,0.0,0.0,0.0,0.0,0.0,0.0,0.0,0.0,2.4328610790000003,0.0,0.0,-32385.0,0.0,0.0,-0.0,0.0,0.0,2.491454823,0.0,0.0,-0.05999999865889549,88.56999969482422,-104.91000366210938,1.0048828125,-0.001953125,-0.02410888671875,35.54999923706055,0.0,0.0,0.063720703125,-0.0279083251953125,Waiting,0.0,0.0,-24581.0,0.0,0.0,0.0,0.0,0.0,
29.330534000000217,0.0,0.0,0.0,0.0,0.0,0.0,0.0,0.125,3.762206646,0.0,0.0,-776.0,0.0,0.0,-0.0,0.0,0.0,2.0654294760000003,0.0,0.0,0.0,0.0,0.0,0.0,0.0,0.0,2.4328610790000003,0.0,0.0,-32385.0,0.0,0.0,-0.0,0.0,0.0,2.491454823,0.0,0.0,-0.05999999865889549,88.55999755859375,-104.91000366210938,1.005859375,-0.001953125,-0.02178955078125,35.54999923706055,0.0,-3.0,0.063720703125,-0.0279083251953125,Waiting,0.0,0.0,-24581.0,0.0,0.0,0.0,0.0,0.0,
29.590927000000143,0.0,0.0,0.0,0.0,0.0,0.0,0.0,0.125,3.762206646,0.0,0.0,-776.0,0.0,0.0,-0.0,0.0,0.0,2.0654294760000003,0.0,0.0,0.0,0.0,0.0,0.0,0.0,0.0,2.4328610790000003,0.0,0.0,-32385.0,0.0,0.0,-0.0,0.0,0.0,2.491454823,0.0,0.0,-0.05999999865889549,88.55999755859375,-105.0,1.00738525390625,-0.00189208984375,-0.02264404296875,35.61000061035156,0.0,-2.0,0.063720703125,-0.0279083251953125,Waiting,0.0,0.0,-24581.0,0.0,0.0,0.0,0.0,0.0,
29.848739999999992,0.0,0.0,0.0,0.0,0.0,0.0,0.0,0.125,3.762206646,0.0,0.0,-776.0,0.0,0.0,-0.0,0.0,0.0,2.0654294760000003,0.0,0.0,0.0,0.0,0.0,0.0,0.0,0.0,2.4328610790000003,0.0,0.0,-32385.0,0.0,0.0,-0.0,0.0,0.0,2