Time,ClimberA1,ClimberA2,FRpos,FRCurrent,FRspeed,FRsetpoint,FRApos,FRACurrent,FREncpos,FREncSetpoint,FREncSpeed,FLpos,FLCurrent,FLspeed,FLsetpoint,FLApos,FLACurrent,FLEncpos,FLEncSetpoint,FLEncSpeed,BRpos,BRCurrent,BRspeed,BRsetpoint,BRApos,BRACurrent,BREncpos,BREncSetpoint,BREncSpeed,BLpos,BLCurrent,BLspeed,BLsetpoint,BLApos,BLACurrent,BLEncpos,BLEncSetpoint,BLEncSpeed,navx_Pitch,navx_Roll,navx_Yaw,navx_XAcc,navx_YAcc,navx_ZAcc,navx_Temp,navx_Bar,navx_Alt,navx_XDis,navx_YDis,GearPlacerState,ShootOutputV,ShootOutputCurrent,ShootEncPos,ShootEncVelocity,ShootSpeed,ShootSetpoint,CarouselSetpoint,CarouselCurrent,
0.15889000000013037,0.0,0.0,0.0,0.0,0.0,0.0,0.0,0.0,3.7255855560000004,0.0,0.0,-747.0,0.0,0.0,0.0,0.0,0.0,2.089843536,0.0,0.0,0.0,0.0,0.0,0.0,0.0,0.0,4.218749568,0.0,0.0,-16473.0,0.0,0.0,0.0,0.0,0.0,2.512206774,0.0,0.0,-0.07000000029802322,88.62000274658203,-105.62000274658203,1.0050048828125,1.220703125E-4,-0.02447509765625,35.470001220703125,0.0,0.0,0.059356689453125,-0.0201416015625,Waiting,0.0,0.0,-24581.0,0.0,0.0,0.0,0.0,0.0,
0.3178870000001043,0.0,0.0,0.0,0.0,0.0,0.0,0.0,0.125,3.7255855560000004,0.0,0.0,-747.0,0.0,0.0,-0.0,0.0,0.0,2.089843536,0.0,0.0,0.0,0.0,0.0,0.0,0.0,0.0,4.218749568,0.0,0.0,-16473.0,0.0,0.0,-0.0,0.0,0.0,2.510986071,0.0,0.0,-0.07000000029802322,88.62000274658203,-105.51000213623047,1.00543212890625,-7.9345703125E-4,-0.0211181640625,35.470001220703125,0.0,-3.0,0.059356689453125,-0.0201416015625,Waiting,0.0,0.0,-24581.0,0.0,0.0,0.0,0.0,0.0,
0.48019900000002236,0.0,0.0,0.0,0.0,0.0,0.0,0.0,0.125,3.720702744,0.0,0.0,-747.0,0.0,0.0,-0.0,0.0,0.0,2.084960724,0.0,0.0,0.0,0.0,0.0,0.0,0.0,0.0,4.219970271,0.0,0.0,-16473.0,0.0,0.0,-0.0,0.0,0.0,2.510986071,0.0,0.0,-0.07000000029802322,88.62000274658203,-105.62000274658203,1.006591796875,-0.001953125,-0.0264892578125,35.4900016784668,0.0,2.0,0.059356689453125,-0.0201416015625,Waiting,0.0,0.0,-24581.0,0.0,0.0,0.0,0.0,0.0,
0.642844999999972,0.0,0.0,0.0,0.0,0.0,0.0,0.0,0.125,3.7255855560000004,0.0,0.0,-747.0,0.0,0.0,-0.0,0.0,0.0,2.084960724,0.0,0.0,0.0,0.0,0.0,0.0,0.0,0.0,4.218749568,0.0,0.0,-16473.0,0.0,0.0,-0.0,0.0,0.0,2.510986071,0.0,0.0,-0.07000000029802322,88.61000061035156,-105.62000274658203,1.003662109375,-0.0035400390625,-0.0233154296875,35.4900016784668,0.0,0.0,0.059356689453125,-0.0201416015625,Waiting,0.0,0.0,-24581.0,0.0,0.0,0.0,0.0,0.0,
0.8060130000000354,0.0,0.0,0.0,0.0,0.0,0.0,0.0,0.125,3.7255855560000004,0.0,0.0,-747.0,0.0,0.0,-0.0,0.0,0.0,2.084960724,0.0,0.0,0.0,0.0,0.0,0.0,0.0,0.0,4.219970271,0.0,0.0,-16473.0,0.0,0.0,-0.0,0.0,0.0,2.510986071,0.0,0.0,-0.07000000029802322,88.62000274658203,-105.62000274658203,1.0018310546875,-0.00250244140625,-0.0235595703125,35.4900016784668,0.0,0.0,0.059356689453125,-0.0201416015625,Waiting,0.0,0.0,-24581.0,0.0,0.0,0.0,0.0,0.0,
0.9791950000000652,0.0,0.0,0.0,0.0,0.0,0.0,0.0,0.125,3.7243648530000004,0.0,0.0,-747.0,0.0,0.0,-0.0,0.0,0.0,2.089843536,0.0,0.0,0.0,0.0,0.0,0.0,0.0,0.0,4.218749568,0.0,0.0,-16473.0,0.0,0.0,-0.0,0.0,0.0,2.510986071,0.0,0.0,-0.07000000029802322,88.5999984741211,-105.72000122070312,1.0045166015625,-4.2724609375E-4,-0.03070068359375,35.5,0.0,6.0,0.059356689453125,-0.0201416015625,Waiting,0.0,0.0,-24581.0,0.0,0.0,0.0,0.0,0.0,
1.1422770000000018,0.0,0.0,0.0,0.0,0.0,0.0,0.0,0.125,3.7255855560000004,0.0,0.0,-747.0,0.0,0.0,-0.0,0.0,0.0,2.084960724,0.0,0.0,0.0,0.0,0.0,0.0,0.0,0.0,4.219970271,0.0,0.0,-16473.0,0.0,0.0,-0.0,0.0,0.0,2.510986071,0.0,0.0,-0.07000000029802322,88.5999984741211,-105.80999755859375,1.0093994140625,-0.001220703125,-0.02587890625,35.5,0.0,1.0,0.059356689453125,-0.0201416015625,Waiting,0.0,0.0,-24581.0,0.0,0.0,0.0,0.0,0.0,
1.3026010000000243,0.0,0.0,0.0,0.0,0.0,0.0,0.0,0.125,3.651122673,0.0,0.0,-747.0,0.0,0.0,-0.0,0.0,0.0,2.088622833,0.0,0.0,0.0,0.0,0.0,0.0,0.0,0.0,4.219970271,0.0,0.0,-16473.0,0.0,0.0,-0.0,0.0,0.0,2.510986071,0.0,0.0,-0.07999999821186066,88.58000183105469,-106.08999633789062,1.00518798828125,6.103515625E-5,-0.02386474609375,35.5,0.0,-1.0,0.059356689453125,-0.0201416015625,Waiting,0.0,0.0,-24581.0,0.0,0.0,0.0,0.0,0.0,
1.4832530000000261,0.0,0.0,0.0,0.0,0.0,0.0,0.0,0.125,3.668212515,0.0,0.0,-747.0,0.0,0.0,-0.0,0.0,0.0,2.088622833,0.0,0.0,0.0,0.0,0.0,0.0,0.0,0.0,4.218749568,0.0,0.0,-16473.0,0.0,0.0,-0.0,0.0,0.0,2.510986071,0.0,0.0,-0.07000000029802322,88.58000183105469,-106.08999633789062,1.010986328125,-4.2724609375E-4,-0.02349853515625,35.5099983215332,0.0,-1.0,0.059356689453125,-0.0201416015625,Waiting,0.0,0.0,-24581.0,0.0,0.0,0.0,0.0,0.0,
1.6469629999999889,0.0,0.0,0.0,0.0,0.0,0.0,0.0,0.125,3.7353511800000003,0.0,0.0,-747.0,0.0,0.0,-0.0,0.0,0.0,2.084960724,0.0,0.0,0.0,0.0,0.0,0.0,0.0,0.0,4.219970271,0.0,0.0,-16473.0,0.0,0.0,-0.0,0.0,0.0,2.512206774,0.0,0.0,-0.07999999821186066,88.58000183105469,-106.08999633789062,1.0029296875,-0.0032958984375,-0.02728271484375,35.5099983215332,0.0,2.0,0.059356689453125,-0.0201416015625,Waiting,0.0,0.0,-24581.0,0.0,0.0,0.0,0.0,0.0,
1.8024899999999906,0.0,0.0,0.0,0.0,0.0,0.0,0.0,0.0,3.77197227,0.0,0.0,-747.0,0.0,0.0,-0.0,0.0,0.0,2.089843536,0.0,0.0,0.0,0.0,0.0,0.0,0.0,0.0,4.218749568,0.0,0.0,-16473.0,0.0,0.0,-0.0,0.0,0.0,2.512206774,0.0,0.0,-0.07000000029802322,88.62999725341797,-105.41000366210938,1.00445556640625,0.0015869140625,-0.01788330078125,35.5099983215332,0.0,-6.0,0.059356689453125,-0.0201416015625,Waiting,0.0,0.0,-24581.0,0.0,0.0,0.0,0.0,0.0,
1.9522510000001638,0.0,0.0,0.0,0.0,0.0,0.0,0.0,0.125,3.7988277360000002,0.0,0.0,-747.0,0.0,0.0,-0.0,0.0,0.0,2.089843536,0.0,0.0,0.0,0.0,0.0,0.0,0.0,0.0,4.218749568,0.0,0.0,-16473.0,0.0,0.0,-0.0,0.0,0.0,2.510986071,0.0,0.0,-0.07000000029802322,88.62000274658203,-105.4800033569336,1.0111083984375,-0.00286865234375,-0.02288818359375,35.459999084472656,0.0,-1.0,0.059356689453125,-0.0201416015625,Waiting,0.0,0.0,-24581.0,0.0,0.0,0.0,0.0,0.0,
2.1061560000001918,0.0,0.0,0.0,0.0,0.0,0.0,0.0,0.125,3.80859336,0.0,0.0,-747.0,0.0,0.0,-0.0,0.0,0.0,2.089843536,0.0,0.0,0.0,0.0,0.0,0.0,0.0,0.0,4.217528865,0.0,0.0,-16473.0,0.0,0.0,-0.0,0.0,0.0,2.512206774,0.0,0.0,-0.05999999865889549,88.62000274658203,-105.5999984741211,1.00518798828125,-0.00518798828125,-0.016845703125,35.459999084472656,0.0,-6.0,0.059356689453125,-0.0201416015625,Waiting,0.0,0.0,-24581.0,0.0,0.0,0.0,0.0,0.0,
2.2666990000000222,0.0,0.0,0.0,0.0,0.0,0.0,0.0,0.125,3.7780757850000004,0.0,0.0,-747.0,0.0,0.0,-0.0,0.0,0.0,2.089843536,0.0,0.0,0.0,0.0,0.0,0.0,0.0,0.0,4.218749568,0.0,0.0,-16473.0,0.0,0.0,-0.0,0.0,0.0,2.510986071,0.0,0.0,-0.07999999821186066,88.58999633789062,-105.98999786376953,1.00653076171875,-0.0045166015625,-0.02044677734375,35.459999084472656,0.0,-3.0,0.059356689453125,-0.0201416015625,Waiting,0.0,0.0,-24581.0,0.0,0.0,0.0,0.0,0.0,
2.422966000000015,0.0,0.0,0.0,0.0,0.0,0.0,0.0,0.125,3.762206646,0.0,0.0,-747.0,0.0,0.0,-0.0,0.0,0.0,2.089843536,0.0,0.0,0.0,0.0,0.0,0.0,0.0,0.0,4.219970271,0.0,0.0,-16473.0,0.0,0.0,-0.0,0.0,0.0,2.510986071,0.0,0.0,-0.07000000029802322,88.58999633789062,-105.94999694824219,1.0030517578125,-0.001708984375,-0.033203125,35.459999084472656,0.0,8.0,0.059356689453125,-0.0201416015625,Waiting,0.0,0.0,-24581.0,0.0,0.0,0.0,0.0,0.0,
2.5785339999999852,0.0,0.0,0.0,0.0,0.0,0.0,0.0,0.125,3.762206646,0.0,0.0,-747.0,0.0,0.0,-0.0,0.0,0.0,2.088622833,0.0,0.0,0.0,0.0,0.0,0.0,0.0,0.0,4.218749568,0.0,0.0,-16473.0,0.0,0.0,-0.0,0.0,0.0,2.510986071,0.0,0.0,-0.05999999865889549,88.58999633789062,-105.95999908447266,1.0067138671875,-0.00177001953125,-0.03387451171875,35.5,0.0,9.0,0.059356689453125,-0.0201416015625,Waiting,0.0,0.0,-24581.0,0.0,0.0,0.0,0.0,0.0,
2.737627000000095,0.0,0.0,0.0,0.0,0.0,0.0,0.0,0.125,3.652343376,0.0,0.0,-747.0,0.0,0.0,-0.0,0.0,0.0,2.089843536,0.0,0.0,0.0,0.0,0.0,0.0,0.0,0.0,4.218749568,0.0,0.0,-16473.0,0.0,0.0,-0.0,0.0,0.0,2.512206774,0.0,0.0,-0.05999999865889549,88.61000061035156,-105.75,1.0091552734375,0.00653076171875,-0.02716064453125,35.5,0.0,2.0,0.059356689453125,-0.0201416015625,Waiting,0.0,0.0,-24581.0,0.0,0.0,0.0,0.0,0.0,
2.8869810000001452,0.0,0.0,0.0,0.0,0.0,0.0,0.0,0.125,3.6840816540000003,0.0,0.0,-747.0,0.0,0.0,-0.0,0.0,0.0,2.089843536,0.0,0.0,0.0,0.0,0.0,0.0,0.0,0.0,4.218749568,0.0,0.0,-16473.0,0.0,0.0,-0.0,0.0,0.0,2.510986071,0.0,0.0,-0.05999999865889549,88.62000274658203,-105.6500015258789,1.0008544921875,0.00433349609375,-0.0205078125,35.5,0.0,-4.0,0.059478759765625,-0.0201416015625,Waiting,0.0,0.0,-24581.0,0.0,0.0,0.0,0.0,0.0,
3.043812000000151,0.0,0.0,0.0,0.0,0.0,0.0,0.0,0.125,3.7255855560000004,0.0,0.0,-747.0,0.0,0.0,-0.0,0.0,0.0,2.088622833,0.0,0.0,0.0,0.0,0.0,0.0,0.0,0.0,4.218749568,0.0,0.0,-16473.0,0.0,0.0,-0.0,0.0,0.0,2.510986071,0.0,0.0,-0.07000000029802322,88.58999633789062,-105.9800033569336,1.00360107421875,-0.00262451171875,-0.0257568359375,35.4900016784668,0.0,1.0,0.059478759765625,-0.0201416015625,Waiting,0.0,0.0,-24581.0,0.0,0.0,0.0,0.0,0.0,
3.201761000000173,0.0,0.0,0.0,0.0,0.0,0.0,0.0,0.0,3.8293453110000004,0.0,0.0,-747.0,0.0,0.0,-0.0,0.0,0.0,2.089843536,0.0,0.0,0.0,0.0,0.0,0.0,0.0,0.0,4.218749568,0.0,0.0,-16473.0,0.0,0.0,-0.0,0.0,0.0,2.510986071,0.0,0.0,-0.07000000029802322,88.5999984741211,-105.87999725341797,1.0003662109375,-0.005126953125,-0.0257568359375,35.4900016784668,0.0,1.0,0.059478759765625,-0.0201416015625,Waiting,0.0,0.0,-24581.0,0.0,0.0,0.0,0.0,0.0,
3.3588580000000077,0.0,0.0,0.0,0.0,0.0,0.0,0.0,0.125,3.7878414090000003,0.0,0.0,-747.0,0.0,0.0,-0.0,0.0,0.0,2.078857209,0.0,0.0,0.0,0.0,0.0,0.0,0.0,0.0,4.218749568,0.0,0.0,-16473.0,0.0,0.0,-0.0,0.0,0.0,2.512206774,0.0,0.0,-0.05000000074505806,88.61000061035156,-105.7699966430664,1.00531005859375,-0.00384521484375,-0.03302001953125,35.4900016784668,0.0,8.0,0.059478759765625,-0.0201416015625,Waiting,0.0,0.0,-24581.0,0.0,0.0,0.0,0.0,0.0,
3.5106120000001972,0.0,0.0,0.0,0.0,0.0,0.0,0.0,0.125,3.770751567,0.0,0.0,-747.0,0.0,0.0,-0.0,0.0,0.0,2.086181427,0.0,0.0,0.0,0.0,0.0,0.0,0.0,0.0,4.218749568,0.0,0.0,-16473.0,0.0,0.0,-0.0,0.0,0.0,2.510986071,0.0,0.0,-0.05999999865889549,88.61000061035156,-105.6500015258789,1.001953125,0.00225830078125,-0.0189208984375,35.47999954223633,0.0,6.0,0.059478759765625,-0.0201416015625,Waiting,0.0,0.0,-24581.0,0.0,0.0,0.0,0.0,0.0,
3.6765850000001956,0.0,0.0,0.0,0.0,0.0,0.0,0.0,0.125,3.809814063,0.0,0.0,-747.0,0.0,0.0,-0.0,0.0,0.0,2.083740021,0.0,0.0,0.0,0.0,0.0,0.0,0.0,0.0,4.218749568,0.0,0.0,-16473.0,0.0,0.0,-0.0,0.0,0.0,2.510986071,0.0,0.0,-0.07999999821186066,88.56999969482422,-106.16000366210938,1.002197265625,-0.001708984375,-0.0321044921875,35.47999954223633,0.0,7.0,0.059478759765625,-0.0201416015625,Waiting,0.0,0.0,-24581.0,0.0,0.0,0.0,0.0,0.0,
3.8256330000001473,0.0,0.0,0.0,0.0,0.0,0.0,0.0,0.125,3.858642183,0.0,0.0,-747.0,0.0,0.0,-0.0,0.0,0.0,2.089843536,0.0,0.0,0.0,0.0,0.0,0.0,0.0,0.0,4.219970271,0.0,0.0,-16473.0,0.0,0.0,-0.0,0.0,0.0,2.512206774,0.0,0.0,-0.07000000029802322,88.62000274658203,-105.55000305175781,1.00958251953125,-0.0098876953125,-0.0147705078125,35.47999954223633,0.0,-8.0,0.059417724609375,-0.0201416015625,Waiting,0.0,0.0,-24581.0,0.0,0.0,0.0,0.0,0.0,
3.98455700000003,0.0,0.0,0.0,0.0,0.0,0.0,0.0,0.125,3.7768550820000004,0.0,0.0,-747.0,0.0,0.0,-0.0,0.0,0.0,2.083740021,0.0,0.0,0.0,0.0,0.0,0.0,0.0,0.0,4.217528865,0.0,0.0,-16473.0,0.0,0.0,-0.0,0.0,0.0,2.510986071,0.0,0.0,-0.07000000029802322,88.58999633789062,-105.97000122070312,1.003662109375,-0.00616455078125,-0.02099609375,35.45000076293945,0.0,-3.0,0.059417724609375,-0.0201416015625,Waiting,0.0,0.0,-24581.0,0.0,0.0,0.0,0.0,0.0,
4.14072900000005,0.0,0.0,0.0,0.0,0.0,0.0,0.0,0.125,3.712157823,0.0,0.0,-747.0,0.0,0.0,-0.0,0.0,0.0,2.088622833,0.0,0.0,0.0,0.0,0.0,0.0,0.0,0.0,4.218749568,0.0,0.0,-16473.0,0.0,0.0,-0.0,0.0,0.0,2.512206774,0.0,0.0,-0.07999999821186066,88.58999633789062,-105.98999786376953,1.00164794921875,0.002685546875,-0.02777099609375,35.45000076293945,0.0,2.0,0.059417724609375,-0.0201416015625,Waiting,0.0,0.0,-24581.0,0.0,0.0,0.0,0.0,0.0,
4.299160000000149,0.0,0.0,0.0,0.0,0.0,0.0,0.0,0.125,3.71093712,0.0,0.0,-747.0,0.0,0.0,-0.0,0.0,0.0,2.089843536,0.0,0.0,0.0,0.0,0.0,0.0,0.0,0.0,4.218749568,0.0,0.0,-16473.0,0.0,0.0,-0.0,0.0,0.0,2.512206774,0.0,0.0,-0.07000000029802322,88.62000274658203,-105.6500015258789,0.9951171875,0.01116943359375,-0.00927734375,35.45000076293945,0.0,-15.0,0.059417724609375,-0.0201416015625,Waiting,0.0,0.0,-24581.0,0.0,0.0,0.0,0.0,0.0,
4.450469000000041,0.0,0.0,0.0,0.0,0.0,0.0,0.0,0.125,3.712157823,0.0,0.0,-747.0,0.0,0.0,-0.0,0.0,0.0,2.089843536,0.0,0.0,0.0,0.0,0.0,0.0,0.0,0.0,4.217528865,0.0,0.0,-16473.0,0.0,0.0,-0.0,0.0,0.0,2.510986071,0.0,0.0,-0.07000000029802322,88.62000274658203,-105.6500015258789,0.9996337890625,9.1552734375E-4,-0.020263671875,35.45000076293945,0.0,-3.0,0.059417724609375,-0.0201416015625,Waiting,0.0,0.0,-24581.0,0.0,0.0,0.0,0.0,0.0,
4.605049000000116,0.0,0.0,0.0,0.0,0.0,0.0,0.0,0.125,3.71093712,0.0,0.0,-747.0,0.0,0.0,-0.0,0.0,0.0,2.089843536,0.0,0.0,0.0,0.0,0.0,0.0,0.0,0.0,4.218749568,0.0,0.0,-16473.0,0.0,0.0,-0.0,0.0,0.0,2.512206774,0.0,0.0,-0.07000000029802322,88.58999633789062,-106.0,1.00433349609375,0.00213623046875,-0.02496337890625,35.4900016784668,0.0,0.0,0.059417724609375,-0.0201416015625,Waiting,0.0,0.0,-24581.0,0.0,0.0,0.0,0.0,0.0,
4.762097000000067,0.0,0.0,0.0,0.0,0.0,0.0,0.0,0.125,3.712157823,0.0,0.0,-747.0,0.0,0.0,-0.0,0.0,0.0,2.084960724,0.0,0.0,0.0,0.0,0.0,0.0,0.0,0.0,4.218749568,0.0,0.0,-16473.0,0.0,0.0,-0.0,0.0,0.0,2.510986071,0.0,0.0,-0.07000000029802322,88.5999984741211,-105.76000213623047,1.0052490234375,-9.765625E-4,-0.01702880859375,35.4900016784668,0.0,-7.0,0.059417724609375,-0.0201416015625,Waiting,0.0,0.0,-24581.0,0.0,0.0,0.0,0.0,0.0,
4.919677000000141,0.0,0.0,0.0,0.0,0.0,0.0,0.0,0.125,3.71093712,0.0,0.0,-747.0,0.0,0.0,-0.0,0.0,0.0,2.089843536,0.0,0.0,0.0,0.0,0.0,0.0,0.0,0.0,4.218749568,0.0,0.0,-16473.0,0.0,0.0,-0.0,0.0,0.0,2.512206774,0.0,0.0,-0.07000000029802322,88.5999984741211,-105.86000061035156,1.006103515625,-0.00238037109375,-0.0194091796875,35.4900016784668,0.0,-5.0,0.059417724609375,-0.0201416015625,Waiting,0.0,0.0,-24581.0,0.0,0.0,0.0,0.0,0.0,
5.073403000000166,0.0,0.0,0.0,0.0,0.0,0.0,0.0,0.125,3.712157823,0.0,0.0,-747.0,0.0,0.0,-0.0,0.0,0.0,2.089843536,0.0,0.0,0.0,0.0,0.0,0.0,0.0,0.0,4.218749568,0.0,0.0,-16473.0,0.0,0.0,-0.0,0.0,0.0,2.512206774,0.0,0.0,-0.07000000029802322,88.5999984741211,-105.87999725341797,1.0029296875,0.00640869140625,-0.0224609375,35.47999954223633,0.0,-2.0,0.059417724609375,-0.0201416015625,Waiting,0.0,0.0,-24581.0,0.0,0.0,0.0,0.0,0.0,
5.227974000000162,0.0,0.0,0.0,0.0,0.0,0.0,0.0,0.125,3.712157823,0.0,0.0,-747.0,0.0,0.0,-0.0,0.0,0.0,2.089843536,0.0,0.0,0.0,0.0,0.0,0.0,0.0,0.0,4.218749568,0.0,0.0,-16473.0,0.0,0.0,-0.0,0.0,0.0,2.510986071,0.0,0.0,-0.07000000029802322,88.5999984741211,-105.87999725341797,1.00103759765625,0.00262451171875,-0.02490234375,35.47999954223633,0.0,0.0,0.059417724609375,-0.0201416015625,Waiting,0.0,0.0,-24581.0,0.0,0.0,0.0,0.0,0.0,
5.385344999999972,0.0,0.0,0.0,0.0,0.0,0.0,0.0,0.125,3.712157823,0.0,0.0,-747.0,0.0,0.0,-0.0,0.0,0.0,2.089843536,0.0,0.0,0.0,0.0,0.0,0.0,0.0,0.0,4.219970271,0.0,0.0,-16473.0,0.0,0.0,-0.0,0.0,0.0,2.510986071,0.0,0.0,-0.07000000029802322,88.5999984741211,-105.87999725341797,1.010498046875,-0.004638671875,-0.02984619140625,35.47999954223633,0.0,5.0,0.059417724609375,-0.0201416015625,Waiting,0.0,0.0,-24581.0,0.0,0.0,0.0,0.0,0.0,
5.543553000000073,0.0,0.0,0.0,0.0,0.0,0.0,0.0,0.125,3.712157823,0.0,0.0,-747.0,0.0,0.0,-0.0,0.0,0.0,2.089843536,0.0,0.0,0.0,0.0,0.0,0.0,0.0,0.0,4.217528865,0.0,0.0,-16473.0,0.0,0.0,-0.0,0.0,0.0,2.510986071,0.0,0.0,-0.07999999821186066,88.61000061035156,-105.66000366210938,1.00384521484375,-0.0018310546875,-0.02752685546875,35.47999954223633,0.0,3.0,0.059417724609375,-0.0201416015625,Waiting,0.0,0.0,-24581.0,0.0,0.0,0.0,0.0,0.0,
5.699690000000177,0.0,0.0,0.0,0.0,0.0,0.0,0.0,0.125,3.71093712,0.0,0.0,-747.0,0.0,0.0,-0.0,0.0,0.0,2.084960724,0.0,0.0,0.0,0.0,0.0,0.0,0.0,0.0,4.218749568,0.0,0.0,-16473.0,0.0,0.0,-0.0,0.0,0.0,2.512206774,0.0,0.0,-0.07999999821186066,88.61000061035156,-105.66000366210938,1.0015869140625,2.44140625E-4,-0.02392578125,35.47999954223633,0.0,0.0,0.059417724609375,-0.0201416015625,Waiting,0.0,0.0,-24581.0,0.0,0.0,0.0,0.0,0.0,
5.855396000000183,0.0,0.0,0.0,0.0,0.0,0.0,0.0,0.125,3.712157823,0.0,0.0,-747.0,0.0,0.0,-0.0,0.0,0.0,2.089843536,0.0,0.0,0.0,0.0,0.0,0.0,0.0,0.0,4.218749568,0.0,0.0,-16473.0,0.0,0.0,-0.0,0.0,0.0,2.510986071,0.0,0.0,-0.07999999821186066,88.61000061035156,-105.76000213623047,1.00823974609375,-0.0029296875,-0.0255126953125,35.47999954223633,0.0,1.0,0.059417724609375,-0.0201416015625,Waiting,0.0,0.0,-24581.0,0.0,0.0,0.0,0.0,0.0,
6.0047730000000445,0.0,0.0,0.0,0.0,0.0,0.0,0.0,0.125,3.712157823,0.0,0.0,-747.0,0.0,0.0,-0.0,0.0,0.0,2.088622833,0.0,0.0,0.0,0.0,0.0,0.0,0.0,0.0,4.219970271,0.0,0.0,-16473.0,0.0,0.0,-0.0,0.0,0.0,2.510986071,0.0,0.0,-0.07999999821186066,88.61000061035156,-105.63999938964844,1.005126953125,-0.00408935546875,-0.02587890625,35.47999954223633,0.0,1.0,0.059417724609375,-0.0201416015625,Waiting,0.0,0.0,-24581.0,0.0,0.0,0.0,0.0,0.0,
6.158798000000185,0.0,0.0,0.0,0.0,0.0,0.0,0.0,0.125,3.712157823,0.0,0.0,-747.0,0.0,0.0,-0.0,0.0,0.0,2.084960724,0.0,0.0,0.0,0.0,0.0,0.0,0.0,0.0,4.218749568,0.0,0.0,-16473.0,0.0,0.0,-0.0,0.0,0.0,2.510986071,0.0,0.0,-0.09000000357627869,88.5999984741211,-105.7699966430664,1.0030517578125,-0.0018310546875,-0.02532958984375,35.5,0.0,1.0,0.059417724609375,-0.0201416015625,Waiting,0.0,0.0,-24581.0,0.0,0.0,0.0,0.0,0.0,
6.3141680000000635,0.0,0.0,0.0,0.0,0.0,0.0,0.0,0.125,3.712157823,0.0,0.0,-747.0,0.0,0.0,-0.0,0.0,0.0,2.089843536,0.0,0.0,0.0,0.0,0.0,0.0,0.0,0.0,4.218749568,0.0,0.0,-16473.0,0.0,0.0,-0.0,0.0,0.0,2.510986071,0.0,0.0,-0.09000000357627869,88.61000061035156,-105.66000366210938,1.00457763671875,-0.0030517578125,-0.02313232421875,35.5,0.0,0.0,0.059417724609375,-0.0201416015625,Waiting,0.0,0.0,-24581.0,0.0,0.0,0.0,0.0,0.0,
6.474910000000149,0.0,0.0,0.0,0.0,0.0,0.0,0.0,0.125,3.71093712,0.0,0.0,-747.0,0.0,0.0,-0.0,0.0,0.0,2.088622833,0.0,0.0,0.0,0.0,0.0,0.0,0.0,0.0,4.218749568,0.0,0.0,-16473.0,0.0,0.0,-0.0,0.0,0.0,2.510986071,0.0,0.0,-0.09000000357627869,88.61000061035156,-105.6500015258789,1.00616455078125,-8.544921875E-4,-0.0308837890625,35.5,0.0,6.0,0.059417724609375,-0.0201416015625,Waiting,0.0,0.0,-24581.0,0.0,0.0,0.0,0.0,0.0,
6.630234000000171,0.0,0.0,0.0,0.0,0.0,0.0,0.0,0.125,3.712157823,0.0,0.0,-747.0,0.0,0.0,-0.0,0.0,0.0,2.084960724,0.0,0.0,0.0,0.0,0.0,0.0,0.0,0.0,4.219970271,0.0,0.0,-16473.0,0.0,0.0,-0.0,0.0,0.0,2.510986071,0.0,0.0,-0.09000000357627869,88.61000061035156,-105.62999725341797,1.00537109375,1.220703125E-4,-0.02392578125,35.4900016784668,0.0,0.0,0.059417724609375,-0.0201416015625,Waiting,0.0,0.0,-24581.0,0.0,0.0,0.0,0.0,0.0,
6.78433200000017,0.0,0.0,0.0,0.0,0.0,0.0,0.0,0.125,3.71093712,0.0,0.0,-747.0,0.0,0.0,-0.0,0.0,0.0,2.088622833,0.0,0.0,0.0,0.0,0.0,0.0,0.0,0.0,4.217528865,0.0,0.0,-16473.0,0.0,0.0,-0.0,0.0,0.0,2.510986071,0.0,0.0,-0.07999999821186066,88.61000061035156,-105.63999938964844,1.00482177734375,-0.00164794921875,-0.02215576171875,35.4900016784668,0.0,-1.0,0.059417724609375,-0.0201416015625,Waiting,0.0,0.0,-24581.0,0.0,0.0,0.0,0.0,0.0,
6.9411390000002,0.0,0.0,0.0,0.0,0.0,0.0,0.0,0.125,3.709716417,0.0,0.0,-747.0,0.0,0.0,-0.0,0.0,0.0,2.084960724,0.0,0.0,0.0,0.0,0.0,0.0,0.0,0.0,4.218749568,0.0,0.0,-16473.0,0.0,0.0,-0.0,0.0,0.0,2.510986071,0.0,0.0,-0.07999999821186066,88.61000061035156,-105.62000274658203,1.0052490234375,-0.00262451171875,-0.02447509765625,35.4900016784668,0.0,0.0,0.059417724609375,-0.0201416015625,Waiting,0.0,0.0,-24581.0,0.0,0.0,0.0,0.0,0.0,
7.097440000000177,0.0,0.0,0.0,0.0,0.0,0.0,0.0,0.125,3.712157823,0.0,0.0,-747.0,0.0,0.0,-0.0,0.0,0.0,2.089843536,0.0,0.0,0.0,0.0,0.0,0.0,0.0,0.0,4.218749568,0.0,0.0,-16473.0,0.0,0.0,-0.0,0.0,0.0,2.510986071,0.0,0.0,-0.07999999821186066,88.61000061035156,-105.63999938964844,1.00616455078125,-0.0015869140625,-0.02239990234375,35.4900016784668,0.0,-1.0,0.059417724609375,-0.0201416015625,Waiting,0.0,0.0,-24581.0,0.0,0.0,0.0,0.0,0.0,
7.248788000000175,0.0,0.0,0.0,0.0,0.0,0.0,0.0,0.125,3.71093712,0.0,0.0,-747.0,0.0,0.0,-0.0,0.0,0.0,2.089843536,0.0,0.0,0.0,0.0,0.0,0.0,0.0,0.0,4.218749568,0.0,0.0,-16473.0,0.0,0.0,-0.0,0.0,0.0,2.510986071,0.0,0.0,-0.07999999821186066,88.61000061035156,-105.63999938964844,1.0037841796875,-0.0020751953125,-0.02264404296875,35.4900016784668,0.0,-1.0,0.059417724609375,-0.0201416015625,Waiting,0.0,0.0,-24581.0,0.0,0.0,0.0,0.0,0.0,
7.40808200000017,0.0,0.0,0.0,0.0,0.0,0.0,0.0,0.125,3.712157823,0.0,0.0,-747.0,0.0,0.0,-0.0,0.0,0.0,2.089843536,0.0,0.0,0.0,0.0,0.0,0.0,0.0,0.0,4.218749568,0.0,0.0,-16473.0,0.0,0.0,-0.0,0.0,0.0,2.510986071,0.0,0.0,-0.07999999821186066,88.61000061035156,-105.63999938964844,1.00372314453125,-0.0013427734375,-0.02569580078125,35.4900016784668,0.0,1.0,0.059417724609375,-0.0201416015625,Waiting,0.0,0.0,-24581.0,0.0,0.0,0.0,0.0,0.0,
7.569694000000134,0.0,0.0,0.0,0.0,0.0,0.0,0.0,0.125,3.712157823,0.0,0.0,-747.0,0.0,0.0,-0.0,0.0,0.0,2.089843536,0.0,0.0,0.0,0.0,0.0,0.0,0.0,0.0,4.218749568,0.0,0.0,-16473.0,0.0,0.0,-0.0,0.0,0.0,2.512206774,0.0,0.0,-0.07999999821186066,88.61000061035156,-105.61000061035156,1.00048828125,-0.0013427734375,-0.02191162109375,35.5,0.0,-2.0,0.059417724609375,-0.0201416015625,Waiting,0.0,0.0,-24581.0,0.0,0.0,0.0,0.0,0.0,
7.742280000000028,0.0,0.0,0.0,0.0,0.0,0.0,0.0,0.125,3.71093712,0.0,0.0,-747.0,0.0,0.0,-0.0,0.0,0.0,2.088622833,0.0,0.0,0.0,0.0,0.0,0.0,0.0,0.0,4.218749568,0.0,0.0,-16473.0,0.0,0.0,-0.0,0.0,0.0,2.510986071,0.0,0.0,-0.09000000357627869,88.5999984741211,-105.7300033569336,1.0032958984375,-1.8310546875E-4,-0.02490234375,35.5,0.0,0.0,0.059417724609375,-0.0201416015625,Waiting,0.0,0.0,-24581.0,0.0,0.0,0.0,0.0,0.0,
7.905124000000069,0.0,0.0,0.0,0.0,0.0,0.0,0.0,0.125,3.71093712,0.0,0.0,-747.0,0.0,0.0,-0.0,0.0,0.0,2.084960724,0.0,0.0,0.0,0.0,0.0,0.0,0.0,0.0,4.219970271,0.0,0.0,-16473.0,0.0,0.0,-0.0,0.0,0.0,2.512206774,0.0,0.0,-0.07999999821186066,88.61000061035156,-105.61000061035156,1.00640869140625,-0.00360107421875,-0.02337646484375,35.5,0.0,0.0,0.059417724609375,-0.0201416015625,Waiting,0.0,0.0,-24581.0,0.0,0.0,0.0,0.0,0.0,
8.068074000000022,0.0,0.0,0.0,0.0,0.0,0.0,0.0,0.125,3.712157823,0.0,0.0,-747.0,0.0,0.0,-0.0,0.0,0.0,2.089843536,0.0,0.0,0.0,0.0,0.0,0.0,0.0,0.0,4.218749568,0.0,0.0,-16473.0,0.0,0.0,-0.0,0.0,0.0,2.512206774,0.0,0.0,-0.09000000357627869,88.61000061035156,-105.62999725341797,1.007080078125,-0.0028076171875,-0.0286865234375,35.47999954223633,0.0,4.0,0.059417724609375,-0.0201416015625,Waiting,0.0,0.0,-24581.0,0.0,0.0,0.0,0.0,0.0,
8.238526000000071,0.0,0.0,0.0,0.0,0.0,0.0,0.0,0.125,3.712157823,0.0,0.0,-747.0,0.0,0.0,-0.0,0.0,0.0,2.089843536,0.0,0.0,0.0,0.0,0.0,0.0,0.0,0.0,4.219970271,0.0,0.0,-16473.0,0.0,0.0,-0.0,0.0,0.0,2.510986071,0.0,0.0,-0.09000000357627869,88.61000061035156,-105.61000061035156,1.00579833984375,-0.00225830078125,-0.02337646484375,35.47999954223633,0.0,0.0,0.059417724609375,-0.0201416015625,Waiting,0.0,0.0,-24581.0,0.0,0.0,0.0,0.0,0.0,
8.401701000000118,0.0,0.0,0.0,0.0,0.0,0.0,0.0,0.125,3.712157823,0.0,0.0,-747.0,0.0,0.0,-0.0,0.0,0.0,2.088622833,0.0,0.0,0.0,0.0,0.0,0.0,0.0,0.0,4.218749568,0.0,0.0,-16473.0,0.0,0.0,-0.0,0.0,0.0,2.510986071,0.0,0.0,-0.09000000357627869,88.61000061035156,-105.61000061035156,1.00701904296875,-0.00335693359375,-0.02325439453125,35.47999954223633,0.0,0.0,0.059417724609375,-0.0201416015625,Waiting,0.0,0.0,-24581.0,0.0,0.0,0.0,0.0,0.0,
8.565056000000098,0.0,0.0,0.0,0.0,0.0,0.0,0.0,0.125,3.71093712,0.0,0.0,-747.0,0.0,0.0,-0.0,0.0,0.0,2.088622833,0.0,0.0,0.0,0.0,0.0,0.0,0.0,0.0,4.219970271,0.0,0.0,-16473.0,0.0,0.0,-0.0,0.0,0.0,2.512206774,0.0,0.0,-0.10000000149011612,88.61000061035156,-105.5999984741211,1.00567626953125,-1.220703125E-4,-0.02569580078125,35.439998626708984,0.0,1.0,0.059417724609375,-0.0201416015625,Waiting,0.0,0.0,-24581.0,0.0,0.0,0.0,0.0,0.0,
8.737152000000002,0.0,0.0,0.0,0.0,0.0,0.0,0.0,0.125,3.712157823,0.0,0.0,-747.0,0.0,0.0,-0.0,0.0,0.0,2.089843536,0.0,0.0,0.0,0.0,0.0,0.0,0.0,0.0,4.219970271,0.0,0.0,-16473.0,0.0,0.0,-0.0,0.0,0.0,2.512206774,0.0,0.0,-0.10000000149011612,88.61000061035156,-105.5999984741211,1.00628662109375,-0.0018310546875,-0.02667236328125,35.439998626708984,0.0,2.0,0.059417724609375,-0.0201416015625,Waiting,0.0,0.0,-24581.0,0.0,0.0,0.0,0.0,0.0,
8.900795000000159,0.0,0.0,0.0,0.0,0.0,0.0,0.0,0.125,3.71093712,0.0,0.0,-747.0,0.0,0.0,-0.0,0.0,0.0,2.088622833,0.0,0.0,0.0,0.0,0.0,0.0,0.0,0.0,4.218749568,0.0,0.0,-16473.0,0.0,0.0,-0.0,0.0,0.0,2.510986071,0.0,0.0,-0.10000000149011612,88.61000061035156,-105.5999984741211,1.001953125,-0.0020751953125,-0.027099609375,35.439998626708984,0.0,3.0,0.059417724609375,-0.0201416015625,Waiting,0.0,0.0,-24581.0,0.0,0.0,0.0,0.0,0.0,
9.063812000000151,0.0,0.0,0.0,0.0,0.0,0.0,0.0,0.125,3.71093712,0.0,0.0,-747.0,0.0,0.0,-0.0,0.0,0.0,2.088622833,0.0,0.0,0.0,0.0,0.0,0.0,0.0,0.0,4.218749568,0.0,0.0,-16473.0,0.0,0.0,-0.0,0.0,0.0,2.510986071,0.0,0.0,-0.10000000149011612,88.61000061035156,-105.5999984741211,1.00396728515625,-0.00146484375,-0.02935791015625,35.470001220703125,0.0,5.0,0.059417724609375,-0.0201416015625,Waiting,0.0,0.0,-24581.0,0.0,0.0,0.0,0.0,0.0,
9.218479999999982,0.0,0.0,0.0,0.0,0.0,0.0,0.0,0.125,3.712157823,0.0,0.0,-747.0,0.0,0.0,-0.0,0.0,0.0,2.084960724,0.0,0.0,0.0,0.0,0.0,0.0,0.0,0.0,4.218749568,0.0,0.0,-16473.0,0.0,0.0,-0.0,0.0,0.0,2.510986071,0.0,0.0,-0.10000000149011612,88.61000061035156,-105.5999984741211,1.00634765625,-0.00341796875,-0.02716064453125,35.470001220703125,0.0,3.0,0.059417724609375,-0.0201416015625,Waiting,0.0,0.0,-24581.0,0.0,0.0,0.0,0.0,0.0,
9.373427000000142,0.0,0.0,0.0,0.0,0.0,0.0,0.0,0.125,3.712157823,0.0,0.0,-747.0,0.0,0.0,-0.0,0.0,0.0,2.088622833,0.0,0.0,0.0,0.0,0.0,0.0,0.0,0.0,4.218749568,0.0,0.0,-16473.0,0.0,0.0,-0.0,0.0,0.0,2.510986071,0.0,0.0,-0.09000000357627869,88.61000061035156,-105.58000183105469,1.00457763671875,-0.0029296875,-0.02069091796875,35.470001220703125,0.0,-3.0,0.059417724609375,-0.0201416015625,Waiting,0.0,0.0,-24581.0,0.0,0.0,0.0,0.0,0.0,
9.526902000000002,0.0,0.0,0.0,0.0,0.0,0.0,0.0,0.125,3.712157823,0.0,0.0,-747.0,0.0,0.0,-0.0,0.0,0.0,2.089843536,0.0,0.0,0.0,0.0,0.0,0.0,0.0,0.0,4.219970271,0.0,0.0,-16473.0,0.0,0.0,-0.0,0.0,0.0,2.512206774,0.0,0.0,-0.10000000149011612,88.5999984741211,-105.69999694824219,1.0048828125,-0.00384521484375,-0.02508544921875,35.470001220703125,0.0,0.0,0.059417724609375,-0.0201416015625,Waiting,0.0,0.0,-24581.0,0.0,0.0,0.0,0.0,0.0,
9.686827000000049,0.0,0.0,0.0,0.0,0.0,0.0,0.0,0.125,3.71093712,0.0,0.0,-747.0,0.0,0.0,-0.0,0.0,0.0,2.089843536,0.0,0.0,0.0,0.0,0.0,0.0,0.0,0.0,4.217528865,0.0,0.0,-16473.0,0.0,0.0,-0.0,0.0,0.0,2.512206774,0.0,0.0,-0.10000000149011612,88.58999633789062,-105.79000091552734,1.0042724609375,-0.00372314453125,-0.02471923828125,35.4900016784668,0.0,0.0,0.059417724609375,-0.0201416015625,Waiting,0.0,0.0,-24581.0,0.0,0.0,0.0,0.0,0.0,
9.841327000000048,0.0,0.0,0.0,0.0,0.0,0.0,0.0,0.125,3.71093712,0.0,0.0,-747.0,0.0,0.0,-0.0,0.0,0.0,2.089843536,0.0,0.0,0.0,0.0,0.0,0.0,0.0,0.0,4.219970271,0.0,0.0,-16473.0,0.0,0.0,-0.0,0.0,0.0,2.510986071,0.0,0.0,-0.09000000357627869,88.5999984741211,-105.69000244140625,1.0054931640625,-4.8828125E-4,-0.0245361328125,35.4900016784668,0.0,0.0,0.059417724609375,-0.0201416015625,Waiting,0.0,0.0,-24581.0,0.0,0.0,0.0,0.0,0.0,
9.997670000000157,0.0,0.0,0.0,0.0,0.0,0.0,0.0,0.125,3.712157823,0.0,0.0,-747.0,0.0,0.0,-0.0,0.0,0.0,2.088622833,0.0,0.0,0.0,0.0,0.0,0.0,0.0,0.0,4.219970271,0.0,0.0,-16473.0,0.0,0.0,-0.0,0.0,0.0,2.512206774,0.0,0.0,-0.10000000149011612,88.5999984741211,-105.69000244140625,1.00531005859375,-0.00311279296875,-0.0184326171875,35.4900016784668,0.0,-5.0,0.059417724609375,-0.0201416015625,Waiting,0.0,0.0,-24581.0,0.0,0.0,0.0,0.0,0.0,
10.148988000000129,0.0,0.0,0.0,0.0,0.0,0.0,0.0,0.0,3.71093712,0.0,0.0,-747.0,0.0,0.0,-0.0,0.0,0.0,2.088622833,0.0,0.0,0.0,0.0,0.0,0.0,0.0,0.0,4.218749568,0.0,0.0,-16473.0,0.0,0.0,-0.0,0.0,0.0,2.512206774,0.0,0.0,-0.10000000149011612,88.5999984741211,-105.69000244140625,1.005859375,-0.0030517578125,-0.02471923828125,35.459999084472656,0.0,0.0,0.059417724609375,-0.0201416015625,Waiting,0.0,0.0,-24581.0,0.0,0.0,0.0,0.0,0.0,
