Time,ClimberA1,ClimberA2,FRpos,FRCurrent,FRspeed,FRsetpoint,FRApos,FRACurrent,FREncpos,FREncSetpoint,FREncSpeed,FLpos,FLCurrent,FLspeed,FLsetpoint,FLApos,FLACurrent,FLEncpos,FLEncSetpoint,FLEncSpeed,BRpos,BRCurrent,BRspeed,BRsetpoint,BRApos,BRACurrent,BREncpos,BREncSetpoint,BREncSpeed,BLpos,BLCurrent,BLspeed,BLsetpoint,BLApos,BLACurrent,BLEncpos,BLEncSetpoint,BLEncSpeed,navx_Pitch,navx_Roll,navx_Yaw,navx_XAcc,navx_YAcc,navx_ZAcc,navx_Temp,navx_Bar,navx_Alt,navx_XDis,navx_YDis,GearPlacerState,ShootOutputV,ShootOutputCurrent,ShootEncPos,ShootEncVelocity,ShootSpeed,ShootSetpoint,CarouselSetpoint,CarouselCurrent,
0.2681410000000005,0.0,0.0,0.0,0.0,0.0,0.0,0.0,0.0,3.765868755,0.01,0.0,-776.0,0.0,0.0,0.0,0.0,0.0,2.084960724,0.01,0.0,0.0,0.0,0.0,0.0,0.0,0.0,2.4316403760000003,0.01,0.0,-32385.0,0.0,0.0,0.0,0.0,0.0,2.491454823,0.01,0.0,-0.10000000149011612,88.5999984741211,-103.0199966430664,1.06890869140625,-0.00604248046875,-0.04620361328125,35.56999969482422,0.0,19.0,0.0693817138671875,-0.0277557373046875,Waiting,0.0,0.0,-24581.0,0.0,0.0,0.0,0.0,0.0,
0.3243050000000003,0.0,0.0,0.0,0.0,0.0,0.0,0.0,0.0,3.767089458,0.0,0.025868754999999855,-776.0,0.0,0.0,-0.0,0.0,0.0,2.084960724,0.0,4.9427400210000005,0.0,0.0,0.0,0.0,0.0,0.0,2.4316403760000003,0.0,0.021640376000000128,-32385.0,0.0,0.0,-0.0,0.0,0.0,2.491454823,0.0,4.928954823,-0.10000000149011612,88.5999984741211,-102.94000244140625,1.0087890625,-0.0240478515625,-0.01165771484375,35.59000015258789,0.0,-10.0,0.0693817138671875,-0.0277862548828125,Waiting,0.0,0.0,-24581.0,0.0,0.0,0.0,0.0,0.0,
0.35290700000000014,0.0,0.0,0.0,0.0,0.0,0.0,0.0,0.125,3.767089458,0.0,0.025868754999999855,-776.0,0.0,0.0,-0.0,0.0,0.0,2.083740021,0.0,4.9427400210000005,0.0,0.0,0.0,0.0,0.0,0.0,2.4328610790000003,0.0,0.021640376000000128,-32385.0,0.0,0.0,-0.0,0.0,0.0,2.49023412,0.0,4.928954823,-0.10000000149011612,88.5999984741211,-102.94000244140625,0.94921875,-0.0335693359375,-0.04962158203125,35.59000015258789,0.0,29.0,0.0694732666015625,-0.0279388427734375,Waiting,0.0,0.0,-24581.0,0.0,0.0,0.0,0.0,0.0,
0.39213100000000034,0.0,0.0,0.0,0.0,0.0,0.0,0.0,0.125,3.767089458,0.0,0.0,-776.0,0.0,0.0,-0.0,0.0,0.0,2.084960724,0.0,0.0,0.0,0.0,0.0,0.0,0.0,0.0,2.4328610790000003,0.0,0.0,-32385.0,0.0,0.0,-0.0,0.0,0.0,2.491454823,0.0,-0.0012207029999995456,-0.10999999940395355,88.5999984741211,-102.94000244140625,0.9356689453125,0.01092529296875,-0.0040283203125,35.59000015258789,0.0,-19.0,0.069549560546875,-0.0282135009765625,Waiting,0.0,0.0,-24581.0,0.0,0.0,0.0,0.0,0.0,
0.4183299999999999,0.0,0.0,0.0,0.0,0.0,0.0,0.0,0.125,3.767089458,0.0,0.0,-776.0,0.0,0.0,-0.0,0.0,0.0,2.084960724,0.0,0.0,0.0,0.0,0.0,0.0,0.0,0.0,2.4316403760000003,0.0,0.0,-32385.0,0.0,0.0,-0.0,0.0,0.0,2.491454823,0.0,0.0012207029999995456,-0.10999999940395355,88.5999984741211,-103.0199966430664,1.026611328125,0.045166015625,-0.031005859375,35.59000015258789,0.0,1.0,0.0694732666015625,-0.028350830078125,Waiting,0.0,0.0,-24581.0,0.0,0.0,0.0,0.0,0.0,
0.44997299999999996,0.0,0.0,0.0,0.0,0.0,0.0,0.0,0.125,3.767089458,0.0,0.0,-776.0,0.0,0.0,-0.0,0.0,0.0,2.083740021,0.0,0.0,0.0,0.0,0.0,0.0,0.0,0.0,2.4316403760000003,0.0,0.0,-32385.0,0.0,0.0,-0.0,0.0,0.0,2.491454823,0.0,0.0012207029999995456,-0.10999999940395355,88.58999633789062,-103.0199966430664,1.1173095703125,0.021240234375,-0.01983642578125,35.59000015258789,0.0,6.0,0.069427490234375,-0.028289794921875,Waiting,0.0,0.0,-24581.0,0.0,0.0,0.0,0.0,0.0,
0.5074140000000007,0.0,0.0,0.0,0.0,0.0,0.0,0.0,0.125,3.765868755,0.0,0.0,-776.0,0.0,0.0,-0.0,0.0,0.0,2.083740021,0.0,0.0,0.0,0.0,0.0,0.0,0.0,0.0,2.4328610790000003,0.0,0.0,-32385.0,0.0,0.0,-0.0,0.0,0.0,2.491454823,0.0,0.0,-0.10999999940395355,88.5999984741211,-103.02999877929688,0.95684814453125,-0.048583984375,-0.03656005859375,35.59000015258789,0.0,18.0,0.069427490234375,-0.028350830078125,Waiting,0.0,0.0,-24581.0,0.0,0.0,0.0,0.0,0.0,
0.534067,0.0,0.0,0.0,0.0,0.0,0.0,0.0,0.125,3.765868755,0.0,0.0,-776.0,0.0,0.0,-0.0,0.0,0.0,2.084960724,0.0,0.0,0.0,0.0,0.0,0.0,0.0,0.0,2.4316403760000003,0.0,0.0,-32385.0,0.0,0.0,-0.0,0.0,0.0,2.492675526,0.0,-0.0012207029999995456,-0.10999999940395355,88.58999633789062,-103.02999877929688,0.94818115234375,0.03277587890625,0.00482177734375,35.59000015258789,0.0,-31.0,0.069488525390625,-0.0287628173828125,Waiting,0.0,0.0,-24581.0,0.0,0.0,0.0,0.0,0.0,
0.564969,0.0,0.0,0.0,0.0,0.0,0.0,0.0,0.125,3.765868755,0.0,0.0,-776.0,0.0,0.0,-0.0,0.0,0.0,2.084960724,0.0,0.0,0.0,0.0,0.0,0.0,0.0,0.0,2.4316403760000003,0.0,0.0,-32385.0,0.0,0.0,-0.0,0.0,0.0,2.491454823,0.0,-0.0012207029999995456,-0.10999999940395355,88.58999633789062,-103.0199966430664,0.98760986328125,0.0557861328125,-0.0135498046875,35.59000015258789,0.0,-16.0,0.0694427490234375,-0.028839111328125,Waiting,0.0,0.0,-24581.0,0.0,0.0,0.0,0.0,0.0,
0.5940480000000007,0.0,0.0,0.0,0.0,0.0,0.0,0.0,0.125,3.765868755,0.0,0.0,-776.0,0.0,0.0,-0.0,0.0,0.0,2.084960724,0.0,0.0,0.0,0.0,0.0,0.0,0.0,0.0,2.4328610790000003,0.0,0.0,-32385.0,0.0,0.0,-0.0,0.0,0.0,2.491454823,0.0,0.0,-0.11999999731779099,88.58999633789062,-103.04000091552734,1.12005615234375,0.03436279296875,-0.03045654296875,35.59000015258789,0.0,0.0,0.06939697265625,-0.0288543701171875,Waiting,0.0,0.0,-24581.0,0.0,0.0,0.0,0.0,0.0,
0.6235610000000006,0.0,0.0,0.0,0.0,0.0,0.0,0.0,0.125,3.765868755,0.0,0.0,-776.0,0.0,0.0,-0.0,0.0,0.0,2.084960724,0.0,0.0,0.0,0.0,0.0,0.0,0.0,0.0,2.4328610790000003,0.0,0.0,-32385.0,0.0,0.0,-0.0,0.0,0.0,2.491454823,0.0,0.0,-0.10000000149011612,88.5999984741211,-103.04000091552734,0.98345947265625,-0.04510498046875,-0.0281982421875,35.59000015258789,0.0,8.0,0.06939697265625,-0.0287933349609375,Waiting,0.0,0.0,-24581.0,0.0,0.0,0.0,0.0,0.0,
0.6508730000000005,0.0,0.0,0.0,0.0,0.0,0.0,0.0,0.125,3.768310161,0.0,0.0,-776.0,0.0,0.0,-0.0,0.0,0.0,2.084960724,0.0,0.0,0.0,0.0,0.0,0.0,0.0,0.0,2.4328610790000003,0.0,0.0,-32385.0,0.0,0.0,-0.0,0.0,0.0,2.491454823,0.0,0.0,-0.10000000149011612,88.5999984741211,-103.02999877929688,0.97283935546875,-0.0570068359375,-0.02313232421875,35.59000015258789,0.0,5.0,0.06939697265625,-0.0289764404296875,Waiting,0.0,0.0,-24581.0,0.0,0.0,0.0,0.0,0.0,
0.6812430000000004,0.0,0.0,0.0,0.0,0.0,0.0,0.0,0.125,3.767089458,0.0,0.0,-776.0,0.0,0.0,-0.0,0.0,0.0,2.084960724,0.0,0.0,0.0,0.0,0.0,0.0,0.0,0.0,2.4316403760000003,0.0,0.0,-32385.0,0.0,0.0,-0.0,0.0,0.0,2.491454823,0.0,0.0012207029999995456,-0.10999999940395355,88.58999633789062,-103.02999877929688,0.9525146484375,0.02801513671875,0.00927734375,35.59000015258789,0.0,-35.0,0.069366455078125,-0.0293121337890625,Waiting,0.0,0.0,-24581.0,0.0,0.0,0.0,0.0,0.0,
0.7119470000000001,0.0,0.0,0.0,0.0,0.0,0.0,0.0,0.125,3.767089458,0.0,0.0,-776.0,0.0,0.0,-0.0,0.0,0.0,2.084960724,0.0,0.0,0.0,0.0,0.0,0.0,0.0,0.0,2.4328610790000003,0.0,0.0,-32385.0,0.0,0.0,-0.0,0.0,0.0,2.49023412,0.0,0.0,-0.11999999731779099,88.58999633789062,-103.04000091552734,1.0228271484375,0.001220703125,-0.0406494140625,35.59000015258789,0.0,15.0,0.0692291259765625,-0.0294189453125,Waiting,0.0,0.0,-24581.0,0.0,0.0,0.0,0.0,0.0,
0.7533230000000003,0.0,0.0,0.0,0.0,0.0,0.0,0.0,0.125,3.765868755,0.0,0.0,-776.0,0.0,0.0,-0.0,0.0,0.0,2.084960724,0.0,0.0,0.0,0.0,0.0,0.0,0.0,0.0,2.4328610790000003,0.0,0.0,-32385.0,0.0,0.0,-0.0,0.0,0.0,2.491454823,0.0,0.0,-0.10000000149011612,88.58999633789062,-103.04000091552734,0.9674072265625,-0.08038330078125,-0.02923583984375,35.59000015258789,0.0,13.0,0.069305419921875,-0.0295257568359375,Waiting,0.0,0.0,-24581.0,0.0,0.0,0.0,0.0,0.0,
0.7954720000000006,0.0,0.0,0.0,0.0,0.0,0.0,0.0,0.125,3.767089458,0.0,0.0,-776.0,0.0,0.0,-0.0,0.0,0.0,2.084960724,0.0,0.0012207029999995456,0.0,0.0,0.0,0.0,0.0,0.0,2.4316403760000003,0.0,0.0,-32385.0,0.0,0.0,-0.0,0.0,0.0,2.491454823,0.0,0.0,-0.10999999940395355,88.58999633789062,-103.13999938964844,0.963134765625,0.040771484375,-0.00970458984375,35.59000015258789,0.0,-18.0,0.069366455078125,-0.0300140380859375,Waiting,0.0,0.0,-24581.0,0.0,0.0,0.0,0.0,0.0,
0.8261510000000007,0.0,0.0,0.0,0.0,0.0,0.0,0.0,0.125,3.765868755,0.0,0.0,-776.0,0.0,0.0,-0.0,0.0,0.0,2.083740021,0.0,-0.0012207029999995456,0.0,0.0,0.0,0.0,0.0,0.0,2.4328610790000003,0.0,0.0,-32385.0,0.0,0.0,-0.0,0.0,0.0,2.491454823,0.0,-0.0012207029999995456,-0.11999999731779099,88.58000183105469,-103.12000274658203,1.04180908203125,0.0435791015625,-0.03656005859375,35.56999969482422,0.0,4.0,0.0692901611328125,-0.0301361083984375,Waiting,0.0,0.0,-24581.0,0.0,0.0,0.0,0.0,0.0,
0.8532700000000004,0.0,0.0,0.0,0.0,0.0,0.0,0.0,0.125,3.767089458,0.0,0.0,-776.0,0.0,0.0,-0.0,0.0,0.0,2.084960724,0.0,-0.0012207029999995456,0.0,0.0,0.0,0.0,0.0,0.0,2.4328610790000003,0.0,0.0,-32385.0,0.0,0.0,-0.0,0.0,0.0,2.491454823,0.0,-0.0012207029999995456,-0.12999999523162842,88.58999633789062,-103.12999725341797,1.06011962890625,0.0260009765625,-0.05364990234375,35.56999969482422,0.0,24.0,0.0692596435546875,-0.030120849609375,Waiting,0.0,0.0,-24581.0,0.0,0.0,0.0,0.0,0.0,
0.8787240000000002,0.0,0.0,0.0,0.0,0.0,0.0,0.0,0.125,3.767089458,0.0,0.0,-776.0,0.0,0.0,-0.0,0.0,0.0,2.084960724,0.0,0.0,0.0,0.0,0.0,0.0,0.0,0.0,2.4316403760000003,0.0,0.0,-32385.0,0.0,0.0,-0.0,0.0,0.0,2.491454823,0.0,0.0024414059999999793,-0.10000000149011612,88.58999633789062,-103.12999725341797,0.98272705078125,-0.0745849609375,-0.0347900390625,35.56999969482422,0.0,18.0,0.06927490234375,-0.030242919921875,Waiting,0.0,0.0,-24581.0,0.0,0.0,0.0,0.0,0.0,
0.942451,0.0,0.0,0.0,0.0,0.0,0.0,0.0,0.125,3.767089458,0.0,0.0,-776.0,0.0,0.0,-0.0,0.0,0.0,2.084960724,0.0,0.0,0.0,0.0,0.0,0.0,0.0,0.0,2.4316403760000003,0.0,0.0,-32385.0,0.0,0.0,-0.0,0.0,0.0,2.491454823,0.0,-0.0024414059999999793,-0.11999999731779099,88.58000183105469,-103.20999908447266,1.0128173828125,0.0489501953125,-0.01214599609375,35.56999969482422,0.0,-18.0,0.069183349609375,-0.030670166015625,Waiting,0.0,0.0,-24581.0,0.0,0.0,0.0,0.0,0.0,
0.9712360000000008,0.0,0.0,0.0,0.0,0.0,0.0,0.0,0.125,3.765868755,0.0,0.0,-776.0,0.0,0.0,-0.0,0.0,0.0,2.084960724,0.0,0.0,0.0,0.0,0.0,0.0,0.0,0.0,2.4316403760000003,0.0,0.0,-32385.0,0.0,0.0,-0.0,0.0,0.0,2.491454823,0.0,0.0,-0.11999999731779099,88.58000183105469,-103.2300033569336,1.08551025390625,0.03594970703125,-0.03851318359375,35.56999969482422,0.0,7.0,0.069122314453125,-0.03070068359375,Waiting,0.0,0.0,-24581.0,0.0,0.0,0.0,0.0,0.0,
0.995884,0.0,0.0,0.0,0.0,0.0,0.0,0.0,0.125,3.767089458,0.0,0.0,-776.0,0.0,0.0,-0.0,0.0,0.0,2.084960724,0.0,0.0,0.0,0.0,0.0,0.0,0.0,0.0,2.4316403760000003,0.0,0.0,-32385.0,0.0,0.0,-0.0,0.0,0.0,2.491454823,0.0,0.0,-0.10999999940395355,88.58000183105469,-103.13999938964844,0.947021484375,-0.054443359375,-0.039794921875,35.56999969482422,0.0,21.0,0.06915283203125,-0.0306549072265625,Waiting,0.0,0.0,-24581.0,0.0,0.0,0.0,0.0,0.0,
1.0180860000000003,0.0,0.0,0.0,0.0,0.0,0.0,0.0,0.125,3.767089458,0.0,0.0,-776.0,0.0,0.0,-0.0,0.0,0.0,2.084960724,0.0,0.0,0.0,0.0,0.0,0.0,0.0,0.0,2.4316403760000003,0.0,0.0,-32385.0,0.0,0.0,-0.0,0.0,0.0,2.491454823,0.0,0.0012207029999995456,-0.10000000149011612,88.58999633789062,-103.13999938964844,0.98046875,-0.018310546875,-0.0184326171875,35.56999969482422,0.0,-3.0,0.069244384765625,-0.0308837890625,Waiting,0.0,0.0,-24581.0,0.0,0.0,0.0,0.0,0.0,
1.049746,0.0,0.0,0.0,0.0,0.0,0.0,0.0,0.125,3.765868755,0.0,0.0,-776.0,0.0,0.0,-0.0,0.0,0.0,2.084960724,0.0,0.0,0.0,0.0,0.0,0.0,0.0,0.0,2.4328610790000003,0.0,0.0,-32385.0,0.0,0.0,-0.0,0.0,0.0,2.49023412,0.0,0.0012207029999995456,-0.10999999940395355,88.58000183105469,-103.2300033569336,0.9891357421875,0.05194091796875,-0.00518798828125,35.56999969482422,0.0,-24.0,0.0692596435546875,-0.0308380126953125,Waiting,0.0,0.0,-24581.0,0.0,0.0,0.0,0.0,0.0,
1.0939290000000002,0.0,0.0,0.0,0.0,0.0,0.0,0.0,0.125,3.768310161,0.0,0.0,-776.0,0.0,0.0,-0.0,0.0,0.0,2.084960724,0.0,0.0,0.0,0.0,0.0,0.0,0.0,0.0,2.4316403760000003,0.0,0.0,-32385.0,0.0,0.0,-0.0,0.0,0.0,2.492675526,0.0,0.0,-0.10999999940395355,88.58000183105469,-103.12999725341797,1.10040283203125,0.0440673828125,-0.03857421875,35.56999969482422,0.0,6.0,0.0692291259765625,-0.0305938720703125,Waiting,0.0,0.0,-24581.0,0.0,0.0,0.0,0.0,0.0,
1.125938,0.0,0.0,0.0,0.0,0.0,0.0,0.0,0.125,3.765868755,0.0,0.0,-776.0,0.0,0.0,-0.0,0.0,0.0,2.086181427,0.0,0.0,0.0,0.0,0.0,0.0,0.0,0.0,2.4328610790000003,0.0,0.0,-32385.0,0.0,0.0,-0.0,0.0,0.0,2.49023412,0.0,0.0,-0.10000000149011612,88.58999633789062,-103.12999725341797,0.955810546875,-0.048828125,-0.0439453125,35.56999969482422,0.0,25.0,0.069305419921875,-0.03021240234375,Waiting,0.0,0.0,-24581.0,0.0,0.0,0.0,0.0,0.0,
1.171728,0.0,0.0,0.0,0.0,0.0,0.0,0.0,0.125,3.765868755,0.0,0.0,-776.0,0.0,0.0,-0.0,0.0,0.0,2.084960724,0.0,0.0,0.0,0.0,0.0,0.0,0.0,0.0,2.4328610790000003,0.0,0.0,-32385.0,0.0,0.0,-0.0,0.0,0.0,2.491454823,0.0,-0.0012207029999995456,-0.10000000149011612,88.58000183105469,-103.22000122070312,0.96722412109375,0.01141357421875,-0.00830078125,35.56999969482422,0.0,-16.0,0.06939697265625,-0.03009033203125,Waiting,0.0,0.0,-24581.0,0.0,0.0,0.0,0.0,0.0,
1.1970740000000004,0.0,0.0,0.0,0.0,0.0,0.0,0.0,0.125,3.767089458,0.0,0.0,-776.0,0.0,0.0,-0.0,0.0,0.0,2.084960724,0.0,0.0,0.0,0.0,0.0,0.0,0.0,0.0,2.4328610790000003,0.0,0.0,-32385.0,0.0,0.0,-0.0,0.0,0.0,2.491454823,0.0,-0.0012207029999995456,-0.10999999940395355,88.58000183105469,-103.12999725341797,1.0548095703125,0.01953125,-0.01141357421875,35.56999969482422,0.0,-16.0,0.0693206787109375,-0.02996826171875,Waiting,0.0,0.0,-24581.0,0.0,0.0,0.0,0.0,0.0,
1.2217719999999999,0.0,0.0,0.0,0.0,0.0,0.0,0.0,0.125,3.765868755,0.0,0.0,-776.0,0.0,0.0,-0.0,0.0,0.0,2.084960724,0.0,0.0,0.0,0.0,0.0,0.0,0.0,0.0,2.4328610790000003,0.0,0.0,-32385.0,0.0,0.0,-0.0,0.0,0.0,2.491454823,0.0,0.0012207029999995456,-0.10999999940395355,88.58000183105469,-103.12999725341797,1.10223388671875,0.049072265625,-0.02740478515625,35.56999969482422,0.0,-5.0,0.069244384765625,-0.0298309326171875,Waiting,0.0,0.0,-24581.0,0.0,0.0,0.0,0.0,0.0,
1.2493740000000007,0.0,0.0,0.0,0.0,0.0,0.0,0.0,0.125,3.765868755,0.0,0.0,-776.0,0.0,0.0,-0.0,0.0,0.0,2.084960724,0.0,0.0,0.0,0.0,0.0,0.0,0.0,0.0,2.4316403760000003,0.0,0.0,-32385.0,0.0,0.0,-0.0,0.0,0.0,2.491454823,0.0,0.0012207029999995456,-0.10999999940395355,88.58999633789062,-103.05999755859375,0.970703125,-0.03814697265625,-0.0511474609375,35.56999969482422,0.0,31.0,0.069183349609375,-0.029449462890625,Waiting,0.0,0.0,-24581.0,0.0,0.0,0.0,0.0,0.0,
1.2723330000000006,0.0,0.0,0.0,0.0,0.0,0.0,0.0,0.125,3.765868755,0.0,0.0,-776.0,0.0,0.0,-0.0,0.0,0.0,2.084960724,0.0,0.0,0.0,0.0,0.0,0.0,0.0,0.0,2.4328610790000003,0.0,0.0,-32385.0,0.0,0.0,-0.0,0.0,0.0,2.491454823,0.0,-0.0012207029999995456,-0.10000000149011612,88.58999633789062,-103.13999938964844,0.98663330078125,-0.04718017578125,-0.01727294921875,35.56999969482422,0.0,-2.0,0.0691986083984375,-0.0293121337890625,Waiting,0.0,0.0,-24581.0,0.0,0.0,0.0,0.0,0.0,
1.3034320000000006,0.0,0.0,0.0,0.0,0.0,0.0,0.0,0.125,3.765868755,0.0,0.0,-776.0,0.0,0.0,-0.0,0.0,0.0,2.084960724,0.0,0.0,0.0,0.0,0.0,0.0,0.0,0.0,2.4328610790000003,0.0,0.0,-32385.0,0.0,0.0,-0.0,0.0,0.0,2.491454823,0.0,-0.0012207029999995456,-0.10999999940395355,88.58000183105469,-103.13999938964844,0.96551513671875,0.00372314453125,-0.00628662109375,35.56999969482422,0.0,-17.0,0.0691986083984375,-0.0293121337890625,Waiting,0.0,0.0,-24581.0,0.0,0.0,0.0,0.0,0.0,
1.327942,0.0,0.0,0.0,0.0,0.0,0.0,0.0,0.125,3.767089458,0.0,0.0,-776.0,0.0,0.0,-0.0,0.0,0.0,2.084960724,0.0,0.0,0.0,0.0,0.0,0.0,0.0,0.0,2.4328610790000003,0.0,0.0,-32385.0,0.0,0.0,-0.0,0.0,0.0,2.491454823,0.0,0.0,-0.10999999940395355,88.58000183105469,-103.13999938964844,1.05242919921875,0.02099609375,-0.0045166015625,35.56999969482422,0.0,-23.0,0.069091796875,-0.0292205810546875,Waiting,0.0,0.0,-24581.0,0.0,0.0,0.0,0.0,0.0,
1.3525560000000005,0.0,0.0,0.0,0.0,0.0,0.0,0.0,0.125,3.765868755,0.0,0.0,-776.0,0.0,0.0,-0.0,0.0,0.0,2.084960724,0.0,0.0,0.0,0.0,0.0,0.0,0.0,0.0,2.4316403760000003,0.0,0.0,-32385.0,0.0,0.0,-0.0,0.0,0.0,2.491454823,0.0,0.0,-0.11999999731779099,88.58999633789062,-103.05999755859375,1.03717041015625,0.02667236328125,-0.05206298828125,35.58000183105469,0.0,23.0,0.068939208984375,-0.0289306640625,Waiting,0.0,0.0,-24581.0,0.0,0.0,0.0,0.0,0.0,
1.3747510000000003,0.0,0.0,0.0,0.0,0.0,0.0,0.0,0.125,3.765868755,0.0,0.0,-776.0,0.0,0.0,-0.0,0.0,0.0,2.084960724,0.0,0.0,0.0,0.0,0.0,0.0,0.0,0.0,2.4328610790000003,0.0,0.0,-32385.0,0.0,0.0,-0.0,0.0,0.0,2.491454823,0.0,0.0012207029999995456,-0.10000000149011612,88.58999633789062,-103.16000366210938,0.95440673828125,-0.0767822265625,-0.03076171875,35.58000183105469,0.0,15.0,0.0689239501953125,-0.0286407470703125,Waiting,0.0,0.0,-24581.0,0.0,0.0,0.0,0.0,0.0,
1.405656,0.0,0.0,0.0,0.0,0.0,0.0,0.0,0.125,3.765868755,0.0,0.0,-776.0,0.0,0.0,-0.0,0.0,0.0,2.084960724,0.0,0.0,0.0,0.0,0.0,0.0,0.0,0.0,2.4328610790000003,0.0,0.0,-32385.0,0.0,0.0,-0.0,0.0,0.0,2.491454823,0.0,0.0012207029999995456,-0.10000000149011612,88.58999633789062,-103.13999938964844,0.98724365234375,-0.05712890625,-0.01336669921875,35.58000183105469,0.0,-4.0,0.0689239501953125,-0.02862548828125,Waiting,0.0,0.0,-24581.0,0.0,0.0,0.0,0.0,0.0,
1.4289070000000001,0.0,0.0,0.0,0.0,0.0,0.0,0.0,0.125,3.764648052,0.0,0.0,-776.0,0.0,0.0,-0.0,0.0,0.0,2.084960724,0.0,0.0,0.0,0.0,0.0,0.0,0.0,0.0,2.4328610790000003,0.0,0.0,-32385.0,0.0,0.0,-0.0,0.0,0.0,2.491454823,0.0,-0.0012207029999995456,-0.10999999940395355,88.58000183105469,-103.13999938964844,0.96673583984375,0.0313720703125,-6.103515625E-5,35.58000183105469,0.0,-27.0,0.0688934326171875,-0.0286407470703125,Waiting,0.0,0.0,-24581.0,0.0,0.0,0.0,0.0,0.0,
1.4547940000000008,0.0,0.0,0.0,0.0,0.0,0.0,0.0,0.125,3.767089458,0.0,0.0,-776.0,0.0,0.0,-0.0,0.0,0.0,2.084960724,0.0,0.0,0.0,0.0,0.0,0.0,0.0,0.0,2.4328610790000003,0.0,0.0,-32385.0,0.0,0.0,-0.0,0.0,0.0,2.491454823,0.0,-0.0012207029999995456,-0.11999999731779099,88.58000183105469,-103.1500015258789,1.1025390625,0.05377197265625,-0.01904296875,35.58000183105469,0.0,-13.0,0.0687408447265625,-0.0284881591796875,Waiting,0.0,0.0,-24581.0,0.0,0.0,0.0,0.0,0.0,
1.4746010000000005,0.0,0.0,0.0,0.0,0.0,0.0,0.0,0.125,3.765868755,0.0,0.0,-776.0,0.0,0.0,-0.0,0.0,0.0,2.084960724,0.0,0.0,0.0,0.0,0.0,0.0,0.0,0.0,2.4328610790000003,0.0,0.0,-32385.0,0.0,0.0,-0.0,0.0,0.0,2.491454823,0.0,0.0012207029999995456,-0.10999999940395355,88.58999633789062,-103.05999755859375,0.97833251953125,-0.02337646484375,-0.060546875,35.58000183105469,0.0,38.0,0.068603515625,-0.0281524658203125,Waiting,0.0,0.0,-24581.0,0.0,0.0,0.0,0.0,0.0,
1.507554,0.0,0.0,0.0,0.0,0.0,0.0,0.0,0.125,3.767089458,0.0,0.0,-776.0,0.0,0.0,-0.0,0.0,0.0,2.084960724,0.0,0.0,0.0,0.0,0.0,0.0,0.0,0.0,2.4328610790000003,0.0,0.0,-32385.0,0.0,0.0,-0.0,0.0,0.0,2.491454823,0.0,0.0012207029999995456,-0.10000000149011612,88.58999633789062,-103.16000366210938,0.98284912109375,-0.05853271484375,-0.0128173828125,35.58000183105469,0.0,-5.0,0.0685882568359375,-0.0280303955078125,Waiting,0.0,0.0,-24581.0,0.0,0.0,0.0,0.0,0.0,
1.5319920000000002,0.0,0.0,0.0,0.0,0.0,0.0,0.0,0.125,3.767089458,0.0,0.0,-776.0,0.0,0.0,-0.0,0.0,0.0,2.084960724,0.0,0.0,0.0,0.0,0.0,0.0,0.0,0.0,2.4328610790000003,0.0,0.0,-32385.0,0.0,0.0,-0.0,0.0,0.0,2.491454823,0.0,-0.0012207029999995456,-0.10999999940395355,88.58000183105469,-103.13999938964844,0.96697998046875,0.0341796875,-0.00640869140625,35.58000183105469,0.0,-21.0,0.0685577392578125,-0.0280303955078125,Waiting,0.0,0.0,-24581.0,0.0,0.0,0.0,0.0,0.0,
1.5536159999999999,0.0,0.0,0.0,0.0,0.0,0.0,0.0,0.125,3.767089458,0.0,0.0,-776.0,0.0,0.0,-0.0,0.0,0.0,2.084960724,0.0,0.0,0.0,0.0,0.0,0.0,0.0,0.0,2.4328610790000003,0.0,0.0,-32385.0,0.0,0.0,-0.0,0.0,0.0,2.491454823,0.0,-0.0012207029999995456,-0.11999999731779099,88.58000183105469,-103.1500015258789,1.0489501953125,0.02630615234375,-0.0023193359375,35.58000183105469,0.0,-26.0,0.0684967041015625,-0.0279693603515625,Waiting,0.0,0.0,-24581.0,0.0,0.0,0.0,0.0,0.0,
1.5750309999999998,0.0,0.0,0.0,0.0,0.0,0.0,0.0,0.125,3.765868755,0.0,0.0,-776.0,0.0,0.0,-0.0,0.0,0.0,2.084960724,0.0,0.0,0.0,0.0,0.0,0.0,0.0,0.0,2.4316403760000003,0.0,0.0,-32385.0,0.0,0.0,-0.0,0.0,0.0,2.49023412,0.0,0.0024414059999999793,-0.11999999731779099,88.58999633789062,-103.1500015258789,1.0399169921875,0.0340576171875,-0.0511474609375,35.58000183105469,0.0,21.0,0.068359375,-0.0276947021484375,Waiting,0.0,0.0,-24581.0,0.0,0.0,0.0,0.0,0.0,
1.6067840000000007,0.0,0.0,0.0,0.0,0.0,0.0,0.0,0.125,3.767089458,0.0,0.0,-776.0,0.0,0.0,-0.0,0.0,0.0,2.084960724,0.0,0.0,0.0,0.0,0.0,0.0,0.0,0.0,2.4328610790000003,0.0,0.0,-32385.0,0.0,0.0,-0.0,0.0,0.0,2.491454823,0.0,0.0024414059999999793,-0.10999999940395355,88.58999633789062,-103.1500015258789,0.97662353515625,-0.0218505859375,-0.05413818359375,35.58000183105469,0.0,32.0,0.068328857421875,-0.0275115966796875,Waiting,0.0,0.0,-24581.0,0.0,0.0,0.0,0.0,0.0,
1.6282700000000003,0.0,0.0,0.0,0.0,0.0,0.0,0.0,0.125,3.765868755,0.0,0.0,-776.0,0.0,0.0,-0.0,0.0,0.0,2.084960724,0.0,0.0,0.0,0.0,0.0,0.0,0.0,0.0,2.4328610790000003,0.0,0.0,-32385.0,0.0,0.0,-0.0,0.0,0.0,2.491454823,0.0,-0.0024414059999999793,-0.10000000149011612,88.58999633789062,-103.13999938964844,0.98175048828125,-0.0572509765625,-0.01727294921875,35.58000183105469,0.0,0.0,0.0683441162109375,-0.02734375,Waiting,0.0,0.0,-24581.0,0.0,0.0,0.0,0.0,0.0,
1.652915,0.0,0.0,0.0,0.0,0.0,0.0,0.0,0.125,3.767089458,0.0,0.0,-776.0,0.0,0.0,-0.0,0.0,0.0,2.084960724,0.0,0.0,0.0,0.0,0.0,0.0,0.0,0.0,2.4328610790000003,0.0,0.0,-32385.0,0.0,0.0,-0.0,0.0,0.0,2.491454823,0.0,-0.0024414059999999793,-0.10000000149011612,88.58999633789062,-103.16000366210938,0.96795654296875,0.00433349609375,-0.00897216796875,35.58000183105469,0.0,-15.0,0.0683441162109375,-0.02734375,Waiting,0.0,0.0,-24581.0,0.0,0.0,0.0,0.0,0.0,
1.6743380000000005,0.0,0.0,0.0,0.0,0.0,0.0,0.0,0.125,3.764648052,0.0,0.0,-776.0,0.0,0.0,-0.0,0.0,0.0,2.084960724,0.0,0.0,0.0,0.0,0.0,0.0,0.0,0.0,2.4328610790000003,0.0,0.0,-32385.0,0.0,0.0,-0.0,0.0,0.0,2.49023412,0.0,0.0012207029999995456,-0.10999999940395355,88.58000183105469,-103.13999938964844,1.0496826171875,0.02117919921875,-0.007568359375,35.58000183105469,0.0,-20.0,0.0682525634765625,-0.027252197265625,Waiting,0.0,0.0,-24581.0,0.0,0.0,0.0,0.0,0.0,
1.7051410000000005,0.0,0.0,0.0,0.0,0.0,0.0,0.0,0.125,3.765868755,0.0,0.0,-776.0,0.0,0.0,-0.0,0.0,0.0,2.084960724,0.0,0.0,0.0,0.0,0.0,0.0,0.0,0.0,2.4316403760000003,0.0,0.0,-32385.0,0.0,0.0,-0.0,0.0,0.0,2.491454823,0.0,0.0012207029999995456,-0.11999999731779099,88.58999633789062,-103.1500015258789,1.03753662109375,0.03192138671875,-0.0531005859375,35.58000183105469,0.0,23.0,0.0680999755859375,-0.0269775390625,Waiting,0.0,0.0,-24581.0,0.0,0.0,0.0,0.0,0.0,
1.7286010000000005,0.0,0.0,0.0,0.0,0.0,0.0,0.0,0.125,3.765868755,0.0,0.0,-776.0,0.0,0.0,-0.0,0.0,0.0,2.084960724,0.0,0.0,0.0,0.0,0.0,0.0,0.0,0.0,2.4316403760000003,0.0,0.0,-32385.0,0.0,0.0,-0.0,0.0,0.0,2.49023412,0.0,-0.0012207029999995456,-0.10000000149011612,88.58999633789062,-103.16000366210938,0.954833984375,-0.0750732421875,-0.033203125,35.58000183105469,0.0,17.0,0.0680999755859375,-0.0266876220703125,Waiting,0.0,0.0,-24581.0,0.0,0.0,0.0,0.0,0.0,
1.7543090000000001,0.0,0.0,0.0,0.0,0.0,0.0,0.0,0.125,3.767089458,0.0,0.0,-776.0,0.0,0.0,-0.0,0.0,0.0,2.084960724,0.0,0.0,0.0,0.0,0.0,0.0,0.0,0.0,2.4316403760000003,0.0,0.0,-32385.0,0.0,0.0,-0.0,0.0,0.0,2.491454823,0.0,-0.0012207029999995456,-0.10000000149011612,88.58999633789062,-103.13999938964844,0.9835205078125,-0.05364990234375,-0.0130615234375,35.58000183105469,0.0,-5.0,0.0680999755859375,-0.0266571044921875,Waiting,0.0,0.0,-24581.0,0.0,0.0,0.0,0.0,0.0,
1.7822209999999996,0.0,0.0,0.0,0.0,0.0,0.0,0.0,0.125,3.767089458,0.0,0.0,-776.0,0.0,0.0,-0.0,0.0,0.0,2.084960724,0.0,0.0,0.0,0.0,0.0,0.0,0.0,0.0,2.4316403760000003,0.0,0.0,-32385.0,0.0,0.0,-0.0,0.0,0.0,2.491454823,0.0,0.0,-0.10000000149011612,88.58000183105469,-103.23999786376953,0.97021484375,0.03424072265625,-0.00433349609375,35.58000183105469,0.0,-23.0,0.0680694580078125,-0.026641845703125,Waiting,0.0,0.0,-24581.0,0.0,0.0,0.0,0.0,0.0,
1.810282000000001,0.0,0.0,0.0,0.0,0.0,0.0,0.0,0.125,3.767089458,0.0,0.0,-776.0,0.0,0.0,-0.0,0.0,0.0,2.084960724,0.0,0.0,0.0,0.0,0.0,0.0,0.0,0.0,2.4328610790000003,0.0,0.0,-32385.0,0.0,0.0,-0.0,0.0,0.0,2.491454823,0.0,0.0,-0.10999999940395355,88.58000183105469,-103.25,1.10235595703125,0.0517578125,-0.0233154296875,35.58000183105469,0.0,-9.0,0.06793212890625,-0.0264739990234375,Waiting,0.0,0.0,-24581.0,0.0,0.0,0.0,0.0,0.0,
1.8324330000000009,0.0,0.0,0.0,0.0,0.0,0.0,0.0,0.125,3.767089458,0.0,0.0,-776.0,0.0,0.0,-0.0,0.0,0.0,2.084960724,0.0,0.0,0.0,0.0,0.0,0.0,0.0,0.0,2.4328610790000003,0.0,0.0,-32385.0,0.0,0.0,-0.0,0.0,0.0,2.492675526,0.0,0.0012207029999995456,-0.11999999731779099,88.58000183105469,-103.1500015258789,1.03497314453125,0.03485107421875,-0.05792236328125,35.58000183105469,0.0,28.0,0.0678558349609375,-0.0262908935546875,Waiting,0.0,0.0,-24581.0,0.0,0.0,0.0,0.0,0.0,
1.860161,0.0,0.0,0.0,0.0,0.0,0.0,0.0,0.125,3.767089458,0.0,0.0,-776.0,0.0,0.0,-0.0,0.0,0.0,2.084960724,0.0,0.0,0.0,0.0,0.0,0.0,0.0,0.0,2.4328610790000003,0.0,0.0,-32385.0,0.0,0.0,-0.0,0.0,0.0,2.49023412,0.0,0.0012207029999995456,-0.10000000149011612,88.58999633789062,-103.16000366210938,0.9766845703125,-0.02874755859375,-0.06280517578125,35.58000183105469,0.0,41.0,0.067840576171875,-0.0261077880859375,Waiting,0.0,0.0,-24581.0,0.0,0.0,0.0,0.0,0.0,
1.8839970000000013,0.0,0.0,0.0,0.0,0.0,0.0,0.0,0.125,3.767089458,0.0,0.0,-776.0,0.0,0.0,-0.0,0.0,0.0,2.084960724,0.0,0.0,0.0,0.0,0.0,0.0,0.0,0.0,2.4316403760000003,0.0,0.0,-32385.0,0.0,0.0,-0.0,0.0,0.0,2.491454823,0.0,0.0,-0.10000000149011612,88.58000183105469,-103.2300033569336,0.96856689453125,0.00469970703125,-0.0084228515625,35.599998474121094,0.0,-16.0,0.0678558349609375,-0.0259552001953125,Waiting,0.0,0.0,-24581.0,0.0,0.0,0.0,0.0,0.0,
1.907242,0.0,0.0,0.0,0.0,0.0,0.0,0.0,0.125,3.767089458,0.0,0.0,-776.0,0.0,0.0,-0.0,0.0,0.0,2.084960724,0.0,0.0,0.0,0.0,0.0,0.0,0.0,0.0,2.4316403760000003,0.0,0.0,-32385.0,0.0,0.0,-0.0,0.0,0.0,2.491454823,0.0,0.0,-0.10000000149011612,88.58000183105469,-103.2300033569336,0.970703125,0.032958984375,-0.0015869140625,35.599998474121094,0.0,-25.0,0.0678253173828125,-0.02593994140625,Waiting,0.0,0.0,-24581.0,0.0,0.0,0.0,0.0,0.0,
1.928259,0.0,0.0,0.0,0.0,0.0,0.0,0.0,0.125,3.765868755,0.0,0.0,-776.0,0.0,0.0,-0.0,0.0,0.0,2.084960724,0.0,0.0,0.0,0.0,0.0,0.0,0.0,0.0,2.4328610790000003,0.0,0.0,-32385.0,0.0,0.0,-0.0,0.0,0.0,2.496337635,0.0,0.0,-0.10999999940395355,88.58000183105469,-103.2300033569336,1.1019287109375,0.05169677734375,-0.02056884765625,35.599998474121094,0.0,-12.0,0.0676727294921875,-0.0257720947265625,Waiting,0.0,0.0,-24581.0,0.0,0.0,0.0,0.0,0.0,
1.950447,0.0,0.0,0.0,0.0,0.0,0.0,0.0,0.125,3.765868755,0.0,0.0,-776.0,0.0,0.0,-0.0,0.0,0.0,2.084960724,0.0,0.0,0.0,0.0,0.0,0.0,0.0,0.0,2.4328610790000003,0.0,0.0,-32385.0,0.0,0.0,-0.0,0.0,0.0,2.491454823,0.0,0.0,-0.10999999940395355,88.58000183105469,-103.12999725341797,1.029296875,0.0338134765625,-0.05096435546875,35.599998474121094,0.0,21.0,0.067596435546875,-0.0255889892578125,Waiting,0.0,0.0,-24581.0,0.0,0.0,0.0,0.0,0.0,
1.9743389999999998,0.0,0.0,0.0,0.0,0.0,0.0,0.0,0.125,3.767089458,0.0,0.0,-776.0,0.0,0.0,-0.0,0.0,0.0,2.084960724,0.0,0.0,0.0,0.0,0.0,0.0,0.0,0.0,2.4316403760000003,0.0,0.0,-32385.0,0.0,0.0,-0.0,0.0,0.0,2.49023412,0.0,-0.0012207029999995456,-0.10000000149011612,88.58999633789062,-103.13999938964844,0.96075439453125,-0.08917236328125,-0.02679443359375,35.599998474121094,0.0,12.0,0.0675506591796875,-0.0253143310546875,Waiting,0.0,0.0,-24581.0,0.0,0.0,0.0,0.0,0.0,
2.0012060000000003,0.0,0.0,0.0,0.0,0.0,0.0,0.0,0.125,3.765868755,0.0,0.0,-776.0,0.0,0.0,-0.0,0.0,0.0,2.083740021,0.0,0.0,0.0,0.0,0.0,0.0,0.0,0.0,2.4328610790000003,0.0,0.0,-32385.0,0.0,0.0,-0.0,0.0,0.0,2.491454823,0.0,-0.0012207029999995456,-0.10000000149011612,88.58000183105469,-103.2300033569336,0.96734619140625,0.01434326171875,-4.8828125E-4,35.599998474121094,0.0,-24.0,0.0675201416015625,-0.025299072265625,Waiting,0.0,0.0,-24581.0,0.0,0.0,0.0,0.0,0.0,
2.0238860000000005,0.0,0.0,0.0,0.0,0.0,0.0,0.0,0.125,3.767089458,0.0,0.0,-776.0,0.0,0.0,-0.0,0.0,0.0,2.084960724,0.0,0.0,0.0,0.0,0.0,0.0,0.0,0.0,2.4328610790000003,0.0,0.0,-32385.0,0.0,0.0,-0.0,0.0,0.0,2.491454823,0.0,0.0012207029999995456,-0.10000000149011612,88.58000183105469,-103.22000122070312,0.98779296875,0.03875732421875,-1.220703125E-4,35.599998474121094,0.0,-28.0,0.0674591064453125,-0.0252532958984375,Waiting,0.0,0.0,-24581.0,0.0,0.0,0.0,0.0,0.0,
2.0513320000000004,0.0,0.0,0.0,0.0,0.0,0.0,0.0,0.125,3.765868755,0.0,0.0,-776.0,0.0,0.0,-0.0,0.0,0.0,2.084960724,0.0,0.0,0.0,0.0,0.0,0.0,0.0,0.0,2.4328610790000003,0.0,0.0,-32385.0,0.0,0.0,-0.0,0.0,0.0,2.491454823,0.0,0.0012207029999995456,-0.10999999940395355,88.58000183105469,-103.2300033569336,1.09344482421875,0.0478515625,-0.0323486328125,35.599998474121094,0.0,0.0,0.0673828125,-0.025054931640625,Waiting,0.0,0.0,-24581.0,0.0,0.0,0.0,0.0,0.0,
2.0720830000000006,0.0,0.0,0.0,0.0,0.0,0.0,0.0,0.125,3.765868755,0.0,0.0,-776.0,0.0,0.0,-0.0,0.0,0.0,2.084960724,0.0,0.0,0.0,0.0,0.0,0.0,0.0,0.0,2.4316403760000003,0.0,0.0,-32385.0,0.0,0.0,-0.0,0.0,0.0,2.491454823,0.0,0.0,-0.10999999940395355,88.58999633789062,-103.1500015258789,1.015625,0.0281982421875,-0.05255126953125,35.599998474121094,0.0,24.0,0.0673980712890625,-0.024871826171875,Waiting,0.0,0.0,-24581.0,0.0,0.0,0.0,0.0,0.0,
2.0951130000000013,0.0,0.0,0.0,0.0,0.0,0.0,0.0,0.125,3.765868755,0.0,0.0,-776.0,0.0,0.0,-0.0,0.0,0.0,2.084960724,0.0,0.0,0.0,0.0,0.0,0.0,0.0,0.0,2.4328610790000003,0.0,0.0,-32385.0,0.0,0.0,-0.0,0.0,0.0,2.491454823,0.0,0.0,-0.09000000357627869,88.58999633789062,-103.1500015258789,0.96990966796875,-0.0968017578125,-0.0286865234375,35.599998474121094,0.0,14.0,0.0675506591796875,-0.02459716796875,Waiting,0.0,0.0,-24581.0,0.0,0.0,0.0,0.0,0.0,
2.1152980000000006,0.0,0.0,0.0,0.0,0.0,0.0,0.0,0.125,3.767089458,0.0,0.0,-776.0,0.0,0.0,-0.0,0.0,0.0,2.084960724,0.0,0.0,0.0,0.0,0.0,0.0,0.0,0.0,2.4328610790000003,0.0,0.0,-32385.0,0.0,0.0,-0.0,0.0,0.0,2.491454823,0.0,0.0,-0.10000000149011612,88.58999633789062,-103.13999938964844,0.98297119140625,-0.0242919921875,-0.00433349609375,35.599998474121094,0.0,-17.0,0.0675506591796875,-0.02459716796875,Waiting,0.0,0.0,-24581.0,0.0,0.0,0.0,0.0,0.0,
2.1356849999999996,0.0,0.0,0.0,0.0,0.0,0.0,0.0,0.125,3.767089458,0.0,0.0,-776.0,0.0,0.0,-0.0,0.0,0.0,2.084960724,0.0,0.0,0.0,0.0,0.0,0.0,0.0,0.0,2.4328610790000003,0.0,0.0,-32385.0,0.0,0.0,-0.0,0.0,0.0,2.491454823,0.0,0.0,-0.10999999940395355,88.58000183105469,-103.13999938964844,1.00396728515625,0.043212890625,0.0040283203125,35.599998474121094,0.0,-33.0,0.06744384765625,-0.0245513916015625,Waiting,0.0,0.0,-24581.0,0.0,0.0,0.0,0.0,0.0,
2.1599709999999996,0.0,0.0,0.0,0.0,0.0,0.0,0.0,0.125,3.767089458,0.0,0.0,-776.0,0.0,0.0,-0.0,0.0,0.0,2.083740021,0.0,0.0,0.0,0.0,0.0,0.0,0.0,0.0,2.4328610790000003,0.0,0.0,-32385.0,0.0,0.0,-0.0,0.0,0.0,2.49023412,0.0,0.0,-0.10999999940395355,88.58000183105469,-103.13999938964844,1.085693359375,0.02874755859375,-0.02484130859375,35.599998474121094,0.0,-5.0,0.0673370361328125,-0.0244598388671875,Waiting,0.0,0.0,-24581.0,0.0,0.0,0.0,0.0,0.0,
2.1908450000000013,0.0,0.0,0.0,0.0,0.0,0.0,0.0,0.125,3.765868755,0.0,0.0,-776.0,0.0,0.0,-0.0,0.0,0.0,2.084960724,0.0,0.0,0.0,0.0,0.0,0.0,0.0,0.0,2.4328610790000003,0.0,0.0,-32385.0,0.0,0.0,-0.0,0.0,0.0,2.491454823,0.0,-0.0012207029999995456,-0.10999999940395355,88.5999984741211,-103.05999755859375,1.00128173828125,0.011474609375,-0.045654296875,35.599998474121094,0.0,19.0,0.0673370361328125,-0.024139404296875,Waiting,0.0,0.0,-24581.0,0.0,0.0,0.0,0.0,0.0,
2.2098780000000007,0.0,0.0,0.0,0.0,0.0,0.0,0.0,0.125,3.767089458,0.0,0.0,-776.0,0.0,0.0,-0.0,0.0,0.0,2.084960724,0.0,0.0,0.0,0.0,0.0,0.0,0.0,0.0,2.4316403760000003,0.0,0.0,-32385.0,0.0,0.0,-0.0,0.0,0.0,2.491454823,0.0,-0.0012207029999995456,-0.10000000149011612,88.5999984741211,-103.05000305175781,0.94818115234375,-0.0570068359375,-0.0482177734375,35.599998474121094,0.0,30.0,0.0673828125,-0.02398681640625,Waiting,0.0,0.0,-24581.0,0.0,0.0,0.0,0.0,0.0,
2.2316949999999998,0.0,0.0,0.0,0.0,0.0,0.0,0.0,0.125,3.765868755,0.0,0.0,-776.0,0.0,0.0,-0.0,0.0,0.0,2.084960724,0.0,0.0,0.0,0.0,0.0,0.0,0.0,0.0,2.4328610790000003,0.0,0.0,-32385.0,0.0,0.0,-0.0,0.0,0.0,2.491454823,0.0,0.0012207029999995456,-0.10000000149011612,88.5999984741211,-103.05000305175781,0.97833251953125,-0.01031494140625,-0.01861572265625,35.599998474121094,0.0,-4.0,0.0674896240234375,-0.02392578125,Waiting,0.0,0.0,-24581.0,0.0,0.0,0.0,0.0,0.0,
2.2531229999999995,0.0,0.0,0.0,0.0,0.0,0.0,0.0,0.125,3.767089458,0.0,0.0,-776.0,0.0,0.0,-0.0,0.0,0.0,2.084960724,0.0,0.0,0.0,0.0,0.0,0.0,0.0,0.0,2.4316403760000003,0.0,0.0,-32385.0,0.0,0.0,-0.0,0.0,0.0,2.491454823,0.0,0.0012207029999995456,-0.10000000149011612,88.58999633789062,-103.13999938964844,0.96905517578125,0.024169921875,0.01190185546875,35.599998474121094,0.0,-38.0,0.0675201416015625,-0.02392578125,Waiting,0.0,0.0,-24581.0,0.0,0.0,0.0,0.0,0.0,
2.272283000000001,0.0,0.0,0.0,0.0,0.0,0.0,0.0,0.125,3.767089458,0.0,0.0,-776.0,0.0,0.0,-0.0,0.0,0.0,2.084960724,0.0,0.0,0.0,0.0,0.0,0.0,0.0,0.0,2.4328610790000003,0.0,0.0,-32385.0,0.0,0.0,-0.0,0.0,0.0,2.491454823,0.0,-0.0012207029999995456,-0.07999999821186066,88.58999633789062,-103.08999633789062,1.30389404296875,0.078125,0.10137939453125,35.599998474121094,0.0,-141.0,0.0673675537109375,-0.0236968994140625,Waiting,0.0,0.0,-24581.0,0.0,0.0,0.0,0.0,0.0,
2.2965159999999996,0.0,0.0,0.0,0.0,0.0,0.0,0.0,0.125,3.767089458,0.0,0.0,-776.0,0.0,0.0,-0.0,0.0,0.0,2.083740021,0.0,0.0,0.0,0.0,0.0,0.0,0.0,0.0,2.4328610790000003,0.0,0.0,-32385.0,0.0,0.0,-0.0,0.0,0.0,2.491454823,0.0,-0.0012207029999995456,-0.12999999523162842,88.6500015258789,-102.52999877929688,1.169189453125,-0.0445556640625,0.01397705078125,35.599998474121094,0.0,-36.0,0.067108154296875,-0.0235137939453125,Waiting,0.0,0.0,-24581.0,0.0,0.0,0.0,0.0,0.0,
2.322669,0.0,0.0,0.0,0.0,0.0,0.0,0.0,0.125,3.765868755,0.0,0.0,-776.0,0.0,0.0,-0.0,0.0,0.0,2.084960724,0.0,0.0,0.0,0.0,0.0,0.0,0.0,0.0,2.4328610790000003,0.0,0.0,-32385.0,0.0,0.0,-0.0,0.0,0.0,2.491454823,0.0,0.0,-0.10000000149011612,88.43000030517578,-104.58000183105469,0.862548828125,0.05767822265625,-0.15533447265625,35.599998474121094,0.0,124.0,0.06719970703125,-0.0233612060546875,Waiting,0.0,0.0,-24581.0,0.0,0.0,0.0,0.0,0.0,
2.351024000000001,0.0,0.0,0.0,0.0,0.0,0.0,0.0,0.125,3.765868755,0.0,0.0,-776.0,0.0,0.0,-0.0,0.0,0.0,2.084960724,0.0,0.0,0.0,0.0,0.0,0.0,0.0,0.0,2.4328610790000003,0.0,0.0,-32385.0,0.0,0.0,-0.0,0.0,0.0,2.49023412,0.0,0.0,-0.10999999940395355,88.6500015258789,-102.41000366210938,0.96484375,0.0870361328125,0.3917236328125,35.599998474121094,0.0,-421.0,0.067169189453125,-0.023223876953125,Waiting,0.0,0.0,-24581.0,0.0,0.0,0.0,0.0,0.0,
2.3732540000000006,0.0,0.0,0.0,0.0,0.0,0.0,0.0,0.125,3.765868755,0.0,0.0,-776.0,0.0,0.0,-0.0,0.0,0.0,2.086181427,0.0,0.0,0.0,0.0,0.0,0.0,0.0,0.0,2.4328610790000003,0.0,0.0,-32385.0,0.0,0.0,-0.0,0.0,0.0,2.491454823,0.0,0.0012207029999995456,-0.09000000357627869,88.56999969482422,-103.47000122070312,1.3516845703125,-0.02423095703125,-0.42181396484375,35.61000061035156,0.0,388.0,0.06683349609375,-0.022979736328125,Waiting,0.0,0.0,-24581.0,0.0,0.0,0.0,0.0,0.0,
2.4008999999999996,0.0,0.0,0.0,0.0,0.0,0.0,0.0,0.125,3.765868755,0.0,0.0,-776.0,0.0,0.0,-0.0,0.0,0.0,2.084960724,0.0,0.0,0.0,0.0,0.0,0.0,0.0,0.0,2.4328610790000003,0.0,0.0,-32385.0,0.0,0.0,-0.0,0.0,0.0,2.491454823,0.0,0.0012207029999995456,-0.09000000357627869,88.5999984741211,-102.94000244140625,1.11541748046875,0.15594482421875,0.17376708984375,35.61000061035156,0.0,-216.0,0.06689453125,-0.0229034423828125,Waiting,0.0,0.0,-24581.0,0.0,0.0,0.0,0.0,0.0,
2.426063,0.0,0.0,0.0,0.0,0.0,0.0,0.0,0.125,3.767089458,0.0,0.0,-776.0,0.0,0.0,-0.0,0.0,0.0,2.084960724,0.0,0.0,0.0,0.0,0.0,0.0,0.0,0.0,2.4316403760000003,0.0,0.0,-32385.0,0.0,0.0,-0.0,0.0,0.0,2.491454823,0.0,0.0012207029999995456,-0.07000000029802322,88.68000030517578,-102.25,1.031005859375,-0.052001953125,-0.06549072265625,35.61000061035156,0.0,47.0,0.06671142578125,-0.0227508544921875,Waiting,0.0,0.0,-24581.0,0.0,0.0,0.0,0.0,0.0,
2.4498590000000005,0.0,0.0,0.0,0.0,0.0,0.0,0.0,0.125,3.767089458,0.0,0.0,-776.0,0.0,0.0,-0.0,0.0,0.0,2.083740021,0.0,0.0,0.0,0.0,0.0,0.0,0.0,0.0,2.4328610790000003,0.0,0.0,-32385.0,0.0,0.0,-0.0,0.0,0.0,2.491454823,0.0,-0.0012207029999995456,-0.10000000149011612,88.56999969482422,-103.30000305175781,1.00482177734375,-0.0517578125,-0.0379638671875,35.61000061035156,0.0,18.0,0.0668792724609375,-0.0225982666015625,Waiting,0.0,0.0,-24581.0,0.0,0.0,0.0,0.0,0.0,
2.4711589999999997,0.0,0.0,0.0,0.0,0.0,0.0,0.0,0.125,3.767089458,0.0,0.0,-776.0,0.0,0.0,-0.0,0.0,0.0,2.083740021,0.0,0.0,0.0,0.0,0.0,0.0,0.0,0.0,2.4316403760000003,0.0,0.0,-32385.0,0.0,0.0,-0.0,0.0,0.0,2.491454823,0.0,-0.0012207029999995456,-0.11999999731779099,88.66999816894531,-102.38999938964844,0.92510986328125,0.0113525390625,0.18212890625,35.61000061035156,0.0,-203.0,0.066925048828125,-0.0225982666015625,Waiting,0.0,0.0,-24581.0,0.0,0.0,0.0,0.0,0.0,
2.493985000000001,0.0,0.0,0.0,0.0,0.0,0.0,0.0,0.125,3.765868755,0.0,0.0,-776.0,0.0,0.0,-0.0,0.0,0.0,2.084960724,0.0,0.0,0.0,0.0,0.0,0.0,0.0,0.0,2.4328610790000003,0.0,0.0,-32385.0,0.0,0.0,-0.0,0.0,0.0,2.491454823,0.0,0.0012207029999995456,-0.10000000149011612,88.62000274658203,-102.83000183105469,1.0096435546875,-9.765625E-4,-0.06494140625,35.61000061035156,0.0,40.0,0.0670318603515625,-0.0226898193359375,Waiting,0.0,0.0,-24581.0,0.0,0.0,0.0,0.0,0.0,
2.5158400000000003,0.0,0.0,0.0,0.0,0.0,0.0,0.0,0.125,3.768310161,0.0,0.0,-776.0,0.0,0.0,-0.0,0.0,0.0,2.084960724,0.0,0.0,0.0,0.0,0.0,0.0,0.0,0.0,2.4328610790000003,0.0,0.0,-32385.0,0.0,0.0,-0.0,0.0,0.0,2.491454823,0.0,0.0012207029999995456,-0.10000000149011612,88.55999755859375,-103.43000030517578,1.17633056640625,0.05615234375,0.11468505859375,35.61000061035156,0.0,-149.0,0.067291259765625,-0.0226287841796875,Waiting,0.0,0.0,-24581.0,0.0,0.0,0.0,0.0,0.0,
2.5404349999999996,0.0,0.0,0.0,0.0,0.0,0.0,0.0,0.125,3.767089458,0.0,0.0,-776.0,0.0,0.0,-0.0,0.0,0.0,2.084960724,0.0,0.0,0.0,0.0,0.0,0.0,0.0,0.0,2.4316403760000003,0.0,0.0,-32385.0,0.0,0.0,-0.0,0.0,0.0,2.491454823,0.0,0.0,-0.09000000357627869,88.66000366210938,-102.43000030517578,1.000732421875,-0.0323486328125,-0.0234375,35.61000061035156,0.0,3.0,0.067291259765625,-0.0225067138671875,Waiting,0.0,0.0,-24581.0,0.0,0.0,0.0,0.0,0.0,
2.5666840000000013,0.0,0.0,0.0,0.0,0.0,0.0,0.0,0.125,3.765868755,0.0,0.0,-776.0,0.0,0.0,-0.0,0.0,0.0,2.084960724,0.0,0.0,0.0,0.0,0.0,0.0,0.0,0.0,2.4328610790000003,0.0,0.0,-32385.0,0.0,0.0,-0.0,0.0,0.0,2.491454823,0.0,0.0,-0.11999999731779099,88.62000274658203,-102.88999938964844,0.96282958984375,-0.05145263671875,-0.06854248046875,35.61000061035156,0.0,50.0,0.0675048828125,-0.0224151611328125,Waiting,0.0,0.0,-24581.0,0.0,0.0,0.0,0.0,0.0,
2.598158000000001,0.0,0.0,0.0,0.0,0.0,0.0,0.0,0.125,3.767089458,0.0,0.0,-776.0,0.0,0.0,-0.0,0.0,0.0,2.084960724,0.0,0.0,0.0,0.0,0.0,0.0,0.0,0.0,2.4328610790000003,0.0,0.0,-32385.0,0.0,0.0,-0.0,0.0,0.0,2.491454823,0.0,-0.0012207029999995456,-0.10999999940395355,88.6500015258789,-102.62000274658203,0.93994140625,0.0301513671875,-0.03533935546875,35.61000061035156,0.0,9.0,0.0677642822265625,-0.0224151611328125,Waiting,0.0,0.0,-24581.0,0.0,0.0,0.0,0.0,0.0,
2.6182659999999998,0.0,0.0,0.0,0.0,0.0,0.0,0.0,0.125,3.767089458,0.0,0.0,-776.0,0.0,0.0,-0.0,0.0,0.0,2.083740021,0.0,0.0,0.0,0.0,0.0,0.0,0.0,0.0,2.4328610790000003,0.0,0.0,-32385.0,0.0,0.0,-0.0,0.0,0.0,2.491454823,0.0,0.0,-0.12999999523162842,88.62000274658203,-102.87000274658203,1.021240234375,0.01483154296875,0.09014892578125,35.61000061035156,0.0,-115.0,0.068145751953125,-0.0223236083984375,Waiting,0.0,0.0,-24581.0,0.0,0.0,0.0,0.0,0.0,
2.6541740000000007,0.0,0.0,0.0,0.0,0.0,0.0,0.0,0.125,3.767089458,0.0,0.0,-776.0,0.0,0.0,-0.0,0.0,0.0,2.086181427,0.0,0.0,0.0,0.0,0.0,0.0,0.0,0.0,2.4328610790000003,0.0,0.0,-32385.0,0.0,0.0,-0.0,0.0,0.0,2.491454823,0.0,0.0,-0.10999999940395355,88.66999816894531,-102.44000244140625,0.97174072265625,-0.00531005859375,-0.02008056640625,35.61000061035156,0.0,-1.0,0.0681304931640625,-0.0223236083984375,Waiting,0.0,0.0,-24581.0,0.0,0.0,0.0,0.0,0.0,
2.675236000000001,0.0,0.0,0.0,0.0,0.0,0.0,0.0,0.125,3.765868755,0.0,0.0,-776.0,0.0,0.0,-0.0,0.0,0.0,2.083740021,0.0,0.0,0.0,0.0,0.0,0.0,0.0,0.0,2.4328610790000003,0.0,0.0,-32385.0,0.0,0.0,-0.0,0.0,0.0,2.491454823,0.0,0.0012207029999995456,-0.10000000149011612,88.5999984741211,-103.06999969482422,0.97027587890625,-0.01898193359375,-0.03704833984375,35.61000061035156,0.0,15.0,0.06829833984375,-0.0224456787109375,Waiting,0.0,0.0,-24581.0,0.0,0.0,0.0,0.0,0.0,
2.705357,0.0,0.0,0.0,0.0,0.0,0.0,0.0,0.125,3.767089458,0.0,0.0,-776.0,0.0,0.0,-0.0,0.0,0.0,2.083740021,0.0,0.0,0.0,0.0,0.0,0.0,0.0,0.0,2.4316403760000003,0.0,0.0,-32385.0,0.0,0.0,-0.0,0.0,0.0,2.491454823,0.0,0.0012207029999995456,-0.10000000149011612,88.62000274658203,-102.80000305175781,0.9432373046875,-0.00604248046875,-0.0279541015625,35.61000061035156,0.0,5.0,0.06842041015625,-0.0225372314453125,Waiting,0.0,0.0,-24581.0,0.0,0.0,0.0,0.0,0.0,
2.725307000000001,0.0,0.0,0.0,0.0,0.0,0.0,0.0,0.125,3.767089458,0.0,0.0,-776.0,0.0,0.0,-0.0,0.0,0.0,2.084960724,0.0,0.0,0.0,0.0,0.0,0.0,0.0,0.0,2.4316403760000003,0.0,0.0,-32385.0,0.0,0.0,-0.0,0.0,0.0,2.49023412,0.0,0.0012207029999995456,-0.10999999940395355,88.61000061035156,-102.9000015258789,1.018310546875,0.052978515625,-0.031982421875,35.61000061035156,0.0,1.0,0.06842041015625,-0.0225982666015625,Waiting,0.0,0.0,-24581.0,0.0,0.0,0.0,0.0,0.0,
2.7494750000000003,0.0,0.0,0.0,0.0,0.0,0.0,0.0,0.125,3.765868755,0.0,0.0,-776.0,0.0,0.0,-0.0,0.0,0.0,2.084960724,0.0,0.0,0.0,0.0,0.0,0.0,0.0,0.0,2.4316403760000003,0.0,0.0,-32385.0,0.0,0.0,-0.0,0.0,0.0,2.491454823,0.0,-0.0012207029999995456,-0.10999999940395355,88.63999938964844,-102.66999816894531,1.0694580078125,0.05499267578125,-0.01416015625,35.61000061035156,0.0,-17.0,0.06842041015625,-0.02252197265625,Waiting,0.0,0.0,-24581.0,0.0,0.0,0.0,0.0,0.0,
2.7728690000000005,0.0,0.0,0.0,0.0,0.0,0.0,0.0,0.125,3.765868755,0.0,0.0,-776.0,0.0,0.0,-0.0,0.0,0.0,2.083740021,0.0,0.0,0.0,0.0,0.0,0.0,0.0,0.0,2.4328610790000003,0.0,0.0,-32385.0,0.0,0.0,-0.0,0.0,0.0,2.491454823,0.0,0.0,-0.10000000149011612,88.66000366210938,-102.54000091552734,0.956787109375,-0.04119873046875,-0.0616455078125,35.61000061035156,0.0,43.0,0.068450927734375,-0.0222930908203125,Waiting,0.0,0.0,-24581.0,0.0,0.0,0.0,0.0,0.0,
2.8021350000000003,0.0,0.0,0.0,0.0,0.0,0.0,0.0,0.125,3.765868755,0.0,0.0,-776.0,0.0,0.0,-0.0,0.0,0.0,2.084960724,0.0,0.0,0.0,0.0,0.0,0.0,0.0,0.0,2.4328610790000003,0.0,0.0,-32385.0,0.0,0.0,-0.0,0.0,0.0,2.491454823,0.0,0.0,-0.10000000149011612,88.5999984741211,-103.06999969482422,0.950439453125,-0.00244140625,-0.02789306640625,35.61000061035156,0.0,4.0,0.0688018798828125,-0.02227783203125,Waiting,0.0,0.0,-24581.0,0.0,0.0,0.0,0.0,0.0,
2.824233,0.0,0.0,0.0,0.0,0.0,0.0,0.0,0.125,3.767089458,0.0,0.0,-776.0,0.0,0.0,-0.0,0.0,0.0,2.084960724,0.0,0.0,0.0,0.0,0.0,0.0,0.0,0.0,2.4316403760000003,0.0,0.0,-32385.0,0.0,0.0,-0.0,0.0,0.0,2.49023412,0.0,0.0,-0.10000000149011612,88.61000061035156,-102.87999725341797,0.942626953125,0.025390625,0.0096435546875,35.61000061035156,0.0,-34.0,0.0689849853515625,-0.02227783203125,Waiting,0.0,0.0,-24581.0,0.0,0.0,0.0,0.0,0.0,
2.850713,0.0,0.0,0.0,0.0,0.0,0.0,0.0,0.125,3.767089458,0.0,0.0,-776.0,0.0,0.0,-0.0,0.0,0.0,2.084960724,0.0,0.0,0.0,0.0,0.0,0.0,0.0,0.0,2.4328610790000003,0.0,0.0,-32385.0,0.0,0.0,-0.0,0.0,0.0,2.491454823,0.0,0.0,-0.10999999940395355,88.5999984741211,-103.06999969482422,1.12249755859375,0.041259765625,-0.06585693359375,35.61000061035156,0.0,33.0,0.0693206787109375,-0.022125244140625,Waiting,0.0,0.0,-24581.0,0.0,0.0,0.0,0.0,0.0,
2.871629000000001,0.0,0.0,0.0,0.0,0.0,0.0,0.0,0.125,3.767089458,0.0,0.0,-776.0,0.0,0.0,-0.0,0.0,0.0,2.084960724,0.0,0.0,0.0,0.0,0.0,0.0,0.0,0.0,2.4316403760000003,0.0,0.0,-32385.0,0.0,0.0,-0.0,0.0,0.0,2.491454823,0.0,0.0,-0.10999999940395355,88.61000061035156,-102.95999908447266,1.0416259765625,0.03497314453125,0.01129150390625,35.61000061035156,0.0,-40.0,0.069488525390625,-0.0219573974609375,Waiting,0.0,0.0,-24581.0,0.0,0.0,0.0,0.0,0.0,
2.8948990000000014,0.0,0.0,0.0,0.0,0.0,0.0,0.0,0.125,3.767089458,0.0,0.0,-776.0,0.0,0.0,-0.0,0.0,0.0,2.084960724,0.0,0.0,0.0,0.0,0.0,0.0,0.0,0.0,2.4328610790000003,0.0,0.0,-32385.0,0.0,0.0,-0.0,0.0,0.0,2.491454823,0.0,0.0,-0.09000000357627869,88.61000061035156,-102.9800033569336,0.9576416015625,-0.061279296875,-0.08331298828125,35.599998474121094,0.0,66.0,0.069854736328125,-0.02166748046875,Waiting,0.0,0.0,-24581.0,0.0,0.0,0.0,0.0,0.0,
2.9162029999999994,0.0,0.0,0.0,0.0,0.0,0.0,0.0,0.125,3.767089458,0.0,0.0,-776.0,0.0,0.0,-0.0,0.0,0.0,2.083740021,0.0,0.0,0.0,0.0,0.0,0.0,0.0,0.0,2.4328610790000003,0.0,0.0,-32385.0,0.0,0.0,-0.0,0.0,0.0,2.491454823,0.0,0.0,-0.07999999821186066,88.58999633789062,-103.1500015258789,0.9810791015625,-0.063720703125,0.0030517578125,35.599998474121094,0.0,-20.0,0.0700836181640625,-0.0216217041015625,Waiting,0.0,0.0,-24581.0,0.0,0.0,0.0,0.0,0.0,
2.9434940000000007,0.0,0.0,0.0,0.0,0.0,0.0,0.0,0.125,3.765868755,0.0,0.0,-776.0,0.0,0.0,-0.0,0.0,0.0,2.084960724,0.0,0.0,0.0,0.0,0.0,0.0,0.0,0.0,2.4328610790000003,0.0,0.0,-32385.0,0.0,0.0,-0.0,0.0,0.0,2.491454823,0.0,0.0,-0.10000000149011612,88.62999725341797,-102.79000091552734,0.98162841796875,0.015380859375,0.00518798828125,35.599998474121094,0.0,-30.0,0.0703887939453125,-0.021636962890625,Waiting,0.0,0.0,-24581.0,0.0,0.0,0.0,0.0,0.0,
2.9700339999999996,0.0,0.0,0.0,0.0,0.0,0.0,0.0,0.125,3.765868755,0.0,0.0,-776.0,0.0,0.0,-0.0,0.0,0.0,2.084960724,0.0,0.0,0.0,0.0,0.0,0.0,0.0,0.0,2.4316403760000003,0.0,0.0,-32385.0,0.0,0.0,-0.0,0.0,0.0,2.491454823,0.0,0.0,-0.10000000149011612,88.62000274658203,-102.80000305175781,1.0445556640625,0.0303955078125,0.0048828125,35.599998474121094,0.0,-33.0,0.070465087890625,-0.0216064453125,Waiting,0.0,0.0,-24581.0,0.0,0.0,0.0,0.0,0.0,
2.9941460000000006,0.0,0.0,0.0,0.0,0.0,0.0,0.0,0.125,3.767089458,0.0,0.0,-776.0,0.0,0.0,-0.0,0.0,0.0,2.084960724,0.0,0.0,0.0,0.0,0.0,0.0,0.0,0.0,2.4328610790000003,0.0,0.0,-32385.0,0.0,0.0,-0.0,0.0,0.0,2.491454823,0.0,0.0012207029999995456,-0.10000000149011612,88.62999725341797,-102.80000305175781,0.998291015625,0.0164794921875,-0.05810546875,35.599998474121094,0.0,32.0,0.0705718994140625,-0.0214080810546875,Waiting,0.0,0.0,-24581.0,0.0,0.0,0.0,0.0,0.0,
3.014089,0.0,0.0,0.0,0.0,0.0,0.0,0.0,0.125,3.765868755,0.0,0.0,-776.0,0.0,0.0,-0.0,0.0,0.0,2.084960724,0.0,0.0,0.0,0.0,0.0,0.0,0.0,0.0,2.4328610790000003,0.0,0.0,-32385.0,0.0,0.0,-0.0,0.0,0.0,2.491454823,0.0,0.0012207029999995456,-0.09000000357627869,88.61000061035156,-102.9800033569336,0.9547119140625,-0.10260009765625,-0.0399169921875,35.599998474121094,0.0,27.0,0.0709075927734375,-0.02130126953125,Waiting,0.0,0.0,-24581.0,0.0,0.0,0.0,0.0,0.0,
3.0334470000000002,0.0,0.0,0.0,0.0,0.0,0.0,0.0,0.125,3.767089458,0.0,0.0,-776.0,0.0,0.0,-0.0,0.0,0.0,2.084960724,0.0,0.0,0.0,0.0,0.0,0.0,0.0,0.0,2.4328610790000003,0.0,0.0,-32385.0,0.0,0.0,-0.0,0.0,0.0,2.491454823,0.0,0.0,-0.09000000357627869,88.61000061035156,-102.88999938964844,0.96807861328125,-0.024658203125,-0.022705078125,35.599998474121094,0.0,1.0,0.0711212158203125,-0.0213775634765625,Waiting,0.0,0.0,-24581.0,0.0,0.0,0.0,0.0,0.0,
3.055151,0.0,0.0,0.0,0.0,0.0,0.0,0.0,0.125,3.765868755,0.0,0.0,-776.0,0.0,0.0,-0.0,0.0,0.0,2.084960724,0.0,0.0,0.0,0.0,0.0,0.0,0.0,0.0,2.4328610790000003,0.0,0.0,-32385.0,0.0,0.0,-0.0,0.0,0.0,2.491454823,0.0,0.0,-0.09000000357627869,88.62000274658203,-102.80000305175781,0.94952392578125,0.00579833984375,-0.001953125,35.599998474121094,0.0,-21.0,0.071319580078125,-0.021453857421875,Waiting,0.0,0.0,-24581.0,0.0,0.0,0.0,0.0,0.0,
3.0751560000000007,0.0,0.0,0.0,0.0,0.0,0.0,0.0,0.125,3.767089458,0.0,0.0,-776.0,0.0,0.0,-0.0,0.0,0.0,2.084960724,0.0,0.0,0.0,0.0,0.0,0.0,0.0,0.0,2.4328610790000003,0.0,0.0,-32385.0,0.0,0.0,-0.0,0.0,0.0,2.491454823,0.0,0.0,-0.10000000149011612,88.5999984741211,-103.08000183105469,1.11358642578125,0.035400390625,-0.04150390625,35.599998474121094,0.0,10.0,0.071685791015625,-0.021514892578125,Waiting,0.0,0.0,-24581.0,0.0,0.0,0.0,0.0,0.0,
3.103692000000001,0.0,0.0,0.0,0.0,0.0,0.0,0.0,0.125,3.767089458,0.0,0.0,-776.0,0.0,0.0,-0.0,0.0,0.0,2.084960724,0.0,0.0,0.0,0.0,0.0,0.0,0.0,0.0,2.4328610790000003,0.0,0.0,-32385.0,0.0,0.0,-0.0,0.0,0.0,2.491454823,0.0,0.0,-0.10000000149011612,88.5999984741211,-103.06999969482422,1.075927734375,0.04931640625,-0.00921630859375,35.599998474121094,0.0,-22.0,0.071868896484375,-0.0214691162109375,Waiting,0.0,0.0,-24581.0,0.0,0.0,0.0,0.0,0.0,
3.127151,0.0,0.0,0.0,0.0,0.0,0.0,0.0,0.125,3.767089458,0.0,0.0,-776.0,0.0,0.0,-0.0,0.0,0.0,2.084960724,0.0,0.0,0.0,0.0,0.0,0.0,0.0,0.0,2.4328610790000003,0.0,0.0,-32385.0,0.0,0.0,-0.0,0.0,0.0,2.49023412,0.0,-0.0012207029999995456,-0.10000000149011612,88.61000061035156,-102.88999938964844,0.972412109375,-0.0260009765625,-0.0440673828125,35.599998474121094,0.0,23.0,0.07220458984375,-0.021270751953125,Waiting,0.0,0.0,-24581.0,0.0,0.0,0.0,0.0,0.0,
3.166432000000001,0.0,0.0,0.0,0.0,0.0,0.0,0.0,0.125,3.767089458,0.0,0.0,-776.0,0.0,0.0,-0.0,0.0,0.0,2.083740021,0.0,0.0,0.0,0.0,0.0,0.0,0.0,0.0,2.4328610790000003,0.0,0.0,-32385.0,0.0,0.0,-0.0,0.0,0.0,2.49023412,0.0,-0.0012207029999995456,-0.10000000149011612,88.61000061035156,-102.9000015258789,0.9879150390625,0.0377197265625,-0.060791015625,35.599998474121094,0.0,32.0,0.072723388671875,-0.021209716796875,Waiting,0.0,0.0,-24581.0,0.0,0.0,0.0,0.0,0.0,
3.185582,0.0,0.0,0.0,0.0,0.0,0.0,0.0,0.125,3.765868755,0.0,0.0,-776.0,0.0,0.0,-0.0,0.0,0.0,2.084960724,0.0,0.0,0.0,0.0,0.0,0.0,0.0,0.0,2.4328610790000003,0.0,0.0,-32385.0,0.0,0.0,-0.0,0.0,0.0,2.49023412,0.0,0.0,-0.10000000149011612,88.58999633789062,-103.18000030517578,1.0721435546875,0.06756591796875,0.017822265625,35.599998474121094,0.0,-51.0,0.0728912353515625,-0.0211181640625,Waiting,0.0,0.0,-24581.0,0.0,0.0,0.0,0.0,0.0,
3.2084040000000003,0.0,0.0,0.0,0.0,0.0,0.0,0.0,0.125,3.767089458,0.0,0.0,-776.0,0.0,0.0,-0.0,0.0,0.0,2.084960724,0.0,0.0,0.0,0.0,0.0,0.0,0.0,0.0,2.4316403760000003,0.0,0.0,-32385.0,0.0,0.0,-0.0,0.0,0.0,2.491454823,0.0,0.0,-0.10999999940395355,88.58999633789062,-103.0199966430664,1.11627197265625,0.05206298828125,0.10296630859375,35.599998474121094,0.0,-135.0,0.07281494140625,-0.02056884765625,Waiting,0.0,0.0,-24581.0,0.0,0.0,0.0,0.0,0.0,
3.229621000000001,0.0,0.0,0.0,0.0,0.0,0.0,0.0,0.125,3.767089458,0.0,0.0,-776.0,0.0,0.0,-0.0,0.0,0.0,2.083740021,0.0,0.0,0.0,0.0,0.0,0.0,0.0,0.0,2.4316403760000003,0.0,0.0,-32385.0,0.0,0.0,-0.0,0.0,0.0,2.491454823,0.0,0.0,-0.10999999940395355,88.69000244140625,-102.19000244140625,0.78753662109375,-7.9345703125E-4,-0.0025634765625,35.599998474121094,0.0,-15.0,0.072601318359375,-0.02020263671875,Waiting,0.0,0.0,-24581.0,0.0,0.0,0.0,0.0,0.0,
3.253089,0.0,0.0,0.0,0.0,0.0,0.0,0.0,0.125,3.765868755,0.0,0.0,-776.0,0.0,0.0,-0.0,0.0,0.0,2.083740021,0.0,0.0,0.0,0.0,0.0,0.0,0.0,0.0,2.4328610790000003,0.0,0.0,-32385.0,0.0,0.0,-0.0,0.0,0.0,2.491454823,0.0,0.0,-0.20999999344348907,88.45999908447266,-104.29000091552734,0.788818359375,-0.0018310546875,0.17559814453125,35.599998474121094,0.0,-195.0,0.0731048583984375,-0.02001953125,Waiting,0.0,0.0,-24581.0,0.0,0.0,0.0,0.0,0.0,
3.275433000000001,0.0,0.0,0.0,0.0,0.0,0.0,0.0,0.125,3.767089458,0.0,0.0,-776.0,0.0,0.0,-0.0,0.0,0.0,2.084960724,0.0,0.0,0.0,0.0,0.0,0.0,0.0,0.0,2.4328610790000003,0.0,0.0,-32385.0,0.0,0.0,-0.0,0.0,0.0,2.491454823,0.0,0.0,-0.14000000059604645,88.66000366210938,-102.51000213623047,1.1500244140625,-0.05242919921875,0.3590087890625,35.599998474121094,0.0,-378.0,0.073089599609375,-0.02008056640625,Waiting,0.0,0.0,-24581.0,0.0,0.0,0.0,0.0,0.0,
3.3058720000000013,0.0,0.0,0.0,0.0,0.0,0.0,0.0,0.125,3.767089458,0.0,0.0,-776.0,0.0,0.0,-0.0,0.0,0.0,2.084960724,0.0,0.0,0.0,0.0,0.0,0.0,0.0,0.0,2.4316403760000003,0.0,0.0,-32385.0,0.0,0.0,-0.0,0.0,0.0,2.491454823,0.0,0.0,-0.1899999976158142,88.44999694824219,-104.43000030517578,1.04095458984375,0.108154296875,-0.23211669921875,35.599998474121094,0.0,191.0,0.0731658935546875,-0.0203399658203125,Waiting,0.0,0.0,-24581.0,0.0,0.0,0.0,0.0,0.0,
3.329974,0.0,0.0,0.0,0.0,0.0,0.0,0.0,0.125,3.767089458,0.0,0.0,-776.0,0.0,0.0,-0.0,0.0,0.0,2.084960724,0.0,0.0,0.0,0.0,0.0,0.0,0.0,0.0,2.4328610790000003,0.0,0.0,-32385.0,0.0,0.0,-0.0,0.0,0.0,2.491454823,0.0,0.0,-0.15000000596046448,88.69999694824219,-102.08999633789062,1.0040283203125,-0.063232421875,0.07940673828125,35.599998474121094,0.0,-94.0,0.0730438232421875,-0.020294189453125,Waiting,0.0,0.0,-24581.0,0.0,0.0,0.0,0.0,0.0,
3.353652,0.0,0.0,0.0,0.0,0.0,0.0,0.0,0.125,3.767089458,0.0,0.0,-776.0,0.0,0.0,-0.0,0.0,0.0,2.084960724,0.0,0.0,0.0,0.0,0.0,0.0,0.0,0.0,2.4316403760000003,0.0,0.0,-32385.0,0.0,0.0,-0.0,0.0,0.0,2.491454823,0.0,0.0,-0.1599999964237213,88.66000366210938,-102.54000091552734,0.99169921875,-0.0511474609375,-0.27203369140625,35.599998474121094,0.0,252.0,0.0729522705078125,-0.0203399658203125,Waiting,0.0,0.0,-24581.0,0.0,0.0,0.0,0.0,0.0,
3.3729700000000014,0.0,0.0,0.0,0.0,0.0,0.0,0.0,0.125,3.765868755,0.0,0.0,-776.0,0.0,0.0,-0.0,0.0,0.0,2.084960724,0.0,0.0,0.0,0.0,0.0,0.0,0.0,0.0,2.4328610790000003,0.0,0.0,-32385.0,0.0,0.0,-0.0,0.0,0.0,2.491454823,0.0,0.0,-0.18000000715255737,88.58000183105469,-103.23999786376953,0.88323974609375,0.0179443359375,0.1668701171875,35.599998474121094,0.0,-189.0,0.0731964111328125,-0.0206298828125,Waiting,0.0,0.0,-24581.0,0.0,0.0,0.0,0.0,0.0,
3.399889000000001,0.0,0.0,0.0,0.0,0.0,0.0,0.0,0.125,3.765868755,0.0,0.0,-776.0,0.0,0.0,-0.0,0.0,0.0,2.083740021,0.0,0.0,0.0,0.0,0.0,0.0,0.0,0.0,2.4316403760000003,0.0,0.0,-32385.0,0.0,0.0,-0.0,0.0,0.0,2.49023412,0.0,0.0,-0.15000000596046448,88.66999816894531,-102.45999908447266,0.956298828125,0.02850341796875,0.02239990234375,35.59000015258789,0.0,-47.0,0.0731201171875,-0.0207672119140625,Waiting,0.0,0.0,-24581.0,0.0,0.0,0.0,0.0,0.0,
3.4188279999999995,0.0,0.0,0.0,0.0,0.0,0.0,0.0,0.125,3.765868755,0.0,0.0,-776.0,0.0,0.0,-0.0,0.0,0.0,2.084960724,0.0,0.0,0.0,0.0,0.0,0.0,0.0,0.0,2.4316403760000003,0.0,0.0,-32385.0,0.0,0.0,-0.0,0.0,0.0,2.49023412,0.0,0.0,-0.1899999976158142,88.52999877929688,-103.68000030517578,1.06927490234375,0.01995849609375,0.0318603515625,35.59000015258789,0.0,-61.0,0.0732421875,-0.02099609375,Waiting,0.0,0.0,-24581.0,0.0,0.0,0.0,0.0,0.0,
3.4452029999999993,0.0,0.0,0.0,0.0,0.0,0.0,0.0,0.125,3.767089458,0.0,0.0,-776.0,0.0,0.0,-0.0,0.0,0.0,2.086181427,0.0,0.0,0.0,0.0,0.0,0.0,0.0,0.0,2.4328610790000003,0.0,0.0,-32385.0,0.0,0.0,-0.0,0.0,0.0,2.49023412,0.0,0.0,-0.1899999976158142,88.58000183105469,-103.18000030517578,1.08575439453125,0.03741455078125,0.0819091796875,35.59000015258789,0.0,-112.0,0.073211669921875,-0.0210723876953125,Waiting,0.0,0.0,-24581.0,0.0,0.0,0.0,0.0,0.0,
3.467402,0.0,0.0,0.0,0.0,0.0,0.0,0.0,0.125,3.765868755,0.0,0.0,-776.0,0.0,0.0,-0.0,0.0,0.0,2.083740021,0.0,0.0,0.0,0.0,0.0,0.0,0.0,0.0,2.4316403760000003,0.0,0.0,-32385.0,0.0,0.0,-0.0,0.0,0.0,2.491454823,0.0,0.0,-0.15000000596046448,88.58000183105469,-103.33000183105469,0.9794921875,4.8828125E-4,-0.0919189453125,35.59000015258789,0.0,67.0,0.0731048583984375,-0.0211944580078125,Waiting,0.0,0.0,-24581.0,0.0,0.0,0.0,0.0,0.0,
3.490174000000001,0.0,0.0,0.0,0.0,0.0,0.0,0.0,0.125,3.767089458,0.0,0.0,-776.0,0.0,0.0,-0.0,0.0,0.0,2.083740021,0.0,0.0,0.0,0.0,0.0,0.0,0.0,0.0,2.4328610790000003,0.0,0.0,-32385.0,0.0,0.0,-0.0,0.0,0.0,2.491454823,0.0,0.0,-0.14000000059604645,88.56999969482422,-103.30999755859375,0.95977783203125,-0.08282470703125,-0.02325439453125,35.59000015258789,0.0,7.0,0.0731353759765625,-0.0213165283203125,Waiting,0.0,0.0,-24581.0,0.0,0.0,0.0,0.0,0.0,
3.511576000000001,0.0,0.0,0.0,0.0,0.0,0.0,0.0,0.125,3.765868755,0.0,0.0,-776.0,0.0,0.0,-0.0,0.0,0.0,2.083740021,0.0,0.0,0.0,0.0,0.0,0.0,0.0,0.0,2.4316403760000003,0.0,0.0,-32385.0,0.0,0.0,-0.0,0.0,0.0,2.492675526,0.0,0.0,-0.17000000178813934,88.5999984741211,-103.12999725341797,0.9759521484375,0.0548095703125,-0.00531005859375,35.59000015258789,0.0,-24.0,0.073150634765625,-0.0215606689453125,Waiting,0.0,0.0,-24581.0,0.0,0.0,0.0,0.0,0.0,
3.533179,0.0,0.0,0.0,0.0,0.0,0.0,0.0,0.125,3.767089458,0.0,0.0,-776.0,0.0,0.0,-0.0,0.0,0.0,2.083740021,0.0,0.0,0.0,0.0,0.0,0.0,0.0,0.0,2.4328610790000003,0.0,0.0,-32385.0,0.0,0.0,-0.0,0.0,0.0,2.491454823,0.0,0.0,-0.1599999964237213,88.58000183105469,-103.18000030517578,1.089599609375,0.0526123046875,-0.05621337890625,35.59000015258789,0.0,23.0,0.0732421875,-0.0216064453125,Waiting,0.0,0.0,-24581.0,0.0,0.0,0.0,0.0,0.0,
3.5619300000000003,0.0,0.0,0.0,0.0,0.0,0.0,0.0,0.125,3.765868755,0.0,0.0,-776.0,0.0,0.0,-0.0,0.0,0.0,2.083740021,0.0,0.0,0.0,0.0,0.0,0.0,0.0,0.0,2.4328610790000003,0.0,0.0,-32385.0,0.0,0.0,-0.0,0.0,0.0,2.49023412,0.0,0.0,-0.1599999964237213,88.5999984741211,-103.11000061035156,1.00726318359375,7.32421875E-4,0.01708984375,35.59000015258789,0.0,-41.0,0.0733184814453125,-0.0215606689453125,Waiting,0.0,0.0,-24581.0,0.0,0.0,0.0,0.0,0.0,
3.5853700000000006,0.0,0.0,0.0,0.0,0.0,0.0,0.0,0.125,3.765868755,0.0,0.0,-776.0,0.0,0.0,-0.0,0.0,0.0,2.084960724,0.0,0.0,0.0,0.0,0.0,0.0,0.0,0.0,2.4316403760000003,0.0,0.0,-32385.0,0.0,0.0,-0.0,0.0,0.0,2.491454823,0.0,0.0,-0.15000000596046448,88.58999633789062,-103.23999786376953,0.98162841796875,-0.08673095703125,-0.11297607421875,35.59000015258789,0.0,97.0,0.07354736328125,-0.021575927734375,Waiting,0.0,0.0,-24581.0,0.0,0.0,0.0,0.0,0.0,
3.6109150000000008,0.0,0.0,0.0,0.0,0.0,0.0,0.0,0.125,3.767089458,0.0,0.0,-776.0,0.0,0.0,-0.0,0.0,0.0,2.084960724,0.0,0.0,0.0,0.0,0.0,0.0,0.0,0.0,2.4316403760000003,0.0,0.0,-32385.0,0.0,0.0,-0.0,0.0,0.0,2.491454823,0.0,0.0,-0.15000000596046448,88.58000183105469,-103.22000122070312,0.931884765625,-0.0269775390625,0.00347900390625,35.59000015258789,0.0,-23.0,0.073760986328125,-0.0216827392578125,Waiting,0.0,0.0,-24581.0,0.0,0.0,0.0,0.0,0.0,
3.6302980000000007,0.0,0.0,0.0,0.0,0.0,0.0,0.0,0.125,3.767089458,0.0,0.0,-776.0,0.0,0.0,-0.0,0.0,0.0,2.083740021,0.0,0.0,0.0,0.0,0.0,0.0,0.0,0.0,2.4328610790000003,0.0,0.0,-32385.0,0.0,0.0,-0.0,0.0,0.0,2.491454823,0.0,0.0012207029999995456,-0.15000000596046448,88.5999984741211,-103.04000091552734,1.04046630859375,0.02777099609375,-0.01995849609375,35.59000015258789,0.0,-8.0,0.07403564453125,-0.02191162109375,Waiting,0.0,0.0,-24581.0,0.0,0.0,0.0,0.0,0.0,
3.655183000000001,0.0,0.0,0.0,0.0,0.0,0.0,0.0,0.125,3.767089458,0.0,0.0,-776.0,0.0,0.0,-0.0,0.0,0.0,2.084960724,0.0,0.0,0.0,0.0,0.0,0.0,0.0,0.0,2.4316403760000003,0.0,0.0,-32385.0,0.0,0.0,-0.0,0.0,0.0,2.491454823,0.0,0.0012207029999995456,-0.15000000596046448,88.58000183105469,-103.22000122070312,1.08660888671875,0.02105712890625,-0.03363037109375,35.59000015258789,0.0,4.0,0.07403564453125,-0.02197265625,Waiting,0.0,0.0,-24581.0,0.0,0.0,0.0,0.0,0.0,
3.6744570000000003,0.0,0.0,0.0,0.0,0.0,0.0,0.0,0.125,3.765868755,0.0,0.0,-776.0,0.0,0.0,-0.0,0.0,0.0,2.083740021,0.0,0.0,0.0,0.0,0.0,0.0,0.0,0.0,2.4328610790000003,0.0,0.0,-32385.0,0.0,0.0,-0.0,0.0,0.0,2.491454823,0.0,-0.0012207029999995456,-0.14000000059604645,88.5999984741211,-103.11000061035156,0.98699951171875,-0.029296875,-0.033447265625,35.59000015258789,0.0,12.0,0.07403564453125,-0.0220184326171875,Waiting,0.0,0.0,-24581.0,0.0,0.0,0.0,0.0,0.0,
3.6965570000000008,0.0,0.0,0.0,0.0,0.0,0.0,0.0,0.125,3.767089458,0.0,0.0,-776.0,0.0,0.0,-0.0,0.0,0.0,2.084960724,0.0,0.0,0.0,0.0,0.0,0.0,0.0,0.0,2.4316403760000003,0.0,0.0,-32385.0,0.0,0.0,-0.0,0.0,0.0,2.491454823,0.0,-0.0012207029999995456,-0.14000000059604645,88.58999633789062,-103.12000274658203,0.99041748046875,-0.0576171875,-0.03704833984375,35.59000015258789,0.0,18.0,0.07403564453125,-0.0220947265625,Waiting,0.0,0.0,-24581.0,0.0,0.0,0.0,0.0,0.0,
3.7223150000000005,0.0,0.0,0.0,0.0,0.0,0.0,0.0,0.125,3.765868755,0.0,0.0,-776.0,0.0,0.0,-0.0,0.0,0.0,2.084960724,0.0,0.0,0.0,0.0,0.0,0.0,0.0,0.0,2.4316403760000003,0.0,0.0,-32385.0,0.0,0.0,-0.0,0.0,0.0,2.491454823,0.0,-0.0012207029999995456,-0.12999999523162842,88.58000183105469,-103.19999694824219,0.97601318359375,0.00677490234375,-0.004150390625,35.59000015258789,0.0,-20.0,0.0740203857421875,-0.02239990234375,Waiting,0.0,0.0,-24581.0,0.0,0.0,0.0,0.0,0.0,
