Time,ClimberA1,ClimberA2,CameraExists,HeapSpace,LoopTime,FRpos,FRCurrent,FRspeed,FRsetpoint,FRApos,FRACurrent,FREncpos,FREncSetpoint,FREncSpeed,FLpos,FLCurrent,FLspeed,FLsetpoint,FLApos,FLACurrent,FLEncpos,FLEncSetpoint,FLEncSpeed,BRpos,BRCurrent,BRspeed,BRsetpoint,BRApos,BRACurrent,BREncpos,BREncSetpoint,BREncSpeed,BLpos,BLCurrent,BLspeed,BLsetpoint,BLApos,BLACurrent,BLEncpos,BLEncSetpoint,BLEncSpeed,navx_Pitch,navx_Roll,navx_Yaw,navx_XAcc,navx_YAcc,navx_ZAcc,navx_Temp,navx_Bar,navx_Alt,navx_XDis,navx_YDis,GearPlacerState,ShootOutputV,ShootOutputCurrent,ShootEncPos,ShootEncVelocity,ShootSpeed,ShootSetpoint,CarouselSetpoint,CarouselCurrent,
0.143929999999993,0.0,0.0,false,3786355.1719346996,,8738.0,0.0,0.0,0.0,0.0,0.125,1.85546856,-0.0,0.0,-1108.0,0.0,0.0,0.0,0.0,0.0,2.680663788,-0.0,0.0,10000.0,0.0,0.0,0.0,0.0,0.0,4.04052693,0.0,0.0,-11256.0,0.0,0.0,0.0,0.0,0.0,2.554931379,0.0,0.0,0.009999999776482582,78.36000061035156,114.16999816894531,0.98565673828125,-0.002197265625,-0.2052001953125,36.0,0.0,0.0,-3.1661224365234375,2.0911407470703125,Waiting,0.0,0.0,14.0,0.0,0.0,0.0,0.0,0.0,
0.21243600000004517,0.0,0.0,false,3786517.7664833576,,8738.0,0.0,0.0,0.0,0.0,0.125,1.85546856,-0.0,0.0,-1108.0,0.0,0.0,0.0,0.0,0.0,2.680663788,-0.0,0.0,10000.0,0.0,0.0,0.0,0.0,0.0,4.039306227,0.0,0.0,-11256.0,0.0,0.0,0.0,0.0,0.0,2.556152082,0.0,0.0,0.009999999776482582,78.36000061035156,114.16999816894531,0.98486328125,-0.0010986328125,-0.1947021484375,36.0,0.0,-7.0,-3.1661224365234375,2.0911407470703125,Waiting,0.0,0.0,14.0,0.0,0.0,0.0,0.0,0.0,
0.2805350000000326,0.0,0.0,false,3786673.997684649,,8738.0,0.0,0.0,0.0,0.0,0.125,1.85546856,-0.0,0.0,-1108.0,0.0,0.0,0.0,0.0,0.0,2.680663788,-0.0,0.0,10000.0,0.0,0.0,0.0,0.0,0.0,4.039306227,0.0,0.0,-11256.0,0.0,0.0,0.0,0.0,0.0,2.554931379,0.0,0.0,0.009999999776482582,78.36000061035156,114.16999816894531,0.98455810546875,0.00140380859375,-0.203857421875,36.0,0.0,1.0,-3.1661224365234375,2.0911407470703125,Waiting,0.0,0.0,14.0,0.0,0.0,0.0,0.0,0.0,
0.35756100000004515,0.0,0.0,false,3786823.8666435145,,8738.0,0.0,0.0,0.0,0.0,0.125,1.85546856,-0.0,0.0012207030000004337,-1108.0,0.0,0.0,0.0,0.0,0.0,2.680663788,-0.0,0.0,10000.0,0.0,0.0,0.0,0.0,0.0,4.04052693,0.0,0.0,-11256.0,0.0,0.0,0.0,0.0,0.0,2.554931379,0.0,0.0012207029999999897,0.009999999776482582,78.36000061035156,114.16000366210938,0.98175048828125,-8.544921875E-4,-0.20556640625,36.0,0.0,2.0,-3.1661224365234375,2.0911407470703125,Waiting,0.0,0.0,14.0,0.0,0.0,0.0,0.0,0.0,
0.4279030000000494,0.0,0.0,false,3786966.7415210092,,8738.0,0.0,0.0,0.0,0.0,0.125,1.85546856,-0.0,0.0,-1108.0,0.0,0.0,0.0,0.0,0.0,2.680663788,-0.0,0.0,10000.0,0.0,0.0,0.0,0.0,0.0,4.04052693,0.0,0.0,-11256.0,0.0,0.0,0.0,0.0,0.0,2.554931379,0.0,0.0,0.009999999776482582,78.36000061035156,114.16000366210938,0.987060546875,0.001953125,-0.20220947265625,36.0,0.0,0.0,-3.1661224365234375,2.0911407470703125,Waiting,0.0,0.0,14.0,0.0,0.0,0.0,0.0,0.0,
0.5036130000000121,0.0,0.0,false,3787105.3709126688,,8738.0,0.0,0.0,0.0,0.0,0.125,1.85546856,-0.0,0.0,-1108.0,0.0,0.0,0.0,0.0,0.0,2.681884491,-0.0,0.0,10000.0,0.0,0.0,0.0,0.0,0.0,4.04052693,0.0,0.0,-11256.0,0.0,0.0,0.0,0.0,0.0,2.556152082,0.0,0.0,0.0,78.37000274658203,114.16000366210938,0.98431396484375,-6.103515625E-5,-0.20452880859375,36.0099983215332,0.0,1.0,-3.1661224365234375,2.0911407470703125,Waiting,0.0,0.0,14.0,0.0,0.0,0.0,0.0,0.0,
0.5703150000000023,0.0,0.0,false,3787237.641203704,,8738.0,0.0,0.0,0.0,0.0,0.125,1.85546856,-0.0,-0.0012207030000004337,-1108.0,0.0,0.0,0.0,0.0,0.0,2.681884491,-0.0,0.0,10000.0,0.0,0.0,0.0,0.0,0.0,4.039306227,0.0,0.0,-11256.0,0.0,0.0,0.0,0.0,0.0,2.554931379,0.0,0.0,0.0,78.37000274658203,114.16000366210938,0.983642578125,7.9345703125E-4,-0.20208740234375,36.0099983215332,0.0,0.0,-3.1661224365234375,2.0911407470703125,Waiting,0.0,0.0,14.0,0.0,0.0,0.0,0.0,0.0,
0.6488870000000461,0.0,0.0,false,3787362.9206643132,,8738.0,0.0,0.0,0.0,0.0,0.125,1.854247857,-0.0,0.0,-1108.0,0.0,0.0,0.0,0.0,0.0,2.680663788,-0.0,0.0,10000.0,0.0,0.0,0.0,0.0,0.0,4.04052693,0.0,0.0,-11256.0,0.0,0.0,0.0,0.0,0.0,2.556152082,0.0,0.0,0.0,78.37000274658203,114.16000366210938,0.98284912109375,0.0029296875,-0.202880859375,36.0099983215332,0.0,1.0,-3.1661224365234375,2.0911407470703125,Waiting,0.0,0.0,14.0,0.0,0.0,0.0,0.0,0.0,
0.716530000000028,0.0,0.0,false,3787481.843305173,,8738.0,0.0,0.0,0.0,0.0,0.125,1.85546856,-0.0,0.0012207030000004337,-1108.0,0.0,0.0,0.0,0.0,0.0,2.680663788,-0.0,0.0,10000.0,0.0,0.0,0.0,0.0,0.0,4.039306227,0.0,0.0,-11256.0,0.0,0.0,0.0,0.0,0.0,2.554931379,0.0,0.0,0.0,78.36000061035156,114.16999816894531,0.985107421875,0.00238037109375,-0.2020263671875,36.0099983215332,0.0,0.0,-3.1661224365234375,2.0911407470703125,Waiting,0.0,0.0,14.0,0.0,0.0,0.0,0.0,0.0,
0.7949780000000028,0.0,0.0,false,3787594.4102297053,,8738.0,0.0,0.0,0.0,0.0,0.125,1.85546856,-0.0,0.0,-1108.0,0.0,0.0,0.0,0.0,0.0,2.680663788,-0.0,0.0,10000.0,0.0,0.0,0.0,0.0,0.0,4.039306227,0.0,0.0,-11256.0,0.0,0.0,0.0,0.0,0.0,2.554931379,0.0,0.0,0.009999999776482582,78.37000274658203,114.16999816894531,0.98297119140625,0.00128173828125,-0.2027587890625,36.0099983215332,0.0,0.0,-3.1661224365234375,2.0911407470703125,Waiting,0.0,0.0,14.0,0.0,0.0,0.0,0.0,0.0,
0.8702900000000372,0.0,0.0,false,3787700.6225410784,,8738.0,0.0,0.0,0.0,0.0,0.125,1.85546856,-0.0,-0.0012207030000004337,-1108.0,0.0,0.0,0.0,0.0,0.0,2.680663788,-0.0,0.0,10000.0,0.0,0.0,0.0,0.0,0.0,4.04052693,0.0,0.0,-11256.0,0.0,0.0,0.0,0.0,0.0,2.554931379,0.0,0.0,0.0,78.36000061035156,114.16999816894531,0.98675537109375,-0.002685546875,-0.20391845703125,36.0099983215332,0.0,0.0,-3.1661224365234375,2.0911407470703125,Waiting,0.0,0.0,14.0,0.0,0.0,0.0,0.0,0.0,
0.9397660000000032,0.0,0.0,false,3787799.848654903,,8738.0,0.0,0.0,0.0,0.0,0.125,1.85546856,-0.0,0.0,-1108.0,0.0,0.0,0.0,0.0,0.0,2.680663788,-0.0,0.0,10000.0,0.0,0.0,0.0,0.0,0.0,4.04052693,0.0,0.0,-11256.0,0.0,0.0,0.0,0.0,0.0,2.554931379,0.0,0.0,0.0,78.36000061035156,114.16999816894531,0.9830322265625,0.0013427734375,-0.20257568359375,36.0099983215332,0.0,0.0,-3.1661224365234375,2.0911407470703125,Waiting,0.0,0.0,14.0,0.0,0.0,0.0,0.0,0.0,
1.0138280000000377,0.0,0.0,false,3787894.8360522967,,8738.0,0.0,0.0,0.0,0.0,0.125,1.85546856,-0.0,-0.0012207030000004337,-1108.0,0.0,0.0,0.0,0.0,0.0,2.680663788,-0.0,0.0,10000.0,0.0,0.0,0.0,0.0,0.0,4.039306227,0.0,0.0,-11256.0,0.0,0.0,0.0,0.0,0.0,2.554931379,0.0,0.0,0.009999999776482582,78.37000274658203,114.16999816894531,0.985595703125,0.00128173828125,-0.20458984375,36.0,0.0,1.0,-3.1661224365234375,2.0911407470703125,Waiting,0.0,0.0,14.0,0.0,0.0,0.0,0.0,0.0,
1.0903910000000032,0.0,0.0,false,3787983.471973159,,8738.0,0.0,0.0,0.0,0.0,0.125,1.854247857,-0.0,0.0,-1108.0,0.0,0.0,0.0,0.0,0.0,2.680663788,-0.0,0.0,10000.0,0.0,0.0,0.0,0.0,0.0,4.04052693,0.0,0.0,-11256.0,0.0,0.0,0.0,0.0,0.0,2.553710676,0.0,0.0,0.009999999776482582,78.37000274658203,114.16999816894531,0.9844970703125,-8.544921875E-4,-0.2039794921875,36.0,0.0,0.0,-3.1661224365234375,2.0911407470703125,Waiting,0.0,0.0,14.0,0.0,0.0,0.0,0.0,0.0,
1.1668950000000187,0.0,0.0,false,3788065.1249421565,,8738.0,0.0,0.0,0.0,0.0,0.125,1.85546856,-0.0,0.0,-1108.0,0.0,0.0,0.0,0.0,0.0,2.680663788,-0.0,0.0,10000.0,0.0,0.0,0.0,0.0,0.0,4.039306227,0.0,0.0,-11256.0,0.0,0.0,0.0,0.0,0.0,2.554931379,0.0,0.0,0.0,78.37000274658203,114.1500015258789,0.982666015625,-3.0517578125E-4,-0.20538330078125,36.0,0.0,2.0,-3.1661224365234375,2.0911407470703125,Waiting,0.0,0.0,14.0,0.0,0.0,0.0,0.0,0.0,
1.2335329999999958,0.0,0.0,false,3788138.3154606977,,8738.0,0.0,0.0,0.0,0.0,0.125,1.85546856,-0.0,0.0,-1108.0,0.0,0.0,0.0,0.0,0.0,2.681884491,-0.0,0.0,10000.0,0.0,0.0,0.0,0.0,0.0,4.039306227,0.0,0.0,-11256.0,0.0,0.0,0.0,0.0,0.0,2.554931379,0.0,0.0,0.009999999776482582,78.37000274658203,114.18000030517578,0.98590087890625,-1.8310546875E-4,-0.20294189453125,36.0,0.0,0.0,-3.1661224365234375,2.0911407470703125,Waiting,0.0,0.0,14.0,0.0,0.0,0.0,0.0,0.0,
1.310295000000042,0.0,0.0,false,3788207.2712550606,,8738.0,0.0,0.0,0.0,0.0,0.125,1.854247857,-0.0,0.0,-1108.0,0.0,0.0,0.0,0.0,0.0,2.681884491,-0.0,0.0,10000.0,0.0,0.0,0.0,0.0,0.0,4.04052693,0.0,0.0,-11256.0,0.0,0.0,0.0,0.0,0.0,2.554931379,0.0,-0.0012207029999999897,0.009999999776482582,78.37000274658203,114.16999816894531,0.98480224609375,-0.00286865234375,-0.2039794921875,36.0,0.0,0.0,-3.1661224365234375,2.0911407470703125,Waiting,0.0,0.0,14.0,0.0,0.0,0.0,0.0,0.0,
1.3783319999999948,0.0,0.0,false,3788269.880053207,,8738.0,0.0,0.0,0.0,0.0,0.125,1.85546856,-0.0,0.0012207030000004337,-1108.0,0.0,0.0,0.0,0.0,0.0,2.681884491,-0.0,0.0,10000.0,0.0,0.0,0.0,0.0,0.0,4.039306227,0.0,0.0,-11256.0,0.0,0.0,0.0,0.0,0.0,2.554931379,0.0,0.0,0.009999999776482582,78.37000274658203,114.16999816894531,0.98468017578125,-0.00164794921875,-0.202880859375,36.0,0.0,0.0,-3.1661224365234375,2.0911407470703125,Waiting,0.0,0.0,14.0,0.0,0.0,0.0,0.0,0.0,
1.4557540000000153,0.0,0.0,false,3788325.5105250985,,8738.0,0.0,0.0,0.0,0.0,0.125,1.85546856,-0.0,0.0,-1108.0,0.0,0.0,0.0,0.0,0.0,2.680663788,-0.0,0.0,10000.0,0.0,0.0,0.0,0.0,0.0,4.04052693,0.0,0.0,-11256.0,0.0,0.0,0.0,0.0,0.0,2.556152082,0.0,-0.0012207029999999897,0.009999999776482582,78.37000274658203,114.18000030517578,0.9852294921875,-0.001953125,-0.20074462890625,36.0,0.0,-2.0,-3.1661224365234375,2.0911407470703125,Waiting,0.0,0.0,14.0,0.0,0.0,0.0,0.0,0.0,
1.5282800000000278,0.0,0.0,false,3788374.79627595,,8738.0,0.0,0.0,0.0,0.0,0.125,1.85546856,-0.0,-0.0012207030000004337,-1108.0,0.0,0.0,0.0,0.0,0.0,2.680663788,-0.0,0.0,10000.0,0.0,0.0,0.0,0.0,0.0,4.04052693,0.0,0.0,-11256.0,0.0,0.0,0.0,0.0,0.0,2.554931379,0.0,0.0,0.009999999776482582,78.37000274658203,114.18000030517578,0.98675537109375,0.00213623046875,-0.2042236328125,36.0,0.0,1.0,-3.1661224365234375,2.0911407470703125,Waiting,0.0,0.0,14.0,0.0,0.0,0.0,0.0,0.0,
1.6013130000000237,0.0,0.0,false,3788417.738406384,,8738.0,0.0,0.0,0.0,0.0,0.125,1.854247857,-0.0,0.0012207030000004337,-1108.0,0.0,0.0,0.0,0.0,0.0,2.680663788,-0.0,0.0,10000.0,0.0,0.0,0.0,0.0,0.0,4.04052693,0.0,0.0,-11256.0,0.0,0.0,0.0,0.0,0.0,2.554931379,0.0,0.0,0.009999999776482582,78.37000274658203,114.18000030517578,0.986328125,-8.544921875E-4,-0.2020263671875,36.0,0.0,-1.0,-3.1661224365234375,2.0911407470703125,Waiting,0.0,0.0,14.0,0.0,0.0,0.0,0.0,0.0,
1.6706120000000229,0.0,0.0,false,3788453.705695288,,8738.0,0.0,0.0,0.0,0.0,0.125,1.854247857,-0.0,-0.0012207030000004337,-1108.0,0.0,0.0,0.0,0.0,0.0,2.681884491,-0.0,0.0,10000.0,0.0,0.0,0.0,0.0,0.0,4.04052693,0.0,0.0,-11256.0,0.0,0.0,0.0,0.0,0.0,2.554931379,0.0,0.0,0.009999999776482582,78.37000274658203,114.18000030517578,0.98626708984375,-0.00140380859375,-0.1998291015625,36.0,0.0,-3.0,-3.1661224365234375,2.0911407470703125,Waiting,0.0,0.0,14.0,0.0,0.0,0.0,0.0,0.0,
1.7519280000000144,0.0,0.0,false,3788617.340425532,,8738.0,0.0,0.0,0.0,0.0,0.125,1.856689263,-0.0,0.0,-1108.0,0.0,0.0,0.0,0.0,0.0,2.680663788,-0.0,0.0,10000.0,0.0,0.0,0.0,0.0,0.0,4.04052693,0.0,0.0,-11256.0,0.0,0.0,0.0,0.0,0.0,2.556152082,0.0,-0.0012207029999999897,0.009999999776482582,78.37000274658203,114.18000030517578,0.98382568359375,5.4931640625E-4,-0.202880859375,36.0,0.0,0.0,-3.1661224365234375,2.0911407470703125,Waiting,0.0,0.0,14.0,0.0,0.0,0.0,0.0,0.0,
1.8199530000000377,0.0,0.0,false,3788773.953402324,,8738.0,0.0,0.0,0.0,0.0,0.125,1.85546856,-0.0,0.0012207030000004337,-1108.0,0.0,0.0,0.0,0.0,0.0,2.681884491,-0.0,0.0,10000.0,0.0,0.0,0.0,0.0,0.0,4.04052693,0.0,0.0,-11256.0,0.0,0.0,0.0,0.0,0.0,2.554931379,0.0,0.0012207029999999897,0.009999999776482582,78.37000274658203,114.18000030517578,0.98406982421875,0.0010986328125,-0.20391845703125,36.0,0.0,1.0,-3.1661224365234375,2.0911407470703125,Waiting,0.0,0.0,14.0,0.0,0.0,0.0,0.0,0.0,
1.8892700000000187,0.0,0.0,false,3788925.437854087,,8738.0,0.0,0.0,0.0,0.0,0.125,1.85546856,-0.0,0.0,-1108.0,0.0,0.0,0.0,0.0,0.0,2.680663788,-0.0,0.0,10000.0,0.0,0.0,0.0,0.0,0.0,4.04052693,0.0,0.0,-11256.0,0.0,0.0,0.0,0.0,0.0,2.554931379,0.0,0.0,0.009999999776482582,78.37000274658203,114.18000030517578,0.98406982421875,-7.32421875E-4,-0.19976806640625,36.0,0.0,-2.0,-3.1661224365234375,2.0911407470703125,Waiting,0.0,0.0,14.0,0.0,0.0,0.0,0.0,0.0,
1.9630530000000144,0.0,0.0,false,3789069.9027689463,,8738.0,0.0,0.0,0.0,0.0,0.125,1.85546856,-0.0,0.0,-1108.0,0.0,0.0,0.0,0.0,0.0,2.680663788,-0.0,0.0,10000.0,0.0,0.0,0.0,0.0,0.0,4.04052693,0.0,0.0,-11256.0,0.0,0.0,0.0,0.0,0.0,2.553710676,0.0,0.0,0.009999999776482582,78.37000274658203,114.16000366210938,0.98956298828125,6.7138671875E-4,-0.2076416015625,36.0,0.0,3.0,-3.1661224365234375,2.0911407470703125,Waiting,0.0,0.0,14.0,0.0,0.0,0.0,0.0,0.0,
2.030749000000011,0.0,0.0,false,3789207.349364162,,8738.0,0.0,0.0,0.0,0.0,0.125,1.85546856,-0.0,-0.0012207030000004337,-1108.0,0.0,0.0,0.0,0.0,0.0,2.680663788,-0.0,0.0,10000.0,0.0,0.0,0.0,0.0,0.0,4.039306227,0.0,0.0,-11256.0,0.0,0.0,0.0,0.0,0.0,2.554931379,0.0,0.0,0.0,78.36000061035156,114.18000030517578,0.9835205078125,2.44140625E-4,-0.20135498046875,36.02000045776367,0.0,0.0,-3.1661224365234375,2.0911407470703125,Waiting,0.0,0.0,14.0,0.0,0.0,0.0,0.0,0.0,
2.107213000000047,0.0,0.0,false,3789339.6705392753,,8738.0,0.0,0.0,0.0,0.0,0.125,1.85546856,-0.0,0.0,-1108.0,0.0,0.0,0.0,0.0,0.0,2.681884491,-0.0,0.0,10000.0,0.0,0.0,0.0,0.0,0.0,4.039306227,0.0,0.0,-11256.0,0.0,0.0,0.0,0.0,0.0,2.553710676,0.0,0.0012207029999999897,0.009999999776482582,78.37000274658203,114.18000030517578,0.98291015625,-7.9345703125E-4,-0.2052001953125,36.02000045776367,0.0,2.0,-3.1661224365234375,2.0911407470703125,Waiting,0.0,0.0,14.0,0.0,0.0,0.0,0.0,0.0,
2.1768170000000393,0.0,0.0,false,3789464.975609756,,8738.0,0.0,0.0,0.0,0.0,0.125,1.85546856,-0.0,0.0,-1108.0,0.0,0.0,0.0,0.0,0.0,2.680663788,-0.0,0.0,10000.0,0.0,0.0,0.0,0.0,0.0,4.039306227,0.0,0.0,-11256.0,0.0,0.0,0.0,0.0,0.0,2.554931379,0.0,0.0,0.009999999776482582,78.36000061035156,114.19999694824219,0.9854736328125,-1.8310546875E-4,-0.20086669921875,36.02000045776367,0.0,-2.0,-3.1661224365234375,2.0911407470703125,Waiting,0.0,0.0,14.0,0.0,0.0,0.0,0.0,0.0,
2.253945000000007,0.0,0.0,false,3789582.8237877823,,8738.0,0.0,0.0,0.0,0.0,0.125,1.854247857,-0.0,0.0,-1108.0,0.0,0.0,0.0,0.0,0.0,2.680663788,-0.0,0.0,10000.0,0.0,0.0,0.0,0.0,0.0,4.04052693,0.0,0.0,-11256.0,0.0,0.0,0.0,0.0,0.0,2.554931379,0.0,0.0,0.009999999776482582,78.36000061035156,114.19999694824219,0.98480224609375,-0.0010986328125,-0.20428466796875,36.02000045776367,0.0,0.0,-3.1661224365234375,2.0911407470703125,Waiting,0.0,0.0,14.0,0.0,0.0,0.0,0.0,0.0,
2.3214700000000303,0.0,0.0,false,3789695.991678225,,8738.0,0.0,0.0,0.0,0.0,0.125,1.856689263,-0.0,0.0,-1108.0,0.0,0.0,0.0,0.0,0.0,2.680663788,-0.0,0.0,10000.0,0.0,0.0,0.0,0.0,0.0,4.039306227,0.0,0.0,-11256.0,0.0,0.0,0.0,0.0,0.0,2.554931379,0.0,0.0,0.009999999776482582,78.36000061035156,114.19999694824219,0.9844970703125,-0.0020751953125,-0.20062255859375,36.02000045776367,0.0,-2.0,-3.1661224365234375,2.0911407470703125,Waiting,0.0,0.0,14.0,0.0,0.0,0.0,0.0,0.0,
2.3964040000000386,0.0,0.0,false,3789801.7049407684,,8738.0,0.0,0.0,0.0,0.0,0.125,1.85546856,0.0,0.0,-1108.0,0.0,0.0,-0.0,0.0,0.0,2.681884491,0.0,0.0,10000.0,0.0,0.0,0.0,0.0,0.0,4.04052693,0.0,0.0,-11256.0,0.0,0.0,-0.0,0.0,0.0,2.554931379,0.0,0.0,0.009999999776482582,78.36000061035156,114.18000030517578,0.989013671875,-4.2724609375E-4,-0.20404052734375,36.02000045776367,0.0,0.0,-3.1661224365234375,2.0911407470703125,Waiting,0.0,0.0,14.0,0.0,0.0,0.0,0.0,0.0,
2.4626530000000493,0.0,0.0,false,3789900.4067953313,,8738.0,0.0,0.0,0.0,0.0,0.125,1.85546856,0.0,0.0012207030000004337,-1108.0,0.0,0.0,-0.0,0.0,0.0,2.680663788,0.0,0.0,10000.0,0.0,0.0,0.0,0.0,0.0,4.039306227,0.0,0.0,-11256.0,0.0,0.0,-0.0,0.0,0.0,2.554931379,0.0,0.0,0.009999999776482582,78.3499984741211,114.19999694824219,0.98516845703125,-6.103515625E-5,-0.2047119140625,36.02000045776367,0.0,1.0,-3.1661224365234375,2.0911407470703125,Waiting,0.0,0.0,14.0,0.0,0.0,0.0,0.0,0.0,
2.530112000000023,0.0,0.0,false,3789994.4313861444,,8738.0,0.0,0.0,0.0,0.0,0.125,1.85546856,0.0,-0.0012207030000004337,-1108.0,0.0,0.0,-0.0,0.0,0.0,2.681884491,0.0,0.0,10000.0,0.0,0.0,0.0,0.0,0.0,4.04052693,0.0,0.0,-11256.0,0.0,0.0,-0.0,0.0,0.0,2.554931379,0.0,0.0,0.0,78.36000061035156,114.18000030517578,0.987548828125,0.00201416015625,-0.202880859375,36.0099983215332,0.0,0.0,-3.1661224365234375,2.0911407470703125,Waiting,0.0,0.0,14.0,0.0,0.0,0.0,0.0,0.0,
2.6057640000000246,0.0,0.0,false,3790081.004853247,,8738.0,0.0,0.0,0.0,0.0,0.125,1.85546856,0.0,0.0012207030000004337,-1108.0,0.0,0.0,-0.0,0.0,0.0,2.680663788,0.0,0.0,10000.0,0.0,0.0,0.0,0.0,0.0,4.038085524,0.0,0.0,-11256.0,0.0,0.0,-0.0,0.0,0.0,2.554931379,0.0,-0.0012207029999999897,0.009999999776482582,78.3499984741211,114.19999694824219,0.986083984375,0.00115966796875,-0.2078857421875,36.0099983215332,0.0,4.0,-3.1661224365234375,2.0911407470703125,Waiting,0.0,0.0,14.0,0.0,0.0,0.0,0.0,0.0,
2.672792000000016,0.0,0.0,false,3790162.90299844,,8738.0,0.0,0.0,0.0,0.0,0.125,1.856689263,0.0,-0.0012207030000004337,-1108.0,0.0,0.0,-0.0,0.0,0.0,2.681884491,0.0,-0.0012207029999995456,10000.0,0.0,0.0,0.0,0.0,0.0,4.04052693,0.0,0.0,-11256.0,0.0,0.0,-0.0,0.0,0.0,2.554931379,0.0,0.0012207029999999897,0.009999999776482582,78.3499984741211,114.19999694824219,0.98223876953125,-6.103515625E-4,-0.20562744140625,36.0099983215332,0.0,2.0,-3.1661224365234375,2.0911407470703125,Waiting,0.0,0.0,14.0,0.0,0.0,0.0,0.0,0.0,
2.7512970000000205,0.0,0.0,false,3790237.352281918,,8738.0,0.0,0.0,0.0,0.0,0.125,1.854247857,0.0,0.0,-1108.0,0.0,0.0,-0.0,0.0,0.0,2.680663788,0.0,0.0012207029999995456,10000.0,0.0,0.0,0.0,0.0,0.0,4.04052693,0.0,0.0,-11256.0,0.0,0.0,-0.0,0.0,0.0,2.554931379,0.0,0.0,0.009999999776482582,78.3499984741211,114.19999694824219,0.9864501953125,0.00128173828125,-0.19970703125,36.0099983215332,0.0,-2.0,-3.1661224365234375,2.0911407470703125,Waiting,0.0,0.0,14.0,0.0,0.0,0.0,0.0,0.0,
2.8195530000000146,0.0,0.0,false,3790304.7957945815,,8738.0,0.0,0.0,0.0,0.0,0.125,1.85546856,0.0,0.0,-1108.0,0.0,0.0,-0.0,0.0,0.0,2.680663788,0.0,0.0,10000.0,0.0,0.0,0.0,0.0,0.0,4.04052693,0.0,0.0,-11256.0,0.0,0.0,-0.0,0.0,0.0,2.554931379,0.0,0.0,0.019999999552965164,78.36000061035156,114.20999908447266,0.98089599609375,6.7138671875E-4,-0.201904296875,36.0099983215332,0.0,0.0,-3.1661224365234375,2.0911407470703125,Waiting,0.0,0.0,14.0,0.0,0.0,0.0,0.0,0.0,
2.894148000000045,0.0,0.0,false,3790367.5670055454,,8738.0,0.0,0.0,0.0,0.0,0.125,1.85546856,0.0,0.0,-1108.0,0.0,0.0,-0.0,0.0,0.0,2.680663788,0.0,-0.0012207029999995456,10000.0,0.0,0.0,0.0,0.0,0.0,4.04052693,0.0,0.0,-11256.0,0.0,0.0,-0.0,0.0,0.0,2.554931379,0.0,-0.0012207029999999897,0.019999999552965164,78.36000061035156,114.20999908447266,0.9881591796875,-3.662109375E-4,-0.2025146484375,36.0099983215332,0.0,-1.0,-3.1661224365234375,2.0911407470703125,Waiting,0.0,0.0,14.0,0.0,0.0,0.0,0.0,0.0,
2.965302000000025,0.0,0.0,false,3790422.89285508,,8738.0,0.0,0.0,0.0,0.0,0.125,1.85546856,0.0,0.0,-1108.0,0.0,0.0,-0.0,0.0,0.0,2.680663788,0.0,0.0012207029999995456,10000.0,0.0,0.0,0.0,0.0,0.0,4.04052693,0.0,0.0,-11256.0,0.0,0.0,-0.0,0.0,0.0,2.554931379,0.0,0.0012207029999999897,0.009999999776482582,78.3499984741211,114.19999694824219,0.98541259765625,-0.0010986328125,-0.20587158203125,36.0099983215332,0.0,2.0,-3.1661224365234375,2.0911407470703125,Waiting,0.0,0.0,14.0,0.0,0.0,0.0,0.0,0.0,
3.035164000000048,0.0,0.0,false,3790473.548342382,,8738.0,0.0,0.0,0.0,0.0,0.125,1.85546856,0.0,0.0012207030000004337,-1108.0,0.0,0.0,-0.0,0.0,0.0,2.680663788,0.0,0.0,10000.0,0.0,0.0,0.0,0.0,0.0,4.04052693,0.0,0.0,-11256.0,0.0,0.0,-0.0,0.0,0.0,2.553710676,0.0,0.0,0.009999999776482582,78.3499984741211,114.19999694824219,0.9862060546875,0.0015869140625,-0.20281982421875,36.0099983215332,0.0,0.0,-3.1661224365234375,2.0911407470703125,Waiting,0.0,0.0,14.0,0.0,0.0,0.0,0.0,0.0,
3.1030260000000127,0.0,0.0,false,3790516.760727693,,8738.0,0.0,0.0,0.0,0.0,0.125,1.85546856,0.0,0.0,-1108.0,0.0,0.0,-0.0,0.0,0.0,2.680663788,0.0,0.0,10000.0,0.0,0.0,0.0,0.0,0.0,4.039306227,0.0,0.0,-11256.0,0.0,0.0,-0.0,0.0,0.0,2.554931379,0.0,0.0,0.009999999776482582,78.36000061035156,114.19999694824219,0.986083984375,1.8310546875E-4,-0.1978759765625,36.0099983215332,0.0,-4.0,-3.1661224365234375,2.0911407470703125,Waiting,0.0,0.0,14.0,0.0,0.0,0.0,0.0,0.0,
3.17363400000002,0.0,0.0,false,3790552.972972973,,8738.0,0.0,0.0,0.0,0.0,0.125,1.85546856,0.0,-0.0012207030000004337,-1108.0,0.0,0.0,-0.0,0.0,0.0,2.680663788,0.0,0.0,10000.0,0.0,0.0,0.0,0.0,0.0,4.04052693,0.0,0.0,-11256.0,0.0,0.0,-0.0,0.0,0.0,2.554931379,0.0,0.0,0.009999999776482582,78.37000274658203,114.19000244140625,0.98480224609375,1.8310546875E-4,-0.20245361328125,36.0099983215332,0.0,0.0,-3.1661224365234375,2.0911407470703125,Waiting,0.0,0.0,14.0,0.0,0.0,0.0,0.0,0.0,
3.25389300000004,0.0,0.0,false,3790719.198013513,,8738.0,0.0,0.0,0.0,0.0,0.125,1.85546856,0.0,0.0,-1108.0,0.0,0.0,-0.0,0.0,0.0,2.681884491,0.0,0.0,10000.0,0.0,0.0,0.0,0.0,0.0,4.041747633,0.0,0.0,-11256.0,0.0,0.0,-0.0,0.0,0.0,2.554931379,0.0,0.0,0.0,78.36000061035156,114.18000030517578,0.98785400390625,8.544921875E-4,-0.20831298828125,36.0099983215332,0.0,4.0,-3.1661224365234375,2.0911407470703125,Waiting,0.0,0.0,14.0,0.0,0.0,0.0,0.0,0.0,
3.3301110000000333,0.0,0.0,false,3790877.4177156715,,8738.0,0.0,0.0,0.0,0.0,0.125,1.85546856,0.0,0.0,-1108.0,0.0,0.0,-0.0,0.0,0.0,2.680663788,0.0,0.0,10000.0,0.0,0.0,0.0,0.0,0.0,4.041747633,0.0,0.0,-11256.0,0.0,0.0,-0.0,0.0,0.0,2.554931379,0.0,0.0,0.0,78.36000061035156,114.18000030517578,0.98394775390625,-0.001220703125,-0.2032470703125,36.0099983215332,0.0,0.0,-3.1661224365234375,2.0911407470703125,Waiting,0.0,0.0,14.0,0.0,0.0,0.0,0.0,0.0,
3.4084160000000265,0.0,0.0,false,3791030.3481725273,,8738.0,0.0,0.0,0.0,0.0,0.125,1.85546856,0.0,0.0012207030000004337,-1108.0,0.0,0.0,-0.0,0.0,0.0,2.680663788,0.0,0.0,10000.0,0.0,0.0,0.0,0.0,0.0,4.039306227,0.0,0.0,-11256.0,0.0,0.0,-0.0,0.0,0.0,2.553710676,0.0,0.0,0.0,78.36000061035156,114.18000030517578,0.98504638671875,0.0,-0.2015380859375,36.0099983215332,0.0,-1.0,-3.1661224365234375,2.0911407470703125,Waiting,0.0,0.0,14.0,0.0,0.0,0.0,0.0,0.0,
3.47475900000002,0.0,0.0,false,3791178.3048498845,,8738.0,0.0,0.0,0.0,0.0,0.125,1.85546856,0.0,-0.0012207030000004337,-1108.0,0.0,0.0,-0.0,0.0,0.0,2.681884491,0.0,0.0,10000.0,0.0,0.0,0.0,0.0,0.0,4.039306227,0.0,0.0,-11256.0,0.0,0.0,-0.0,0.0,0.0,2.554931379,0.0,0.0,0.0,78.36000061035156,114.18000030517578,0.984130859375,-0.003662109375,-0.20257568359375,36.0099983215332,0.0,-1.0,-3.1661224365234375,2.0911407470703125,Waiting,0.0,0.0,14.0,0.0,0.0,0.0,0.0,0.0,
3.5529250000000467,0.0,0.0,false,3791318.49616073,,8738.0,0.0,0.0,0.0,0.0,0.125,1.85546856,0.0,0.0,-1108.0,0.0,0.0,-0.0,0.0,0.0,2.680663788,0.0,0.0,10000.0,0.0,0.0,0.0,0.0,0.0,4.04052693,0.0,0.0,-11256.0,0.0,0.0,-0.0,0.0,0.0,2.556152082,0.0,0.0,0.0,78.36000061035156,114.18000030517578,0.98486328125,-0.00128173828125,-0.20623779296875,36.040000915527344,0.0,2.0,-3.1661224365234375,2.0911407470703125,Waiting,0.0,0.0,14.0,0.0,0.0,0.0,0.0,0.0,
3.623796000000031,0.0,0.0,false,3791453.401223877,,8738.0,0.0,0.0,0.0,0.0,0.125,1.856689263,0.0,0.0012207030000004337,-1108.0,0.0,0.0,-0.0,0.0,0.0,2.680663788,0.0,0.0,10000.0,0.0,0.0,0.0,0.0,0.0,4.04052693,0.0,0.0,-11256.0,0.0,0.0,-0.0,0.0,0.0,2.556152082,0.0,0.0,0.0,78.36000061035156,114.16999816894531,0.981689453125,0.0020751953125,-0.20306396484375,36.040000915527344,0.0,1.0,-3.1661224365234375,2.0911407470703125,Waiting,0.0,0.0,14.0,0.0,0.0,0.0,0.0,0.0,
3.698293000000005,0.0,0.0,false,3791580.8578190845,,8738.0,0.0,0.0,0.0,0.0,0.125,1.85546856,0.0,0.0,-1108.0,0.0,0.0,-0.0,0.0,0.0,2.681884491,0.0,0.0,10000.0,0.0,0.0,0.0,0.0,0.0,4.04052693,0.0,0.0,-11256.0,0.0,0.0,-0.0,0.0,0.0,2.556152082,0.0,-0.0012207029999999897,0.0,78.37000274658203,114.16000366210938,0.98382568359375,0.00177001953125,-0.20306396484375,36.040000915527344,0.0,1.0,-3.1661224365234375,2.0911407470703125,Waiting,0.0,0.0,14.0,0.0,0.0,0.0,0.0,0.0,
3.768744000000006,0.0,0.0,false,3791703.030247056,,8738.0,0.0,0.0,0.0,0.0,0.125,1.85546856,0.0,-0.0012207030000004337,-1108.0,0.0,0.0,-0.0,0.0,0.0,2.681884491,0.0,0.0,10000.0,0.0,0.0,0.0,0.0,0.0,4.04052693,0.0,0.0,-11256.0,0.0,0.0,-0.0,0.0,0.0,2.554931379,0.0,0.0,0.0,78.36000061035156,114.18000030517578,0.985107421875,6.103515625E-4,-0.20404052734375,36.040000915527344,0.0,1.0,-3.1661224365234375,2.0911407470703125,Waiting,0.0,0.0,14.0,0.0,0.0,0.0,0.0,0.0,
3.8385040000000155,0.0,0.0,false,3791817.7565367967,,8738.0,0.0,0.0,0.0,0.0,0.125,1.85546856,0.0,0.0,-1108.0,0.0,0.0,-0.0,0.0,0.0,2.680663788,0.0,0.0,10000.0,0.0,0.0,0.0,0.0,0.0,4.04052693,0.0,0.0,-11256.0,0.0,0.0,-0.0,0.0,0.0,2.553710676,0.0,0.0,0.0,78.37000274658203,114.16000366210938,0.9827880859375,3.662109375E-4,-0.201416015625,36.040000915527344,0.0,0.0,-3.1661224365234375,2.0911407470703125,Waiting,0.0,0.0,14.0,0.0,0.0,0.0,0.0,0.0,
3.9117920000000157,0.0,0.0,false,3791927.200738774,,8738.0,0.0,0.0,0.0,0.0,0.125,1.85546856,0.0,0.0,-1108.0,0.0,0.0,-0.0,0.0,0.0,2.680663788,0.0,0.0,10000.0,0.0,0.0,0.0,0.0,0.0,4.04052693,0.0,0.0,-11256.0,0.0,0.0,-0.0,0.0,0.0,2.554931379,0.0,0.0,0.009999999776482582,78.37000274658203,114.18000030517578,0.9862060546875,-0.00225830078125,-0.20361328125,36.040000915527344,0.0,0.0,-3.1661224365234375,2.0911407470703125,Waiting,0.0,0.0,14.0,0.0,0.0,0.0,0.0,0.0,
3.9870510000000356,0.0,0.0,false,3792031.678190108,,8738.0,0.0,0.0,0.0,0.0,0.125,1.85546856,0.0,0.0012207030000004337,-1108.0,0.0,0.0,-0.0,0.0,0.0,2.680663788,0.0,0.0,10000.0,0.0,0.0,0.0,0.0,0.0,4.039306227,0.0,0.0,-11256.0,0.0,0.0,-0.0,0.0,0.0,2.556152082,0.0,0.0,0.0,78.37000274658203,114.16000366210938,0.9871826171875,0.00140380859375,-0.2017822265625,36.040000915527344,0.0,0.0,-3.1661224365234375,2.0911407470703125,Waiting,0.0,0.0,14.0,0.0,0.0,0.0,0.0,0.0,
4.063953000000038,0.0,0.0,false,3792128.3984302864,,8738.0,0.0,0.0,0.0,0.0,0.125,1.85546856,0.0,-0.0012207030000004337,-1108.0,0.0,0.0,-0.0,0.0,0.0,2.680663788,0.0,0.0,10000.0,0.0,0.0,0.0,0.0,0.0,4.039306227,0.0,0.0,-11256.0,0.0,0.0,-0.0,0.0,0.0,2.554931379,0.0,0.0,0.009999999776482582,78.37999725341797,114.16000366210938,0.9879150390625,0.00262451171875,-0.201416015625,36.029998779296875,0.0,0.0,-3.1661224365234375,2.0911407470703125,Waiting,0.0,0.0,14.0,0.0,0.0,0.0,0.0,0.0,
4.130835000000021,0.0,0.0,false,3792219.8395752786,,8738.0,0.0,0.0,0.0,0.0,0.125,1.85546856,0.0,0.0,-1108.0,0.0,0.0,-0.0,0.0,0.0,2.680663788,0.0,0.0,10000.0,0.0,0.0,0.0,0.0,0.0,4.04052693,0.0,0.0,-11256.0,0.0,0.0,-0.0,0.0,0.0,2.556152082,0.0,0.0,0.009999999776482582,78.37999725341797,114.16000366210938,0.98394775390625,0.002197265625,-0.20196533203125,36.029998779296875,0.0,0.0,-3.1661224365234375,2.0911407470703125,Waiting,0.0,0.0,14.0,0.0,0.0,0.0,0.0,0.0,
4.208938000000024,0.0,0.0,false,3792303.840276976,,8738.0,0.0,0.0,0.0,0.0,0.125,1.85546856,0.0,0.0,-1108.0,0.0,0.0,-0.0,0.0,0.0,2.680663788,0.0,0.0,10000.0,0.0,0.0,0.0,0.0,0.0,4.039306227,0.0,0.0,-11256.0,0.0,0.0,-0.0,0.0,0.0,2.554931379,0.0,0.0,0.009999999776482582,78.37999725341797,114.16000366210938,0.98297119140625,-3.0517578125E-4,-0.201904296875,36.029998779296875,0.0,0.0,-3.1661224365234375,2.0911407470703125,Waiting,0.0,0.0,14.0,0.0,0.0,0.0,0.0,0.0,
4.276526000000013,0.0,0.0,false,3792382.563960533,,8738.0,0.0,0.0,0.0,0.0,0.125,1.85546856,0.0,0.0012207030000004337,-1108.0,0.0,0.0,-0.0,0.0,0.0,2.681884491,0.0,0.0,10000.0,0.0,0.0,0.0,0.0,0.0,4.04052693,0.0,0.0,-11256.0,0.0,0.0,-0.0,0.0,0.0,2.554931379,0.0,0.0,0.009999999776482582,78.37999725341797,114.16000366210938,0.98455810546875,-0.001953125,-0.20477294921875,36.029998779296875,0.0,1.0,-3.1661224365234375,2.0911407470703125,Waiting,0.0,0.0,14.0,0.0,0.0,0.0,0.0,0.0,
4.3554020000000016,0.0,0.0,false,3792453.849526887,,8738.0,0.0,0.0,0.0,0.0,0.125,1.85546856,0.0,0.0,-1108.0,0.0,0.0,-0.0,0.0,0.0,2.680663788,0.0,0.0,10000.0,0.0,0.0,0.0,0.0,0.0,4.039306227,0.0,0.0,-11256.0,0.0,0.0,-0.0,0.0,0.0,2.553710676,0.0,0.0,0.009999999776482582,78.37999725341797,114.16000366210938,0.9874267578125,-0.00152587890625,-0.19964599609375,36.029998779296875,0.0,-3.0,-3.1661224365234375,2.0911407470703125,Waiting,0.0,0.0,14.0,0.0,0.0,0.0,0.0,0.0,
4.4155,0.0,0.0,false,3792517.3839496914,,8738.0,0.0,0.0,0.0,0.0,0.125,1.85546856,0.0,0.0,-1108.0,0.0,0.0,-0.0,0.0,0.0,2.680663788,0.0,0.0,10000.0,0.0,0.0,0.0,0.0,0.0,4.04052693,0.0,0.0,-11256.0,0.0,0.0,-0.0,0.0,0.0,2.554931379,0.0,0.0,0.009999999776482582,78.37999725341797,114.16000366210938,0.983642578125,6.103515625E-5,-0.19915771484375,36.029998779296875,0.0,-2.0,-3.1661224365234375,2.0911407470703125,Waiting,0.0,0.0,14.0,0.0,0.0,0.0,0.0,0.0,
4.489627000000037,0.0,0.0,false,3792575.644629053,,8738.0,0.0,0.0,0.0,0.0,0.125,1.85546856,0.0,-0.0012207030000004337,-1108.0,0.0,0.0,-0.0,0.0,0.0,2.681884491,0.0,0.0,10000.0,0.0,0.0,0.0,0.0,0.0,4.04052693,0.0,0.0,-11256.0,0.0,0.0,-0.0,0.0,0.0,2.554931379,0.0,0.0,0.009999999776482582,78.37999725341797,114.16999816894531,0.98651123046875,6.7138671875E-4,-0.20245361328125,36.029998779296875,0.0,0.0,-3.1661224365234375,2.0911407470703125,Waiting,0.0,0.0,14.0,0.0,0.0,0.0,0.0,0.0,
4.560162000000012,0.0,0.0,false,3792628.9467551196,,8738.0,0.0,0.0,0.0,0.0,0.125,1.85546856,0.0,0.0012207030000004337,-1108.0,0.0,0.0,-0.0,0.0,0.0,2.680663788,0.0,0.0,10000.0,0.0,0.0,0.0,0.0,0.0,4.04052693,0.0,0.0,-11256.0,0.0,0.0,-0.0,0.0,0.0,2.554931379,0.0,0.0,0.009999999776482582,78.37000274658203,114.16999816894531,0.98431396484375,0.00164794921875,-0.2073974609375,36.02000045776367,0.0,4.0,-3.1661224365234375,2.0911407470703125,Waiting,0.0,0.0,14.0,0.0,0.0,0.0,0.0,0.0,
4.632195999999996,0.0,0.0,false,3792674.501153669,,8738.0,0.0,0.0,0.0,0.0,0.125,1.85546856,0.0,0.0,-1108.0,0.0,0.0,-0.0,0.0,0.0,2.680663788,0.0,0.0,10000.0,0.0,0.0,0.0,0.0,0.0,4.04052693,0.0,0.0,-11256.0,0.0,0.0,-0.0,0.0,0.0,2.556152082,0.0,0.0,0.009999999776482582,78.37999725341797,114.1500015258789,0.99798583984375,0.00518798828125,-0.19866943359375,36.02000045776367,0.0,-3.0,-3.1661224365234375,2.0911407470703125,Waiting,0.0,0.0,14.0,0.0,0.0,0.0,0.0,0.0,
4.705445999999997,0.0,0.0,false,3792715.099036742,,8738.0,0.0,0.0,0.0,0.0,0.125,1.85546856,0.0,0.0,-1108.0,0.0,0.0,-0.0,0.0,0.0,2.680663788,0.0,0.0,10000.0,0.0,0.0,0.0,0.0,0.0,4.04052693,0.0,0.0,-11256.0,0.0,0.0,-0.0,0.0,0.0,2.550048567,0.0,0.0,0.0,78.36000061035156,114.18000030517578,0.9881591796875,-0.00732421875,-0.21356201171875,36.02000045776367,0.0,6.0,-3.1661224365234375,2.0911407470703125,Waiting,0.0,0.0,14.0,0.0,0.0,0.0,0.0,0.0,
4.778309000000008,0.0,0.0,false,3792747.9515515054,,8738.0,0.0,0.0,0.0,0.0,0.125,1.85546856,0.0,0.0012207030000004337,-1108.0,0.0,0.0,-0.0,0.0,0.0,2.681884491,0.0,0.0,10000.0,0.0,0.0,0.0,0.0,0.0,4.04052693,0.0,0.0,-11256.0,0.0,0.0,-0.0,0.0,0.0,2.554931379,0.0,0.0,0.019999999552965164,78.37000274658203,114.18000030517578,0.97796630859375,0.01104736328125,-0.20751953125,36.02000045776367,0.0,10.0,-3.1661224365234375,2.0911407470703125,Waiting,0.0,0.0,14.0,0.0,0.0,0.0,0.0,0.0,
4.860730000000039,0.0,0.0,false,3792910.643059,,8738.0,0.0,0.0,0.0,0.0,0.125,1.85546856,0.0,0.0,-1108.0,0.0,0.0,-0.0,0.0,0.0,2.680663788,0.0,0.0,10000.0,0.0,0.0,0.0,0.0,0.0,4.04052693,0.0,0.0,-11256.0,0.0,0.0,-0.0,0.0,0.0,2.554931379,0.0,0.0012207029999999897,0.029999999329447746,78.38999938964844,114.16000366210938,0.96044921875,0.02313232421875,-0.176513671875,36.02000045776367,0.0,-9.0,-3.1661224365234375,2.091156005859375,Waiting,0.0,0.0,14.0,0.0,0.0,0.0,0.0,0.0,
4.929314000000013,0.0,0.0,false,3793067.9247981547,,8738.0,0.0,0.0,0.0,0.0,0.125,1.85546856,0.0,-0.0012207030000004337,-1108.0,0.0,0.0,-0.0,0.0,0.0,2.675780976,0.0,0.0,10000.0,0.0,0.0,0.0,0.0,0.0,4.04052693,0.0,0.0,-11256.0,0.0,0.0,-0.0,0.0,0.0,2.554931379,0.0,0.0,-0.03999999910593033,78.30000305175781,114.30999755859375,0.99237060546875,-0.00726318359375,-0.20660400390625,36.02000045776367,0.0,-1.0,-3.166259765625,2.091552734375,Waiting,0.0,0.0,14.0,0.0,0.0,0.0,0.0,0.0,
5.008606000000029,0.0,0.0,false,3793217.218845511,,8738.0,0.0,0.0,0.0,0.0,0.125,1.85546856,0.0,0.0,-1108.0,0.0,0.0,-0.0,0.0,0.0,2.70996066,0.0,-0.0012207029999995456,10000.0,0.0,0.0,0.0,0.0,0.0,4.04052693,0.0,0.0012207030000004337,-11256.0,0.0,0.0,-0.0,0.0,0.0,2.556152082,0.0,0.0,-0.11999999731779099,78.06999969482422,114.69000244140625,0.9366455078125,0.0108642578125,-0.2244873046875,36.02000045776367,0.0,29.0,-3.1661834716796875,2.09100341796875,Waiting,0.0,0.0,14.0,0.0,0.0,0.0,0.0,0.0,
5.076842999999993,0.0,0.0,false,3793361.33825395,,8738.0,0.0,0.0,0.0,0.0,0.125,1.85546856,0.0,0.0012207030000004337,-1108.0,0.0,0.0,-0.0,0.0,0.0,2.752685265,0.0,-4.911158207,10000.0,0.0,0.0,0.0,0.0,0.0,4.04052693,0.0,0.0,-11256.0,0.0,0.0,-0.0,0.0,0.0,2.554931379,0.0,0.0,-0.11999999731779099,78.05000305175781,114.80999755859375,0.99688720703125,-0.00360107421875,-0.20660400390625,36.02000045776367,0.0,-4.0,-3.1658172607421875,2.0913543701171875,Waiting,0.0,0.0,14.0,0.0,0.0,0.0,0.0,0.0,
5.1559660000000145,0.0,0.0,false,3793500.0509715737,,8738.0,0.0,0.0,0.0,0.0,0.125,1.853027154,0.0,-0.0012207030000004337,-1108.0,0.0,0.0,-0.0,0.0,0.0,2.6867673030000003,0.0,0.035400387000000144,10000.0,0.0,0.0,0.0,0.0,0.0,4.04052693,0.0,-0.0012207030000004337,-11256.0,0.0,0.0,-0.0,0.0,0.0,2.554931379,0.0,0.0012207029999999897,-0.17000000178813934,78.05000305175781,114.66999816894531,0.95147705078125,-0.02947998046875,-0.2305908203125,36.02000045776367,0.0,15.0,-3.1660614013671875,2.091033935546875,Waiting,0.0,0.0,14.0,0.0,0.0,0.0,0.0,0.0,
5.229791000000026,0.0,0.0,false,3793630.779520295,,8738.0,0.0,0.0,0.0,0.0,0.125,1.854247857,0.0,0.0012207030000004337,-1108.0,0.0,0.0,-0.0,0.0,0.0,2.662353243,0.0,4.8904062559999995,10000.0,0.0,0.0,0.0,0.0,0.0,4.04052693,0.0,0.0,-11256.0,0.0,0.0,-0.0,0.0,0.0,2.556152082,0.0,-0.0012207029999999897,-0.05000000074505806,78.13999938964844,114.58000183105469,0.97467041015625,0.02783203125,-0.229248046875,36.02000045776367,0.0,33.0,-3.16534423828125,2.0897064208984375,Waiting,0.0,0.0,14.0,0.0,0.0,0.0,0.0,0.0,
5.311878000000026,0.0,0.0,false,3793756.1035456904,,8738.0,0.0,0.0,0.0,0.0,0.125,1.85546856,0.0,-0.0012207030000004337,-1108.0,0.0,0.0,-0.0,0.0,0.0,2.662353243,0.0,-0.032958981000000165,10000.0,0.0,0.0,0.0,0.0,0.0,4.04052693,0.0,0.0,-11256.0,0.0,0.0,-0.0,0.0,0.0,2.554931379,0.0,0.0012207029999999897,0.019999999552965164,78.45999908447266,114.02999877929688,0.99725341796875,0.02520751953125,-0.11285400390625,36.02000045776367,0.0,-70.0,-3.164581298828125,2.089996337890625,Waiting,0.0,0.0,14.0,0.0,0.0,0.0,0.0,0.0,
5.388710000000021,0.0,0.0,false,3793873.4458664823,,8738.0,0.0,0.0,0.0,0.0,0.125,1.85546856,0.0,0.0,-1108.0,0.0,0.0,-0.0,0.0,0.0,2.670898164,0.0,0.0,10000.0,0.0,0.0,0.0,0.0,0.0,4.04052693,0.0,0.0,-11256.0,0.0,0.0,-0.0,0.0,0.0,2.554931379,0.0,0.0,0.0,78.37999725341797,114.16999816894531,0.98028564453125,-0.0130615234375,-0.2347412109375,36.02000045776367,0.0,24.0,-3.1647491455078125,2.091522216796875,Waiting,0.0,0.0,14.0,0.0,0.0,0.0,0.0,0.0,
5.469583000000043,0.0,0.0,false,3793985.385830403,,8738.0,0.0,0.0,0.0,0.0,0.125,1.85546856,0.0,0.0,-1108.0,0.0,0.0,-0.0,0.0,0.0,2.672118867,0.0,0.009765623999999917,10000.0,0.0,0.0,0.0,0.0,0.0,4.04052693,0.0,0.0,-11256.0,0.0,0.0,-0.0,0.0,0.0,2.554931379,0.0,0.0,-0.05000000074505806,78.2699966430664,114.30999755859375,0.9676513671875,-0.013916015625,-0.21533203125,36.02000045776367,0.0,7.0,-3.1641693115234375,2.0923309326171875,Waiting,0.0,0.0,14.0,0.0,0.0,0.0,0.0,0.0,
5.54276800000004,0.0,0.0,false,3794092.1572515564,,8738.0,0.0,0.0,0.0,0.0,0.125,1.85546856,0.0,0.0012207030000004337,-1108.0,0.0,0.0,-0.0,0.0,0.0,2.672118867,0.0,0.0,10000.0,0.0,0.0,0.0,0.0,0.0,4.04052693,0.0,0.0,-11256.0,0.0,0.0,-0.0,0.0,0.0,2.553710676,0.0,0.0,-0.009999999776482582,78.38999938964844,114.12999725341797,0.9925537109375,0.00286865234375,-0.1678466796875,36.02000045776367,0.0,-30.0,-3.1640777587890625,2.0924072265625,Waiting,0.0,0.0,14.0,0.0,0.0,0.0,0.0,0.0,
5.616779000000038,0.0,0.0,false,3794190.9504870595,,8738.0,0.0,0.0,0.0,0.0,0.125,1.85546856,0.0,0.0,-1108.0,0.0,0.0,-0.0,0.0,0.0,2.670898164,0.0,0.0,10000.0,0.0,0.0,0.0,0.0,0.0,4.04052693,0.0,-0.0012207030000004337,-11256.0,0.0,0.0,-0.0,0.0,0.0,2.553710676,0.0,0.0,0.019999999552965164,78.37999725341797,114.20999908447266,0.98333740234375,0.006103515625,-0.1954345703125,36.029998779296875,0.0,-3.0,-3.1641693115234375,2.0926513671875,Waiting,0.0,0.0,14.0,0.0,0.0,0.0,0.0,0.0,
5.690898000000045,0.0,0.0,false,3794284.34443804,,8738.0,0.0,0.0,0.0,0.0,0.125,1.85546856,0.0,-0.0012207030000004337,-1108.0,0.0,0.0,-0.0,0.0,0.0,2.670898164,0.0,0.0,10000.0,0.0,0.0,0.0,0.0,0.0,4.04052693,0.0,0.0,-11256.0,0.0,0.0,-0.0,0.0,0.0,2.556152082,0.0,0.0,-0.029999999329447746,78.2300033569336,114.44999694824219,0.9781494140625,-0.0096435546875,-0.209716796875,36.029998779296875,0.0,1.0,-3.1641082763671875,2.0931243896484375,Waiting,0.0,0.0,14.0,0.0,0.0,0.0,0.0,0.0,
5.768320999999997,0.0,0.0,false,3794372.3400380383,,8738.0,0.0,0.0,0.0,0.0,0.125,1.853027154,0.0,0.0,-1108.0,0.0,0.0,-0.0,0.0,0.0,2.672118867,0.0,0.0,10000.0,0.0,0.0,0.0,0.0,0.0,4.039306227,0.0,0.0,-11256.0,0.0,0.0,-0.0,0.0,0.0,2.556152082,0.0,-0.0012207029999999897,-0.15000000596046448,78.13999938964844,114.4800033569336,0.9517822265625,-0.01507568359375,-0.2271728515625,36.029998779296875,0.0,19.0,-3.1640777587890625,2.092559814453125,Waiting,0.0,0.0,14.0,0.0,0.0,0.0,0.0,0.0,
5.846448000000033,0.0,0.0,false,3794452.3609958505,,8738.0,0.0,0.0,0.0,0.0,0.125,1.85546856,0.0,0.0,-1108.0,0.0,0.0,-0.0,0.0,0.0,2.670898164,0.0,0.0,10000.0,0.0,0.0,0.0,0.0,0.0,4.04052693,0.0,0.0,-11256.0,0.0,0.0,-0.0,0.0,0.0,2.554931379,0.0,0.0,-0.05999999865889549,78.25,114.41000366210938,1.00775146484375,0.02581787109375,-0.16522216796875,36.029998779296875,0.0,-28.0,-3.1641845703125,2.0921173095703125,Waiting,0.0,0.0,14.0,0.0,0.0,0.0,0.0,0.0,
5.928118000000016,0.0,0.0,false,3794526.98576615,,8738.0,0.0,0.0,0.0,0.0,0.125,1.85546856,0.0,0.0,-1108.0,0.0,0.0,-0.0,0.0,0.0,2.670898164,0.0,0.0,10000.0,0.0,0.0,0.0,0.0,0.0,4.04052693,0.0,0.0012207030000004337,-11256.0,0.0,0.0,-0.0,0.0,0.0,2.554931379,0.0,0.0,-0.029999999329447746,78.2300033569336,114.43000030517578,0.97503662109375,0.0068359375,-0.2252197265625,36.029998779296875,0.0,22.0,-3.1647796630859375,2.092315673828125,Waiting,0.0,0.0,14.0,0.0,0.0,0.0,0.0,0.0,
6.01165300000005,0.0,0.0,false,3794596.448081134,,8738.0,0.0,0.0,0.0,0.0,0.125,1.85546856,0.0,0.0,-1108.0,0.0,0.0,-0.0,0.0,0.0,2.672118867,0.0,0.0,10000.0,0.0,0.0,0.0,0.0,0.0,4.04052693,0.0,0.0,-11256.0,0.0,0.0,-0.0,0.0,0.0,2.554931379,0.0,0.0,-0.10000000149011612,78.19999694824219,114.4000015258789,0.992431640625,-0.01837158203125,-0.2041015625,36.029998779296875,0.0,-9.0,-3.164886474609375,2.092254638671875,Waiting,0.0,0.0,14.0,0.0,0.0,0.0,0.0,0.0,
6.088885999999999,0.0,0.0,false,3794657.9392682225,,8738.0,0.0,0.0,0.0,0.0,0.125,1.85546856,0.0,-0.0012207030000004337,-1108.0,0.0,0.0,-0.0,0.0,0.0,2.670898164,0.0,0.0,10000.0,0.0,0.0,0.0,0.0,0.0,4.04052693,0.0,0.0,-11256.0,0.0,0.0,-0.0,0.0,0.0,2.554931379,0.0,0.0,-0.07000000029802322,78.23999786376953,114.38999938964844,0.9796142578125,0.015625,-0.2010498046875,36.040000915527344,0.0,4.0,-3.164886474609375,2.092193603515625,Waiting,0.0,0.0,14.0,0.0,0.0,0.0,0.0,0.0,
6.168525000000023,0.0,0.0,false,3794714.0373357916,,8738.0,0.0,0.0,0.0,0.0,0.125,1.85546856,0.0,0.0,-1108.0,0.0,0.0,-0.0,0.0,0.0,2.672118867,0.0,0.0,10000.0,0.0,0.0,0.0,0.0,0.0,4.04052693,0.0,0.0,-11256.0,0.0,0.0,-0.0,0.0,0.0,2.556152082,0.0,-0.0012207029999999897,-0.05000000074505806,78.22000122070312,114.44000244140625,0.9588623046875,0.0299072265625,-0.230224609375,36.040000915527344,0.0,39.0,-3.1648712158203125,2.092193603515625,Waiting,0.0,0.0,14.0,0.0,0.0,0.0,0.0,0.0,
6.246842999999993,0.0,0.0,false,3794764.7432159935,,8738.0,0.0,0.0,0.0,0.0,0.125,1.85546856,0.0,0.0012207030000004337,-1108.0,0.0,0.0,-0.0,0.0,0.0,2.670898164,0.0,0.0,10000.0,0.0,0.0,0.0,0.0,0.0,4.041747633,0.0,0.0,-11256.0,0.0,0.0,-0.0,0.0,0.0,2.554931379,0.0,0.0,-0.07000000029802322,78.25,114.33000183105469,1.00634765625,-0.01226806640625,-0.18756103515625,36.040000915527344,0.0,-23.0,-3.1648101806640625,2.0921173095703125,Waiting,0.0,0.0,14.0,0.0,0.0,0.0,0.0,0.0,
6.329813000000024,0.0,0.0,false,3794807.481507086,,8738.0,0.0,0.0,0.0,0.0,0.125,1.85546856,0.0,0.0,-1108.0,0.0,0.0,-0.0,0.0,0.0,2.670898164,0.0,0.0,10000.0,0.0,0.0,0.0,0.0,0.0,4.04052693,0.0,-0.0012207030000004337,-11256.0,0.0,0.0,-0.0,0.0,0.0,2.554931379,0.0,0.0,-0.05999999865889549,78.22000122070312,114.43000030517578,0.9871826171875,0.00445556640625,-0.19989013671875,36.040000915527344,0.0,-3.0,-3.1649169921875,2.0921173095703125,Waiting,0.0,0.0,14.0,0.0,0.0,0.0,0.0,0.0,
6.409084000000032,0.0,0.0,false,3794842.253586036,,8738.0,0.0,0.0,0.0,0.0,0.125,1.85546856,0.0,0.0,-1108.0,0.0,0.0,-0.0,0.0,0.0,2.670898164,0.0,0.0,10000.0,0.0,0.0,0.0,0.0,0.0,4.041747633,0.0,0.0,-11256.0,0.0,0.0,-0.0,0.0,0.0,2.553710676,0.0,0.0,-0.05999999865889549,78.25,114.3499984741211,0.98760986328125,6.7138671875E-4,-0.2054443359375,36.040000915527344,0.0,0.0,-3.1648406982421875,2.0921173095703125,Waiting,0.0,0.0,14.0,0.0,0.0,0.0,0.0,0.0,
6.49281600000005,0.0,0.0,false,3795007.675576037,,8738.0,0.0,0.0,0.0,0.0,0.125,1.85546856,0.0,0.0,-1108.0,0.0,0.0,-0.0,0.0,0.0,2.670898164,0.0,0.0,10000.0,0.0,0.0,0.0,0.0,0.0,4.04052693,0.0,0.0,-11256.0,0.0,0.0,-0.0,0.0,0.0,2.554931379,0.0,0.0,-0.07999999821186066,78.26000213623047,114.30999755859375,0.97900390625,-0.003173828125,-0.22607421875,36.040000915527344,0.0,19.0,-3.165069580078125,2.0920562744140625,Waiting,0.0,0.0,14.0,0.0,0.0,0.0,0.0,0.0,
6.569975000000035,0.0,0.0,false,3795164.463798168,,8738.0,0.0,0.0,0.0,0.0,0.125,1.85546856,0.0,-0.0012207030000004337,-1108.0,0.0,0.0,-0.0,0.0,0.0,2.672118867,0.0,0.0,10000.0,0.0,0.0,0.0,0.0,0.0,4.04052693,0.0,0.0,-11256.0,0.0,0.0,-0.0,0.0,0.0,2.554931379,0.0,0.0,-0.05999999865889549,78.2699966430664,114.30999755859375,0.991943359375,-3.662109375E-4,-0.196533203125,36.040000915527344,0.0,-7.0,-3.165069580078125,2.0920562744140625,Waiting,0.0,0.0,14.0,0.0,0.0,0.0,0.0,0.0,
6.6487829999999954,0.0,0.0,false,3795315.8212187537,,8738.0,0.0,0.0,0.0,0.0,0.125,1.85546856,0.0,0.0,-1108.0,0.0,0.0,-0.0,0.0,0.0,2.677001679,0.0,0.0,10000.0,0.0,0.0,0.0,0.0,0.0,4.04052693,0.0,0.0,-11256.0,0.0,0.0,-0.0,0.0,0.0,2.554931379,0.0,0.0,-0.05999999865889549,78.29000091552734,114.27999877929688,0.99884033203125,0.0364990234375,-0.1912841796875,36.02000045776367,0.0,1.0,-3.165313720703125,2.0919952392578125,Waiting,0.0,0.0,14.0,0.0,0.0,0.0,0.0,0.0,
6.7307210000000195,0.0,0.0,false,3795461.748776133,,8738.0,0.0,0.0,0.0,0.0,0.125,1.85546856,0.0,0.0,-1108.0,0.0,0.0,-0.0,0.0,0.0,2.675780976,0.0,0.004882811999999959,10000.0,0.0,0.0,0.0,0.0,0.0,4.04052693,0.0,0.0,-11256.0,0.0,0.0,-0.0,0.0,0.0,2.556152082,0.0,0.0,-0.11999999731779099,78.19000244140625,114.41000366210938,0.99468994140625,-0.01422119140625,-0.22882080078125,36.02000045776367,0.0,13.0,-3.1652374267578125,2.0920562744140625,Waiting,0.0,0.0,14.0,0.0,0.0,0.0,0.0,0.0,
6.811043000000005,0.0,0.0,false,3795602.247408431,,8738.0,0.0,0.0,0.0,0.0,0.125,1.856689263,0.0,0.0,-1108.0,0.0,0.0,-0.0,0.0,0.0,2.675780976,0.0,0.0,10000.0,0.0,0.0,0.0,0.0,0.0,4.04052693,0.0,0.0,-11256.0,0.0,0.0,-0.0,0.0,0.0,2.556152082,0.0,0.0,-0.10999999940395355,78.20999908447266,114.37999725341797,0.98895263671875,-0.00286865234375,-0.19451904296875,36.02000045776367,0.0,-10.0,-3.1646881103515625,2.0920562744140625,Waiting,0.0,0.0,14.0,0.0,0.0,0.0,0.0,0.0,
6.8869710000000195,0.0,0.0,false,3795734.7068240712,,8738.0,0.0,0.0,0.0,0.0,0.125,1.85546856,0.0,0.0,-1108.0,0.0,0.0,-0.0,0.0,0.0,2.677001679,0.0,0.0,10000.0,0.0,0.0,0.0,0.0,0.0,4.04052693,0.0,0.0,-11256.0,0.0,0.0,-0.0,0.0,0.0,2.554931379,0.0,0.0,-0.07999999821186066,78.26000213623047,114.33000183105469,0.9837646484375,0.00390625,-0.20806884765625,36.02000045776367,0.0,5.0,-3.164459228515625,2.0921783447265625,Waiting,0.0,0.0,14.0,0.0,0.0,0.0,0.0,0.0,
6.963193000000029,0.0,0.0,false,3795861.7468616837,,8738.0,0.0,0.0,0.0,0.0,0.125,1.85546856,0.0,0.0,-1108.0,0.0,0.0,-0.0,0.0,0.0,2.675780976,0.0,0.0,10000.0,0.0,0.0,0.0,0.0,0.0,4.04052693,0.0,0.0,-11256.0,0.0,0.0,-0.0,0.0,0.0,2.554931379,0.0,0.0,-0.09000000357627869,78.19999694824219,114.38999938964844,0.9854736328125,-0.009765625,-0.20599365234375,36.02000045776367,0.0,-3.0,-3.1643829345703125,2.0921783447265625,Waiting,0.0,0.0,14.0,0.0,0.0,0.0,0.0,0.0,
7.032447000000044,0.0,0.0,false,3795983.3684574193,,8738.0,0.0,0.0,0.0,0.0,0.125,1.85546856,0.0,0.0012207030000004337,-1108.0,0.0,0.0,-0.0,0.0,0.0,2.677001679,0.0,-0.0012207029999995456,10000.0,0.0,0.0,0.0,0.0,0.0,4.04052693,0.0,0.0012207030000004337,-11256.0,0.0,0.0,-0.0,0.0,0.0,2.554931379,0.0,0.0,-0.14000000059604645,78.2300033569336,114.30999755859375,1.002685546875,-0.01043701171875,-0.1982421875,36.02000045776367,0.0,-12.0,-3.1643829345703125,2.0921783447265625,Waiting,0.0,0.0,14.0,0.0,0.0,0.0,0.0,0.0,
7.104171000000031,0.0,0.0,false,3796096.96176877,,8738.0,0.0,0.0,0.0,0.0,0.125,1.85546856,0.0,0.0,-1108.0,0.0,0.0,-0.0,0.0,0.0,2.675780976,0.0,0.0,10000.0,0.0,0.0,0.0,0.0,0.0,4.04052693,0.0,0.0,-11256.0,0.0,0.0,-0.0,0.0,0.0,2.554931379,0.0,0.0,-0.09000000357627869,78.20999908447266,114.41999816894531,1.00927734375,0.00103759765625,-0.2027587890625,36.040000915527344,0.0,-5.0,-3.1643829345703125,2.0921783447265625,Waiting,0.0,0.0,14.0,0.0,0.0,0.0,0.0,0.0,
7.178209000000032,0.0,0.0,false,3796205.1388105247,,8738.0,0.0,0.0,0.0,0.0,0.125,1.85546856,0.0,0.0,-1108.0,0.0,0.0,-0.0,0.0,0.0,2.675780976,0.0,0.0,10000.0,0.0,0.0,0.0,0.0,0.0,4.041747633,0.0,-0.0012207030000004337,-11256.0,0.0,0.0,-0.0,0.0,0.0,2.554931379,0.0,0.0,-0.07999999821186066,78.19999694824219,114.41999816894531,0.99078369140625,0.01068115234375,-0.1971435546875,36.040000915527344,0.0,-3.0,-3.16424560546875,2.0922393798828125,Waiting,0.0,0.0,14.0,0.0,0.0,0.0,0.0,0.0,
7.24868100000004,0.0,0.0,false,3796307.9005181347,,8738.0,0.0,0.0,0.0,0.0,0.125,1.856689263,0.0,0.0,-1108.0,0.0,0.0,-0.0,0.0,0.0,2.675780976,0.0,0.0,10000.0,0.0,0.0,0.0,0.0,0.0,4.04052693,0.0,0.0,-11256.0,0.0,0.0,-0.0,0.0,0.0,2.554931379,0.0,0.0,-0.10000000149011612,78.25,114.30000305175781,0.98004150390625,-0.003662109375,-0.1949462890625,36.040000915527344,0.0,-8.0,-3.16424560546875,2.0923309326171875,Waiting,0.0,0.0,14.0,0.0,0.0,0.0,0.0,0.0,
7.329085000000021,0.0,0.0,false,3796405.247826838,,8738.0,0.0,0.0,0.0,0.0,0.125,1.85546856,0.0,0.0012207030000004337,-1108.0,0.0,0.0,-0.0,0.0,0.0,2.677001679,0.0,0.0,10000.0,0.0,0.0,0.0,0.0,0.0,4.04052693,0.0,0.0012207030000004337,-11256.0,0.0,0.0,-0.0,0.0,0.0,2.554931379,0.0,0.0,-0.07000000029802322,78.22000122070312,114.38999938964844,0.98101806640625,0.00518798828125,-0.20196533203125,36.040000915527344,0.0,0.0,-3.16412353515625,2.0923309326171875,Waiting,0.0,0.0,14.0,0.0,0.0,0.0,0.0,0.0,
7.396192000000039,0.0,0.0,false,3796494.5714943586,,8738.0,0.0,0.0,0.0,0.0,0.125,1.85546856,0.0,0.0,-1108.0,0.0,0.0,-0.0,0.0,0.0,2.677001679,0.0,0.0,10000.0,0.0,0.0,0.0,0.0,0.0,4.04052693,0.0,0.0,-11256.0,0.0,0.0,-0.0,0.0,0.0,2.554931379,0.0,0.0,-0.09000000357627869,78.23999786376953,114.31999969482422,0.97052001953125,0.00616455078125,-0.20111083984375,36.040000915527344,0.0,2.0,-3.1640625,2.0923309326171875,Waiting,0.0,0.0,14.0,0.0,0.0,0.0,0.0,0.0,
7.470538,0.0,0.0,false,3796575.8729062336,,8738.0,0.0,0.0,0.0,0.0,0.125,1.85546856,0.0,-0.0012207030000004337,-1108.0,0.0,0.0,-0.0,0.0,0.0,2.677001679,0.0,0.0,10000.0,0.0,0.0,0.0,0.0,0.0,4.04052693,0.0,-0.0012207030000004337,-11256.0,0.0,0.0,-0.0,0.0,0.0,2.554931379,0.0,0.0,-0.09000000357627869,78.2300033569336,114.3499984741211,0.99658203125,-0.00640869140625,-0.20062255859375,36.040000915527344,0.0,-8.0,-3.164154052734375,2.0923309326171875,Waiting,0.0,0.0,14.0,0.0,0.0,0.0,0.0,0.0,
7.5428209999999964,0.0,0.0,false,3796651.763324508,,8738.0,0.0,0.0,0.0,0.0,0.125,1.85546856,0.0,0.0,-1108.0,0.0,0.0,-0.0,0.0,0.0,2.677001679,0.0,0.0,10000.0,0.0,0.0,0.0,0.0,0.0,4.041747633,0.0,0.0,-11256.0,0.0,0.0,-0.0,0.0,0.0,2.554931379,0.0,0.0,-0.07999999821186066,78.19999694824219,114.4000015258789,0.98602294921875,-0.004150390625,-0.20538330078125,36.040000915527344,0.0,-1.0,-3.164154052734375,2.0923309326171875,Waiting,0.0,0.0,14.0,0.0,0.0,0.0,0.0,0.0,
7.61626800000004,0.0,0.0,false,3796722.243683453,,8738.0,0.0,0.0,0.0,0.0,0.125,1.85546856,0.0,0.0,-1108.0,0.0,0.0,-0.0,0.0,0.0,2.670898164,0.0,0.0,10000.0,0.0,0.0,0.0,0.0,0.0,4.04052693,0.0,0.0,-11256.0,0.0,0.0,-0.0,0.0,0.0,2.554931379,0.0,0.0,-0.10000000149011612,78.20999908447266,114.37999725341797,0.9808349609375,0.00689697265625,-0.2130126953125,36.040000915527344,0.0,11.0,-3.164154052734375,2.0923309326171875,Waiting,0.0,0.0,14.0,0.0,0.0,0.0,0.0,0.0,
7.690486000000034,0.0,0.0,false,3796787.314917127,,8738.0,0.0,0.0,0.0,0.0,0.125,1.85546856,0.0,0.0,-1108.0,0.0,0.0,-0.0,0.0,0.0,2.672118867,0.0,-0.004882811999999959,10000.0,0.0,0.0,0.0,0.0,0.0,4.04052693,0.0,0.0,-11256.0,0.0,0.0,-0.0,0.0,0.0,2.554931379,0.0,0.0,-0.10999999940395355,78.20999908447266,114.36000061035156,0.96368408203125,0.01007080078125,-0.18572998046875,36.029998779296875,0.0,-8.0,-3.1642303466796875,2.0923919677734375,Waiting,0.0,0.0,14.0,0.0,0.0,0.0,0.0,0.0,
7.767842000000004,0.0,0.0,false,3796844.3685331186,,8738.0,0.0,0.0,0.0,0.0,0.125,1.85546856,0.0,0.0,-1108.0,0.0,0.0,-0.0,0.0,0.0,2.670898164,0.0,0.0,10000.0,0.0,0.0,0.0,0.0,0.0,4.04052693,0.0,0.0,-11256.0,0.0,0.0,-0.0,0.0,0.0,2.554931379,0.0,0.0012207029999999897,-0.12999999523162842,78.16000366210938,114.48999786376953,0.97601318359375,-0.00531005859375,-0.21319580078125,36.029998779296875,0.0,6.0,-3.1642303466796875,2.0923919677734375,Waiting,0.0,0.0,14.0,0.0,0.0,0.0,0.0,0.0,
7.834961999999999,0.0,0.0,false,3796895.8333525145,,8738.0,0.0,0.0,0.0,0.0,0.125,1.85546856,0.0,0.0012207030000004337,-1108.0,0.0,0.0,-0.0,0.0,0.0,2.672118867,0.0,0.0,10000.0,0.0,0.0,0.0,0.0,0.0,4.04052693,0.0,0.0012207030000004337,-11256.0,0.0,0.0,-0.0,0.0,0.0,2.556152082,0.0,0.0,-0.15000000596046448,78.08999633789062,114.55000305175781,0.97369384765625,-0.0120849609375,-0.22332763671875,36.029998779296875,0.0,12.0,-3.1640777587890625,2.0923919677734375,Waiting,0.0,0.0,14.0,0.0,0.0,0.0,0.0,0.0,
7.910472000000009,0.0,0.0,false,3796942.073997353,,8738.0,0.0,0.0,0.0,0.0,0.125,1.85546856,0.0,0.0,-1108.0,0.0,0.0,-0.0,0.0,0.0,2.672118867,0.0,0.0,10000.0,0.0,0.0,0.0,0.0,0.0,4.04052693,0.0,0.0,-11256.0,0.0,0.0,-0.0,0.0,0.0,2.553710676,0.0,0.0,-0.15000000596046448,78.18000030517578,114.41000366210938,0.998291015625,0.0023193359375,-0.1807861328125,36.029998779296875,0.0,-23.0,-3.1641845703125,2.0923919677734375,Waiting,0.0,0.0,14.0,0.0,0.0,0.0,0.0,0.0,
7.989139000000025,0.0,0.0,false,3796980.118757192,,8738.0,0.0,0.0,0.0,0.0,0.125,1.85546856,0.0,0.0,-1108.0,0.0,0.0,-0.0,0.0,0.0,2.670898164,0.0,0.0,10000.0,0.0,0.0,0.0,0.0,0.0,4.04052693,0.0,0.0,-11256.0,0.0,0.0,-0.0,0.0,0.0,2.554931379,0.0,0.0,-0.11999999731779099,78.13999938964844,114.5,0.96966552734375,0.0166015625,-0.2288818359375,36.029998779296875,0.0,30.0,-3.16424560546875,2.0925140380859375,Waiting,0.0,0.0,14.0,0.0,0.0,0.0,0.0,0.0,
8.06689200000005,0.0,0.0,false,3797012.7596801105,,8738.0,0.0,0.0,0.0,0.0,0.125,1.85546856,0.0,0.0,-1108.0,0.0,0.0,-0.0,0.0,0.0,2.672118867,0.0,0.0,10000.0,0.0,0.0,0.0,0.0,0.0,4.041747633,0.0,0.0,-11256.0,0.0,0.0,-0.0,0.0,0.0,2.554931379,0.0,0.0,-0.15000000596046448,78.16999816894531,114.4000015258789,0.98876953125,-0.018798828125,-0.19451904296875,36.029998779296875,0.0,-17.0,-3.1641082763671875,2.0925140380859375,Waiting,0.0,0.0,14.0,0.0,0.0,0.0,0.0,0.0,
8.144053000000014,0.0,0.0,false,3797174.618340812,,8738.0,0.0,0.0,0.0,0.0,0.125,1.85546856,0.0,0.0,-1108.0,0.0,0.0,-0.0,0.0,0.0,2.672118867,0.0,0.0,10000.0,0.0,0.0,0.0,0.0,0.0,4.041747633,0.0,0.0,-11256.0,0.0,0.0,-0.0,0.0,0.0,2.554931379,0.0,0.0,-0.12999999523162842,78.18000030517578,114.43000030517578,0.99066162109375,0.00836181640625,-0.21099853515625,36.029998779296875,0.0,7.0,-3.1641082763671875,2.0925140380859375,Waiting,0.0,0.0,14.0,0.0,0.0,0.0,0.0,0.0,
8.219967000000004,0.0,0.0,false,3797330.833112811,,8738.0,0.0,0.0,0.0,0.0,0.125,1.856689263,0.0,0.0,-1108.0,0.0,0.0,-0.0,0.0,0.0,2.672118867,0.0,0.0,10000.0,0.0,0.0,0.0,0.0,0.0,4.04052693,0.0,-0.0012207030000004337,-11256.0,0.0,0.0,-0.0,0.0,0.0,2.556152082,0.0,0.0,-0.10999999940395355,78.1500015258789,114.51000213623047,0.989501953125,-0.0047607421875,-0.21685791015625,36.029998779296875,0.0,7.0,-3.1641082763671875,2.0925140380859375,Waiting,0.0,0.0,14.0,0.0,0.0,0.0,0.0,0.0,
8.291840000000025,0.0,0.0,false,3797481.5559134837,,8738.0,0.0,0.0,0.0,0.0,0.125,1.856689263,0.0,0.0,-1108.0,0.0,0.0,-0.0,0.0,0.0,2.672118867,0.0,0.0,10000.0,0.0,0.0,0.0,0.0,0.0,4.04052693,0.0,0.0012207030000004337,-11256.0,0.0,0.0,-0.0,0.0,0.0,2.554931379,0.0,0.0,-0.12999999523162842,78.16000366210938,114.44000244140625,0.99786376953125,-0.01092529296875,-0.19970703125,36.029998779296875,0.0,-11.0,-3.1641082763671875,2.09222412109375,Waiting,0.0,0.0,14.0,0.0,0.0,0.0,0.0,0.0,
8.370293999999994,0.0,0.0,false,3797624.1247052057,,8738.0,0.0,0.0,0.0,0.0,0.125,1.853027154,0.0,0.0,-1108.0,0.0,0.0,-0.0,0.0,0.0,2.672118867,0.0,0.0,10000.0,0.0,0.0,0.0,0.0,0.0,4.04052693,0.0,-0.0012207030000004337,-11256.0,0.0,0.0,-0.0,0.0,0.0,2.556152082,0.0,0.0,-0.10999999940395355,78.16000366210938,114.4800033569336,0.97210693359375,0.02166748046875,-0.21917724609375,36.029998779296875,0.0,23.0,-3.1641082763671875,2.09222412109375,Waiting,0.0,0.0,14.0,0.0,0.0,0.0,0.0,0.0,
8.438428000000014,0.0,0.0,false,3797761.203727137,,8738.0,0.0,0.0,0.0,0.0,0.125,1.85546856,0.0,0.0,-1108.0,0.0,0.0,-0.0,0.0,0.0,2.670898164,0.0,0.0,10000.0,0.0,0.0,0.0,0.0,0.0,4.041747633,0.0,0.0,-11256.0,0.0,0.0,-0.0,0.0,0.0,2.556152082,0.0,0.0,-0.07999999821186066,78.12999725341797,114.55000305175781,0.97430419921875,0.01556396484375,-0.2210693359375,36.029998779296875,0.0,21.0,-3.1640167236328125,2.09222412109375,Waiting,0.0,0.0,14.0,0.0,0.0,0.0,0.0,0.0,
8.51393100000004,0.0,0.0,false,3797889.9761891067,,8738.0,0.0,0.0,0.0,0.0,0.125,1.85546856,0.0,0.0,-1108.0,0.0,0.0,-0.0,0.0,0.0,2.670898164,0.0,0.0,10000.0,0.0,0.0,0.0,0.0,0.0,4.039306227,0.0,0.0,-11256.0,0.0,0.0,-0.0,0.0,0.0,2.554931379,0.0,0.0,-0.12999999523162842,78.16999816894531,114.43000030517578,1.012939453125,-0.03033447265625,-0.18231201171875,36.029998779296875,0.0,-37.0,-3.1639862060546875,2.09222412109375,Waiting,0.0,0.0,14.0,0.0,0.0,0.0,0.0,0.0,
8.58522900000005,0.0,0.0,false,3798013.25373821,,8738.0,0.0,0.0,0.0,0.0,0.125,1.85546856,0.0,0.0,-1108.0,0.0,0.0,-0.0,0.0,0.0,2.670898164,0.0,0.0,10000.0,0.0,0.0,0.0,0.0,0.0,4.04052693,0.0,0.0,-11256.0,0.0,0.0,-0.0,0.0,0.0,2.554931379,0.0,0.0,-0.10999999940395355,78.16000366210938,114.47000122070312,0.990234375,0.01190185546875,-0.2164306640625,36.029998779296875,0.0,13.0,-3.1640625,2.09222412109375,Waiting,0.0,0.0,14.0,0.0,0.0,0.0,0.0,0.0,
8.655503000000026,0.0,0.0,false,3798131.0446834206,,8738.0,0.0,0.0,0.0,0.0,0.125,1.85546856,0.0,0.0,-1108.0,0.0,0.0,-0.0,0.0,0.0,2.672118867,0.0,0.0,10000.0,0.0,0.0,0.0,0.0,0.0,4.04052693,0.0,0.0,-11256.0,0.0,0.0,-0.0,0.0,0.0,2.554931379,0.0,0.0,-0.10999999940395355,78.16000366210938,114.47000122070312,0.97979736328125,0.0010986328125,-0.204833984375,36.029998779296875,0.0,0.0,-3.1640167236328125,2.09222412109375,Waiting,0.0,0.0,14.0,0.0,0.0,0.0,0.0,0.0,
8.729656000000018,0.0,0.0,false,3798243.349971248,,8738.0,0.0,0.0,0.0,0.0,0.125,1.856689263,0.0,-0.0012207030000004337,-1108.0,0.0,0.0,-0.0,0.0,0.0,2.670898164,0.0,0.0,10000.0,0.0,0.0,0.0,0.0,0.0,4.039306227,0.0,0.0,-11256.0,0.0,0.0,-0.0,0.0,0.0,2.554931379,0.0,0.0,-0.11999999731779099,78.19999694824219,114.3499984741211,0.95965576171875,0.0064697265625,-0.18560791015625,36.029998779296875,0.0,-9.0,-3.1640167236328125,2.09222412109375,Waiting,0.0,0.0,14.0,0.0,0.0,0.0,0.0,0.0,
8.796406000000017,0.0,0.0,false,3798347.3608188145,,8738.0,0.0,0.0,0.0,0.0,0.125,1.85546856,0.0,0.0012207030000004337,-1108.0,0.0,0.0,-0.0,0.0,0.0,2.670898164,0.0,0.0,10000.0,0.0,0.0,0.0,0.0,0.0,4.04052693,0.0,0.0,-11256.0,0.0,0.0,-0.0,0.0,0.0,2.554931379,0.0,0.0,-0.11999999731779099,78.19999694824219,114.3499984741211,0.98980712890625,-0.01226806640625,-0.2100830078125,36.029998779296875,0.0,-1.0,-3.1640167236328125,2.09222412109375,Waiting,0.0,0.0,14.0,0.0,0.0,0.0,0.0,0.0,
8.874789000000048,0.0,0.0,false,3798445.881324747,,8738.0,0.0,0.0,0.0,0.0,0.125,1.85546856,0.0,0.0,-1108.0,0.0,0.0,-0.0,0.0,0.0,2.672118867,0.0,0.0,10000.0,0.0,0.0,0.0,0.0,0.0,4.04052693,0.0,0.0012207030000004337,-11256.0,0.0,0.0,-0.0,0.0,0.0,2.554931379,0.0,0.0,-0.10999999940395355,78.22000122070312,114.33000183105469,0.98809814453125,-0.004150390625,-0.200927734375,36.029998779296875,0.0,-5.0,-3.1640167236328125,2.09222412109375,Waiting,0.0,0.0,14.0,0.0,0.0,0.0,0.0,0.0,
8.938255999999994,0.0,0.0,false,3798538.919335365,,8738.0,0.0,0.0,0.0,0.0,0.125,1.85546856,0.0,0.0,-1108.0,0.0,0.0,-0.0,0.0,0.0,2.670898164,0.0,0.0,10000.0,0.0,0.0,0.0,0.0,0.0,4.04052693,0.0,-0.0012207030000004337,-11256.0,0.0,0.0,-0.0,0.0,0.0,2.554931379,0.0,0.0,-0.11999999731779099,78.20999908447266,114.33000183105469,0.983154296875,-9.765625E-4,-0.20404052734375,36.029998779296875,0.0,0.0,-3.1640167236328125,2.09222412109375,Waiting,0.0,0.0,14.0,0.0,0.0,0.0,0.0,0.0,
9.01585400000005,0.0,0.0,false,3798626.4757962516,,8738.0,0.0,0.0,0.0,0.0,0.125,1.85546856,0.0,0.0,-1108.0,0.0,0.0,-0.0,0.0,0.0,2.672118867,0.0,0.0,10000.0,0.0,0.0,0.0,0.0,0.0,4.04052693,0.0,0.0,-11256.0,0.0,0.0,-0.0,0.0,0.0,2.554931379,0.0,0.0,-0.11999999731779099,78.19999694824219,114.36000061035156,0.9814453125,-0.0042724609375,-0.20355224609375,36.029998779296875,0.0,-2.0,-3.1640167236328125,2.09222412109375,Waiting,0.0,0.0,14.0,0.0,0.0,0.0,0.0,0.0,
9.087354000000051,0.0,0.0,false,3798705.742569704,,8738.0,0.0,0.0,0.0,0.0,0.125,1.856689263,0.0,0.0,-1108.0,0.0,0.0,-0.0,0.0,0.0,2.672118867,0.0,0.0,10000.0,0.0,0.0,0.0,0.0,0.0,4.04052693,0.0,0.0,-11256.0,0.0,0.0,-0.0,0.0,0.0,2.556152082,0.0,0.0,-0.10999999940395355,78.20999908447266,114.33999633789062,0.9874267578125,-6.103515625E-5,-0.2010498046875,36.029998779296875,0.0,-3.0,-3.1640167236328125,2.09222412109375,Waiting,0.0,0.0,14.0,0.0,0.0,0.0,0.0,0.0,
9.162845000000031,0.0,0.0,false,3798779.530006898,,8738.0,0.0,0.0,0.0,0.0,0.125,1.854247857,0.0,0.0,-1108.0,0.0,0.0,-0.0,0.0,0.0,2.670898164,0.0,0.0,10000.0,0.0,0.0,0.0,0.0,0.0,4.04052693,0.0,0.0,-11256.0,0.0,0.0,-0.0,0.0,0.0,2.554931379,0.0,0.0,-0.10999999940395355,78.20999908447266,114.37999725341797,1.003173828125,-0.034423828125,-0.21759033203125,36.029998779296875,0.0,-5.0,-3.1640167236328125,2.0922088623046875,Waiting,0.0,0.0,14.0,0.0,0.0,0.0,0.0,0.0,
9.232822000000043,0.0,0.0,false,3798847.83905271,,8738.0,0.0,0.0,0.0,0.0,0.125,1.85546856,0.0,0.0,-1108.0,0.0,0.0,-0.0,0.0,0.0,2.672118867,0.0,0.0,10000.0,0.0,0.0,0.0,0.0,0.0,4.041747633,0.0,-0.0012207030000004337,-11256.0,0.0,0.0,-0.0,0.0,0.0,2.554931379,0.0,0.0,-0.10999999940395355,78.1500015258789,114.47000122070312,0.9873046875,-0.00494384765625,-0.21917724609375,36.029998779296875,0.0,14.0,-3.1640167236328125,2.0921173095703125,Waiting,0.0,0.0,14.0,0.0,0.0,0.0,0.0,0.0,
9.308244000000006,0.0,0.0,false,3798910.670651799,,8738.0,0.0,0.0,0.0,0.0,0.125,1.85546856,0.0,0.0,-1108.0,0.0,0.0,-0.0,0.0,0.0,2.672118867,0.0,0.0,10000.0,0.0,0.0,0.0,0.0,0.0,4.041747633,0.0,0.0,-11256.0,0.0,0.0,-0.0,0.0,0.0,2.556152082,0.0,0.0,-0.11999999731779099,78.18000030517578,114.43000030517578,0.990478515625,-0.011962890625,-0.15911865234375,36.029998779296875,0.0,-46.0,-3.1640472412109375,2.0921173095703125,Waiting,0.0,0.0,14.0,0.0,0.0,0.0,0.0,0.0,
9.377366000000038,0.0,0.0,false,3798965.21731134,,8738.0,0.0,0.0,0.0,0.0,0.125,1.854247857,0.0,0.0,-1108.0,0.0,0.0,-0.0,0.0,0.0,2.672118867,0.0,0.0,10000.0,0.0,0.0,0.0,0.0,0.0,4.039306227,0.0,0.0,-11256.0,0.0,0.0,-0.0,0.0,0.0,2.556152082,0.0,0.0,-0.10999999940395355,78.12000274658203,114.52999877929688,0.9764404296875,-0.00457763671875,-0.21405029296875,36.029998779296875,0.0,6.0,-3.16412353515625,2.0921173095703125,Waiting,0.0,0.0,14.0,0.0,0.0,0.0,0.0,0.0,
