Time,ClimberA1,ClimberA2,CameraExists,HeapSpace,LoopTime,FRpos,FRCurrent,FRspeed,FRsetpoint,FRApos,FRACurrent,FREncpos,FREncSetpoint,FREncSpeed,FLpos,FLCurrent,FLspeed,FLsetpoint,FLApos,FLACurrent,FLEncpos,FLEncSetpoint,FLEncSpeed,BRpos,BRCurrent,BRspeed,BRsetpoint,BRApos,BRACurrent,BREncpos,BREncSetpoint,BREncSpeed,BLpos,BLCurrent,BLspeed,BLsetpoint,BLApos,BLACurrent,BLEncpos,BLEncSetpoint,BLEncSpeed,navx_Pitch,navx_Roll,navx_Yaw,navx_XAcc,navx_YAcc,navx_ZAcc,navx_Temp,navx_Bar,navx_Alt,navx_XDis,navx_YDis,GearPlacerState,ShootOutputV,ShootOutputCurrent,ShootEncPos,ShootEncVelocity,ShootSpeed,ShootSetpoint,CarouselSetpoint,CarouselCurrent,
0.17191100000000734,0.0,0.0,false,4304048.8422345,,36506.0,0.0,0.0,0.0,0.0,0.125,1.8994138680000001,0.0,0.0,-115581.0,0.0,0.0,0.0,0.0,0.0,2.6904294120000003,0.0,0.004882811999999959,69209.0,0.0,0.0,0.0,0.0,0.0,4.0356441180000004,0.0,0.0,-93691.0,0.0,0.0,0.0,0.0,0.0,2.613525123,0.0,0.0,1.2400000095367432,0.07000000029802322,70.2699966430664,7.9345703125E-4,0.021240234375,0.9940185546875,34.61000061035156,0.0,0.0,-0.3583984375,-1.9497222900390625,Waiting,0.0,0.0,-113.0,0.0,0.0,0.0,0.0,0.0,
0.21993500000001223,0.0,0.0,false,4304279.052470082,,36506.0,2.25,0.0,1260.0,0.0,0.125,1.8688962930000002,0.0,0.0,-115581.0,3.375,0.0,-1260.0,0.0,0.0,2.6977536300000002,0.0,0.0,69209.0,2.375,0.0,1260.0,0.0,0.0,4.0332027120000005,-0.0,0.0,-93691.0,2.75,-22.5,-1260.0,0.0,0.0,2.613525123,-0.0,0.0,1.2400000095367432,0.07000000029802322,70.2699966430664,0.0181884765625,0.01959228515625,0.99786376953125,34.61000061035156,0.0,3.0,-0.3583984375,-1.9497222900390625,Waiting,0.0,0.0,-113.0,0.0,0.0,0.0,0.0,0.0,
0.2684690000000119,0.0,0.0,false,4304484.208588957,,36506.0,6.75,105.0,1260.0,0.0,0.125,1.87988262,0.0,-0.01342773300000033,-115581.0,10.625,-82.5,-1260.0,0.0,0.0,2.701415739,0.0,0.009765623999999917,69209.0,7.125,187.5,1260.0,0.0,0.0,4.034423415,-0.0,0.0012207029999995456,-93691.0,8.5,-135.0,-1260.0,0.0,0.0,2.613525123,-0.0,0.0,1.2300000190734863,0.7900000214576721,70.36000061035156,0.20587158203125,0.11614990234375,0.88055419921875,34.61000061035156,0.0,156.0,-0.35723876953125,-1.951873779296875,Waiting,0.0,0.0,-113.0,0.0,0.0,0.0,0.0,0.0,
0.3138240000000078,0.0,0.0,false,4304664.333639988,,36548.0,8.625,262.5,1260.0,0.0,0.125,1.87988262,0.00124105470445421,-0.002441405999999091,-115614.0,13.875,-195.0,-1260.0,0.0,0.0,2.6989743330000002,0.0012373045391506617,0.0,69254.0,8.75,285.0,1260.0,0.0,0.0,4.0332027120000005,0.0012385545942518443,-0.0012207029999995456,-93728.0,10.875,-232.5,-1260.0,0.0,0.0,2.613525123,0.001236929522620307,0.0012207029999999897,1.3200000524520874,1.2100000381469727,70.4000015258789,0.32147216796875,0.12933349609375,1.052978515625,34.61000061035156,0.0,199.0,-0.3546600341796875,-1.956390380859375,Waiting,0.0,0.0,-113.0,0.0,0.0,0.0,0.0,0.0,
0.36463400000000545,0.0,0.0,false,4304831.585530349,,36548.0,9.75,307.5,1260.0,0.0,0.125,1.878661917,0.0017926228841145836,-0.0024414060000008675,-115614.0,13.625,-345.0,-1260.0,0.0,0.0,2.6989743330000002,0.0017872060139973956,0.0,69254.0,9.125,315.0,1260.0,0.0,0.0,4.034423415,0.0017890116373697916,0.0,-93728.0,11.875,-322.5,-1260.0,0.0,0.0,2.607421608,0.0017866643269856771,-0.0012207029999999897,1.350000023841858,1.8200000524520874,70.47000122070312,0.18975830078125,-0.04803466796875,1.00262451171875,34.61000061035156,0.0,-14.0,-0.3496856689453125,-1.966888427734375,Waiting,0.0,0.0,-113.0,0.0,0.0,0.0,0.0,0.0,
0.41069500000000697,0.0,0.0,false,4304973.808152007,,36548.0,10.625,420.0,1260.0,0.0,0.125,1.878661917,0.002757840898301866,0.0012207030000004337,-115688.0,13.375,-487.5,-1260.0,0.0,0.0,2.700195036,0.0027495073742336692,-4.947779296999999,69336.0,11.25,465.0,1260.0,0.0,0.0,4.034423415,0.002752285215589735,0.0012207029999995456,-93813.0,11.875,-457.5,-1260.0,0.0,0.0,2.607421608,0.00274867402182685,-0.003662108999999969,1.340000033378601,2.190000057220459,70.54000091552734,0.18707275390625,0.0733642578125,1.0662841796875,34.61000061035156,0.0,94.0,-0.3448486328125,-1.9778594970703125,Waiting,0.0,0.0,-113.0,0.0,0.0,0.0,0.0,0.0,
0.4619210000000021,0.0,0.0,false,4305091.06127451,,36638.0,10.25,630.0,1260.0,0.0,0.125,1.878661917,0.0037230589124891507,-0.0012207030000004337,-115688.0,13.625,-420.0,-1260.0,0.0,0.0,2.6989743330000002,0.003711808734469944,4.947779296999999,69336.0,10.625,585.0,1260.0,0.0,0.0,4.034423415,0.0037155587938096798,-0.0012207029999995456,-93813.0,12.125,-600.0,-1260.0,0.0,0.0,2.608642311,0.0037106837166680237,-0.0012207029999999897,1.3799999952316284,2.609999895095825,70.66999816894531,0.2760009765625,-0.072998046875,0.856201171875,34.61000061035156,0.0,-10.0,-0.3389434814453125,-1.990997314453125,Waiting,0.0,0.0,-113.0,0.0,0.0,0.0,0.0,0.0,
0.5080720000000001,0.0,0.0,false,4305183.32863706,,36638.0,9.625,757.5,1260.0,0.0,0.125,1.885986135,0.005515576595730253,0.0,-115688.0,16.75,-390.0,-1260.0,0.0,0.0,2.700195036,0.005498909865485297,0.0,69336.0,10.0,705.0,1260.0,0.0,0.0,4.029540603,0.005504465442233615,0.0,-93813.0,10.5,-735.0,-1260.0,0.0,0.0,2.607421608,0.005497243192460801,0.0,1.3899999856948853,2.950000047683716,70.83999633789062,0.2337646484375,-0.04168701171875,0.8836669921875,34.61000061035156,0.0,2.0,-0.3322906494140625,-2.0063934326171875,Waiting,0.0,0.0,-113.0,0.0,0.0,0.0,0.0,0.0,
0.5513280000000086,0.0,0.0,false,4305262.792406614,,36781.0,9.0,862.5,1260.0000000000002,0.0,0.125,1.87988262,0.007859662458631728,0.0,-115787.0,18.375,-562.5,-1260.0000000000002,0.0,0.0,2.706298551,0.007835912471347385,0.0,69474.0,9.125,817.5,1260.0000000000002,0.0,0.0,4.034423415,0.0078438291337755,0.0012207029999995456,-93955.0,8.875,-915.0,-1260.0000000000002,0.0,0.0,2.608642311,0.00783353747261895,0.0,1.3600000143051147,3.299999952316284,71.08999633789062,0.30377197265625,-0.099853515625,0.546875,34.61000061035156,0.0,-18.0,-0.3249359130859375,-2.0240325927734375,Waiting,0.0,0.0,-113.0,0.0,0.0,0.0,0.0,0.0,
0.6036510000000126,0.0,0.0,false,4305317.348025711,,36781.0,8.375,960.0,1260.0,0.0,0.125,1.87988262,0.012410021040174699,0.0,-115787.0,17.0,-750.0,-1260.0,0.0,0.0,2.700195036,0.01237252097659641,0.0,69474.0,8.125,967.5,1260.0,0.0,0.0,4.034423415,0.012385020997789173,-0.0012207029999995456,-93955.0,7.75,-1035.0,-1260.0,0.0,0.0,2.608642311,0.012368770970238582,0.0,1.399999976158142,3.5799999237060547,71.43000030517578,0.2967529296875,-0.10076904296875,0.55535888671875,34.61000061035156,0.0,-25.0,-0.322357177734375,-2.0508270263671875,Waiting,0.0,0.0,-113.0,0.0,0.0,0.0,0.0,0.0,
0.6482320000000036,0.0,0.0,false,4305347.018359853,,36781.0,7.625,1042.5,1260.0000000000002,0.0,0.125,1.8945310560000002,0.015995161607530384,0.0012207030000004337,-115787.0,15.125,-892.5,-1260.0000000000002,0.0,0.0,2.700195036,0.015946828121609156,-4.947779296999999,69652.0,7.25,1057.5,1260.0000000000002,0.0,0.0,4.034423415,0.0159629392835829,0.0,-94148.0,6.625,-1132.5,-1260.0000000000002,0.0,0.0,2.607421608,0.015941994773017037,0.0,1.440000057220459,3.6500000953674316,71.68000030517578,0.1763916015625,0.095947265625,1.08575439453125,34.61000061035156,0.0,98.0,-0.321990966796875,-2.072509765625,Waiting,0.0,0.0,-113.0,0.0,0.0,0.0,0.0,0.0,
0.6924540000000124,0.0,0.0,false,4305363.89843989,,36964.0,6.5,1162.5,1260.0,0.0,0.125,1.878661917,0.01944238382975261,-0.0012207030000004337,-115928.0,15.125,-952.5,-1260.0,0.0,0.0,2.700195036,0.019383633677164714,4.947779296999999,69652.0,6.5,1132.5,1260.0,0.0,0.0,4.034423415,0.01940321706136068,0.0,-94148.0,5.25,-1222.5,-1260.0,0.0,0.0,2.608642311,0.019377758661905928,0.0,1.5199999809265137,3.75,71.95999908447266,0.099853515625,-0.03558349609375,1.20245361328125,34.61000061035156,0.0,-57.0,-0.321014404296875,-2.094970703125,Waiting,0.0,0.0,-113.0,0.0,0.0,0.0,0.0,0.0,
0.743840000000011,0.0,0.0,false,4305355.931498471,,36964.0,5.75,1230.0,1260.0,0.0,0.125,1.878661917,0.02330325588650174,0.0012207030000004337,-115928.0,15.375,-937.5,-1260.0,0.0,0.0,2.6977536300000002,0.02323283911810981,0.0,69652.0,5.75,1200.0,1260.0,0.0,0.0,4.034423415,0.023256311374240453,0.0012207029999995456,-94148.0,3.75,-1327.5,-1260.0,0.0,0.0,2.603759499,0.023225797441270617,-0.004882811999999959,1.5,3.819999933242798,72.26000213623047,0.1138916015625,0.066162109375,1.028076171875,34.61000061035156,0.0,50.0,-0.320068359375,-2.1179351806640625,Waiting,0.0,0.0,-113.0,0.0,0.0,0.0,0.0,0.0,
0.7888070000000007,0.0,0.0,false,4305323.14032406,,37178.0,4.875,1282.5,1260.0,0.0,0.125,1.853027154,0.0274399646335178,0.0012207030000004337,-116127.0,15.875,-1020.0,-1260.0,0.0,0.0,2.6928708180000003,0.027357047737969296,0.0,69858.0,4.625,1282.5,1260.0,0.0,0.0,4.034423415,0.02738468670315213,-0.0012207029999995456,-94372.0,3.0,-1387.5,-1260.0,0.0,0.0,2.603759499,0.027348756048414444,0.0,1.5499999523162842,3.950000047683716,72.56999969482422,0.113037109375,-0.14306640625,0.899658203125,34.61000061035156,0.0,-144.0,-0.318939208984375,-2.1407928466796875,Waiting,0.0,0.0,-113.0,0.0,0.0,0.0,0.0,0.0,
0.833724000000002,0.0,0.0,false,4305265.547677262,,37178.0,4.125,1335.0,1260.0,0.0,0.125,1.878661917,0.03171448652479384,-0.0012207030000004337,-116127.0,14.375,-1252.5,-1260.0,0.0,0.0,2.702636442,0.03161865306430393,-4.944117188,69858.0,4.125,1312.5,1260.0,0.0,0.0,4.0332027120000005,0.0316505975511339,0.0012207029999995456,-94372.0,2.375,-1425.0,-1260.0,0.0,0.0,2.603759499,0.03160906971825494,0.0,1.5800000429153442,3.930000066757202,72.87999725341797,-0.01025390625,0.06671142578125,0.80712890625,34.61000061035156,0.0,22.0,-0.3182220458984375,-2.1633758544921875,Waiting,0.0,0.0,-113.0,0.0,0.0,0.0,0.0,0.0,
0.8844570000000094,0.0,0.0,false,4305195.270394133,,37178.0,3.5,1380.0,1260.0,0.0,0.125,1.87988262,0.03709214477539063,0.0,-116127.0,11.625,-1365.0,-1260.0,0.0,0.0,2.703857145,0.03698006134033203,-4.944117188,69858.0,3.625,1350.0,1260.0,0.0,0.0,4.0356441180000004,0.037017422485351566,0.0012207029999995456,-94372.0,1.75,-1440.0,-1260.0,0.0,0.0,2.602538796,0.036968852996826174,0.0,1.600000023841858,3.8499999046325684,73.16000366210938,0.09521484375,-0.0577392578125,1.13836669921875,34.61000061035156,0.0,-80.0,-0.31768798828125,-2.1856231689453125,Waiting,0.0,0.0,-113.0,0.0,0.0,0.0,0.0,0.0,
0.9294630000000034,0.0,0.0,false,4305100.229688454,,37401.0,3.0,1410.0,1260.0000000000002,0.0,0.0,1.876220511,0.03984998567369249,0.0,-116310.0,11.0,-1215.0,-1260.0000000000002,0.0,0.0,2.705077848,0.03972956871456569,0.0,70078.0,3.375,1380.0,1260.0000000000002,0.0,0.0,4.034423415,0.03976970770094129,-0.0012207029999995456,-94604.0,1.125,-1470.0,-1260.0000000000002,0.0,0.0,2.603759499,0.03971752701865301,0.0,1.440000057220459,3.8399999141693115,73.43000030517578,0.08349609375,0.0252685546875,0.705810546875,34.58000183105469,0.0,17.0,-0.3175506591796875,-2.207489013671875,Waiting,0.0,0.0,-113.0,0.0,0.0,0.0,0.0,0.0,
0.9830100000000093,0.0,0.0,false,4304980.448244275,,37401.0,2.75,1417.5,1260.0,0.0,0.0,1.87988262,0.04357293938530817,0.0,-116310.0,11.875,-1267.5,-1260.0,0.0,0.0,2.703857145,0.0434412725660536,0.0012207029999999897,70078.0,3.125,1395.0,1260.0,0.0,0.0,4.034423415,0.04348516150580513,0.0012207029999995456,-94604.0,0.875,-1485.0,-1260.0,0.0,0.0,2.602538796,0.043428105884128154,0.0,1.5399999618530273,3.7699999809265137,73.75,0.03106689453125,-0.03125,0.7984619140625,34.58000183105469,0.0,-56.0,-0.3175506591796875,-2.22906494140625,Waiting,0.0,0.0,-113.0,0.0,0.0,0.0,0.0,0.0,
1.02731700000001,0.0,0.0,false,4304848.031746032,,37629.0,2.25,1417.5,1260.0,0.0,0.0,1.878661917,0.04798537962171767,0.0,-116560.0,10.875,-1395.0,-1260.0,0.0,0.0,2.708739957,0.04784037948184543,-0.0012207029999999897,70294.0,3.25,1350.0,1260.0,0.0,0.0,4.039306227,0.047888712861802844,0.0,-94837.0,0.75,-1462.5,-1260.0,0.0,0.0,2.603759499,0.047825879467858205,0.0,1.5299999713897705,3.680000066757202,74.11000061035156,0.02978515625,0.18939208984375,1.205810546875,34.58000183105469,0.0,137.0,-0.3177947998046875,-2.250335693359375,Waiting,0.0,0.0,-113.0,0.0,0.0,0.0,0.0,0.0,
1.0735320000000066,0.0,0.0,false,4304690.912419897,,37629.0,1.75,1432.5,1260.0000000000002,0.0,0.0,1.878661917,0.05460409257676867,0.0,-116560.0,7.5,-1545.0,-1260.0000000000002,0.0,0.0,2.708739957,0.05443909229702419,0.004882811999999959,70294.0,3.0,1327.5,1260.0000000000002,0.0,0.0,4.031982009,0.05449409239027235,-0.0012207029999995456,-94837.0,0.5,-1447.5,-1260.0000000000002,0.0,0.0,2.601318093,0.05442259226904975,0.0,1.4800000190734863,3.5799999237060547,74.44000244140625,-0.0526123046875,0.0517578125,1.22357177734375,34.58000183105469,0.0,-15.0,-0.317901611328125,-2.2707366943359375,Waiting,0.0,0.0,-113.0,0.0,0.0,0.0,0.0,0.0,
1.1189530000000085,0.0,0.0,false,4304509.112873703,,37629.0,1.625,1440.0,1260.0,0.0,0.125,1.87988262,0.05749974661933052,0.0,-116560.0,6.5,-1462.5,-1260.0,0.0,0.0,2.712402066,0.057325996377733016,0.0,70294.0,2.375,1357.5,1260.0,0.0,0.0,4.038085524,0.057383913124932184,0.0,-94837.0,0.125,-1492.5,-1260.0,0.0,0.0,2.609863014,0.057308621353573265,0.0,1.5499999523162842,3.430000066757202,74.73999786376953,-0.11895751953125,0.1968994140625,1.41387939453125,34.58000183105469,0.0,99.0,-0.3186187744140625,-2.2904510498046875,Waiting,0.0,0.0,-113.0,0.0,0.0,0.0,0.0,0.0,
1.165366000000009,0.0,0.0,false,4304302.655687709,,37860.0,1.25,1440.0,1260.0,0.0,0.125,1.878661917,0.06273948652479384,0.0,-116766.0,7.375,-1282.5,-1260.0,0.0,0.0,2.720946987,0.06254990306430393,0.0,70519.0,2.0,1410.0,1260.0,0.0,0.0,4.04052693,0.0626130975511339,0.006103514999999504,-95085.0,0.0,-1552.5,-1260.0,0.0,0.0,2.603759499,0.06253094471825493,0.0,1.5099999904632568,3.25,74.9800033569336,-0.0732421875,0.03387451171875,1.1134033203125,34.58000183105469,0.0,-31.0,-0.3195037841796875,-2.30908203125,Waiting,0.0,0.0,-113.0,0.0,0.0,0.0,0.0,0.0,
1.2088100000000122,0.0,0.0,false,4304083.631707317,,37860.0,1.25,1417.5,1260.0,0.0,0.125,1.878661917,0.06632462709214954,-0.0012207029999995456,-116766.0,8.5,-1282.5,-1260.0,0.0,0.0,2.716064175,0.06612421020931668,0.004882811999999959,70519.0,1.375,1410.0,1260.0,0.0,0.0,4.039306227,0.06619101583692763,0.0,-95085.0,0.0,-1530.0,-1260.0,0.0,0.0,2.603759499,0.06610416852103339,0.0,1.5499999523162842,3.059999942779541,75.37000274658203,-0.0064697265625,-0.03057861328125,1.24969482421875,34.58000183105469,0.0,-80.0,-0.3217010498046875,-2.3328857421875,Waiting,0.0,0.0,-113.0,0.0,0.0,0.0,0.0,0.0,
1.2570639999999984,0.0,0.0,false,4303839.9878085945,,38083.0,1.125,1395.0,1260.0000000000002,0.0,0.125,1.878661917,0.07032341749403212,0.0012207029999995456,-117006.0,7.75,-1477.5,-1260.0000000000002,0.0,0.0,2.713622769,0.07011091723971896,0.0,70742.0,1.125,1395.0,1260.0000000000002,0.0,0.0,4.038085524,0.07018175065782335,-0.0012207029999995456,-95326.0,0.0,-1515.0,-1260.0000000000002,0.0,0.0,2.602538796,0.07008966721428765,0.0012207029999999897,1.5,3.0199999809265137,75.72000122070312,-0.0321044921875,0.04693603515625,0.6702880859375,34.58000183105469,0.0,11.0,-0.32366943359375,-2.3494415283203125,Waiting,0.0,0.0,-113.0,0.0,0.0,0.0,0.0,0.0,
1.3059370000000055,0.0,0.0,false,4303571.746496039,,38083.0,1.0,1387.5,1260.0,0.0,0.125,1.87988262,0.07514950756496855,0.0,-117006.0,6.5,-1410.0,-1260.0,0.0,0.0,2.707519254,0.07492242404090034,0.0,70742.0,1.125,1380.0,1260.0,0.0,0.0,4.044189039,0.07499811854892308,0.006103514999999504,-95326.0,0.0,-1492.5,-1260.0,0.0,0.0,2.598876687,0.07489971568849353,-0.0012207029999999897,1.5199999809265137,2.7799999713897705,76.0199966430664,-0.04290771484375,-0.010986328125,0.85723876953125,34.58000183105469,0.0,-53.0,-0.325958251953125,-2.3649749755859375,Waiting,0.0,0.0,-113.0,0.0,0.0,0.0,0.0,0.0,
1.3489530000000085,0.0,0.0,false,4303290.9875114225,,38083.0,0.875,1387.5,1260.0,0.0,0.125,1.885986135,0.07928611111111113,0.0,-117006.0,8.0,-1035.0,-1260.0,0.0,0.0,2.714843472,0.07904652777777779,0.0,70742.0,1.125,1372.5,1260.0,0.0,0.0,4.049071851,0.0791263888888889,-0.0012207029999995456,-95326.0,0.0,-1470.0,-1260.0,0.0,0.0,2.603759499,0.07902256944444445,-0.003662108999999969,1.4299999475479126,2.619999885559082,76.30999755859375,0.09002685546875,0.0760498046875,0.93280029296875,34.58000183105469,0.0,62.0,-0.3285369873046875,-2.3798065185546875,Waiting,0.0,0.0,-113.0,0.0,0.0,0.0,0.0,0.0,
1.4014740000000019,0.0,0.0,false,4302985.045066992,,38301.0,0.875,1372.5,1260.0000000000002,0.0,0.125,1.87988262,0.08328490151299371,0.0,-117158.0,12.625,-855.0,-1260.0000000000002,0.0,0.0,2.707519254,0.08303323480818006,0.0,70958.0,1.125,1350.0,1260.0000000000002,0.0,0.0,4.053954663,0.08311712370978461,0.004882811999999959,-95559.0,0.0,-1447.5,-1260.0000000000002,0.0,0.0,2.603759499,0.0830080681376987,0.0012207029999999897,1.4600000381469727,2.4700000286102295,76.62999725341797,-0.0693359375,0.11224365234375,1.08551025390625,34.58000183105469,0.0,55.0,-0.33111572265625,-2.393890380859375,Waiting,0.0,0.0,-113.0,0.0,0.0,0.0,0.0,0.0,
1.4479360000000014,0.0,0.0,false,4302654.565601218,,38301.0,0.875,1335.0,1260.0,0.0,0.125,1.87988262,0.08948996463351781,0.0,-117158.0,13.375,-1297.5,-1260.0,0.0,0.0,2.714843472,0.08921954773796929,-0.004882811999999959,70958.0,1.125,1327.5,1260.0,0.0,0.0,4.069823802,0.08930968670315213,0.006103514999999504,-95559.0,0.0,-1417.5,-1260.0,0.0,0.0,2.597655984,0.08919250604841446,-0.0024414059999999793,1.5299999713897705,2.3299999237060547,77.0999984741211,-0.058837890625,0.06396484375,1.53631591796875,34.54999923706055,0.0,-4.0,-0.3342742919921875,-2.412445068359375,Waiting,0.0,0.0,-113.0,0.0,0.0,0.0,0.0,0.0,
1.506541000000012,0.0,0.0,false,4302887.746804626,,38514.0,1.0,1327.5,1259.9999999999998,0.0,0.125,1.878661917,0.09417813635932076,0.0,-117398.0,9.375,-1492.5,-1259.9999999999998,0.0,0.0,2.719726284,0.09389355294969347,0.004882811999999959,71168.0,1.125,1305.0,1259.9999999999998,0.0,0.0,4.068603099000001,0.0939884140862359,0.009765624000000805,-95786.0,0.0,-1417.5,-1259.9999999999998,0.0,0.0,2.5939938750000002,0.09386509460873074,0.0,1.4600000381469727,2.2899999618530273,77.45999908447266,-0.05828857421875,0.091064453125,1.16448974609375,34.54999923706055,0.0,36.0,-0.33367919921875,-2.425811767578125,Waiting,0.0,0.0,-113.0,0.0,0.0,0.0,0.0,0.0,
1.550494000000006,0.0,0.0,false,4303093.132947977,,38514.0,0.875,1327.5,1260.0000000000002,0.0,0.125,1.878661917,0.09914214477539061,0.0012207030000004337,-117398.0,7.25,-1417.5,-1260.0000000000002,0.0,0.0,2.729491908,0.09884256134033201,0.004882811999999959,71168.0,1.125,1305.0,1260.0000000000002,0.0,0.0,4.0808101290000005,0.09894242248535154,0.007324217999999938,-95786.0,0.0,-1410.0,-1260.0000000000002,0.0,0.0,2.60009739,0.09881260299682615,0.0,1.3799999952316284,2.200000047683716,77.73999786376953,0.0306396484375,-0.0052490234375,0.44482421875,34.54999923706055,0.0,-12.0,-0.3326263427734375,-2.4380035400390625,Waiting,0.0,0.0,-113.0,0.0,0.0,0.0,0.0,0.0,
1.5967390000000015,0.0,0.0,false,4303273.846715328,,38514.0,0.875,1335.0,1260.0000000000002,0.0,0.125,1.877441214,0.10300301683213976,-0.0012207030000004337,-117398.0,8.25,-1222.5,-1260.0000000000002,0.0,0.0,2.7368161260000003,0.1026917667812771,0.009765623999999917,71168.0,1.125,1312.5,1260.0000000000002,0.0,0.0,4.084472238,0.10279551679823132,0.006103514999999504,-96006.0,0.0,-1372.5,-1260.0000000000002,0.0,0.0,2.598876687,0.10266064177619084,0.0,1.4700000286102295,1.9800000190734863,78.0,0.07086181640625,-0.0623779296875,0.75543212890625,34.54999923706055,0.0,-70.0,-0.3309478759765625,-2.452972412109375,Waiting,0.0,0.0,-113.0,0.0,0.0,0.0,0.0,0.0,
1.649668000000005,0.0,0.0,false,4303441.8777744,,38727.0,0.625,1327.5,1260.0000000000002,0.0,0.125,1.87988262,0.10658815739949543,0.0,-117585.0,10.25,-1147.5,-1260.0000000000002,0.0,0.0,2.7453610470000003,0.10626607392628984,0.01464843600000032,71377.0,1.125,1297.5,1260.0000000000002,0.0,0.0,4.10156208,0.10637343508402504,0.009765623999999917,-96006.0,0.0,-1372.5,-1260.0000000000002,0.0,0.0,2.598876687,0.10623386557896929,0.0012207029999999897,1.4700000286102295,1.8899999856948853,78.2300033569336,-0.011474609375,0.0985107421875,0.79388427734375,34.54999923706055,0.0,68.0,-0.3296356201171875,-2.4638824462890625,Waiting,0.0,0.0,-113.0,0.0,0.0,0.0,0.0,0.0,
1.6958000000000029,0.0,0.0,false,4303585.254711246,,38727.0,0.625,1327.5,1260.0,0.0,0.125,1.87988262,0.10975964813232426,0.0,-117585.0,10.625,-1230.0,-1260.0,0.0,0.0,2.755126671,0.10942798118591311,0.008544920999999928,71377.0,1.125,1282.5,1260.0,0.0,0.0,4.091796456,0.10953853683471683,0.003662109000000413,-96006.0,0.0,-1372.5,-1260.0,0.0,0.0,2.60009739,0.109394814491272,-0.0012207029999999897,1.5,1.75,78.51000213623047,-0.1348876953125,0.041259765625,1.2005615234375,34.54999923706055,0.0,-24.0,-0.3283233642578125,-2.4742431640625,Waiting,0.0,0.0,-113.0,0.0,0.0,0.0,0.0,0.0,
1.7453080000000045,0.0,0.0,false,4303704.036463081,,38937.0,0.625,1305.0,1260.0000000000002,0.0,0.125,1.878661917,0.11362052018907336,0.0012207030000004337,-117807.0,9.125,-1387.5,-1260.0000000000002,0.0,0.0,2.7514645620000002,0.11327718662685818,0.004882811999999959,71583.0,1.125,1275.0,1260.0000000000002,0.0,0.0,4.097899971,0.11339163114759657,0.0012207029999995456,-96224.0,0.0,-1357.5,-1260.0000000000002,0.0,0.0,2.598876687,0.11324285327063666,0.0,1.4700000286102295,1.6799999475479126,78.86000061035156,0.0284423828125,-0.08306884765625,0.90203857421875,34.54999923706055,0.0,-103.0,-0.3270416259765625,-2.487060546875,Waiting,0.0,0.0,-113.0,0.0,0.0,0.0,0.0,0.0,
1.7921080000000074,0.0,0.0,false,4303798.2065613605,,38937.0,0.625,1297.5,0.0,0.0,0.125,1.87988262,0.0,0.0012207030000004337,-117807.0,5.125,-1402.5,-0.0,0.0,0.0,2.775878622,0.0,0.004882811999999959,71583.0,0.375,1282.5,0.0,0.0,0.0,4.107665595,0.0,0.004882811999999959,-96224.0,2.0,-1327.5,-0.0,0.0,0.0,2.597655984,0.0,0.0,1.4700000286102295,1.5499999523162842,79.05999755859375,-0.28662109375,-0.012939453125,1.01605224609375,34.54999923706055,0.0,-97.0,-0.32623291015625,-2.4959716796875,Waiting,0.0,0.0,-113.0,0.0,0.0,0.0,0.0,0.0,
1.8410600000000121,0.0,0.0,false,4303879.761919223,,38937.0,0.75,1177.5,0.0,0.0,0.125,1.8896482440000002,0.0,-0.0012207030000004337,-117807.0,0.75,-1132.5,-0.0,0.0,0.0,2.767333701,0.0,0.004882811999999959,71583.0,0.125,1200.0,0.0,0.0,0.0,4.116210516000001,0.0,0.009765623999999917,-96224.0,6.875,-1207.5,-0.0,0.0,0.0,2.596435281,0.0,0.0,1.350000023841858,0.7099999785423279,78.97000122070312,-0.37615966796875,-0.26080322265625,0.9852294921875,34.54999923706055,0.0,-353.0,-0.325653076171875,-2.5005950927734375,Waiting,0.0,0.0,-113.0,0.0,0.0,0.0,0.0,0.0,
1.8858000000000028,0.0,0.0,false,4303936.78202793,,39099.0,1.375,997.5,0.0,0.0,0.125,1.882324026,0.0,0.0012207030000004337,-117921.0,0.0,-750.0,-0.0,0.0,0.0,2.762450889,0.0,0.004882811999999959,71721.0,0.125,795.0,0.0,0.0,0.0,4.118651922000001,0.0,0.009765623999999917,-96397.0,8.375,-1020.0,-0.0,0.0,0.0,2.597655984,0.0,0.0012207029999999897,1.340000033378601,0.019999999552965164,78.77999877929688,-0.11138916015625,-0.1141357421875,1.0059814453125,34.54999923706055,0.0,-156.0,-0.3261566162109375,-2.5006103515625,Waiting,0.0,0.0,-113.0,0.0,0.0,0.0,0.0,0.0,
1.9313640000000014,0.0,0.0,false,4303969.2892261,,39099.0,1.75,907.5,0.0,0.0,0.125,1.8920896500000002,0.0,-0.0012207030000004337,-117921.0,0.125,-427.5,-0.0,0.0,0.0,2.768554404,0.0,0.0,71721.0,0.0,645.0,0.0,0.0,0.0,4.097899971,0.0,0.009765624000000805,-96397.0,8.25,-840.0,-0.0,0.0,0.0,2.598876687,0.0,0.0012207029999999897,1.2400000095367432,-0.5199999809265137,78.70999908447266,-0.29779052734375,0.0791015625,0.76123046875,34.54999923706055,0.0,4.0,-0.3274688720703125,-2.4967498779296875,Waiting,0.0,0.0,-113.0,0.0,0.0,0.0,0.0,0.0,
1.9805780000000086,0.0,0.0,false,4303989.194174757,,39099.0,2.625,802.5,0.0,0.0,0.125,1.8676755900000002,0.0,0.0012207030000004337,-118009.0,0.625,-465.0,-0.0,0.0,0.0,2.77099581,0.0,0.0,71827.0,0.0,652.5,0.0,0.0,0.0,4.0881343470000004,0.0,-0.019531248000000723,-96501.0,8.375,-712.5,-0.0,0.0,0.0,2.597655984,0.0,-0.0012207029999999897,1.25,-1.0700000524520874,78.7699966430664,-0.3721923828125,0.0184326171875,0.9500732421875,34.56999969482422,0.0,-71.0,-0.3292999267578125,-2.4889984130859375,Waiting,0.0,0.0,-113.0,0.0,0.0,0.0,0.0,0.0,
2.0266589999999995,0.0,0.0,false,4303984.623597209,,39211.0,2.75,630.0,0.0,0.0,0.125,1.8664548870000002,0.0,-0.0012207030000004337,-118009.0,0.5,-585.0,-0.0,0.0,0.0,2.77099581,0.0,0.003662108999999969,71827.0,0.375,547.5,0.0,0.0,0.0,4.0783687230000005,0.0,-0.014648435999999876,-96501.0,7.625,-540.0,-0.0,0.0,0.0,2.5903317660000003,0.0,0.0,1.1699999570846558,-1.6399999856948853,78.83000183105469,-0.2904052734375,-0.064697265625,0.75250244140625,34.56999969482422,0.0,-130.0,-0.3320770263671875,-2.47760009765625,Waiting,0.0,0.0,-113.0,0.0,0.0,0.0,0.0,0.0,
2.0831350000000093,0.0,0.0,false,4303955.599757428,,39211.0,2.375,405.0,0.0,0.0,0.125,1.87988262,0.0,0.0,-118009.0,1.125,-210.0,-0.0,0.0,0.0,2.77099581,0.0,0.0012207029999999897,71827.0,0.375,420.0,0.0,0.0,0.0,4.0808101290000005,0.0,-0.004882811999999959,-96501.0,7.0,-412.5,-0.0,0.0,0.0,2.597655984,0.0,0.0,1.149999976158142,-2.319999933242798,78.81999969482422,-0.31610107421875,-0.0166015625,0.8890380859375,34.56999969482422,0.0,-88.0,-0.3372344970703125,-2.4576568603515625,Waiting,0.0,0.0,-113.0,0.0,0.0,0.0,0.0,0.0,
2.1278410000000005,0.0,0.0,false,4303902.144892392,,39257.0,0.875,285.0,588.0,0.0,0.125,1.87988262,0.5533560492066917,0.0,-118013.0,3.125,-60.0,-588.0,0.0,0.0,2.78320284,1.9228160581136373,0.0,71876.0,0.125,300.0,588.0,0.0,0.0,4.07714802,4.40175868900686,0.0,-96548.0,4.875,-285.0,-588.0,0.0,0.0,2.598876687,3.0252667311543298,0.0,1.159999966621399,-2.7300000190734863,78.73999786376953,-0.12847900390625,-0.0140380859375,1.1092529296875,34.56999969482422,0.0,-50.0,-0.342010498046875,-2.439849853515625,Waiting,0.0,0.0,-113.0,0.0,0.0,0.0,0.0,0.0,
2.175224000000002,0.0,0.0,false,4303836.191515151,,39257.0,0.25,210.0,588.0,0.0,1.25,1.87988262,0.5533560492066917,0.0,-118013.0,7.875,-225.0,-588.0,0.0,4.875,2.767333701,1.9228160581136373,-0.004882811999999959,71876.0,0.375,210.0,588.0,0.0,1.125,4.007567949,4.40175868900686,0.0,-96548.0,0.25,-150.0,-588.0,0.0,7.125,2.501220447,3.0252667311543298,0.0,1.149999976158142,-2.4700000286102295,78.79000091552734,0.042724609375,-0.10089111328125,1.0057373046875,34.56999969482422,0.0,-102.0,-0.34710693359375,-2.4225311279296875,Waiting,0.0,0.0,-113.0,0.0,0.0,0.0,0.0,0.0,
2.218098000000013,0.0,0.0,false,4303745.844289609,,39285.0,0.25,172.5,588.0,0.0,1.75,2.044677525,0.5533560492066917,0.0,-118063.0,9.875,-315.0,-588.0,0.0,4.5,3.087157887,1.9228160581136373,0.0024414059999999793,71913.0,0.75,217.5,588.0,0.0,1.5,3.7866207060000003,4.40175868900686,4.867330087,-96569.0,0.0,-127.5,-588.0,0.0,5.25,2.159423607,3.0252667311543298,4.842519542,1.1799999475479126,-2.299999952316284,79.11000061035156,0.0478515625,0.0498046875,1.0341796875,34.56999969482422,0.0,44.0,-0.3534698486328125,-2.4007568359375,Waiting,0.0,0.0,-113.0,0.0,0.0,0.0,0.0,0.0,
2.268916000000012,0.0,0.0,false,4303631.125378558,,39285.0,0.375,172.5,588.0,0.0,0.5,2.252197035,0.5533560492066917,0.20874021300000045,-118063.0,9.875,-195.0,-588.0,0.0,1.5,3.502196907,1.9228160581136373,0.39916988100000017,71913.0,1.5,232.5,588.0,0.0,0.125,3.609618771,4.40175868900686,-0.2319335699999998,-96569.0,0.0,-90.0,-588.0,0.0,1.875,1.809081846,3.0252667311543298,-0.33813473100000024,1.2200000286102295,-2.240000009536743,79.11000061035156,-0.056884765625,0.02557373046875,1.04888916015625,34.56999969482422,0.0,0.0,-0.3575439453125,-2.3901519775390625,Waiting,0.0,0.0,-113.0,0.0,0.0,0.0,0.0,0.0,
2.326965000000011,0.0,0.0,false,4303503.336360884,,39285.0,0.875,195.0,588.0,0.0,0.375,2.3229978090000003,0.5533560492066917,0.17211912299999987,-118063.0,12.125,-180.0,-588.0,0.0,1.375,3.8513179650000002,1.9228160581136373,0.38574214799999984,71913.0,1.875,165.0,588.0,0.0,0.0,3.5241695610000003,4.40175868900686,-0.1611327960000004,-96580.0,0.0,-60.0,-588.0,0.0,2.25,1.4770506300000001,3.0252667311543298,-0.36621089999999956,1.25,-2.130000114440918,78.58000183105469,0.04754638671875,0.0419921875,1.01123046875,34.56999969482422,0.0,36.0,-0.3626708984375,-2.3905487060546875,Waiting,0.0,0.0,-113.0,0.0,0.0,0.0,0.0,0.0,
2.3715860000000104,0.0,0.0,false,4303351.21307506,,39317.0,1.125,187.5,588.0,0.0,0.125,2.337646245,0.5533560492066917,0.07568358600000025,-118086.0,15.125,-150.0,-588.0,0.0,0.875,4.228515192000001,1.9228160581136373,0.38940425700000025,71939.0,2.375,172.5,588.0,0.0,0.0,3.5156246400000004,4.40175868900686,-0.0646972589999999,-96580.0,0.25,-75.0,-588.0,0.0,2.25,1.1865233160000002,3.0252667311543298,-0.3198241860000004,1.2599999904632568,-2.009999990463257,77.98999786376953,-0.06890869140625,0.06170654296875,0.922119140625,34.56999969482422,0.0,32.0,-0.36639404296875,-2.3916778564453125,Waiting,0.0,0.0,-113.0,0.0,0.0,0.0,0.0,0.0,
2.421116000000009,0.0,0.0,false,4303174.777609683,,39317.0,1.375,210.0,588.0,0.0,0.125,2.341308354,0.5533560492066917,0.004882811999999959,-118086.0,17.125,-195.0,-588.0,0.0,0.125,4.472655792,1.9228160581136373,0.2966308289999997,71939.0,2.875,210.0,588.0,0.0,0.0,3.497314095,4.40175868900686,-0.019531248000000723,-96580.0,1.125,-90.0,-588.0,0.0,1.875,0.902099517,3.0252667311543298,-0.2893066110000002,1.350000023841858,-2.0,77.1500015258789,-0.072509765625,0.072021484375,1.05133056640625,34.56999969482422,0.0,38.0,-0.3697509765625,-2.39202880859375,Waiting,0.0,0.0,-113.0,0.0,0.0,0.0,0.0,0.0,
2.4731140000000016,0.0,0.0,false,4302985.940713854,,39362.0,1.5,255.0,588.0,0.0,0.125,2.342529057,0.5533560492066917,0.0012207029999995456,-118134.0,17.75,-285.0,-588.0,0.0,0.0,4.580077656,1.9228160581136373,0.262451145,71978.0,3.375,232.5,588.0,0.0,0.0,3.510741828,4.40175868900686,0.0,-96587.0,1.75,-37.5,-588.0,0.0,0.375,0.7763671080000001,3.0252667311543298,-0.2844237989999998,1.2799999713897705,-1.940000057220459,75.69999694824219,-0.0517578125,-0.05487060546875,1.0447998046875,34.4900016784668,0.0,-80.0,-0.3744964599609375,-2.3923187255859375,Waiting,0.0,0.0,-113.0,0.0,0.0,0.0,0.0,0.0,
2.527362000000008,0.0,0.0,false,4302772.82854551,,39362.0,1.625,307.5,588.0,0.0,0.125,2.3791501470000003,0.5533560492066917,-0.0012207029999995456,-118134.0,18.0,-262.5,-588.0,0.0,0.0,4.575194844,1.9228160581136373,0.07202147699999983,71978.0,3.25,262.5,588.0,0.0,0.0,3.514403937,4.40175868900686,0.0,-96587.0,2.625,-22.5,-588.0,0.0,0.0,0.721435473,3.0252667311543298,-0.12573240899999982,1.2899999618530273,-1.840000033378601,74.8499984741211,0.04840087890625,0.02996826171875,0.95281982421875,34.4900016784668,0.0,28.0,-0.3772430419921875,-2.3927001953125,Waiting,0.0,0.0,-113.0,0.0,0.0,0.0,0.0,0.0,
2.5780550000000075,0.0,0.0,false,4302535.46311971,,39362.0,1.75,330.0,588.0,0.0,0.125,2.352294681,0.5533560492066917,0.0012207029999995456,-118182.0,18.5,-262.5,-588.0,0.0,0.0,4.575194844,1.9228160581136373,0.0,72040.0,3.375,382.5,588.0,0.0,0.0,3.514403937,4.40175868900686,0.0012207030000004337,-96618.0,2.75,-135.0,-588.0,0.0,0.0,0.688476492,3.0252667311543298,-0.04882812000000003,1.3899999856948853,-1.8600000143051147,73.44999694824219,-0.0606689453125,0.05938720703125,1.16314697265625,34.4900016784668,0.0,23.0,-0.3809661865234375,-2.393280029296875,Waiting,0.0,0.0,-113.0,0.0,0.0,0.0,0.0,0.0,
2.6273340000000025,0.0,0.0,false,4302273.866424901,,39419.0,1.75,352.5,588.0,0.0,0.125,2.341308354,0.5533560492066917,-0.0012207029999995456,-118182.0,18.875,-315.0,-588.0,0.0,0.0,4.576415547,1.9228160581136373,0.0,72040.0,3.0,427.5,588.0,0.0,0.0,3.509521125,4.40175868900686,0.0,-96618.0,2.625,-270.0,-588.0,0.0,0.0,0.682372977,3.0252667311543298,-0.029296872000000196,1.559999942779541,-1.899999976158142,70.97000122070312,-0.0694580078125,0.0830078125,0.97784423828125,34.4900016784668,0.0,41.0,-0.3857269287109375,-2.3929595947265625,Waiting,0.0,0.0,-113.0,0.0,0.0,0.0,0.0,0.0,
2.671043000000005,0.0,0.0,false,4301999.934743202,,39419.0,1.75,420.0,588.0,0.0,0.125,2.348632572,0.5533560492066917,0.0012207029999995456,-118182.0,17.625,-412.5,-588.0,0.0,0.0,4.580077656,1.9228160581136373,0.0,72040.0,2.875,435.0,588.0,0.0,0.0,3.510741828,4.40175868900686,-0.006103515000000392,-96618.0,2.0,-360.0,-588.0,0.0,0.0,0.688476492,3.0252667311543298,-0.003662108999999969,1.649999976158142,-1.7000000476837158,68.79000091552734,0.07525634765625,-0.0052490234375,0.970458984375,34.4900016784668,0.0,6.0,-0.38775634765625,-2.392730712890625,Waiting,0.0,0.0,-113.0,0.0,0.0,0.0,0.0,0.0,
2.730351999999999,0.0,0.0,false,4301701.189972818,,39497.0,1.5,472.5,588.0,0.0,0.125,2.3242185120000003,0.5533560492066917,0.0,-118244.0,18.0,-352.5,-588.0,0.0,0.0,4.56542922,1.9228160581136373,0.0,72120.0,2.875,502.5,588.0,0.0,0.0,3.509521125,4.40175868900686,0.0012207030000004337,-96678.0,1.875,-390.0,-588.0,0.0,0.0,0.677490165,3.0252667311543298,-0.006103514999999948,1.7599999904632568,-1.5099999904632568,65.66999816894531,0.04620361328125,-0.10479736328125,1.1202392578125,34.4900016784668,0.0,-95.0,-0.38751220703125,-2.393768310546875,Waiting,0.0,0.0,-113.0,0.0,0.0,0.0,0.0,0.0,
2.771665000000008,0.0,0.0,false,4301378.27294686,,39497.0,1.125,547.5,588.0,0.0,0.125,2.34374976,0.5533560492066917,0.0,-118244.0,19.5,-397.5,-588.0,0.0,0.0,4.581298359,1.9228160581136373,0.004882811999999959,72120.0,2.5,540.0,588.0,0.0,0.0,3.510741828,4.40175868900686,0.0,-96678.0,1.875,-427.5,-588.0,0.0,0.0,0.682372977,3.0252667311543298,0.0012207029999999897,1.7899999618530273,-1.3899999856948853,63.18000030517578,-0.0079345703125,0.009765625,1.07513427734375,34.4900016784668,0.0,-13.0,-0.3873443603515625,-2.3950653076171875,Waiting,0.0,0.0,-113.0,0.0,0.0,0.0,0.0,0.0,
2.8192320000000035,0.0,0.0,false,4301031.205553879,,39591.0,1.0,570.0,588.0,0.0,0.125,2.338866948,0.5533560492066917,0.0,-118311.0,19.75,-375.0,-588.0,0.0,0.0,4.581298359,1.9228160581136373,0.0,72215.0,2.25,592.5,588.0,0.0,0.0,3.510741828,4.40175868900686,-0.0012207030000004337,-96755.0,1.75,-472.5,-588.0,0.0,0.0,0.68359368,3.0252667311543298,0.0,1.8799999952316284,-1.2300000190734863,59.619998931884766,-0.01800537109375,-0.04296875,1.0054931640625,34.4900016784668,0.0,-63.0,-0.3872833251953125,-2.3961944580078125,Waiting,0.0,0.0,-113.0,0.0,0.0,0.0,0.0,0.0,
2.882152000000002,0.0,0.0,false,4301259.406155703,,39591.0,0.875,600.0,588.0,0.0,0.125,2.342529057,0.5533560492066917,0.0,-118311.0,20.375,-480.0,-588.0,0.0,0.0,4.578856953,1.9228160581136373,0.0,72215.0,2.125,622.5,588.0,0.0,0.0,3.509521125,4.40175868900686,0.0,-96755.0,1.625,-495.0,-588.0,0.0,0.0,0.678710868,3.0252667311543298,0.0,1.899999976158142,-1.100000023841858,56.83000183105469,-0.00970458984375,0.10614013671875,0.9891357421875,34.4900016784668,0.0,66.0,-0.3869171142578125,-2.3968353271484375,Waiting,0.0,0.0,-113.0,0.0,0.0,0.0,0.0,0.0,
2.9319840000000115,0.0,0.0,false,4301462.933333334,,39591.0,0.5,630.0,588.0,0.0,0.125,2.352294681,0.5533560492066917,0.0,-118423.0,18.375,-675.0,-588.0,0.0,0.0,4.578856953,1.9228160581136373,0.0,72318.0,1.75,637.5,588.0,0.0,0.0,3.509521125,4.40175868900686,0.0,-96842.0,1.5,-532.5,-588.0,0.0,0.0,0.68359368,3.0252667311543298,0.0,2.0,-0.8799999952316284,52.970001220703125,0.00250244140625,0.064453125,0.97412109375,34.4900016784668,0.0,34.0,-0.385986328125,-2.3975830078125,Waiting,0.0,0.0,-113.0,0.0,0.0,0.0,0.0,0.0,
2.98758600000001,0.0,0.0,false,4301653.782870929,,39695.0,0.5,660.0,588.0,0.0,0.125,2.344970463,0.5533560492066917,0.0,-118423.0,14.875,-690.0,-588.0,0.0,0.0,4.586181171000001,1.9228160581136373,0.0,72318.0,1.5,652.5,588.0,0.0,0.0,3.511962531,4.40175868900686,0.0,-96842.0,1.5,-547.5,-588.0,0.0,0.0,0.681152274,3.0252667311543298,0.0,2.0299999713897705,-0.7400000095367432,50.08000183105469,-0.01611328125,0.111083984375,1.14288330078125,34.470001220703125,0.0,53.0,-0.385040283203125,-2.39813232421875,Waiting,0.0,0.0,-113.0,0.0,0.0,0.0,0.0,0.0,
3.0339020000000017,0.0,0.0,false,4301819.993970456,,39695.0,0.375,660.0,588.0,0.0,0.125,2.341308354,0.5533560492066917,0.0012207030000004337,-118423.0,15.125,-660.0,-588.0,0.0,0.0,4.581298359,1.9228160581136373,0.0,72318.0,1.375,660.0,588.0,0.0,0.0,3.492431283,4.40175868900686,0.0,-96842.0,1.5,-547.5,-588.0,0.0,0.0,0.678710868,3.0252667311543298,0.0,1.9900000095367432,-0.5099999904632568,47.18000030517578,0.0675048828125,0.05462646484375,0.5794677734375,34.470001220703125,0.0,74.0,-0.3846588134765625,-2.3985443115234375,Waiting,0.0,0.0,-113.0,0.0,0.0,0.0,0.0,0.0,
3.0853120000000054,0.0,0.0,false,4301961.627486438,,39801.0,0.375,660.0,588.0,0.0,0.125,2.338866948,0.5533560492066917,-0.0012207030000004337,-118489.0,16.0,-495.0,-588.0,0.0,0.0,4.578856953,1.9228160581136373,0.0,72426.0,1.0,675.0,588.0,0.0,0.0,3.505859016,4.40175868900686,0.0,-96930.0,1.375,-547.5,-588.0,0.0,0.0,0.6982421160000001,3.0252667311543298,-0.004882811999999959,2.0999999046325684,-0.44999998807907104,43.29999923706055,-0.0401611328125,0.03515625,0.85284423828125,34.470001220703125,0.0,-21.0,-0.384521484375,-2.3991546630859375,Waiting,0.0,0.0,-113.0,0.0,0.0,0.0,0.0,0.0,
3.133873000000007,0.0,0.0,false,4302078.705634227,,39801.0,0.375,645.0,588.0,0.0,0.125,2.342529057,0.5533560492066917,0.0,-118489.0,21.625,-232.5,-588.0,0.0,0.0,4.580077656,1.9228160581136373,0.0012207030000004337,72426.0,0.75,682.5,588.0,0.0,0.0,3.50341761,4.40175868900686,0.0,-96930.0,1.5,-555.0,-588.0,0.0,0.0,0.677490165,3.0252667311543298,-0.004882811999999959,2.130000114440918,-0.33000001311302185,40.36000061035156,0.05078125,0.00555419921875,1.0078125,34.470001220703125,0.0,22.0,-0.3844146728515625,-2.3990478515625,Waiting,0.0,0.0,-113.0,0.0,0.0,0.0,0.0,0.0,
3.1833430000000082,0.0,0.0,false,4302183.173493976,,39900.0,0.375,622.5,588.0,0.0,0.125,2.342529057,0.5533560492066917,0.0012207030000004337,-118588.0,23.75,-442.5,-588.0,0.0,0.0,4.575194844,1.9228160581136373,-0.0012207030000004337,72535.0,0.75,667.5,588.0,0.0,0.0,3.504638313,4.40175868900686,-0.004882811999999959,-97019.0,1.5,-547.5,-588.0,0.0,0.0,0.678710868,3.0252667311543298,0.0,2.1700000762939453,-0.1599999964237213,36.380001068115234,0.06689453125,3.0517578125E-4,0.86181640625,34.470001220703125,0.0,36.0,-0.3842010498046875,-2.3993988037109375,Waiting,0.0,0.0,-113.0,0.0,0.0,0.0,0.0,0.0,
3.23776400000001,0.0,0.0,false,4302263.087021981,,39900.0,0.125,607.5,0.0,0.0,0.125,2.34374976,0.0,-0.0024414059999999793,-118588.0,13.875,-757.5,-0.0,0.0,0.0,4.578856953,0.0,0.0,72535.0,0.375,652.5,0.0,0.0,0.0,3.505859016,0.0,0.0,-97019.0,1.25,-547.5,-0.0,0.0,0.0,0.677490165,0.0,0.0,2.180000066757202,0.0,33.40999984741211,0.03961181640625,0.04461669921875,1.08026123046875,34.470001220703125,0.0,35.0,-0.383697509765625,-2.4002838134765625,Waiting,0.0,0.0,-113.0,0.0,0.0,0.0,0.0,0.0,
3.289353000000003,0.0,0.0,false,4302317.84948826,,39900.0,0.125,577.5,0.0,0.0,1.25,2.347411869,0.0,0.0,-118588.0,6.25,-577.5,-0.0,0.0,5.375,4.50439407,0.0,0.0,72619.0,0.0,540.0,0.0,0.0,1.875,3.608398068,0.0,0.0,-97097.0,0.0,-495.0,-0.0,0.0,8.0,0.8276366340000001,0.0,0.0,2.190000057220459,0.15000000596046448,29.979999542236328,-0.02337646484375,0.0150146484375,1.04705810546875,34.470001220703125,0.0,-35.0,-0.3825836181640625,-2.401824951171875,Waiting,0.0,0.0,-113.0,0.0,0.0,0.0,0.0,0.0,
3.342249000000011,0.0,0.0,false,4302360.050556726,,39985.0,0.125,502.5,0.0,0.0,0.375,2.177734152,0.0,0.0012207029999995456,-118632.0,9.25,-142.5,-0.0,0.0,2.375,4.0832515350000005,0.0,-0.13671873599999973,72619.0,0.0,472.5,0.0,0.0,0.625,3.8415523410000003,0.0,0.10986326999999996,-97097.0,0.0,-442.5,-0.0,0.0,1.375,1.248779169,0.0,0.14892576600000007,2.25,0.17000000178813934,27.270000457763672,0.14727783203125,0.09136962890625,0.99664306640625,34.470001220703125,0.0,152.0,-0.3823699951171875,-2.4035491943359375,Waiting,0.0,0.0,-113.0,0.0,0.0,0.0,0.0,0.0,
3.393348000000013,0.0,0.0,false,4302377.793020457,,39985.0,0.25,457.5,0.0,0.0,0.625,1.9946287020000002,0.0,-0.20751951000000002,-118632.0,12.125,-127.5,-0.0,0.0,1.625,3.714599229,0.0,-0.417480426,72619.0,0.0,412.5,0.0,0.0,0.125,4.008788652,0.0,0.24658200600000058,-97097.0,0.0,-367.5,-0.0,0.0,1.375,1.5783689790000002,0.0,0.422363238,2.4800000190734863,0.5099999904632568,25.959999084472656,0.18243408203125,0.09814453125,1.02197265625,34.470001220703125,0.0,179.0,-0.3804931640625,-2.4049224853515625,Waiting,0.0,0.0,-113.0,0.0,0.0,0.0,0.0,0.0,
3.446840000000011,0.0,0.0,false,4302371.098947369,,40045.0,0.375,405.0,0.0,0.0,0.375,1.8920896500000002,0.0,-0.20751951000000002,-118673.0,11.5,-277.5,-0.0,0.0,2.125,3.386230122,0.0,-0.369873009,72670.0,0.0,315.0,0.0,0.0,0.125,4.091796456,0.0,0.1635742020000004,-97138.0,0.0,-225.0,-0.0,0.0,1.75,1.9494626910000001,0.0,0.35522457300000054,2.5,0.5699999928474426,25.549999237060547,-0.11273193359375,4.8828125E-4,1.13861083984375,34.470001220703125,0.0,-133.0,-0.3773193359375,-2.4061279296875,Waiting,0.0,0.0,-113.0,0.0,0.0,0.0,0.0,0.0,
3.5045260000000127,0.0,0.0,false,4302351.891761876,,40045.0,0.125,202.5,0.0,0.0,0.25,1.85546856,0.0,-0.09643553700000052,-118673.0,10.75,-150.0,-0.0,0.0,3.25,2.977294617,0.0,-0.363769494,72670.0,0.0,172.5,0.0,0.0,0.0,4.106444892,0.0,-4.877095711,-97138.0,0.0,-120.0,-0.0,0.0,1.75,2.365722414,0.0,0.3979491779999993,2.1600000858306885,0.25999999046325684,25.440000534057617,-0.07977294921875,-0.1585693359375,1.02020263671875,34.4900016784668,0.0,-160.0,-0.3753509521484375,-2.408050537109375,Waiting,0.0,0.0,-113.0,0.0,0.0,0.0,0.0,0.0,
3.552716,0.0,0.0,false,4302308.284941388,,40063.0,0.125,120.0,8.4,0.0,0.125,1.859130669,4.962345321761238,-0.008544920999999484,-118687.0,12.5,-90.0,-8.4,0.0,1.375,2.779540731,4.947350321796205,-0.3381347309999998,72688.0,0.0,112.5,8.4,0.0,0.0,4.105224189,4.952348655117882,0.006103514999999504,-97156.0,0.0,-112.5,-8.4,0.0,0.875,2.546386458,4.945850821799702,0.36621090000000045,1.9800000190734863,0.20999999344348907,25.360000610351562,-0.01092529296875,0.0576171875,1.02069091796875,34.4900016784668,0.0,-3.0,-0.3755340576171875,-2.4106903076171875,Waiting,0.0,0.0,-113.0,0.0,0.0,0.0,0.0,0.0,
3.6049619999999996,0.0,0.0,false,4302240.300480769,,40063.0,0.125,60.0,8.4,0.0,0.125,1.860351372,4.961793779881796,0.003662108999999525,-118687.0,12.5,-67.5,-8.4,0.0,0.125,2.714843472,4.946800446542103,-0.19042966800000016,72688.0,0.0,52.5,8.4,0.0,0.0,4.100341377,4.951798224322001,0.0,-97156.0,0.0,-97.5,-8.4,0.0,0.0,2.601318093,4.945301113208135,-4.7595117380000005,2.0899999141693115,0.28999999165534973,25.559999465942383,0.01971435546875,0.13433837890625,0.99468994140625,34.4900016784668,0.0,55.0,-0.375762939453125,-2.4138031005859375,Waiting,0.0,0.0,-113.0,0.0,0.0,0.0,0.0,0.0,
3.6603150000000024,0.0,0.0,false,4302159.235806549,,40069.0,0.125,37.5,8.4,0.0,0.125,1.8652341840000002,0.001516759893629286,0.0,-118704.0,11.5,-82.5,-8.4,0.0,0.0,2.713622769,0.001512176614337497,-0.04882812000000003,72693.0,0.0,30.0,8.4,0.0,0.0,4.0881343470000004,0.0015137043741014268,-0.006103514999999504,-97171.0,0.0,-90.0,-8.4,0.0,0.0,2.5878903600000003,0.0015117182864083183,0.031738278000000175,2.1500000953674316,0.3499999940395355,25.760000228881836,0.02655029296875,0.009033203125,0.99017333984375,34.4900016784668,0.0,6.0,-0.3752593994140625,-2.4149322509765625,Waiting,0.0,0.0,-113.0,0.0,0.0,0.0,0.0,0.0,
3.7088310000000058,0.0,0.0,false,4302053.83063063,,40069.0,0.125,45.0,8.4,0.0,0.125,1.8676755900000002,0.003171438132392036,0.0,-118704.0,11.0,-112.5,-8.4,0.0,0.0,2.713622769,0.0031618548181321883,0.0,72693.0,0.0,45.0,8.4,0.0,0.0,4.0783687230000005,0.003165049256218804,-0.01342773300000033,-97171.0,0.0,-90.0,-8.4,0.0,0.0,2.5891110630000003,0.003160896486706204,0.0,2.069999933242798,0.4399999976158142,25.760000228881836,0.0093994140625,0.00604248046875,1.03863525390625,34.4900016784668,0.0,-12.0,-0.3746185302734375,-2.4156036376953125,Waiting,0.0,0.0,-113.0,0.0,0.0,0.0,0.0,0.0,
3.7563500000000056,0.0,0.0,false,4301924.106874812,,40069.0,0.125,82.5,8.4,0.0,0.125,1.860351372,0.003171438132392036,0.0012207030000004337,-118704.0,11.125,-120.0,-8.4,0.0,0.0,2.713622769,0.0031618548181321883,0.0,72693.0,0.0,75.0,8.4,0.0,0.0,4.07714802,0.003165049256218804,-0.009765623999999917,-97186.0,0.0,-75.0,-8.4,0.0,0.0,2.5891110630000003,0.003160896486706204,0.0,2.059999942779541,0.44999998807907104,25.729999542236328,-0.02728271484375,0.08203125,1.07269287109375,34.4900016784668,0.0,-13.0,-0.3737945556640625,-2.4170684814453125,Waiting,0.0,0.0,-113.0,0.0,0.0,0.0,0.0,0.0,
3.8138870000000025,0.0,0.0,false,4301770.086434574,,40085.0,0.125,90.0,0.0,0.0,0.125,1.860351372,0.0,0.0,-118724.0,10.25,-120.0,-0.0,0.0,0.0,2.713622769,0.0,0.0,72708.0,0.0,90.0,0.0,0.0,0.0,4.0783687230000005,0.0,0.0,-97186.0,0.0,-90.0,-0.0,0.0,0.0,2.5891110630000003,0.0,0.0,2.0799999237060547,0.46000000834465027,25.84000015258789,-0.0400390625,0.01641845703125,1.08270263671875,34.4900016784668,0.0,-53.0,-0.373779296875,-2.4177398681640625,Waiting,0.0,0.0,-113.0,0.0,0.0,0.0,0.0,0.0,
3.8688540000000065,0.0,0.0,false,4301603.667566757,,40085.0,0.125,82.5,0.0,0.0,0.125,1.8640134810000002,0.0,0.0,-118724.0,9.5,-142.5,-0.0,0.0,0.0,2.714843472,0.0,0.0,72708.0,0.0,90.0,0.0,0.0,0.0,4.07714802,0.0,0.0012207030000004337,-97186.0,0.0,-120.0,-0.0,0.0,0.0,2.5891110630000003,0.0,0.0,2.0299999713897705,0.41999998688697815,26.030000686645508,-0.010498046875,0.01220703125,1.05889892578125,34.4900016784668,0.0,-27.0,-0.3742218017578125,-2.4176788330078125,Waiting,0.0,0.0,-113.0,0.0,0.0,0.0,0.0,0.0,
3.933698000000004,0.0,0.0,false,4301409.00059988,,40097.0,0.25,75.0,588.0,0.0,0.125,1.85546856,0.0,0.003662108999999525,-118747.0,11.625,-135.0,-588.0,0.0,0.0,2.713622769,0.0,0.0,72721.0,0.0,67.5,588.0,0.0,0.0,4.07714802,0.0,0.0,-97204.0,0.25,-120.0,-588.0,0.0,0.0,2.5891110630000003,0.0,0.0,2.0,0.3700000047683716,26.110000610351562,0.0667724609375,-0.0150146484375,1.01104736328125,34.4900016784668,0.0,31.0,-0.3751983642578125,-2.4177398681640625,Waiting,0.0,0.0,-113.0,0.0,0.0,0.0,0.0,0.0,
3.9992390000000015,0.0,0.0,false,4301190.097751125,,40128.0,0.25,202.5,NaN,0.0,0.0,1.8725584020000001,NaN,0.0,-118781.0,8.5,-210.0,NaN,0.0,0.0,2.713622769,NaN,0.0012207029999999897,72761.0,0.0,277.5,NaN,0.0,0.0,4.072265208,NaN,0.0,-97247.0,0.0,-270.0,NaN,0.0,0.0,2.5878903600000003,NaN,0.0,2.0199999809265137,0.7699999809265137,26.3700008392334,0.060302734375,0.0352783203125,1.04608154296875,34.47999954223633,0.0,40.0,-0.3739013671875,-2.4202880859375,Waiting,0.0,0.0,-113.0,0.0,0.0,0.0,0.0,0.0,
4.132869000000006,0.0,0.0,false,4300942.369304556,,40128.0,0.125,90.0,NaN,0.0,0.0,1.8652341840000002,NaN,0.0,-118822.0,6.5,-247.5,NaN,0.0,0.0,2.705077848,NaN,0.0,72774.0,0.0,60.0,NaN,0.0,0.0,4.074706614,NaN,0.0,-97265.0,0.0,-97.5,NaN,0.0,0.0,2.5878903600000003,NaN,0.0,1.9299999475479126,0.7200000286102295,26.540000915527344,-0.00604248046875,0.06756591796875,0.856201171875,34.47999954223633,0.0,2.0,-0.371795654296875,-2.4211883544921875,Waiting,0.0,0.0,-113.0,0.0,0.0,0.0,0.0,0.0,
4.210005000000004,0.0,0.0,false,4300669.837578664,,40146.0,0.375,157.5,NaN,0.0,0.0,1.8640134810000002,NaN,0.0,-118839.0,5.75,-105.0,NaN,0.0,0.0,2.714843472,NaN,0.0,72797.0,0.0,157.5,NaN,0.0,0.0,4.046630445,NaN,0.0,-97290.0,0.0,-180.0,NaN,0.0,0.0,2.5891110630000003,NaN,0.0,1.909999966621399,0.4699999988079071,26.719999313354492,-0.0653076171875,0.01068115234375,1.0372314453125,34.47999954223633,0.0,-76.0,-0.3733367919921875,-2.4197235107421875,Waiting,0.0,0.0,-113.0,0.0,0.0,0.0,0.0,0.0,
4.35090800000001,0.0,0.0,false,4300366.844817256,,40170.0,0.625,142.5,861.767950204694,0.0,0.0,1.876220511,0.64773214563894,0.0012207030000004337,-118839.0,14.125,-195.0,-861.767950204694,0.0,0.0,2.713622769,0.6457748567218198,0.0,72833.0,1.125,142.5,861.767950204694,0.0,0.0,4.073485911000001,0.6464272863608599,0.0012207030000004337,-97330.0,0.875,-195.0,-861.767950204694,0.0,0.0,2.5891110630000003,0.6455791278301078,0.0,1.850000023841858,0.5199999809265137,26.90999984741211,0.13787841796875,0.00177001953125,0.918212890625,34.47999954223633,0.0,102.0,-0.375091552734375,-2.419677734375,Waiting,0.0,0.0,-113.0,0.0,0.0,0.0,0.0,0.0,
4.4621330000000015,0.0,0.0,false,4300033.427972447,,40205.0,1.125,345.0,871.0216759644964,0.0,2.25,1.90429668,0.6555302227680166,-0.0024414059999999793,-118878.0,20.25,-330.0,-871.0216759644964,0.0,2.25,2.775878622,0.6535493699594911,0.0,72833.0,2.625,322.5,871.0216759644964,0.0,2.5,4.232177301,0.6542096542289997,-0.010986327000000351,-97330.0,1.75,-375.0,-871.0216759644964,0.0,2.625,2.756347374,0.6533512846786386,0.0,1.8899999856948853,1.0299999713897705,27.209999084472656,0.10980224609375,0.06097412109375,1.23358154296875,34.47999954223633,0.0,87.0,-0.3695831298828125,-2.4227752685546875,Waiting,0.0,0.0,-113.0,0.0,0.0,0.0,0.0,0.0,
4.545573000000004,0.0,0.0,false,4300253.738922155,,40258.0,2.375,307.5,889.7757245508557,0.0,0.375,2.39257788,0.6706361266831238,0.0,-118956.0,19.25,-600.0,-889.7757245508557,0.0,0.125,3.2604977130000004,0.6686096275090208,0.0,72872.0,4.25,375.0,889.7757245508557,0.0,0.125,4.621581558,0.6692851272337218,0.0,-97391.0,2.875,-442.5,-889.7757245508557,0.0,0.25,3.1530758490000004,0.6684069775916105,0.0,2.759999990463257,1.2400000095367432,27.579999923706055,-0.0433349609375,0.16168212890625,0.92022705078125,34.5099983215332,0.0,-1.0,-0.3527374267578125,-2.425262451171875,Waiting,0.0,0.0,-113.0,0.0,0.0,0.0,0.0,0.0,
4.669538,0.0,0.0,false,4300444.477701287,,40331.0,2.75,502.5,889.7757245508557,0.0,0.5,2.70996066,0.6706361266831238,0.4968261209999998,-119056.0,19.0,-630.0,-889.7757245508557,0.0,0.125,3.5729976810000004,0.6686096275090208,0.5053710420000002,72953.0,4.125,532.5,889.7757245508557,0.0,0.0,4.837645989,0.6692851272337218,0.36865230599999954,-97473.0,3.125,-547.5,-889.7757245508557,0.0,0.25,3.3679195770000003,0.6684069775916105,0.38208003899999987,3.5399999618530273,1.1299999952316284,27.360000610351562,-0.02947998046875,0.234619140625,0.935546875,34.5099983215332,0.0,38.0,-0.3355712890625,-2.415924072265625,Waiting,0.0,0.0,-113.0,0.0,0.0,0.0,0.0,0.0,
4.761785000000003,0.0,0.0,false,4300610.355475763,,40445.0,1.875,720.0,867.9277389276137,0.0,0.25,2.706298551,4.311050650990662,0.15624998400000045,-119164.0,19.125,-615.0,-867.9277389276137,0.0,0.125,3.5839840080000003,4.29802370502675,0.15136717200000005,73060.0,3.625,667.5,867.9277389276137,0.0,4.5,4.7607417000000005,4.302366020348054,0.11718748800000078,-97575.0,2.875,-667.5,-867.9277389276137,0.0,3.0,3.409423479,4.296721010430359,0.17211912299999987,4.03000020980835,0.9200000166893005,26.770000457763672,0.08221435546875,-0.0302734375,0.96917724609375,34.5099983215332,0.0,15.0,-0.3295440673828125,-2.398284912109375,Waiting,0.0,0.0,-113.0,0.0,0.0,0.0,0.0,0.0,
4.854646000000008,0.0,0.0,false,4300748.367334729,,40445.0,1.0,817.5,867.9277389276137,0.0,1.5,2.298583749,4.311050650990662,0.0,-119164.0,24.125,-345.0,-867.9277389276137,0.0,2.25,3.143310225,4.29802370502675,-0.18920896500000017,73184.0,2.75,787.5,867.9277389276137,0.0,0.875,4.208983944,4.302366020348054,-0.3466796520000006,-97690.0,2.75,-720.0,-867.9277389276137,0.0,1.5,2.9296872,4.296721010430359,-0.17822263799999982,3.869999885559082,1.4500000476837158,25.899999618530273,0.22393798828125,-0.31396484375,1.13134765625,34.5099983215332,0.0,4.0,-0.326690673828125,-2.3813018798828125,Waiting,0.0,0.0,-113.0,0.0,0.0,0.0,0.0,0.0,
4.91371100000001,0.0,0.0,false,4300862.160287081,,40584.0,0.375,915.0,867.9277389276137,0.0,1.125,1.850585748,4.311050650990662,-0.417480426,-119217.0,29.125,-345.0,-867.9277389276137,0.0,1.625,2.6953122240000003,4.29802370502675,-0.4296874559999999,73184.0,3.25,735.0,867.9277389276137,0.0,0.375,3.768310161,4.302366020348054,-0.44311518900000024,-97690.0,3.5,-667.5,-867.9277389276137,0.0,1.875,2.550048567,4.296721010430359,-0.41259761400000006,2.559999942779541,2.059999942779541,25.290000915527344,0.17535400390625,-0.45416259765625,1.12060546875,34.5099983215332,0.0,-93.0,-0.3229522705078125,-2.3788299560546875,Waiting,0.0,0.0,-113.0,0.0,0.0,0.0,0.0,0.0,
5.012838000000003,0.0,0.0,false,4300962.872346786,,40720.0,0.625,802.5,849.5635585405015,0.0,1.125,1.066894422,4.326928057411277,-0.5090331510000006,-119217.0,47.75,0.0,-849.5635585405015,0.0,1.75,2.022704871,4.313853133788961,4.454615284999999,73307.0,3.625,780.0,849.5635585405015,0.0,0.0,3.183593424,4.318211441663067,4.473043018,-97798.0,3.375,-750.0,-849.5635585405015,0.0,2.25,1.8896482440000002,4.3125456414267305,4.481191453999999,-0.05000000074505806,1.9299999475479126,26.56999969482422,-0.26507568359375,-0.5399169921875,0.84356689453125,34.52000045776367,0.0,-503.0,-0.3267364501953125,-2.406707763671875,Waiting,0.0,0.0,-113.0,0.0,0.0,0.0,0.0,0.0,
5.09864,0.0,0.0,false,4301034.8380155405,,40720.0,1.0,735.0,849.5635585405015,0.0,0.0,0.8923338930000001,4.326928057411277,0.0,-119217.0,57.375,0.0,-849.5635585405015,0.0,1.125,1.906738086,4.313853133788961,0.0,73410.0,3.875,660.0,849.5635585405015,0.0,0.0,3.123778977,4.318211441663067,-0.3991698809999997,-97929.0,2.75,-795.0,-849.5635585405015,0.0,0.375,1.7419431810000001,4.3125456414267305,-0.4907226059999994,-1.0199999809265137,1.2699999809265137,27.899999618530273,-0.30584716796875,-0.17510986328125,1.1981201171875,34.52000045776367,0.0,-365.0,-0.3416290283203125,-2.43304443359375,Waiting,0.0,0.0,-113.0,0.0,0.0,0.0,0.0,0.0,
5.182919000000009,0.0,0.0,false,4301082.050791753,,40846.0,0.5,870.0,782.7001724798583,0.0,0.5,0.8166503070000001,0.5695033888315788,-0.18676755899999975,-119217.0,49.5,0.0,-782.7001724798583,0.0,0.0,1.903075977,0.5677824881803955,-0.08544920999999928,73410.0,3.75,742.5,782.7001724798583,0.0,0.125,3.201903969,0.56835612173079,-0.05371093200000043,-97929.0,1.75,-892.5,-782.7001724798583,0.0,6.5,1.77001935,0.5676103981152771,-0.12573240900000027,-1.8700000047683716,0.8799999952316284,30.030000686645508,0.00921630859375,-0.09051513671875,1.41162109375,34.52000045776367,0.0,-32.0,-0.376251220703125,-2.477752685546875,Waiting,0.0,0.0,-113.0,0.0,0.0,0.0,0.0,0.0,
5.264150000000009,0.0,0.0,false,4301100.537634409,,41008.0,0.125,1020.0,782.7001724798583,0.0,1.25,1.3171385370000002,0.5695033888315788,0.27954098699999985,-119216.0,44.5,-105.0,-782.7001724798583,0.0,4.0,2.086181427,0.5677824881803955,0.004882811999999959,73538.0,3.125,810.0,782.7001724798583,0.0,4.375,3.5815426020000003,0.56835612173079,0.21362302499999952,-98083.0,0.5,-990.0,-782.7001724798583,0.0,1.125,2.285156016,0.5676103981152771,0.2722167689999999,-1.899999976158142,1.6299999952316284,32.13999938964844,0.4378662109375,0.1820068359375,0.4837646484375,34.52000045776367,0.0,464.0,-0.407135009765625,-2.518218994140625,Waiting,0.0,0.0,-113.0,0.0,0.0,0.0,0.0,0.0,
5.313062000000006,0.0,0.0,false,4301094.9298298,,41008.0,0.375,997.5,808.1481052381426,0.0,1.625,1.695556467,0.5972700751276753,0.3588866820000005,-119216.0,33.875,-427.5,-808.1481052381426,0.0,1.5,2.508544665,0.5954652703075874,0.30151364099999967,73538.0,3.625,772.5,808.1481052381426,0.0,1.25,3.9453120960000003,0.5960668719142834,0.33813473100000024,-98083.0,0.125,-1012.5,-808.1481052381426,0.0,1.125,2.6452634010000002,0.5952847898255788,0.3430175430000002,-0.5699999928474426,2.130000114440918,33.4900016784668,0.1072998046875,0.414794921875,1.06591796875,34.52000045776367,0.0,291.0,-0.4203643798828125,-2.5406341552734375,Waiting,0.0,0.0,-113.0,0.0,0.0,0.0,0.0,0.0,
5.370979000000006,0.0,0.0,false,4301065.248955224,,41138.0,0.375,825.0,808.1481052381426,0.0,2.75,2.0581052580000003,0.5972700751276753,0.37231441499999995,-119308.0,27.875,-555.0,-808.1481052381426,0.0,0.5,2.9492184480000003,0.5954652703075874,0.42846675300000037,73651.0,4.875,675.0,808.1481052381426,0.0,1.0,4.362792522,0.5960668719142834,-4.575582069999999,-98250.0,0.0,-1050.0,-808.1481052381426,0.0,0.25,3.0126950040000002,0.5952847898255788,-4.554433634,1.7200000286102295,1.9199999570846558,35.709999084472656,0.102783203125,0.51422119140625,1.37396240234375,34.52000045776367,0.0,321.0,-0.4302825927734375,-2.562744140625,Waiting,0.0,0.0,-113.0,0.0,0.0,0.0,0.0,0.0,
5.449934000000009,0.0,0.0,false,4301010.905401372,,41138.0,2.0,532.5,808.1481052381426,0.0,1.875,2.366943117,0.5972700751276753,0.0,-119308.0,35.0,-1335.0,-808.1481052381426,0.0,0.375,3.3715816860000003,0.5954652703075874,-4.442408255,73758.0,5.5,645.0,808.1481052381426,0.0,0.125,4.722899907,0.5960668719142834,0.45898432799999966,-98406.0,0.0,-982.5,-808.1481052381426,0.0,0.5,3.195800454,0.5952847898255788,0.34179683999999977,3.319999933242798,1.3700000047683716,37.59000015258789,-0.22882080078125,0.2513427734375,0.938720703125,34.52000045776367,0.0,-79.0,-0.4310455322265625,-2.5659027099609375,Waiting,0.0,0.0,-113.0,0.0,0.0,0.0,0.0,0.0,
5.531830000000002,0.0,0.0,false,4300929.568019093,,41220.0,2.125,615.0,808.1481052381426,0.0,0.25,2.5390622400000002,0.5972700751276753,0.29296872000000107,-119585.0,30.5,-1590.0,-808.1481052381426,0.0,0.0,3.487548471,0.5954652703075874,0.3234862949999999,73758.0,5.0,735.0,808.1481052381426,0.0,0.0,4.761962403,0.5960668719142834,0.24780270900000012,-98406.0,0.125,-922.5,-808.1481052381426,0.0,0.0,3.233642247,0.5952847898255788,0.14892576600000007,4.099999904632568,0.7300000190734863,38.20000076293945,-0.096435546875,0.20660400390625,1.3800048828125,34.470001220703125,0.0,-23.0,-0.42974853515625,-2.5601806640625,Waiting,0.0,0.0,-113.0,0.0,0.0,0.0,0.0,0.0,
5.589197,0.0,0.0,false,4300823.6134804655,,41374.0,0.5,907.5,808.1481052381426,0.0,0.125,2.5329587250000003,0.5972700751276753,0.05004882299999913,-119764.0,32.0,-1177.5,-808.1481052381426,0.0,0.0,3.492431283,0.5954652703075874,0.024414060000000237,73899.0,3.75,862.5,808.1481052381426,0.0,0.0,4.746093264000001,0.5960668719142834,-0.003662108999999525,-98545.0,0.125,-877.5,-808.1481052381426,0.0,0.0,3.223876623,0.5952847898255788,0.0,4.300000190734863,0.6800000071525574,37.79999923706055,0.0037841796875,0.09234619140625,1.68408203125,34.470001220703125,0.0,-34.0,-0.4279022216796875,-2.5541229248046875,Waiting,0.0,0.0,-113.0,0.0,0.0,0.0,0.0,0.0,
5.651625,0.0,0.0,false,4300693.674418605,,41374.0,0.375,1020.0,NaN,0.0,0.125,2.542724349,NaN,0.0,-119764.0,27.625,-1087.5,NaN,0.0,0.0,3.4765621440000003,NaN,0.0,73899.0,1.625,945.0,NaN,0.0,0.0,4.693603035000001,NaN,-0.028076169000000206,-98545.0,0.125,-855.0,NaN,0.0,0.0,3.223876623,NaN,-0.010986326999999907,4.340000152587891,0.9599999785423279,37.189998626708984,0.01910400390625,0.10076904296875,1.36956787109375,34.470001220703125,0.0,-5.0,-0.4249420166015625,-2.55535888671875,Waiting,0.0,0.0,-113.0,0.0,0.0,0.0,0.0,0.0,
5.711076000000001,0.0,0.0,false,4300551.487332339,,41523.0,0.25,907.5,NaN,0.0,0.0,2.542724349,NaN,-0.0012207030000004337,-119940.0,7.25,-1080.0,NaN,0.0,0.0,3.45458949,NaN,-0.024414060000000237,74036.0,0.0,885.0,NaN,0.0,0.0,4.669188975,NaN,-0.048828120000000474,-98685.0,0.125,-885.0,NaN,0.0,0.0,3.225097326,NaN,0.0012207029999999897,4.019999980926514,0.8500000238418579,36.66999816894531,-0.11798095703125,-0.1204833984375,1.41461181640625,34.470001220703125,0.0,-242.0,-0.4224700927734375,-2.557647705078125,Waiting,0.0,0.0,-113.0,0.0,0.0,0.0,0.0,0.0,
