Time,ClimberA1,ClimberA2,CameraExists,HeapSpace,LoopTime,FRpos,FRCurrent,FRspeed,FRsetpoint,FRApos,FRACurrent,FREncpos,FREncSetpoint,FREncSpeed,FLpos,FLCurrent,FLspeed,FLsetpoint,FLApos,FLACurrent,FLEncpos,FLEncSetpoint,FLEncSpeed,BRpos,BRCurrent,BRspeed,BRsetpoint,BRApos,BRACurrent,BREncpos,BREncSetpoint,BREncSpeed,BLpos,BLCurrent,BLspeed,BLsetpoint,BLApos,BLACurrent,BLEncpos,BLEncSetpoint,BLEncSpeed,navx_Pitch,navx_Roll,navx_Yaw,navx_XAcc,navx_YAcc,navx_ZAcc,navx_Temp,navx_Bar,navx_Alt,navx_XDis,navx_YDis,GearPlacerState,ShootOutputV,ShootOutputCurrent,ShootEncPos,ShootEncVelocity,ShootSpeed,ShootSetpoint,CarouselSetpoint,CarouselCurrent,
0.1942719999999972,0.0,0.0,false,4370824.3957575755,,39943.0,0.0,0.0,0.0,0.0,0.0,1.826171688,0.0,0.0,-113527.0,0.0,0.0,-0.0,0.0,0.0,2.700195036,0.0,0.0,73961.0,0.0,0.0,0.0,0.0,0.0,4.056396069,0.0,0.0,-89362.0,0.0,0.0,-0.0,0.0,0.0,2.5415036460000002,0.0,0.0,1.4500000476837158,0.4000000059604645,10.970000267028809,0.16357421875,0.04351806640625,1.00384521484375,34.40999984741211,0.0,157.0,0.0514678955078125,-0.182586669921875,Waiting,0.0,0.0,-113.0,0.0,0.0,0.0,0.0,0.0,
0.38504300000000513,0.0,0.0,false,4370823.878191046,,39943.0,0.0,0.0,0.0,0.0,0.0,1.826171688,0.0,0.0,-113527.0,0.0,0.0,-0.0,0.0,0.0,2.6989743330000002,0.0,0.0,73961.0,0.0,0.0,0.0,0.0,0.0,4.057616772,0.0,0.0,-89362.0,0.0,0.0,-0.0,0.0,0.0,2.5402829430000002,0.0,0.0,1.5099999904632568,0.4300000071525574,10.979999542236328,0.07452392578125,0.0211181640625,1.0283203125,34.45000076293945,0.0,64.0,0.046905517578125,-0.1811370849609375,Waiting,0.0,0.0,-113.0,0.0,0.0,0.0,0.0,0.0,
0.5739890000000014,0.0,0.0,false,4370803.70852901,,39943.0,0.0,0.0,0.0,0.0,0.0,1.826171688,0.0,0.0,-113527.0,0.0,0.0,-0.0,0.0,0.0,2.700195036,0.0,0.0,73961.0,0.0,0.0,0.0,0.0,0.0,4.056396069,0.0,0.0,-89362.0,0.0,0.0,-0.0,0.0,0.0,2.5402829430000002,0.0,0.0,1.4900000095367432,0.4399999976158142,10.979999542236328,-0.01318359375,0.0379638671875,1.005126953125,34.45000076293945,0.0,-18.0,0.04681396484375,-0.1811370849609375,Waiting,0.0,0.0,-113.0,0.0,0.0,0.0,0.0,0.0,
0.7707640000000247,0.0,0.0,false,4370763.89123684,,39943.0,0.0,0.0,0.0,0.0,0.0,1.826171688,0.0,0.0,-113527.0,0.0,0.0,-0.0,0.0,0.0,2.700195036,0.0,0.0,73961.0,0.0,0.0,0.0,0.0,0.0,4.056396069,0.0,0.0,-89362.0,0.0,0.0,-0.0,0.0,0.0,2.5402829430000002,0.0,0.0,1.5,0.44999998807907104,10.979999542236328,-0.0369873046875,0.05419921875,1.00457763671875,34.41999816894531,0.0,-38.0,0.04693603515625,-0.1815032958984375,Waiting,0.0,0.0,-113.0,0.0,0.0,0.0,0.0,0.0,
0.9683130000000237,0.0,0.0,false,4370706.527112996,,39882.0,16.125,-420.0,-1706.4566302299497,0.0,0.0,1.822509579,4.963999999999999,0.0,-113514.0,27.125,195.0,1706.4566302299497,0.0,0.0,2.703857145,4.948999999999997,0.0,73920.0,17.75,-435.0,-1706.4566302299497,0.0,0.0,4.061278881,2.346685808637024E-15,0.0,-89322.0,20.875,390.0,1706.4566302299497,0.0,0.0,2.548827864,2.343606790115397E-15,0.0,1.6200000047683716,-1.909999966621399,10.920000076293945,-0.44061279296875,-0.0234375,1.38714599609375,34.41999816894531,0.0,-398.0,0.0218963623046875,-0.1808319091796875,Waiting,0.0,0.0,-113.0,0.0,0.0,0.0,0.0,0.0,
1.1649770000000135,1.375,0.0,false,4370629.523968194,,39542.0,27.625,-1387.5,-2321.5747475624084,0.0,0.125,1.8212888760000001,4.963999999999999,0.0,-113418.0,37.75,262.5,2321.5747475624084,0.0,0.0,2.6989743330000002,4.948999999999997,0.0,73537.0,19.375,-1470.0,-2321.5747475624084,0.0,0.0,4.071044505000001,2.346685808637024E-15,0.0,-88956.0,24.375,1500.0,2321.5747475624084,0.0,0.0,2.5402829430000002,2.343606790115397E-15,0.0,1.7300000190734863,-4.400000095367432,9.829999923706055,-0.2978515625,0.0301513671875,0.88531494140625,34.41999816894531,0.0,-225.0,-0.089202880859375,-0.1664886474609375,Waiting,0.0,0.0,-113.0,0.0,0.0,0.0,0.0,0.0,
1.3717669999999926,0.0,0.0,false,4370532.886263819,,39244.0,21.875,-2122.5,-2408.324600314742,0.0,0.125,1.8908689470000002,0.09110307576925714,0.0,-113390.0,34.125,7.5,1756.9034370774043,0.0,0.0,2.7380368290000003,0.12474987834910685,0.0,72863.0,13.625,-2220.0,-2408.324600314742,0.0,0.0,3.9965816220000003,4.8630804517806405,0.0,-88318.0,4.125,2077.5,1756.9034370774043,0.0,0.0,2.515868883,4.822787932282844,0.0,1.5299999713897705,-5.659999847412109,9.069999694824219,-0.2919921875,0.107666015625,0.869140625,34.41999816894531,0.0,-189.0,-0.25738525390625,-0.152557373046875,Waiting,0.0,0.0,-113.0,0.0,0.0,0.0,0.0,0.0,
1.5797909999999684,0.0,0.0,false,4370415.304611191,,38477.0,15.25,-2700.0,-2642.0039608897346,0.0,0.125,1.927490037,0.14097370609344562,0.0,-113275.0,32.5,652.5,1559.6693323483405,0.0,0.125,2.857665723,0.24054107276548284,0.0,72454.0,8.125,-2715.0,-2642.0039608897346,0.0,0.0,3.916015224,4.813310286062262,0.0,-87980.0,0.0,2152.5,1559.6693323483405,0.0,0.0,2.290038828,4.707031833197166,0.0,1.9900000095367432,-5.809999942779541,12.600000381469727,-0.0592041015625,0.1588134765625,1.18292236328125,34.41999816894531,0.0,85.0,-0.440277099609375,-0.137237548828125,Waiting,0.0,0.0,-113.0,0.0,0.0,0.0,0.0,0.0,
1.7935320000000066,0.0,0.0,false,4370420.7746820105,,37520.0,11.875,-3180.0,-3125.7591909436355,0.0,0.125,2.048339634,0.22387094740978938,0.0,-113183.0,37.25,405.0,1274.5185633467038,0.0,0.5,3.236083653,0.5951153826868821,0.0,71509.0,7.625,-3135.0,-3125.7591909436355,0.0,0.0,3.876952728,4.730580041605943,0.0,-87352.0,0.0,1635.0,1274.5185633467038,0.0,0.375,1.981200969,4.352564991747151,0.0,1.7400000095367432,-4.730000019073486,27.979999542236328,0.13525390625,0.19427490234375,0.55145263671875,34.310001373291016,0.0,242.0,-0.5892486572265625,-0.09912109375,Waiting,0.0,0.0,-113.0,0.0,0.0,0.0,0.0,0.0,
1.9987459999999846,0.0,0.0,false,4370408.976909683,,37002.0,0.0,-2947.5,-2100.0,0.0,0.5,2.249755629,0.5533560492066895,0.0,-112947.0,11.625,1050.0,-2100.0,0.0,0.375,2.8918454070000004,4.397316058113635,0.0,70594.0,0.0,-2677.5,-2100.0,0.0,0.375,3.643798455,4.401758689006861,0.0,-87146.0,57.25,150.0,-2100.0,0.0,2.0,2.491454823,0.5515167311543325,0.0,1.440000057220459,-2.049999952316284,53.560001373291016,0.21466064453125,0.19769287109375,1.1923828125,34.310001373291016,0.0,287.0,-0.647613525390625,-0.071197509765625,Waiting,0.0,0.0,-113.0,0.0,0.0,0.0,0.0,0.0,
2.177787000000011,0.0,0.0,false,4370377.52672218,,36163.0,0.0,-2085.0,0.0,0.0,0.25,2.419433346,0.5533560492066895,0.0,-112920.0,0.0,7.5,0.0,0.0,0.125,1.705322091,4.397316058113635,0.0,70350.0,0.0,-1110.0,0.0,0.0,0.125,3.557128542,4.401758689006861,0.0,-87129.0,0.0,-60.0,0.0,0.0,1.125,3.349609032,0.5515167311543325,0.0,3.190000057220459,-0.3499999940395355,76.19999694824219,0.50018310546875,0.31976318359375,1.103271484375,34.310001373291016,0.0,371.0,-0.6251373291015625,-0.0919647216796875,Waiting,0.0,0.0,-113.0,0.0,0.0,0.0,0.0,0.0,
2.3698099999999975,0.0,0.0,false,4370325.882370751,,35849.0,0.0,-697.5,0.0,0.0,0.125,2.458495842,0.5533560492066895,0.0,-113011.0,0.0,-210.0,0.0,0.0,0.5,1.778564271,4.397316058113635,0.0,70145.0,0.0,-442.5,0.0,0.0,0.0,3.557128542,4.401758689006861,0.0,-87200.0,0.0,-202.5,0.0,0.0,0.0,3.339843408,0.5515167311543325,0.0,4.159999847412109,0.30000001192092896,83.98999786376953,0.187255859375,-0.05511474609375,0.822265625,34.2400016784668,0.0,-94.0,-0.5340728759765625,-0.1417236328125,Waiting,0.0,0.0,-113.0,0.0,0.0,0.0,0.0,0.0,
2.56146100000001,0.0,0.0,false,4370254.523766273,,35845.0,0.0,7.5,0.0,0.0,0.125,2.4853513080000003,0.5533560492066895,0.0,-113021.0,0.0,-45.0,0.0,0.0,0.75,2.2790525010000002,4.397316058113635,0.0,70132.0,0.0,0.0,0.0,0.0,0.0,3.5375972940000002,4.401758689006861,0.0,-87208.0,0.0,-7.5,0.0,0.0,0.0,3.089599293,0.5515167311543325,0.0,3.6700000762939453,0.6000000238418579,84.16999816894531,-0.0045166015625,0.05389404296875,0.94049072265625,34.2400016784668,0.0,-7.0,-0.4530029296875,-0.208526611328125,Waiting,0.0,0.0,-113.0,0.0,0.0,0.0,0.0,0.0,
2.7509799999999816,0.0,0.0,false,4370163.526224174,,35852.0,0.25,0.0,-158.7401568889618,0.0,1.125,2.003173623,4.963999999999999,0.0,-113023.0,0.375,0.0,158.7401568889618,0.0,0.75,2.764892295,4.948999999999997,0.0,70132.0,0.125,0.0,-158.7401568889618,0.0,0.375,3.9416499870000004,2.346685808637024E-15,0.0,-87201.0,0.0,52.5,158.7401568889618,0.0,1.125,2.559814191,2.343606790115397E-15,0.0,3.4100000858306885,0.4399999976158142,84.05999755859375,-0.00238037109375,0.05816650390625,0.99237060546875,34.2400016784668,0.0,-2.0,-0.4546051025390625,-0.208038330078125,Waiting,0.0,0.0,-113.0,0.0,0.0,0.0,0.0,0.0,
2.9403130000000237,0.0,0.0,false,4370052.894203118,,35840.0,4.5,-172.5,-734.173253774643,0.0,0.125,1.7932127070000001,4.963999999999999,0.0,-113023.0,7.25,0.0,734.173253774643,0.0,0.0,2.7380368290000003,4.948999999999997,0.0,70108.0,2.75,-270.0,-734.173253774643,0.0,0.0,4.099120674,2.346685808637024E-15,0.0,-87150.0,5.125,165.0,734.173253774643,0.0,0.0,2.446288812,2.343606790115397E-15,0.0,3.1500000953674316,-0.47999998927116394,84.44000244140625,-0.1187744140625,0.0645751953125,0.93450927734375,34.22999954223633,0.0,2.0,-0.46044921875,-0.1975555419921875,Waiting,0.0,0.0,-113.0,0.0,0.0,0.0,0.0,0.0,
3.1302210000000197,0.0,0.0,false,4369923.495421869,,35730.0,5.0,-502.5,-773.8582742214203,0.0,0.0,1.7871091920000002,4.963999999999999,0.0,-113023.0,17.625,0.0,773.8582742214203,0.0,0.0,2.730712611,4.948999999999997,0.0,69995.0,3.625,-510.0,-773.8582742214203,0.0,0.0,4.110107001,2.346685808637024E-15,0.0,-87078.0,4.5,562.5,773.8582742214203,0.0,0.0,2.449950921,2.343606790115397E-15,0.0,3.0299999713897705,-1.4199999570846558,84.0999984741211,-0.09625244140625,-0.04718017578125,0.9139404296875,34.22999954223633,0.0,53.0,-0.47479248046875,-0.154937744140625,Waiting,0.0,0.0,-113.0,0.0,0.0,0.0,0.0,0.0,
3.3286990000000225,0.0,0.0,false,4369920.073244552,,35507.0,2.875,-765.0,-773.8582742214203,0.0,0.125,1.7687986470000001,4.963999999999999,0.0,-113022.0,30.875,0.0,773.8582742214203,0.0,0.0,2.7392575320000003,4.948999999999997,0.0,69777.0,2.125,-735.0,-773.8582742214203,0.0,0.0,4.031982009,2.346685808637024E-15,0.0,-86837.0,1.625,840.0,773.8582742214203,0.0,0.0,2.4755856840000003,2.343606790115397E-15,0.0,2.9200000762939453,-2.0299999713897705,83.16999816894531,-0.06439208984375,-0.07562255859375,0.8343505859375,34.25,0.0,-121.0,-0.4844970703125,-0.099578857421875,Waiting,0.0,0.0,-113.0,0.0,0.0,0.0,0.0,0.0,
3.514908999999985,0.0,0.0,false,4369897.7559204055,,35361.0,0.75,-937.5,-773.8582742214203,0.0,0.125,1.773681459,4.963999999999999,0.0,-113022.0,49.5,0.0,773.8582742214203,0.0,0.0,2.7380368290000003,4.948999999999997,0.0,69644.0,0.375,-877.5,-773.8582742214203,0.0,0.0,4.0234370880000005,2.346685808637024E-15,0.0,-86688.0,0.375,922.5,773.8582742214203,0.0,0.0,2.508544665,2.343606790115397E-15,0.0,2.7300000190734863,-2.2899999618530273,82.02999877929688,-0.09173583984375,-0.229736328125,0.805908203125,34.25,0.0,-273.0,-0.48529052734375,-0.091217041015625,Waiting,0.0,0.0,-113.0,0.0,0.0,0.0,0.0,0.0,
3.7082050000000164,0.0,0.0,false,4369854.348918142,,35047.0,0.125,-1065.0,-773.8582742214203,0.0,0.125,1.773681459,4.963999999999999,0.0,-112886.0,45.75,787.5,773.8582742214203,0.0,0.0,2.730712611,4.948999999999997,0.0,69337.0,0.0,-1027.5,-773.8582742214203,0.0,0.0,4.005126543,2.346685808637024E-15,0.0,-86352.0,0.0,1132.5,773.8582742214203,0.0,0.0,2.510986071,2.343606790115397E-15,0.0,2.509999990463257,-2.2100000381469727,80.47000122070312,-0.091796875,-0.04779052734375,1.4185791015625,34.25,0.0,-114.0,-0.4954376220703125,-0.0938262939453125,Waiting,0.0,0.0,-113.0,0.0,0.0,0.0,0.0,0.0,
3.895304000000004,0.0,0.0,false,4369792.055677434,,34874.0,0.0,-1057.5,-773.8582742214203,0.0,0.125,1.773681459,4.963999999999999,0.0,-112810.0,54.25,480.0,773.8582742214203,0.0,0.0,2.733154017,4.948999999999997,0.0,69173.0,0.0,-1012.5,-773.8582742214203,0.0,0.0,4.00390584,2.346685808637024E-15,0.0,-86174.0,0.0,1072.5,773.8582742214203,0.0,0.0,2.510986071,2.343606790115397E-15,0.0,2.2699999809265137,-1.6699999570846558,78.83000183105469,0.0272216796875,0.0732421875,1.19586181640625,34.220001220703125,0.0,37.0,-0.5131072998046875,-0.1103057861328125,Waiting,0.0,0.0,-113.0,0.0,0.0,0.0,0.0,0.0,
4.085098999999987,0.0,0.0,false,4369708.2928895615,,34552.0,0.125,-975.0,-773.8582742214203,0.0,0.125,1.773681459,4.963999999999999,0.0,-112646.0,52.875,502.5,773.8582742214203,0.0,0.0,2.729491908,4.948999999999997,0.0,68858.0,0.0,-960.0,-773.8582742214203,0.0,0.0,4.00390584,2.346685808637024E-15,0.0,-85815.0,0.5,1072.5,773.8582742214203,0.0,0.0,2.517089586,2.343606790115397E-15,0.0,2.049999952316284,-1.2999999523162842,76.83000183105469,0.08447265625,-0.08050537109375,0.619873046875,34.220001220703125,0.0,-77.0,-0.533905029296875,-0.1156768798828125,Waiting,0.0,0.0,-113.0,0.0,0.0,0.0,0.0,0.0,
4.271103000000003,0.0,0.0,false,4369606.041903033,,34257.0,0.125,-907.5,-615.1181173324585,0.0,0.125,1.773681459,4.963999999999999,0.0,-112339.0,44.375,810.0,615.1181173324585,0.0,0.0,2.724609096,4.948999999999997,0.0,68565.0,0.0,-915.0,-615.1181173324585,0.0,0.0,4.002685137,2.346685808637024E-15,0.0,-85521.0,1.75,862.5,615.1181173324585,0.0,0.0,2.517089586,2.343606790115397E-15,0.0,1.8799999952316284,-0.5899999737739563,75.80999755859375,-0.0936279296875,0.12994384765625,1.298583984375,34.220001220703125,0.0,64.0,-0.560821533203125,-0.131011962890625,Waiting,0.0,0.0,-113.0,0.0,0.0,0.0,0.0,0.0,
4.468847999999998,0.0,0.0,false,4369484.917864166,,34137.0,0.0,-690.0,0.0,0.0,0.125,1.773681459,4.963999999999999,0.0,-112260.0,0.0,510.0,0.0,0.0,0.0,2.714843472,4.948999999999997,0.0,68441.0,0.0,-705.0,0.0,0.0,0.0,3.9953609190000003,2.346685808637024E-15,0.0,-85375.0,0.0,712.5,0.0,0.0,0.0,2.517089586,2.343606790115397E-15,0.0,1.75,0.6200000047683716,75.2699966430664,0.18902587890625,0.0269775390625,1.01202392578125,34.16999816894531,0.0,41.0,-0.5796661376953125,-0.16461181640625,Waiting,0.0,0.0,-113.0,0.0,0.0,0.0,0.0,0.0,
4.6667789999999805,0.0,0.0,false,4369491.694774257,,34023.0,0.0,-172.5,0.0,0.0,0.125,1.798095519,4.963999999999999,0.0,-112228.0,0.0,0.0,0.0,0.0,0.0,2.714843472,4.948999999999997,0.0,68329.0,0.0,-75.0,0.0,0.0,0.0,4.00390584,2.346685808637024E-15,0.0,-85244.0,0.0,187.5,0.0,0.0,0.0,2.517089586,2.343606790115397E-15,0.0,1.3200000524520874,2.9100000858306885,74.44999694824219,0.2376708984375,-0.043701171875,0.9422607421875,34.16999816894531,0.0,-12.0,-0.5724945068359375,-0.249420166015625,Waiting,0.0,0.0,-113.0,0.0,0.0,0.0,0.0,0.0,
4.854208999999973,0.0,0.0,false,4369476.327888687,,34031.0,0.0,127.5,0.0,0.0,0.125,1.8164060640000002,4.963999999999999,0.0,-112233.0,0.0,-120.0,0.0,0.0,0.0,2.7416989380000003,4.948999999999997,0.0,68329.0,0.0,97.5,0.0,0.0,0.0,4.008788652,2.346685808637024E-15,0.0,-85282.0,0.0,-165.0,0.0,0.0,0.0,2.515868883,2.343606790115397E-15,0.0,1.350000023841858,2.319999933242798,74.86000061035156,-0.04595947265625,0.00677490234375,0.919921875,34.189998626708984,0.0,-36.0,-0.56195068359375,-0.35723876953125,Waiting,0.0,0.0,-113.0,0.0,0.0,0.0,0.0,0.0,
5.051306999999972,0.0,0.0,false,4369441.507448015,,34049.0,0.0,0.0,0.0,0.0,0.125,1.8164060640000002,4.963999999999999,0.0,-112249.0,0.0,0.0,0.0,0.0,0.0,2.73437472,4.948999999999997,0.0,68349.0,0.0,0.0,0.0,0.0,0.0,4.002685137,2.346685808637024E-15,0.0,-85283.0,0.0,0.0,0.0,0.0,0.0,2.515868883,2.343606790115397E-15,0.0,1.340000033378601,1.7999999523162842,74.77999877929688,-0.01397705078125,0.05694580078125,0.97259521484375,34.189998626708984,0.0,21.0,-0.5565185546875,-0.4303131103515625,Waiting,0.0,0.0,-113.0,0.0,0.0,0.0,0.0,0.0,
5.2318319999999945,0.0,0.0,false,4369387.247542718,,34049.0,0.0,0.0,0.0,0.0,0.125,1.8164060640000002,4.963999999999999,0.0,-112249.0,0.0,0.0,0.0,0.0,0.0,2.7380368290000003,4.948999999999997,0.0,68349.0,0.0,0.0,0.0,0.0,0.0,4.00390584,2.346685808637024E-15,0.0,-85283.0,0.0,0.0,0.0,0.0,0.0,2.515868883,2.343606790115397E-15,0.0,1.350000023841858,1.5399999618530273,74.79000091552734,0.04473876953125,-0.0064697265625,1.000244140625,34.189998626708984,0.0,-24.0,-0.5536956787109375,-0.427520751953125,Waiting,0.0,0.0,-113.0,0.0,0.0,0.0,0.0,0.0,
5.428451000000001,0.0,0.0,false,4369313.55258184,,34049.0,0.0,0.0,0.0,0.0,0.125,1.8176267670000001,4.963999999999999,0.0,-112249.0,0.0,0.0,0.0,0.0,0.0,2.7380368290000003,4.948999999999997,0.0,68349.0,0.0,0.0,0.0,0.0,0.0,4.00390584,2.346685808637024E-15,0.0,-85283.0,0.0,0.0,0.0,0.0,0.0,2.517089586,2.343606790115397E-15,0.0,1.3300000429153442,1.3600000143051147,74.77999877929688,-0.01446533203125,0.08099365234375,1.00665283203125,34.2400016784668,0.0,45.0,-0.5553131103515625,-0.42333984375,Waiting,0.0,0.0,-113.0,0.0,0.0,0.0,0.0,0.0,
5.623906000000018,0.0,0.0,false,4369220.417901421,,34076.0,2.625,120.0,623.4375,0.0,1.125,2.352294681,0.5533560492066917,0.0,-112245.0,4.75,22.5,623.4375,0.0,0.625,2.292480234,4.397316058113637,0.0,68377.0,1.875,195.0,623.4375,0.0,0.375,3.5241695610000003,4.40175868900686,0.0,-85276.0,3.75,30.0,623.4375,0.0,0.875,3.034667658,0.5515167311543303,0.0,1.3200000524520874,1.1399999856948853,74.18000030517578,-0.073974609375,0.07208251953125,1.16180419921875,34.2400016784668,0.0,16.0,-0.555877685546875,-0.421478271484375,Waiting,0.0,0.0,-113.0,0.0,0.0,0.0,0.0,0.0,
5.815185999999987,0.0,0.0,false,4369107.56610477,,34097.0,5.375,292.5,630.0,0.0,1.125,3.251952792,1.2410000000000012,0.0,-112245.0,10.625,150.0,630.0,0.0,0.25,1.19628894,3.711750000000001,0.0,68391.0,1.75,45.0,-630.0,0.0,0.875,2.6318356680000004,3.7155000000000014,0.0,-85285.0,0.25,-52.5,-630.0,0.0,1.125,4.036864821,1.236875000000001,0.0,2.0299999713897705,1.0700000524520874,70.72000122070312,0.049072265625,0.1397705078125,0.87799072265625,34.2400016784668,0.0,110.0,-0.5458831787109375,-0.412628173828125,Waiting,0.0,0.0,-113.0,0.0,0.0,0.0,0.0,0.0,
6.015877999999968,0.0,0.0,false,4369122.723507181,,34212.0,49.0,472.5,2224.6875,0.0,0.125,3.498534798,1.2410000000000012,0.0,-112201.0,54.25,90.0,2224.6875,0.0,0.0,0.914306547,3.711750000000001,0.0,68318.0,32.625,-502.5,-2224.6875,0.0,0.0,2.419433346,3.7155000000000014,0.0,-85365.0,26.375,-487.5,-2224.6875,0.0,0.0,4.30908159,1.236875000000001,0.0,2.380000114440918,0.6000000238418579,70.5,-0.12371826171875,-0.12957763671875,0.587646484375,34.2400016784668,0.0,-188.0,-0.5192413330078125,-0.4065399169921875,Waiting,0.0,0.0,-113.0,0.0,0.0,0.0,0.0,0.0,
6.213724999999977,0.0,0.0,false,4369117.681807876,,34278.0,0.0,30.0,0.0,0.0,0.625,3.073730154,1.2410000000000012,0.0,-112189.0,0.0,0.0,0.0,0.0,1.5,1.4270018070000001,3.711750000000001,0.0,68252.0,0.0,-7.5,0.0,0.0,0.375,2.7880856520000004,3.7155000000000014,0.0,-85420.0,0.0,15.0,0.0,0.0,1.125,3.7939449240000003,1.236875000000001,0.0,0.5899999737739563,0.9599999785423279,69.73999786376953,0.04437255859375,0.03167724609375,0.60296630859375,34.2400016784668,0.0,35.0,-0.5250244140625,-0.40478515625,Waiting,0.0,0.0,-113.0,0.0,0.0,0.0,0.0,0.0,
6.410722999999998,0.0,0.0,false,4369092.455259976,,34303.0,29.5,262.5,2001.5624999999998,0.0,1.125,2.493896229,0.5533560492066917,0.0,-112186.0,37.75,165.0,2001.5624999999998,0.0,0.875,2.1667478250000003,4.397316058113637,0.0,68296.0,19.0,532.5,2001.5624999999998,0.0,0.375,3.4204098060000003,4.40175868900686,0.0,-85380.0,30.0,285.0,2001.5624999999998,0.0,1.125,3.138427413,0.5515167311543303,0.0,1.1100000143051147,1.0800000429153442,67.13999938964844,0.0301513671875,-0.15625,0.41326904296875,34.22999954223633,0.0,-142.0,-0.54205322265625,-0.41046142578125,Waiting,0.0,0.0,-113.0,0.0,0.0,0.0,0.0,0.0,
6.592354999999982,0.0,0.0,false,4369049.836016021,,34427.0,0.0,397.5,0.0,0.0,0.125,2.2729489860000003,0.5533560492066917,0.0,-112117.0,0.0,0.0,0.0,0.0,0.0,2.346191166,4.397316058113637,0.0,68503.0,0.0,292.5,0.0,0.0,0.0,3.8488765590000003,4.40175868900686,0.0,-85269.0,0.0,450.0,0.0,0.0,0.0,2.965087587,0.5515167311543303,0.0,1.1399999856948853,0.7300000190734863,58.97999954223633,-0.01708984375,0.04296875,0.77923583984375,34.22999954223633,0.0,9.0,-0.563201904296875,-0.40875244140625,Waiting,0.0,0.0,-113.0,0.0,0.0,0.0,0.0,0.0,
6.788625,0.0,0.0,false,4368987.264319178,,34499.0,45.875,142.5,2520.0,0.0,2.625,2.7429196410000003,1.2410000000000012,0.0,-112062.0,55.75,232.5,2520.0,0.0,0.75,1.700439279,3.711750000000001,0.0,68263.0,12.0,-1155.0,-2520.0,0.0,1.125,3.2202145140000002,3.7155000000000014,0.0,-85310.0,54.75,-240.0,-2520.0,0.0,0.875,3.5351558880000002,1.236875000000001,0.0,1.5700000524520874,1.2999999523162842,58.68000030517578,-0.0113525390625,0.2236328125,1.08758544921875,34.22999954223633,0.0,146.0,-0.5564727783203125,-0.3993682861328125,Waiting,0.0,0.0,-113.0,0.0,0.0,0.0,0.0,0.0,
6.984893999999971,0.0,0.0,false,4368907.30819796,,34503.0,0.0,45.0,0.0,0.0,0.5,3.291015288,1.2410000000000012,0.0,-112045.0,0.0,0.0,0.0,0.0,0.0,1.23291003,3.711750000000001,0.0,68112.0,0.0,-112.5,0.0,0.0,0.125,2.407226316,3.7155000000000014,0.0,-85318.0,0.0,-105.0,0.0,0.0,0.25,4.00390584,1.236875000000001,0.0,1.5800000429153442,0.7900000214576721,57.810001373291016,0.02850341796875,-0.00421142578125,0.8486328125,34.220001220703125,0.0,-14.0,-0.540191650390625,-0.38946533203125,Waiting,0.0,0.0,-113.0,0.0,0.0,0.0,0.0,0.0,
7.1837939999999945,0.0,0.0,false,4368804.397703233,,34631.0,33.5,480.0,2500.3125,0.0,0.125,3.3789059040000002,1.2410000000000012,0.0,-112013.0,50.375,202.5,2500.3125,0.0,0.375,1.105956918,3.711750000000001,0.0,68000.0,37.25,-592.5,-2500.3125,0.0,0.125,2.464599357,3.7155000000000014,0.0,-85431.0,39.125,-472.5,-2500.3125,0.0,0.0,4.067382396,1.236875000000001,0.0,2.950000047683716,0.8399999737739563,56.90999984741211,0.097412109375,0.13519287109375,0.42816162109375,34.220001220703125,0.0,144.0,-0.519500732421875,-0.3820953369140625,Waiting,0.0,0.0,-113.0,0.0,0.0,0.0,0.0,0.0,
7.36934600000002,0.0,0.0,false,4368684.111505629,,34691.0,0.0,262.5,0.0,0.0,0.125,3.043212579,1.2410000000000012,0.0,-111996.0,0.0,180.0,0.0,0.0,1.0,1.435546728,3.711750000000001,0.0,67935.0,0.0,-262.5,0.0,0.0,0.125,2.938232121,3.7155000000000014,0.0,-85535.0,0.0,-292.5,0.0,0.0,0.375,3.86962851,1.236875000000001,0.0,1.3700000047683716,0.6000000238418579,56.2599983215332,0.11798095703125,-0.379150390625,0.7830810546875,34.220001220703125,0.0,-269.0,-0.4993133544921875,-0.3733062744140625,Waiting,0.0,0.0,-113.0,0.0,0.0,0.0,0.0,0.0,
7.569153999999981,0.0,0.0,false,4368690.513974921,,34677.0,25.125,-382.5,-1901.5747725963593,0.0,1.125,2.523193101,0.5533560492066895,0.0,-111999.0,34.125,-285.0,-1901.5747725963593,0.0,1.125,2.100829863,4.397316058113635,0.0,67848.0,23.5,-322.5,-1901.5747725963593,0.0,0.75,3.409423479,4.401758689006861,0.0,-85574.0,26.375,-375.0,-1901.5747725963593,0.0,2.25,3.287353179,0.5515167311543325,0.0,1.1200000047683716,0.6499999761581421,60.0,0.02154541015625,0.09124755859375,0.9859619140625,34.25,0.0,67.0,-0.5125732421875,-0.3856048583984375,Waiting,0.0,0.0,-113.0,0.0,0.0,0.0,0.0,0.0,
7.767522999999986,0.0,0.0,false,4368679.220484931,,34507.0,0.0,-540.0,0.0,0.0,0.125,2.182616964,0.5533560492066895,0.0,-112105.0,0.0,-262.5,0.0,0.0,0.0,2.886962595,4.397316058113635,0.0,67694.0,0.0,-285.0,0.0,0.0,0.0,3.703612902,4.401758689006861,0.0,-85752.0,0.0,-465.0,0.0,0.0,0.0,2.862548535,0.5515167311543325,0.0,1.0700000524520874,0.07000000029802322,72.26000213623047,0.09722900390625,-0.19647216796875,0.573486328125,34.25,0.0,-167.0,-0.517425537109375,-0.39447021484375,Waiting,0.0,0.0,-113.0,0.0,0.0,0.0,0.0,0.0,
7.972777999999991,0.0,0.0,false,4368647.4096676735,,34506.0,0.0,112.5,0.0,0.0,0.25,2.253417738,0.5533560492066895,0.0,-112105.0,0.0,0.0,0.0,0.0,0.875,2.155761498,4.397316058113635,0.0,67700.0,0.0,22.5,0.0,0.0,0.125,3.543700809,4.401758689006861,0.0,-85734.0,0.0,112.5,0.0,0.0,0.0,2.965087587,0.5515167311543325,0.0,1.149999976158142,0.3199999928474426,70.36000061035156,-0.001220703125,-0.005126953125,0.82855224609375,34.22999954223633,0.0,-22.0,-0.52984619140625,-0.405609130859375,Waiting,0.0,0.0,-113.0,0.0,0.0,0.0,0.0,0.0,
8.180538,0.0,0.0,false,4368598.094403746,,34520.0,0.0,0.0,0.0,0.0,0.125,2.3828122560000002,0.5533560492066895,0.0,-112105.0,0.0,0.0,0.0,0.0,0.125,1.826171688,4.397316058113635,0.0,67700.0,0.0,0.0,0.0,0.0,0.0,3.446044569,4.401758689006861,0.0,-85734.0,0.0,-7.5,0.0,0.0,0.25,3.074950857,0.5515167311543325,0.0,1.149999976158142,0.1899999976158142,70.75,0.01910400390625,0.003173828125,1.027587890625,34.22999954223633,0.0,-11.0,-0.5301361083984375,-0.4043731689453125,Waiting,0.0,0.0,-113.0,0.0,0.0,0.0,0.0,0.0,
8.395085000000021,0.0,0.0,false,4368528.279716055,,34514.0,1.0,-30.0,-317.4803137779236,0.0,0.75,1.7944334100000001,4.963999999999999,0.0,-112104.0,1.375,0.0,317.4803137779236,0.0,1.625,2.9443356360000004,4.948999999999997,0.0,67689.0,0.375,-67.5,-317.4803137779236,0.0,0.375,4.184569884,2.346685808637024E-15,0.0,-85728.0,1.0,52.5,317.4803137779236,0.0,0.375,2.515868883,2.343606790115397E-15,0.0,1.149999976158142,-0.019999999552965164,70.94999694824219,-0.01806640625,-0.00311279296875,1.03558349609375,34.25,0.0,-28.0,-0.5294952392578125,-0.4035797119140625,Waiting,0.0,0.0,-113.0,0.0,0.0,0.0,0.0,0.0,
8.611849999999977,0.0,0.0,false,4368437.970248433,,34480.0,4.25,-165.0,-555.5905491113663,0.0,0.125,1.522216641,4.963999999999999,0.0,-112105.0,8.25,0.0,555.5905491113663,0.0,0.0,3.0053707860000003,4.948999999999997,0.0,67640.0,3.125,-210.0,-555.5905491113663,0.0,0.0,4.149169497,2.346685808637024E-15,0.0,-85680.0,4.25,202.5,555.5905491113663,0.0,0.0,2.333984136,2.343606790115397E-15,0.0,1.2599999904632568,-0.3499999940395355,71.0199966430664,-0.03167724609375,0.04766845703125,0.9859619140625,34.25,0.0,16.0,-0.532470703125,-0.3886871337890625,Waiting,0.0,0.0,-113.0,0.0,0.0,0.0,0.0,0.0,
8.820391000000003,0.0,0.0,false,4368327.17064331,,34415.0,7.375,-210.0,-555.5905491113663,0.0,0.5,1.754150211,4.963999999999999,0.0,-112104.0,17.75,0.0,555.5905491113663,0.0,0.25,2.652587619,4.948999999999997,0.0,67574.0,7.0,-202.5,-555.5905491113663,0.0,0.0,4.04052693,2.346685808637024E-15,0.0,-85610.0,7.625,225.0,555.5905491113663,0.0,0.25,2.415771237,2.343606790115397E-15,0.0,1.3700000047683716,-0.800000011920929,70.69999694824219,-0.20404052734375,-0.0350341796875,0.9505615234375,34.25,0.0,-117.0,-0.5330352783203125,-0.3771209716796875,Waiting,0.0,0.0,-113.0,0.0,0.0,0.0,0.0,0.0,
9.030184000000009,0.0,0.0,false,4368198.709852775,,34337.0,4.625,-592.5,-555.5905491113663,0.0,0.125,1.956786909,4.963999999999999,0.0,-112105.0,17.75,427.5,555.5905491113663,0.0,0.0,2.4255368610000003,4.948999999999997,0.0,67500.0,5.375,-547.5,-555.5905491113663,0.0,0.0,4.007567949,2.346685808637024E-15,0.0,-85533.0,5.375,570.0,555.5905491113663,0.0,0.0,2.542724349,2.343606790115397E-15,0.0,1.100000023841858,1.1200000047683716,69.93000030517578,0.9222412109375,-0.14337158203125,0.725341796875,34.2599983215332,0.0,163.0,-0.53424072265625,-0.357513427734375,Waiting,0.0,0.0,-113.0,0.0,0.0,0.0,0.0,0.0,
9.251463999999977,0.0,0.0,false,4368195.671447984,,34281.0,18.125,-67.5,-555.5905491113663,0.0,0.125,1.9531248,4.963999999999999,0.0,-111963.0,29.0,45.0,555.5905491113663,0.0,0.75,2.5842282510000003,4.948999999999997,0.0,67431.0,20.625,-142.5,-555.5905491113663,0.0,0.0,4.002685137,2.346685808637024E-15,0.0,-85477.0,21.875,97.5,555.5905491113663,0.0,0.0,2.5390622400000002,2.343606790115397E-15,0.0,1.25,0.44999998807907104,70.08000183105469,-0.13311767578125,0.0284423828125,1.34356689453125,34.2599983215332,0.0,-49.0,-0.521240234375,-0.3863983154296875,Waiting,0.0,0.0,-113.0,0.0,0.0,0.0,0.0,0.0,
9.450141000000004,0.0,0.0,false,4368171.810070205,,34279.0,24.5,0.0,-317.4803137779236,0.0,0.125,1.9750974540000001,4.963999999999999,0.0,-111960.0,39.0,0.0,317.4803137779236,0.0,0.0,2.60009739,4.948999999999997,0.0,67377.0,15.375,-187.5,-317.4803137779236,0.0,0.0,4.00390584,2.346685808637024E-15,0.0,-85475.0,27.125,0.0,317.4803137779236,0.0,0.0,2.5402829430000002,2.343606790115397E-15,0.0,1.149999976158142,0.25999999046325684,70.08000183105469,-0.03814697265625,-0.0345458984375,1.0994873046875,34.25,0.0,-68.0,-0.5119781494140625,-0.4064483642578125,Waiting,0.0,0.0,-113.0,0.0,0.0,0.0,0.0,0.0,
9.64602799999999,0.0,0.0,false,4368127.140096619,,34312.0,0.0,210.0,0.0,0.0,0.125,1.860351372,4.963999999999999,0.0,-111960.0,0.0,0.0,0.0,0.0,0.0,2.6904294120000003,4.948999999999997,0.0,67389.0,0.0,150.0,0.0,0.0,0.0,3.9880367010000004,2.346685808637024E-15,0.0,-85509.0,0.0,-97.5,0.0,0.0,0.0,2.5402829430000002,2.343606790115397E-15,0.0,1.2100000381469727,0.5400000214576721,70.05999755859375,-0.1405029296875,0.001953125,1.07061767578125,34.25,0.0,-70.0,-0.508056640625,-0.4332427978515625,Waiting,0.0,0.0,-113.0,0.0,0.0,0.0,0.0,0.0,
9.83429700000002,0.0,0.0,false,4368064.402143558,,34324.0,0.0,0.0,0.0,0.0,0.125,1.835937312,4.963999999999999,0.0,-111960.0,0.0,0.0,0.0,0.0,0.0,2.719726284,4.948999999999997,0.0,67409.0,0.0,0.0,0.0,0.0,0.0,4.00390584,2.346685808637024E-15,0.0,-85514.0,0.0,0.0,0.0,0.0,0.0,2.5402829430000002,2.343606790115397E-15,0.0,1.2300000190734863,0.1599999964237213,70.12000274658203,0.00286865234375,7.32421875E-4,1.0963134765625,34.25,0.0,-21.0,-0.507904052734375,-0.445098876953125,Waiting,0.0,0.0,-113.0,0.0,0.0,0.0,0.0,0.0,
10.025413,0.0,0.0,false,4367980.873660377,,34342.0,2.5,105.0,575.433059334755,0.0,1.375,0.989990133,3.722999999999999,0.0,-111960.0,5.375,0.0,575.433059334755,0.0,1.875,3.546142215,1.2372499999999984,0.0,67427.0,1.75,157.5,575.433059334755,0.0,1.125,3.197021157,3.7154999999999982,0.0,-85497.0,3.25,60.0,575.433059334755,0.0,2.0,3.39355434,1.2368749999999984,0.0,1.1200000047683716,0.27000001072883606,69.55999755859375,0.02044677734375,-0.03863525390625,0.88702392578125,34.22999954223633,0.0,-46.0,-0.508392333984375,-0.4454345703125,Waiting,0.0,0.0,-113.0,0.0,0.0,0.0,0.0,0.0,
10.223871999999973,0.0,0.0,false,4367879.441551581,,34390.0,6.625,292.5,754.0157639980315,0.0,0.125,0.21728513400000002,3.722999999999999,0.0,-111961.0,14.0,0.0,754.0157639980315,0.0,0.125,4.311522996,1.2372499999999984,0.0,67489.0,5.125,322.5,754.0157639980315,0.0,0.0,2.338866948,3.7154999999999982,0.0,-85473.0,8.75,262.5,754.0157639980315,0.0,0.5,4.0759273170000005,1.2368749999999984,0.0,-0.009999999776482582,0.18000000715255737,69.87000274658203,-0.0423583984375,-0.041748046875,1.0623779296875,34.22999954223633,0.0,-54.0,-0.5233917236328125,-0.4502716064453125,Waiting,0.0,0.0,-113.0,0.0,0.0,0.0,0.0,0.0,
10.419667000000016,0.0,0.0,false,4367760.109870208,,34474.0,0.0,22.5,0.0,0.0,1.625,0.252685521,3.722999999999999,0.0,-111960.0,0.0,0.0,0.0,0.0,0.0,4.001464434,1.2372499999999984,0.0,67544.0,0.0,0.0,0.0,0.0,0.375,2.811279009,3.7154999999999982,0.0,-85420.0,0.0,45.0,0.0,0.0,0.0,3.853759371,1.2368749999999984,0.0,1.8700000047683716,0.0,71.83000183105469,-0.03192138671875,0.0289306640625,1.17962646484375,34.22999954223633,0.0,-19.0,-0.5313262939453125,-0.4486083984375,Waiting,0.0,0.0,-113.0,0.0,0.0,0.0,0.0,0.0,
10.624335000000022,0.0,0.0,false,4367766.186674715,,34473.0,0.0,0.0,0.0,0.0,0.625,0.637206966,3.722999999999999,0.0,-111960.0,0.0,0.0,0.0,0.0,0.0,3.701171496,1.2372499999999984,0.0,67544.0,0.0,-7.5,0.0,0.0,0.0,3.092040699,3.7154999999999982,0.0,-85420.0,0.0,0.0,0.0,0.0,0.0,3.714599229,1.2368749999999984,0.0,1.2799999713897705,0.11999999731779099,71.44000244140625,0.0050048828125,0.0262451171875,0.98883056640625,34.27000045776367,0.0,4.0,-0.520660400390625,-0.4415740966796875,Waiting,0.0,0.0,-113.0,0.0,0.0,0.0,0.0,0.0,
10.80272100000002,0.0,0.0,false,4367751.315527388,,34473.0,0.0,0.0,0.0,0.0,0.125,0.623779233,3.722999999999999,0.0,-111960.0,0.0,0.0,0.0,0.0,0.0,3.870849213,1.2372499999999984,0.0,67542.0,0.0,0.0,0.0,0.0,0.125,2.766112998,3.7154999999999982,0.0,-85420.0,0.0,0.0,0.0,0.0,0.0,3.753661725,1.2368749999999984,0.0,1.4199999570846558,0.1599999964237213,71.44000244140625,0.02093505859375,0.02764892578125,0.99951171875,34.27000045776367,0.0,8.0,-0.517425537109375,-0.438507080078125,Waiting,0.0,0.0,-113.0,0.0,0.0,0.0,0.0,0.0,
10.992737000000023,0.0,0.0,false,4367718.412070917,,34473.0,0.0,0.0,0.0,0.0,0.125,0.624999936,3.722999999999999,0.0,-111960.0,0.0,0.0,0.0,0.0,0.0,3.973388265,1.2372499999999984,0.0,67542.0,0.0,0.0,0.0,0.0,0.0,2.622070044,3.7154999999999982,0.0,-85420.0,0.0,0.0,0.0,0.0,0.0,3.752441022,1.2368749999999984,0.0,1.3799999952316284,0.17000000178813934,71.44000244140625,0.0052490234375,0.0223388671875,0.973876953125,34.22999954223633,0.0,0.0,-0.51824951171875,-0.43865966796875,Waiting,0.0,0.0,-113.0,0.0,0.0,0.0,0.0,0.0,
11.190527999999992,0.0,0.0,false,4367667.489438744,,34473.0,0.0,0.0,0.0,0.0,0.125,0.624999936,3.722999999999999,0.0,-111960.0,0.0,0.0,0.0,0.0,0.0,3.9538570170000003,1.2372499999999984,0.0,67542.0,0.0,0.0,0.0,0.0,0.0,2.761230186,3.7154999999999982,0.0,-85420.0,0.0,0.0,0.0,0.0,0.0,3.753661725,1.2368749999999984,0.0,1.3600000143051147,0.15000000596046448,71.44000244140625,0.01763916015625,0.021484375,0.99761962890625,34.22999954223633,0.0,2.0,-0.51824951171875,-0.43865966796875,Waiting,0.0,0.0,-113.0,0.0,0.0,0.0,0.0,0.0,
11.381174,0.0,0.0,false,4367595.650901411,,34473.0,0.0,0.0,0.0,0.0,0.125,0.624999936,3.722999999999999,0.0,-111960.0,0.0,0.0,0.0,0.0,0.0,3.9489742050000003,1.2372499999999984,0.0,67542.0,0.0,0.0,0.0,0.0,0.0,2.833251663,3.7154999999999982,0.0,-85420.0,0.0,0.0,0.0,0.0,0.0,3.753661725,1.2368749999999984,0.0,1.340000033378601,0.15000000596046448,71.43000030517578,0.00244140625,0.01861572265625,1.0010986328125,34.22999954223633,0.0,-4.0,-0.51824951171875,-0.43865966796875,Waiting,0.0,0.0,-113.0,0.0,0.0,0.0,0.0,0.0,
11.579456999999994,0.0,0.0,false,4367505.647307286,,34473.0,0.0,0.0,0.0,0.0,0.125,0.624999936,3.722999999999999,0.0,-111960.0,0.0,0.0,0.0,0.0,0.0,3.9489742050000003,1.2372499999999984,0.0,67542.0,0.0,0.0,0.0,0.0,0.0,2.814941118,3.7154999999999982,0.0,-85420.0,0.0,0.0,0.0,0.0,0.0,3.753661725,1.2368749999999984,0.0,1.3200000524520874,0.14000000059604645,71.43000030517578,0.0057373046875,0.0208740234375,0.99786376953125,34.22999954223633,0.0,-1.0,-0.51824951171875,-0.43865966796875,Waiting,0.0,0.0,-113.0,0.0,0.0,0.0,0.0,0.0,
11.771510999999999,0.0,0.0,false,4367394.736857983,,34473.0,0.0,0.0,0.0,0.0,0.125,0.624999936,3.722999999999999,0.0,-111960.0,0.0,0.0,0.0,0.0,0.0,3.9477535020000003,1.2372499999999984,0.0,67542.0,0.0,0.0,0.0,0.0,0.0,2.812499712,3.7154999999999982,0.0,-85420.0,0.0,0.0,0.0,0.0,0.0,3.753661725,1.2368749999999984,0.0,1.309999942779541,0.12999999523162842,71.43000030517578,0.00140380859375,0.02362060546875,0.99267578125,34.22999954223633,0.0,0.0,-0.51824951171875,-0.43865966796875,Waiting,0.0,0.0,-113.0,0.0,0.0,0.0,0.0,0.0,
11.972841000000015,0.0,0.0,false,4367266.03438914,,34472.0,0.25,0.0,-180.46875,0.0,0.75,0.102539052,3.035356049206692,0.0,-111960.0,0.125,0.0,-180.46875,0.0,1.125,4.520263209,1.9228160581136369,0.0,67542.0,0.5,0.0,180.46875,0.0,0.75,3.3752437950000003,4.40175868900686,0.0,-85414.0,0.125,30.0,180.46875,0.0,1.5,3.288573882,0.5515167311543303,0.0,1.3200000524520874,0.1599999964237213,71.37000274658203,-0.03741455078125,0.0120849609375,0.9508056640625,34.25,0.0,-22.0,-0.51708984375,-0.4381103515625,Waiting,0.0,0.0,-113.0,0.0,0.0,0.0,0.0,0.0,
12.158178000000014,0.0,0.0,false,4367263.143955961,,34472.0,0.0,0.0,0.0,0.0,0.25,4.780272948,3.035356049206692,0.0,-111961.0,0.0,0.0,0.0,0.0,0.0,4.680175302,1.9228160581136369,0.0,67540.0,0.0,0.0,0.0,0.0,0.125,3.598632444,4.40175868900686,0.0,-85410.0,0.0,0.0,0.0,0.0,0.375,3.0114743010000002,0.5515167311543303,0.0,1.309999942779541,0.12999999523162842,71.05000305175781,-0.0343017578125,0.0528564453125,1.02618408203125,34.25,0.0,15.0,-0.516357421875,-0.4372406005859375,Waiting,0.0,0.0,-113.0,0.0,0.0,0.0,0.0,0.0,
12.353565000000001,0.0,0.0,false,4367242.22832152,,34472.0,0.0,0.0,0.0,0.0,0.125,4.837645989,3.035356049206692,0.0,-111961.0,0.0,0.0,0.0,0.0,0.0,4.666747569,1.9228160581136369,0.0,67540.0,0.0,0.0,0.0,0.0,0.0,3.513183234,4.40175868900686,0.0,-85410.0,0.0,0.0,0.0,0.0,0.0,3.074950857,0.5515167311543303,0.0,1.2999999523162842,0.10999999940395355,71.05000305175781,-0.0126953125,0.0142822265625,1.02880859375,34.25,0.0,-13.0,-0.5164794921875,-0.4368896484375,Waiting,0.0,0.0,-113.0,0.0,0.0,0.0,0.0,0.0,
12.548184000000008,0.0,0.0,false,4367203.292166176,,34472.0,0.0,0.0,0.0,0.0,0.125,4.862060049,3.035356049206692,0.0,-111961.0,0.0,0.0,0.0,0.0,0.0,4.667968272,1.9228160581136369,0.0,67540.0,0.0,0.0,0.0,0.0,0.0,3.4765621440000003,4.40175868900686,0.0,-85410.0,0.0,0.0,0.0,0.0,0.0,3.084716481,0.5515167311543303,0.0,1.2799999713897705,0.11999999731779099,71.05000305175781,0.0074462890625,0.0198974609375,1.003173828125,34.27000045776367,0.0,0.0,-0.5164794921875,-0.4368896484375,Waiting,0.0,0.0,-113.0,0.0,0.0,0.0,0.0,0.0,
12.752556999999971,0.0,0.0,false,4367143.44933655,,34480.0,5.125,37.5,674.6456480026245,0.0,1.75,0.576171816,3.722999999999999,0.0,-111960.0,5.875,0.0,674.6456480026245,0.0,0.5,3.8964839760000003,1.2372499999999984,0.0,67551.0,4.0,90.0,674.6456480026245,0.0,0.375,2.702636442,3.7154999999999982,0.0,-85400.0,5.0,52.5,674.6456480026245,0.0,1.375,3.7768550820000004,1.2368749999999984,0.0,0.9200000166893005,0.07999999821186066,71.04000091552734,0.07537841796875,-0.150390625,0.99859619140625,34.27000045776367,0.0,-133.0,-0.518463134765625,-0.4356231689453125,Waiting,0.0,0.0,-113.0,0.0,0.0,0.0,0.0,0.0,
12.947380999999995,0.0,0.0,false,4367062.55016962,,34497.0,0.0,0.0,0.0,0.0,0.0,0.95214834,3.722999999999999,0.0,-111960.0,0.0,0.0,0.0,0.0,0.0,3.597411741,1.2372499999999984,0.0,67575.0,0.0,30.0,0.0,0.0,0.0,2.4829099020000003,3.7154999999999982,0.0,-85385.0,0.0,22.5,0.0,0.0,0.0,4.176024963000001,1.2368749999999984,0.0,1.340000033378601,0.20000000298023224,71.2300033569336,-0.04425048828125,0.16754150390625,0.96990966796875,34.27000045776367,0.0,121.0,-0.5262908935546875,-0.43658447265625,Waiting,0.0,0.0,-113.0,0.0,0.0,0.0,0.0,0.0,
13.14621100000001,0.0,0.0,false,4366963.652645862,,34498.0,0.0,0.0,0.0,0.0,0.25,0.74462883,3.722999999999999,0.0,-111961.0,0.0,0.0,0.0,0.0,0.125,3.8415523410000003,1.2372499999999984,0.0,67578.0,0.0,0.0,0.0,0.0,0.125,2.7893063550000003,3.7154999999999982,0.0,-85382.0,0.0,0.0,0.0,0.0,0.0,3.8977046790000003,1.2368749999999984,0.0,1.2899999618530273,0.14000000059604645,71.05999755859375,-0.0205078125,-0.0284423828125,1.03643798828125,34.290000915527344,0.0,-56.0,-0.52618408203125,-0.42950439453125,Waiting,0.0,0.0,-113.0,0.0,0.0,0.0,0.0,0.0,
13.329826,0.0,0.0,false,4366846.760835155,,34498.0,0.0,0.0,0.0,0.0,0.125,0.546874944,3.722999999999999,0.0,-111961.0,0.0,0.0,0.0,0.0,0.0,4.044189039,1.2372499999999984,0.0,67578.0,0.0,0.0,0.0,0.0,0.0,2.9492184480000003,3.7154999999999982,0.0,-85382.0,0.0,0.0,0.0,0.0,0.0,3.6828609510000003,1.2368749999999984,0.0,1.2899999618530273,0.12999999523162842,71.01000213623047,0.00689697265625,0.0093994140625,1.01470947265625,34.290000915527344,0.0,-11.0,-0.5294189453125,-0.4294586181640625,Waiting,0.0,0.0,-113.0,0.0,0.0,0.0,0.0,0.0,
13.530139000000025,0.0,0.0,false,4366855.82634911,,34498.0,0.0,0.0,0.0,0.0,0.125,0.56152338,3.722999999999999,0.0,-111961.0,0.0,0.0,0.0,0.0,0.0,3.9868159980000004,1.2372499999999984,0.0,67578.0,0.0,0.0,0.0,0.0,0.0,2.8479000990000003,3.7154999999999982,0.0,-85382.0,0.0,0.0,0.0,0.0,0.0,3.7390132890000003,1.2368749999999984,0.0,1.2799999713897705,0.12999999523162842,71.0199966430664,0.009033203125,0.01971435546875,1.005126953125,34.27000045776367,0.0,0.0,-0.5294189453125,-0.4294586181640625,Waiting,0.0,0.0,-113.0,0.0,0.0,0.0,0.0,0.0,
13.723140000000013,0.0,0.0,false,4366846.7513753865,,34498.0,0.0,0.0,0.0,0.0,0.125,0.560302677,3.722999999999999,0.0,-111961.0,0.0,0.0,0.0,0.0,0.0,3.9880367010000004,1.2372499999999984,0.0,67578.0,0.0,0.0,0.0,0.0,0.0,2.808837603,3.7154999999999982,0.0,-85382.0,0.0,0.0,0.0,0.0,0.0,3.7377925860000003,1.2368749999999984,0.0,1.2699999809265137,0.11999999731779099,71.01000213623047,3.662109375E-4,0.02166748046875,1.00091552734375,34.27000045776367,0.0,-1.0,-0.5294189453125,-0.4294586181640625,Waiting,0.0,0.0,-113.0,0.0,0.0,0.0,0.0,0.0,
13.908395000000018,0.0,0.0,false,4366819.530972118,,34498.0,0.0,0.0,0.0,0.0,0.125,0.56152338,3.722999999999999,0.0,-111961.0,0.0,0.0,0.0,0.0,0.0,3.963622641,1.2372499999999984,0.0,67578.0,0.0,0.0,0.0,0.0,0.0,2.808837603,3.7154999999999982,0.0,-85382.0,0.0,0.0,0.0,0.0,0.0,3.7475582100000002,1.2368749999999984,0.0,1.2699999809265137,0.11999999731779099,71.01000213623047,0.00115966796875,0.02447509765625,0.99578857421875,34.27000045776367,0.0,1.0,-0.5294189453125,-0.4294586181640625,Waiting,0.0,0.0,-113.0,0.0,0.0,0.0,0.0,0.0,
14.100813000000024,0.0,0.0,false,4366771.269685781,,34498.0,0.0,0.0,0.0,0.0,0.125,0.56152338,3.722999999999999,0.0,-111961.0,0.0,0.0,0.0,0.0,0.0,3.958739829,1.2372499999999984,0.0,67578.0,0.0,0.0,0.0,0.0,0.0,2.808837603,3.7154999999999982,0.0,-85382.0,0.0,0.0,0.0,0.0,0.0,3.748778913,1.2368749999999984,0.0,1.25,0.10999999940395355,71.0,0.00323486328125,0.0255126953125,0.9927978515625,34.31999969482422,0.0,3.0,-0.5294189453125,-0.4294586181640625,Waiting,0.0,0.0,-113.0,0.0,0.0,0.0,0.0,0.0,
14.290417000000016,0.0,0.0,false,4366701.972272453,,34498.0,0.0,0.0,0.0,0.0,0.125,0.56152338,3.722999999999999,0.0,-111961.0,0.0,0.0,0.0,0.0,0.0,3.957519126,1.2372499999999984,0.0,67578.0,0.0,0.0,0.0,0.0,0.0,2.810058306,3.7154999999999982,0.0,-85382.0,0.0,0.0,0.0,0.0,0.0,3.748778913,1.2368749999999984,0.0,1.25,0.10000000149011612,71.0,0.00115966796875,0.0242919921875,0.99993896484375,34.31999969482422,0.0,2.0,-0.5294189453125,-0.4294586181640625,Waiting,0.0,0.0,-113.0,0.0,0.0,0.0,0.0,0.0,
14.485680999999982,0.0,0.0,false,4366614.406991637,,34498.0,0.0,0.0,0.0,0.0,0.125,0.560302677,3.722999999999999,0.0,-111961.0,0.0,0.0,0.0,0.0,0.0,3.958739829,1.2372499999999984,0.0,67578.0,0.0,0.0,0.0,0.0,0.0,2.810058306,3.7154999999999982,0.0,-85382.0,0.0,0.0,0.0,0.0,0.0,3.748778913,1.2368749999999984,0.0,1.25,0.10000000149011612,71.0,0.0015869140625,0.02178955078125,0.9981689453125,34.31999969482422,0.0,0.0,-0.5294189453125,-0.4294586181640625,Waiting,0.0,0.0,-113.0,0.0,0.0,0.0,0.0,0.0,
14.668599999999977,0.0,0.0,false,4366508.732258551,,34498.0,0.0,0.0,0.0,0.0,0.125,0.562744083,3.722999999999999,0.0,-111961.0,0.0,0.0,0.0,0.0,0.0,3.958739829,1.2372499999999984,0.0,67578.0,0.0,0.0,0.0,0.0,0.0,2.808837603,3.7154999999999982,0.0,-85382.0,0.0,0.0,0.0,0.0,0.0,3.7475582100000002,1.2368749999999984,0.0,1.2400000095367432,0.10999999940395355,71.0,0.00201416015625,0.0213623046875,0.9931640625,34.29999923706055,0.0,0.0,-0.5294189453125,-0.4294586181640625,Waiting,0.0,0.0,-113.0,0.0,0.0,0.0,0.0,0.0,
14.856025000000024,0.0,0.0,false,4366382.03480226,,34498.0,0.0,0.0,0.0,0.0,0.125,0.56152338,3.722999999999999,0.0,-111961.0,0.0,0.0,0.0,0.0,0.0,3.958739829,1.2372499999999984,0.0,67578.0,0.0,0.0,0.0,0.0,0.0,2.808837603,3.7154999999999982,0.0,-85382.0,0.0,0.0,0.0,0.0,0.0,3.7475582100000002,1.2368749999999984,0.0,1.2400000095367432,0.10000000149011612,71.0,0.00238037109375,0.01983642578125,0.9925537109375,34.29999923706055,0.0,-1.0,-0.5294189453125,-0.4294586181640625,Waiting,0.0,0.0,-113.0,0.0,0.0,0.0,0.0,0.0,
15.07038400000002,0.0,0.0,false,4366384.959927689,,34498.0,0.0,0.0,0.0,0.0,0.125,0.560302677,3.722999999999999,0.0,-111961.0,0.0,0.0,0.0,0.0,0.0,3.957519126,1.2372499999999984,0.0,67578.0,0.0,0.0,0.0,0.0,0.0,2.808837603,3.7154999999999982,0.0,-85382.0,0.0,0.0,0.0,0.0,0.0,3.748778913,1.2368749999999984,0.0,1.2300000190734863,0.10999999940395355,71.0,0.00433349609375,0.02142333984375,0.99578857421875,34.349998474121094,0.0,0.0,-0.5294189453125,-0.4294586181640625,Waiting,0.0,0.0,-113.0,0.0,0.0,0.0,0.0,0.0,
15.284040999999968,0.0,0.0,false,4366366.69669353,,34498.0,0.0,0.0,0.0,0.0,0.125,0.560302677,3.722999999999999,0.0,-111961.0,0.0,0.0,0.0,0.0,0.0,3.959960532,1.2372499999999984,0.0,67578.0,0.0,0.0,0.0,0.0,0.0,2.810058306,3.7154999999999982,0.0,-85382.0,0.0,0.0,0.0,0.0,0.0,3.748778913,1.2368749999999984,0.0,1.2300000190734863,0.10999999940395355,70.98999786376953,0.0010986328125,0.0224609375,0.9945068359375,34.349998474121094,0.0,0.0,-0.5294189453125,-0.4294586181640625,Waiting,0.0,0.0,-113.0,0.0,0.0,0.0,0.0,0.0,
15.490130999999995,0.0,0.0,false,4366330.03223377,,34498.0,0.0,0.0,0.0,0.0,0.125,0.560302677,3.722999999999999,0.0,-111961.0,0.0,0.0,0.0,0.0,0.0,3.957519126,1.2372499999999984,0.0,67578.0,0.0,0.0,0.0,0.0,0.0,2.808837603,3.7154999999999982,0.0,-85382.0,0.0,0.0,0.0,0.0,0.0,3.748778913,1.2368749999999984,0.0,1.2300000190734863,0.10000000149011612,70.98999786376953,0.0028076171875,0.02069091796875,0.9967041015625,34.349998474121094,0.0,0.0,-0.5294189453125,-0.4294586181640625,Waiting,0.0,0.0,-113.0,0.0,0.0,0.0,0.0,0.0,
15.694920999999972,0.0,0.0,false,4366272.197605241,,34498.0,0.0,0.0,0.0,0.0,0.125,0.560302677,3.722999999999999,0.0,-111961.0,0.0,0.0,0.0,0.0,0.0,3.959960532,1.2372499999999984,0.0,67578.0,0.0,0.0,0.0,0.0,0.0,2.810058306,3.7154999999999982,0.0,-85382.0,0.0,0.0,0.0,0.0,0.0,3.7475582100000002,1.2368749999999984,0.0,1.2300000190734863,0.10000000149011612,70.9800033569336,0.00341796875,0.02130126953125,0.99664306640625,34.34000015258789,0.0,0.0,-0.5294189453125,-0.4294586181640625,Waiting,0.0,0.0,-113.0,0.0,0.0,0.0,0.0,0.0,
15.902449000000022,0.0,0.0,false,4366195.980120482,,34498.0,0.0,0.0,0.0,0.0,0.125,0.56152338,3.722999999999999,0.0,-111961.0,0.0,0.0,0.0,0.0,0.0,3.957519126,1.2372499999999984,0.0,67578.0,0.0,0.0,0.0,0.0,0.0,2.808837603,3.7154999999999982,0.0,-85382.0,0.0,0.0,0.0,0.0,0.0,3.748778913,1.2368749999999984,0.0,1.2400000095367432,0.10000000149011612,70.9800033569336,4.2724609375E-4,0.019775390625,0.9962158203125,34.34000015258789,0.0,-2.0,-0.5294189453125,-0.4294586181640625,Waiting,0.0,0.0,-113.0,0.0,0.0,0.0,0.0,0.0,
16.113104999999983,0.0,0.0,false,4366101.383931933,,34498.0,0.0,0.0,0.0,0.0,0.125,0.562744083,3.722999999999999,0.0,-111961.0,0.0,0.0,0.0,0.0,0.0,3.958739829,1.2372499999999984,0.0,67578.0,0.0,0.0,0.0,0.0,0.0,2.810058306,3.7154999999999982,0.0,-85382.0,0.0,0.0,0.0,0.0,0.0,3.7475582100000002,1.2368749999999984,0.0,1.2300000190734863,0.07999999821186066,70.9800033569336,0.00848388671875,0.02471923828125,1.0384521484375,34.36000061035156,0.0,4.0,-0.5294647216796875,-0.4294586181640625,Waiting,0.0,0.0,-113.0,0.0,0.0,0.0,0.0,0.0,
16.321699000000024,0.0,0.0,false,4365985.384731215,,34498.0,0.0,0.0,0.0,0.0,0.125,0.56152338,3.722999999999999,0.0,-111961.0,0.0,0.0,0.0,0.0,0.0,3.959960532,1.2372499999999984,0.0,67578.0,0.0,0.0,0.0,0.0,0.0,2.808837603,3.7154999999999982,0.0,-85382.0,0.0,0.0,0.0,0.0,0.0,3.7463375070000002,1.2368749999999984,0.0,1.2400000095367432,0.09000000357627869,70.97000122070312,-0.0301513671875,-0.0050048828125,0.9864501953125,34.36000061035156,0.0,-35.0,-0.5293731689453125,-0.4292449951171875,Waiting,0.0,0.0,-113.0,0.0,0.0,0.0,0.0,0.0,
16.534238000000013,0.0,0.0,false,4365997.35903034,,34498.0,0.0,0.0,0.0,0.0,0.125,0.56152338,3.722999999999999,0.0,-111961.0,0.0,0.0,0.0,0.0,0.0,3.958739829,1.2372499999999984,0.0,67578.0,0.0,0.0,0.0,0.0,0.0,2.808837603,3.7154999999999982,0.0,-85382.0,0.0,0.0,0.0,0.0,0.0,3.7475582100000002,1.2368749999999984,0.0,1.2300000190734863,0.09000000357627869,70.97000122070312,0.0062255859375,0.01129150390625,1.0413818359375,34.36000061035156,0.0,-9.0,-0.5296783447265625,-0.4286956787109375,Waiting,0.0,0.0,-113.0,0.0,0.0,0.0,0.0,0.0,
16.732630000000004,0.0,0.0,false,4365990.803974707,,34498.0,0.0,0.0,0.0,0.0,0.125,0.560302677,3.722999999999999,0.0,-111961.0,0.0,0.0,0.0,0.0,0.0,3.958739829,1.2372499999999984,0.0,67578.0,0.0,0.0,0.0,0.0,0.0,2.808837603,3.7154999999999982,0.0,-85382.0,0.0,0.0,0.0,0.0,0.0,3.748778913,1.2368749999999984,0.0,1.2000000476837158,0.07999999821186066,70.95999908447266,0.00537109375,0.02496337890625,1.03125,34.369998931884766,0.0,4.0,-0.5300140380859375,-0.4286041259765625,Waiting,0.0,0.0,-113.0,0.0,0.0,0.0,0.0,0.0,
16.913216000000016,0.0,0.0,false,4365966.041701167,,34498.0,0.0,0.0,0.0,0.0,0.125,0.56152338,3.722999999999999,0.0,-111961.0,0.0,0.0,0.0,0.0,0.0,3.959960532,1.2372499999999984,0.0,67578.0,0.0,0.0,0.0,0.0,0.0,2.808837603,3.7154999999999982,0.0,-85382.0,0.0,0.0,0.0,0.0,0.0,3.7475582100000002,1.2368749999999984,0.0,1.2100000381469727,0.07999999821186066,70.95999908447266,0.00390625,0.02471923828125,1.02264404296875,34.369998931884766,0.0,3.0,-0.5300140380859375,-0.4286041259765625,Waiting,0.0,0.0,-113.0,0.0,0.0,0.0,0.0,0.0,
17.09416499999998,0.0,0.0,false,4365919.965678157,,34498.0,0.0,0.0,0.0,0.0,0.125,0.560302677,3.722999999999999,0.0,-111961.0,0.0,0.0,0.0,0.0,0.0,3.957519126,1.2372499999999984,0.0,67578.0,0.0,0.0,0.0,0.0,0.0,2.810058306,3.7154999999999982,0.0,-85382.0,0.0,0.0,0.0,0.0,0.0,3.7475582100000002,1.2368749999999984,0.0,1.2200000286102295,0.07999999821186066,70.95999908447266,-0.00299072265625,0.0235595703125,1.02197265625,34.34000015258789,0.0,0.0,-0.529937744140625,-0.4286041259765625,Waiting,0.0,0.0,-113.0,0.0,0.0,0.0,0.0,0.0,
17.288786000000023,0.0,0.0,false,4365855.546022428,,34498.0,0.0,0.0,0.0,0.0,0.125,0.56152338,3.722999999999999,0.0,-111961.0,0.0,0.0,0.0,0.0,0.0,3.958739829,1.2372499999999984,0.0,67578.0,0.0,0.0,0.0,0.0,0.0,2.808837603,3.7154999999999982,0.0,-85382.0,0.0,0.0,0.0,0.0,0.0,3.7463375070000002,1.2368749999999984,0.0,1.1799999475479126,0.09000000357627869,70.94000244140625,-0.02239990234375,0.0191650390625,1.0506591796875,34.34000015258789,0.0,-10.0,-0.53076171875,-0.42877197265625,Waiting,0.0,0.0,-113.0,0.0,0.0,0.0,0.0,0.0,
17.46967300000001,0.0,0.0,false,4365769.67730283,,34498.0,0.0,0.0,0.0,0.0,0.125,0.560302677,3.722999999999999,0.0,-111961.0,0.0,0.0,0.0,0.0,0.0,3.958739829,1.2372499999999984,0.0,67578.0,0.0,0.0,0.0,0.0,0.0,2.810058306,3.7154999999999982,0.0,-85382.0,0.0,0.0,0.0,0.0,0.0,3.748778913,1.2368749999999984,0.0,1.159999966621399,0.10000000149011612,70.94000244140625,0.08306884765625,-0.0338134765625,0.8968505859375,34.34000015258789,0.0,-22.0,-0.5336761474609375,-0.429168701171875,Waiting,0.0,0.0,-113.0,0.0,0.0,0.0,0.0,0.0,
17.652563000000022,0.0,0.0,false,4365665.473700053,,34498.0,0.0,0.0,0.0,0.0,0.125,0.560302677,3.722999999999999,0.0,-111961.0,0.0,0.0,0.0,0.0,0.0,3.957519126,1.2372499999999984,0.0,67578.0,0.0,0.0,0.0,0.0,0.0,2.808837603,3.7154999999999982,0.0,-85382.0,0.0,0.0,0.0,0.0,0.0,3.748778913,1.2368749999999984,0.0,1.2300000190734863,0.05999999865889549,70.94999694824219,0.02130126953125,0.04156494140625,1.06695556640625,34.349998474121094,0.0,24.0,-0.534088134765625,-0.430084228515625,Waiting,0.0,0.0,-113.0,0.0,0.0,0.0,0.0,0.0,
17.840161000000023,0.0,0.0,false,4365542.939352897,,34498.0,0.0,0.0,0.0,0.0,0.125,0.560302677,3.722999999999999,0.0,-111961.0,0.0,0.0,0.0,0.0,0.0,3.958739829,1.2372499999999984,0.0,67578.0,0.0,0.0,0.0,0.0,0.0,2.808837603,3.7154999999999982,0.0,-85382.0,0.0,0.0,0.0,0.0,0.0,3.748778913,1.2368749999999984,0.0,1.2100000381469727,0.07999999821186066,70.94999694824219,-0.00225830078125,0.02105712890625,0.9495849609375,34.349998474121094,0.0,0.0,-0.5338287353515625,-0.4305572509765625,Waiting,0.0,0.0,-113.0,0.0,0.0,0.0,0.0,0.0,
18.022620999999983,0.0,0.0,false,4365546.177714243,,34498.0,0.0,0.0,0.0,0.0,0.125,0.560302677,3.722999999999999,0.0,-111961.0,0.0,0.0,0.0,0.0,0.0,3.958739829,1.2372499999999984,0.0,67578.0,0.0,0.0,0.0,0.0,0.0,2.808837603,3.7154999999999982,0.0,-85382.0,0.0,0.0,0.0,0.0,0.0,3.7475582100000002,1.2368749999999984,0.0,1.2100000381469727,0.09000000357627869,70.94999694824219,-6.103515625E-5,0.0120849609375,0.9703369140625,34.349998474121094,0.0,-8.0,-0.5338287353515625,-0.4308013916015625,Waiting,0.0,0.0,-113.0,0.0,0.0,0.0,0.0,0.0,
18.21252000000002,0.0,0.0,false,4365531.185073729,,34498.0,0.0,0.0,0.0,0.0,0.125,0.560302677,3.722999999999999,0.0,-111961.0,0.0,0.0,0.0,0.0,0.0,3.958739829,1.2372499999999984,0.0,67578.0,0.0,0.0,0.0,0.0,0.0,2.808837603,3.7154999999999982,0.0,-85382.0,0.0,0.0,0.0,0.0,0.0,3.7475582100000002,1.2368749999999984,0.0,1.2100000381469727,0.09000000357627869,70.94000244140625,6.103515625E-4,0.01983642578125,0.9771728515625,34.349998474121094,0.0,-1.0,-0.5338287353515625,-0.4308013916015625,Waiting,0.0,0.0,-113.0,0.0,0.0,0.0,0.0,0.0,
18.396389000000024,0.0,0.0,false,4365497.956518468,,34498.0,0.0,0.0,0.0,0.0,0.125,0.560302677,3.722999999999999,0.0,-111961.0,0.0,0.0,0.0,0.0,0.0,3.959960532,1.2372499999999984,0.0,67578.0,0.0,0.0,0.0,0.0,0.0,2.808837603,3.7154999999999982,0.0,-85382.0,0.0,0.0,0.0,0.0,0.0,3.7475582100000002,1.2368749999999984,0.0,1.2300000190734863,0.09000000357627869,70.94000244140625,-0.00274658203125,0.03167724609375,1.023193359375,34.349998474121094,0.0,7.0,-0.5338287353515625,-0.4308013916015625,Waiting,0.0,0.0,-113.0,0.0,0.0,0.0,0.0,0.0,
18.585400000000025,0.0,0.0,false,4365443.572137807,,34498.0,0.0,0.0,0.0,0.0,0.125,0.560302677,3.722999999999999,0.0,-111961.0,0.0,0.0,0.0,0.0,0.0,3.958739829,1.2372499999999984,0.0,67578.0,0.0,0.0,0.0,0.0,0.0,2.808837603,3.7154999999999982,0.0,-85382.0,0.0,0.0,0.0,0.0,0.0,3.749999616,1.2368749999999984,0.0,1.2200000286102295,0.09000000357627869,70.94000244140625,0.002685546875,0.03302001953125,1.0079345703125,34.349998474121094,0.0,11.0,-0.5338287353515625,-0.4308013916015625,Waiting,0.0,0.0,-113.0,0.0,0.0,0.0,0.0,0.0,
18.768699000000023,0.0,0.0,false,4365370.9791651,,34498.0,0.0,0.0,0.0,0.0,0.125,0.560302677,3.722999999999999,0.0,-111961.0,0.0,0.0,0.0,0.0,0.0,3.959960532,1.2372499999999984,0.0,67578.0,0.0,0.0,0.0,0.0,0.0,2.808837603,3.7154999999999982,0.0,-85382.0,0.0,0.0,0.0,0.0,0.0,3.7475582100000002,1.2368749999999984,0.0,1.2300000190734863,0.07999999821186066,70.94000244140625,-0.005859375,0.00860595703125,0.9896240234375,34.36000061035156,0.0,-14.0,-0.5338287353515625,-0.4308929443359375,Waiting,0.0,0.0,-113.0,0.0,0.0,0.0,0.0,0.0,
18.952620999999986,0.0,0.0,false,4365280.181708785,,34498.0,0.0,0.0,0.0,0.0,0.125,0.560302677,3.722999999999999,0.0,-111961.0,0.0,0.0,0.0,0.0,0.0,3.958739829,1.2372499999999984,0.0,67578.0,0.0,0.0,0.0,0.0,0.0,2.808837603,3.7154999999999982,0.0,-85382.0,0.0,0.0,0.0,0.0,0.0,3.748778913,1.2368749999999984,0.0,1.2200000286102295,0.10000000149011612,70.93000030517578,0.0089111328125,0.0255126953125,0.9537353515625,34.36000061035156,0.0,7.0,-0.5339508056640625,-0.431121826171875,Waiting,0.0,0.0,-113.0,0.0,0.0,0.0,0.0,0.0,
19.136950000000013,0.0,0.0,false,4365168.250883658,,34498.0,0.0,0.0,0.0,0.0,0.125,0.56152338,3.722999999999999,0.0,-111961.0,0.0,0.0,0.0,0.0,0.0,3.958739829,1.2372499999999984,0.0,67578.0,0.0,0.0,0.0,0.0,0.0,2.810058306,3.7154999999999982,0.0,-85382.0,0.0,0.0,0.0,0.0,0.0,3.7475582100000002,1.2368749999999984,0.0,1.2200000286102295,0.09000000357627869,70.94000244140625,-0.01336669921875,0.02178955078125,0.99212646484375,34.369998931884766,0.0,-4.0,-0.5339508056640625,-0.431121826171875,Waiting,0.0,0.0,-113.0,0.0,0.0,0.0,0.0,0.0,
19.32891399999999,0.0,0.0,false,4365185.047977139,,34498.0,0.0,0.0,0.0,0.0,0.125,0.56152338,3.722999999999999,0.0,-111961.0,0.0,0.0,0.0,0.0,0.0,3.957519126,1.2372499999999984,0.0,67578.0,0.0,0.0,0.0,0.0,0.0,2.808837603,3.7154999999999982,0.0,-85382.0,0.0,0.0,0.0,0.0,0.0,3.7475582100000002,1.2368749999999984,0.0,1.2200000286102295,0.10000000149011612,70.93000030517578,-0.00311279296875,0.0118408203125,1.0003662109375,34.369998931884766,0.0,-10.0,-0.5339508056640625,-0.431121826171875,Waiting,0.0,0.0,-113.0,0.0,0.0,0.0,0.0,0.0,
19.608771000000008,0.0,0.0,false,4365181.795924505,,34498.0,0.0,0.0,0.0,0.0,0.125,0.560302677,3.722999999999999,0.0,-111961.0,0.0,0.0,0.0,0.0,0.0,3.958739829,1.2372499999999984,0.0,67578.0,0.0,0.0,0.0,0.0,0.0,2.808837603,3.7154999999999982,0.0,-85382.0,0.0,0.0,0.0,0.0,0.0,3.7475582100000002,1.2368749999999984,0.0,1.2300000190734863,0.09000000357627869,70.93000030517578,0.0145263671875,0.0030517578125,0.98760986328125,34.369998931884766,0.0,-12.0,-0.533660888671875,-0.4309234619140625,Waiting,0.0,0.0,-113.0,0.0,0.0,0.0,0.0,0.0,
19.79225,0.0,0.0,false,4365157.240300752,,34498.0,0.0,0.0,0.0,0.0,0.125,0.56152338,3.722999999999999,0.0,-111961.0,0.0,0.0,0.0,0.0,0.0,3.959960532,1.2372499999999984,0.0,67578.0,0.0,0.0,0.0,0.0,0.0,2.808837603,3.7154999999999982,0.0,-85382.0,0.0,0.0,0.0,0.0,0.0,3.748778913,1.2368749999999984,0.0,1.2200000286102295,0.09000000357627869,70.93000030517578,0.00726318359375,0.0208740234375,0.986328125,34.34000015258789,0.0,1.0,-0.533660888671875,-0.4309539794921875,Waiting,0.0,0.0,-113.0,0.0,0.0,0.0,0.0,0.0,
19.97389500000002,0.0,0.0,false,4365114.357116006,,34498.0,0.0,0.0,0.0,0.0,0.125,0.56152338,3.722999999999999,0.0,-111961.0,0.0,0.0,0.0,0.0,0.0,3.957519126,1.2372499999999984,0.0,67578.0,0.0,0.0,0.0,0.0,0.0,2.808837603,3.7154999999999982,0.0,-85382.0,0.0,0.0,0.0,0.0,0.0,3.748778913,1.2368749999999984,0.0,1.2300000190734863,0.09000000357627869,70.93000030517578,0.001953125,0.018310546875,0.9974365234375,34.34000015258789,0.0,-2.0,-0.533660888671875,-0.4309539794921875,Waiting,0.0,0.0,-113.0,0.0,0.0,0.0,0.0,0.0,
20.158597999999998,0.0,0.0,false,4365053.150503684,,34498.0,0.0,0.0,0.0,0.0,0.125,0.56152338,3.722999999999999,0.0,-111961.0,0.0,0.0,0.0,0.0,0.0,3.958739829,1.2372499999999984,0.0,67578.0,0.0,0.0,0.0,0.0,0.0,2.808837603,3.7154999999999982,0.0,-85382.0,0.0,0.0,0.0,0.0,0.0,3.7475582100000002,1.2368749999999984,0.0,1.2300000190734863,0.09000000357627869,70.93000030517578,0.00286865234375,0.02081298828125,1.00616455078125,34.369998931884766,0.0,0.0,-0.533660888671875,-0.4309539794921875,Waiting,0.0,0.0,-113.0,0.0,0.0,0.0,0.0,0.0,
20.349091000000016,0.0,0.0,false,4364973.470645719,,34498.0,0.0,0.0,0.0,0.0,0.125,0.560302677,3.722999999999999,0.0,-111961.0,0.0,0.0,0.0,0.0,0.0,3.958739829,1.2372499999999984,0.0,67578.0,0.0,0.0,0.0,0.0,0.0,2.808837603,3.7154999999999982,0.0,-85382.0,0.0,0.0,0.0,0.0,0.0,3.748778913,1.2368749999999984,0.0,1.2300000190734863,0.09000000357627869,70.93000030517578,0.0029296875,0.024169921875,0.99560546875,34.369998931884766,0.0,2.0,-0.533660888671875,-0.4309539794921875,Waiting,0.0,0.0,-113.0,0.0,0.0,0.0,0.0,0.0,
20.526706999999995,0.0,0.0,false,4364875.475646422,,34498.0,0.0,0.0,0.0,0.0,0.125,0.5615