Time,ClimberA1,ClimberA2,CameraExists,HeapSpace,LoopTime,FRpos,FRCurrent,FRspeed,FRsetpoint,FRApos,FRACurrent,FREncpos,FREncSetpoint,FREncSpeed,FLpos,FLCurrent,FLspeed,FLsetpoint,FLApos,FLACurrent,FLEncpos,FLEncSetpoint,FLEncSpeed,BRpos,BRCurrent,BRspeed,BRsetpoint,BRApos,BRACurrent,BREncpos,BREncSetpoint,BREncSpeed,BLpos,BLCurrent,BLspeed,BLsetpoint,BLApos,BLACurrent,BLEncpos,BLEncSetpoint,BLEncSpeed,navx_Pitch,navx_Roll,navx_Yaw,navx_XAcc,navx_YAcc,navx_ZAcc,navx_Temp,navx_Bar,navx_Alt,navx_XDis,navx_YDis,GearPlacerState,ShootOutputV,ShootOutputCurrent,ShootEncPos,ShootEncVelocity,ShootSpeed,ShootSetpoint,CarouselSetpoint,CarouselCurrent,
0.22799499999999534,0.0,0.0,false,3818705.754445385,,-6578.0,0.0,0.0,0.0,0.0,2.75,1.202392455,0.0,0.0,-42834.0,0.0,0.0,-0.0,0.0,1.625,2.027587683,0.0,0.0,15791.0,0.0,0.0,0.0,0.0,2.25,3.487548471,0.0,0.0,-28999.0,0.0,0.0,-0.0,0.0,3.75,1.885986135,0.0,0.0,1.340000033378601,0.47999998927116394,31.530000686645508,0.01007080078125,0.02276611328125,1.0028076171875,29.799999237060547,0.0,0.0,-1.6728973388671875,-1.2171783447265625,Waiting,0.0,0.0,-114.0,0.0,0.0,0.0,0.0,0.0,
0.33869500000000696,0.0,0.0,false,3818949.721058201,,-6578.0,0.0,0.0,0.0,0.0,0.875,1.749267399,0.0,0.0,-42834.0,0.0,0.0,-0.0,0.0,1.0,2.6342770740000003,0.0,0.0,15789.0,0.0,-7.5,0.0,0.0,0.375,3.9880367010000004,0.0,0.0,-28999.0,0.0,0.0,-0.0,0.0,0.875,2.493896229,0.0,0.0,1.309999942779541,0.5199999809265137,31.59000015258789,0.02703857421875,0.02984619140625,0.9873046875,29.799999237060547,0.0,19.0,-1.6728363037109375,-1.216583251953125,Waiting,0.0,0.0,-114.0,0.0,0.0,0.0,0.0,0.0,
0.4566720000000205,0.0,0.0,false,3819153.5691917054,,-6578.0,0.0,0.0,0.0,0.0,0.125,2.259521253,0.0,0.0,-42834.0,0.0,0.0,-0.0,0.0,0.25,3.175048503,0.0,0.0,15788.0,0.0,0.0,0.0,0.0,0.0,4.3957515030000005,0.0,0.0,-28999.0,0.0,0.0,-0.0,0.0,0.125,2.97851532,0.0,0.0,1.3300000429153442,0.5199999809265137,31.579999923706055,-0.0247802734375,0.0369873046875,1.01226806640625,29.799999237060547,0.0,-21.0,-1.6728515625,-1.2169952392578125,Waiting,0.0,0.0,-114.0,0.0,0.0,0.0,0.0,0.0,
0.5705400000000082,0.0,0.0,false,3819325.49524011,,-6578.0,0.0,0.0,0.0,0.0,0.875,2.191161885,0.0,0.0,-42834.0,0.0,0.0,-0.0,0.0,1.125,3.0541989060000003,0.0,0.0,15788.0,0.0,0.0,0.0,0.0,0.375,4.255370658,0.0,0.0,-28999.0,0.0,0.0,-0.0,0.0,0.75,2.88085908,0.0,0.0,1.309999942779541,0.4699999988079071,31.549999237060547,0.01318359375,0.0,0.94427490234375,29.799999237060547,0.0,-6.0,-1.6734619140625,-1.2166900634765625,Waiting,0.0,0.0,-114.0,0.0,0.0,0.0,0.0,0.0,
0.6867639999999956,0.0,0.0,false,3819465.084602369,,-6578.0,0.0,0.0,0.0,0.0,0.125,1.849365045,0.0,0.0,-42834.0,0.0,0.0,-0.0,0.0,0.0,2.73437472,0.0,0.0,15788.0,0.0,0.0,0.0,0.0,0.0,4.00390584,0.0,0.0,-28999.0,0.0,0.0,-0.0,0.0,0.0,2.553710676,0.0,0.0,1.3300000429153442,0.4399999976158142,31.5,0.01983642578125,0.0692138671875,0.99102783203125,29.799999237060547,0.0,34.0,-1.674041748046875,-1.2170867919921875,Waiting,0.0,0.0,-114.0,0.0,0.0,0.0,0.0,0.0,
0.8017829999999958,0.0,0.0,false,3819572.8179319096,,-6578.0,0.0,0.0,0.0,0.0,0.0,1.754150211,0.0,0.0,-42834.0,0.0,0.0,-0.0,0.0,0.0,2.623290747,0.0,0.0,15788.0,0.0,0.0,0.0,0.0,0.0,3.966064047,0.0,0.0,-28999.0,0.0,0.0,-0.0,0.0,0.0,2.4865720110000002,0.0,0.0,1.3300000429153442,0.41999998688697815,31.510000228881836,0.00872802734375,0.041015625,1.0657958984375,29.790000915527344,0.0,9.0,-1.6742706298828125,-1.21710205078125,Waiting,0.0,0.0,-114.0,0.0,0.0,0.0,0.0,0.0,
0.9190190000000003,0.0,0.0,false,3819640.5513742073,,-6578.0,0.0,0.0,0.0,0.0,0.0,1.778564271,0.0,0.0,-42834.0,0.0,0.0,-0.0,0.0,0.0,2.672118867,0.0,0.0,15788.0,0.0,0.0,0.0,0.0,0.0,3.9904781070000004,0.0,0.0,-28999.0,0.0,0.0,-0.0,0.0,0.0,2.503661853,0.0,0.0,1.3200000524520874,0.5,31.520000457763672,0.010498046875,0.032470703125,1.0255126953125,29.790000915527344,0.0,5.0,-1.674102783203125,-1.21710205078125,Waiting,0.0,0.0,-114.0,0.0,0.0,0.0,0.0,0.0,
1.0342880000000005,0.0,0.0,false,3819676.4726273515,,-6578.0,0.0,0.0,0.0,0.0,0.0,1.7932127070000001,0.0,0.0,-42834.0,0.0,0.0,-0.0,0.0,0.0,2.6855466000000003,0.0,0.0,15788.0,0.0,0.0,0.0,0.0,0.0,4.007567949,0.0,0.0,-28999.0,0.0,0.0,-0.0,0.0,0.0,2.512206774,0.0,0.0,1.3300000429153442,0.4699999988079071,31.530000686645508,8.544921875E-4,0.01708984375,0.98382568359375,29.790000915527344,0.0,-9.0,-1.674102783203125,-1.21710205078125,Waiting,0.0,0.0,-114.0,0.0,0.0,0.0,0.0,0.0,
1.1542290000000213,0.0,0.0,false,3819680.1690617073,,-6578.0,0.0,0.0,0.0,0.0,0.0,1.7932127070000001,0.0,0.0,-42834.0,0.0,0.0,-0.0,0.0,0.0,2.6855466000000003,0.0,0.0,15788.0,0.0,0.0,0.0,0.0,0.0,4.008788652,0.0,0.0,-28999.0,0.0,0.0,-0.0,0.0,0.0,2.512206774,0.0,0.0,1.3300000429153442,0.49000000953674316,31.530000686645508,0.0111083984375,0.01885986328125,0.9881591796875,29.790000915527344,0.0,0.0,-1.674102783203125,-1.21710205078125,Waiting,0.0,0.0,-114.0,0.0,0.0,0.0,0.0,0.0,
1.2715899999999964,0.0,0.0,false,3819651.6611028947,,-6578.0,0.0,0.0,0.0,0.0,0.0,1.7919920040000001,0.0,0.0,-42834.0,0.0,0.0,-0.0,0.0,0.0,2.6855466000000003,0.0,0.0,15788.0,0.0,0.0,0.0,0.0,0.0,4.007567949,0.0,0.0,-28999.0,0.0,0.0,-0.0,0.0,0.0,2.512206774,0.0,0.0,1.340000033378601,0.4699999988079071,31.540000915527344,0.0037841796875,0.0262451171875,1.01226806640625,29.799999237060547,0.0,-2.0,-1.674102783203125,-1.21710205078125,Waiting,0.0,0.0,-114.0,0.0,0.0,0.0,0.0,0.0,
1.3884110000000218,0.0,0.0,false,3819583.6772285593,,-6578.0,0.0,0.0,0.0,0.0,0.0,1.7919920040000001,0.0,0.0,-42834.0,0.0,0.0,-0.0,0.0,0.0,2.6855466000000003,0.0,0.0,15788.0,0.0,0.0,0.0,0.0,0.0,4.008788652,0.0,0.0,-28999.0,0.0,0.0,-0.0,0.0,0.0,2.512206774,0.0,0.0,1.3300000429153442,0.49000000953674316,31.540000915527344,0.0079345703125,0.0264892578125,1.01226806640625,29.799999237060547,0.0,0.0,-1.674102783203125,-1.21710205078125,Waiting,0.0,0.0,-114.0,0.0,0.0,0.0,0.0,0.0,
1.4999079999999958,0.0,0.0,false,3819475.8099260824,,-6578.0,0.0,0.0,0.0,0.0,0.0,1.832275203,0.0,0.0,-42834.0,0.0,0.0,-0.0,0.0,0.0,2.6855466000000003,0.0,0.0,15788.0,0.0,0.0,0.0,0.0,0.0,4.008788652,0.0,0.0,-28999.0,0.0,0.0,-0.0,0.0,0.0,2.512206774,0.0,0.0,1.340000033378601,0.47999998927116394,31.540000915527344,0.01202392578125,0.0240478515625,1.00738525390625,29.799999237060547,0.0,3.0,-1.674102783203125,-1.21710205078125,Waiting,0.0,0.0,-114.0,0.0,0.0,0.0,0.0,0.0,
1.6261730000000099,0.0,0.0,false,3819743.5202702703,,-6578.0,0.0,0.0,0.0,0.0,0.0,1.798095519,0.0,0.0,-42834.0,0.0,0.0,-0.0,0.0,0.0,2.6855466000000003,0.0,0.0,15788.0,0.0,0.0,0.0,0.0,0.0,4.010009355,0.0,0.0,-28999.0,0.0,0.0,-0.0,0.0,0.0,2.512206774,0.0,0.0,1.3300000429153442,0.49000000953674316,31.540000915527344,0.0067138671875,0.0277099609375,1.00140380859375,29.799999237060547,0.0,0.0,-1.674102783203125,-1.21710205078125,Waiting,0.0,0.0,-114.0,0.0,0.0,0.0,0.0,0.0,
1.7368360000000103,0.0,0.0,false,3819970.0890859193,,-6578.0,0.0,0.0,0.0,0.0,0.0,1.796874816,0.0,0.0,-42834.0,0.0,0.0,-0.0,0.0,0.0,2.6855466000000003,0.0,0.0,15788.0,0.0,0.0,0.0,0.0,0.0,4.008788652,0.0,0.0,-28999.0,0.0,0.0,-0.0,0.0,0.0,2.512206774,0.0,0.0,1.3300000429153442,0.49000000953674316,31.530000686645508,0.01043701171875,0.02252197265625,0.999755859375,29.780000686645508,0.0,1.0,-1.674102783203125,-1.21710205078125,Waiting,0.0,0.0,-114.0,0.0,0.0,0.0,0.0,0.0,
1.8634220000000206,0.0,0.0,false,3820163.9611650486,,-6578.0,0.0,0.0,0.0,0.0,0.0,1.798095519,0.0,0.0,-42834.0,0.0,0.0,-0.0,0.0,0.0,2.6855466000000003,0.0,0.0,15788.0,0.0,0.0,0.0,0.0,0.0,4.010009355,0.0,0.0,-28999.0,0.0,0.0,-0.0,0.0,0.0,2.512206774,0.0,0.0,1.3300000429153442,0.47999998927116394,31.520000457763672,0.00848388671875,0.0242919921875,1.0018310546875,29.780000686645508,0.0,0.0,-1.674102783203125,-1.21710205078125,Waiting,0.0,0.0,-114.0,0.0,0.0,0.0,0.0,0.0,
1.9776320000000123,0.0,0.0,false,3820324.6997256805,,-6578.0,0.0,0.0,0.0,0.0,0.0,1.799316222,0.0,0.0,-42834.0,0.0,0.0,-0.0,0.0,0.0,2.6855466000000003,0.0,0.0,15788.0,0.0,0.0,0.0,0.0,0.0,4.0234370880000005,0.0,0.0,-28999.0,0.0,0.0,-0.0,0.0,0.0,2.512206774,0.0,0.0,1.3300000429153442,0.47999998927116394,31.520000457763672,0.008544921875,0.0230712890625,0.99591064453125,29.780000686645508,0.0,0.0,-1.674102783203125,-1.21710205078125,Waiting,0.0,0.0,-114.0,0.0,0.0,0.0,0.0,0.0,
2.093665000000008,0.0,0.0,false,3820452.7561181434,,-6578.0,0.0,0.0,0.0,0.0,0.0,1.798095519,0.0,0.0,-42834.0,0.0,0.0,-0.0,0.0,0.0,2.6892087090000003,0.0,0.0,15788.0,0.0,0.0,0.0,0.0,0.0,4.0258784940000005,0.0,0.0,-28999.0,0.0,0.0,-0.0,0.0,0.0,2.512206774,0.0,0.0,1.340000033378601,0.47999998927116394,31.520000457763672,0.0103759765625,0.021484375,1.00225830078125,29.780000686645508,0.0,0.0,-1.674102783203125,-1.21710205078125,Waiting,0.0,0.0,-114.0,0.0,0.0,0.0,0.0,0.0,
2.2093440000000117,0.0,0.0,false,3820548.1780215143,,-6578.0,0.0,0.0,0.0,0.0,0.0,1.798095519,0.0,0.0,-42834.0,0.0,0.0,-0.0,0.0,0.0,2.6855466000000003,0.0,0.0,15788.0,0.0,0.0,0.0,0.0,0.0,4.010009355,0.0,0.0,-28999.0,0.0,0.0,-0.0,0.0,0.0,2.512206774,0.0,0.0,1.3300000429153442,0.49000000953674316,31.520000457763672,0.00872802734375,0.02423095703125,1.00201416015625,29.780000686645508,0.0,0.0,-1.674102783203125,-1.21710205078125,Waiting,0.0,0.0,-114.0,0.0,0.0,0.0,0.0,0.0,
2.324792000000016,0.0,0.0,false,3820610.5541965417,,-6578.0,0.0,0.0,0.0,0.0,0.0,1.798095519,0.0,0.0,-42834.0,0.0,0.0,-0.0,0.0,0.0,2.6855466000000003,0.0,0.0,15788.0,0.0,0.0,0.0,0.0,0.0,4.008788652,0.0,0.0,-28999.0,0.0,0.0,-0.0,0.0,0.0,2.512206774,0.0,0.0,1.340000033378601,0.49000000953674316,31.520000457763672,0.0086669921875,0.024169921875,1.00152587890625,29.770000457763672,0.0,0.0,-1.674102783203125,-1.21710205078125,Waiting,0.0,0.0,-114.0,0.0,0.0,0.0,0.0,0.0,
2.4422350000000153,0.0,0.0,false,3820631.9797596456,,-6578.0,0.0,0.0,0.0,0.0,0.0,1.798095519,0.0,0.0,-42834.0,0.0,0.0,-0.0,0.0,0.0,2.6855466000000003,0.0,0.0,15788.0,0.0,0.0,0.0,0.0,0.0,4.010009355,0.0,0.0,-28999.0,0.0,0.0,-0.0,0.0,0.0,2.510986071,0.0,0.0,1.340000033378601,0.49000000953674316,31.520000457763672,0.00872802734375,0.0220947265625,1.001953125,29.770000457763672,0.0,0.0,-1.674102783203125,-1.21710205078125,Waiting,0.0,0.0,-114.0,0.0,0.0,0.0,0.0,0.0,
2.5628160000000206,0.0,0.0,false,3820620.836424958,,-6578.0,0.0,0.0,0.0,0.0,0.0,1.798095519,0.0,0.0,-42834.0,0.0,0.0,-0.0,0.0,0.0,2.6855466000000003,0.0,0.0,15788.0,0.0,0.0,0.0,0.0,0.0,4.010009355,0.0,0.0,-28999.0,0.0,0.0,-0.0,0.0,0.0,2.512206774,0.0,0.0,1.350000023841858,0.49000000953674316,31.510000228881836,0.008544921875,0.022705078125,1.00177001953125,29.770000457763672,0.0,0.0,-1.674102783203125,-1.21710205078125,Waiting,0.0,0.0,-114.0,0.0,0.0,0.0,0.0,0.0,
2.6737210000000196,0.0,0.0,false,3820576.7131717596,,-6578.0,0.0,0.0,0.0,0.0,0.0,1.796874816,0.0,0.0,-42834.0,0.0,0.0,-0.0,0.0,0.0,2.6855466000000003,0.0,0.0,15788.0,0.0,0.0,0.0,0.0,0.0,4.008788652,0.0,0.0,-28999.0,0.0,0.0,-0.0,0.0,0.0,2.512206774,0.0,0.0,1.350000023841858,0.47999998927116394,31.510000228881836,0.00933837890625,0.024169921875,1.002197265625,29.770000457763672,0.0,1.0,-1.674102783203125,-1.21710205078125,Waiting,0.0,0.0,-114.0,0.0,0.0,0.0,0.0,0.0,
2.7899560000000054,0.0,0.0,false,3820499.630847029,,-6578.0,0.0,0.0,0.0,0.0,0.0,1.798095519,0.0,0.0,-42834.0,0.0,0.0,-0.0,0.0,0.0,2.6855466000000003,0.0,0.0,15788.0,0.0,0.0,0.0,0.0,0.0,4.010009355,0.0,0.0,-28999.0,0.0,0.0,-0.0,0.0,0.0,2.512206774,0.0,0.0,1.340000033378601,0.47999998927116394,31.5,0.00738525390625,0.02557373046875,0.99981689453125,29.799999237060547,0.0,0.0,-1.674102783203125,-1.21710205078125,Waiting,0.0,0.0,-114.0,0.0,0.0,0.0,0.0,0.0,
2.9024340000000084,0.0,0.0,false,3820390.041710554,,-6578.0,0.0,0.0,0.0,0.0,0.0,1.798095519,0.0,0.0,-42834.0,0.0,0.0,-0.0,0.0,0.0,2.6855466000000003,0.0,0.0,15788.0,0.0,0.0,0.0,0.0,0.0,4.008788652,0.0,0.0,-28999.0,0.0,0.0,-0.0,0.0,0.0,2.510986071,0.0,0.0,1.350000023841858,0.47999998927116394,31.5,0.0076904296875,0.0242919921875,1.002685546875,29.799999237060547,0.0,0.0,-1.674102783203125,-1.21710205078125,Waiting,0.0,0.0,-114.0,0.0,0.0,0.0,0.0,0.0,
3.0278570000000182,0.0,0.0,false,3820656.8171861838,,-6578.0,0.0,0.0,0.0,0.0,0.0,1.798095519,0.0,0.0,-42834.0,0.0,0.0,-0.0,0.0,0.0,2.6855466000000003,0.0,0.0,15788.0,0.0,0.0,0.0,0.0,0.0,4.005126543,0.0,0.0,-28999.0,0.0,0.0,-0.0,0.0,0.0,2.512206774,0.0,0.0,1.350000023841858,0.49000000953674316,31.5,0.00732421875,0.02398681640625,1.00323486328125,29.799999237060547,0.0,0.0,-1.674102783203125,-1.21710205078125,Waiting,0.0,0.0,-114.0,0.0,0.0,0.0,0.0,0.0,
3.139140000000014,0.0,0.0,false,3820890.2623710255,,-6578.0,0.0,0.0,0.0,0.0,0.0,1.798095519,0.0,0.0,-42834.0,0.0,0.0,-0.0,0.0,0.0,2.6855466000000003,0.0,0.0,15788.0,0.0,0.0,0.0,0.0,0.0,4.008788652,0.0,0.0,-28999.0,0.0,0.0,-0.0,0.0,0.0,2.512206774,0.0,0.0,1.340000033378601,0.49000000953674316,31.5,0.00848388671875,0.0211181640625,1.00128173828125,29.799999237060547,0.0,-1.0,-1.674102783203125,-1.21710205078125,Waiting,0.0,0.0,-114.0,0.0,0.0,0.0,0.0,0.0,
3.253853000000003,0.0,0.0,false,3821089.965473684,,-6578.0,0.0,0.0,0.0,0.0,0.0,1.798095519,0.0,0.0,-42834.0,0.0,0.0,-0.0,0.0,0.0,2.6855466000000003,0.0,0.0,15788.0,0.0,0.0,0.0,0.0,0.0,4.008788652,0.0,0.0,-28999.0,0.0,0.0,-0.0,0.0,0.0,2.512206774,0.0,0.0,1.340000033378601,0.49000000953674316,31.5,0.0096435546875,0.0267333984375,1.00018310546875,29.799999237060547,0.0,2.0,-1.674102783203125,-1.21710205078125,Waiting,0.0,0.0,-114.0,0.0,0.0,0.0,0.0,0.0,
3.3730340000000143,0.0,0.0,false,3821256.380551463,,-6578.0,0.0,0.0,0.0,0.0,0.0,1.7578123200000002,0.0,0.0,-42834.0,0.0,0.0,-0.0,0.0,0.0,2.6855466000000003,0.0,0.0,15788.0,0.0,0.0,0.0,0.0,0.0,4.008788652,0.0,0.0,-28999.0,0.0,0.0,-0.0,0.0,0.0,2.512206774,0.0,0.0,1.340000033378601,0.49000000953674316,31.5,0.0064697265625,0.02587890625,1.00048828125,29.799999237060547,0.0,0.0,-1.674102783203125,-1.21710205078125,Waiting,0.0,0.0,-114.0,0.0,0.0,0.0,0.0,0.0,
3.4907510000000186,0.0,0.0,false,3821381.0185185187,,-6578.0,0.0,0.0,0.0,0.0,0.0,1.798095519,0.0,0.0,-42834.0,0.0,0.0,-0.0,0.0,0.0,2.6855466000000003,0.0,0.0,15788.0,0.0,0.0,0.0,0.0,0.0,4.010009355,0.0,0.0,-28999.0,0.0,0.0,-0.0,0.0,0.0,2.512206774,0.0,0.0,1.3300000429153442,0.49000000953674316,31.5,0.0084228515625,0.02490234375,1.003662109375,29.799999237060547,0.0,0.0,-1.674102783203125,-1.21710205078125,Waiting,0.0,0.0,-114.0,0.0,0.0,0.0,0.0,0.0,
3.6063090000000084,0.0,0.0,false,3821472.4393014936,,-6578.0,0.0,0.0,0.0,0.0,0.0,1.798095519,0.0,0.0,-42834.0,0.0,0.0,-0.0,0.0,0.0,2.6855466000000003,0.0,0.0,15788.0,0.0,0.0,0.0,0.0,0.0,4.010009355,0.0,0.0,-28999.0,0.0,0.0,-0.0,0.0,0.0,2.510986071,0.0,0.0,1.340000033378601,0.49000000953674316,31.5,0.008056640625,0.02178955078125,0.99981689453125,29.799999237060547,0.0,-1.0,-1.674102783203125,-1.21710205078125,Waiting,0.0,0.0,-114.0,0.0,0.0,0.0,0.0,0.0,
3.725012000000017,0.0,0.0,false,3821530.233066891,,-6578.0,0.0,0.0,0.0,0.0,0.0,1.798095519,0.0,0.0,-42834.0,0.0,0.0,-0.0,0.0,0.0,2.6855466000000003,0.0,0.0,15788.0,0.0,0.0,0.0,0.0,0.0,4.011230058000001,0.0,0.0,-28999.0,0.0,0.0,-0.0,0.0,0.0,2.512206774,0.0,0.0,1.340000033378601,0.49000000953674316,31.5,0.0079345703125,0.02349853515625,1.00189208984375,29.799999237060547,0.0,0.0,-1.674102783203125,-1.21710205078125,Waiting,0.0,0.0,-114.0,0.0,0.0,0.0,0.0,0.0,
3.8351050000000106,0.0,0.0,false,3821554.851735016,,-6578.0,0.0,0.0,0.0,0.0,0.0,1.798095519,0.0,0.0,-42834.0,0.0,0.0,-0.0,0.0,0.0,2.6855466000000003,0.0,0.0,15788.0,0.0,0.0,0.0,0.0,0.0,4.008788652,0.0,0.0,-28999.0,0.0,0.0,-0.0,0.0,0.0,2.510986071,0.0,0.0,1.340000033378601,0.5,31.5,0.00732421875,0.0252685546875,0.99688720703125,29.790000915527344,0.0,0.0,-1.674102783203125,-1.21710205078125,Waiting,0.0,0.0,-114.0,0.0,0.0,0.0,0.0,0.0,
3.9625960000000195,0.0,0.0,false,3821545.8856181665,,-6578.0,0.0,0.0,0.0,0.0,0.0,1.796874816,0.0,0.0,-42834.0,0.0,0.0,-0.0,0.0,0.0,2.6867673030000003,0.0,0.0,15788.0,0.0,0.0,0.0,0.0,0.0,4.008788652,0.0,0.0,-28999.0,0.0,0.0,-0.0,0.0,0.0,2.512206774,0.0,0.0,1.3300000429153442,0.49000000953674316,31.5,0.01007080078125,0.0242919921875,1.000244140625,29.790000915527344,0.0,1.0,-1.674102783203125,-1.21710205078125,Waiting,0.0,0.0,-114.0,0.0,0.0,0.0,0.0,0.0,
4.087059000000008,0.0,0.0,false,3821503.3558965735,,-6578.0,0.0,0.0,0.0,0.0,0.0,1.798095519,0.0,0.0,-42834.0,0.0,0.0,-0.0,0.0,0.0,2.6867673030000003,0.0,0.0,15788.0,0.0,0.0,0.0,0.0,0.0,4.008788652,0.0,0.0,-28999.0,0.0,0.0,-0.0,0.0,0.0,2.512206774,0.0,0.0,1.340000033378601,0.49000000953674316,31.5,0.008056640625,0.02044677734375,1.00213623046875,29.790000915527344,0.0,-2.0,-1.674102783203125,-1.21710205078125,Waiting,0.0,0.0,-114.0,0.0,0.0,0.0,0.0,0.0,
4.210516000000004,0.0,0.0,false,3821427.2837326606,,-6578.0,0.0,0.0,0.0,0.0,0.0,1.795654113,0.0,0.0,-42834.0,0.0,0.0,-0.0,0.0,0.0,2.6855466000000003,0.0,0.0,15788.0,0.0,0.0,0.0,0.0,0.0,4.008788652,0.0,0.0,-28999.0,0.0,0.0,-0.0,0.0,0.0,2.512206774,0.0,0.0,1.340000033378601,0.49000000953674316,31.5,0.00799560546875,0.02081298828125,1.00408935546875,29.790000915527344,0.0,-1.0,-1.674102783203125,-1.21710205078125,Waiting,0.0,0.0,-114.0,0.0,0.0,0.0,0.0,0.0,
4.330873000000022,0.0,0.0,false,3821317.6902710656,,-6578.0,0.0,0.0,0.0,0.0,0.0,1.796874816,0.0,0.0,-42834.0,0.0,0.0,-0.0,0.0,0.0,2.6855466000000003,0.0,0.0,15788.0,0.0,0.0,0.0,0.0,0.0,4.018554276000001,0.0,0.0,-28999.0,0.0,0.0,-0.0,0.0,0.0,2.512206774,0.0,0.0,1.340000033378601,0.49000000953674316,31.5,0.008544921875,0.0234375,1.00299072265625,29.829999923706055,0.0,0.0,-1.674102783203125,-1.21710205078125,Waiting,0.0,0.0,-114.0,0.0,0.0,0.0,0.0,0.0,
4.466890000000014,0.0,0.0,false,3821586.401680672,,-6578.0,0.0,0.0,0.0,0.0,0.0,1.798095519,0.0,0.0,-42834.0,0.0,0.0,-0.0,0.0,0.0,2.6843258970000003,0.0,0.0,15788.0,0.0,0.0,0.0,0.0,0.0,4.008788652,0.0,0.0,-28999.0,0.0,0.0,-0.0,0.0,0.0,2.512206774,0.0,0.0,1.340000033378601,0.49000000953674316,31.489999771118164,0.00823974609375,0.02203369140625,1.001708984375,29.829999923706055,0.0,-1.0,-1.674102783203125,-1.21710205078125,Waiting,0.0,0.0,-114.0,0.0,0.0,0.0,0.0,0.0,
4.590863000000012,0.0,0.0,false,3821809.77273682,,-6578.0,0.0,0.0,0.0,0.0,0.0,1.798095519,0.0,0.0,-42834.0,0.0,0.0,-0.0,0.0,0.0,2.6855466000000003,0.0,0.0,15788.0,0.0,0.0,0.0,0.0,0.0,4.010009355,0.0,0.0,-28999.0,0.0,0.0,-0.0,0.0,0.0,2.512206774,0.0,0.0,1.350000023841858,0.47999998927116394,31.489999771118164,0.00946044921875,0.02392578125,1.0072021484375,29.829999923706055,0.0,0.0,-1.674102783203125,-1.21710205078125,Waiting,0.0,0.0,-114.0,0.0,0.0,0.0,0.0,0.0,
4.7049560000000055,0.0,0.0,false,3821999.497690046,,-6578.0,0.0,0.0,0.0,0.0,0.0,1.798095519,0.0,0.0,-42834.0,0.0,0.0,-0.0,0.0,0.0,2.6855466000000003,0.0,0.0,15788.0,0.0,0.0,0.0,0.0,0.0,4.008788652,0.0,0.0,-28999.0,0.0,0.0,-0.0,0.0,0.0,2.512206774,0.0,0.0,1.340000033378601,0.47999998927116394,31.479999542236328,0.01019287109375,0.020751953125,1.0023193359375,29.829999923706055,0.0,0.0,-1.674102783203125,-1.21710205078125,Waiting,0.0,0.0,-114.0,0.0,0.0,0.0,0.0,0.0,
4.8290489999999995,0.0,0.0,false,3822155.1425572117,,-6578.0,0.0,0.0,0.0,0.0,0.0,1.796874816,0.0,0.0,-42834.0,0.0,0.0,-0.0,0.0,0.0,2.6855466000000003,0.0,0.0,15788.0,0.0,0.0,0.0,0.0,0.0,4.010009355,0.0,0.0,-28999.0,0.0,0.0,-0.0,0.0,0.0,2.512206774,0.0,0.0,1.340000033378601,0.47999998927116394,31.479999542236328,0.00927734375,0.02484130859375,1.009765625,29.860000610351562,0.0,1.0,-1.674102783203125,-1.21710205078125,Waiting,0.0,0.0,-114.0,0.0,0.0,0.0,0.0,0.0,
4.954652000000002,0.0,0.0,false,3822276.727120067,,-6578.0,0.0,0.0,0.0,0.0,0.0,1.798095519,0.0,0.0,-42834.0,0.0,0.0,-0.0,0.0,0.0,2.6855466000000003,0.0,0.0,15788.0,0.0,0.0,0.0,0.0,0.0,4.008788652,0.0,0.0,-28999.0,0.0,0.0,-0.0,0.0,0.0,2.510986071,0.0,0.0,1.3300000429153442,0.47999998927116394,31.479999542236328,0.00823974609375,0.02001953125,1.007568359375,29.860000610351562,0.0,-2.0,-1.674102783203125,-1.21710205078125,Waiting,0.0,0.0,-114.0,0.0,0.0,0.0,0.0,0.0,
5.08619200000001,0.0,0.0,false,3822364.729485834,,-6578.0,0.0,0.0,0.0,0.0,0.0,1.798095519,0.0,0.0,-42834.0,0.0,0.0,-0.0,0.0,0.0,2.6855466000000003,0.0,0.0,15788.0,0.0,0.0,0.0,0.0,0.0,4.008788652,0.0,0.0,-28999.0,0.0,0.0,-0.0,0.0,0.0,2.510986071,0.0,0.0,1.3300000429153442,0.47999998927116394,31.479999542236328,0.01007080078125,0.02447509765625,1.00042724609375,29.860000610351562,0.0,1.0,-1.674102783203125,-1.21710205078125,Waiting,0.0,0.0,-114.0,0.0,0.0,0.0,0.0,0.0,
5.210979000000021,0.0,0.0,false,3822418.741082669,,-6578.0,0.0,0.0,0.0,0.0,0.0,1.796874816,0.0,0.0,-42834.0,0.0,0.0,-0.0,0.0,0.0,2.6855466000000003,0.0,0.0,15788.0,0.0,0.0,0.0,0.0,0.0,4.008788652,0.0,0.0,-28999.0,0.0,0.0,-0.0,0.0,0.0,2.512206774,0.0,0.0,1.3300000429153442,0.47999998927116394,31.479999542236328,0.00848388671875,0.02349853515625,0.99566650390625,29.860000610351562,0.0,0.0,-1.674102783203125,-1.21710205078125,Waiting,0.0,0.0,-114.0,0.0,0.0,0.0,0.0,0.0,
5.333752999999997,0.0,0.0,false,3822438.783301867,,-6578.0,0.0,0.0,0.0,0.0,0.0,1.796874816,0.0,0.0,-42834.0,0.0,0.0,-0.0,0.0,0.0,2.6855466000000003,0.0,0.0,15788.0,0.0,0.0,0.0,0.0,0.0,4.008788652,0.0,0.0,-28999.0,0.0,0.0,-0.0,0.0,0.0,2.513427477,0.0,0.0,1.3300000429153442,0.49000000953674316,31.479999542236328,0.0091552734375,0.02435302734375,1.005126953125,29.84000015258789,0.0,0.0,-1.674102783203125,-1.21710205078125,Waiting,0.0,0.0,-114.0,0.0,0.0,0.0,0.0,0.0,
5.466925000000018,0.0,0.0,false,3822424.8775167787,,-6578.0,0.0,0.0,0.0,0.0,0.0,1.796874816,0.0,0.0,-42834.0,0.0,0.0,-0.0,0.0,0.0,2.6867673030000003,0.0,0.0,15788.0,0.0,0.0,0.0,0.0,0.0,4.008788652,0.0,0.0,-28999.0,0.0,0.0,-0.0,0.0,0.0,2.512206774,0.0,0.0,1.3300000429153442,0.47999998927116394,31.479999542236328,0.008056640625,0.02227783203125,0.9991455078125,29.84000015258789,0.0,0.0,-1.674102783203125,-1.21710205078125,Waiting,0.0,0.0,-114.0,0.0,0.0,0.0,0.0,0.0,
5.585853000000003,0.0,0.0,false,3822377.474522961,,-6578.0,0.0,0.0,0.0,0.0,0.0,1.798095519,0.0,0.0,-42834.0,0.0,0.0,-0.0,0.0,0.0,2.6867673030000003,0.0,0.0,15788.0,0.0,0.0,0.0,0.0,0.0,4.008788652,0.0,0.0,-28999.0,0.0,0.0,-0.0,0.0,0.0,2.512206774,0.0,0.0,1.3300000429153442,0.47999998927116394,31.479999542236328,0.0079345703125,0.0240478515625,1.003173828125,29.84000015258789,0.0,0.0,-1.674102783203125,-1.21710205078125,Waiting,0.0,0.0,-114.0,0.0,0.0,0.0,0.0,0.0,
5.700708000000013,0.0,0.0,false,3822296.166037736,,-6578.0,0.0,0.0,0.0,0.0,0.0,1.796874816,0.0,0.0,-42834.0,0.0,0.0,-0.0,0.0,0.0,2.6855466000000003,0.0,0.0,15788.0,0.0,0.0,0.0,0.0,0.0,4.010009355,0.0,0.0,-28999.0,0.0,0.0,-0.0,0.0,0.0,2.510986071,0.0,0.0,1.3300000429153442,0.47999998927116394,31.479999542236328,0.0068359375,0.0244140625,1.00445556640625,29.84000015258789,0.0,0.0,-1.674102783203125,-1.21710205078125,Waiting,0.0,0.0,-114.0,0.0,0.0,0.0,0.0,0.0,
5.8179839999999965,0.0,0.0,false,3822180.9733808427,,-6578.0,0.0,0.0,0.0,0.0,0.0,1.798095519,0.0,0.0,-42834.0,0.0,0.0,-0.0,0.0,0.0,2.6855466000000003,0.0,0.0,15788.0,0.0,0.0,0.0,0.0,0.0,4.008788652,0.0,0.0,-28999.0,0.0,0.0,-0.0,0.0,0.0,2.512206774,0.0,0.0,1.3300000429153442,0.49000000953674316,31.479999542236328,0.008544921875,0.02117919921875,1.00323486328125,29.850000381469727,0.0,-1.0,-1.674102783203125,-1.21710205078125,Waiting,0.0,0.0,-114.0,0.0,0.0,0.0,0.0,0.0,
5.943909000000014,0.0,0.0,false,3822437.4652137468,,-6578.0,0.0,0.0,0.0,0.0,0.0,1.802978331,0.0,0.0,-42834.0,0.0,0.0,-0.0,0.0,0.0,2.6855466000000003,0.0,0.0,15788.0,0.0,0.0,0.0,0.0,0.0,4.008788652,0.0,0.0,-28999.0,0.0,0.0,-0.0,0.0,0.0,2.512206774,0.0,0.0,1.3300000429153442,0.47999998927116394,31.469999313354492,0.00726318359375,0.02154541015625,1.00128173828125,29.850000381469727,0.0,-2.0,-1.674102783203125,-1.21710205078125,Waiting,0.0,0.0,-114.0,0.0,0.0,0.0,0.0,0.0,
6.055559999999998,0.0,0.0,false,3822659.918709407,,-6578.0,0.0,0.0,0.0,0.0,0.0,1.798095519,0.0,0.0,-42834.0,0.0,0.0,-0.0,0.0,0.0,2.6843258970000003,0.0,0.0,15788.0,0.0,0.0,0.0,0.0,0.0,4.010009355,0.0,0.0,-28999.0,0.0,0.0,-0.0,0.0,0.0,2.512206774,0.0,0.0,1.3300000429153442,0.47999998927116394,31.479999542236328,0.0084228515625,0.02191162109375,1.00054931640625,29.850000381469727,0.0,0.0,-1.674102783203125,-1.21710205078125,Waiting,0.0,0.0,-114.0,0.0,0.0,0.0,0.0,0.0,
6.173001000000019,0.0,0.0,false,3822848.811059908,,-6578.0,0.0,0.0,0.0,0.0,0.0,1.798095519,0.0,0.0,-42834.0,0.0,0.0,-0.0,0.0,0.0,2.6855466000000003,0.0,0.0,15788.0,0.0,0.0,0.0,0.0,0.0,4.008788652,0.0,0.0,-28999.0,0.0,0.0,-0.0,0.0,0.0,2.512206774,0.0,0.0,1.3300000429153442,0.47999998927116394,31.479999542236328,0.0103759765625,0.02520751953125,1.006103515625,29.850000381469727,0.0,2.0,-1.674102783203125,-1.21710205078125,Waiting,0.0,0.0,-114.0,0.0,0.0,0.0,0.0,0.0,
6.287820000000007,0.0,0.0,false,3823003.7093193717,,-6578.0,0.0,0.0,0.0,0.0,0.0,1.798095519,0.0,0.0,-42834.0,0.0,0.0,-0.0,0.0,0.0,2.6855466000000003,0.0,0.0,15788.0,0.0,0.0,0.0,0.0,0.0,4.008788652,0.0,0.0,-28999.0,0.0,0.0,-0.0,0.0,0.0,2.512206774,0.0,0.0,1.3300000429153442,0.47999998927116394,31.479999542236328,0.008056640625,0.02191162109375,1.0045166015625,29.850000381469727,0.0,-1.0,-1.674102783203125,-1.21710205078125,Waiting,0.0,0.0,-114.0,0.0,0.0,0.0,0.0,0.0,
6.400339999999996,0.0,0.0,false,3823125.061976549,,-6578.0,0.0,0.0,0.0,0.0,0.0,1.798095519,0.0,0.0,-42834.0,0.0,0.0,-0.0,0.0,0.0,2.6855466000000003,0.0,0.0,15788.0,0.0,0.0,0.0,0.0,0.0,4.008788652,0.0,0.0,-28999.0,0.0,0.0,-0.0,0.0,0.0,2.510986071,0.0,0.0,1.3300000429153442,0.47999998927116394,31.479999542236328,0.00897216796875,0.02362060546875,1.001953125,29.850000381469727,0.0,0.0,-1.674102783203125,-1.21710205078125,Waiting,0.0,0.0,-114.0,0.0,0.0,0.0,0.0,0.0,
6.5215920000000045,0.0,0.0,false,3823212.4630521247,,-6578.0,0.0,0.0,0.0,0.0,0.0,1.798095519,0.0,0.0,-42834.0,0.0,0.0,-0.0,0.0,0.0,2.6855466000000003,0.0,0.0,15788.0,0.0,0.0,0.0,0.0,0.0,4.008788652,0.0,0.0,-28999.0,0.0,0.0,-0.0,0.0,0.0,2.512206774,0.0,0.0,1.3300000429153442,0.49000000953674316,31.469999313354492,0.00897216796875,0.02105712890625,1.00067138671875,29.850000381469727,0.0,0.0,-1.674102783203125,-1.21710205078125,Waiting,0.0,0.0,-114.0,0.0,0.0,0.0,0.0,0.0,
6.635971000000019,0.0,0.0,false,3823266.3876098786,,-6578.0,0.0,0.0,0.0,0.0,0.0,1.798095519,0.0,0.0,-42834.0,0.0,0.0,-0.0,0.0,0.0,2.6855466000000003,0.0,0.0,15788.0,0.0,0.0,0.0,0.0,0.0,4.010009355,0.0,0.0,-28999.0,0.0,0.0,-0.0,0.0,0.0,2.512206774,0.0,0.0,1.3300000429153442,0.47999998927116394,31.469999313354492,0.00848388671875,0.0244140625,1.00238037109375,29.850000381469727,0.0,0.0,-1.674102783203125,-1.21710205078125,Waiting,0.0,0.0,-114.0,0.0,0.0,0.0,0.0,0.0,
6.751551000000007,0.0,0.0,false,3823286.4281230383,,-6578.0,0.0,0.0,0.0,0.0,0.0,1.798095519,0.0,0.0,-42834.0,0.0,0.0,-0.0,0.0,0.0,2.6855466000000003,0.0,0.0,15788.0,0.0,0.0,0.0,0.0,0.0,4.007567949,0.0,0.0,-28999.0,0.0,0.0,-0.0,0.0,0.0,2.510986071,0.0,0.0,1.3300000429153442,0.49000000953674316,31.469999313354492,0.010498046875,0.0234375,1.001953125,29.850000381469727,0.0,1.0,-1.674102783203125,-1.21710205078125,Waiting,0.0,0.0,-114.0,0.0,0.0,0.0,0.0,0.0,
6.868627999999997,0.0,0.0,false,3823273.0343096233,,-6578.0,0.0,0.0,0.0,0.0,0.0,1.796874816,0.0,0.0,-42834.0,0.0,0.0,-0.0,0.0,0.0,2.6867673030000003,0.0,0.0,15788.0,0.0,0.0,0.0,0.0,0.0,4.008788652,0.0,0.0,-28999.0,0.0,0.0,-0.0,0.0,0.0,2.512206774,0.0,0.0,1.3300000429153442,0.47999998927116394,31.469999313354492,0.00579833984375,0.02325439453125,1.00262451171875,29.8700008392334,0.0,-2.0,-1.674102783203125,-1.21710205078125,Waiting,0.0,0.0,-114.0,0.0,0.0,0.0,0.0,0.0,
6.979276000000013,0.0,0.0,false,3823225.7987868646,,-6578.0,0.0,0.0,0.0,0.0,0.0,1.796874816,0.0,0.0,-42834.0,0.0,0.0,-0.0,0.0,0.0,2.6855466000000003,0.0,0.0,15788.0,0.0,0.0,0.0,0.0,0.0,4.010009355,0.0,0.0,-28999.0,0.0,0.0,-0.0,0.0,0.0,2.510986071,0.0,0.0,1.3200000524520874,0.47999998927116394,31.469999313354492,0.01007080078125,0.02142333984375,1.006103515625,29.8700008392334,0.0,0.0,-1.674102783203125,-1.21710205078125,Waiting,0.0,0.0,-114.0,0.0,0.0,0.0,0.0,0.0,
7.0933550000000105,0.0,0.0,false,3823144.7427854454,,-6578.0,0.0,0.0,0.0,0.0,0.0,1.798095519,0.0,0.0,-42834.0,0.0,0.0,-0.0,0.0,0.0,2.6855466000000003,0.0,0.0,15788.0,0.0,0.0,0.0,0.0,0.0,4.008788652,0.0,0.0,-28999.0,0.0,0.0,-0.0,0.0,0.0,2.508544665,0.0,0.0,1.3200000524520874,0.47999998927116394,31.469999313354492,0.009765625,0.0240478515625,1.0040283203125,29.8700008392334,0.0,1.0,-1.674102783203125,-1.21710205078125,Waiting,0.0,0.0,-114.0,0.0,0.0,0.0,0.0,0.0,
7.21002800000002,0.0,0.0,false,3823030.315701443,,-6578.0,0.0,0.0,0.0,0.0,0.0,1.796874816,0.0,0.0,-42834.0,0.0,0.0,-0.0,0.0,0.0,2.6855466000000003,0.0,0.0,15788.0,0.0,0.0,0.0,0.0,0.0,4.011230058000001,0.0,0.0,-28999.0,0.0,0.0,-0.0,0.0,0.0,2.512206774,0.0,0.0,1.3300000429153442,0.47999998927116394,31.469999313354492,0.010498046875,0.0211181640625,1.00640869140625,29.8700008392334,0.0,0.0,-1.674102783203125,-1.21710205078125,Waiting,0.0,0.0,-114.0,0.0,0.0,0.0,0.0,0.0,
7.332866000000009,0.0,0.0,false,3823286.073578595,,-6578.0,0.0,0.0,0.0,0.0,0.0,1.798095519,0.0,0.0,-42834.0,0.0,0.0,-0.0,0.0,0.0,2.6867673030000003,0.0,0.0,15788.0,0.0,0.0,0.0,0.0,0.0,4.008788652,0.0,0.0,-28999.0,0.0,0.0,-0.0,0.0,0.0,2.512206774,0.0,0.0,1.3300000429153442,0.47999998927116394,31.469999313354492,0.0076904296875,0.0230712890625,1.0048828125,29.850000381469727,0.0,0.0,-1.674102783203125,-1.21710205078125,Waiting,0.0,0.0,-114.0,0.0,0.0,0.0,0.0,0.0,
7.450436000000016,0.0,0.0,false,3823507.6263322886,,-6578.0,0.0,0.0,0.0,0.0,0.0,1.798095519,0.0,0.0,-42834.0,0.0,0.0,-0.0,0.0,0.0,2.6867673030000003,0.0,0.0,15788.0,0.0,0.0,0.0,0.0,0.0,4.010009355,0.0,0.0,-28999.0,0.0,0.0,-0.0,0.0,0.0,2.512206774,0.0,0.0,1.3200000524520874,0.47999998927116394,31.469999313354492,0.0076904296875,0.024169921875,0.99981689453125,29.850000381469727,0.0,0.0,-1.674102783203125,-1.21710205078125,Waiting,0.0,0.0,-114.0,0.0,0.0,0.0,0.0,0.0,
7.572271000000008,0.0,0.0,false,3823695.475135813,,-6578.0,0.0,0.0,0.0,0.0,0.0,1.798095519,0.0,0.0,-42834.0,0.0,0.0,-0.0,0.0,0.0,2.6855466000000003,0.0,0.0,15788.0,0.0,0.0,0.0,0.0,0.0,4.008788652,0.0,0.0,-28999.0,0.0,0.0,-0.0,0.0,0.0,2.510986071,0.0,0.0,1.3200000524520874,0.47999998927116394,31.469999313354492,0.00823974609375,0.02252197265625,1.002197265625,29.850000381469727,0.0,0.0,-1.674102783203125,-1.21710205078125,Waiting,0.0,0.0,-114.0,0.0,0.0,0.0,0.0,0.0,
7.68719200000001,0.0,0.0,false,3823849.1882180907,,-6578.0,0.0,0.0,0.0,0.0,0.0,1.798095519,0.0,0.0,-42834.0,0.0,0.0,-0.0,0.0,0.0,2.6855466000000003,0.0,0.0,15788.0,0.0,0.0,0.0,0.0,0.0,4.010009355,0.0,0.0,-28999.0,0.0,0.0,-0.0,0.0,0.0,2.512206774,0.0,0.0,1.3200000524520874,0.47999998927116394,31.469999313354492,0.00970458984375,0.022705078125,1.00396728515625,29.850000381469727,0.0,0.0,-1.674102783203125,-1.21710205078125,Waiting,0.0,0.0,-114.0,0.0,0.0,0.0,0.0,0.0,
7.8027860000000215,0.0,0.0,false,3823969.2130325814,,-6578.0,0.0,0.0,0.0,0.0,0.0,1.796874816,0.0,0.0,-42834.0,0.0,0.0,-0.0,0.0,0.0,2.6855466000000003,0.0,0.0,15788.0,0.0,0.0,0.0,0.0,0.0,4.010009355,0.0,0.0,-28999.0,0.0,0.0,-0.0,0.0,0.0,2.512206774,0.0,0.0,1.3200000524520874,0.47999998927116394,31.469999313354492,0.0089111328125,0.0213623046875,1.0032958984375,29.850000381469727,0.0,0.0,-1.674102783203125,-1.21710205078125,Waiting,0.0,0.0,-114.0,0.0,0.0,0.0,0.0,0.0,
7.928804000000004,0.0,0.0,false,3824055.1697640424,,-6578.0,0.0,0.0,0.0,0.0,0.0,1.796874816,0.0,0.0,-42834.0,0.0,0.0,-0.0,0.0,0.0,2.6855466000000003,0.0,0.0,15788.0,0.0,0.0,0.0,0.0,0.0,4.008788652,0.0,0.0,-28999.0,0.0,0.0,-0.0,0.0,0.0,2.512206774,0.0,0.0,1.3300000429153442,0.47999998927116394,31.469999313354492,0.0076904296875,0.024169921875,1.00299072265625,29.860000610351562,0.0,0.0,-1.674102783203125,-1.21710205078125,Waiting,0.0,0.0,-114.0,0.0,0.0,0.0,0.0,0.0,
8.03862300000002,0.0,0.0,false,3824107.507306889,,-6578.0,0.0,0.0,0.0,0.0,0.0,1.796874816,0.0,0.0,-42834.0,0.0,0.0,-0.0,0.0,0.0,2.6855466000000003,0.0,0.0,15788.0,0.0,0.0,0.0,0.0,0.0,4.008788652,0.0,0.0,-28999.0,0.0,0.0,-0.0,0.0,0.0,2.510986071,0.0,0.0,1.3200000524520874,0.47999998927116394,31.469999313354492,0.0079345703125,0.02313232421875,1.00311279296875,29.860000610351562,0.0,0.0,-1.674102783203125,-1.21710205078125,Waiting,0.0,0.0,-114.0,0.0,0.0,0.0,0.0,0.0,
8.151437999999995,0.0,0.0,false,3824125.8192444164,,-6578.0,0.0,0.0,0.0,0.0,0.0,1.798095519,0.0,0.0,-42834.0,0.0,0.0,-0.0,0.0,0.0,2.6855466000000003,0.0,0.0,15788.0,0.0,0.0,0.0,0.0,0.0,4.008788652,0.0,0.0,-28999.0,0.0,0.0,-0.0,0.0,0.0,2.510986071,0.0,0.0,1.3300000429153442,0.47999998927116394,31.469999313354492,0.0078125,0.021728515625,1.00445556640625,29.860000610351562,0.0,-1.0,-1.674102783203125,-1.21710205078125,Waiting,0.0,0.0,-114.0,0.0,0.0,0.0,0.0,0.0,
8.269875,0.0,0.0,false,3824110.5542570953,,-6578.0,0.0,0.0,0.0,0.0,0.0,1.798095519,0.0,0.0,-42834.0,0.0,0.0,-0.0,0.0,0.0,2.6855466000000003,0.0,0.0,15788.0,0.0,0.0,0.0,0.0,0.0,4.008788652,0.0,0.0,-28999.0,0.0,0.0,-0.0,0.0,0.0,2.512206774,0.0,0.0,1.3300000429153442,0.49000000953674316,31.469999313354492,0.0115966796875,0.02069091796875,1.001220703125,29.860000610351562,0.0,1.0,-1.674102783203125,-1.21710205078125,Waiting,0.0,0.0,-114.0,0.0,0.0,0.0,0.0,0.0,
8.38755600000001,0.0,0.0,false,3824061.306071354,,-6578.0,0.0,0.0,0.0,0.0,0.0,1.798095519,0.0,0.0,-42834.0,0.0,0.0,-0.0,0.0,0.0,2.6855466000000003,0.0,0.0,15788.0,0.0,0.0,0.0,0.0,0.0,4.008788652,0.0,0.0,-28999.0,0.0,0.0,-0.0,0.0,0.0,2.510986071,0.0,0.0,1.3300000429153442,0.49000000953674316,31.469999313354492,0.00830078125,0.02349853515625,1.00347900390625,29.889999389648438,0.0,0.0,-1.674102783203125,-1.21710205078125,Waiting,0.0,0.0,-114.0,0.0,0.0,0.0,0.0,0.0,
8.503282999999996,0.0,0.0,false,3823978.095953275,,-6578.0,0.0,0.0,0.0,0.0,0.0,1.798095519,0.0,0.0,-42834.0,0.0,0.0,-0.0,0.0,0.0,2.6855466000000003,0.0,0.0,15788.0,0.0,0.0,0.0,0.0,0.0,4.007567949,0.0,0.0,-28999.0,0.0,0.0,-0.0,0.0,0.0,2.512206774,0.0,0.0,1.3300000429153442,0.5,31.469999313354492,0.00714111328125,0.023681640625,1.00445556640625,29.889999389648438,0.0,-1.0,-1.674102783203125,-1.21710205078125,Waiting,0.0,0.0,-114.0,0.0,0.0,0.0,0.0,0.0,
8.623937999999995,0.0,0.0,false,3823861.3722627736,,-6578.0,0.0,0.0,0.0,0.0,0.0,1.7919920040000001,0.0,0.0,-42834.0,0.0,0.0,-0.0,0.0,0.0,2.6855466000000003,0.0,0.0,15788.0,0.0,0.0,0.0,0.0,0.0,4.008788652,0.0,0.0,-28999.0,0.0,0.0,-0.0,0.0,0.0,2.510986071,0.0,0.0,1.340000033378601,0.5,31.469999313354492,0.00848388671875,0.02349853515625,1.00537109375,29.889999389648438,0.0,0.0,-1.674102783203125,-1.21710205078125,Waiting,0.0,0.0,-114.0,0.0,0.0,0.0,0.0,0.0,
8.74718300000002,0.0,0.0,false,3824115.894912427,,-6578.0,0.0,0.0,0.0,0.0,0.0,1.798095519,0.0,0.0,-42834.0,0.0,0.0,-0.0,0.0,0.0,2.6867673030000003,0.0,0.0,15788.0,0.0,0.0,0.0,0.0,0.0,4.008788652,0.0,0.0,-28999.0,0.0,0.0,-0.0,0.0,0.0,2.512206774,0.0,0.0,1.340000033378601,0.5,31.459999084472656,0.0079345703125,0.0216064453125,1.0006103515625,29.889999389648438,0.0,-1.0,-1.674102783203125,-1.21710205078125,Waiting,0.0,0.0,-114.0,0.0,0.0,0.0,0.0,0.0,
8.860062000000005,0.0,0.0,false,3824336.523660621,,-6578.0,0.0,0.0,0.0,0.0,0.0,1.798095519,0.0,0.0,-42834.0,0.0,0.0,-0.0,0.0,0.0,2.6855466000000003,0.0,0.0,15788.0,0.0,0.0,0.0,0.0,0.0,4.008788652,0.0,0.0,-28999.0,0.0,0.0,-0.0,0.0,0.0,2.512206774,0.0,0.0,1.340000033378601,0.5,31.469999313354492,0.00823974609375,0.02178955078125,1.0013427734375,29.889999389648438,0.0,-1.0,-1.674102783203125,-1.21710205078125,Waiting,0.0,0.0,-114.0,0.0,0.0,0.0,0.0,0.0,
8.980106,0.0,0.0,false,3824523.306377657,,-6578.0,0.0,0.0,0.0,0.0,0.0,1.796874816,0.0,0.0,-42834.0,0.0,0.0,-0.0,0.0,0.0,2.6855466000000003,0.0,0.0,15788.0,0.0,0.0,0.0,0.0,0.0,4.006347246,0.0,0.0,-28999.0,0.0,0.0,-0.0,0.0,0.0,2.512206774,0.0,0.0,1.340000033378601,0.5,31.459999084472656,0.0107421875,0.02203369140625,1.0029296875,29.889999389648438,0.0,0.0,-1.674102783203125,-1.21710205078125,Waiting,0.0,0.0,-114.0,0.0,0.0,0.0,0.0,0.0,
9.09699100000001,0.0,0.0,false,3824675.812460929,,-6578.0,0.0,0.0,0.0,0.0,0.0,1.796874816,0.0,0.0,-42834.0,0.0,0.0,-0.0,0.0,0.0,2.6855466000000003,0.0,0.0,15788.0,0.0,0.0,0.0,0.0,0.0,4.010009355,0.0,0.0,-28999.0,0.0,0.0,-0.0,0.0,0.0,2.512206774,0.0,0.0,1.340000033378601,0.5,31.459999084472656,0.006591796875,0.02117919921875,1.0028076171875,29.889999389648438,0.0,-3.0,-1.674102783203125,-1.21710205078125,Waiting,0.0,0.0,-114.0,0.0,0.0,0.0,0.0,0.0,
9.210551000000006,0.0,0.0,false,3824794.0616666665,,-6578.0,0.0,0.0,0.0,0.0,0.0,1.798095519,0.0,0.0,-42834.0,0.0,0.0,-0.0,0.0,0.0,2.681884491,0.0,0.0,15788.0,0.0,0.0,0.0,0.0,0.0,4.008788652,0.0,0.0,-28999.0,0.0,0.0,-0.0,0.0,0.0,2.510986071,0.0,0.0,1.340000033378601,0.5,31.469999313354492,0.0072021484375,0.02447509765625,1.00433349609375,29.889999389648438,0.0,0.0,-1.674102783203125,-1.21710205078125,Waiting,0.0,0.0,-114.0,0.0,0.0,0.0,0.0,0.0,
9.33099800000002,0.0,0.0,false,3824878.5286398665,,-6578.0,0.0,0.0,0.0,0.0,0.0,1.798095519,0.0,0.0,-42834.0,0.0,0.0,-0.0,0.0,0.0,2.6855466000000003,0.0,0.0,15788.0,0.0,0.0,0.0,0.0,0.0,4.008788652,0.0,0.0,-28999.0,0.0,0.0,-0.0,0.0,0.0,2.512206774,0.0,0.0,1.340000033378601,0.5,31.469999313354492,0.0086669921875,0.022705078125,1.00347900390625,29.889999389648438,0.0,0.0,-1.674102783203125,-1.21710205078125,Waiting,0.0,0.0,-114.0,0.0,0.0,0.0,0.0,0.0,
9.444247000000003,0.0,0.0,false,3824928.807996668,,-6578.0,0.0,0.0,0.0,0.0,0.0,1.798095519,0.0,0.0,-42834.0,0.0,0.0,-0.0,0.0,0.0,2.6855466000000003,0.0,0.0,15788.0,0.0,0.0,0.0,0.0,0.0,4.010009355,0.0,0.0,-28999.0,0.0,0.0,-0.0,0.0,0.0,2.510986071,0.0,0.0,1.340000033378601,0.5,31.469999313354492,0.00811767578125,0.02398681640625,1.0018310546875,29.8799991607666,0.0,0.0,-1.674102783203125,-1.21710205078125,Waiting,0.0,0.0,-114.0,0.0,0.0,0.0,0.0,0.0,
9.553944000000017,0.0,0.0,false,3824945.347491151,,-6578.0,0.0,0.0,0.0,0.0,0.0,1.798095519,0.0,0.0,-42834.0,0.0,0.0,-0.0,0.0,0.0,2.6855466000000003,0.0,0.0,15788.0,0.0,0.0,0.0,0.0,0.0,4.008788652,0.0,0.0,-28999.0,0.0,0.0,-0.0,0.0,0.0,2.512206774,0.0,0.0,1.340000033378601,0.5,31.459999084472656,0.00823974609375,0.0240478515625,1.00103759765625,29.8799991607666,0.0,0.0,-1.674102783203125,-1.21710205078125,Waiting,0.0,0.0,-114.0,0.0,0.0,0.0,0.0,0.0,
9.675069000000018,0.0,0.0,false,3824927.7418817654,,-6578.0,0.0,0.0,0.0,0.0,0.0,1.796874816,0.0,0.0,-42834.0,0.0,0.0,-0.0,0.0,0.0,2.6855466000000003,0.0,0.0,15788.0,0.0,0.0,0.0,0.0,0.0,4.008788652,0.0,0.0,-28999.0,0.0,0.0,-0.0,0.0,0.0,2.512206774,0.0,0.0,1.340000033378601,0.5,31.469999313354492,0.01007080078125,0.02484130859375,0.9993896484375,29.8799991607666,0.0,1.0,-1.674102783203125,-1.21710205078125,Waiting,0.0,0.0,-114.0,0.0,0.0,0.0,0.0,0.0,
9.790629000000015,0.0,0.0,false,3824875.4064516127,,-6578.0,0.0,0.0,0.0,0.0,0.0,1.798095519,0.0,0.0,-42834.0,0.0,0.0,-0.0,0.0,0.0,2.6831051940000004,0.0,0.0,15788.0,0.0,0.0,0.0,0.0,0.0,4.010009355,0.0,0.0,-28999.0,0.0,0.0,-0.0,0.0,0.0,2.512206774,0.0,0.0,1.340000033378601,0.5,31.469999313354492,0.00726318359375,0.02447509765625,1.0006103515625,29.8799991607666,0.0,0.0,-1.674102783203125,-1.21710205078125,Waiting,0.0,0.0,-114.0,0.0,0.0,0.0,0.0,0.0,
9.900145000000018,0.0,0.0,false,3824789.3949230127,,-6578.0,0.0,0.0,0.0,0.0,0.0,1.798095519,0.0,0.0,-42834.0,0.0,0.0,-0.0,0.0,0.0,2.6855466000000003,0.0,0.0,15788.0,0.0,0.0,0.0,0.0,0.0,4.010009355,0.0,0.0,-28999.0,0.0,0.0,-0.0,0.0,0.0,2.509765368,0.0,0.0,1.3300000429153442,0.5,31.469999313354492,0.00860595703125,0.0230712890625,1.000244140625,29.8799991607666,0.0,0.0,-1.674102783203125,-1.21710205078125,Waiting,0.0,0.0,-114.0,0.0,0.0,0.0,0.0,0.0,
10.013364000000001,0.0,0.0,false,3824669.3022675267,,-6578.0,0.0,0.0,0.0,0.0,0.0,1.798095519,0.0,0.0,-42834.0,0.0,0.0,-0.0,0.0,0.0,2.6855466000000003,0.0,0.0,15788.0,0.0,0.0,0.0,0.0,0.0,4.008788652,0.0,0.0,-28999.0,0.0,0.0,-0.0,0.0,0.0,2.510986071,0.0,0.0,1.3300000429153442,0.5,31.469999313354492,0.01123046875,0.02056884765625,1.00323486328125,29.8799991607666,0.0,0.0,-1.674102783203125,-1.21710205078125,Waiting,0.0,0.0,-114.0,0.0,0.0,0.0,0.0,0.0,
10.138195999999997,0.0,0.0,false,3824915.146422629,,-6578.0,0.0,0.0,0.0,0.0,0.0,1.798095519,0.0,0.0,-42834.0,0.0,0.0,-0.0,0.0,0.0,2.6843258970000003,0.0,0.0,15788.0,0.0,0.0,0.0,0.0,0.0,4.008788652,0.0,0.0,-28999.0,0.0,0.0,-0.0,0.0,0.0,2.512206774,0.0,0.0,1.3300000429153442,0.5,31.459999084472656,0.00799560546875,0.0234375,1.00042724609375,29.8799991607666,0.0,0.0,-1.674102783203125,-1.21710205078125,Waiting,0.0,0.0,-114.0,0.0,0.0,0.0,0.0,0.0,
10.250899000000006,0.0,0.0,false,3825126.9852360156,,-6578.0,0.0,0.0,0.0,0.0,0.0,1.7590330230000002,0.0,0.0,-42834.0,0.0,0.0,-0.0,0.0,0.0,2.6855466000000003,0.0,0.0,15788.0,0.0,0.0,0.0,0.0,0.0,4.008788652,0.0,0.0,-28999.0,0.0,0.0,-0.0,0.0,0.0,2.510986071,0.0,0.0,1.3300000429153442,0.49000000953674316,31.459999084472656,0.01116943359375,0.02435302734375,0.9989013671875,29.8799991607666,0.0,2.0,-1.674102783203125,-1.21710205078125,Waiting,0.0,0.0,-114.0,0.0,0.0,0.0,0.0,0.0,
10.36848000000001,0.0,0.0,false,3825305.292307692,,-6578.0,0.0,0.0,0.0,0.0,0.0,1.801757628,0.0,0.0,-42834.0,0.0,0.0,-0.0,0.0,0.0,2.6855466000000003,0.0,0.0,15788.0,0.0,0.0,0.0,0.0,0.0,4.008788652,0.0,0.0,-28999.0,0.0,0.0,-0.0,0.0,0.0,2.512206774,0.0,0.0,1.3300000429153442,0.49000000953674316,31.459999084472656,0.0093994140625,0.02423095703125,1.0013427734375,29.889999389648438,0.0,1.0,-1.674102783203125,-1.21710205078125,Waiting,0.0,0.0,-114.0,0.0,0.0,0.0,0.0,0.0,
10.487440000000003,0.0,0.0,false,3825449.6113074203,,-6578.0,0.0,0.0,0.0,0.0,0.0,1.798095519,0.0,0.0,-42834.0,0.0,0.0,-0.0,0.0,0.0,2.6855466000000003,0.0,0.0,15788.0,0.0,0.0,0.0,0.0,0.0,4.007567949,0.0,0.0,-28999.0,0.0,0.0,-0.0,0.0,0.0,2.512206774,0.0,0.0,1.3200000524520874,0.49000000953674316,31.459999084472656,0.01165771484375,0.02435302734375,1.00030517578125,29.889999389648438,0.0,3.0,-1.674102783203125,-1.21710205078125,Waiting,0.0,0.0,-114.0,0.0,0.0,0.0,0.0,0.0,
10.601992,0.0,0.0,false,3825560.4405652536,,-6578.0,0.0,0.0,0.0,0.0,0.0,1.800536925,0.0,0.0,-42834.0,0.0,0.0,-0.0,0.0,0.0,2.6855466000000003,0.0,0.0,15788.0,0.0,0.0,0.0,0.0,0.0,4.010009355,0.0,0.0,-28999.0,0.0,0.0,-0.0,0.0,0.0,2.510986071,0.0,0.0,1.3200000524520874,0.49000000953674316,31.459999084472656,0.0091552734375,0.02374267578125,1.00201416015625,29.889999389648438,0.0,0.0,-1.674102783203125,-1.21710205078125,Waiting,0.0,0.0,-114.0,0.0,0.0,0.0,0.0,0.0,
10.713934999999998,0.0,0.0,false,3825637.77602327,,-6578.0,0.0,0.0,0.0,0.0,0.0,1.796874816,0.0,0.0,-42834.0,0.0,0.0,-0.0,0.0,0.0,2.6831051940000004,0.0,0.0,15788.0,0.0,0.0,0.0,0.0,0.0,4.008788652,0.0,0.0,-28999.0,0.0,0.0,-0.0,0.0,0.0,2.512206774,0.0,0.0,1.3200000524520874,0.49000000953674316,31.450000762939453,0.0089111328125,0.02459716796875,1.00030517578125,29.889999389648438,0.0,1.0,-1.674102783203125,-1.21710205078125,Waiting,0.0,0.0,-114.0,0.0,0.0,0.0,0.0,0.0,
10.843498000000022,0.0,0.0,false,3825681.238055671,,-6578.0,0.0,0.0,0.0,0.0,0.0,1.798095519,0.0,0.0,-42834.0,0.0,0.0,-0.0,0.0,0.0,2.6855466000000003,0.0,0.0,15788.0,0.0,0.0,0.0,0.0,0.0,4.008788652,0.0,0.0,-28999.0,0.0,0.0,-0.0,0.0,0.0,2.512206774,0.0,0.0,1.3200000524520874,0.47999998927116394,31.450000762939453,0.01025390625,0.02349853515625,0.9990234375,29.889999389648438,0.0,1.0,-1.674102783203125,-1.21710205078125,Waiting,0.0,0.0,-114.0,0.0,0.0,0.0,0.0,0.0,
10.955282000000006,0.0,0.0,false,3825690.8477673936,,-6578.0,0.0,0.0,0.0,0.0,0.0,1.7919920040000001,0.0,0.0,-42834.0,0.0,0.0,-0.0,0.0,0.0,2.6855466000000003,0.0,0.0,15788.0,0.0,0.0,0.0,0.0,0.0,4.008788652,0.0,0.0,-28999.0,0.0,0.0,-0.0,0.0,0.0,2.512206774,0.0,0.0,1.3200000524520874,0.47999998927116394,31.450000762939453,0.00848388671875,0.02178955078125,1.00537109375,29.889999389648438,0.0,0.0,-1.674102783203125,-1.21710205078125,Waiting,0.0,0.0,-114.0,0.0,0.0,0.0,0.0,0.0,
11.06988400000002,0.0,0.0,false,3825667.0514950166,,-6578.0,0.0,0.0,0.0,0.0,0.0,1.798095519,0.0,0.0,-42834.0,0.0,0.0,-0.0,0.0,0.0,2.6855466000000003,0.0,0.0,15788.0,0.0,0.0,0.0,0.0,0.0,4.008788652,0.0,0.0,-28999.0,0.0,0.0,-0.0,0.0,0.0,2.512206774,0.0,0.0,1.3200000524520874,0.49000000953674316,31.450000762939453,0.00909423828125,0.02484130859375,1.0025634765625,29.889999389648438,0.0,1.0,-1.674102783203125,-1.21710205078125,Waiting,0.0,0.0,-114.0,0.0,0.0,0.0,0.0,0.0,
11.189077000000019,0.0,0.0,false,3825609.444882707,,-6578.0,0.0,0.0,0.0,0.0,0.0,1.798095519,0.0,0.0,-42834.0,0.0,0.0,-0.0,0.0,0.0,2.6855466000000003,0.0,0.0,15788.0,0.0,0.0,0.0,0.0,0.0,4.008788652,0.0,0.0,-28999.0,0.0,0.0,-0.0,0.0,0.0,2.512206774,0.0,0.0,1.309999942779541,0.47999998927116394,31.450000762939453,0.0081787109375,0.02313232421875,1.001220703125,29.889999389648438,0.0,0.0,-1.674102783203125,-1.21710205078125,Waiting,0.0,0.0,-114.0,0.0,0.0,0.0,0.0,0.0,
11.306847000000008,0.0,0.0,false,3825518.0489829807,,-6578.0,0.0,0.0,0.0,0.0,0.0,1.798095519,0.0,0.0,-42834.0,0.0,0.0,-0.0,0.0,0.0,2.6855466000000003,0.0,0.0,15788.0,0.0,0.0,0.0,0.0,0.0,4.008788652,0.0,0.0,-28999.0,0.0,0.0,-0.0,0.0,0.0,2.510986071,0.0,0.0,1.3200000524520874,0.47999998927116394,31.450000762939453,0.0101318359375,0.02197265625,1.00250244140625,29.889999389648438,0.0,0.0,-1.674102783203125,-1.21710205078125,Waiting,0.0,0.0,-114.0,0.0,0.0,0.0,0.0,0.0,
11.431570999999996,0.0,0.0,false,3825392.8848308777,,-6578.0,0.0,0.0,0.0,0.0,0.0,1.798095519,0.0,0.0,-42834.0,0.0,0.0,-0.0,0.0,0.0,2.6855466000000003,0.0,0.0,15788.0,0.0,0.0,0.0,0.0,0.0,4.007567949,0.0,0.0,-28999.0,0.0,0.0,-0.0,0.0,0.0,2.510986071,0.0,0.0,1.3200000524520874,0.47999998927116394,31.450000762939453,0.0093994140625,0.02093505859375,0.998046875,29.899999618530273,0.0,0.0,-1.674102783203125,-1.21710205078125,Waiting,0.0,0.0,-114.0,0.0,0.0,0.0,0.0,0.0,
11.559969000000011,0.0,0.0,false,3825637.691286307,,-6578.0,0.0,0.0,0.0,0.0,0.0,1.798095519,0.0,0.0,-42834.0,0.0,0.0,-0.0,0.0,0.0,2.6867673030000003,0.0,0.0,15788.0,0.0,0.0,0.0,0.0,0.0,4.008788652,0.0,0.0,-28999.0,0.0,0.0,-0.0,0.0,0.0,2.512206774,0.0,0.0,1.3200000524520874,0.47999998927116394,31.450000762939453,0.00592041015625,0.02154541015625,1.0,29.899999618530273,0.0,-2.0,-1.674102783203125,-1.21710205078125,Waiting,0.0,0.0,-114.0,0.0,0.0,0.0,0.0,0.0,
11.68995200000002,0.0,0.0,false,3825848.5675171125,,-6578.0,0.0,0.0,0.0,0.0,0.0,1.796874816,0.0,0.0,-42834.0,0.0,0.0,-0.0,0.0,0.0,2.6855466000000003,0.0,0.0,15788.0,0.0,0.0,0.0,0.0,0.0,4.008788652,0.0,0.0,-28999.0,0.0,0.0,-0.0,0.0,0.0,2.510986071,0.0,0.0,1.3200000524520874,0.47999998927116394,31.450000762939453,0.009033203125,0.02532958984375,1.003662109375,29.899999618530273,0.0,1.0,-1.674102783203125,-1.21710205078125,Waiting,0.0,0.0,-114.0,0.0,0.0,0.0,0.0,0.0,
11.814918000000006,0.0,0.0,false,3826025.544587308,,-6578.0,0.0,0.0,0.0,0.0,0.0,1.796874816,0.0,0.0,-42834.0,0.0,0.0,-0.0,0.0,0.0,2.6855466000000003,0.0,0.0,15788.0,0.0,0.0,0.0,0.0,0.0,4.008788652,0.0,0.0,-28999.0,0.0,0.0,-0.0,0.0,0.0,2.512206774,0.0,0.0,1.3200000524520874,0.47999998927116394,31.450000762939453,0.00775146484375,0.02447509765625,1.00042724609375,29.899999618530273,0.0,0.0,-1.674102783203125,-1.21710205078125,Waiting,0.0,0.0,-114.0,0.0,0.0,0.0,0.0,0.0,
11.947176000000006,0.0,0.0,false,3826160.9686916857,,-6578.0,0.0,0.0,0.0,0.0,0.0,1.796874816,0.0,0.0,-42834.0,0.0,0.0,-0.0,0.0,0.0,2.6843258970000003,0.0,0.0,15788.0,0.0,0.0,0.0,0.0,0.0,4.010009355,0.0,0.0,-28999.0,0.0,0.0,-0.0,0.0,0.0,2.512206774,0.0,0.0,1.309999942779541,0.47999998927116394,31.440000534057617,0.00775146484375,0.0203857421875,0.9990234375,29.90999984741211,0.0,-1.0,-1.674102783203125,-1.21710205078125,Waiting,0.0,0.0,-114.0,0.0,0.0,0.0,0.0,0.0,
12.068602000000013,0.0,0.0,false,3826262.5406301823,,-6578.0,0.0,0.0,0.0,0.0,0.0,1.798095519,0.0,0.0,-42834.0,0.0,0.0,-0.0,0.0,0.0,2.6855466000000003,0.0,0.0,15788.0,0.0,0.0,0.0,0.0,0.0,4.007567949,0.0,0.0,-28999.0,0.0,0.0,-0.0,0.0,0.0,2.512206774,0.0,0.0,1.309999942779541,0.47999998927116394,31.450000762939453,0.010498046875,0.02362060546875,1.002197265625,29.90999984741211,0.0,2.0,-1.674102783203125,-1.21710205078125,Waiting,0.0,0.0,-114.0,0.0,0.0,0.0,0.0,0.0,
12.193431000000011,0.0,0.0,false,3826338.4290155442,,-6578.0,0.0,0.0,0.0,0.0,0.0,1.796874816,0.0,0.0,-42834.0,0.0,0.0,-0.0,0.0,0.0,2.6855466000000003,0.0,0.0,15788.0,0.0,0.0,0.0,0.0,0.0,4.010009355,0.0,0.0,-28999.0,0.0,0.0,-0.0,0.0,0.0,2.512206774,0.0,0.0,1.2999999523162842,0.47999998927116394,31.450000762939453,0.0093994140625,0.02276611328125,0.99749755859375,29.90999984741211,0.0,0.0,-1.674102783203125,-1.21710205078125,Waiting,0.0,0.0,-114.0,0.0,0.0,0.0,0.0,0.0,
12.31100900000002,0.0,0.0,false,3826380.528802321,,-6578.0,0.0,0.0,0.0,0.0,0.0,1.798095519,0.0,0.0,-42834.0,0.0,0.0,-0.0,0.0,0.0,2.6855466000000003,0.0,0.0,15788.0,0.0,0.0,0.0,0.0,0.0,4.008788652,0.0,0.0,-28999.0,0.0,0.0,-0.0,0.0,0.0,2.512206774,0.0,0.0,1.309999942779541,0.47999998927116394,31.450000762939453,0.01043701171875,0.02362060546875,1.0042724609375,29.90999984741211,0.0,2.0,-1.674102783203125,-1.21710205078125,Waiting,0.0,0.0,-114.0,0.0,0.0,0.0,0.0,0.0,
12.436494999999995,0.0,0.0,false,3826389.2852703542,,-6578.0,0.0,0.0,0.0,0.0,0.0,1.798095519,0.0,0.0,-42834.0,0.0,0.0,-0.0,0.0,0.0,2.6855466000000003,0.0,0.0,15788.0,0.0,0.0,0.0,0.0,0.0,4.008788652,0.0,0.0,-28999.0,0.0,0.0,-0.0,0.0,0.0,2.512206774,0.0,0.0,1.309999942779541,0.47999998927116394,31.450000762939453,0.009033203125,0.02374267578125,1.00433349609375,29.8799991607666,0.0,0.0,-1.674102783203125,-1.21710205078125,Waiting,0.0,0.0,-114.0,0.0,0.0,0.0,0.0,0.0,
12.561447000000015,0.0,0.0,false,3826364.2949461476,,-6578.0,0.0,0.0,0.0,0.0,0.0,1.798095519,0.0,0.0,-42834.0,0.0,0.0,-0.0,0.0,0.0,2.6879880060000003,0.0,0.0,15788.0,0.0,0.0,0.0,0.0,0.0,4.008788652,0.0,0.0,-28999.0,0.0,0.0,-0.0,0.0,0.0,2.512206774,0.0,0.0,1.2999999523162842,0.47999998927116394,31.440000534057617,0.00677490234375,0.020751953125,1.0,29.8799991607666,0.0,-2.0,-1.674102783203125,-1.21710205078125,Waiting,0.0,0.0,-114.0,0.0,0.0,0.0,0.0,0.0,
12.690135000000009,0.0,0.0,false,3826305.5787947816,,-6578.0,0.0,0.0,0.0,0.0,0.0,1.798095519,0.0,0.0,-42834.0,0.0,0.0,-0.0,0.0,0.0,2.6855466000000003,0.0,0.0,15788.0,0.0,0.0,0.0,0.0,0.0,4.008788652,0.0,0.0,-28999.0,0.0,0.0,-0.0,0.0,0.0,2.512206774,0.0,0.0,1.2999999523162842,0.47999998927116394,31.440000534057617,0.00872802734375,0.02142333984375,1.00201416015625,29.8799991607666,0.0,0.0,-1.674102783203125,-1.21710205078125,Waiting,0.0,0.0,-114.0,0.0,0.0,0.0,0.0,0.0,
12.815950000000011,0.0,0.0,false,3826213.157763975,,-6578.0,0.0,0.0,0.0,0.0,0.0,1.796874816,0.0,0.0,-42834.0,0.0,0.0,-0.0,0.0,0.0,2.6855466000000003,0.0,0.0,15788.0,0.0,0.0,0.0,0.0,0.0,4.008788652,0.0,0.0,-28999.0,0.0,0.0,-0.0,0.0,0.0,2.512206774,0.0,0.0,1.2999999523162842,0.47999998927116394,31.440000534057617,0.00970458984375,0.02313232421875,1.005126953125,29.8799991607666,0.0,1.0,-1.674102783203125,-1.21710205078125,Waiting,0.0,0.0,-114.0,0.0,0.0,0.0,0.0,0.0,
12.951172000000021,0.0,0.0,false,3826078.940178017,,-6578.0,0.0,0.0,0.0,0.0,0.0,1.796874816,0.0,0.0,-42834.0,0.0,0.0,-0.0,0.0,0.0,2.6855466000000003,0.0,0.0,15788.0,0.0,0.0,0.0,0.0,0.0,4.011230058000001,0.0,0.0,-28999.0,0.0,0.0,-0.0,0.0,0.0,2.510986071,0.0,0.0,1.2999999523162842,0.49000000953674316,31.440000534057617,0.0089111328125,0.02471923828125,0.9952392578125,29.940000534057617,0.0,1.0,-1.674102783203125,-1.21710205078125,Waiting,0.0,0.0,-114.0,0.0,0.0,0.0,0.0,0.0,
13.071565000000003,0.0,0.0,false,3826313.821192053,,-6578.0,0.0,0.0,0.0,0.0,0.0,1.796874816,0.0,0.0,-42834.0,0.0,0.0,-0.0,0.0,0.0,2.6855466000000003,0.0,0.0,15788.0,0.0,0.0,0.0,0.0,0.0,4.008788652,0.0,0.0,-28999.0,0.0,0.0,-0.0,0.0,0.0,2.512206774,0.0,0.0,1.2999999523162842,0.49000000953674316,31.440000534057617,0.00732421875,0.024169921875,1.00054931640625,29.940000534057617,0.0,0.0,-1.674102783203125,-1.21710205078125,Waiting,0.0,0.0,-114.0,0.0,0.0,0.0,0.0,0.0,
13.19060500000001,0.0,0.0,false,3826515.0689013037,,-6578.0,0.0,0.0,0.0,0.0,0.0,1.798095519,0.0,0.0,-42834.0,0.0,0.0,-0.0,0.0,0.0,2.6855466000000003,0.0,0.0,15788.0,0.0,0.0,0.0,0.0,0.0,4.008788652,0.0,0.0,-28999.0,0.0,0.0,-0.0,0.0,0.0,2.510986071,0.0,0.0,1.2999999523162842,0.47999998927116394,31.440000534057617,0.00689697265625,0.0225830078125,1.00164794921875,29.940000534057617,0.0,-1.0,-1.674102783203125,-1.21710205078125,Waiting,0.0,0.0,-114.0,0.0,0.0,0.0,0.0,0.0,
13.309429000000003,0.0,0.0,false,3826682.2821679767,,-6578.0,0.0,0.0,0.0,0.0,0.0,1.798095519,0.0,0.0,-42834.0,0.0,0.0,-0.0,0.0,0.0,2.6855466000000003,0.0,0.0,15788.0,0.0,0.0,0.0,0.0,0.0,4.008788652,0.0,0.0,-28999.0,0.0,0.0,-0.0,0.0,0.0,2.510986071,0.0,0.0,1.2999999523162842,0.49000000953674316,31.440000534057617,0.00543212890625,0.0211181640625,1.00421142578125,29.940000534057617,0.0,-3.0,-1.674102783203125,-1.21710205078125,Waiting,0.0,0.0,-114.0,0.0,0.0,0.0,0.0,0.0,
13.441118000000017,0.0,0.0,false,3826824.0661840746,,-6578.0,0.0,0.0,0.0,0.0,0.0,1.798095519,0.0,0.0,-42834.0,0.0,0.0,-0.0,0.0,0.0,2.6855466000000003,0.0,0.0,15788.0,0.0,0.0,0.0,0.0,0.0,4.008788652,0.0,0.0,-28999.0,0.0,0.0,-0.0,0.0,0.0,2.512206774,0.0,0.0,1.2999999523162842,0.47999998927116394,31.440000534057617,0.0074462890625,0.02203369140625,1.00006103515625,29.899999618530273,0.0,-1.0,-1.674102783203125,-1.21710205078125,Waiting,0.0,0.0,-114.0,0.0,0.0,0.0,0.0,0.0,
13.560151000000012,0.0,0.0,false,3826931.8792390404,,-6578.0,0.0,0.0,0.0,0.0,0.0,1.799316222,0.0,0.0,-42834.0,0.0,0.0,-0.0,0.0,0.0,2.6855466000000003,0.0,0.0,15788.0,0.0,0.0,0.0,0.0,0.0,4.010009355,0.0,0.0,-28999.0,0.0,0.0,-0.0,0.0,0.0,2.510986071,0.0,0.0,1.2999999523162842,0.47999998927116394,31.440000534057617,0.00567626953125,0.02313232421875,0.99835205078125,29.899999618530273,0.0,-2.0,-1.674102783203125,-1.21710205078125,Waiting,0.0,0.0,-114.0,0.0,0.0,0.0,0.0,0.0,
13.670684000000008,0.0,0.0,false,3827006.1658052513,,-6578.0,0.0,0.0,0.0,0.0,0.0,1.796874816,0.0,0.0,-42834.0,0.0,0.0,-0.0,0.0,0.0,2.6855466000000003,0.0,0.0,15788.0,0.0,0.0,0.0,0.0,0.0,4.008788652,0.0,0.0,-28999.0,0.0,0.0,-0.0,0.0,0.0,2.512206774,0.0,0.0,1.2999999523162842,0.47999998927116394,31.440000534057617,0.0106201171875,0.0230712890625,1.00238037109375,29.899999618530273,0.0,0.0,-1.674102783203125,-1.21710205078125,Waiting,0.0,0.0,-114.0,0.0,0.0,0.0,0.0,0.0,
13.78589300000001,0.0,0.0,false,3827046.523356759,,-6578.0,0.0,0.0,0.0,0.0,0.0,1.798095519,0.0,0.0,-42834.0,0.0,0.0,-0.0,0.0,0.0,2.6855466000000003,0.0,0.0,15788.0,0.0,0.0,0.0,0.0,0.0,4.008788652,0.0,0.0,-28999.0,0.0,0.0,-0.0,0.0,0.0,2.512206774,0.0,0.0,1.2899999618530273,0.47999998927116394,31.440000534057617,0.007568359375,0.01971435546875,0.99884033203125,29.899999618530273,0.0,-2.0,-1.674102783203125,-1.21710205078125,Waiting,0.0,0.0,-114.0,0.0,0.0,0.0,0.0,0.0,
13.904017000000021,0.0,0.0,false,3827053.3961562305,,-6578.0,0.0,0.0,0.0,0.0,0.0,1.798095519,0.0,0.0,-42834.0,0.0,0.0,-0.0,0.0,0.0,2.6867673030000003,0.0,0.0,15788.0,0.0,0.0,0.0,0.0,0.0,4.008788652,0.0,0.0,-28999.0,0.0,0.0,-0.0,0.0,0.0,2.512206774,0.0,0.0,1.2999999523162842,0.49000000953674316,31.450000762939453,0.008056640625,0.02276611328125,1.00115966796875,29.899999618530273,0.0,0.0,-1.674102783203125,-1.21710205078125,Waiting,0.0,0.0,-114.0,0.0,0.0,0.0,0.0,0.0,
14.01949900000001,0.0,0.0,false,3827018.2280991734,,-6578.0,0.0,0.0,0.0,0.0,0.0,1.796874816,0.0,0.0,-42834.0,0.0,0.0,-0.0,0.0,0.0,2.6855466000000003,0.0,0.0,15788.0,0.0,0.0,0.0,0.0,0.0,4.010009355,0.0,0.0,-28999.0,0.0,0.0,-0.0,0.0,0.0,2.512206774,0.0,0.0,1.2999999523162842,0.49000000953674316,31.440000534057617,0.01068115234375,0.0244140625,0.9996337890625,29.93000030517578,0.0,2.0,-1.674102783203125,-1.21710205078125,Waiting,0.0,0.0,-114.0,0.0,0.0,0.0,0.0,0.0,
14.139501000000019,0.0,0.0,false,3826949.1972732907,,-6578.0,0.0,0.0,0.0,0.0,0.0,1.798095519,0.0,0.0,-42834.0,0.0,0.0,-0.0,0.0,0.0,2.6855466000000003,0.0,0.0,15788.0,0.0,0.0,0.0,0.0,0.0,4.008788652,0.0,0.0,-28999.0,0.0,0.0,-0.0,0.0,0.0,2.512206774,0.0,0.0,1.2899999618530273,0.47999998927116394,31.440000534057617,0.0098876953125,0.025146484375,1.00347900390625,29.93000030517578,0.0,2.0,-1.674102783203125,-1.21710205078125,Waiting,0.0,0.0,-114.0,0.0,0.0,0.0,0.0,0.0,
14.253032999999995,0.0,0.0,false,3826846.747624948,,-6578.0,0.0,0.0,0.0,0.0,0.0,1.798095519,0.0,0.0,-42834.0,0.0,0.0,-0.0,0.0,0.0,2.6855466000000003,0.0,0.0,15788.0,0.0,0.0,0.0,0.0,0.0,4.010009355,0.0,0.0,-28999.0,0.0,0.0,-0.0,0.0,0.0,2.512206774,0.0,0.0,1.2999999523162842,0.49000000953674316,31.440000534057617,0.00732421875,0.021728515625,1.00128173828125,29.93000030517578,0.0,-1.0,-1.674102783203125,-1.21710205078125,Waiting,0.0,0.0,-114.0,0.0,0.0,0.0,0.0,0.0,
14.369244999999996,0.0,0.0,false,3826711.831509395,,-6578.0,0.0,0.0,0.0,0.0,0.0,1.798095519,0.0,0.0,-42834.0,0.0,0.0,-0.0,0.0,0.0,2.6855466000000003,0.0,0.0,15788.0,0.0,0.0,0.0,0.0,0.0,4.008788652,0.0,0.0,-28999.0,0.0,0.0,-0.0,0.0,0.0,2.512206774,0.0,0.0,1.2899999618530273,0.47999998927116394,31.440000534057617,0.00787353515625,0.02423095703125,1.00518798828125,29.93000030517578,0.0,0.0,-1.674102783203125,-1.21710205078125,Waiting,0.0,0.0,-114.0,0.0,0.0,0.0,0.0,0.0,
14.488737000000024,0.0,0.0,false,3826946.8654004955,,-6578.0,0.0,0.0,0.0,0.0,0.0,1.796874816,0.0,0.0,-42834.0,0.0,0.0,-0.0,0.0,0.0,2.6855466000000003,0.0,0.0,15788.0,0.0,0.0,0.0,0.0,0.0,4.007567949,0.0,0.0,-28999.0,0.0,0.0,-0.0,0.0,0.0,2.512206774,0.0,0.0,1.2999999523162842,0.49000000953674316,31.43000030517578,0.01165771484375,0.02606201171875,1.0030517578125,29.93000030517578,0.0,4.0,-1.674102783203125,-1.21710205078125,Waiting,0.0,0.0,-114.0,0.0,0.0,0.0,0.0,0.0,
14.733382000000013,0.0,0.0,false,3827147.081114551,,-6578.0,0.0,0.0,0.0,0.0,0.0,1.796874816,0.0,0.0,-42834.0,0.0,0.0,-0.0,0.0,0.0,2.6855466000000003,0.0,0.0,15788.0,0.0,0.0,0.0,0.0,0.0,4.008788652,0.0,0.0,-28999.0,0.0,0.0,-0.0,0.0,0.0,2.510986071,0.0,0.0,1.2999999523162842,0.49000000953674316,31.43000030517578,0.00970458984375,0.0244140625,1.00384521484375,29.93000030517578,0.0,1.0,-1.674102783203125,-1.21710205078125,Waiting,0.0,0.0,-114.0,0.0,0.0,0.0,0.0,0.0,
14.927333000000013,0.0,0.0,false,3827312.475443665,,-6578.0,0.0,0.0,0.0,0.0,0.0,1.796874816,0.0,0.0,-42834.0,0.0,0.0,-0.0,0.0,0.0,2.6855466000000003,0.0,0.0,15788.0,0.0,0.0,0.0,0.0,0.0,4.010009355,0.0,0.0,-28999.0,0.0,0.0,-0.0,0.0,0.0,2.512206774,0.0,0.0,1.2999999523162842,0.49000000953674316,31.43000030517578,0.00469970703125,0.02032470703125,1.00213623046875,29.93000030517578,0.0,-4.0,-1.674102783203125,-1.21710205078125,Waiting,0.0,0.0,-114.0,0.0,0.0,0.0,0.0,0.0,
15.049699000000022,0.0,0.0,false,3827444.3886940377,,-6578.0,0.0,0.0,0.0,0.0,0.0,1.7871091920000002,0.0,0.0,-42834.0,0.0,0.0,-0.0,0.0,0.0,2.6855466000000003,0.0,0.0,15788.0,0.0,0.0,0.0,0.0,0.0,4.008788652,0.0,0.0,-28999.0,0.0,0.0,-0.0,0.0,0.0,2.512206774,0.0,0.0,1.2999999523162842,0.49000000953674316,31.43000030517578,0.00799560546875,0.02276611328125,1.00299072265625,29.950000762939453,0.0,0.0,-1.674102783203125,-1.21710205078125,Waiting,0.0,0.0,-114.0,0.0,0.0,0.0,0.0,0.0,
15.16926000000001,0.0,0.0,false,3827542.419141914,,-6578.0,0.0,0.0,0.0,0.0,0.0,1.795654113,0.0,0.0,-42834.0,0.0,0.0,-0.0,0.0,0.0,2.6867673030000003,0.0,0.0,15788.0,0.0,0.0,0.0,0.0,0.0,4.008788652,0.0,0.0,-28999.0,0.0,0.0,-0.0,0.0,0.0,2.512206774,0.0,0.0,1.2899999618530273,0.47999998927116394,31.43000030517578,0.00970458984375,0.02459716796875,1.00018310546875,29.950000762939453,0.0,2.0,-1.674102783203125,-1.21710205078125,Waiting,0.0,0.0,-114.0,0.0,0.0,0.0,0.0,0.0,
15.289485000000015,0.0,0.0,false,3827607.0101051764,,-6578.0,0.0,0.0,0.0,0.0,0.0,1.798095519,0.0,0.0,-42834.0,0.0,0.0,-0.0,0.0,0.0,2.6855466000000003,0.0,0.0,15788.0,0.0,0.0,0.0,0.0,0.0,4.008788652,0.0,0.0,-28999.0,0.0,0.0,-0.0,0.0,0.0,2.512206774,0.0,0.0,1.2899999618530273,0.47999998927116394,31.420000076293945,0.00885009765625,0.02191162109375,1.00543212890625,29.950000762939453,0.0,0.0,-1.674102783203125,-1.21710205078125,Waiting,0.0,0.0,-114.0,0.0,0.0,0.0,0.0,0.0,
15.405899999999994,0.0,0.0,false,3827637.76,,-6578.0,0.0,0.0,0.0,0.0,0.0,1.798095519,0.0,0.0,-42834.0,0.0,0.0,-0.0,0.0,0.0,2.6855466000000003,0.0,0.0,15788.0,0.0,0.0,0.0,0.0,0.0,3.9929195130000004,0.0,0.0,-28999.0,0.0,0.0,-0.0,0.0,0.0,2.510986071,0.0,0.0,1.2899999618530273,0.47999998927116394,31.43000030517578,0.00830078125,0.02130126953125,1.00628662109375,29.950000762939453,0.0,0.0,-1.674102783203125,-1.21710205078125,Waiting,0.0,0.0,-114.0,0.0,0.0,0.0,0.0,0.0,
