Time,ClimberA1,ClimberA2,CameraExists,HeapSpace,LoopTime,FRpos,FRCurrent,FRspeed,FRsetpoint,FRApos,FRACurrent,FREncpos,FREncSetpoint,FREncSpeed,FLpos,FLCurrent,FLspeed,FLsetpoint,FLApos,FLACurrent,FLEncpos,FLEncSetpoint,FLEncSpeed,BRpos,BRCurrent,BRspeed,BRsetpoint,BRApos,BRACurrent,BREncpos,BREncSetpoint,BREncSpeed,BLpos,BLCurrent,BLspeed,BLsetpoint,BLApos,BLACurrent,BLEncpos,BLEncSetpoint,BLEncSpeed,navx_Pitch,navx_Roll,navx_Yaw,navx_XAcc,navx_YAcc,navx_ZAcc,navx_Temp,navx_Bar,navx_Alt,navx_XDis,navx_YDis,GearPlacerState,ShootOutputV,ShootOutputCurrent,ShootEncPos,ShootEncVelocity,ShootSpeed,ShootSetpoint,CarouselSetpoint,CarouselCurrent,
0.2517630000000063,0.0,0.0,false,4046928.0345729557,,17656.0,0.0,0.0,0.0,0.0,0.125,1.8212888760000001,0.0,0.0,-74263.0,0.0,0.0,-0.0,0.0,0.0,2.733154017,0.0,0.0,48673.0,0.0,0.0,0.0,0.0,0.0,4.008788652,0.0,0.0,-58744.0,0.0,0.0,-0.0,0.0,0.0,2.517089586,0.0,0.0,1.4500000476837158,0.41999998688697815,30.360000610351562,0.0899658203125,-0.0460205078125,0.99224853515625,33.18000030517578,0.0,35.0,1.20709228515625,-0.8307037353515625,Waiting,0.0,0.0,-113.0,0.0,0.0,0.0,0.0,0.0,
0.37359799999999815,0.0,0.0,false,4046935.4741869457,,17656.0,0.0,0.0,0.0,0.0,0.125,1.8212888760000001,0.0,0.0,-74263.0,0.0,0.0,-0.0,0.0,0.0,2.733154017,0.0,0.0,48673.0,0.0,0.0,0.0,0.0,0.0,4.007567949,0.0,0.0,-58744.0,0.0,0.0,-0.0,0.0,0.0,2.517089586,0.0,0.0,1.4299999475479126,0.38999998569488525,30.360000610351562,-0.14337158203125,0.05029296875,1.126220703125,33.18000030517578,0.0,-119.0,1.207550048828125,-0.8316497802734375,Waiting,0.0,0.0,-113.0,0.0,0.0,0.0,0.0,0.0,
0.4756039999999921,0.0,0.0,false,4046926.8256964185,,17656.0,0.0,0.0,0.0,0.0,0.125,1.8212888760000001,0.0,0.0,-74263.0,0.0,0.0,-0.0,0.0,0.0,2.733154017,0.0,0.0,48673.0,0.0,0.0,0.0,0.0,0.0,4.008788652,0.0,0.0,-58744.0,0.0,0.0,-0.0,0.0,0.0,2.517089586,0.0,0.0,1.409999966621399,0.36000001430511475,30.360000610351562,0.06207275390625,0.045166015625,1.0272216796875,33.189998626708984,0.0,57.0,1.208526611328125,-0.8319549560546875,Waiting,0.0,0.0,-113.0,0.0,0.0,0.0,0.0,0.0,
0.5715,0.0,0.0,false,4046903.8817644385,,17656.0,0.0,0.0,0.0,0.0,0.125,1.8212888760000001,0.0,0.0,-74263.0,0.0,0.0,-0.0,0.0,0.0,2.733154017,0.0,0.0,48673.0,0.0,0.0,0.0,0.0,0.0,4.008788652,0.0,0.0,-58744.0,0.0,0.0,-0.0,0.0,0.0,2.515868883,0.0,0.0,1.409999966621399,0.36000001430511475,30.360000610351562,0.00421142578125,0.02484130859375,1.01690673828125,33.189998626708984,0.0,-2.0,1.2092132568359375,-0.8318939208984375,Waiting,0.0,0.0,-113.0,0.0,0.0,0.0,0.0,0.0,
0.6701180000000168,0.0,0.0,false,4046864.8602932817,,17656.0,0.0,0.0,0.0,0.0,0.125,1.8212888760000001,0.0,0.0,-74263.0,0.0,0.0,-0.0,0.0,0.0,2.733154017,0.0,0.0,48673.0,0.0,0.0,0.0,0.0,0.0,4.010009355,0.0,0.0,-58744.0,0.0,0.0,-0.0,0.0,0.0,2.517089586,0.0,0.0,1.4299999475479126,0.3499999940395355,30.360000610351562,-0.01153564453125,0.01544189453125,1.049560546875,33.189998626708984,0.0,-21.0,1.2092132568359375,-0.8318939208984375,Waiting,0.0,0.0,-113.0,0.0,0.0,0.0,0.0,0.0,
0.7696510000000125,0.0,0.0,false,4046809.766765174,,17656.0,0.0,0.0,0.0,0.0,0.125,1.822509579,0.0,0.0,-74263.0,0.0,0.0,-0.0,0.0,0.0,2.73437472,0.0,0.0,48673.0,0.0,0.0,0.0,0.0,0.0,4.008788652,0.0,0.0,-58744.0,0.0,0.0,-0.0,0.0,0.0,2.515868883,0.0,0.0,1.409999966621399,0.3700000047683716,30.350000381469727,0.00726318359375,0.02203369140625,0.96917724609375,33.189998626708984,0.0,0.0,1.2092132568359375,-0.83197021484375,Waiting,0.0,0.0,-113.0,0.0,0.0,0.0,0.0,0.0,
0.868502999999997,0.0,0.0,false,4046735.899988635,,17656.0,0.0,0.0,0.0,0.0,0.125,1.8212888760000001,0.0,0.0,-74263.0,0.0,0.0,-0.0,0.0,0.0,2.733154017,0.0,0.0,48673.0,0.0,0.0,0.0,0.0,0.0,4.008788652,0.0,0.0,-58744.0,0.0,0.0,-0.0,0.0,0.0,2.515868883,0.0,0.0,1.4199999570846558,0.3700000047683716,30.350000381469727,0.00927734375,0.0211181640625,1.0245361328125,33.189998626708984,0.0,0.0,1.2092132568359375,-0.83197021484375,Waiting,0.0,0.0,-113.0,0.0,0.0,0.0,0.0,0.0,
0.9635290000000095,0.0,0.0,false,4046647.7590909093,,17656.0,0.0,0.0,0.0,0.0,0.125,1.8212888760000001,0.0,0.0,-74263.0,0.0,0.0,-0.0,0.0,0.0,2.73437472,0.0,0.0,48673.0,0.0,0.0,0.0,0.0,0.0,4.008788652,0.0,0.0,-58744.0,0.0,0.0,-0.0,0.0,0.0,2.515868883,0.0,0.0,1.409999966621399,0.36000001430511475,30.360000610351562,0.01324462890625,0.02178955078125,0.99835205078125,33.189998626708984,0.0,4.0,1.2092132568359375,-0.83197021484375,Waiting,0.0,0.0,-113.0,0.0,0.0,0.0,0.0,0.0,
1.067078999999998,0.0,0.0,false,4046543.562776957,,17656.0,0.0,0.0,0.0,0.0,0.125,1.8212888760000001,0.0,0.0,-74263.0,0.0,0.0,-0.0,0.0,0.0,2.733154017,0.0,0.0,48673.0,0.0,0.0,0.0,0.0,0.0,4.007567949,0.0,0.0,-58744.0,0.0,0.0,-0.0,0.0,0.0,2.515868883,0.0,0.0,1.409999966621399,0.36000001430511475,30.350000381469727,0.0113525390625,0.02447509765625,1.00042724609375,33.189998626708984,0.0,4.0,1.2092132568359375,-0.83197021484375,Waiting,0.0,0.0,-113.0,0.0,0.0,0.0,0.0,0.0,
1.1671080000000074,0.0,0.0,false,4046423.316518973,,17656.0,24.375,-142.5,-2136.4269822597225,0.0,1.125,1.7358396660000002,4.518500662340067,0.0,-74263.0,25.625,240.0,2136.4269822597225,0.0,1.125,2.5781247360000004,4.504846852925259,0.0,48563.0,18.25,-360.0,-2136.4269822597225,0.0,0.875,3.8928218670000003,4.509398122730195,0.0,-58683.0,18.875,240.0,2136.4269822597225,0.0,0.75,2.4291989700000003,4.503481471983779,0.0,1.4299999475479126,-0.7799999713897705,30.56999969482422,-0.65106201171875,-0.0035400390625,0.35064697265625,33.189998626708984,0.0,-562.0,1.2047119140625,-0.82965087890625,Waiting,0.0,0.0,-113.0,0.0,0.0,0.0,0.0,0.0,
1.2727770000000018,0.0,0.0,false,4046287.0257866634,,17620.0,40.625,-592.5,-3046.986488344878,0.0,0.25,1.541747889,4.492372334180381,0.0,-74208.0,47.0,690.0,3046.986488344878,0.0,0.0,2.2729489860000003,4.478797478214887,0.0,48563.0,32.125,-1185.0,-3046.986488344878,0.0,0.125,3.7292476650000004,4.483322430203385,0.0,-58683.0,40.0,765.0,3046.986488344878,0.0,0.0,2.205810321,4.477439992618338,0.0,2.4200000762939453,-2.930000066757202,30.420000076293945,-0.2353515625,0.5047607421875,1.52618408203125,33.189998626708984,0.0,87.0,1.1782379150390625,-0.8086700439453125,Waiting,0.0,0.0,-113.0,0.0,0.0,0.0,0.0,0.0,
1.3722600000000094,0.0,0.0,false,4046130.2053611996,,17476.0,32.25,-1267.5,-3046.986488344878,0.0,0.125,1.4465330550000002,4.492372334180381,0.0,-74044.0,37.75,1380.0,3046.986488344878,0.0,0.0,1.960449018,4.478797478214887,0.0,48362.0,36.25,-1515.0,-3046.986488344878,0.0,0.0,3.6877437630000003,4.483322430203385,0.0,-58505.0,33.5,1522.5,3046.986488344878,0.0,0.0,2.104491972,4.477439992618338,0.0,4.019999980926514,-3.9600000381469727,30.010000228881836,-0.13250732421875,0.43389892578125,1.13543701171875,33.189998626708984,0.0,130.0,1.144989013671875,-0.75909423828125,Waiting,0.0,0.0,-113.0,0.0,0.0,0.0,0.0,0.0,
1.4730679999999994,0.0,0.0,false,4045957.3524134015,,17225.0,27.625,-1710.0,-2712.663175535483,0.0,0.125,1.431884619,4.664447537186064,0.0,-73792.0,35.625,1732.5,2712.663175535483,0.0,1.375,2.0642087730000003,4.650352711831955,0.0,48067.0,27.625,-2092.5,-2712.663175535483,0.0,0.0,3.6950679810000002,4.655050986949991,0.0,-58230.0,30.125,1875.0,2712.663175535483,0.0,0.0,2.080077912,4.6489432292965445,0.0,4.909999847412109,-4.369999885559082,30.31999969482422,-0.07843017578125,0.16656494140625,0.7490234375,33.15999984741211,0.0,33.0,1.1125946044921875,-0.690216064453125,Waiting,0.0,0.0,-113.0,0.0,0.0,0.0,0.0,0.0,
1.575445000000007,0.0,0.0,false,4045768.4724051785,,16899.0,25.125,-2070.0,-2520.0,0.0,0.625,1.516113126,4.963999999999999,0.0,-73480.0,31.875,1995.0,2520.0,0.0,1.0,2.409667722,4.948999999999997,0.0,47696.0,18.75,-2347.5,-2520.0,0.0,0.125,3.7854000030000003,2.346685808637024E-15,0.0,-57890.0,26.875,2227.5,2520.0,0.0,0.25,2.263183362,2.343606790115397E-15,0.0,4.96999979019165,-5.179999828338623,30.34000015258789,-0.51715087890625,-0.11456298828125,0.580322265625,33.15999984741211,0.0,-483.0,1.0797576904296875,-0.6101531982421875,Waiting,0.0,0.0,-113.0,0.0,0.0,0.0,0.0,0.0,
1.6744759999999952,0.0,0.0,false,4045563.570795958,,16508.0,22.625,-2497.5,-2520.0,0.0,0.125,1.796874816,4.963999999999999,0.0,-73144.0,28.0,2077.5,2520.0,0.0,0.5,2.647704807,4.948999999999997,0.0,47270.0,7.875,-2820.0,-2520.0,0.0,0.0,4.0234370880000005,2.346685808637024E-15,0.0,-57494.0,25.125,2557.5,2520.0,0.0,0.25,2.4340817820000002,2.343606790115397E-15,0.0,3.180000066757202,-6.320000171661377,30.209999084472656,-0.19140625,-0.70843505859375,0.84161376953125,33.15999984741211,0.0,-463.0,1.0258331298828125,-0.5348968505859375,Waiting,0.0,0.0,-113.0,0.0,0.0,0.0,0.0,0.0,
1.8054520000000194,0.0,0.0,false,4045570.175295186,,16072.0,5.0,-2730.0,-1239.8002588953852,0.0,1.125,2.106933378,0.5488745969500103,0.0,-72802.0,22.75,2085.0,1239.8002588953852,0.0,2.375,2.8918454070000004,0.5472160314878324,0.0,46849.0,0.0,-2430.0,-1239.8002588953852,0.0,1.0,4.294433154,0.5477688866418917,0.0,-57078.0,2.5,2535.0,1239.8002588953852,0.0,2.0,2.752685265,0.5470501749416147,0.0,1.25,-6.760000228881836,30.780000686645508,0.241455078125,-0.3162841796875,1.51629638671875,33.15999984741211,0.0,182.0,0.9472808837890625,-0.4835662841796875,Waiting,0.0,0.0,-113.0,0.0,0.0,0.0,0.0,0.0,
1.9091440000000002,0.0,0.0,false,4045562.8607106367,,15695.0,0.0,-2437.5,-541.5953889287298,0.0,0.25,2.4230954550000003,0.3921963945171678,0.0,-72445.0,1.25,2355.0,541.5953889287298,0.0,0.125,3.2568356040000004,0.3910112724547669,0.0,46583.0,0.125,-1590.0,-541.5953889287298,0.0,0.0,4.6008296070000005,0.3914063131422339,0.0,-56753.0,0.0,1995.0,541.5953889287298,0.0,0.25,2.97851532,0.39089276024852687,0.0,-1.3799999952316284,-4.449999809265137,31.079999923706055,0.48291015625,-0.62640380859375,0.87640380859375,33.15999984741211,0.0,159.0,0.8634033203125,-0.468414306640625,Waiting,0.0,0.0,-113.0,0.0,0.0,0.0,0.0,0.0,
2.0126440000000003,0.0,0.0,false,4045538.8485811576,,15413.0,0.0,-1770.0,0.0,0.0,0.125,2.4267575640000003,0.3921963945171678,0.0,-72183.0,0.0,1642.5,0.0,0.0,0.0,3.2958981,0.3910112724547669,0.0,46508.0,0.0,-525.0,0.0,0.0,0.0,4.583739765000001,0.3914063131422339,0.0,-56484.0,0.0,1672.5,0.0,0.0,0.0,2.984618835,0.39089276024852687,0.0,-2.4200000762939453,-1.6399999856948853,31.829999923706055,0.2529296875,0.00787353515625,1.66412353515625,33.119998931884766,0.0,296.0,0.7919921875,-0.5009613037109375,Waiting,0.0,0.0,-113.0,0.0,0.0,0.0,0.0,0.0,
2.1251700000000127,0.0,0.0,false,4045496.331403927,,15240.0,17.375,-1305.0,-264.56692814826965,0.0,0.0,2.3767087410000003,0.5533560492066895,0.0,-72186.0,13.375,630.0,-264.56692814826965,0.0,3.5,2.824706742,4.397316058113635,0.0,46467.0,0.0,-142.5,-264.56692814826965,0.0,3.625,4.047851148,4.401758689006861,0.0,-56341.0,26.125,900.0,-264.56692814826965,0.0,0.0,2.9992672710000003,0.5515167311543325,0.0,-0.7300000190734863,0.6499999761581421,33.279998779296875,0.588623046875,0.82867431640625,0.15020751953125,33.119998931884766,0.0,946.0,0.7506256103515625,-0.5496063232421875,Waiting,0.0,0.0,-113.0,0.0,0.0,0.0,0.0,0.0,
2.24025,0.0,0.0,false,4045437.128461189,,15240.0,0.125,-862.5,-2100.0,0.0,0.125,2.3767087410000003,0.5533560492066895,0.0,-72186.0,11.75,-1192.5,-2100.0,0.0,0.0,2.125243923,4.397316058113635,0.0,46319.0,8.0,-907.5,-2100.0,0.0,0.375,3.4729000350000003,4.401758689006861,0.0,-56372.0,74.375,-67.5,-2100.0,0.0,0.0,3.035888361,0.5515167311543325,0.0,1.3799999952316284,2.549999952316284,38.31999969482422,0.45538330078125,0.21826171875,0.746337890625,33.119998931884766,0.0,454.0,0.7600250244140625,-0.58514404296875,Waiting,0.0,0.0,-113.0,0.0,0.0,0.0,0.0,0.0,
2.351285999999993,0.0,0.0,false,4045364.0276863724,,15084.0,1.5,-967.5,-2100.0,0.0,0.125,2.3742673350000003,0.5533560492066895,0.0,-72343.0,20.25,-1140.0,-2100.0,0.0,0.0,1.8884275410000002,4.397316058113635,0.0,46319.0,11.625,-1035.0,-2100.0,0.0,0.0,3.231200841,4.401758689006861,0.0,-56585.0,52.875,-1050.0,-2100.0,0.0,0.0,3.178710612,0.5515167311543325,0.0,2.7200000286102295,2.940000057220459,51.15999984741211,0.0611572265625,0.17919921875,0.5955810546875,33.119998931884766,0.0,136.0,0.8013153076171875,-0.6243133544921875,Waiting,0.0,0.0,-113.0,0.0,0.0,0.0,0.0,0.0,
2.4597510000000185,0.0,0.0,false,4045269.57930565,,14915.0,0.0,-1260.0,0.0,0.0,0.125,2.3754880380000003,0.5533560492066895,0.0,-72552.0,0.0,-1042.5,0.0,0.0,0.25,1.8981931650000001,4.397316058113635,0.0,46135.0,0.0,-1237.5,0.0,0.0,0.125,3.287353179,4.401758689006861,0.0,-56585.0,0.0,-1402.5,0.0,0.0,0.0,3.1518551460000004,0.5515167311543325,0.0,3.1500000953674316,1.5499999523162842,64.9800033569336,-0.055419921875,0.1429443359375,1.06109619140625,33.02000045776367,0.0,40.0,0.8459930419921875,-0.6527252197265625,Waiting,0.0,0.0,-113.0,0.0,0.0,0.0,0.0,0.0,
2.5692690000000002,0.0,0.0,false,4045161.244242768,,14729.0,1.375,-735.0,-555.5905491113663,0.0,1.875,2.154540795,4.963999999999999,0.0,-72676.0,11.75,-480.0,555.5905491113663,0.0,4.75,2.312011482,4.948999999999997,0.0,45948.0,2.125,-892.5,-555.5905491113663,0.0,2.625,3.7341304770000003,2.346685808637024E-15,0.0,-56778.0,20.625,-435.0,555.5905491113663,0.0,1.5,2.8405758810000004,2.343606790115397E-15,0.0,2.450000047683716,0.7799999713897705,72.19999694824219,0.099853515625,-0.02301025390625,0.6334228515625,33.02000045776367,0.0,-19.0,0.8819122314453125,-0.6771392822265625,Waiting,0.0,0.0,-113.0,0.0,0.0,0.0,0.0,0.0,
2.678031000000017,0.0,0.0,false,4045036.2459165156,,14681.0,0.375,-180.0,-853.2283151149749,0.0,0.25,1.903075977,4.963999999999999,0.0,-72692.0,13.5,90.0,853.2283151149749,0.0,0.0,2.70996066,4.948999999999997,0.0,45877.0,0.0,-217.5,-853.2283151149749,0.0,0.125,4.027099197,2.346685808637024E-15,0.0,-56780.0,12.875,307.5,853.2283151149749,0.0,0.0,2.545165755,2.343606790115397E-15,0.0,2.440000057220459,0.5400000214576721,70.94999694824219,-0.14752197265625,0.099609375,0.7835693359375,33.02000045776367,0.0,11.0,0.90814208984375,-0.701568603515625,Waiting,0.0,0.0,-113.0,0.0,0.0,0.0,0.0,0.0,
2.791493000000017,0.0,0.0,false,4044894.5899965973,,14635.0,5.125,-360.0,-1309.6062755584717,0.0,0.125,1.848144342,4.963999999999999,0.0,-72644.0,21.75,330.0,1309.6062755584717,0.0,0.0,2.911376655,4.948999999999997,0.0,45841.0,4.5,-480.0,-1309.6062755584717,0.0,0.0,4.208983944,2.346685808637024E-15,0.0,-56715.0,23.125,427.5,1309.6062755584717,0.0,0.0,2.362060305,2.343606790115397E-15,0.0,2.2300000190734863,-0.6700000166893005,70.97000122070312,-0.3138427734375,0.070068359375,1.070068359375,33.02000045776367,0.0,-71.0,0.9341888427734375,-0.7167816162109375,Waiting,0.0,0.0,-113.0,0.0,0.0,0.0,0.0,0.0,
2.9001039999999922,0.0,0.0,false,4044734.4704014515,,14539.0,6.625,-697.5,-1388.9763164520261,0.0,0.125,1.853027154,4.963999999999999,0.0,-72554.0,25.25,622.5,1388.9763164520261,0.0,0.0,2.9052731400000003,4.948999999999997,0.0,45727.0,5.0,-735.0,-1388.9763164520261,0.0,0.0,4.254149955,2.346685808637024E-15,0.0,-56608.0,22.625,885.0,1388.9763164520261,0.0,0.0,2.352294681,2.343606790115397E-15,0.0,2.009999990463257,-1.5700000524520874,71.0999984741211,-0.09393310546875,0.11907958984375,0.9259033203125,33.02000045776367,0.0,59.0,0.9495697021484375,-0.7143096923828125,Waiting,0.0,0.0,-113.0,0.0,0.0,0.0,0.0,0.0,
3.014407999999996,0.0,0.0,false,4044557.7049552104,,14394.0,6.375,-930.0,-1388.9763164520261,0.0,0.0,1.8408201240000002,4.963999999999999,0.0,-72426.0,26.875,892.5,1388.9763164520261,0.0,0.0,2.8479000990000003,4.948999999999997,0.0,45585.0,5.5,-967.5,-1388.9763164520261,0.0,0.0,4.11376911,2.346685808637024E-15,0.0,-56444.0,19.25,1095.0,1388.9763164520261,0.0,0.25,2.396239989,2.343606790115397E-15,0.0,1.9900000095367432,-1.9600000381469727,70.94000244140625,-0.18951416015625,-0.11517333984375,0.8223876953125,32.9900016784668,0.0,-188.0,0.951507568359375,-0.7065582275390625,Waiting,0.0,0.0,-113.0,0.0,0.0,0.0,0.0,0.0,
3.132426000000007,0.0,0.0,false,4044364.299319728,,14216.0,5.5,-1132.5,-1388.9763164520261,0.0,0.0,1.8310545,4.963999999999999,0.0,-72234.0,21.375,1245.0,1388.9763164520261,0.0,0.0,2.762450889,4.948999999999997,0.0,45405.0,4.125,-1185.0,-1388.9763164520261,0.0,0.0,4.0283199000000005,2.346685808637024E-15,0.0,-56246.0,16.25,1282.5,1388.9763164520261,0.0,0.0,2.4291989700000003,2.343606790115397E-15,0.0,2.2799999713897705,-2.6600000858306885,71.08000183105469,-0.101318359375,0.09423828125,1.23565673828125,32.9900016784668,0.0,28.0,0.941680908203125,-0.684722900390625,Waiting,0.0,0.0,-113.0,0.0,0.0,0.0,0.0,0.0,
3.236945999999996,0.0,0.0,false,4044153.4048293843,,13999.0,4.0,-1402.5,-1488.1890177726746,0.0,0.0,1.8408201240000002,4.963999999999999,0.0,-72008.0,17.5,1515.0,1488.1890177726746,0.0,0.0,2.705077848,4.948999999999997,0.0,45190.0,3.25,-1395.0,-1488.1890177726746,0.0,0.0,3.9990230280000003,2.346685808637024E-15,0.0,-56013.0,13.25,1507.5,1488.1890177726746,0.0,0.0,2.4768063870000003,2.343606790115397E-15,0.0,2.3399999141693115,-3.1500000953674316,71.08000183105469,-0.00726318359375,0.09063720703125,0.63653564453125,32.9900016784668,0.0,70.0,0.9293670654296875,-0.6461944580078125,Waiting,0.0,0.0,-113.0,0.0,0.0,0.0,0.0,0.0,
3.367518000000011,0.0,0.0,false,4044159.9002493764,,13747.0,2.75,-1597.5,-1547.7165484428406,0.0,0.0,1.848144342,4.963999999999999,0.0,-71737.0,12.625,1710.0,1547.7165484428406,0.0,0.0,2.700195036,4.948999999999997,0.0,44946.0,1.0,-1582.5,-1547.7165484428406,0.0,0.0,4.005126543,2.346685808637024E-15,0.0,-55751.0,9.625,1687.5,1547.7165484428406,0.0,0.0,2.507323962,2.343606790115397E-15,0.0,2.4000000953674316,-3.390000104904175,70.87999725341797,-0.067138671875,0.0191650390625,0.8480224609375,32.9900016784668,0.0,-21.0,0.9160614013671875,-0.64434814453125,Waiting,0.0,0.0,-113.0,0.0,0.0,0.0,0.0,0.0,
3.4867200000000014,0.0,0.0,false,4044149.189164683,,13475.0,1.0,-1702.5,-1547.7165484428406,0.0,0.0,1.8408201240000002,4.963999999999999,0.0,-71448.0,8.5,1807.5,1547.7165484428406,0.0,0.0,2.6940915210000003,4.948999999999997,0.0,44685.0,0.625,-1620.0,-1547.7165484428406,0.0,0.0,4.00390584,2.346685808637024E-15,0.0,-55467.0,6.375,1785.0,1547.7165484428406,0.0,0.0,2.507323962,2.343606790115397E-15,0.0,2.240000009536743,-3.359999895095825,70.44000244140625,0.035400390625,0.0189208984375,0.87713623046875,32.95000076293945,0.0,14.0,0.901092529296875,-0.6417236328125,Waiting,0.0,0.0,-113.0,0.0,0.0,0.0,0.0,0.0,
3.597116000000009,0.0,0.0,false,4044120.037171351,,13232.0,1.25,-1492.5,-138.89763727784157,0.0,0.0,1.8408201240000002,4.963999999999999,0.0,-71194.0,0.0,1560.0,138.89763727784157,0.0,0.0,2.6855466000000003,4.948999999999997,0.0,44441.0,1.5,-1500.0,-138.89763727784157,0.0,0.0,3.9892574040000004,2.346685808637024E-15,0.0,-55217.0,0.0,1440.0,138.89763727784157,0.0,0.0,2.510986071,2.343606790115397E-15,0.0,2.0999999046325684,-2.009999990463257,70.02999877929688,0.88134765625,-0.22894287109375,0.51556396484375,32.95000076293945,0.0,74.0,0.8873138427734375,-0.64764404296875,Waiting,0.0,0.0,-113.0,0.0,0.0,0.0,0.0,0.0,
3.714959999999992,0.0,0.0,false,4044073.690651558,,13023.0,5.625,-1230.0,-2440.6299591064453,0.0,4.25,1.9995115140000002,1.2409999999999985,0.0,-71094.0,21.875,787.5,-2440.6299591064453,0.0,4.125,2.336425542,3.711749999999998,0.0,44442.0,25.25,255.0,2440.6299591064453,0.0,4.75,3.6938472780000002,3.7154999999999982,0.0,-55040.0,60.25,975.0,-2440.6299591064453,0.0,4.875,2.3193357000000003,3.7106249999999985,0.0,1.7899999618530273,0.6600000262260437,70.2300033569336,1.0950927734375,-0.12005615234375,0.1612548828125,32.95000076293945,0.0,251.0,0.8732147216796875,-0.6916656494140625,Waiting,0.0,0.0,-113.0,0.0,0.0,0.0,0.0,0.0,
3.8172580000000016,0.0,0.0,false,4044012.3553138454,,12851.0,23.125,-1170.0,-2619.4072601866683,0.0,0.25,2.564697003,0.7806947563250686,0.0,-71397.0,2.75,-1995.0,-2619.4072601866683,0.0,0.0,1.8933103530000002,4.170664313244807,0.0,44400.0,5.0,135.0,-1461.5479835416077,0.0,1.875,3.45458949,4.822471224614962,0.0,-55011.0,50.25,187.5,-1461.5479835416077,0.0,3.0,2.194823994,0.1313562002861293,0.0,1.2300000190734863,2.450000047683716,73.87000274658203,-0.1319580078125,-0.07708740234375,1.44366455078125,32.95000076293945,0.0,-157.0,0.85626220703125,-0.7859344482421875,Waiting,0.0,0.0,-113.0,0.0,0.0,0.0,0.0,0.0,
3.9171480000000156,0.0,0.0,false,4043933.836637589,,12851.0,9.25,-1072.5,-1025.1968622207642,0.0,0.875,2.8417965840000003,0.5533560492066895,0.0,-71397.0,0.25,-555.0,-1025.1968622207642,0.0,0.75,1.7932127070000001,4.397316058113635,0.0,44350.0,1.0,-577.5,-1025.1968622207642,0.0,0.0,3.5217281550000004,4.401758689006861,0.0,-55082.0,32.5,-255.0,-1025.1968622207642,0.0,6.125,2.6440426980000002,0.5515167311543325,0.0,0.8799999952316284,2.7100000381469727,79.16999816894531,0.3563232421875,0.08843994140625,0.83349609375,32.95000076293945,0.0,133.0,0.8337860107421875,-0.881317138671875,Waiting,0.0,0.0,-113.0,0.0,0.0,0.0,0.0,0.0,
4.024795000000013,0.0,0.0,false,4043836.9007702763,,12691.0,0.0,-577.5,0.0,0.0,0.75,2.6342770740000003,0.5533560492066895,0.0,-71487.0,0.0,-832.5,0.0,0.0,0.5,1.979980266,4.397316058113635,0.0,44350.0,0.0,-90.0,0.0,0.0,0.0,3.5229488580000003,4.401758689006861,0.0,-55082.0,0.25,-502.5,0.0,0.0,0.0,3.2153317020000003,0.5515167311543325,0.0,2.0999999046325684,2.880000114440918,84.25,-0.26739501953125,-0.00634765625,0.99951171875,32.95000076293945,0.0,-74.0,0.8150482177734375,-0.9982452392578125,Waiting,0.0,0.0,-113.0,0.0,0.0,0.0,0.0,0.0,
4.129021999999997,0.0,0.0,false,4043726.232189376,,12652.0,12.375,-375.0,-1924.72439289093,0.0,2.25,2.506103259,1.2409999999999985,0.0,-71594.0,9.375,-457.5,-1924.72439289093,0.0,2.0,1.9714353450000002,3.711749999999998,0.0,44340.0,24.25,30.0,1924.72439289093,0.0,3.125,3.187255533,3.7154999999999982,0.0,-55149.0,33.0,-97.5,1924.72439289093,0.0,1.125,3.5314937790000003,1.2368749999999984,0.0,1.6399999856948853,1.3899999856948853,86.37999725341797,-0.18585205078125,-0.49810791015625,1.07373046875,32.95000076293945,0.0,-541.0,0.7978668212890625,-1.1145172119140625,Waiting,0.0,0.0,-113.0,0.0,0.0,0.0,0.0,0.0,
4.23557700000002,0.0,0.0,false,4043598.397281993,,12584.0,26.75,-255.0,-1924.72439289093,0.0,0.875,2.7905270580000003,1.2409999999999985,0.0,-71632.0,27.25,-240.0,-1924.72439289093,0.0,0.625,1.7150877150000001,3.711749999999998,0.0,44399.0,23.25,622.5,1924.72439289093,0.0,0.0,2.812499712,3.7154999999999982,0.0,-55099.0,38.5,382.5,1924.72439289093,0.0,0.25,3.654784782,1.2368749999999984,0.0,0.75,1.340000033378601,85.54000091552734,-0.093994140625,0.00732421875,0.92694091796875,32.95000076293945,0.0,-13.0,0.771942138671875,-1.19586181640625,Waiting,0.0,0.0,-113.0,0.0,0.0,0.0,0.0,0.0,
4.335645000000019,0.0,0.0,false,4043455.6004982446,,12471.0,26.5,-712.5,-1924.72439289093,0.0,0.125,3.01513641,1.2409999999999985,0.0,-71747.0,28.125,-840.0,-1924.72439289093,0.0,0.0,1.589355306,3.711749999999998,0.0,44582.0,20.5,1170.0,1924.72439289093,0.0,0.0,2.576904033,3.7154999999999982,0.0,-55009.0,48.75,615.0,1924.72439289093,0.0,0.0,3.668212515,1.2368749999999984,0.0,-0.8399999737739563,1.2400000095367432,87.0199966430664,0.0869140625,-0.52154541015625,0.8116455078125,32.95000076293945,0.0,-505.0,0.72906494140625,-1.2877655029296875,Waiting,0.0,0.0,-113.0,0.0,0.0,0.0,0.0,0.0,
4.432296999999991,0.0,0.0,false,4043295.6485507246,,12248.0,18.25,-1425.0,-1924.72439289093,0.0,0.125,3.135986007,1.2409999999999985,0.0,-71953.0,23.625,-1312.5,-1924.72439289093,0.0,0.0,1.564941246,3.711749999999998,0.0,44795.0,17.625,1387.5,1924.72439289093,0.0,0.125,2.596435281,3.7154999999999982,0.0,-54831.0,45.75,1162.5,1924.72439289093,0.0,0.0,3.669433218,1.2368749999999984,0.0,-2.430000066757202,1.1200000047683716,88.8499984741211,-0.138427734375,-0.32708740234375,0.75048828125,32.95000076293945,0.0,-297.0,0.6513824462890625,-1.392303466796875,Waiting,0.0,0.0,-113.0,0.0,0.0,0.0,0.0,0.0,
4.549644,0.0,0.0,false,4043117.308275784,,12049.0,13.875,-1275.0,1837.5,0.0,2.875,3.139648116,0.5533560492066917,0.0,-72111.0,8.875,-1117.5,1837.5,0.0,1.625,1.488036957,4.397316058113637,0.0,45059.0,13.5,1657.5,1837.5,0.0,4.375,2.912597358,4.40175868900686,0.0,-54564.0,30.75,1710.0,1837.5,0.0,1.875,3.612060177,0.5515167311543303,0.0,-2.0399999618530273,0.8600000143051147,88.8499984741211,-0.1270751953125,0.45074462890625,1.2877197265625,32.90999984741211,0.0,493.0,0.57318115234375,-1.4791412353515625,Waiting,0.0,0.0,-113.0,0.0,0.0,0.0,0.0,0.0,
4.654584999999992,0.0,0.0,false,4042921.824767942,,11899.0,0.0,-1035.0,0.0,0.0,1.25,2.559814191,0.5533560492066917,0.0,-72122.0,0.0,-45.0,0.0,0.0,0.625,2.0068357320000003,4.397316058113637,0.0,45273.0,0.0,1335.0,0.0,0.0,0.125,3.5339351850000003,4.40175868900686,0.0,-54328.0,0.0,1470.0,0.0,0.0,0.0,3.148193037,0.5515167311543303,0.0,-0.23999999463558197,0.5699999928474426,84.88999938964844,-0.117919921875,0.643310546875,0.97509765625,32.90999984741211,0.0,633.0,0.5178070068359375,-1.565277099609375,Waiting,0.0,0.0,-113.0,0.0,0.0,0.0,0.0,0.0,
4.767444000000018,0.0,0.0,false,4042944.7071873234,,11900.0,0.0,-150.0,0.0,0.0,0.25,2.155761498,0.5533560492066917,0.0,-72119.0,0.0,-67.5,0.0,0.0,0.0,2.360839602,4.397316058113637,0.0,45326.0,0.0,412.5,0.0,0.0,0.0,3.6901851690000003,4.40175868900686,0.0,-54179.0,0.0,1065.0,0.0,0.0,0.0,2.772216513,0.5515167311543303,0.0,2.950000047683716,1.0800000429153442,81.33000183105469,0.2625732421875,0.40673828125,0.48260498046875,32.90999984741211,0.0,415.0,0.502716064453125,-1.6467132568359375,Waiting,0.0,0.0,-113.0,0.0,0.0,0.0,0.0,0.0,
4.8715100000000096,0.0,0.0,false,4042949.5273879585,,11900.0,0.0,0.0,0.0,0.0,0.25,2.143554468,0.5533560492066917,0.0,-72119.0,0.0,217.5,0.0,0.0,0.0,2.3754880380000003,4.397316058113637,0.0,45326.0,0.0,75.0,0.0,0.0,0.0,3.61328088,4.40175868900686,0.0,-54179.0,0.0,112.5,0.0,0.0,0.5,2.767333701,0.5515167311543303,0.0,2.630000114440918,1.590000033378601,80.08000183105469,0.07086181640625,-0.4014892578125,0.923095703125,32.90999984741211,0.0,-428.0,0.508636474609375,-1.734405517578125,Waiting,0.0,0.0,-113.0,0.0,0.0,0.0,0.0,0.0,
4.970556000000012,0.0,0.0,false,4042937.913771642,,11899.0,0.0,0.0,0.0,0.0,0.125,2.2656247680000003,0.5533560492066917,0.0,-72097.0,0.0,7.5,0.0,0.0,0.0,2.2680661740000003,4.397316058113637,0.0,45330.0,0.0,22.5,0.0,0.0,0.125,3.5693355720000004,4.40175868900686,0.0,-54175.0,0.0,-7.5,0.0,0.0,0.0,3.01513641,0.5515167311543303,0.0,2.9700000286102295,1.6299999952316284,80.66000366210938,-0.0531005859375,0.06378173828125,1.1202392578125,32.90999984741211,0.0,-8.0,0.505523681640625,-1.786773681640625,Waiting,0.0,0.0,-113.0,0.0,0.0,0.0,0.0,0.0,
5.073486000000004,0.0,0.0,false,4042910.737270876,,11898.0,0.0,0.0,0.0,0.0,0.125,2.357177493,0.5533560492066917,0.0,-72097.0,0.0,0.0,0.0,0.0,0.0,2.194823994,4.397316058113637,0.0,45332.0,0.0,0.0,0.0,0.0,0.0,3.5217281550000004,4.40175868900686,0.0,-54188.0,0.0,-97.5,0.0,0.0,0.0,3.1152340560000003,0.5515167311543303,0.0,2.5199999809265137,1.159999966621399,80.97000122070312,-0.059326171875,0.0372314453125,1.015869140625,32.900001525878906,0.0,-19.0,0.5029754638671875,-1.7826385498046875,Waiting,0.0,0.0,-113.0,0.0,0.0,0.0,0.0,0.0,
5.175837,0.0,0.0,false,4042867.1379115283,,11898.0,0.0,0.0,0.0,0.0,0.125,2.362060305,0.5533560492066917,0.0,-72097.0,0.0,0.0,0.0,0.0,0.0,2.176513449,4.397316058113637,0.0,45332.0,0.0,0.0,0.0,0.0,0.0,3.5180660460000004,4.40175868900686,0.0,-54191.0,0.0,0.0,0.0,0.0,0.0,3.1127926500000003,0.5515167311543303,0.0,2.619999885559082,1.2300000190734863,80.87000274658203,0.0340576171875,-0.00823974609375,0.99664306640625,32.900001525878906,0.0,-51.0,0.504241943359375,-1.776153564453125,Waiting,0.0,0.0,-113.0,0.0,0.0,0.0,0.0,0.0,
5.283330000000016,0.0,0.0,false,4042807.9864253392,,11925.0,5.5,165.0,1099.21875,0.0,0.125,2.366943117,0.5533560492066917,0.0,-72085.0,7.625,82.5,1099.21875,0.0,0.0,2.181396261,4.397316058113637,0.0,45358.0,5.375,142.5,1099.21875,0.0,0.0,3.5278316700000003,4.40175868900686,0.0,-54179.0,6.875,75.0,1099.21875,0.0,0.0,3.1140133530000003,0.5515167311543303,0.0,2.2799999713897705,1.190000057220459,80.41999816894531,-0.291748046875,0.0211181640625,1.01678466796875,32.900001525878906,0.0,-71.0,0.503173828125,-1.7706451416015625,Waiting,0.0,0.0,-113.0,0.0,0.0,0.0,0.0,0.0,
5.394065000000002,0.0,0.0,false,4042732.4230290693,,11947.0,0.0,180.0,0.0,0.0,0.125,2.366943117,0.5533560492066917,0.0,-72065.0,0.0,142.5,0.0,0.0,0.0,2.1679685280000003,4.397316058113637,0.0,45383.0,0.0,210.0,0.0,0.0,0.0,3.492431283,4.40175868900686,0.0,-54151.0,0.0,165.0,0.0,0.0,0.0,3.1152340560000003,0.5515167311543303,0.0,2.130000114440918,1.1399999856948853,76.37999725341797,0.10986328125,0.1402587890625,0.980224609375,32.900001525878906,0.0,121.0,0.4995269775390625,-1.7617034912109375,Waiting,0.0,0.0,-113.0,0.0,0.0,0.0,0.0,0.0,
5.497233000000008,0.0,0.0,false,4042640.4532911107,,11971.0,0.0,157.5,0.0,0.0,0.125,2.366943117,0.5533560492066917,0.0,-72042.0,0.0,142.5,0.0,0.0,0.0,2.153320092,4.397316058113637,0.0,45415.0,0.0,187.5,0.0,0.0,0.0,3.492431283,4.40175868900686,0.0,-54126.0,0.0,165.0,0.0,0.0,0.0,3.1127926500000003,0.5515167311543303,0.0,2.059999942779541,1.1799999475479126,74.73999786376953,-0.044677734375,0.0850830078125,0.745361328125,32.900001525878906,0.0,40.0,0.49957275390625,-1.7551727294921875,Waiting,0.0,0.0,-113.0,0.0,0.0,0.0,0.0,0.0,
5.605268000000011,0.0,0.0,false,4042529.0584643222,,11971.0,0.0,15.0,0.0,0.0,0.125,2.365722414,0.5533560492066917,0.0,-72041.0,0.0,22.5,0.0,0.0,0.0,2.153320092,4.397316058113637,0.0,45417.0,0.0,15.0,0.0,0.0,0.0,3.492431283,4.40175868900686,0.0,-54125.0,0.0,7.5,0.0,0.0,0.0,3.1140133530000003,0.5515167311543303,0.0,2.140000104904175,0.9700000286102295,74.83000183105469,0.00299072265625,0.00970458984375,1.1728515625,32.939998626708984,0.0,-37.0,0.4995269775390625,-1.7465667724609375,Waiting,0.0,0.0,-113.0,0.0,0.0,0.0,0.0,0.0,
5.708165000000008,0.0,0.0,false,4042401.2691090005,,11972.0,0.0,0.0,0.0,0.0,0.125,2.366943117,0.5533560492066917,0.0,-72041.0,0.0,0.0,0.0,0.0,0.0,2.153320092,4.397316058113637,0.0,45417.0,0.0,0.0,0.0,0.0,0.0,3.492431283,4.40175868900686,0.0,-54125.0,0.0,0.0,0.0,0.0,0.0,3.1140133530000003,0.5515167311543303,0.0,2.0399999618530273,0.9599999785423279,75.30000305175781,0.0096435546875,0.00177001953125,0.90185546875,32.939998626708984,0.0,-30.0,0.4983062744140625,-1.746673583984375,Waiting,0.0,0.0,-113.0,0.0,0.0,0.0,0.0,0.0,
5.810863000000012,0.0,0.0,false,4042257.955455059,,11972.0,0.125,-15.0,-231.49606212973595,0.0,0.125,2.366943117,0.5533560492066895,0.0,-72041.0,0.25,0.0,-231.49606212973595,0.0,0.0,2.153320092,4.397316058113635,0.0,45417.0,0.0,-22.5,-231.49606212973595,0.0,0.0,3.492431283,4.401758689006861,0.0,-54125.0,0.125,0.0,-231.49606212973595,0.0,0.0,3.1152340560000003,0.5515167311543324,0.0,1.9800000190734863,0.8500000238418579,75.30999755859375,-0.01300048828125,0.030517578125,1.06793212890625,32.939998626708984,0.0,-13.0,0.4958343505859375,-1.746490478515625,Waiting,0.0,0.0,-113.0,0.0,0.0,0.0,0.0,0.0,
5.912668000000005,0.0,0.0,false,4042098.2581957947,,11963.0,0.0,-37.5,0.0,0.0,0.125,2.366943117,0.5533560492066895,0.0,-72041.0,0.0,0.0,0.0,0.0,0.0,2.153320092,4.397316058113635,0.0,45407.0,0.0,-15.0,0.0,0.0,0.0,3.492431283,4.401758689006861,0.0,-54125.0,0.0,0.0,0.0,0.0,0.0,3.1140133530000003,0.5515167311543324,0.0,1.909999966621399,0.8199999928474426,75.30999755859375,0.0338134765625,0.00927734375,0.9495849609375,32.939998626708984,0.0,-16.0,0.4952850341796875,-1.746337890625,Waiting,0.0,0.0,-113.0,0.0,0.0,0.0,0.0,0.0,
6.022190999999991,0.0,0.0,false,4041922.1828868543,,11963.0,0.0,0.0,0.0,0.0,0.125,2.366943117,0.5533560492066895,0.0,-72041.0,0.0,0.0,0.0,0.0,0.0,2.152099389,4.397316058113635,0.0,45407.0,0.0,0.0,0.0,0.0,0.0,3.492431283,4.401758689006861,0.0,-54125.0,0.0,0.0,0.0,0.0,0.0,3.1140133530000003,0.5515167311543324,0.0,1.8700000047683716,0.7400000095367432,75.33000183105469,-0.10198974609375,-0.1204833984375,0.94970703125,32.97999954223633,0.0,-175.0,0.49517822265625,-1.746307373046875,Waiting,0.0,0.0,-113.0,0.0,0.0,0.0,0.0,0.0,
6.1231339999999905,0.0,0.0,false,4041730.5994575047,,11963.0,0.0,0.0,0.0,0.0,0.125,2.365722414,0.5533560492066895,0.0,-72041.0,0.0,0.0,0.0,0.0,0.0,2.156982201,4.397316058113635,0.0,45407.0,0.0,0.0,0.0,0.0,0.0,3.492431283,4.401758689006861,0.0,-54125.0,0.0,0.0,0.0,0.0,0.0,3.1140133530000003,0.5515167311543324,0.0,1.8799999952316284,0.7200000286102295,75.31999969482422,0.08294677734375,0.0604248046875,1.02362060546875,32.97999954223633,0.0,43.0,0.4939727783203125,-1.745513916015625,Waiting,0.0,0.0,-113.0,0.0,0.0,0.0,0.0,0.0,
6.224225999999995,0.0,0.0,false,4041522.64888688,,11963.0,0.0,0.0,0.0,0.0,0.125,2.365722414,0.5533560492066895,0.0,-72041.0,0.0,0.0,0.0,0.0,0.0,2.158202904,4.397316058113635,0.0,45407.0,0.0,0.0,0.0,0.0,0.0,3.492431283,4.401758689006861,0.0,-54125.0,0.0,0.0,0.0,0.0,0.0,3.1140133530000003,0.5515167311543324,0.0,1.809999942779541,0.6600000262260437,75.33999633789062,-0.12078857421875,0.16534423828125,1.08807373046875,32.97999954223633,0.0,92.0,0.4933624267578125,-1.7454833984375,Waiting,0.0,0.0,-113.0,0.0,0.0,0.0,0.0,0.0,
6.333521999999997,0.0,0.0,false,4041534.8194350284,,11963.0,0.0,0.0,0.0,0.0,0.125,2.3718259290000003,0.5533560492066895,0.0,-72041.0,0.0,0.0,0.0,0.0,0.0,2.156982201,4.397316058113635,0.0,45407.0,0.0,0.0,0.0,0.0,0.0,3.497314095,4.401758689006861,0.0,-54125.0,0.0,0.0,0.0,0.0,0.0,3.1140133530000003,0.5515167311543324,0.0,1.7300000190734863,0.6700000166893005,75.3499984741211,0.0797119140625,-0.039794921875,0.8857421875,32.97999954223633,0.0,-46.0,0.493438720703125,-1.74566650390625,Waiting,0.0,0.0,-113.0,0.0,0.0,0.0,0.0,0.0,
6.433239999999991,0.0,0.0,false,4041529.631454073,,11963.0,0.125,0.0,-214.96063694357875,0.0,0.125,2.3706052260000003,0.5533560492066895,0.0,-72041.0,0.25,0.0,-214.96063694357875,0.0,0.0,2.158202904,4.397316058113635,0.0,45407.0,0.0,0.0,-214.96063694357875,0.0,0.0,3.492431283,4.401758689006861,0.0,-54125.0,0.125,0.0,-214.96063694357875,0.0,0.0,3.1115719470000003,0.5515167311543325,0.0,1.75,0.5899999737739563,75.33999633789062,0.014404296875,0.02606201171875,0.99786376953125,32.97999954223633,0.0,-3.0,0.4927825927734375,-1.746246337890625,Waiting,0.0,0.0,-113.0,0.0,0.0,0.0,0.0,0.0,
6.550637000000017,0.0,0.0,false,4041507.090826932,,11963.0,1.375,97.5,669.375,0.0,4.375,2.6879880060000003,1.2410000000000012,0.0,-72041.0,1.5,45.0,669.375,0.0,2.5,2.037353307,3.711750000000001,0.0,45407.0,3.625,-37.5,-669.375,0.0,3.125,3.38134731,3.7155000000000014,0.0,-54125.0,2.875,-105.0,-669.375,0.0,3.75,3.3105465360000004,1.236875000000001,0.0,1.9700000286102295,0.5600000023841858,75.72000122070312,-0.1380615234375,-0.0511474609375,1.01409912109375,33.0099983215332,0.0,-119.0,0.4931488037109375,-1.7454986572265625,Waiting,0.0,0.0,-113.0,0.0,0.0,0.0,0.0,0.0,
6.6539880000000124,0.0,0.0,false,4041467.189879137,,11984.0,0.0,-7.5,0.0,0.0,1.0,3.188476236,1.2410000000000012,0.3979491780000002,-72022.0,0.0,82.5,0.0,0.0,0.875,1.508788908,3.711750000000001,0.0,45393.0,0.0,-7.5,0.0,0.0,0.125,2.8027340880000002,3.7155000000000014,0.0,-54146.0,0.0,-90.0,0.0,0.0,0.25,3.7866207060000003,1.236875000000001,0.0,1.6399999856948853,0.5,76.0199966430664,-0.028564453125,0.037353515625,0.9473876953125,33.0099983215332,0.0,0.0,0.4937591552734375,-1.7443695068359375,Waiting,0.0,0.0,-113.0,0.0,0.0,0.0,0.0,0.0,
6.761016000000003,0.0,0.0,false,4041409.948046081,,11971.0,0.0,-30.0,0.0,0.0,0.375,3.2714840400000003,1.2410000000000012,0.0,-72022.0,0.0,0.0,0.0,0.0,0.0,1.2377928420000002,3.711750000000001,0.0,45396.0,0.0,0.0,0.0,0.0,0.0,2.5292966160000003,3.7155000000000014,0.0,-54155.0,0.0,-30.0,0.0,0.0,0.0,3.966064047,1.236875000000001,0.0,1.7799999713897705,0.41999998688697815,75.94999694824219,0.01812744140625,0.04095458984375,1.10626220703125,33.0099983215332,0.0,8.0,0.4932708740234375,-1.7428741455078125,Waiting,0.0,0.0,-113.0,0.0,0.0,0.0,0.0,0.0,
6.8698000000000174,0.0,0.0,false,4041335.9873517784,,11976.0,1.25,67.5,531.5625,0.0,0.125,3.193359048,1.2410000000000012,0.0,-72019.0,1.0,67.5,531.5625,0.0,0.125,1.2915037740000002,3.711750000000001,0.0,45395.0,1.5,-52.5,-531.5625,0.0,0.125,2.626952856,3.7155000000000014,0.0,-54158.0,1.75,-22.5,-531.5625,0.0,0.0,3.8940425700000003,1.236875000000001,0.0,1.850000023841858,0.46000000834465027,75.88999938964844,-0.10076904296875,-0.02423095703125,0.83807373046875,33.0099983215332,0.0,-75.0,0.4934844970703125,-1.7425537109375,Waiting,0.0,0.0,-113.0,0.0,0.0,0.0,0.0,0.0,
6.969091000000015,0.0,0.0,false,4041244.697380307,,12016.0,33.625,255.0,2535.2653144326864,0.0,0.125,3.127441086,1.3277413600098285,0.0,-71982.0,31.875,210.0,2535.2653144326864,0.0,0.0,1.325683458,3.7982292487285734,0.0,45362.0,37.25,-292.5,-2535.2653144326864,0.0,0.0,2.764892295,3.8020666191556582,0.0,-54197.0,36.625,-390.0,-2535.2653144326864,0.0,0.0,3.8830562430000004,1.3233280376004484,0.0,3.200000047683716,0.41999998688697815,75.91000366210938,0.11279296875,0.68084716796875,0.57440185546875,33.0099983215332,0.0,654.0,0.4993743896484375,-1.7425537109375,Waiting,0.0,0.0,-113.0,0.0,0.0,0.0,0.0,0.0,
7.074637000000017,0.0,0.0,false,4041140.2660042904,,12092.0,0.0,502.5,0.0,0.0,0.0,3.121337571,1.3277413600098285,0.0,-71910.0,0.0,480.0,0.0,0.0,0.0,1.495361175,3.7982292487285734,0.0,45285.0,0.0,-495.0,0.0,0.0,0.0,2.875976268,3.8020666191556582,0.0,-54296.0,0.0,-607.5,0.0,0.0,0.0,3.8830562430000004,1.3233280376004484,0.0,3.809999942779541,0.1899999976158142,75.7300033569336,0.13885498046875,-0.32208251953125,1.85223388671875,32.970001220703125,0.0,-398.0,0.5257110595703125,-1.740264892578125,Waiting,0.0,0.0,-113.0,0.0,0.0,0.0,0.0,0.0,
7.183124000000011,0.0,0.0,false,4041018.516143599,,12212.0,0.0,705.0,0.0,0.0,0.0,3.1164547590000002,1.3277413600098285,0.0,-71813.0,0.0,585.0,0.0,0.0,0.0,1.5795896820000002,3.7982292487285734,0.0,45191.0,0.0,-570.0,0.0,0.0,0.0,2.9089352490000002,3.8020666191556582,0.0,-54396.0,0.0,-637.5,0.0,0.0,0.0,3.8830562430000004,1.3233280376004484,0.0,2.809999942779541,0.23999999463558197,75.16999816894531,0.05889892578125,-0.09552001953125,0.52899169921875,32.970001220703125,0.0,-102.0,0.5439453125,-1.7388916015625,Waiting,0.0,0.0,-113.0,0.0,0.0,0.0,0.0,0.0,
7.288233000000007,0.0,0.0,false,4040879.4536629417,,12212.0,0.0,465.0,0.0,0.0,0.0,3.1164547590000002,1.3277413600098285,0.0,-71734.0,0.0,555.0,0.0,0.0,0.0,1.585693197,3.7982292487285734,0.0,45121.0,0.0,-465.0,0.0,0.0,0.0,2.9077145460000002,3.8020666191556582,0.0,-54459.0,0.0,-397.5,0.0,0.0,0.0,3.876952728,1.3233280376004484,0.0,2.2899999618530273,0.23999999463558197,74.48999786376953,0.07843017578125,-0.01739501953125,1.3092041015625,32.970001220703125,0.0,-47.0,0.5531768798828125,-1.7393341064453125,Waiting,0.0,0.0,-113.0,0.0,0.0,0.0,0.0,0.0,
7.387407999999996,0.0,0.0,false,4040723.0844243793,,12279.0,0.0,390.0,0.0,0.0,0.0,3.1152340560000003,1.3277413600098285,0.0,-71734.0,0.0,390.0,0.0,0.0,0.0,1.585693197,3.7982292487285734,0.0,45121.0,0.0,-352.5,0.0,0.0,0.0,2.9089352490000002,3.8020666191556582,0.0,-54459.0,0.0,-345.0,0.0,0.0,0.0,3.876952728,1.3233280376004484,0.0,1.809999942779541,0.2800000011920929,74.19000244140625,-0.04364013671875,-0.06365966796875,1.095703125,32.970001220703125,0.0,-108.0,0.555206298828125,-1.742431640625,Waiting,0.0,0.0,-113.0,0.0,0.0,0.0,0.0,0.0,
7.488793999999994,0.0,0.0,false,4040550.030019185,,12331.0,1.25,195.0,-181.889770925045,0.0,4.25,2.913818061,0.5533560492066895,0.0,-71681.0,1.5,195.0,-181.889770925045,0.0,2.375,1.8981931650000001,4.397316058113635,0.0,45077.0,0.0,-202.5,-181.889770925045,0.0,2.5,3.237304356,4.401758689006861,0.0,-54502.0,0.0,-187.5,-181.889770925045,0.0,3.0,3.3801266070000002,0.5515167311543325,0.0,0.9800000190734863,0.36000001430511475,74.11000061035156,0.05950927734375,-0.189697265625,0.88970947265625,32.970001220703125,0.0,-182.0,0.5488433837890625,-1.7479248046875,Waiting,0.0,0.0,-113.0,0.0,0.0,0.0,0.0,0.0,
7.604603999999992,0.0,0.0,false,4040363.860076732,,12344.0,0.0,82.5,0.0,0.0,0.375,2.438964594,0.5533560492066895,0.0,-71675.0,0.0,7.5,0.0,0.0,0.125,2.153320092,4.397316058113635,0.0,45055.0,0.0,-52.5,0.0,0.0,0.125,3.4826656590000002,4.401758689006861,0.0,-54517.0,0.0,-7.5,0.0,0.0,0.0,2.8979489220000003,0.5515167311543325,0.0,0.6600000262260437,0.3499999940395355,74.31999969482422,0.01129150390625,0.065673828125,0.99334716796875,32.97999954223633,0.0,53.0,0.532623291015625,-1.757659912109375,Waiting,0.0,0.0,-113.0,0.0,0.0,0.0,0.0,0.0,
7.710443,0.0,0.0,false,4040156.2206927678,,12346.0,1.25,-45.0,-476.2204706668854,0.0,1.375,2.031249792,4.963999999999999,0.0,-71675.0,1.375,0.0,476.2204706668854,0.0,1.875,2.443847406,4.948999999999997,0.0,45053.0,0.375,-90.0,-476.2204706668854,0.0,1.625,3.749999616,2.346685808637024E-15,0.0,-54515.0,1.625,52.5,476.2204706668854,0.0,0.375,2.679443085,2.343606790115397E-15,0.0,0.8600000143051147,0.17000000178813934,74.58999633789062,-0.02410888671875,-0.08941650390625,0.82440185546875,32.97999954223633,0.0,-105.0,0.5147247314453125,-1.7664337158203125,Waiting,0.0,0.0,-113.0,0.0,0.0,0.0,0.0,0.0,
7.826618000000017,0.0,0.0,false,4040168.0667870035,,12334.0,0.0,-45.0,0.0,0.0,0.375,1.729736151,4.963999999999999,0.0,-71675.0,0.0,0.0,0.0,0.0,0.25,2.7392575320000003,4.948999999999997,0.0,45020.0,0.0,-142.5,0.0,0.0,0.125,4.0856929410000005,2.346685808637024E-15,0.0,-54505.0,0.0,0.0,0.0,0.0,0.0,2.5402829430000002,2.343606790115397E-15,0.0,0.949999988079071,0.05000000074505806,75.12000274658203,-0.002197265625,-0.00616455078125,0.92974853515625,32.97999954223633,0.0,-21.0,0.5100860595703125,-1.7705535888671875,Waiting,0.0,0.0,-113.0,0.0,0.0,0.0,0.0,0.0,
7.9338380000000175,0.0,0.0,false,4040161.4664410604,,12324.0,1.5,-75.0,-575.433059334755,0.0,0.125,1.700439279,4.963999999999999,0.0,-71675.0,1.75,0.0,575.433059334755,0.0,0.0,2.772216513,4.948999999999997,0.0,45010.0,1.5,-90.0,-575.433059334755,0.0,0.0,4.1308589520000005,2.346685808637024E-15,0.0,-54501.0,2.0,82.5,575.433059334755,0.0,0.0,2.5341794280000003,2.343606790115397E-15,0.0,0.8299999833106995,-0.019999999552965164,75.0199966430664,-0.11572265625,0.11358642578125,1.05609130859375,32.97999954223633,0.0,65.0,0.5098419189453125,-1.7711181640625,Waiting,0.0,0.0,-113.0,0.0,0.0,0.0,0.0,0.0,
8.03336600000001,0.0,0.0,false,4040141.2641551998,,12299.0,3.875,-150.0,-773.8582742214203,0.0,0.125,1.727294745,4.963999999999999,0.0,-71633.0,3.625,262.5,773.8582742214203,0.0,0.0,2.7392575320000003,4.948999999999997,0.0,44976.0,4.0,-195.0,-773.8582742214203,0.0,0.0,4.110107001,2.346685808637024E-15,0.0,-54477.0,4.75,157.5,773.8582742214203,0.0,0.0,2.5366208340000003,2.343606790115397E-15,0.0,0.9900000095367432,-0.5400000214576721,75.0199966430664,-0.12725830078125,0.07525634765625,0.93609619140625,32.97999954223633,0.0,26.0,0.5088958740234375,-1.766937255859375,Waiting,0.0,0.0,-113.0,0.0,0.0,0.0,0.0,0.0,
8.137144000000001,0.0,0.0,false,4040103.08244051,,12281.0,0.0,-142.5,0.0,0.0,0.125,1.752929508,4.963999999999999,0.0,-71608.0,0.0,210.0,0.0,0.0,0.0,2.729491908,4.948999999999997,0.0,44958.0,0.0,-150.0,0.0,0.0,0.0,4.062499584,2.346685808637024E-15,0.0,-54453.0,0.0,135.0,0.0,0.0,0.0,2.5317380220000003,2.343606790115397E-15,0.0,1.0800000429153442,-0.6299999952316284,74.5999984741211,0.015380859375,0.113037109375,1.42401123046875,32.939998626708984,0.0,91.0,0.5058441162109375,-1.7570037841796875,Waiting,0.0,0.0,-113.0,0.0,0.0,0.0,0.0,0.0,
8.249372999999993,0.0,0.0,false,4040046.9273793413,,12261.0,0.0,-112.5,0.0,0.0,0.125,1.78222638,4.963999999999999,0.0,-71588.0,0.0,120.0,0.0,0.0,0.0,2.729491908,4.948999999999997,0.0,44942.0,0.0,-82.5,0.0,0.0,0.0,4.05273396,2.346685808637024E-15,0.0,-54429.0,0.0,150.0,0.0,0.0,0.0,2.5366208340000003,2.343606790115397E-15,0.0,0.9900000095367432,0.20000000298023224,74.51000213623047,0.15093994140625,0.02105712890625,0.9613037109375,32.939998626708984,0.0,43.0,0.50604248046875,-1.752593994140625,Waiting,0.0,0.0,-113.0,0.0,0.0,0.0,0.0,0.0,
8.354252000000008,0.0,0.0,false,4039977.1861540196,,12261.0,6.5,7.5,992.1259617805481,0.0,4.625,1.783447083,3.722999999999999,0.0,-71588.0,4.0,172.5,992.1259617805481,0.0,3.875,2.805175494,1.2372499999999984,0.0,44942.0,3.75,-180.0,-992.1259617805481,0.0,5.0,4.121093328000001,1.2384999999999984,0.0,-54429.0,7.25,0.0,-992.1259617805481,0.0,9.0,2.395019286,3.7106249999999985,0.0,1.1100000143051147,0.44999998807907104,74.48999786376953,0.3057861328125,0.04412841796875,1.08013916015625,32.939998626708984,0.0,101.0,0.5082550048828125,-1.7558441162109375,Waiting,0.0,0.0,-113.0,0.0,0.0,0.0,0.0,0.0,
8.453406000000017,0.0,0.0,false,4039889.4827508456,,12270.0,16.375,90.0,1250.0787448883057,0.0,1.25,1.193847534,3.722999999999999,0.0,-71562.0,18.125,15.0,1250.0787448883057,0.0,2.5,3.441161757,1.2372499999999984,0.0,44910.0,14.0,-120.0,-1250.0787448883057,0.0,0.75,4.8132319290000005,1.2384999999999984,0.0,-54434.0,18.625,-15.0,-1250.0787448883057,0.0,2.25,1.774902162,3.7106249999999985,0.0,0.9100000262260437,0.33000001311302185,74.58000183105469,-0.10040283203125,-0.06982421875,1.17156982421875,32.939998626708984,0.0,-113.0,0.5110626220703125,-1.75970458984375,Waiting,0.0,0.0,-113.0,0.0,0.0,0.0,0.0,0.0,
8.555285000000003,0.0,0.0,false,4039783.8232442793,,12293.0,16.375,157.5,972.2834515571594,0.0,1.25,0.615234312,3.722999999999999,0.0,-71557.0,20.5,112.5,972.2834515571594,0.0,1.875,3.9453120960000003,1.2372499999999984,0.0,44885.0,15.125,-240.0,-972.2834515571594,0.0,0.625,0.46020503100000004,1.2384999999999984,0.0,-54439.0,22.25,-90.0,-972.2834515571594,0.0,1.5,1.314697131,3.7106249999999985,0.0,0.029999999329447746,0.5299999713897705,74.5999984741211,-0.0177001953125,-0.3499755859375,0.7506103515625,32.939998626708984,0.0,-344.0,0.5074005126953125,-1.7657012939453125,Waiting,0.0,0.0,-113.0,0.0,0.0,0.0,0.0,0.0,
8.666481,0.0,0.0,false,4039664.593327322,,12348.0,0.0,300.0,0.0,0.0,0.25,0.313720671,3.722999999999999,-0.5261229930000004,-71514.0,0.0,240.0,0.0,0.0,0.25,4.2724605,1.2372499999999984,0.0,44815.0,0.0,-397.5,0.0,0.0,0.375,0.6872557890000001,1.2384999999999984,0.0,-54482.0,0.0,-255.0,0.0,0.0,0.0,1.015624896,3.7106249999999985,0.0,0.2199999988079071,0.23999999463558197,74.5199966430664,0.01715087890625,0.19952392578125,1.1572265625,32.9900016784668,0.0,191.0,0.4881134033203125,-1.7767791748046875,Waiting,0.0,0.0,-113.0,0.0,0.0,0.0,0.0,0.0,
8.770345999999991,0.0,0.0,false,4039526.9631466246,,12384.0,0.125,232.5,181.889770925045,0.0,1.125,0.23071286700000002,3.0353560492066896,0.0,-71491.0,0.0,150.0,181.889770925045,0.0,0.75,4.420165563,1.9228160581136347,0.0,44802.0,0.5,-82.5,181.889770925045,0.0,0.375,0.6970214130000001,1.9247586890068615,0.0,-54519.0,1.375,-157.5,181.889770925045,0.0,1.125,0.8276366340000001,3.0252667311543324,0.0,1.7100000381469727,0.38999998569488525,74.4800033569336,4.8828125E-4,0.336181640625,0.8001708984375,32.9900016784668,0.0,299.0,0.4937744140625,-1.7777557373046875,Waiting,0.0,0.0,-113.0,0.0,0.0,0.0,0.0,0.0,
8.875239999999991,0.0,0.0,false,4039371.3941852604,,12384.0,0.0,0.0,0.0,0.0,0.25,4.908446763000001,3.0353560492066896,0.0,-71492.0,0.0,0.0,0.0,0.0,0.125,4.609374528,1.9228160581136347,0.0,44802.0,0.0,0.0,0.0,0.0,0.125,0.941162013,1.9247586890068615,0.0,-54506.0,0.0,45.0,0.0,0.0,0.0,0.6616210260000001,3.0252667311543324,0.0,1.5499999523162842,0.33000001311302185,74.36000061035156,0.04449462890625,-0.26324462890625,0.97161865234375,32.9900016784668,0.0,-268.0,0.5108184814453125,-1.777435302734375,Waiting,0.0,0.0,-113.0,0.0,0.0,0.0,0.0,0.0,
8.974857000000018,0.0,0.0,false,4039197.8925070423,,12384.0,0.0,0.0,0.0,0.0,0.125,4.775390136,3.0353560492066896,0.0,-71492.0,0.0,0.0,0.0,0.0,0.125,4.6081538250000005,1.9228160581136347,0.0,44802.0,0.0,0.0,0.0,0.0,0.0,1.051025283,1.9247586890068615,0.0,-54505.0,0.0,7.5,0.0,0.0,0.0,0.623779233,3.0252667311543324,0.0,1.2000000476837158,0.2800000011920929,74.44999694824219,0.00848388671875,0.20526123046875,1.02508544921875,32.9900016784668,0.0,177.0,0.518035888671875,-1.7787628173828125,Waiting,0.0,0.0,-113.0,0.0,0.0,0.0,0.0,0.0,
9.087010999999999,0.0,0.0,false,4039010.84182064,,12384.0,0.0,0.0,0.0,0.0,0.125,4.8107905230000005,3.0353560492066896,0.0,-71492.0,0.0,0.0,0.0,0.0,0.0,4.604491716,1.9228160581136347,0.0,44802.0,0.0,0.0,0.0,0.0,0.0,1.03759755,1.9247586890068615,0.0,-54505.0,0.0,0.0,0.0,0.0,0.0,0.624999936,3.0252667311543324,0.0,1.3700000047683716,0.23000000417232513,74.30999755859375,-0.02362060546875,-0.09112548828125,0.98687744140625,32.970001220703125,0.0,-118.0,0.528961181640625,-1.7782440185546875,Waiting,0.0,0.0,-113.0,0.0,0.0,0.0,0.0,0.0,
9.189535999999993,0.0,0.0,false,4038805.869550524,,12384.0,0.25,7.5,198.42519611120224,0.0,0.125,4.827880365,3.0353560492066896,0.0,-71492.0,0.25,0.0,198.42519611120224,0.0,0.0,4.6032710130000005,1.9228160581136347,0.0,44802.0,0.125,0.0,198.42519611120224,0.0,0.0,1.021728411,1.9247586890068615,0.0,-54505.0,0.375,0.0,198.42519611120224,0.0,0.0,0.624999936,3.0252667311543324,0.0,1.3200000524520874,0.25,74.33999633789062,0.01837158203125,0.077392578125,0.98699951171875,32.970001220703125,0.0,56.0,0.5376739501953125,-1.778289794921875,Waiting,0.0,0.0,-113.0,0.0,0.0,0.0,0.0,0.0,
9.303505999999993,0.0,0.0,false,4038817.7003829693,,12391.0,0.0,30.0,0.0,0.0,0.0,4.832763177,3.0353560492066896,0.0,-71490.0,0.0,22.5,0.0,0.0,0.0,4.604491716,1.9228160581136347,0.0,44802.0,0.0,0.0,0.0,0.0,0.0,1.022949114,1.9247586890068615,0.0,-54505.0,0.0,0.0,0.0,0.0,0.0,0.624999936,3.0252667311543324,0.0,1.2699999809265137,0.23999999463558197,74.37999725341797,-5.4931640625E-4,0.0130615234375,0.98077392578125,32.970001220703125,0.0,-9.0,0.547332763671875,-1.7782135009765625,Waiting,0.0,0.0,-113.0,0.0,0.0,0.0,0.0,0.0,
9.40672200000001,0.0,0.0,false,4038810.955287758,,12391.0,0.0,0.0,0.0,0.0,0.125,4.831542474,3.0353560492066896,0.0,-71488.0,0.0,0.0,0.0,0.0,0.0,4.6032710130000005,1.9228160581136347,0.0,44802.0,0.0,0.0,0.0,0.0,0.0,1.021728411,1.9247586890068615,0.0,-54505.0,0.0,0.0,0.0,0.0,0.0,0.624999936,3.0252667311543324,0.0,1.340000033378601,0.2199999988079071,74.3499984741211,0.006103515625,0.00860595703125,0.9683837890625,32.970001220703125,0.0,-13.0,0.5551910400390625,-1.7782440185546875,Waiting,0.0,0.0,-113.0,0.0,0.0,0.0,0.0,0.0,
9.513083000000012,0.0,0.0,false,4038790.108108108,,12392.0,2.75,45.0,628.3464699983597,0.0,0.0,4.832763177,3.035356049206689,0.0,-71486.0,2.875,60.0,628.3464699983597,0.0,0.0,4.609374528,1.9228160581136347,0.0,44803.0,2.875,75.0,628.3464699983597,0.0,0.0,1.018066302,1.924758689006862,0.0,-54505.0,3.5,0.0,628.3464699983597,0.0,0.0,0.623779233,3.0252667311543324,0.0,1.2899999618530273,0.1599999964237213,74.83000183105469,-0.00341796875,0.09368896484375,0.9063720703125,32.970001220703125,0.0,69.0,0.5544281005859375,-1.77777099609375,Waiting,0.0,0.0,-113.0,0.0,0.0,0.0,0.0,0.0,
9.629146000000008,0.0,0.0,false,4038751.0469541717,,12408.0,0.0,75.0,0.0,0.0,0.125,4.83398388,3.035356049206689,0.0,-71471.0,0.0,52.5,0.0,0.0,0.0,4.6081538250000005,1.9228160581136347,0.0,44827.0,0.0,67.5,0.0,0.0,0.0,1.022949114,1.924758689006862,0.0,-54497.0,0.0,52.5,0.0,0.0,0.0,0.624999936,3.0252667311543324,0.0,1.3200000524520874,0.17000000178813934,76.29000091552734,-0.01727294921875,-0.05291748046875,0.94189453125,32.959999084472656,0.0,-77.0,0.555328369140625,-1.7769012451171875,Waiting,0.0,0.0,-113.0,0.0,0.0,0.0,0.0,0.0,
9.739138999999996,0.0,0.0,false,4038697.89416798,,12408.0,0.0,0.0,0.0,0.0,0.0,4.832763177,3.035356049206689,0.0,-71471.0,0.0,0.0,0.0,0.0,0.0,4.609374528,1.9228160581136347,0.0,44827.0,0.0,0.0,0.0,0.0,0.0,1.022949114,1.924758689006862,0.0,-54494.0,0.0,15.0,0.0,0.0,0.0,0.623779233,3.0252667311543324,0.0,1.2799999713897705,0.17000000178813934,76.16000366210938,0.02825927734375,0.05047607421875,1.014404296875,32.959999084472656,0.0,32.0,0.55487060546875,-1.776885986328125,Waiting,0.0,0.0,-113.0,0.0,0.0,0.0,0.0,0.0,
9.86285500000001,0.0,0.0,false,4038626.5387819433,,12408.0,0.0,0.0,0.0,0.0,0.0,4.83398388,3.035356049206689,0.0,-71471.0,0.0,0.0,0.0,0.0,0.0,4.6105952310000005,1.9228160581136347,0.0,44827.0,0.0,0.0,0.0,0.0,0.0,1.022949114,1.924758689006862,0.0,-54494.0,0.0,0.0,0.0,0.0,0.0,0.623779233,3.0252667311543324,0.0,1.2400000095367432,0.15000000596046448,75.56999969482422,-0.02484130859375,0.0296630859375,0.99176025390625,32.959999084472656,0.0,0.0,0.5545806884765625,-1.776885986328125,Waiting,0.0,0.0,-113.0,0.0,0.0,0.0,0.0,0.0,
9.975580000000017,0.0,0.0,false,4038536.6366501576,,12408.0,0.25,0.0,148.8189049065113,0.0,0.0,4.832763177,3.035356049206689,0.0,-71471.0,0.125,0.0,148.8189049065113,0.0,0.0,4.609374528,1.9228160581136347,0.0,44827.0,0.125,0.0,148.8189049065113,0.0,0.0,1.0339354410000001,1.924758689006862,0.0,-54494.0,0.125,0.0,148.8189049065113,0.0,0.0,0.6323241540000001,3.0252667311543324,0.0,1.2699999809265137,0.18000000715255737,75.69999694824219,0.00323486328125,0.01922607421875,0.95855712890625,32.959999084472656,0.0,-2.0,0.554718017578125,-1.776885986328125,Waiting,0.0,0.0,-113.0,0.0,0.0,0.0,0.0,0.0,
10.091834000000002,0.0,0.0,false,4038432.6590883513,,12409.0,0.0,0.0,0.0,0.0,0.0,4.832763177,3.035356049206689,0.0,-71470.0,0.0,7.5,0.0,0.0,0.0,4.609374528,1.9228160581136347,0.0,44827.0,0.0,0.0,0.0,0.0,0.0,1.021728411,1.924758689006862,0.0,-54494.0,0.0,0.0,0.0,0.0,0.0,0.623779233,3.0252667311543324,0.0,1.2599999904632568,0.11999999731779099,75.70999908447266,-0.0035400390625,0.02056884765625,1.02886962890625,32.959999084472656,0.0,-3.0,0.554718017578125,-1.776885986328125,Waiting,0.0,0.0,-113.0,0.0,0.0,0.0,0.0,0.0,
10.213049,0.0,0.0,false,4038310.496511366,,12409.0,0.0,0.0,0.0,0.0,0.0,4.832763177,3.035356049206689,0.0012207030000004337,-71470.0,0.0,0.0,0.0,0.0,0.0,4.6081538250000005,1.9228160581136347,0.0,44827.0,0.0,0.0,0.0,0.0,0.0,1.022949114,1.924758689006862,0.0,-54494.0,0.0,0.0,0.0,0.0,0.0,0.623779233,3.0252667311543324,0.0,1.2799999713897705,0.14000000059604645,75.70999908447266,-0.00311279296875,0.0218505859375,1.01605224609375,32.959999084472656,0.0,-2.0,0.554718017578125,-1.776885986328125,Waiting,0.0,0.0,-113.0,0.0,0.0,0.0,0.0,0.0,
10.328144,0.0,0.0,false,4038174.268932148,,12409.0,0.0,0.0,0.0,0.0,0.0,4.832763177,3.035356049206689,0.0,-71470.0,0.0,0.0,0.0,0.0,0.0,4.6081538250000005,1.9228160581136347,0.0,44827.0,0.0,0.0,0.0,0.0,0.0,1.022949114,1.924758689006862,0.0,-54494.0,0.0,0.0,0.0,0.0,0.0,0.623779233,3.0252667311543324,0.0,1.2699999809265137,0.15000000596046448,75.70999908447266,-1.8310546875E-4,0.0279541015625,1.00238037109375,32.959999084472656,0.0,4.0,0.554718017578125,-1.776885986328125,Waiting,0.0,0.0,-113.0,0.0,0.0,0.0,0.0,0.0,
10.436045000000012,0.0,0.0,false,4038019.517551755,,12409.0,0.375,0.0,231.49606212973595,0.0,0.0,4.832763177,3.035356049206689,0.0,-71469.0,0.375,7.5,231.49606212973595,0.0,0.0,4.609374528,1.9228160581136347,0.0,44827.0,0.375,0.0,231.49606212973595,0.0,0.0,1.021728411,1.924758689006862,0.0,-54494.0,0.375,0.0,231.49606212973595,0.0,0.0,0.637206966,3.0252667311543324,0.0,1.2599999904632568,0.15000000596046448,75.7300033569336,0.00335693359375,0.03802490234375,0.98504638671875,32.959999084472656,0.0,15.0,0.554718017578125,-1.776885986328125,Waiting,0.0,0.0,-113.0,0.0,0.0,0.0,0.0,0.0,
10.558458000000014,0.0,0.0,false,4037851.061761728,,12410.0,0.0,0.0,0.0,0.0,0.0,4.83398388,3.035356049206689,0.0,-71468.0,0.0,0.0,0.0,0.0,0.0,4.6081538250000005,1.9228160581136347,0.0,44827.0,0.0,0.0,0.0,0.0,0.0,1.022949114,1.924758689006862,0.0,-54494.0,0.0,0.0,0.0,0.0,0.0,0.624999936,3.0252667311543324,0.0,1.2699999809265137,0.14000000059604645,75.75,0.0018310546875,0.01470947265625,1.000244140625,32.959999084472656,0.0,-7.0,0.554718017578125,-1.776885986328125,Waiting,0.0,0.0,-113.0,0.0,0.0,0.0,0.0,0.0,
10.678148000000016,0.0,0.0,false,4037664.0935883014,,12410.0,0.0,0.0,0.0,0.0,0.0,4.832763177,3.035356049206689,0.0,-71468.0,0.0,0.0,0.0,0.0,0.0,4.6081538250000005,1.9228160581136347,0.0,44827.0,0.0,0.0,0.0,0.0,0.0,1.022949114,1.924758689006862,0.0,-54494.0,0.0,0.0,0.0,0.0,0.0,0.624999936,3.0252667311543324,0.0,1.2699999809265137,0.14000000059604645,75.75,-0.001953125,0.016357421875,0.99298095703125,32.970001220703125,0.0,-6.0,0.554718017578125,-1.776885986328125,Waiting,0.0,0.0,-113.0,0.0,0.0,0.0,0.0,0.0,
10.795046999999991,0.0,0.0,false,4037463.081318187,,12421.0,6.0,82.5,992.1260118484497,0.0,0.0,4.830321771,3.0353560492066896,0.0,-71461.0,7.75,90.0,992.1260118484497,0.0,0.0,4.6081538250000005,1.9228160581136347,0.0,44839.0,6.875,142.5,992.1260118484497,0.0,0.0,1.021728411,1.9247586890068615,0.0,-54476.0,6.5,180.0,992.1260118484497,0.0,0.0,0.623779233,3.0252667311543324,0.0,1.3700000047683716,0.0,76.91999816894531,-0.08795166015625,0.06915283203125,1.30364990234375,32.970001220703125,0.0,16.0,0.5548095703125,-1.7760162353515625,Waiting,0.0,0.0,-113.0,0.0,0.0,0.0,0.0,0.0,
10.928771999999997,0.0,0.0,false,4037474.1583445794,,12459.0,0.0,210.0,0.0,0.0,0.0,4.831542474,3.0353560492066896,0.0,-71430.0,0.0,180.0,0.0,0.0,0.0,4.609374528,1.9228160581136347,0.0,44889.0,0.0,292.5,0.0,0.0,0.0,1.027831926,1.9247586890068615,0.0,-54443.0,0.0,187.5,0.0,0.0,0.0,0.624999936,3.0252667311543324,0.0,1.4299999475479126,-0.009999999776482582,81.44000244140625,0.165283203125,-0.02630615234375,1.15142822265625,32.970001220703125,0.0,-29.0,0.559722900390625,-1.775299072265625,Waiting,0.0,0.0,-113.0,0.0,0.0,0.0,0.0,0.0,
11.037467000000005,0.0,0.0,false,4037471.002361408,,12495.0,0.0,247.5,0.0,0.0,0.0,4.83398388,3.0353560492066896,0.0,-71407.0,0.0,157.5,0.0,0.0,0.0,4.609374528,1.9228160581136347,0.0,44918.0,0.0,195.0,0.0,0.0,0.0,1.027831926,1.9247586890068615,0.0,-54408.0,0.0,195.0,0.0,0.0,0.0,0.624999936,3.0252667311543324,0.0,1.159999966621399,-0.029999999329447746,83.29000091552734,0.0609130859375,-0.0064697265625,0.744873046875,32.970001220703125,0.0,-14.0,0.563385009765625,-1.77520751953125,Waiting,0.0,0.0,-113.0,0.0,0.0,0.0,0.0,0.0,
11.148956999999994,0.0,0.0,false,4037449.0640881495,,12499.0,0.0,30.0,0.0,0.0,0.0,4.832763177,3.0353560492066896,0.0,-71403.0,0.0,22.5,0.0,0.0,0.0,4.609374528,1.9228160581136347,0.0,44918.0,0.0,7.5,0.0,0.0,0.0,1.026611223,1.9247586890068615,0.0,-54405.0,0.0,30.0,0.0,0.0,0.0,0.624999936,3.0252667311543324,0.0,1.1799999475479126,0.019999999552965164,83.05000305175781,0.03350830078125,0.00616455078125,0.958984375,32.9900016784668,0.0,-9.0,0.563201904296875,-1.774871826171875,Waiting,0.0,0.0,-113.0,0.0,0.0,0.0,0.0,0.0,
11.248708000000013,0.0,0.0,false,4037412.9034288926,,12499.0,0.0,0.0,0.0,0.0,0.0,4.83398388,3.0353560492066896,0.0,-71403.0,0.0,0.0,0.0,0.0,0.0,4.609374528,1.9228160581136347,0.0,44918.0,0.0,0.0,0.0,0.0,0.0,1.027831926,1.9247586890068615,0.0,-54405.0,0.0,0.0,0.0,0.0,0.0,0.623779233,3.0252667311543324,0.0,1.2000000476837158,-0.019999999552965164,82.66000366210938,-0.01983642578125,0.00921630859375,0.96710205078125,32.9900016784668,0.0,-13.0,0.563201904296875,-1.7752227783203125,Waiting,0.0,0.0,-113.0,0.0,0.0,0.0,0.0,0.0,
11.353622999999992,0.0,0.0,false,4037357.9721223023,,12499.0,0.125,0.0,-196.875,0.0,0.0,4.825438959,3.035356049206692,0.0,-71403.0,0.125,0.0,-196.875,0.0,0.0,4.606933122,1.9228160581136373,0.0,44918.0,0.0,0.0,-196.875,0.0,0.0,1.0083006780000001,1.9247586890068593,0.0,-54405.0,0.0,0.0,-196.875,0.0,0.0,0.624999936,3.0252667311543298,0.0,1.2000000476837158,0.0,82.70999908447266,0.01422119140625,0.0198974609375,0.94866943359375,32.9900016784668,0.0,1.0,0.563201904296875,-1.775146484375,Waiting,0.0,0.0,-113.0,0.0,0.0,0.0,0.0,0.0,
11.465989000000002,0.0,0.0,false,4037289.11228504,,12496.0,0.0,-30.0,0.0,0.0,0.0,4.849853019,3.035356049206692,0.0,-71403.0,0.0,0.0,0.0,0.0,0.0,4.609374528,1.9228160581136373,0.0,44915.0,0.0,-30.0,0.0,0.0,0.0,1.027831926,1.9247586890068593,0.0,-54405.0,0.0,0.0,0.0,0.0,0.0,0.624999936,3.0252667311543298,0.0,1.2100000381469727,0.0,82.77999877929688,-0.01080322265625,0.008056640625,1.0166015625,32.9900016784668,0.0,-14.0,0.563201904296875,-1.775146484375,Waiting,0.0,0.0,-113.0,0.0,0.0,0.0,0.0,0.0,
11.56979800000001,0.0,0.0,false,4037201.4933692967,,12494.0,0.0,0.0,0.0,0.0,0.0,4.832763177,3.035356049206692,-0.0012207030000004337,-71403.0,0.0,0.0,0.0,0.0,0.0,4.6081538250000005,1.9228160581136373,0.0,44912.0,0.0,0.0,0.0,0.0,0.0,1.027831926,1.9247586890068593,0.0,-54405.0,0.0,0.0,0.0,0.0,0.0,0.624999936,3.0252667311543298,0.0,1.2000000476837158,0.0,82.7300033569336,0.00897216796875,0.031005859375,0.98870849609375,32.9900016784668,0.0,11.0,0.563201904296875,-1.775146484375,Waiting,0.0,0.0,-113.0,0.0,0.0,0.0,0.0,0.0,
