Time,ClimberA1,ClimberA2,CameraExists,HeapSpace,LoopTime,FRpos,FRCurrent,FRspeed,FRsetpoint,FRApos,FRACurrent,FREncpos,FREncSetpoint,FREncSpeed,FLpos,FLCurrent,FLspeed,FLsetpoint,FLApos,FLACurrent,FLEncpos,FLEncSetpoint,FLEncSpeed,BRpos,BRCurrent,BRspeed,BRsetpoint,BRApos,BRACurrent,BREncpos,BREncSetpoint,BREncSpeed,BLpos,BLCurrent,BLspeed,BLsetpoint,BLApos,BLACurrent,BLEncpos,BLEncSetpoint,BLEncSpeed,navx_Pitch,navx_Roll,navx_Yaw,navx_XAcc,navx_YAcc,navx_ZAcc,navx_Temp,navx_Bar,navx_Alt,navx_XDis,navx_YDis,GearPlacerState,ShootOutputV,ShootOutputCurrent,ShootEncPos,ShootEncVelocity,ShootSpeed,ShootSetpoint,CarouselSetpoint,CarouselCurrent,
0.20638699999998789,0.0,0.0,false,4211029.147183168,,20751.0,0.0,0.0,0.0,0.0,0.125,1.5527342160000002,0.0,0.0,-79770.0,0.0,0.0,-0.0,0.0,0.0,2.2155759450000003,0.0,0.0,53214.0,0.0,0.0,0.0,0.0,0.0,4.246825737,0.0,0.0,-62870.0,0.0,0.0,-0.0,0.0,0.0,2.497558338,0.0,0.0,1.5700000524520874,0.5,38.869998931884766,0.06463623046875,-0.08056640625,0.9749755859375,33.04999923706055,0.0,-23.0,0.2932891845703125,-1.3489837646484375,Waiting,0.0,0.0,-113.0,0.0,0.0,0.0,0.0,0.0,
0.3504809999999707,0.0,0.0,false,4211123.558002359,,20751.0,0.0,0.0,0.0,0.0,0.375,1.6577146740000002,0.0,0.0,-79770.0,0.0,0.0,-0.0,0.0,1.375,2.388915771,0.0,0.0,53214.0,0.0,0.0,0.0,0.0,0.0,4.1406245760000004,0.0,0.0,-62870.0,0.0,0.0,-0.0,0.0,0.0,2.497558338,0.0,0.0,1.4800000190734863,0.36000001430511475,38.86000061035156,0.0018310546875,0.02728271484375,1.0665283203125,33.04999923706055,0.0,-4.0,0.291748046875,-1.35186767578125,Waiting,0.0,0.0,-113.0,0.0,0.0,0.0,0.0,0.0,
0.4905349999999744,0.0,0.0,false,4211200.880762803,,20751.0,0.0,0.0,0.0,0.0,0.125,1.822509579,0.0,0.0,-79770.0,0.0,0.0,-0.0,0.0,0.125,2.7868649490000004,0.0,0.0,53214.0,0.0,0.0,0.0,0.0,0.0,4.0258784940000005,0.0,0.0,-62870.0,0.0,0.0,-0.0,0.0,0.0,2.507323962,0.0,0.0,1.4600000381469727,0.3499999940395355,38.88999938964844,-0.00384521484375,0.011962890625,0.96282958984375,33.04999923706055,0.0,-15.0,0.2902679443359375,-1.3539886474609375,Waiting,0.0,0.0,-113.0,0.0,0.0,0.0,0.0,0.0,
0.6288029999999563,0.0,0.0,false,4211262.174955769,,20751.0,0.0,0.0,0.0,0.0,0.0,1.861572075,0.0,0.0,-79770.0,0.0,0.0,-0.0,0.0,0.0,2.8002926820000003,0.0,0.0,53214.0,0.0,0.0,0.0,0.0,0.0,4.013671464000001,0.0,0.0,-62870.0,0.0,0.0,-0.0,0.0,0.0,2.512206774,0.0,0.0,1.4600000381469727,0.3499999940395355,38.869998931884766,-0.00457763671875,0.0364990234375,1.05462646484375,33.099998474121094,0.0,-2.0,0.2908172607421875,-1.353607177734375,Waiting,0.0,0.0,-113.0,0.0,0.0,0.0,0.0,0.0,
0.7662209999999614,0.0,0.0,false,4211306.390958231,,20751.0,0.0,0.0,0.0,0.0,0.125,1.860351372,0.0,0.0,-79770.0,0.0,0.0,-0.0,0.0,0.0,2.777099325,0.0,0.0,53214.0,0.0,0.0,0.0,0.0,0.0,4.013671464000001,0.0,0.0,-62870.0,0.0,0.0,-0.0,0.0,0.0,2.510986071,0.0,0.0,1.4600000381469727,0.36000001430511475,38.86000061035156,0.00836181640625,0.02752685546875,1.001708984375,33.099998474121094,0.0,2.0,0.2908172607421875,-1.353607177734375,Waiting,0.0,0.0,-113.0,0.0,0.0,0.0,0.0,0.0,
0.9059339999999502,0.0,0.0,false,4211331.386006289,,20751.0,0.0,0.0,0.0,0.0,0.125,1.860351372,0.0,0.0,-79770.0,0.0,0.0,-0.0,0.0,0.0,2.755126671,0.0,0.0,53214.0,0.0,0.0,0.0,0.0,0.0,4.013671464000001,0.0,0.0,-62870.0,0.0,0.0,-0.0,0.0,0.0,2.512206774,0.0,0.0,1.4700000286102295,0.36000001430511475,38.86000061035156,0.00335693359375,0.0318603515625,1.02642822265625,33.099998474121094,0.0,0.0,0.2908172607421875,-1.353607177734375,Waiting,0.0,0.0,-113.0,0.0,0.0,0.0,0.0,0.0,
1.029399999999965,0.0,0.0,false,4211339.313353641,,20745.0,8.375,-247.5,-1230.236234664917,0.0,0.125,1.8627927780000002,4.963999999999999,0.0,-79763.0,10.0,232.5,1230.236234664917,0.0,0.0,2.708739957,4.948999999999997,0.0,53210.0,10.125,-217.5,-1230.236234664917,0.0,0.0,4.011230058000001,2.346685808637024E-15,0.0,-62869.0,10.25,165.0,1230.236234664917,0.0,0.0,2.510986071,2.343606790115397E-15,0.0,1.659999966621399,-0.9599999785423279,38.959999084472656,-0.37371826171875,0.255126953125,1.85003662109375,33.099998474121094,0.0,-139.0,0.284454345703125,-1.34649658203125,Waiting,0.0,0.0,-113.0,0.0,0.0,0.0,0.0,0.0,
1.1664839999999967,0.0,0.0,false,4211326.976616231,,20688.0,21.5,-622.5,-1944.5669031143188,0.0,0.125,1.860351372,4.963999999999999,0.0,-79710.0,26.0,645.0,1944.5669031143188,0.0,0.0,2.680663788,4.948999999999997,0.0,53152.0,18.625,-862.5,-1944.5669031143188,0.0,0.0,4.013671464000001,2.346685808637024E-15,0.0,-62820.0,24.375,652.5,1944.5669031143188,0.0,0.0,2.512206774,2.343606790115397E-15,0.0,1.6399999856948853,-2.859999895095825,39.040000915527344,-0.423095703125,0.30731201171875,1.21917724609375,33.08000183105469,0.0,-109.0,0.2534637451171875,-1.314910888671875,Waiting,0.0,0.0,-113.0,0.0,0.0,0.0,0.0,0.0,
1.3041549999999698,0.0,0.0,false,4211298.636801258,,20555.0,19.25,-1267.5,-1984.2519235610962,0.0,0.125,1.856689263,4.963999999999999,0.0,-79342.0,22.375,1297.5,1984.2519235610962,0.0,0.0,2.653808322,4.948999999999997,0.0,52734.0,13.5,-1395.0,-1984.2519235610962,0.0,0.0,4.013671464000001,2.346685808637024E-15,0.0,-62448.0,18.25,1395.0,1984.2519235610962,0.0,0.0,2.510986071,2.343606790115397E-15,0.0,1.7799999713897705,-4.320000171661377,39.11000061035156,-0.37384033203125,-0.00482177734375,0.79779052734375,33.08000183105469,0.0,-261.0,0.19793701171875,-1.260894775390625,Waiting,0.0,0.0,-113.0,0.0,0.0,0.0,0.0,0.0,
1.4299249999999883,0.0,0.0,false,4211250.044007858,,20038.0,15.25,-1800.0,-2063.6221146583557,0.0,0.125,1.876220511,4.963999999999999,0.0,-79051.0,16.875,1800.0,2063.6221146583557,0.0,0.0,2.620849341,4.948999999999997,0.0,52431.0,9.5,-1875.0,-2063.6221146583557,0.0,0.0,4.013671464000001,2.346685808637024E-15,0.0,-62153.0,13.625,1822.5,2063.6221146583557,0.0,0.0,2.510986071,2.343606790115397E-15,0.0,1.850000023841858,-5.329999923706055,39.040000915527344,-0.191162109375,0.1527099609375,1.1243896484375,33.08000183105469,0.0,6.0,0.12689208984375,-1.191680908203125,Waiting,0.0,0.0,-113.0,0.0,0.0,0.0,0.0,0.0,
1.5656680000000052,0.0,0.0,false,4211182.257931441,,19702.0,10.625,-2070.0,-2063.6221146583557,0.0,0.0,1.874999808,4.963999999999999,0.0,-78718.0,12.375,2055.0,2063.6221146583557,0.0,0.0,2.6379391830000003,4.948999999999997,0.0,52094.0,6.125,-2085.0,-2063.6221146583557,0.0,0.0,4.013671464000001,2.346685808637024E-15,0.0,-61817.0,9.125,2092.5,2063.6221146583557,0.0,0.0,2.491454823,2.343606790115397E-15,0.0,1.9500000476837158,-5.599999904632568,38.95000076293945,-0.23065185546875,-0.01153564453125,1.16357421875,33.08000183105469,0.0,-122.0,0.0594940185546875,-1.1214447021484375,Waiting,0.0,0.0,-113.0,0.0,0.0,0.0,0.0,0.0,
1.6962269999999553,0.0,0.0,false,4211097.430760165,,19345.0,7.0,-2250.0,-2063.6221146583557,0.0,0.0,1.8713376990000001,4.963999999999999,0.0,-78369.0,8.375,2197.5,2063.6221146583557,0.0,0.0,2.67333957,4.948999999999997,0.0,51742.0,2.375,-2235.0,-2063.6221146583557,0.0,0.0,4.014892167,2.346685808637024E-15,0.0,-61468.0,6.25,2205.0,2063.6221146583557,0.0,0.0,2.4768063870000003,2.343606790115397E-15,0.0,1.9500000476837158,-5.400000095367432,39.31999969482422,-0.050537109375,0.1412353515625,1.161865234375,33.040000915527344,0.0,110.0,0.0181732177734375,-1.0367279052734375,Waiting,0.0,0.0,-113.0,0.0,0.0,0.0,0.0,0.0,
1.8341109999999754,0.0,0.0,false,4211207.831876657,,19014.0,0.0,-1912.5,-859.842547774315,0.0,0.375,2.254638441,0.5533560492066895,0.0,-78109.0,2.75,832.5,-859.842547774315,0.0,0.125,2.341308354,4.397316058113635,0.0,51421.0,0.0,-1792.5,-859.842547774315,0.0,0.125,3.61328088,4.401758689006861,0.0,-61172.0,14.625,1260.0,-859.842547774315,0.0,1.375,2.8967282190000003,0.5515167311543325,0.0,1.5,-2.390000104904175,41.029998779296875,0.77813720703125,-0.147705078125,0.08221435546875,33.040000915527344,0.0,491.0,0.0368804931640625,-0.9787139892578125,Waiting,0.0,0.0,-113.0,0.0,0.0,0.0,0.0,0.0,
1.9706539999999804,0.0,0.0,false,4211298.589945012,,18733.0,5.5,-1725.0,-2100.0,0.0,0.125,2.5329587250000003,0.5533560492066895,0.0,-78168.0,8.0,-247.5,-2100.0,0.0,0.0,2.0581052580000003,4.397316058113635,0.0,51178.0,9.25,-1387.5,-2100.0,0.0,0.0,3.447265272,4.401758689006861,0.0,-61074.0,44.625,7.5,-2100.0,0.0,0.25,3.128661789,0.5515167311543325,0.0,1.5399999618530273,1.7799999713897705,49.060001373291016,0.7423095703125,-0.18438720703125,0.56744384765625,33.040000915527344,0.0,323.0,0.112091064453125,-0.974609375,Waiting,0.0,0.0,-113.0,0.0,0.0,0.0,0.0,0.0,
2.106811999999976,0.0,0.0,false,4211370.583406971,,18511.0,0.0,-1080.0,0.0,0.0,0.125,2.5329587250000003,0.5533560492066895,0.0,-78270.0,0.0,-637.5,0.0,0.0,0.0,2.0080564350000003,4.397316058113635,0.0,50990.0,0.0,-780.0,0.0,0.0,0.0,3.452148084,4.401758689006861,0.0,-61142.0,0.0,-570.0,0.0,0.0,0.0,3.225097326,0.5515167311543325,0.0,2.309999942779541,2.4100000858306885,59.849998474121094,0.07781982421875,0.104736328125,0.0408935546875,33.040000915527344,0.0,127.0,0.2137908935546875,-0.99896240234375,Waiting,0.0,0.0,-113.0,0.0,0.0,0.0,0.0,0.0,
2.2322129999999887,0.0,0.0,false,4211427.419595523,,18403.0,0.25,-382.5,-873.0709004402161,0.0,0.5,2.8015133850000002,1.2409999999999985,0.0,-78364.0,0.25,-375.0,-873.0709004402161,0.0,0.625,1.6821287340000002,3.711749999999998,0.0,50896.0,16.125,-97.5,873.0709004402161,0.0,0.125,2.97851532,3.7154999999999982,0.0,-61249.0,19.375,-180.0,873.0709004402161,0.0,1.375,3.494872689,1.2368749999999984,0.0,2.0199999809265137,1.7599999904632568,64.61000061035156,-0.20562744140625,-0.61334228515625,0.36083984375,32.95000076293945,0.0,-657.0,0.320098876953125,-1.0185546875,Waiting,0.0,0.0,-113.0,0.0,0.0,0.0,0.0,0.0,
2.3677390000000016,0.0,0.0,false,4211465.501521547,,18359.0,4.0,-127.5,-912.7559208869933,0.0,0.25,3.122558274,1.2409999999999985,0.0,-78390.0,6.875,-15.0,-912.7559208869933,0.0,0.0,1.3684080630000002,3.711749999999998,0.0,50927.0,9.5,457.5,912.7559208869933,0.0,0.0,2.5292966160000003,3.7154999999999982,0.0,-61220.0,14.125,322.5,912.7559208869933,0.0,0.0,3.813476172,1.2368749999999984,0.0,1.2699999809265137,1.6299999952316284,62.959999084472656,-0.0732421875,-0.08392333984375,1.2110595703125,32.95000076293945,0.0,-147.0,0.4240570068359375,-1.0391693115234375,Waiting,0.0,0.0,-113.0,0.0,0.0,0.0,0.0,0.0,
2.495195000000007,0.0,0.0,false,4211481.969375736,,18310.0,8.875,-727.5,-1488.1890177726746,0.0,0.0,3.183593424,1.2409999999999985,0.0,-78417.0,15.75,-645.0,-1488.1890177726746,0.0,0.0,1.353759627,3.711749999999998,0.0,51001.0,11.0,847.5,1488.1890177726746,0.0,0.125,2.64892551,3.7154999999999982,0.0,-61064.0,30.0,495.0,1488.1890177726746,0.0,0.0,3.858642183,1.2368749999999984,0.0,-0.15000000596046448,1.4299999475479126,64.16000366210938,-0.26080322265625,-0.34246826171875,1.001953125,32.95000076293945,0.0,-430.0,0.5079803466796875,-1.0665435791015625,Waiting,0.0,0.0,-113.0,0.0,0.0,0.0,0.0,0.0,
2.623407999999996,0.0,0.0,false,4211483.295318481,,18186.0,9.0,-1057.5,-1587.401568889618,0.0,0.125,3.179931315,1.2409999999999985,0.0,-78539.0,14.125,-1065.0,-1587.401568889618,0.0,0.0,1.353759627,3.711749999999998,0.0,51414.0,5.875,1417.5,1587.401568889618,0.0,0.0,2.806396197,3.7154999999999982,0.0,-60892.0,30.75,967.5,1587.401568889618,0.0,0.0,3.824462499,1.2368749999999984,0.0,-1.2799999713897705,1.409999966621399,64.91999816894531,-0.06011962890625,-0.07537841796875,1.26715087890625,32.95000076293945,0.0,-81.0,0.55523681640625,-1.1052093505859375,Waiting,0.0,0.0,-113.0,0.0,0.0,0.0,0.0,0.0,
2.7516300000000045,0.0,0.0,false,4211465.883415113,,17781.0,7.25,-1342.5,-1587.401568889618,0.0,0.125,3.1640621760000003,1.2409999999999985,0.0,-78954.0,10.875,-1372.5,-1587.401568889618,0.0,0.0,1.39160142,3.711749999999998,0.0,51637.0,9.5,1387.5,1587.401568889618,0.0,0.0,2.874755565,3.7154999999999982,0.0,-60660.0,21.5,1432.5,1587.401568889618,0.0,0.0,3.758544537,1.2368749999999984,0.0,-2.109999895095825,1.3700000047683716,64.62000274658203,-0.10650634765625,-0.3697509765625,0.85394287109375,32.900001525878906,0.0,-359.0,0.5920867919921875,-1.1503448486328125,Waiting,0.0,0.0,-113.0,0.0,0.0,0.0,0.0,0.0,
2.881768999999971,0.0,0.0,false,4211429.739181631,,17586.0,0.125,-1177.5,-138.89763727784157,0.0,0.125,3.1164547590000002,1.2409999999999985,0.0,-79124.0,0.0,-1027.5,-138.89763727784157,0.0,0.0,1.4538572730000001,3.711749999999998,0.0,51835.0,0.0,1192.5,138.89763727784157,0.0,0.0,2.861327832,3.7154999999999982,0.0,-60449.0,0.375,1297.5,138.89763727784157,0.0,0.0,3.752441022,1.2368749999999984,0.0,-1.190000057220459,1.3700000047683716,63.810001373291016,-0.01177978515625,0.3636474609375,0.80859375,32.900001525878906,0.0,327.0,0.6290283203125,-1.194488525390625,Waiting,0.0,0.0,-113.0,0.0,0.0,0.0,0.0,0.0,
3.013717000000004,0.0,0.0,false,4211374.868131869,,17482.0,60.0,-570.0,2520.0,0.0,0.125,3.1054684320000003,1.2410000000000012,0.0,-79158.0,24.125,-67.5,2520.0,0.0,0.0,1.469726412,3.711750000000001,0.0,51822.0,18.25,-247.5,-2520.0,0.0,0.0,2.8466793960000003,3.7155000000000014,0.0,-60351.0,37.5,495.0,-2520.0,0.0,0.0,3.754882428,1.236875000000001,0.0,2.680000066757202,1.0099999904632568,63.119998931884766,0.31976318359375,1.002197265625,1.26708984375,32.900001525878906,0.0,974.0,0.71295166015625,-1.214263916015625,Waiting,0.0,0.0,-113.0,0.0,0.0,0.0,0.0,0.0,
3.148429999999993,0.0,0.0,false,4211305.610517021,,17500.0,47.5,240.0,2564.6024909685693,0.0,0.125,3.1054684320000003,1.3885597355558699,0.0,-79036.0,29.5,652.5,2564.6024909685693,0.0,0.0,1.488036957,3.858863845943996,0.0,51725.0,31.75,-510.0,-2564.6024909685693,0.0,0.0,2.8479000990000003,3.8627624758146206,0.0,-60386.0,42.375,-495.0,-2564.6024909685693,0.0,0.0,3.811034766,1.3839442569828093,0.0,6.059999942779541,1.1100000143051147,62.84000015258789,-0.0057373046875,0.58984375,0.41241455078125,32.84000015258789,0.0,476.0,0.8787841796875,-1.201416015625,Waiting,0.0,0.0,-113.0,0.0,0.0,0.0,0.0,0.0,
3.274956999999995,0.0,0.0,false,4211217.636256621,,17676.0,34.375,1207.5,2576.320236533555,0.0,0.0,3.1066891350000003,1.4064983129882327,0.0,-78856.0,37.25,1260.0,2576.320236533555,0.0,0.0,1.535644374,3.87674821736075,0.0,51492.0,28.5,-1650.0,-2576.320236533555,0.0,0.0,2.8942868130000003,3.8806649159032442,0.0,-60583.0,34.75,-1462.5,-2576.320236533555,0.0,0.0,3.867187104,1.4018232077980015,0.0,8.220000267028809,0.6399999856948853,62.27000045776367,-0.05615234375,0.6414794921875,1.30126953125,32.84000015258789,0.0,365.0,1.0966949462890625,-1.161224365234375,Waiting,0.0,0.0,-113.0,0.0,0.0,0.0,0.0,0.0,
3.4154159999999685,0.0,0.0,false,4211327.942717019,,17929.0,0.0,1492.5,0.0,0.0,0.125,3.201903969,1.4064983129882327,0.0,-78608.0,0.0,1365.0,0.0,0.0,0.0,1.6076658510000001,3.87674821736075,0.0,51237.0,0.0,-1350.0,0.0,0.0,0.0,2.9431149330000004,3.8806649159032442,0.0,-60862.0,0.0,-1545.0,0.0,0.0,0.0,3.931884363,1.4018232077980015,0.0,7.489999771118164,0.3199999928474426,61.029998779296875,-0.00927734375,0.1390380859375,0.46844482421875,32.84000015258789,0.0,61.0,1.33123779296875,-1.100494384765625,Waiting,0.0,0.0,-113.0,0.0,0.0,0.0,0.0,0.0,
3.549081999999995,0.0,0.0,false,4211416.714790114,,18178.0,0.0,1552.5,0.0,0.0,0.125,3.276366852,1.4064983129882327,0.0,-78380.0,0.0,1537.5,0.0,0.0,0.0,1.64794905,3.87674821736075,0.0,51027.0,0.0,-1365.0,0.0,0.0,0.0,2.962646181,3.8806649159032442,0.0,-61089.0,0.0,-1335.0,0.0,0.0,0.0,3.9404292840000004,1.4018232077980015,0.0,6.309999942779541,0.10999999940395355,59.439998626708984,0.03131103515625,-0.15948486328125,0.6038818359375,32.84000015258789,0.0,-178.0,1.539215087890625,-1.040557861328125,Waiting,0.0,0.0,-113.0,0.0,0.0,0.0,0.0,0.0,
3.683,0.0,0.0,false,4211489.440423654,,18402.0,20.5,450.0,-876.3779729604721,0.0,1.5,2.8942868130000003,0.5533560492066895,0.0,-78153.0,32.375,247.5,-876.3779729604721,0.0,0.875,1.9226072250000001,4.397316058113635,0.0,50818.0,0.25,-622.5,-876.3779729604721,0.0,0.125,3.287353179,4.401758689006861,0.0,-61296.0,2.375,-1042.5,-876.3779729604721,0.0,0.75,3.4814449560000003,0.5515167311543325,0.0,3.569999933242798,0.3199999928474426,59.869998931884766,0.1580810546875,-1.27008056640625,0.9547119140625,32.83000183105469,0.0,-1071.0,1.6990966796875,-1.0023040771484375,Waiting,0.0,0.0,-113.0,0.0,0.0,0.0,0.0,0.0,
3.812127999999968,0.0,0.0,false,4211542.2498529125,,18336.0,3.5,-277.5,-337.32282400131226,0.0,1.625,2.4365231880000002,1.2409999999999985,0.0,-78173.0,7.75,-240.0,-337.32282400131226,0.0,2.5,2.1191404080000003,3.711749999999998,0.0,50774.0,2.75,-150.0,337.32282400131226,0.0,2.5,3.302001615,3.7154999999999982,0.0,-61461.0,11.625,-345.0,337.32282400131226,0.0,2.0,3.1127926500000003,1.2368749999999984,0.0,0.38999998569488525,0.9900000095367432,63.77000045776367,0.35137939453125,-0.32391357421875,-0.61431884765625,32.83000183105469,0.0,-126.0,1.8343505859375,-0.9965362548828125,Waiting,0.0,0.0,-113.0,0.0,0.0,0.0,0.0,0.0,
3.9445289999999806,0.0,0.0,false,4211579.023041475,,18268.0,22.25,-150.0,-1178.7525391891716,0.0,0.125,2.4877927140000002,0.74324478854998,0.0,-78258.0,31.75,-232.5,-1178.7525391891716,0.0,3.0,1.455077976,3.2154988836691882,0.0,50801.0,13.25,262.5,1178.7525391891716,0.0,0.625,2.513427477,3.2187475186294523,0.0,-61437.0,24.75,135.0,1178.7525391891716,0.0,0.25,3.1665035820000003,0.740774293181109,0.0,0.75,0.41999998688697815,64.05999755859375,-0.1287841796875,-0.058349609375,1.26751708984375,32.83000183105469,0.0,-127.0,1.9519805908203125,-1.0044097900390625,Waiting,0.0,0.0,-113.0,0.0,0.0,0.0,0.0,0.0,
4.074730999999971,0.0,0.0,false,4211599.764705882,,18150.0,22.25,-562.5,-1196.6536673972207,0.0,0.125,2.509765368,0.5555839452083576,0.0,-78361.0,34.25,-517.5,-1196.6536673972207,0.0,1.625,0.91552725,3.028405105728477,0.0,50918.0,10.625,645.0,1196.6536673972207,0.0,0.0,1.987304484,3.031464718888437,0.0,-61364.0,28.625,442.5,1196.6536673972207,0.0,0.0,3.1665035820000003,0.5537372217804893,0.0,-0.49000000953674316,-0.8299999833106995,65.38999938964844,-0.3807373046875,-0.35137939453125,0.9130859375,32.83000183105469,0.0,-465.0,2.0376739501953125,-1.001434326171875,Waiting,0.0,0.0,-113.0,0.0,0.0,0.0,0.0,0.0,
4.20814499999996,0.0,0.0,false,4211600.6062150765,,17938.0,8.5,-1350.0,-1157.0077668097344,0.0,0.125,2.470702872,0.4269558159930019,0.0,-78550.0,19.0,-1207.5,-1157.0077668097344,0.0,1.5,0.806884683,2.9001656594176803,0.0,51098.0,5.125,1132.5,1157.0077668097344,0.0,0.0,1.751708805,2.9030957116094545,0.0,-61204.0,19.25,1020.0,1157.0077668097344,0.0,0.0,3.134765304,0.42553664376014844,0.0,-1.0800000429153442,-2.309999942779541,67.97000122070312,-0.121337890625,0.00164794921875,0.88385009765625,32.810001373291016,0.0,-14.0,2.1034698486328125,-0.9774322509765625,Waiting,0.0,0.0,-113.0,0.0,0.0,0.0,0.0,0.0,
4.336079999999958,0.0,0.0,false,4211585.426386983,,17690.0,3.5,-1545.0,-1135.8867473637815,0.0,0.125,2.263183362,0.3724746616065423,0.0,-78778.0,10.875,-1432.5,-1135.8867473637815,0.0,0.75,0.806884683,2.8458491338216714,0.0,51301.0,2.5,1290.0,1135.8867473637815,0.0,0.125,1.7907713010000001,2.848724309749962,0.0,-61006.0,12.5,1245.0,1135.8867473637815,0.0,0.0,2.938232121,0.37123658104318447,0.0,-0.6700000166893005,-2.819999933242798,70.72000122070312,-0.15692138671875,0.09619140625,1.12969970703125,32.810001373291016,0.0,69.0,2.166900634765625,-0.941070556640625,Waiting,0.0,0.0,-113.0,0.0,0.0,0.0,0.0,0.0,
4.469100999999966,0.0,0.0,false,4211550.357345879,,17476.0,0.0,-1312.5,-490.0740948851217,0.0,0.0,2.130126735,0.29467714453693683,0.0,-78999.0,0.75,-1335.0,-490.0740948851217,0.0,2.125,0.795898356,2.768286701916458,0.0,51507.0,0.0,1267.5,490.0740948851217,0.0,0.0,1.8383787180000002,2.771083516123284,0.0,-60806.0,1.75,1185.0,490.0740948851217,0.0,0.0,2.785644246,0.2936976576544107,0.0,0.33000001311302185,-2.5399999618530273,73.48999786376953,0.03363037109375,0.12738037109375,0.9766845703125,32.810001373291016,0.0,138.0,2.2450714111328125,-0.8946075439453125,Waiting,0.0,0.0,-113.0,0.0,0.0,0.0,0.0,0.0,
4.605577999999979,0.0,0.0,false,4211495.40493924,,17260.0,0.0,-1275.0,0.0,0.0,0.0,2.125243923,0.29467714453693683,0.0,-79142.0,0.0,-750.0,0.0,0.0,2.0,0.7922362470000001,2.768286701916458,0.0,51694.0,0.0,1072.5,0.0,0.0,0.0,1.8395994210000002,2.771083516123284,0.0,-60647.0,0.0,802.5,0.0,0.0,0.0,2.767333701,0.2936976576544107,0.0,1.1100000143051147,-1.5099999904632568,76.13999938964844,0.238037109375,0.05584716796875,0.86370849609375,32.810001373291016,0.0,100.0,2.3465423583984375,-0.8543701171875,Waiting,0.0,0.0,-113.0,0.0,0.0,0.0,0.0,0.0,
4.735587,0.0,0.0,false,4211424.446839784,,17084.0,0.0,-952.5,0.0,0.0,0.0,2.126464626,0.29467714453693683,0.0,-79267.0,0.0,-697.5,0.0,0.0,2.25,0.7910155440000001,2.768286701916458,0.0,51853.0,0.0,907.5,0.0,0.0,0.0,1.8383787180000002,2.771083516123284,0.0,-60538.0,0.0,630.0,0.0,0.0,0.0,2.772216513,0.2936976576544107,0.0,1.7000000476837158,-0.699999988079071,78.61000061035156,0.032958984375,0.08489990234375,1.58856201171875,32.810001373291016,0.0,47.0,2.474853515625,-0.8322296142578125,Waiting,0.0,0.0,-113.0,0.0,0.0,0.0,0.0,0.0,
4.872447999999975,0.0,0.0,false,4211333.616304135,,16964.0,0.0,-577.5,-634.9606275558472,0.0,0.625,2.025146277,4.963999999999999,0.0,-79358.0,0.0,-450.0,-634.9606275558472,0.0,5.875,0.600585876,2.4744999999999977,0.0,51972.0,0.0,592.5,634.9606275558472,0.0,0.0,1.7089842000000002,2.4770000000000025,0.0,-60452.0,0.0,412.5,634.9606275558472,0.0,0.0,2.755126671,2.343606790115397E-15,0.0,1.9500000476837158,0.3499999940395355,79.69999694824219,0.15106201171875,0.07550048828125,0.98388671875,32.810001373291016,0.0,67.0,2.5889434814453125,-0.82928466796875,Waiting,0.0,0.0,-113.0,0.0,0.0,0.0,0.0,0.0,
5.004283999999985,0.0,0.0,false,4211442.32311159,,16894.0,0.25,-240.0,-654.8031377792358,0.0,0.125,1.8176267670000001,4.963999999999999,0.0,-79402.0,1.625,-195.0,-654.8031377792358,0.0,0.0,0.051269526,2.4744999999999977,0.0,52043.0,0.125,277.5,654.8031377792358,0.0,0.0,1.492919769,2.4770000000000025,0.0,-60396.0,0.625,307.5,654.8031377792358,0.0,0.0,2.559814191,2.343606790115397E-15,0.0,2.3499999046325684,0.8399999737739563,79.80000305175781,0.04779052734375,-0.019287109375,0.9561767578125,32.810001373291016,0.0,-51.0,2.7271575927734375,-0.838470458984375,Waiting,0.0,0.0,-113.0,0.0,0.0,0.0,0.0,0.0,
5.134737999999954,0.0,0.0,false,4211534.163009404,,16859.0,2.25,-307.5,-773.8582742214203,0.0,0.125,1.773681459,4.963999999999999,0.0,-79500.0,3.125,-367.5,-773.8582742214203,0.0,0.0,0.02441406,2.4744999999999977,0.0,52129.0,2.25,270.0,773.8582742214203,0.0,0.0,1.481933442,2.4770000000000025,0.0,-60295.0,2.625,300.0,773.8582742214203,0.0,0.0,2.458495842,2.343606790115397E-15,0.0,2.390000104904175,0.5299999713897705,79.27999877929688,-0.101318359375,0.0697021484375,1.0238037109375,32.810001373291016,0.0,5.0,2.8527069091796875,-0.84814453125,Waiting,0.0,0.0,-113.0,0.0,0.0,0.0,0.0,0.0,
5.269897999999986,0.0,0.0,false,4211604.889019493,,16743.0,7.0,-367.5,-1051.6535675525665,0.0,0.125,1.772460756,4.963999999999999,0.0,-79581.0,8.125,-435.0,-1051.6535675525665,0.0,0.0,0.115966785,2.4744999999999977,0.0,52201.0,7.25,435.0,1051.6535675525665,0.0,0.0,1.488036957,2.4770000000000025,0.0,-60220.0,8.25,450.0,1051.6535675525665,0.0,0.0,2.471923575,2.343606790115397E-15,0.0,2.4000000953674316,-0.6000000238418579,78.87000274658203,-0.18634033203125,0.0614013671875,1.038330078125,32.81999969482422,0.0,-16.0,2.9456024169921875,-0.84613037109375,Waiting,0.0,0.0,-113.0,0.0,0.0,0.0,0.0,0.0,
5.40530899999995,0.0,0.0,false,4211658.971204701,,16625.0,6.0,-742.5,-1051.6535675525665,0.0,0.125,1.772460756,4.963999999999999,0.0,-79708.0,6.5,-802.5,-1051.6535675525665,0.0,0.0,0.22094724300000002,2.4744999999999977,0.0,52323.0,5.375,757.5,1051.6535675525665,0.0,0.0,1.4978025810000002,2.4770000000000025,0.0,-60097.0,6.625,772.5,1051.6535675525665,0.0,0.0,2.470702872,2.343606790115397E-15,0.0,2.440000057220459,-1.5399999618530273,78.54000091552734,-0.06573486328125,-0.1182861328125,0.81011962890625,32.81999969482422,0.0,-158.0,2.9407196044921875,-0.821929931640625,Waiting,0.0,0.0,-113.0,0.0,0.0,0.0,0.0,0.0,
5.547793000000005,0.0,0.0,false,4211696.414454999,,16510.0,0.0,-690.0,0.0,0.0,0.0,1.783447083,4.963999999999999,0.0,-79810.0,0.0,-465.0,0.0,0.0,0.0,0.23925778800000003,2.4744999999999977,0.0,52445.0,0.0,727.5,0.0,0.0,0.0,1.5258787500000002,2.4770000000000025,0.0,-59979.0,0.0,690.0,0.0,0.0,0.0,2.4816891990000003,2.343606790115397E-15,0.0,2.2200000286102295,-0.9399999976158142,78.66000366210938,0.30584716796875,0.00921630859375,0.92840576171875,32.81999969482422,0.0,36.0,2.92803955078125,-0.789215087890625,Waiting,0.0,0.0,-113.0,0.0,0.0,0.0,0.0,0.0,
5.6876219999999735,0.0,0.0,false,4211712.610262437,,16457.0,29.125,427.5,2520.0,0.0,1.25,1.430663916,3.722999999999999,0.0,-79921.0,5.875,-1027.5,-2520.0,0.0,0.875,0.705566334,3.711749999999998,0.0,52533.0,33.75,-405.0,-2520.0,0.0,1.125,1.130370978,1.2384999999999984,0.0,-59892.0,79.0,172.5,-2520.0,0.0,5.625,2.242431411,3.7106249999999985,0.0,1.2699999809265137,2.259999990463257,78.87999725341797,0.01513671875,0.0386962890625,1.5172119140625,32.83000183105469,0.0,-3.0,2.910491943359375,-0.7994842529296875,Waiting,0.0,0.0,-113.0,0.0,0.0,0.0,0.0,0.0,
5.826836999999999,0.0,0.0,false,4211711.786154901,,16623.0,0.0,172.5,0.0,0.0,1.5,0.643310481,3.722999999999999,0.0,-80051.0,0.0,15.0,0.0,0.0,11.625,1.0583495010000001,3.711749999999998,0.0,52256.0,0.0,-1162.5,0.0,0.0,0.375,0.250244115,1.2384999999999984,0.0,-59887.0,0.0,82.5,0.0,0.0,2.25,1.365966657,3.7106249999999985,0.0,1.4700000286102295,1.1799999475479126,78.25,-0.14825439453125,0.044921875,1.00152587890625,32.83000183105469,0.0,-15.0,2.89202880859375,-0.8392181396484375,Waiting,0.0,0.0,-113.0,0.0,0.0,0.0,0.0,0.0,
5.96726999999996,0.0,0.0,false,4211694.338750734,,16623.0,19.5,517.5,2103.307135105133,0.0,0.125,4.8681635640000005,3.722999999999999,0.0,-80052.0,26.625,-255.0,-2103.307135105133,0.0,0.0,1.5783689790000002,3.711749999999998,0.0,52242.0,9.375,-750.0,-2103.307135105133,0.0,0.125,4.774169433,1.2384999999999984,0.0,-59871.0,33.25,-337.5,-2103.307135105133,0.0,0.0,0.860595615,3.7106249999999985,0.0,-0.15000000596046448,0.8199999928474426,79.04000091552734,-0.34228515625,-0.21844482421875,0.64697265625,32.83000183105469,0.0,-279.0,2.86663818359375,-0.8664703369140625,Waiting,0.0,0.0,-113.0,0.0,0.0,0.0,0.0,0.0,
6.094293999999994,0.0,0.0,false,4211659.881350954,,16740.0,34.25,930.0,2520.0,0.0,2.0,4.941405744,3.722999999999999,0.0,-80307.0,39.0,-975.0,-2520.0,0.0,0.0,1.652831862,3.711749999999998,0.0,51863.0,14.0,-1185.0,-2520.0,0.0,0.125,0.14648436,1.2384999999999984,0.0,-60061.0,52.125,-660.0,-2520.0,0.0,0.25,0.9997557570000001,3.7106249999999985,0.0,-0.8600000143051147,-0.5,81.5999984741211,-0.12603759765625,-0.081298828125,1.15777587890625,32.83000183105469,0.0,-80.0,2.811553955078125,-0.878692626953125,Waiting,0.0,0.0,-113.0,0.0,0.0,0.0,0.0,0.0,
6.231224999999977,0.0,0.0,false,4211604.753328113,,17103.0,0.625,1245.0,198.42519611120224,0.0,0.375,0.627441342,3.722999999999999,0.0,-80430.0,4.125,-817.5,-198.42519611120224,0.0,0.0,1.597900227,3.711749999999998,0.0,51747.0,0.875,-945.0,-198.42519611120224,0.0,0.0,0.38208003900000004,1.2384999999999984,0.0,-60209.0,8.375,-907.5,-198.42519611120224,0.0,0.0,1.3232420520000001,3.7106249999999985,0.0,-1.2799999713897705,0.9800000190734863,84.2699966430664,0.4144287109375,0.06085205078125,0.59527587890625,32.849998474121094,0.0,114.0,2.74224853515625,-0.8929595947265625,Waiting,0.0,0.0,-113.0,0.0,0.0,0.0,0.0,0.0,
6.368398999999976,0.0,0.0,false,4211532.626015465,,17208.0,0.0,735.0,0.0,0.0,0.25,0.942382716,3.722999999999999,0.0,-80532.0,0.0,-667.5,0.0,0.0,0.0,1.44042954,3.711749999999998,0.0,51636.0,0.0,-727.5,0.0,0.0,0.0,0.44677729800000004,1.2384999999999984,0.0,-60309.0,0.0,-547.5,0.0,0.0,0.0,1.463622897,3.7106249999999985,0.0,0.07000000029802322,1.5,84.38999938964844,-0.04193115234375,0.463134765625,1.084716796875,32.849998474121094,0.0,452.0,2.6964263916015625,-0.9278564453125,Waiting,0.0,0.0,-113.0,0.0,0.0,0.0,0.0,0.0,
6.493415999999969,0.0,0.0,false,4211443.895870034,,17245.0,35.375,165.0,-1575.0,0.0,4.0,0.526122993,3.035356049206692,0.0,-80545.0,29.0,60.0,1575.0,0.0,0.875,1.778564271,4.397316058113637,0.0,51534.0,4.5,-592.5,-1575.0,0.0,0.375,0.8056639800000001,1.9247586890068593,0.0,-60378.0,8.875,-390.0,-1575.0,0.0,1.125,1.014404193,3.0252667311543298,0.0,2.0999999046325684,0.8899999856948853,83.33999633789062,0.16064453125,0.38275146484375,1.298095703125,32.849998474121094,0.0,348.0,2.6852264404296875,-0.957122802734375,Waiting,0.0,0.0,-113.0,0.0,0.0,0.0,0.0,0.0,
6.648447999999975,0.0,0.0,false,4211554.0135042565,,17263.0,0.0,165.0,0.0,0.0,1.375,4.8181147410000005,3.035356049206692,0.0,-80515.0,0.0,0.0,0.0,0.0,0.125,2.310790779,4.397316058113637,0.0,51515.0,0.0,7.5,0.0,0.0,0.0,1.126708869,1.9247586890068593,0.0,-60407.0,0.0,0.0,0.0,0.0,1.125,0.599365173,3.0252667311543298,0.0,2.0,0.8600000143051147,82.4000015258789,-0.0350341796875,-0.00543212890625,0.84576416015625,32.849998474121094,0.0,-41.0,2.698577880859375,-0.989044189453125,Waiting,0.0,0.0,-113.0,0.0,0.0,0.0,0.0,0.0,
6.792085999999952,0.0,0.0,false,4211644.909589041,,17269.0,0.0,0.0,0.0,0.0,0.125,4.676513193,3.035356049206692,0.0,-80519.0,0.0,-15.0,0.0,0.0,0.0,2.312011482,4.397316058113637,0.0,51515.0,0.0,0.0,0.0,0.0,0.0,1.105956918,1.9247586890068593,0.0,-60404.0,0.0,7.5,0.0,0.0,0.0,0.533447211,3.0252667311543298,0.0,1.9500000476837158,0.800000011920929,81.62000274658203,-0.066162109375,0.05987548828125,1.02716064453125,32.81999969482422,0.0,12.0,2.705841064453125,-1.015533447265625,Waiting,0.0,0.0,-113.0,0.0,0.0,0.0,0.0,0.0,
6.946680999999982,0.0,0.0,false,4211718.49955973,,17259.0,0.125,-60.0,-180.46875,0.0,0.25,4.748534670000001,3.035356049206692,0.0,-80520.0,0.5,0.0,180.46875,0.0,0.0,2.244872817,4.397316058113637,0.0,51507.0,0.0,-22.5,-180.46875,0.0,0.0,1.019287005,1.9247586890068593,0.0,-60403.0,0.125,0.0,-180.46875,0.0,0.0,0.521240181,3.02526673115433,0.0,1.9199999570846558,0.7099999785423279,81.04000091552734,-0.0096435546875,0.03411865234375,1.05523681640625,32.81999969482422,0.0,-4.0,2.7055206298828125,-1.02532958984375,Waiting,0.0,0.0,-113.0,0.0,0.0,0.0,0.0,0.0,
7.09030899999995,0.0,0.0,false,4211770.620230875,,17258.0,0.0,0.0,0.0,0.0,0.25,4.780272948,3.035356049206692,0.0,-80520.0,0.0,0.0,0.0,0.0,0.0,2.1679685280000003,4.397316058113637,0.0,51505.0,0.0,0.0,0.0,0.0,0.0,1.0034178660000002,1.9247586890068593,0.0,-60403.0,0.0,0.0,0.0,0.0,0.0,0.552978459,3.02526673115433,0.0,1.840000033378601,0.6000000238418579,81.12999725341797,0.00689697265625,0.01898193359375,1.02850341796875,32.81999969482422,0.0,-14.0,2.705169677734375,-1.0246734619140625,Waiting,0.0,0.0,-113.0,0.0,0.0,0.0,0.0,0.0,
7.236840999999957,0.0,0.0,false,4211805.445759562,,17235.0,2.0,-195.0,-672.65625,0.0,0.125,4.796142087000001,3.035356049206692,0.0,-80500.0,3.0,157.5,672.65625,0.0,0.0,2.153320092,4.397316058113637,0.0,51482.0,2.375,-195.0,-672.65625,0.0,0.0,1.0070799750000001,1.9247586890068593,0.0,-60416.0,2.5,-187.5,-672.65625,0.0,0.0,0.551757756,3.02526673115433,0.0,1.659999966621399,0.49000000953674316,80.13999938964844,-0.01483154296875,0.10308837890625,0.9732666015625,32.86000061035156,0.0,69.0,2.703521728515625,-1.02392578125,Waiting,0.0,0.0,-113.0,0.0,0.0,0.0,0.0,0.0,
7.385108000000008,0.0,0.0,false,4211822.981220657,,17217.0,0.0,-60.0,0.0,0.0,0.125,4.827880365,3.035356049206692,0.0,-80485.0,0.0,60.0,0.0,0.0,0.0,2.091064239,4.397316058113637,0.0,51459.0,0.0,-90.0,0.0,0.0,0.0,0.993652242,1.9247586890068593,0.0,-60453.0,0.0,-75.0,0.0,0.0,0.0,0.571289004,3.02526673115433,0.0,1.649999976158142,0.6499999761581421,77.13999938964844,0.01336669921875,0.0670166015625,1.0142822265625,32.86000061035156,0.0,37.0,2.700592041015625,-1.019012451171875,Waiting,0.0,0.0,-113.0,0.0,0.0,0.0,0.0,0.0,
7.525610999999976,0.0,0.0,false,4211823.231687042,,17213.0,0.0,-30.0,0.0,0.0,0.125,4.842528801,3.035356049206692,0.0,-80475.0,0.0,30.0,0.0,0.0,0.0,2.081298615,4.397316058113637,0.0,51452.0,0.0,-37.5,0.0,0.0,0.0,0.993652242,1.9247586890068593,0.0,-60465.0,0.0,-52.5,0.0,0.0,0.0,0.56152338,3.02526673115433,0.0,1.6399999856948853,0.6200000047683716,76.7699966430664,-0.02008056640625,0.0595703125,1.0604248046875,32.86000061035156,0.0,21.0,2.699615478515625,-1.0136566162109375,Waiting,0.0,0.0,-113.0,0.0,0.0,0.0,0.0,0.0,
7.667161999999953,0.0,0.0,false,4211806.202229611,,17211.0,0.0,0.0,0.0,0.0,0.125,4.842528801,3.035356049206692,0.0,-80475.0,0.0,0.0,0.0,0.0,0.0,2.125243923,4.397316058113637,0.0,51451.0,0.0,0.0,0.0,0.0,0.0,0.992431539,1.9247586890068593,0.0,-60465.0,0.0,0.0,0.0,0.0,0.0,0.571289004,3.02526673115433,0.0,1.5700000524520874,0.5600000023841858,77.30999755859375,0.0091552734375,0.02691650390625,0.973388671875,32.86000061035156,0.0,0.0,2.6994476318359375,-1.0129547119140625,Waiting,0.0,0.0,-113.0,0.0,0.0,0.0,0.0,0.0,
7.802398999999975,0.0,0.0,false,4211771.897917278,,17211.0,0.0,0.0,0.0,0.0,0.125,4.842528801,3.035356049206692,0.0,-80475.0,0.0,0.0,0.0,0.0,0.0,2.133788844,4.397316058113637,0.0,51451.0,0.0,0.0,0.0,0.0,0.0,0.993652242,1.9247586890068593,0.0,-60465.0,0.0,0.0,0.0,0.0,0.0,0.572509707,3.02526673115433,0.0,1.5299999713897705,0.47999998927116394,77.41999816894531,-0.0035400390625,0.02105712890625,1.00189208984375,32.86000061035156,0.0,-8.0,2.6993865966796875,-1.0129547119140625,Waiting,0.0,0.0,-113.0,0.0,0.0,0.0,0.0,0.0,
7.946704999999958,0.0,0.0,false,4211716.157997654,,17211.0,0.0,0.0,0.0,0.0,0.125,4.841308098,3.035356049206692,0.0,-80475.0,0.0,0.0,0.0,0.0,0.0,2.132568141,4.397316058113637,0.0,51451.0,0.0,0.0,0.0,0.0,0.0,0.992431539,1.9247586890068593,0.0,-60465.0,0.0,0.0,0.0,0.0,0.0,0.572509707,3.02526673115433,0.0,1.5099999904632568,0.46000000834465027,77.38999938964844,2.44140625E-4,0.018310546875,0.9913330078125,32.86000061035156,0.0,-9.0,2.699310302734375,-1.0129547119140625,Waiting,0.0,0.0,-113.0,0.0,0.0,0.0,0.0,0.0,
8.091923999999999,0.0,0.0,false,4211643.1541695185,,17211.0,0.0,0.0,0.0,0.0,0.125,4.841308098,3.035356049206692,0.0,-80475.0,0.0,0.0,0.0,0.0,0.0,2.133788844,4.397316058113637,0.0,51451.0,0.0,0.0,0.0,0.0,0.0,0.992431539,1.9247586890068593,0.0,-60465.0,0.0,0.0,0.0,0.0,0.0,0.571289004,3.02526673115433,0.0,1.4700000286102295,0.4099999964237213,77.41000366210938,-4.8828125E-4,0.021240234375,0.99737548828125,32.86000061035156,0.0,-6.0,2.699310302734375,-1.0129547119140625,Waiting,0.0,0.0,-113.0,0.0,0.0,0.0,0.0,0.0,
8.238364999999991,0.0,0.0,false,4211552.891495601,,17211.0,0.0,0.0,0.0,0.0,0.125,4.841308098,3.035356049206692,0.0,-80475.0,0.0,0.0,0.0,0.0,0.0,2.133788844,4.397316058113637,0.0,51451.0,0.0,0.0,0.0,0.0,0.0,0.992431539,1.9247586890068593,0.0,-60465.0,0.0,0.0,0.0,0.0,0.0,0.571289004,3.02526673115433,0.0,1.4600000381469727,0.3700000047683716,77.41000366210938,-7.32421875E-4,0.01849365234375,1.00933837890625,32.900001525878906,0.0,-8.0,2.699310302734375,-1.0129547119140625,Waiting,0.0,0.0,-113.0,0.0,0.0,0.0,0.0,0.0,
8.380398999999976,0.0,0.0,false,4211662.558107712,,17211.0,0.0,0.0,0.0,0.0,0.125,4.842528801,3.035356049206692,0.0,-80475.0,0.0,0.0,0.0,0.0,0.0,2.133788844,4.397316058113637,0.0,51451.0,0.0,0.0,0.0,0.0,0.0,0.993652242,1.9247586890068593,0.0,-60465.0,0.0,0.0,0.0,0.0,0.0,0.571289004,3.02526673115433,0.0,1.4299999475479126,0.3499999940395355,77.41000366210938,4.8828125E-4,0.021240234375,1.0018310546875,32.900001525878906,0.0,-4.0,2.699310302734375,-1.0129547119140625,Waiting,0.0,0.0,-113.0,0.0,0.0,0.0,0.0,0.0,
8.513975999999966,0.0,0.0,false,4211752.8373729475,,17211.0,0.0,0.0,0.0,0.0,0.125,4.842528801,3.035356049206692,0.0,-80475.0,0.0,0.0,0.0,0.0,0.0,2.133788844,4.397316058113637,0.0,51451.0,0.0,0.0,0.0,0.0,0.0,0.993652242,1.9247586890068593,0.0,-60465.0,0.0,0.0,0.0,0.0,0.0,0.572509707,3.02526673115433,0.0,1.409999966621399,0.33000001311302185,77.41000366210938,0.0064697265625,0.0250244140625,1.00054931640625,32.900001525878906,0.0,0.0,2.699310302734375,-1.0129547119140625,Waiting,0.0,0.0,-113.0,0.0,0.0,0.0,0.0,0.0,
8.644552999999956,0.0,0.0,false,4211825.588585948,,17211.0,0.0,0.0,0.0,0.0,0.125,4.841308098,3.035356049206692,0.0,-80475.0,0.0,0.0,0.0,0.0,0.0,2.133788844,4.397316058113637,0.0,51451.0,0.0,0.0,0.0,0.0,0.0,0.992431539,1.9247586890068593,0.0,-60465.0,0.0,0.0,0.0,0.0,0.0,0.571289004,3.02526673115433,0.0,1.3899999856948853,0.30000001192092896,77.41000366210938,-9.765625E-4,0.01971435546875,0.99688720703125,32.900001525878906,0.0,-5.0,2.699310302734375,-1.0129547119140625,Waiting,0.0,0.0,-113.0,0.0,0.0,0.0,0.0,0.0,
8.778123999999952,0.0,0.0,false,4211880.816884894,,17211.0,0.0,0.0,0.0,0.0,0.125,4.842528801,3.035356049206692,0.0,-80475.0,0.0,0.0,0.0,0.0,0.0,2.133788844,4.397316058113637,0.0,51451.0,0.0,0.0,0.0,0.0,0.0,0.992431539,1.9247586890068593,0.0,-60465.0,0.0,0.0,0.0,0.0,0.0,0.571289004,3.02526673115433,0.0,1.3700000047683716,0.28999999165534973,77.41000366210938,0.001220703125,0.02227783203125,1.00140380859375,32.869998931884766,0.0,-2.0,2.699310302734375,-1.0129547119140625,Waiting,0.0,0.0,-113.0,0.0,0.0,0.0,0.0,0.0,
8.913263999999966,0.0,0.0,false,4211918.262432829,,17211.0,0.0,0.0,0.0,0.0,0.125,4.842528801,3.035356049206692,0.0,-80475.0,0.0,0.0,0.0,0.0,0.0,2.133788844,4.397316058113637,0.0,51451.0,0.0,0.0,0.0,0.0,0.0,0.993652242,1.9247586890068593,0.0,-60465.0,0.0,0.0,0.0,0.0,0.0,0.571289004,3.02526673115433,0.0,1.3600000143051147,0.27000001072883606,77.41000366210938,-4.2724609375E-4,0.01995849609375,0.9984130859375,32.869998931884766,0.0,-4.0,2.699310302734375,-1.0129547119140625,Waiting,0.0,0.0,-113.0,0.0,0.0,0.0,0.0,0.0,
9.046011999999989,0.0,0.0,false,4211938.182883939,,17211.0,0.0,0.0,0.0,0.0,0.125,4.841308098,3.035356049206692,0.0,-80475.0,0.0,0.0,0.0,0.0,0.0,2.133788844,4.397316058113637,0.0,51451.0,0.0,0.0,0.0,0.0,0.0,0.992431539,1.9247586890068593,0.0,-60465.0,0.0,0.0,0.0,0.0,0.0,0.571289004,3.02526673115433,0.0,1.350000023841858,0.25,77.41000366210938,0.00164794921875,0.0206298828125,0.99945068359375,32.869998931884766,0.0,-3.0,2.699310302734375,-1.0129547119140625,Waiting,0.0,0.0,-113.0,0.0,0.0,0.0,0.0,0.0,
9.183609999999986,0.0,0.0,false,4211940.583374036,,17211.0,0.0,0.0,0.0,0.0,0.125,4.842528801,3.035356049206692,0.0,-80475.0,0.0,0.0,0.0,0.0,0.0,2.132568141,4.397316058113637,0.0,51451.0,0.0,0.0,0.0,0.0,0.0,0.993652242,1.9247586890068593,0.0,-60465.0,0.0,0.0,0.0,0.0,0.0,0.572509707,3.02526673115433,0.0,1.3300000429153442,0.23000000417232513,77.41999816894531,9.765625E-4,0.01837158203125,0.9996337890625,32.869998931884766,0.0,-5.0,2.699310302734375,-1.0129547119140625,Waiting,0.0,0.0,-113.0,0.0,0.0,0.0,0.0,0.0,
9.313419999999983,0.0,0.0,false,4211925.481539363,,17211.0,0.0,0.0,0.0,0.0,0.125,4.842528801,3.035356049206692,0.0,-80475.0,0.0,0.0,0.0,0.0,0.0,2.133788844,4.397316058113637,0.0,51451.0,0.0,0.0,0.0,0.0,0.0,0.993652242,1.9247586890068593,0.0,-60465.0,0.0,0.0,0.0,0.0,0.0,0.571289004,3.02526673115433,0.0,1.3200000524520874,0.2199999988079071,77.41999816894531,0.00213623046875,0.0235595703125,1.0006103515625,32.88999938964844,0.0,0.0,2.699310302734375,-1.0129547119140625,Waiting,0.0,0.0,-113.0,0.0,0.0,0.0,0.0,0.0,
9.446195999999997,0.0,0.0,false,4211892.617638441,,17211.0,0.0,0.0,0.0,0.0,0.125,4.843749504,3.035356049206692,0.0,-80475.0,0.0,0.0,0.0,0.0,0.0,2.133788844,4.397316058113637,0.0,51451.0,0.0,0.0,0.0,0.0,0.0,0.993652242,1.9247586890068593,0.0,-60465.0,0.0,0.0,0.0,0.0,0.0,0.571289004,3.02526673115433,0.0,1.3200000524520874,0.20000000298023224,77.41000366210938,6.103515625E-4,0.02203369140625,1.000732421875,32.88999938964844,0.0,-1.0,2.699310302734375,-1.0129547119140625,Waiting,0.0,0.0,-113.0,0.0,0.0,0.0,0.0,0.0,
9.577470999999962,0.0,0.0,false,4211842.26171875,,17211.0,0.0,0.0,0.0,0.0,0.125,4.843749504,3.035356049206692,0.0,-80475.0,0.0,0.0,0.0,0.0,0.0,2.133788844,4.397316058113637,0.0,51451.0,0.0,0.0,0.0,0.0,0.0,0.993652242,1.9247586890068593,0.0,-60465.0,0.0,0.0,0.0,0.0,0.0,0.571289004,3.02526673115433,0.0,1.309999942779541,0.1899999976158142,77.41000366210938,-7.9345703125E-4,0.02301025390625,1.0018310546875,32.88999938964844,0.0,0.0,2.699310302734375,-1.0129547119140625,Waiting,0.0,0.0,-113.0,0.0,0.0,0.0,0.0,0.0,
9.707456999999994,0.0,0.0,false,4211774.418904404,,17211.0,0.0,0.0,0.0,0.0,0.125,4.841308098,3.035356049206692,0.0,-80475.0,0.0,0.0,0.0,0.0,0.0,2.133788844,4.397316058113637,0.0,51451.0,0.0,0.0,0.0,0.0,0.0,0.993652242,1.9247586890068593,0.0,-60465.0,0.0,0.0,0.0,0.0,0.0,0.571289004,3.02526673115433,0.0,1.2999999523162842,0.18000000715255737,77.41000366210938,0.0029296875,0.021728515625,1.001953125,32.88999938964844,0.0,-1.0,2.699310302734375,-1.0129547119140625,Waiting,0.0,0.0,-113.0,0.0,0.0,0.0,0.0,0.0,
9.848646999999998,0.0,0.0,false,4211689.082601055,,17211.0,0.0,0.0,0.0,0.0,0.125,4.842528801,3.035356049206692,0.0,-80475.0,0.0,0.0,0.0,0.0,0.0,2.133788844,4.397316058113637,0.0,51451.0,0.0,0.0,0.0,0.0,0.0,0.992431539,1.9247586890068593,0.0,-60465.0,0.0,0.0,0.0,0.0,0.0,0.572509707,3.02526673115433,0.0,1.2899999618530273,0.17000000178813934,77.41000366210938,-8.544921875E-4,0.02301025390625,1.00408935546875,32.900001525878906,0.0,0.0,2.699310302734375,-1.0129547119140625,Waiting,0.0,0.0,-113.0,0.0,0.0,0.0,0.0,0.0,
9.988535999999964,0.0,0.0,false,4211798.670701942,,17211.0,0.0,0.0,0.0,0.0,0.125,4.841308098,3.035356049206692,0.0,-80475.0,0.0,0.0,0.0,0.0,0.0,2.133788844,4.397316058113637,0.0,51451.0,0.0,0.0,0.0,0.0,0.0,0.993652242,1.9247586890068593,0.0,-60465.0,0.0,0.0,0.0,0.0,0.0,0.571289004,3.02526673115433,0.0,1.2899999618530273,0.1599999964237213,77.41000366210938,0.00244140625,0.02197265625,0.98944091796875,32.900001525878906,0.0,0.0,2.699310302734375,-1.0129547119140625,Waiting,0.0,0.0,-113.0,0.0,0.0,0.0,0.0,0.0,
10.126048999999998,0.0,0.0,false,4211888.987114408,,17211.0,0.0,0.0,0.0,0.0,0.125,4.843749504,3.035356049206692,0.0,-80475.0,0.0,0.0,0.0,0.0,0.0,2.133788844,4.397316058113637,0.0,51451.0,0.0,0.0,0.0,0.0,0.0,0.992431539,1.9247586890068593,0.0,-60465.0,0.0,0.0,0.0,0.0,0.0,0.571289004,3.02526673115433,0.0,1.2799999713897705,0.15000000596046448,77.41000366210938,0.0010986328125,0.01971435546875,0.99566650390625,32.900001525878906,0.0,-2.0,2.699310302734375,-1.0129547119140625,Waiting,0.0,0.0,-113.0,0.0,0.0,0.0,0.0,0.0,
10.250130000000004,0.0,0.0,false,4211961.42352367,,17211.0,0.0,0.0,0.0,0.0,0.125,4.842528801,3.035356049206692,0.0,-80475.0,0.0,0.0,0.0,0.0,0.0,2.133788844,4.397316058113637,0.0,51451.0,0.0,0.0,0.0,0.0,0.0,0.992431539,1.9247586890068593,0.0,-60465.0,0.0,0.0,0.0,0.0,0.0,0.572509707,3.02526673115433,0.0,1.2799999713897705,0.14000000059604645,77.41000366210938,0.00115966796875,0.02117919921875,0.998779296875,32.900001525878906,0.0,-1.0,2.699310302734375,-1.0129547119140625,Waiting,0.0,0.0,-113.0,0.0,0.0,0.0,0.0,0.0,
10.387103999999992,0.0,0.0,false,4212015.985164942,,17211.0,0.0,0.0,0.0,0.0,0.125,4.842528801,3.035356049206692,0.0,-80475.0,0.0,0.0,0.0,0.0,0.0,2.135009547,4.397316058113637,0.0,51451.0,0.0,0.0,0.0,0.0,0.0,0.993652242,1.9247586890068593,0.0,-60465.0,0.0,0.0,0.0,0.0,0.0,0.572509707,3.02526673115433,0.0,1.2699999809265137,0.14000000059604645,77.41000366210938,0.0013427734375,0.0228271484375,1.00006103515625,32.91999816894531,0.0,0.0,2.699310302734375,-1.0129547119140625,Waiting,0.0,0.0,-113.0,0.0,0.0,0.0,0.0,0.0,
10.527646000000008,0.0,0.0,false,4212052.677271397,,17211.0,0.0,0.0,0.0,0.0,0.125,4.842528801,3.035356049206692,0.0,-80475.0,0.0,0.0,0.0,0.0,0.0,2.133788844,4.397316058113637,0.0,51451.0,0.0,0.0,0.0,0.0,0.0,0.993652242,1.9247586890068593,0.0,-60465.0,0.0,0.0,0.0,0.0,0.0,0.572509707,3.02526673115433,0.0,1.2599999904632568,0.11999999731779099,77.41000366210938,0.00146484375,0.02349853515625,0.9937744140625,32.91999816894531,0.0,1.0,2.699310302734375,-1.0129547119140625,Waiting,0.0,0.0,-113.0,0.0,0.0,0.0,0.0,0.0,
10.651335999999953,0.0,0.0,false,4212071.7181889145,,17211.0,0.0,0.0,0.0,0.0,0.125,4.842528801,3.035356049206692,0.0,-80475.0,0.0,0.0,0.0,0.0,0.0,2.133788844,4.397316058113637,0.0,51451.0,0.0,0.0,0.0,0.0,0.0,0.993652242,1.9247586890068593,0.0,-60465.0,0.0,0.0,0.0,0.0,0.0,0.571289004,3.02526673115433,0.0,1.2599999904632568,0.11999999731779099,77.41000366210938,0.00360107421875,0.01995849609375,0.99774169921875,32.91999816894531,0.0,-1.0,2.699310302734375,-1.0129547119140625,Waiting,0.0,0.0,-113.0,0.0,0.0,0.0,0.0,0.0,
10.787907000000006,0.0,0.0,false,4212072.899990243,,17211.0,0.0,0.0,0.0,0.0,0.125,4.841308098,3.035356049206692,0.0,-80475.0,0.0,0.0,0.0,0.0,0.0,2.133788844,4.397316058113637,0.0,51451.0,0.0,0.0,0.0,0.0,0.0,0.993652242,1.9247586890068593,0.0,-60465.0,0.0,0.0,0.0,0.0,0.0,0.571289004,3.02526673115433,0.0,1.2599999904632568,0.11999999731779099,77.41000366210938,9.1552734375E-4,0.0223388671875,0.99822998046875,32.93000030517578,0.0,0.0,2.699310302734375,-1.0129547119140625,Waiting,0.0,0.0,-113.0,0.0,0.0,0.0,0.0,0.0,
10.92578099999996,0.0,0.0,false,4212056.44097561,,17211.0,0.0,0.0,0.0,0.0,0.125,4.842528801,3.035356049206692,0.0,-80475.0,0.0,0.0,0.0,0.0,0.0,2.133788844,4.397316058113637,0.0,51451.0,0.0,0.0,0.0,0.0,0.0,0.992431539,1.9247586890068593,0.0,-60465.0,0.0,0.0,0.0,0.0,0.0,0.571289004,3.02526673115433,0.0,1.25,0.12999999523162842,77.41000366210938,-0.01593017578125,0.00885009765625,0.92913818359375,32.93000030517578,0.0,-15.0,2.699310302734375,-1.0131072998046875,Waiting,0.0,0.0,-113.0,0.0,0.0,0.0,0.0,0.0,
11.06114499999996,0.0,0.0,false,4212022.133255292,,17211.0,0.0,0.0,0.0,0.0,0.125,4.843749504,3.035356049206692,0.0,-80475.0,0.0,0.0,0.0,0.0,0.0,2.128906032,4.397316058113637,0.0,51451.0,0.0,0.0,0.0,0.0,0.0,0.993652242,1.9247586890068593,0.0,-60465.0,0.0,0.0,0.0,0.0,0.0,0.572509707,3.02526673115433,0.0,1.25,0.14000000059604645,77.43000030517578,0.03118896484375,0.0303955078125,0.8936767578125,32.93000030517578,0.0,16.0,2.7006072998046875,-1.01446533203125,Waiting,0.0,0.0,-113.0,0.0,0.0,0.0,0.0,0.0,
11.189208999999973,0.0,0.0,false,4211969.982052282,,17211.0,0.0,0.0,0.0,0.0,0.125,4.841308098,3.035356049206692,0.0,-80475.0,0.0,0.0,0.0,0.0,0.0,2.128906032,4.397316058113637,0.0,51451.0,0.0,0.0,0.0,0.0,0.0,0.993652242,1.9247586890068593,0.0,-60465.0,0.0,0.0,0.0,0.0,0.0,0.571289004,3.02526673115433,0.0,1.2400000095367432,0.07999999821186066,77.44000244140625,-0.10650634765625,-0.07952880859375,0.96221923828125,32.93000030517578,0.0,-121.0,2.701995849609375,-1.0181121826171875,Waiting,0.0,0.0,-113.0,0.0,0.0,0.0,0.0,0.0,
11.315440000000002,0.0,0.0,false,4211900.205598362,,17211.0,0.0,0.0,0.0,0.0,0.125,4.841308098,3.035356049206692,0.0,-80475.0,0.0,0.0,0.0,0.0,0.0,2.128906032,4.397316058113637,0.0,51451.0,0.0,0.0,0.0,0.0,0.0,0.993652242,1.9247586890068593,0.0,-60465.0,0.0,0.0,0.0,0.0,0.0,0.572509707,3.02526673115433,0.0,1.2300000190734863,0.11999999731779099,77.44999694824219,0.0096435546875,0.01776123046875,0.90521240234375,32.900001525878906,0.0,0.0,2.7012939453125,-1.0207672119140625,Waiting,0.0,0.0,-113.0,0.0,0.0,0.0,0.0,0.0,
11.439311999999976,0.0,0.0,false,4211812.596060074,,17211.0,0.0,0.0,0.0,0.0,0.125,4.842528801,3.035356049206692,0.0,-80475.0,0.0,0.0,0.0,0.0,0.0,2.130126735,4.397316058113637,0.0,51451.0,0.0,0.0,0.0,0.0,0.0,0.993652242,1.9247586890068593,0.0,-60465.0,0.0,0.0,0.0,0.0,0.0,0.571289004,3.02526673115433,0.0,1.2100000381469727,0.07000000029802322,77.44999694824219,0.0069580078125,0.02386474609375,0.95843505859375,32.900001525878906,0.0,4.0,2.7006988525390625,-1.022216796875,Waiting,0.0,0.0,-113.0,0.0,0.0,0.0,0.0,0.0,
11.571810999999986,0.0,0.0,false,4211709.281326182,,17211.0,0.0,0.0,0.0,0.0,0.125,4.842528801,3.035356049206692,0.0,-80475.0,0.0,0.0,0.0,0.0,0.0,2.128906032,4.397316058113637,0.0,51451.0,0.0,0.0,0.0,0.0,0.0,0.993652242,1.9247586890068593,0.0,-60465.0,0.0,0.0,0.0,0.0,0.0,0.571289004,3.02526673115433,0.0,1.2400000095367432,0.10000000149011612,77.44999694824219,2.44140625E-4,0.017333984375,1.005126953125,32.900001525878906,0.0,-4.0,2.700836181640625,-1.022216796875,Waiting,0.0,0.0,-113.0,0.0,0.0,0.0,0.0,0.0,
11.705774999999965,0.0,0.0,false,4211803.704368175,,17211.0,0.0,0.0,0.0,0.0,0.125,4.842528801,3.035356049206692,0.0,-80475.0,0.0,0.0,0.0,0.0,0.0,2.128906032,4.397316058113637,0.0,51451.0,0.0,0.0,0.0,0.0,0.0,0.991210836,1.9247586890068593,0.0,-60465.0,0.0,0.0,0.0,0.0,0.0,0.571289004,3.02526673115433,0.0,1.2300000190734863,0.09000000357627869,77.44999694824219,0.00823974609375,0.024169921875,0.9847412109375,32.900001525878906,0.0,4.0,2.700836181640625,-1.022216796875,Waiting,0.0,0.0,-113.0,0.0,0.0,0.0,0.0,0.0,
11.832581999999995,0.0,0.0,false,4211880.173150044,,17211.0,0.0,0.0,0.0,0.0,0.125,4.842528801,3.035356049206692,0.0,-80475.0,0.0,0.0,0.0,0.0,0.0,2.130126735,4.397316058113637,0.0,51451.0,0.0,0.0,0.0,0.0,0.0,0.993652242,1.9247586890068593,0.0,-60465.0,0.0,0.0,0.0,0.0,0.0,0.571289004,3.02526673115433,0.0,1.2300000190734863,0.07999999821186066,77.45999908447266,-0.00341796875,0.02166748046875,0.9925537109375,32.90999984741211,0.0,0.0,2.700836181640625,-1.022216796875,Waiting,0.0,0.0,-113.0,0.0,0.0,0.0,0.0,0.0,
11.970038,0.0,0.0,false,4211938.893351531,,17211.0,0.0,0.0,0.0,0.0,0.125,4.842528801,3.035356049206692,0.0,-80475.0,0.0,0.0,0.0,0.0,0.0,2.128906032,4.397316058113637,0.0,51451.0,0.0,0.0,0.0,0.0,0.0,0.993652242,1.9247586890068593,0.0,-60465.0,0.0,0.0,0.0,0.0,0.0,0.572509707,3.02526673115433,0.0,1.2300000190734863,0.09000000357627869,77.45999908447266,-0.00152587890625,0.0257568359375,0.9954833984375,32.90999984741211,0.0,3.0,2.700836181640625,-1.022216796875,Waiting,0.0,0.0,-113.0,0.0,0.0,0.0,0.0,0.0,
12.094697999999974,0.0,0.0,false,4211979.470123794,,17211.0,0.0,0.0,0.0,0.0,0.125,4.841308098,3.035356049206692,0.0,-80475.0,0.0,0.0,0.0,0.0,0.0,2.128906032,4.397316058113637,0.0,51451.0,0.0,0.0,0.0,0.0,0.0,0.992431539,1.9247586890068593,0.0,-60465.0,0.0,0.0,0.0,0.0,0.0,0.571289004,3.02526673115433,0.0,1.2100000381469727,0.07999999821186066,77.45999908447266,0.00555419921875,0.02423095703125,0.99371337890625,32.90999984741211,0.0,3.0,2.700836181640625,-1.022216796875,Waiting,0.0,0.0,-113.0,0.0,0.0,0.0,0.0,0.0,
12.228598999999987,0.0,0.0,false,4212002.320467836,,17211.0,0.0,0.0,0.0,0.0,0.125,4.841308098,3.035356049206692,0.0,-80475.0,0.0,0.0,0.0,0.0,0.0,2.128906032,4.397316058113637,0.0,51451.0,0.0,0.0,0.0,0.0,0.0,0.992431539,1.9247586890068593,0.0,-60465.0,0.0,0.0,0.0,0.0,0.0,0.571289004,3.02526673115433,0.0,1.2200000286102295,0.09000000357627869,77.45999908447266,-0.001220703125,0.0184326171875,0.99505615234375,32.90999984741211,0.0,-3.0,2.700836181640625,-1.022216796875,Waiting,0.0,0.0,-113.0,0.0,0.0,0.0,0.0,0.0,
12.353653999999981,0.0,0.0,false,4212007.249975636,,17211.0,0.0,0.0,0.0,0.0,0.125,4.842528801,3.035356049206692,0.0,-80475.0,0.0,0.0,0.0,0.0,0.0,2.128906032,4.397316058113637,0.0,51451.0,0.0,0.0,0.0,0.0,0.0,0.992431539,1.9247586890068593,0.0,-60465.0,0.0,0.0,0.0,0.0,0.0,0.576171816,3.02526673115433,0.0,1.2200000286102295,0.10000000149011612,77.45999908447266,0.00238037109375,0.0235595703125,0.99908447265625,32.93000030517578,0.0,2.0,2.700836181640625,-1.022216796875,Waiting,0.0,0.0,-113.0,0.0,0.0,0.0,0.0,0.0,
12.487313999999955,0.0,0.0,false,4211994.263886182,,17211.0,0.0,0.0,0.0,0.0,0.125,4.841308098,3.035356049206692,0.0,-80475.0,0.0,0.0,0.0,0.0,0.0,2.128906032,4.397316058113637,0.0,51451.0,0.0,0.0,0.0,0.0,0.0,0.993652242,1.9247586890068593,0.0,-60465.0,0.0,0.0,0.0,0.0,0.0,0.572509707,3.02526673115433,0.0,1.2200000286102295,0.09000000357627869,77.45999908447266,0.0035400390625,0.017333984375,0.99932861328125,32.93000030517578,0.0,-3.0,2.700836181640625,-1.022216796875,Waiting,0.0,0.0,-113.0,0.0,0.0,0.0,0.0,0.0,
12.611046999999962,0.0,0.0,false,4211963.367436422,,17211.0,0.0,0.0,0.0,0.0,0.125,4.842528801,3.035356049206692,0.0,-80475.0,0.0,0.0,0.0,0.0,0.0,2.128906032,4.397316058113637,0.0,51451.0,0.0,0.0,0.0,0.0,0.0,0.993652242,1.9247586890068593,0.0,-60465.0,0.0,0.0,0.0,0.0,0.0,0.571289004,3.02526673115433,0.0,1.2200000286102295,0.07999999821186066,77.44999694824219,-0.00238037109375,0.01776123046875,1.00067138671875,32.93000030517578,0.0,-4.0,2.700836181640625,-1.022216796875,Waiting,0.0,0.0,-113.0,0.0,0.0,0.0,0.0,0.0,
12.745889999999957,0.0,0.0,false,4211914.565861262,,17211.0,0.0,0.0,0.0,0.0,0.125,4.842528801,3.035356049206692,0.0,-80475.0,0.0,0.0,0.0,0.0,0.0,2.128906032,4.397316058113637,0.0,51451.0,0.0,0.0,0.0,0.0,0.0,0.993652242,1.9247586890068593,0.0,-60465.0,0.0,0.0,0.0,0.0,0.0,0.572509707,3.02526673115433,0.0,1.2300000190734863,0.07999999821186066,77.45999908447266,0.00115966796875,0.0230712890625,0.998046875,32.93000030517578,0.0,1.0,2.700836181640625,-1.022216796875,Waiting,0.0,0.0,-113.0,0.0,0.0,0.0,0.0,0.0,
12.876847999999999,0.0,0.0,false,4211847.86439357,,17211.0,0.0,0.0,0.0,0.0,0.125,4.841308098,3.035356049206692,0.0,-80475.0,0.0,0.0,0.0,0.0,0.0,2.128906032,4.397316058113637,0.0,51451.0,0.0,0.0,0.0,0.0,0.0,0.993652242,1.9247586890068593,0.0,-60465.0,0.0,0.0,0.0,0.0,0.0,0.571289004,3.02526673115433,0.0,1.2300000190734863,0.07999999821186066,77.44999694824219,1.8310546875E-4,0.02178955078125,0.99822998046875,32.88999938964844,0.0,0.0,2.700836181640625,-1.022216796875,Waiting,0.0,0.0,-113.0,0.0,0.0,0.0,0.0,0.0,
13.006034999999974,0.0,0.0,false,4211763.467757647,,17211.0,0.0,0.0,0.0,0.0,0.125,4.842528801,3.035356049206692,0.0,-80475.0,0.0,0.0,0.0,0.0,0.0,2.128906032,4.397316058113637,0.0,51451.0,0.0,0.0,0.0,0.0,0.0,0.993652242,1.9247586890068593,0.0,-60465.0,0.0,0.0,0.0,0.0,0.0,0.5688475980000001,3.02526673115433,0.0,1.2200000286102295,0.07999999821186066,77.44999694824219,-2.44140625E-4,0.01947021484375,0.99560546875,32.88999938964844,0.0,-2.0,2.700836181640625,-1.022216796875,Waiting,0.0,0.0,-113.0,0.0,0.0,0.0,0.0,0.0,
13.13211599999998,0.0,0.0,false,4211661.181649947,,17211.0,0.0,0.0,0.0,0.0,0.125,4.843749504,3.035356049206692,0.0,-80475.0,0.0,0.0,0.0,0.0,0.0,2.128906032,4.397316058113637,0.0,51451.0,0.0,0.0,0.0,0.0,0.0,0.994872945,1.9247586890068593,0.0,-60465.0,0.0,0.0,0.0,0.0,0.0,0.572509707,3.02526673115433,0.0,1.2300000190734863,0.07999999821186066,77.44999694824219,-3.0517578125E-4,0.02056884765625,0.99908447265625,32.88999938964844,0.0,-1.0,2.700836181640625,-1.022216796875,Waiting,0.0,0.0,-113.0,0.0,0.0,0.0,0.0,0.0,
13.265032999999995,0.0,0.0,false,4211755.46240748,,17211.0,0.0,0.0,0.0,0.0,0.125,4.841308098,3.035356049206692,0.0,-80475.0,0.0,0.0,0.0,0.0,0.0,2.128906032,4.397316058113637,0.0,51451.0,0.0,0.0,0.0,0.0,0.0,0.993652242,1.9247586890068593,0.0,-60465.0,0.0,0.0,0.0,0.0,0.0,0.5676268950000001,3.02526673115433,0.0,1.2300000190734863,0.07999999821186066,77.44999694824219,0.00384521484375,0.0211181640625,1.00103759765625,32.88999938964844,0.0,0.0,2.700836181640625,-1.022216796875,Waiting,0.0,0.0,-113.0,0.0,0.0,0.0,0.0,0.0,
13.392764999999956,0.0,0.0,false,4211831.689161554,,17211.0,0.0,0.0,0.0,0.0,0.125,4.842528801,3.035356049206692,0.0,-80475.0,0.0,0.0,0.0,0.0,0.0,2.130126735,4.397316058113637,0.0,51451.0,0.0,0.0,0.0,0.0,0.0,0.993652242,1.9247586890068593,0.0,-60465.0,0.0,0.0,0.0,0.0,0.0,0.571289004,3.02526673115433,0.0,1.2300000190734863,0.07999999821186066,77.44999694824219,0.003173828125,0.0213623046875,1.00286865234375,32.95000076293945,0.0,0.0,2.700836181640625,-1.022216796875,Waiting,0.0,0.0,-113.0,0.0,0.0,0.0,0.0,0.0,
13.519714999999968,0.0,0.0,false,4211890.065822785,,17211.0,0.0,0.0,0.0,0.0,0.125,4.842528801,3.035356049206692,0.0,-80475.0,0.0,0.0,0.0,0.0,0.0,2.128906032,4.397316058113637,0.0,51451.0,0.0,0.0,0.0,0.0,0.0,0.992431539,1.9247586890068593,0.0,-60465.0,0.0,0.0,0.0,0.0,0.0,0.572509707,3.02526673115433,0.0,1.2300000190734863,0.07999999821186066,77.44999694824219,0.00262451171875,0.020751953125,0.99835205078125,32.95000076293945,0.0,0.0,2.700836181640625,-1.022216796875,Waiting,0.0,0.0,-113.0,0.0,0.0,0.0,0.0,0.0,
13.650860999999976,0.0,0.0,false,4211930.410670821,,17211.0,0.0,0.0,0.0,0.0,0.125,4.842528801,3.035356049206692,0.0,-80475.0,0.0,0.0,0.0,0.0,0.0,2.128906032,4.397316058113637,0.0,51451.0,0.0,0.0,0.0,0.0,0.0,0.992431539,1.9247586890068593,0.0,-60465.0,0.0,0.0,0.0,0.0,0.0,0.572509707,3.02526673115433,0.0,1.2300000190734863,0.07999999821186066,77.44999694824219,-9.1552734375E-4,0.01800537109375,1.004150390625,32.95000076293945,0.0,-4.0,2.700836181640625,-1.022216796875,Waiting,0.0,0.0,-113.0,0.0,0.0,0.0,0.0,0.0,
13.785348999999988,0.0,0.0,false,4211952.71728972,,17211.0,0.0,0.0,0.0,0.0,0.125,4.843749504,3.035356049206692,0.0,-80475.0,0.0,0.0,0.0,0.0,0.0,2.128906032,4.397316058113637,0.0,51451.0,0.0,0.0,0.0,0.0,0.0,0.992431539,1.9247586890068593,0.0,-60465.0,0.0,0.0,0.0,0.0,0.0,0.572509707,3.02526673115433,0.0,1.2300000190734863,0.07999999821186066,77.44999694824219,0.00177001953125,0.0228271484375,0.996826171875,32.95000076293945,0.0,1.0,2.700836181640625,-1.022216796875,Waiting,0.0,0.0,-113.0,0.0,0.0,0.0,0.0,0.0,
13.914104999999982,0.0,0.0,false,4211957.002628249,,17211.0,0.0,0.0,0.0,0.0,0.125,4.841308098,3.035356049206692,0.0,-80475.0,0.0,0.0,0.0,0.0,0.0,2.128906032,4.397316058113637,0.0,51451.0,0.0,0.0,0.0,0.0,0.0,0.992431539,1.9247586890068593,0.0,-60465.0,0.0,0.0,0.0,0.0,0.0,0.571289004,3.02526673115433,0.0,1.2200000286102295,0.09000000357627869,77.44999694824219,-0.00213623046875,0.02081298828125,0.996337890625,32.959999084472656,0.0,-1.0,2.700836181640625,-1.022216796875,Waiting,0.0,0.0,-113.0,0.0,0.0,0.0,0.0,0.0,
14.06338499999995,0.0,0.0,false,4211947.626240997,,17211.0,0.0,0.0,0.0,0.0,2.5,0.605468688,0.0,0.0,-80475.0,0.0,0.0,-0.0,0.0,0.75,2.512206774,0.0,0.0,51451.0,0.0,0.0,0.0,0.0,0.875,0.238037085,0.0,0.0,-60465.0,0.0,0.0,-0.0,0.0,2.0,1.2939451800000001,0.0,0.0,1.2200000286102295,0.07999999821186066,77.58000183105469,0.029052734375,0.0816650390625,1.00128173828125,32.959999084472656,0.0,64.0,2.7007904052734375,-1.0221710205078125,Waiting,0.0,0.0,-113.0,0.0,0.0,0.0,0.0,0.0,
14.204082999999985,0.0,0.0,false,4211915.884379562,,17209.0,0.0,-15.0,0.0,0.0,1.375,1.639404129,0.0,0.0,-80475.0,0.0,0.0,-0.0,0.0,0.0,2.8491208020000003,0.0,0.0,51458.0,0.0,52.5,0.0,0.0,0.875,4.095458565,0.0,0.0,-60470.0,0.0,-45.0,-0.0,0.0,1.75,2.313232185,0.0,0.0,1.1699999570846558,0.11999999731779099,77.88999938964844,6.103515625E-4,0.07061767578125,0.9150390625,32.959999084472656,0.0,50.0,2.7004852294921875,-1.0243377685546875,Waiting,0.0,0.0,-113.0,0.0,0.0,0.0,0.0,0.0,
14.340880999999994,0.0,0.0,false,4211865.937718957,,17205.0,0.0,-22.5,0.0,0.0,0.125,2.213134539,0.0,0.0,-80475.0,0.0,0.0,-0.0,0.0,0.0,2.8015133850000002,0.0,0.0,51465.0,0.0,15.0,0.0,0.0,0.0,3.615722286,0.0,0.0,-60480.0,0.0,-45.0,-0.0,0.0,0.25,2.8930661100000004,0.0,0.0,1.2000000476837158,0.019999999552965164,77.8499984741211,-0.0076904296875,0.02392578125,0.98016357421875,32.95000076293945,0.0,1.0,2.699676513671875,-1.0253143310546875,Waiting,0.0,0.0,-113.0,0.0,0.0,0.0,0.0,0.0,
14.478172999999952,0.0,0.0,false,4211797.990853362,,17202.0,0.0,-7.5,0.0,0.0,0.75,2.103271269,0.0,0.0,-80475.0,0.0,0.0,-0.0,0.0,0.0,2.755126671,0.0,0.0,51465.0,0.0,0.0,0.0,0.0,1.0,3.7915035180000003,0.0,0.0,-60481.0,0.0,0.0,-0.0,0.0,0.0,2.680663788,0.0,0.0,1.2200000286102295,0.09000000357627869,77.83999633789062,0.0162353515625,0.0084228515625,0.98846435546875,32.95000076293945,0.0,-9.0,2.6983489990234375,-1.02545166015625,Waiting,0.0,0.0,-113.0,0.0,0.0,0.0,0.0,0.0,
14.611023999999976,0.0,0.0,false,4211716.401634559,,17202.0,0.0,0.0,0.0,0.0,0.125,1.833495906,0.0,0.0,-80475.0,0.0,0.0,-0.0,0.0,0.0,2.729491908,0.0,0.0,51465.0,0.0,0.0,0.0,0.0,0.125,4.100341377,0.0,0.0,-60481.0,0.0,0.0,-0.0,0.0,0.0,2.512206774,0.0,0.0,1.2300000190734863,0.11999999731779099,77.7699966430664,0.0045166015625,0.014404296875,0.9842529296875,32.95000076293945,0.0,-6.0,2.698211669921875,-1.025665283203125,Waiting,0.0,0.0,-113.0,0.0,0.0,0.0,0.0,0.0,
14.752117999999959,0.0,0.0,false,4211616.8218698315,,17202.0,0.0,0.0,0.0,0.0,0.125,1.726074042,0.0,0.0,-80475.0,0.0,0.0,-0.0,0.0,0.0,2.719726284,0.0,0.0,51465.0,0.0,0.0,0.0,0.0,0.0,4.116210516000001,0.0,0.0,-60481.0,0.0,0.0,-0.0,0.0,0.0,2.4865720110000002,0.0,0.0,1.2400000095367432,0.05000000074505806,77.75,-0.01361083984375,0.02093505859375,1.0069580078125,32.95000076293945,0.0,-3.0,2.698211669921875,-1.025421142578125,Waiting,0.0,0.0,-113.0,0.0,0.0,0.0,0.0,0.0,
