Time,ClimberA1,ClimberA2,CameraExists,HeapSpace,LoopTime,FRpos,FRCurrent,FRspeed,FRsetpoint,FRApos,FRACurrent,FREncpos,FREncSetpoint,FREncSpeed,FLpos,FLCurrent,FLspeed,FLsetpoint,FLApos,FLACurrent,FLEncpos,FLEncSetpoint,FLEncSpeed,BRpos,BRCurrent,BRspeed,BRsetpoint,BRApos,BRACurrent,BREncpos,BREncSetpoint,BREncSpeed,BLpos,BLCurrent,BLspeed,BLsetpoint,BLApos,BLACurrent,BLEncpos,BLEncSetpoint,BLEncSpeed,navx_Pitch,navx_Roll,navx_Yaw,navx_XAcc,navx_YAcc,navx_ZAcc,navx_Temp,navx_Bar,navx_Alt,navx_XDis,navx_YDis,GearPlacerState,ShootOutputV,ShootOutputCurrent,ShootEncPos,ShootEncVelocity,ShootSpeed,ShootSetpoint,CarouselSetpoint,CarouselCurrent,
0.17523099999999978,0.0,0.0,false,4480542.9677419355,,284.0,11.75,247.5,0.0,0.0,0.0,1.777343568,0.0,0.0,-25988.0,8.875,-307.5,-0.0,0.0,0.0,2.7380368290000003,0.0,-0.004882812000000403,11204.0,6.375,360.0,0.0,0.0,1.625,4.1833491810000005,0.0,0.6652831350000001,-18341.0,6.875,-270.0,-0.0,0.0,0.0,2.6330563710000003,0.0,-0.08789061600000014,1.4900000095367432,1.5800000429153442,30.190000534057617,0.0693359375,0.1044921875,1.07281494140625,28.360000610351562,0.0,72.0,-1.8719482421875,-0.1456146240234375,Waiting,0.0,0.0,-114.0,0.0,0.0,0.0,0.0,0.0,
0.23397099999999954,0.0,0.0,false,4483880.995983936,,334.0,0.375,322.5,0.0,0.0,0.0,1.774902162,0.0,0.0012207029999995456,-26032.0,0.75,-210.0,-0.0,0.0,0.0,2.7429196410000003,0.0,0.004882812000000403,11204.0,0.0,367.5,0.0,0.0,0.125,4.377440958,0.0,-4.504781295999999,-18341.0,0.25,-172.5,-0.0,0.0,0.0,2.603759499,0.0,-0.052490229,1.5700000524520874,1.4700000286102295,30.1299991607666,-0.337646484375,0.15203857421875,0.954833984375,28.360000610351562,0.0,-250.0,-1.86419677734375,-0.1481170654296875,Waiting,0.0,0.0,-114.0,0.0,0.0,0.0,0.0,0.0,
0.31115099999999984,0.0,0.0,false,4487061.024,,378.0,0.25,300.0,0.0,0.0,0.0,1.7614744290000002,0.0,0.0,-26062.0,0.25,-150.0,-0.0,0.0,0.0,2.7392575320000003,0.0,0.0,11232.0,0.0,187.5,0.0,0.0,0.375,4.2907710450000005,0.0,0.0,-18381.0,0.0,-247.5,-0.0,0.0,0.0,2.5793454390000004,0.0,0.0,1.5399999618530273,0.8799999952316284,30.520000457763672,-0.107177734375,0.122314453125,1.26898193359375,28.360000610351562,0.0,-64.0,-1.855072021484375,-0.149261474609375,Waiting,0.0,0.0,-114.0,0.0,0.0,0.0,0.0,0.0,
0.3681589999999996,0.0,0.0,false,4489990.756972112,,378.0,0.25,187.5,0.0,0.0,0.0,1.778564271,0.0,-0.0012207029999995456,-26062.0,0.125,-255.0,-0.0,0.0,0.0,2.7380368290000003,0.0,0.0,11232.0,0.0,210.0,0.0,0.0,0.0,4.179687072,0.0,0.07934569499999977,-18381.0,0.0,-315.0,-0.0,0.0,0.0,2.57568333,0.0,-0.03173827799999973,1.4600000381469727,0.7699999809265137,30.8700008392334,-0.12799072265625,-0.02099609375,1.04376220703125,28.360000610351562,0.0,-76.0,-1.8498992919921875,-0.1491851806640625,Waiting,0.0,0.0,-114.0,0.0,0.0,0.0,0.0,0.0,
0.4154120000000003,0.0,0.0,false,4492655.46031746,,378.0,0.25,135.0,0.0,0.0,0.0,1.779784974,0.0,0.0024414059999999793,-26062.0,0.0,-210.0,-0.0,0.0,0.0,2.7392575320000003,0.0,0.0,11232.0,0.0,157.5,0.0,0.0,0.0,4.072265208,0.0,-0.08789061600000014,-18381.0,0.0,-255.0,-0.0,0.0,0.0,2.574462627,0.0,-0.014648435999999876,1.3899999856948853,0.5699999928474426,30.920000076293945,-0.0234375,0.03778076171875,1.0086669921875,28.360000610351562,0.0,-20.0,-1.847503662109375,-0.149078369140625,Waiting,0.0,0.0,-114.0,0.0,0.0,0.0,0.0,0.0,
0.47254999999999925,0.0,0.0,false,4495076.426877471,,399.0,0.375,120.0,0.0,0.0,0.0,1.778564271,0.0,-0.0024414059999999793,-26086.0,0.25,-112.5,-0.0,0.0,0.0,2.731933314,0.0,0.0,11255.0,0.0,142.5,0.0,0.0,0.0,4.005126543,0.0,-0.10620116100000043,-18408.0,0.0,-105.0,-0.0,0.0,0.0,2.564697003,0.0,0.0,1.350000023841858,0.33000001311302185,30.760000228881836,-0.0516357421875,0.028564453125,0.95306396484375,28.360000610351562,0.0,-46.0,-1.8455810546875,-0.1485748291015625,Waiting,0.0,0.0,-114.0,0.0,0.0,0.0,0.0,0.0,
0.5271869999999999,0.0,0.0,false,4497238.393700788,,399.0,0.375,97.5,0.0,0.0,0.0,1.777343568,0.0,0.0,-26086.0,0.25,-60.0,-0.0,0.0,0.0,2.7392575320000003,0.0,0.0,11255.0,0.0,150.0,0.0,0.0,0.0,3.9990230280000003,0.0,-0.10620116100000043,-18408.0,0.0,-52.5,-0.0,0.0,0.0,2.569579815,0.0,-0.003662108999999969,1.399999976158142,0.1899999976158142,30.790000915527344,-0.07318115234375,0.021728515625,0.9853515625,28.360000610351562,0.0,-66.0,-1.844879150390625,-0.147552490234375,Waiting,0.0,0.0,-114.0,0.0,0.0,0.0,0.0,0.0,
0.5704539999999997,0.0,0.0,false,4499162.478431373,,405.0,0.5,52.5,0.0,0.0,0.0,1.783447083,0.0,0.0012207029999995456,-26091.0,0.5,-30.0,-0.0,0.0,0.0,2.7392575320000003,0.0,0.0,11277.0,0.0,142.5,0.0,0.0,0.0,4.000243731,0.0,4.91737891,-18424.0,0.0,-105.0,-0.0,0.0,0.0,2.569579815,0.0,-0.003662108999999969,1.3799999952316284,0.10999999940395355,30.860000610351562,9.1552734375E-4,0.00762939453125,0.96820068359375,28.350000381469727,0.0,-9.0,-1.8447265625,-0.1471099853515625,Waiting,0.0,0.0,-114.0,0.0,0.0,0.0,0.0,0.0,
0.6216909999999989,0.0,0.0,false,4500833.46875,,405.0,0.75,0.0,0.0,0.0,0.0,1.778564271,0.0,-0.002441405999999091,-26091.0,0.5,-7.5,-0.0,0.0,0.0,2.7392575320000003,0.0,0.0,11277.0,0.0,75.0,0.0,0.0,0.0,4.000243731,0.0,-0.0012207029999995456,-18424.0,0.0,-82.5,-0.0,0.0,0.0,2.569579815,0.0,0.0,1.3600000143051147,0.15000000596046448,30.8700008392334,0.04583740234375,0.0328369140625,1.0064697265625,28.350000381469727,0.0,41.0,-1.844635009765625,-0.147369384765625,Waiting,0.0,0.0,-114.0,0.0,0.0,0.0,0.0,0.0,
0.6747389999999995,0.0,0.0,false,4502381.60311284,,405.0,1.0,0.0,0.0,0.0,0.0,1.778564271,0.0,0.002441405999999091,-26092.0,0.625,0.0,-0.0,0.0,0.0,2.7380368290000003,0.0,0.0,11278.0,0.0,7.5,0.0,0.0,0.0,4.001464434,0.0,0.0012207029999995456,-18428.0,0.0,-22.5,-0.0,0.0,0.0,2.574462627,0.0,0.0,1.3700000047683716,0.2199999988079071,30.84000015258789,0.01727294921875,0.0361328125,1.00201416015625,28.350000381469727,0.0,17.0,-1.8440704345703125,-0.147491455078125,Waiting,0.0,0.0,-114.0,0.0,0.0,0.0,0.0,0.0,
0.7278490000000002,0.0,0.0,false,4503681.519379845,,405.0,0.875,0.0,0.0,0.0,0.0,1.778564271,0.0,0.0,-26092.0,0.625,-7.5,-0.0,0.0,0.0,2.730712611,0.0,0.0,11278.0,0.0,0.0,0.0,0.0,0.0,3.9965816220000003,0.0,0.0,-18428.0,0.0,0.0,-0.0,0.0,0.0,2.572021221,0.0,0.0,1.3700000047683716,0.23000000417232513,30.850000381469727,0.00726318359375,0.0201416015625,0.9908447265625,28.350000381469727,0.0,0.0,-1.8440704345703125,-0.147491455078125,Waiting,0.0,0.0,-114.0,0.0,0.0,0.0,0.0,0.0,
0.7898050000000003,0.0,0.0,false,4504753.884169884,,405.0,0.875,0.0,0.0,0.0,0.0,1.779784974,0.0,0.0,-26092.0,0.5,0.0,-0.0,0.0,0.0,2.7392575320000003,0.0,0.0,11279.0,0.0,0.0,0.0,0.0,0.0,3.9990230280000003,0.0,0.0,-18429.0,0.0,-7.5,-0.0,0.0,0.0,2.569579815,0.0,0.0,1.3600000143051147,0.20000000298023224,30.860000610351562,0.00689697265625,0.03924560546875,1.02569580078125,28.350000381469727,0.0,10.0,-1.8440704345703125,-0.147491455078125,Waiting,0.0,0.0,-114.0,0.0,0.0,0.0,0.0,0.0,
0.8361509999999999,0.0,0.0,false,4505583.661538461,,405.0,0.875,0.0,0.0,0.0,0.0,1.778564271,0.0,-0.0012207029999995456,-26092.0,0.625,0.0,-0.0,0.0,0.0,2.7404782350000003,0.0,-0.0012207029999999897,11279.0,0.0,0.0,0.0,0.0,0.0,4.002685137,0.0,0.0,-18429.0,0.125,0.0,-0.0,0.0,0.0,2.569579815,0.0,-0.0012207029999999897,1.3700000047683716,0.2199999988079071,30.850000381469727,0.00634765625,0.0181884765625,1.01275634765625,28.350000381469727,0.0,-1.0,-1.8440704345703125,-0.147491455078125,Waiting,0.0,0.0,-114.0,0.0,0.0,0.0,0.0,0.0,
0.9160210000000006,0.0,0.0,false,4506191.233716475,,406.0,1.0,0.0,0.0,0.0,0.0,1.777343568,0.0,0.0,-26092.0,0.625,0.0,-0.0,0.0,0.0,2.7380368290000003,0.0,0.0,11279.0,0.0,0.0,0.0,0.0,0.0,4.000243731,0.0,0.0,-18429.0,0.125,0.0,-0.0,0.0,0.0,2.569579815,0.0,0.0,1.3600000143051147,0.23000000417232513,30.860000610351562,0.0052490234375,0.0233154296875,1.01171875,28.350000381469727,0.0,0.0,-1.8440704345703125,-0.147491455078125,Waiting,0.0,0.0,-114.0,0.0,0.0,0.0,0.0,0.0,
0.9641029999999992,0.0,0.0,false,4506528.335877863,,406.0,0.875,0.0,0.0,0.0,0.0,1.778564271,0.0,0.0012207029999995456,-26092.0,0.625,0.0,-0.0,0.0,0.0,2.7392575320000003,0.0,0.0012207029999999897,11279.0,0.0,0.0,0.0,0.0,0.0,3.9978023250000003,0.0,0.0,-18429.0,0.125,0.0,-0.0,0.0,0.0,2.569579815,0.0,0.0012207029999999897,1.3700000047683716,0.23000000417232513,30.860000610351562,0.00653076171875,0.02093505859375,0.99456787109375,28.350000381469727,0.0,0.0,-1.8440704345703125,-0.147491455078125,Waiting,0.0,0.0,-114.0,0.0,0.0,0.0,0.0,0.0,
1.0070820000000003,0.0,0.0,false,4506648.669201521,,406.0,0.875,0.0,0.0,0.0,0.0,1.7895505980000002,0.0,-0.002441405999999091,-26092.0,0.625,0.0,-0.0,0.0,0.0,2.7404782350000003,0.0,0.0,11279.0,0.0,0.0,0.0,0.0,0.0,4.000243731,0.0,0.0,-18429.0,0.125,0.0,-0.0,0.0,0.0,2.569579815,0.0,-0.0012207029999999897,1.3600000143051147,0.23999999463558197,30.860000610351562,0.00653076171875,0.017333984375,1.00634765625,28.350000381469727,0.0,-1.0,-1.8440704345703125,-0.147491455078125,Waiting,0.0,0.0,-114.0,0.0,0.0,0.0,0.0,0.0,
1.049196,0.0,0.0,false,4506643.757575758,,406.0,0.875,0.0,0.0,0.0,0.0,1.779784974,0.0,0.003662108999999525,-26092.0,0.625,0.0,-0.0,0.0,0.0,2.7380368290000003,0.0,0.0,11279.0,0.0,0.0,0.0,0.0,0.0,3.9892574040000004,0.0,0.0,-18429.0,0.125,0.0,-0.0,0.0,0.0,2.570800518,0.0,0.0012207029999999897,1.3600000143051147,0.23999999463558197,30.860000610351562,0.00701904296875,0.02935791015625,1.01434326171875,28.350000381469727,0.0,4.0,-1.8440704345703125,-0.147491455078125,Waiting,0.0,0.0,-114.0,0.0,0.0,0.0,0.0,0.0,
1.087884,0.0,0.0,false,4506426.294339622,,406.0,0.875,0.0,0.0,0.0,0.0,1.778564271,0.0,-0.0024414059999999793,-26092.0,0.625,0.0,-0.0,0.0,0.0,2.7380368290000003,0.0,0.0,11279.0,0.0,0.0,0.0,0.0,0.0,4.000243731,0.0,0.0,-18429.0,0.125,0.0,-0.0,0.0,0.0,2.569579815,0.0,0.0,1.3600000143051147,0.25,30.860000610351562,0.01318359375,0.026123046875,1.0059814453125,28.34000015258789,0.0,8.0,-1.8440704345703125,-0.147491455078125,Waiting,0.0,0.0,-114.0,0.0,0.0,0.0,0.0,0.0,
1.1391299999999993,0.0,0.0,false,4505981.413533835,,406.0,0.875,0.0,0.0,0.0,0.0,1.800536925,0.0,0.0,-26092.0,0.625,0.0,-0.0,0.0,0.0,2.7392575320000003,0.0,0.0,11279.0,0.0,0.0,0.0,0.0,0.0,4.000243731,0.0,0.0,-18429.0,0.125,0.0,-0.0,0.0,0.0,2.570800518,0.0,0.0,1.3600000143051147,0.25999999046325684,30.860000610351562,0.00579833984375,0.01849365234375,1.01129150390625,28.34000015258789,0.0,-1.0,-1.8440704345703125,-0.147491455078125,Waiting,0.0,0.0,-114.0,0.0,0.0,0.0,0.0,0.0,
1.1898230000000003,0.0,0.0,false,4505328.868913857,,406.0,0.875,0.0,0.0,0.0,0.0,1.781005677,0.0,0.0,-26092.0,0.625,0.0,-0.0,0.0,0.0,2.7392575320000003,0.0,0.0,11279.0,0.0,0.0,0.0,0.0,0.0,4.000243731,0.0,0.0,-18429.0,0.125,0.0,-0.0,0.0,0.0,2.569579815,0.0,0.0,1.350000023841858,0.27000001072883606,30.860000610351562,0.01123046875,0.02734375,1.01116943359375,28.34000015258789,0.0,7.0,-1.8440704345703125,-0.147491455078125,Waiting,0.0,0.0,-114.0,0.0,0.0,0.0,0.0,0.0,
1.2305079999999997,0.0,0.0,false,4504348.925373134,,406.0,0.875,0.0,0.0,0.0,0.0,1.7846677860000002,0.0,0.0,-26092.0,0.625,0.0,-0.0,0.0,0.0,2.7380368290000003,0.0,0.0,11279.0,0.0,0.0,0.0,0.0,0.0,4.000243731,0.0,0.0,-18429.0,0.125,0.0,-0.0,0.0,0.0,2.569579815,0.0,0.0,1.3600000143051147,0.27000001072883606,30.850000381469727,0.006103515625,0.02154541015625,0.993896484375,28.34000015258789,0.0,0.0,-1.8440704345703125,-0.147491455078125,Waiting,0.0,0.0,-114.0,0.0,0.0,0.0,0.0,0.0,
1.2741100000000005,0.0,0.0,false,4503271.31598513,,406.0,0.875,0.0,0.0,0.0,0.0,1.779784974,0.0,0.0012207029999995456,-26092.0,0.625,0.0,-0.0,0.0,0.0,2.731933314,0.0,0.0,11279.0,0.0,0.0,0.0,0.0,0.0,3.9965816220000003,0.0,0.0,-18429.0,0.125,0.0,-0.0,0.0,0.0,2.569579815,0.0,0.0,1.3600000143051147,0.27000001072883606,30.860000610351562,0.010498046875,0.0196533203125,0.99713134765625,28.34000015258789,0.0,2.0,-1.8440704345703125,-0.147491455078125,Waiting,0.0,0.0,-114.0,0.0,0.0,0.0,0.0,0.0,
1.3209380000000002,0.0,0.0,false,4501993.037037037,,406.0,0.875,0.0,0.0,0.0,0.0,1.7846677860000002,0.0,0.0012207030000004337,-26092.0,0.625,0.0,-0.0,0.0,0.0,2.724609096,0.0,0.0,11279.0,0.0,0.0,0.0,0.0,0.0,3.9953609190000003,0.0,0.0,-18429.0,0.125,0.0,-0.0,0.0,0.0,2.572021221,0.0,0.0,1.3600000143051147,0.2800000011920929,30.850000381469727,0.00433349609375,0.02740478515625,1.0057373046875,28.34000015258789,0.0,1.0,-1.8440704345703125,-0.147491455078125,Waiting,0.0,0.0,-114.0,0.0,0.0,0.0,0.0,0.0,
1.3690920000000006,0.0,0.0,false,4500499.365313653,,406.0,0.875,0.0,0.0,0.0,0.0,1.801757628,0.0,-0.003662108999999525,-26092.0,0.625,0.0,-0.0,0.0,0.0,2.7392575320000003,0.0,0.0,11279.0,0.0,0.0,0.0,0.0,0.0,4.000243731,0.0,0.0,-18429.0,0.125,0.0,-0.0,0.0,0.0,2.569579815,0.0,0.0,1.3600000143051147,0.2800000011920929,30.850000381469727,0.01202392578125,0.0267333984375,1.00457763671875,28.34000015258789,0.0,7.0,-1.8440704345703125,-0.147491455078125,Waiting,0.0,0.0,-114.0,0.0,0.0,0.0,0.0,0.0,
1.4144009999999998,0.0,0.0,false,4498810.029411765,,406.0,0.875,0.0,0.0,0.0,0.0,1.771240053,0.0,0.002441405999999091,-26092.0,0.625,0.0,-0.0,0.0,0.0,2.7380368290000003,0.0,0.0,11280.0,0.0,0.0,0.0,0.0,0.0,3.981933186,0.0,0.0,-18429.0,0.125,0.0,-0.0,0.0,0.0,2.569579815,0.0,0.0,1.350000023841858,0.28999999165534973,30.850000381469727,0.0048828125,0.0216064453125,1.00244140625,28.34000015258789,0.0,-1.0,-1.8440704345703125,-0.147491455078125,Waiting,0.0,0.0,-114.0,0.0,0.0,0.0,0.0,0.0,
1.4457929999999997,0.0,0.0,false,4496926.71062271,,406.0,0.875,0.0,0.0,0.0,0.0,1.781005677,0.0,0.0,-26092.0,0.625,0.0,-0.0,0.0,0.0,2.7392575320000003,0.0,0.0,11280.0,0.0,0.0,0.0,0.0,0.0,3.9953609190000003,0.0,0.0,-18429.0,0.125,0.0,-0.0,0.0,0.0,2.572021221,0.0,0.0,1.350000023841858,0.28999999165534973,30.860000610351562,0.01068115234375,0.0247802734375,1.00518798828125,28.34000015258789,0.0,5.0,-1.8440704345703125,-0.147491455078125,Waiting,0.0,0.0,-114.0,0.0,0.0,0.0,0.0,0.0,
1.4786949999999996,0.0,0.0,false,4494834.773722628,,406.0,0.625,0.0,-337.32282400131226,0.0,0.0,1.778564271,0.4255251195271779,-0.0012207029999995456,-26092.0,0.25,0.0,337.32282400131226,0.0,0.0,2.7380368290000003,0.42423928616841317,0.0,11280.0,0.0,0.0,-337.32282400131226,0.0,0.0,3.9941402160000004,0.4246678972880014,0.0,-18429.0,0.0,0.0,337.32282400131226,0.0,0.0,2.569579815,0.42411070283253677,0.0,1.350000023841858,0.28999999165534973,30.850000381469727,0.0078125,0.02191162109375,0.99847412109375,28.34000015258789,0.0,1.0,-1.8440704345703125,-0.147491455078125,Waiting,0.0,0.0,-114.0,0.0,0.0,0.0,0.0,0.0,
1.5240349999999998,0.0,0.0,false,4492553.192727272,,404.0,0.25,0.0,-496.06298089027405,0.0,1.0,1.8310545,0.4253872274822628,-0.0012207029999995456,-26092.0,0.0,0.0,496.06298089027405,0.0,0.0,2.7416989380000003,0.4241018107997015,0.0,11279.0,0.0,0.0,-496.06298089027405,0.0,1.0,4.0258784940000005,0.42453028302722196,0.0,-18429.0,0.0,0.0,496.06298089027405,0.0,0.5,2.570800518,0.4239732691314454,0.0,1.3600000143051147,0.27000001072883606,30.8700008392334,0.00848388671875,0.03326416015625,0.99359130859375,28.34000015258789,0.0,8.0,-1.8440704345703125,-0.147491455078125,Waiting,0.0,0.0,-114.0,0.0,0.0,0.0,0.0,0.0,
1.5661219999999993,0.0,0.0,false,4490067.710144928,,404.0,0.0,-15.0,-575.433059334755,0.0,1.875,1.987304484,0.425663011572093,0.0,-26092.0,0.0,0.0,575.433059334755,0.0,0.75,2.785644246,0.4243767615371249,0.0,11279.0,0.125,-60.0,-575.433059334755,0.0,0.625,4.184569884,0.42480551154878093,0.0,-18429.0,0.125,22.5,575.433059334755,0.0,0.25,2.6916501150000003,0.4242481365336281,0.0,1.3600000143051147,0.27000001072883606,30.8700008392334,-0.04669189453125,0.0684814453125,0.9835205078125,28.34000015258789,0.0,-21.0,-1.84417724609375,-0.1472625732421875,Waiting,0.0,0.0,-114.0,0.0,0.0,0.0,0.0,0.0,
1.5999709999999996,0.0,0.0,false,4487498.252707581,,404.0,0.0,-37.5,-694.4881582260131,0.0,0.5,2.089843536,0.425663011572093,0.0,-26092.0,0.25,0.0,694.4881582260131,0.0,0.125,2.9064938430000002,0.4243767615371249,0.0,11279.0,1.0,-172.5,-694.4881582260131,0.0,0.0,4.29687456,0.42480551154878093,0.0,-18429.0,0.5,105.0,694.4881582260131,0.0,0.0,2.8002926820000003,0.4242481365336281,0.0,1.3799999952316284,0.23999999463558197,30.8799991607666,-0.0916748046875,0.01348876953125,1.00811767578125,28.329999923706055,0.0,-88.0,-1.8444976806640625,-0.1469573974609375,Waiting,0.0,0.0,-114.0,0.0,0.0,0.0,0.0,0.0,
1.6425210000000006,0.0,0.0,false,4484744.633093525,,378.0,0.25,-97.5,-734.173253774643,0.0,0.25,2.155761498,0.4260766614066199,0.0,-26092.0,1.5,0.0,734.173253774643,0.0,0.125,3.0102535980000003,0.42478916142251444,0.0,11247.0,1.625,-210.0,-734.173253774643,0.0,0.0,4.401855018,0.42521832808388293,0.0,-18407.0,1.25,150.0,734.173253774643,0.0,0.0,2.86865205,0.4246604114241039,0.0,1.3200000524520874,0.10000000149011612,30.940000534057617,-0.02276611328125,0.0631103515625,0.89898681640625,28.329999923706055,0.0,0.0,-1.8455352783203125,-0.146270751953125,Waiting,0.0,0.0,-114.0,0.0,0.0,0.0,0.0,0.0,
1.6867759999999998,0.0,0.0,false,4481745.519713262,,378.0,0.5,-202.5,-873.0709004402162,0.0,0.25,2.207031024,0.42662822958628105,0.0,-26092.0,3.0,7.5,873.0709004402162,0.0,0.125,3.068847342,0.42533906289736195,0.0,11247.0,1.5,-127.5,-873.0709004402162,0.0,0.0,4.442138217,0.4257687851270016,0.0,-18407.0,2.625,112.5,873.0709004402162,0.0,0.0,2.9016110310000003,0.42521014622847003,0.0,1.2699999809265137,0.0,30.940000534057617,-0.0748291015625,-0.03118896484375,0.9716796875,28.329999923706055,0.0,-91.0,-1.84735107421875,-0.1455535888671875,Waiting,0.0,0.0,-114.0,0.0,0.0,0.0,0.0,0.0,
1.727081,0.0,0.0,false,4478449.514285714,,378.0,2.0,-225.0,-952.4409413337708,0.0,0.125,2.2167966480000003,0.42662822958628105,0.03417968399999971,-26092.0,5.75,67.5,952.4409413337708,0.0,0.0,3.092040699,0.42533906289736195,0.04516601100000006,11247.0,4.375,-112.5,-952.4409413337708,0.0,0.0,4.4506831380000005,0.4257687851270016,0.03417968399999971,-18407.0,3.625,90.0,952.4409413337708,0.0,0.0,2.910155952,0.42521014622847003,0.031738278000000175,1.1399999856948853,-0.17000000178813934,30.8799991607666,-0.2623291015625,-0.03863525390625,1.06939697265625,28.329999923706055,0.0,-253.0,-1.8495330810546875,-0.145050048828125,Waiting,0.0,0.0,-114.0,0.0,0.0,0.0,0.0,0.0,
1.765119999999999,0.0,0.0,false,4474976.939501779,,345.0,3.375,-195.0,-972.2834515571595,0.0,0.0,2.210693133,0.4258008773167897,0.0,-26062.0,7.125,157.5,972.2834515571595,0.0,0.0,3.1079098380000003,0.42451421068509104,0.0,11210.0,8.5,-180.0,-972.2834515571595,0.0,0.0,4.449462435,0.42494309956232396,0.0,-18380.0,5.375,135.0,972.2834515571595,0.0,0.0,2.916259467,0.4243855440219212,0.0,0.8899999856948853,-0.5099999904632568,30.8700008392334,-0.19036865234375,-0.0762939453125,0.82769775390625,28.329999923706055,0.0,-202.0,-1.8553619384765625,-0.14398193359375,Waiting,0.0,0.0,-114.0,0.0,0.0,0.0,0.0,0.0,
1.8172909999999993,0.0,0.0,false,4478072.964539007,,345.0,4.875,-292.5,-1031.8110573291779,0.0,0.0,2.227782975,0.4258008773167897,0.0,-26062.0,8.125,300.0,1031.8110573291779,0.0,0.0,3.1030270260000004,0.42451421068509104,0.0,11210.0,8.5,-382.5,-1031.8110573291779,0.0,0.0,4.428710484000001,0.42494309956232396,0.0,-18380.0,7.25,300.0,1031.8110573291779,0.0,0.0,2.916259467,0.4243855440219212,0.0,0.5099999904632568,-1.149999976158142,30.940000534057617,-0.20947265625,-0.03387451171875,1.0164794921875,28.329999923706055,0.0,-184.0,-1.871429443359375,-0.1441802978515625,Waiting,0.0,0.0,-114.0,0.0,0.0,0.0,0.0,0.0,
1.8711080000000002,0.0,0.0,false,4480936.395759718,,345.0,5.125,-427.5,-1131.023608446121,0.0,0.0,2.2192380540000003,0.42676612163119537,0.003662109000000413,-26062.0,7.75,442.5,1131.023608446121,0.0,0.0,3.1079098380000003,0.42547653826607285,0.0012207029999999897,11111.0,8.625,-525.0,-1131.023608446121,0.0,0.0,4.4531245440000005,0.42590639938778035,0.0,-18296.0,7.125,427.5,1131.023608446121,0.0,0.0,2.921142279,0.4253475799295606,0.004882811999999959,0.3799999952316284,-1.4700000286102295,30.969999313354492,-0.14013671875,-0.01605224609375,0.82598876953125,28.329999923706055,0.0,-113.0,-1.8841552734375,-0.1442413330078125,Waiting,0.0,0.0,-114.0,0.0,0.0,0.0,0.0,0.0,
1.909976999999999,0.0,0.0,false,4483544.338028169,,260.0,5.25,-562.5,-1150.86611866951,0.0,0.0,2.227782975,0.42704187942080796,0.0,-25974.0,8.0,577.5,1150.86611866951,0.0,0.0,3.098144214,0.42575146278275144,0.0,11111.0,8.375,-667.5,-1150.86611866951,0.0,0.0,4.4482417320000005,0.4261816016621036,0.0,-18296.0,7.625,555.0,1150.86611866951,0.0,0.0,2.921142279,0.4256224211189458,0.0,0.3499999940395355,-1.7799999713897705,30.989999771118164,-0.17913818359375,-0.0330810546875,1.21063232421875,28.329999923706055,0.0,-142.0,-1.8936767578125,-0.1440277099609375,Waiting,0.0,0.0,-114.0,0.0,0.0,0.0,0.0,0.0,
1.9459069999999992,0.0,0.0,false,4485911.887719298,,260.0,5.5,-682.5,-1210.3937244415283,0.0,0.0,2.230224381,0.42731766351063816,0.0,-25974.0,7.875,697.5,1210.3937244415283,0.0,0.0,3.1091305410000003,0.42602641352017484,0.0,11111.0,7.75,-795.0,-1210.3937244415283,0.0,0.0,4.437255405,0.4264568301836626,0.0,-18296.0,7.625,675.0,1210.3937244415283,0.0,0.0,2.926025091,0.4258972885211285,0.0,0.18000000715255737,-1.9900000095367432,31.020000457763672,-0.0919189453125,-0.1248779296875,0.9906005859375,28.329999923706055,0.0,-115.0,-1.909515380859375,-0.1439208984375,Waiting,0.0,0.0,-114.0,0.0,0.0,0.0,0.0,0.0,
1.989039999999999,0.0,0.0,false,4488140.111888112,,260.0,5.375,-742.5,-1309.6062755584715,0.0,0.0,2.243652114,0.4277313396453827,0.0,-25974.0,7.625,802.5,1309.6062755584715,0.0,0.0,3.1066891350000003,0.42643883962630913,0.0,10957.0,7.5,-900.0,-1309.6062755584715,0.0,0.0,4.4506831380000005,0.4268696729660003,0.0,-18160.0,7.375,795.0,1309.6062755584715,0.0,0.0,2.921142279,0.4263095896244018,0.0,0.05999999865889549,-2.200000047683716,31.059999465942383,-0.12469482421875,-0.12091064453125,0.6773681640625,28.329999923706055,0.0,-147.0,-1.9269866943359375,-0.1438751220703125,Waiting,0.0,0.0,-114.0,0.0,0.0,0.0,0.0,0.0,
2.0267970000000006,0.0,0.0,false,4490132.264808362,,122.0,5.75,-855.0,-1349.291296005249,0.0,0.0,2.232665787,0.42828288152482463,0.0012207029999995456,-25835.0,7.75,855.0,1349.291296005249,0.0,0.0,3.1066891350000003,0.42698871488041035,0.0,10957.0,7.875,-945.0,-1349.291296005249,0.0,0.0,4.451903841,0.4274201037618818,0.0,-18160.0,7.75,892.5,1349.291296005249,0.0,0.0,2.919921576,0.4268592982159689,-0.0012207029999999897,-0.019999999552965164,-2.450000047683716,31.079999923706055,-0.2506103515625,0.0166015625,1.17877197265625,28.329999923706055,0.0,-162.0,-1.9396209716796875,-0.144012451171875,Waiting,0.0,0.0,-114.0,0.0,0.0,0.0,0.0,0.0,
2.062718999999999,0.0,0.0,false,4491878.555555556,,122.0,5.875,-945.0,-1369.1338062286377,0.0,0.0,2.232665787,0.4285586656146556,0.0,-25835.0,8.125,952.5,1369.1338062286377,0.0,0.0,3.1066891350000003,0.42726366561783446,0.0,10957.0,7.625,-1042.5,-1369.1338062286377,0.0,0.0,4.4506831380000005,0.42769533228344153,0.0,-18160.0,7.625,982.5,1369.1338062286377,0.0,0.0,2.921142279,0.4271341656181524,0.0,-0.03999999910593033,-2.549999952316284,31.1200008392334,-0.21435546875,-0.13995361328125,0.99932861328125,28.329999923706055,0.0,-217.0,-1.959808349609375,-0.1434326171875,Waiting,0.0,0.0,-114.0,0.0,0.0,0.0,0.0,0.0,
2.097405999999999,0.0,0.0,false,4493503.2525951555,,122.0,5.75,-1035.0,-1369.1338062286377,0.0,0.0,2.231445084,0.429110233794316,0.0,-25835.0,7.5,1057.5,1369.1338062286377,0.0,0.0,3.1066891350000003,0.4278135670926812,0.0,10957.0,7.0,-1132.5,-1369.1338062286377,0.0,0.0,4.4531245440000005,0.4282457893265595,0.0,-18160.0,7.375,1027.5,1369.1338062286377,0.0,0.0,2.921142279,0.42768390042251775,0.0,-0.12999999523162842,-2.7200000286102295,31.1299991607666,-0.00341796875,-0.02947998046875,1.02838134765625,28.360000610351562,0.0,24.0,-1.9738006591796875,-0.1428375244140625,Waiting,0.0,0.0,-114.0,0.0,0.0,0.0,0.0,0.0,
2.1381299999999994,0.0,0.0,false,4494886.289655172,,-57.0,5.875,-1117.5,-1634.4144332202866,0.0,0.0,2.231445084,0.44800656892668556,0.0,-25653.0,6.875,1140.0,1330.1943892552506,0.0,0.0,3.1079098380000003,0.5677672440646238,0.0,10763.0,6.625,-1207.5,-1487.3239576657188,0.0,0.0,4.45556595,0.3033446679762967,0.0,-17980.0,6.875,1117.5,1144.6567733315417,0.0,0.0,2.921142279,0.40112318408076053,0.0,-0.1899999976158142,-2.799999952316284,31.100000381469727,-0.0413818359375,-0.01556396484375,0.7772216796875,28.360000610351562,0.0,-9.0,-1.98779296875,-0.14215087890625,Waiting,0.0,0.0,-114.0,0.0,0.0,0.0,0.0,0.0,
2.177538999999999,0.0,0.0,false,4496042.30927835,,-57.0,6.5,-1162.5,-1781.9966569832154,0.0,0.0,2.232665787,0.4564563459858736,0.0,-25653.0,6.375,1177.5,1316.0647923008792,0.0,0.0,3.123778977,0.6555938256432469,0.0,10763.0,7.0,-1275.0,-1562.5185904204388,0.0,0.0,4.454345247,0.2364906940439017,0.0,-17980.0,4.25,1185.0,998.9888875478425,0.0,0.0,2.918700873,0.3782789966018778,0.0,-0.2199999988079071,-2.930000066757202,31.110000610351562,-0.0377197265625,0.15020751953125,1.27838134765625,28.360000610351562,0.0,103.0,-1.9877166748046875,-0.142059326171875,Waiting,0.0,0.0,-114.0,0.0,0.0,0.0,0.0,0.0,
2.217143,0.0,0.0,false,4496961.97260274,,-57.0,10.125,-1290.0,-1880.5231939365879,0.0,0.0,2.236327896,0.4617593851716011,0.004882811999999959,-25653.0,4.625,1252.5,1316.2030820182995,0.0,0.125,3.184814127,0.7152579629790521,0.024414059999999793,10763.0,7.375,-1342.5,-1618.1090426506994,0.0,0.0,4.439696811,0.19601362218597743,0.0012207029999995456,-17782.0,2.0,1230.0,902.3856958579119,0.0,0.0,2.919921576,0.3598062506144082,0.0,-0.2199999988079071,-3.0,31.219999313354492,-0.02117919921875,-0.12957763671875,1.2191162109375,28.360000610351562,0.0,-27.0,-1.987701416015625,-0.1414794921875,Waiting,0.0,0.0,-114.0,0.0,0.0,0.0,0.0,0.0,
2.2613099999999995,0.0,0.0,false,4497659.331058021,,-274.0,11.625,-1380.0,-1993.8683400809252,0.0,0.0,2.241210708,0.4134307869022327,0.0,-25447.0,3.75,1290.0,1272.5161125937527,0.0,0.0,3.2592770100000004,0.7085162118094883,0.0,10539.0,7.75,-1417.5,-1739.4893612607868,0.0,0.0,4.377440958,0.09439401230020707,0.0,-17782.0,0.875,1237.5,818.2967292939118,0.0,0.0,2.921142279,0.20212838651104617,0.0,-0.23999999463558197,-2.9800000190734863,31.540000915527344,-0.07366943359375,-0.1822509765625,0.87841796875,28.360000610351562,0.0,-116.0,-1.988250732421875,-0.1411285400390625,Waiting,0.0,0.0,-114.0,0.0,0.0,0.0,0.0,0.0,
2.296862999999999,0.0,0.0,false,4498124.653061224,,-274.0,12.25,-1417.5,-1970.637952402037,0.0,0.0,2.241210708,0.06778694708611786,0.0,-25447.0,3.125,1312.5,941.9555857126944,0.0,0.125,3.3129879420000004,0.14198079874051217,0.0,10539.0,9.75,-1500.0,-2086.141805708219,0.0,0.375,4.281005421000001,4.682175530188438,0.0,-17782.0,0.875,1230.0,1164.4114476986222,0.0,1.5,2.919921576,4.435369955205031,0.0,-0.3499999940395355,-2.940000057220459,31.969999313354492,-0.0506591796875,-0.03985595703125,0.87750244140625,28.360000610351562,0.0,-22.0,-1.9886322021484375,-0.1412506103515625,Waiting,0.0,0.0,-114.0,0.0,0.0,0.0,0.0,0.0,
2.334593999999999,0.0,0.0,false,4498479.538983051,,-274.0,11.625,-1530.0,-1941.3552587786064,0.0,0.25,2.243652114,4.760142979805785,0.004882811999999959,-25447.0,1.5,1290.0,953.8388549722283,0.0,1.125,3.3093258330000004,4.518852797279764,0.05004882300000002,10539.0,11.625,-1560.0,-2336.0869166736675,0.0,0.875,4.122314031,4.45126868243401,0.0,-17782.0,2.875,1230.0,1611.9089312741166,0.0,6.375,2.703857145,4.128087864009479,0.0,-0.23999999463558197,-3.0399999618530273,33.060001373291016,-0.2642822265625,-0.0841064453125,1.18896484375,28.360000610351562,0.0,-211.0,-1.98944091796875,-0.1412506103515625,Waiting,0.0,0.0,-114.0,0.0,0.0,0.0,0.0,0.0,
2.3788379999999996,0.0,0.0,false,4498606.243243244,,-540.0,9.25,-1642.5,-1704.7313223259855,0.0,0.75,2.139892359,4.633260802520335,0.0,-25260.0,0.75,1177.5,-851.939150917991,0.0,3.125,3.184814127,1.7262036572392483,-0.008544921000000372,10265.0,14.75,-1687.5,-2224.4894465675966,0.0,1.125,3.9343257690000004,4.3270522104159355,-0.1855468560000002,-17579.0,4.125,1245.0,1663.7441911057647,0.0,5.625,2.4291989700000003,3.9487685411701543,-0.25512692700000006,-0.18000000715255737,-3.069999933242798,34.099998474121094,-0.050048828125,0.09844970703125,0.75146484375,28.360000610351562,0.0,48.0,-1.9901580810546875,-0.140380859375,Waiting,0.0,0.0,-114.0,0.0,0.0,0.0,0.0,0.0,
2.4147790000000002,0.0,0.0,false,4498518.976430977,,-540.0,5.25,-1740.0,-833.8189692345036,0.0,1.375,2.0056150290000003,0.01014270694293442,-0.13427732999999975,-25260.0,1.875,1095.0,-228.48077233953933,0.0,7.875,2.987060241,4.9120845008567136,-0.21606443099999995,10265.0,13.5,-1792.5,-1215.5416727070744,0.0,0.875,3.7426753980000003,4.311453682801365,4.7538047080000005,-17579.0,6.25,1245.0,-913.504760776371,0.0,0.75,2.180175558,1.0380399923131272,4.6545312800000005,0.699999988079071,-3.009999990463257,36.18000030517578,-0.06134033203125,0.6690673828125,1.1461181640625,28.360000610351562,0.0,385.0,-1.9892425537109375,-0.1360321044921875,Waiting,0.0,0.0,-114.0,0.0,0.0,0.0,0.0,0.0,
2.449780999999999,0.0,0.0,false,4498314.469798658,,-540.0,1.5,-1710.0,-694.4881707429886,0.0,1.25,1.778564271,0.5533560492066895,0.0,-25260.0,2.5,952.5,-694.4881707429886,0.0,10.75,3.1604000670000003,4.397316058113635,0.0,10265.0,5.75,-1725.0,-694.4881707429886,0.0,0.875,3.555907839,4.401758689006861,0.0,-17579.0,3.75,1020.0,-694.4881707429886,0.0,0.875,1.938476364,0.5515167311543325,0.0,1.6200000047683716,-2.5899999141693115,37.869998931884766,0.57861328125,0.55816650390625,1.17962646484375,28.360000610351562,0.0,903.0,-1.9810791015625,-0.1270904541015625,Waiting,0.0,0.0,-114.0,0.0,0.0,0.0,0.0,0.0,
2.488699999999999,0.0,0.0,false,4497899.638795987,,-775.0,0.0,-1605.0,-711.0235959291458,0.0,3.5,1.7382810720000001,0.5533560492066895,-0.20263669799999917,-25173.0,2.25,795.0,-711.0235959291458,0.0,10.875,3.0541989060000003,4.397316058113635,0.0,10039.0,0.625,-1410.0,-711.0235959291458,0.0,0.125,3.5180660460000004,4.401758689006861,0.0,-17474.0,2.5,622.5,-711.0235959291458,0.0,9.75,2.044677525,0.5515167311543325,0.0,2.299999952316284,-0.9900000095367432,40.52000045776367,0.18670654296875,0.13714599609375,0.709716796875,28.360000610351562,0.0,221.0,-1.9699249267578125,-0.1212158203125,Waiting,0.0,0.0,-114.0,0.0,0.0,0.0,0.0,0.0,
2.5266280000000005,0.0,0.0,false,4497276.586666667,,-775.0,0.0,-1320.0,-744.0945088863373,0.0,3.875,1.8115232520000002,0.5533560492066895,0.002441405999999091,-25173.0,1.5,247.5,-744.0945088863373,0.0,10.625,2.81982393,4.397316058113635,-0.3320312160000003,10039.0,0.0,-1245.0,-744.0945088863373,0.0,0.0,3.514403937,4.401758689006861,-0.028076169000000206,-17474.0,2.125,480.0,-744.0945088863373,0.0,9.75,2.298583749,0.5515167311543325,0.15014646899999917,2.759999990463257,-0.7599999904632568,42.18000030517578,0.42327880859375,0.166015625,0.8363037109375,28.360000610351562,0.0,406.0,-1.9555511474609375,-0.11541748046875,Waiting,0.0,0.0,-114.0,0.0,0.0,0.0,0.0,0.0,
2.556268,0.0,0.0,false,4496435.667774087,,-775.0,0.75,-1080.0,-760.6299340724945,0.0,1.375,1.986083781,0.5533560492066895,0.0,-25173.0,1.0,-202.5,-760.6299340724945,0.0,1.125,2.609863014,4.397316058113635,0.0,10039.0,1.25,-1072.5,-760.6299340724945,0.0,0.0,3.511962531,4.401758689006861,0.0,-17474.0,2.0,375.0,-760.6299340724945,0.0,1.125,2.562255597,0.5515167311543325,0.0,3.2300000190734863,-0.20999999344348907,43.97999954223633,0.3355712890625,-0.08184814453125,1.41748046875,28.360000610351562,0.0,132.0,-1.928253173828125,-0.1075897216796875,Waiting,0.0,0.0,-114.0,0.0,0.0,0.0,0.0,0.0,
2.593298999999999,0.0,0.0,false,4495495.523178808,,-924.0,1.5,-1005.0,-760.6299340724945,0.0,1.0,2.156982201,0.5533560492066895,0.0,-25185.0,1.0,-240.0,-760.6299340724945,0.0,0.125,2.393798583,4.397316058113635,0.0,9868.0,2.5,-1072.5,-760.6299340724945,0.0,0.0,3.513183234,4.401758689006861,0.0,-17437.0,3.125,307.5,-760.6299340724945,0.0,1.75,2.778320028,0.5515167311543325,0.0,2.509999990463257,0.3199999928474426,44.72999954223633,0.29888916015625,-0.3402099609375,0.60699462890625,28.360000610351562,0.0,-48.0,-1.9090118408203125,-0.10418701171875,Waiting,0.0,0.0,-114.0,0.0,0.0,0.0,0.0,0.0,
2.6331679999999995,0.0,0.0,false,4494341.01650165,,-924.0,2.125,-907.5,-760.6299340724945,0.0,0.125,2.3303220270000002,0.5533560492066895,0.18798826200000018,-25185.0,1.125,-15.0,-760.6299340724945,0.0,0.0,2.230224381,4.397316058113635,-0.2441405999999997,9868.0,3.0,-1042.5,-760.6299340724945,0.0,0.0,3.511962531,4.401758689006861,0.0,-17437.0,4.25,127.5,-760.6299340724945,0.0,1.75,2.888183298,0.5515167311543325,0.0,2.009999990463257,0.6200000047683716,45.81999969482422,0.42913818359375,-0.060302734375,1.3304443359375,28.280000686645508,0.0,211.0,-1.880859375,-0.10260009765625,Waiting,0.0,0.0,-114.0,0.0,0.0,0.0,0.0,0.0,
2.6731319999999994,0.0,0.0,false,4492985.894736842,,-924.0,3.75,-825.0,-760.6299340724945,0.0,0.125,2.438964594,0.5533560492066895,0.15014646900000006,-25185.0,3.375,135.0,-760.6299340724945,0.0,0.0,2.1154782990000003,4.397316058113635,-0.14770506300000008,9868.0,4.875,-855.0,-760.6299340724945,0.0,0.0,3.513183234,4.401758689006861,0.0,-17437.0,4.5,52.5,-760.6299340724945,0.0,1.375,2.9553219630000003,0.5515167311543325,0.11840819100000033,1.7400000095367432,1.0199999809265137,46.689998626708984,0.26605224609375,-0.17681884765625,0.66949462890625,28.280000686645508,0.0,30.0,-1.861785888671875,-0.1037139892578125,Waiting,0.0,0.0,-114.0,0.0,0.0,0.0,0.0,0.0,
2.711829,0.0,0.0,false,4491524.721311475,,-924.0,5.125,-675.0,-760.6299340724945,0.0,0.125,2.4829099020000003,0.5533560492066895,0.0,-25185.0,4.625,-7.5,-760.6299340724945,0.0,0.0,2.071532991,4.397316058113635,0.0,9795.0,7.625,-607.5,-760.6299340724945,0.0,0.0,3.511962531,4.401758689006861,0.0,-17456.0,4.375,-37.5,-760.6299340724945,0.0,0.875,3.0126950040000002,0.5515167311543325,0.0,1.9800000190734863,1.1399999856948853,48.18000030517578,0.1248779296875,0.23284912109375,1.3603515625,28.280000686645508,0.0,203.0,-1.8323516845703125,-0.1068572998046875,Waiting,0.0,0.0,-114.0,0.0,0.0,0.0,0.0,0.0,
2.7470239999999992,0.0,0.0,false,4489866.248366013,,-1018.0,5.75,-592.5,-760.6299340724945,0.0,0.125,2.521972398,0.5533560492066895,0.0,-25208.0,4.625,-180.0,-760.6299340724945,0.0,0.0,2.071532991,4.397316058113635,0.0,9795.0,11.75,-450.0,-760.6299340724945,0.0,0.0,3.511962531,4.401758689006861,0.0,-17456.0,3.375,-135.0,-760.6299340724945,0.0,0.0,3.046874688,0.5515167311543325,0.0,2.0799999237060547,1.149999976158142,49.43000030517578,0.0338134765625,0.1622314453125,0.8568115234375,28.280000686645508,0.0,110.0,-1.8120269775390625,-0.1085662841796875,Waiting,0.0,0.0,-114.0,0.0,0.0,0.0,0.0,0.0,
2.786745999999999,0.0,0.0,false,4488000.912052117,,-1018.0,7.5,-502.5,-611.8110448122025,0.0,0.0,2.5268552100000004,0.5533560492066895,0.006103514999999504,-25208.0,4.25,-247.5,-611.8110448122025,0.0,0.0,2.089843536,4.397316058113635,0.009765623999999917,9795.0,13.5,-487.5,-611.8110448122025,0.0,0.0,3.510741828,4.401758689006861,0.0,-17456.0,2.625,-307.5,-611.8110448122025,0.0,0.0,3.0590817180000003,0.5515167311543325,0.0,2.319999933242798,0.9900000095367432,51.869998931884766,-0.04022216796875,0.19305419921875,1.1016845703125,28.280000686645508,0.0,79.0,-1.7806854248046875,-0.1101837158203125,Waiting,0.0,0.0,-114.0,0.0,0.0,0.0,0.0,0.0,
2.8273500000000005,0.0,0.0,false,4486044.935064935,,-1018.0,7.0,-562.5,-132.28346407413483,0.0,0.0,2.519530992,0.5533560492066895,0.029296871999999752,-25208.0,1.5,-352.5,-132.28346407413483,0.0,0.0,2.1105954870000003,4.397316058113635,0.019531247999999835,9684.0,9.0,-615.0,-132.28346407413483,0.0,0.0,3.511962531,4.401758689006861,0.0012207029999995456,-17538.0,1.25,-465.0,-132.28346407413483,0.0,0.0,3.079833669,0.5515167311543325,0.019531247999999835,2.380000114440918,0.8199999928474426,53.79999923706055,0.04833984375,-0.038330078125,1.04986572265625,28.280000686645508,0.0,-46.0,-1.7594451904296875,-0.1107025146484375,Waiting,0.0,0.0,-114.0,0.0,0.0,0.0,0.0,0.0,
2.8737999999999992,0.0,0.0,false,4483885.333333333,,-1122.0,0.875,-667.5,0.0,0.0,0.0,2.513427477,0.5533560492066895,0.0,-25272.0,0.0,-412.5,0.0,0.0,0.0,2.1105954870000003,4.397316058113635,0.0,9684.0,2.125,-705.0,0.0,0.0,0.0,3.513183234,4.401758689006861,0.0,-17538.0,0.125,-525.0,0.0,0.0,0.0,3.079833669,0.5515167311543325,0.0,2.4100000858306885,0.6399999856948853,57.630001068115234,0.021240234375,-0.00921630859375,1.31280517578125,28.280000686645508,0.0,-51.0,-1.748992919921875,-0.11138916015625,Waiting,0.0,0.0,-114.0,0.0,0.0,0.0,0.0,0.0,
2.916446,0.0,0.0,false,4481535.483870967,,-1122.0,0.0,-630.0,0.0,0.0,0.0,2.503661853,0.5533560492066895,-0.003662109000000413,-25272.0,0.0,-442.5,0.0,0.0,0.0,2.130126735,4.397316058113635,0.01831054500000029,9684.0,0.125,-660.0,0.0,0.0,0.0,3.513183234,4.401758689006861,0.0,-17538.0,0.0,-465.0,0.0,0.0,0.0,3.084716481,0.5515167311543325,0.009765623999999917,2.180000066757202,0.8100000023841858,59.189998626708984,0.07763671875,-0.16796875,0.47161865234375,28.280000686645508,0.0,-123.0,-1.749359130859375,-0.112030029296875,Waiting,0.0,0.0,-114.0,0.0,0.0,0.0,0.0,0.0,
2.9499920000000004,0.0,0.0,false,4479087.845659164,,-1185.0,0.0,-562.5,0.0,0.0,0.0,2.493896229,0.5533560492066895,-0.01586913899999942,-25332.0,0.0,-435.0,0.0,0.0,0.0,2.142333765,4.397316058113635,0.0183105449999994,9631.0,0.0,-450.0,0.0,0.0,0.0,3.511962531,4.401758689006861,-0.0012207029999995456,-17598.0,0.0,-382.5,0.0,0.0,0.0,3.085937184,0.5515167311543325,0.004882811999999959,2.2200000286102295,0.6399999856948853,60.93000030517578,0.106689453125,-0.08819580078125,0.98492431640625,28.280000686645508,0.0,-64.0,-1.750213623046875,-0.11370849609375,Waiting,0.0,0.0,-114.0,0.0,0.0,0.0,0.0,0.0,
2.9886939999999993,0.0,0.0,false,4476453.025641026,,-1185.0,0.0,-382.5,0.0,0.0,0.0,2.4829099020000003,0.5533560492066895,-0.01586913899999942,-25332.0,0.0,-375.0,0.0,0.0,0.0,2.14843728,4.397316058113635,0.0183105449999994,9631.0,0.0,-322.5,0.0,0.0,0.0,3.511962531,4.401758689006861,-0.0012207029999995456,-17598.0,0.0,-352.5,0.0,0.0,0.0,3.085937184,0.5515167311543325,0.0,2.0899999141693115,0.75,61.650001525878906,0.03558349609375,0.07244873046875,1.09771728515625,28.280000686645508,0.0,38.0,-1.7508392333984375,-0.1154022216796875,Waiting,0.0,0.0,-114.0,0.0,0.0,0.0,0.0,0.0,
3.0300079999999996,0.0,0.0,false,4473621.546325878,,-1185.0,0.0,-187.5,0.0,0.0,0.0,2.4780270900000003,0.5533560492066895,-0.009765623999999917,-25332.0,0.0,-285.0,0.0,0.0,0.0,2.149657983,4.397316058113635,0.010986327000000351,9631.0,0.0,-165.0,0.0,0.0,0.0,3.511962531,4.401758689006861,0.0012207029999995456,-17598.0,0.0,-345.0,0.0,0.0,0.0,3.085937184,0.5515167311543325,0.0,2.1500000953674316,0.6299999952316284,62.150001525878906,-0.06915283203125,0.05902099609375,1.31219482421875,28.280000686645508,0.0,-30.0,-1.7518157958984375,-0.1153564453125,Waiting,0.0,0.0,-114.0,0.0,0.0,0.0,0.0,0.0,
3.067848,0.0,0.0,false,4470707.312101911,,-1185.0,0.0,-52.5,0.0,0.0,0.0,2.473144278,0.5533560492066895,-0.009765623999999917,-25332.0,0.0,-180.0,0.0,0.0,0.0,2.14843728,4.397316058113635,0.003662108999999525,9631.0,0.0,-127.5,0.0,0.0,0.0,3.513183234,4.401758689006861,0.0,-17618.0,0.0,-247.5,0.0,0.0,0.0,3.083495778,0.5515167311543325,0.0,2.069999933242798,0.6600000262260437,62.220001220703125,-0.044921875,-0.0179443359375,0.7359619140625,28.280000686645508,0.0,-64.0,-1.7528076171875,-0.11505126953125,Waiting,0.0,0.0,-114.0,0.0,0.0,0.0,0.0,0.0,
3.1014619999999997,0.0,0.0,false,4467599.415873016,,-1187.0,0.0,0.0,0.0,0.0,0.0,2.469482169,0.5533560492066895,-0.006103515000000392,-25349.0,0.0,-82.5,0.0,0.0,0.0,2.143554468,4.397316058113635,0.0,9615.0,0.0,-75.0,0.0,0.0,0.0,3.511962531,4.401758689006861,-0.0012207029999995456,-17618.0,0.0,-90.0,0.0,0.0,0.0,3.087157887,0.5515167311543325,0.0,2.009999990463257,0.5400000214576721,62.060001373291016,-0.05780029296875,0.01385498046875,1.01318359375,28.280000686645508,0.0,-50.0,-1.754852294921875,-0.1142578125,Waiting,0.0,0.0,-114.0,0.0,0.0,0.0,0.0,0.0,
3.1435619999999997,0.0,0.0,false,4464310.886075949,,-1187.0,0.0,0.0,0.0,0.0,0.0,2.469482169,0.5533560492066895,-0.003662108999999525,-25349.0,0.0,-15.0,0.0,0.0,0.0,2.143554468,4.397316058113635,-0.003662108999999525,9615.0,0.0,-7.5,0.0,0.0,0.0,3.513183234,4.401758689006861,0.0,-17618.0,0.0,-7.5,0.0,0.0,0.0,3.085937184,0.5515167311543325,0.0,1.9299999475479126,0.550000011920929,61.810001373291016,0.0157470703125,0.02459716796875,0.8677978515625,28.270000457763672,0.0,0.0,-1.7574462890625,-0.1133880615234375,Waiting,0.0,0.0,-114.0,0.0,0.0,0.0,0.0,0.0,
3.1918240000000004,0.0,0.0,false,4467106.952681388,,-1187.0,0.0,0.0,0.0,0.0,0.0,2.468261466,0.5533560492066895,-0.003662108999999525,-25349.0,0.0,0.0,0.0,0.0,0.0,2.143554468,4.397316058113635,-0.003662108999999525,9615.0,0.0,0.0,0.0,0.0,0.0,3.511962531,4.401758689006861,0.0,-17618.0,0.0,0.0,0.0,0.0,0.0,3.085937184,0.5515167311543325,0.0,1.9700000286102295,0.5699999928474426,61.560001373291016,0.05487060546875,0.05859375,0.974365234375,28.270000457763672,0.0,43.0,-1.7599334716796875,-0.1131439208984375,Waiting,0.0,0.0,-114.0,0.0,0.0,0.0,0.0,0.0,
3.2331010000000004,0.0,0.0,false,4469727.018867925,,-1187.0,0.0,0.0,0.0,0.0,0.0,2.468261466,0.5533560492066895,0.0,-25349.0,0.0,0.0,0.0,0.0,0.0,2.144775171,4.397316058113635,-0.0012207030000004337,9615.0,0.0,0.0,0.0,0.0,0.0,3.508300422,4.401758689006861,0.0012207029999995456,-17618.0,0.0,0.0,0.0,0.0,0.0,3.085937184,0.5515167311543325,0.0,2.0,0.6100000143051147,61.43000030517578,0.02001953125,0.03240966796875,1.00518798828125,28.270000457763672,0.0,1.0,-1.76141357421875,-0.1132659912109375,Waiting,0.0,0.0,-114.0,0.0,0.0,0.0,0.0,0.0,
3.272155999999999,0.0,0.0,false,4471999.523510972,,-1187.0,0.0,0.0,0.0,0.0,0.0,2.469482169,0.5533560492066895,0.0,-25349.0,0.0,0.0,0.0,0.0,0.0,2.144775171,4.397316058113635,0.0,9615.0,0.0,0.0,0.0,0.0,0.0,3.511962531,4.401758689006861,-0.0012207029999995456,-17618.0,0.0,15.0,0.0,0.0,0.0,3.084716481,0.5515167311543325,0.0,1.9800000190734863,0.5899999737739563,61.34000015258789,-0.023681640625,0.00140380859375,0.98846435546875,28.270000457763672,0.0,-45.0,-1.76385498046875,-0.1132659912109375,Waiting,0.0,0.0,-114.0,0.0,0.0,0.0,0.0,0.0,
3.314027,0.0,0.0,false,4474142.35,,-1188.0,0.0,0.0,-357.16537177562714,0.0,1.125,2.449950921,4.963999999999999,0.0,-25349.0,0.125,0.0,357.16537177562714,0.0,1.0,2.147216577,4.948999999999997,0.0,9614.0,0.0,0.0,-357.16537177562714,0.0,0.375,3.5253902640000003,2.346685808637024E-15,0.0,-17614.0,0.0,22.5,357.16537177562714,0.0,0.0,3.074950857,2.343606790115397E-15,0.0,1.9299999475479126,0.5199999809265137,61.31999969482422,-0.011962890625,0.006103515625,1.09716796875,28.270000457763672,0.0,-37.0,-1.7667694091796875,-0.1132659912109375,Waiting,0.0,0.0,-114.0,0.0,0.0,0.0,0.0,0.0,
3.350628000000001,0.0,0.0,false,4476058.093457944,,-1188.0,0.125,-15.0,-456.37796044349665,0.0,3.375,2.280273204,4.963999999999999,0.0,-25349.0,0.625,0.0,456.37796044349665,0.0,2.0,2.2155759450000003,4.948999999999997,0.0,9614.0,0.125,-30.0,-456.37796044349665,0.0,1.625,3.6376949400000003,2.346685808637024E-15,0.0,-17614.0,0.25,30.0,456.37796044349665,0.0,0.375,3.092040699,2.343606790115397E-15,0.0,1.8899999856948853,0.5199999809265137,61.349998474121094,0.03729248046875,0.03521728515625,0.90936279296875,28.270000457763672,0.0,18.0,-1.76885986328125,-0.11328125,Waiting,0.0,0.0,-114.0,0.0,0.0,0.0,0.0,0.0,
3.389414999999999,0.0,0.0,false,4477846.782608695,,-1188.0,0.25,-45.0,-496.06298089027405,0.0,2.375,2.1203611110000002,4.963999999999999,-0.18066404400000025,-25349.0,1.0,0.0,496.06298089027405,0.0,1.125,2.390136474,4.948999999999997,0.11474608199999992,9614.0,1.0,-82.5,-496.06298089027405,0.0,0.125,3.811034766,2.346685808637024E-15,0.0,-17614.0,0.75,75.0,496.06298089027405,0.0,2.25,2.993163756,2.343606790115397E-15,0.0,1.8600000143051147,0.46000000834465027,61.41999816894531,-0.1326904296875,-0.12274169921875,1.043212890625,28.270000457763672,0.0,-205.0,-1.76904296875,-0.11328125,Waiting,0.0,0.0,-114.0,0.0,0.0,0.0,0.0,0.0,
3.434610999999999,0.0,0.0,false,4479403.616099071,,-1205.0,1.0,-97.5,-535.7480388879776,0.0,0.375,1.9458005820000002,4.963999999999999,-0.2038574010000005,-25349.0,1.75,0.0,535.7480388879776,0.0,0.25,2.565917706,4.948999999999997,0.21118161900000043,9590.0,1.5,-105.0,-535.7480388879776,0.0,0.125,3.9550777200000002,2.346685808637024E-15,0.18066404400000025,-17596.0,1.25,120.0,535.7480388879776,0.0,0.375,2.834472366,2.343606790115397E-15,0.0,1.8200000524520874,0.33000001311302185,61.599998474121094,-0.0614013671875,0.0721435546875,0.96759033203125,28.270000457763672,0.0,4.0,-1.7699432373046875,-0.1130828857421875,Waiting,0.0,0.0,-114.0,0.0,0.0,0.0,0.0,0.0,
3.475125,0.0,0.0,false,4480739.086419753,,-1205.0,1.5,-105.0,-734.173253774643,0.0,0.25,1.8469236390000001,4.963999999999999,-0.12573240899999938,-25349.0,2.75,0.0,734.173253774643,0.0,0.375,2.700195036,4.948999999999997,0.14648435999999965,9590.0,2.0,-135.0,-734.173253774643,0.0,0.0,4.047851148,2.346685808637024E-15,0.13061522099999934,-17596.0,2.25,90.0,734.173253774643,0.0,0.0,2.6953122240000003,2.343606790115397E-15,-0.16113279599999997,1.850000023841858,0.1899999976158142,61.880001068115234,-0.060546875,0.00128173828125,0.9146728515625,28.270000457763672,0.0,-55.0,-1.7710418701171875,-0.111968994140625,Waiting,0.0,0.0,-114.0,0.0,0.0,0.0,0.0,0.0,
3.5104850000000005,0.0,0.0,false,4481952.467692308,,-1205.0,3.75,-97.5,-1111.1810982227325,0.0,0.125,1.8176267670000001,4.963999999999999,0.0,-25349.0,5.5,0.0,1111.1810982227325,0.0,0.25,2.7429196410000003,4.948999999999997,0.0,9590.0,4.75,-165.0,-1111.1810982227325,0.0,0.0,4.086913644,2.346685808637024E-15,0.0,-17596.0,3.125,75.0,1111.1810982227325,0.0,0.0,2.611083717,2.343606790115397E-15,0.0,1.8600000143051147,-0.10999999940395355,62.04999923706055,-0.0870361328125,0.05914306640625,1.09149169921875,28.270000457763672,0.0,-18.0,-1.772216796875,-0.110565185546875,Waiting,0.0,0.0,-114.0,0.0,0.0,0.0,0.0,0.0,
3.5489189999999997,0.0,0.0,false,4482939.828220859,,-1240.0,7.875,-157.5,-1210.3937244415283,0.0,0.0,1.8115232520000002,4.963999999999999,0.0,-25323.0,14.875,135.0,1210.3937244415283,0.0,0.0,2.75878878,4.948999999999997,0.0,9542.0,11.5,-270.0,-1210.3937244415283,0.0,0.0,4.097899971,2.346685808637024E-15,0.0,-17570.0,9.0,135.0,1210.3937244415283,0.0,0.0,2.5842282510000003,2.343606790115397E-15,0.0,1.7999999523162842,-0.6299999952316284,62.11000061035156,-0.333984375,-0.020263671875,1.24005126953125,28.270000457763672,0.0,-202.0,-1.775360107421875,-0.1067047119140625,Waiting,0.0,0.0,-114.0,0.0,0.0,0.0,0.0,0.0,
3.5958469999999996,0.0,0.0,false,4483798.801223242,,-1240.0,10.375,-240.0,-1230.236234664917,0.0,0.0,1.8103025490000002,4.963999999999999,0.0,-25323.0,16.5,210.0,1230.236234664917,0.0,0.0,2.753905968,4.948999999999997,0.0,9542.0,12.375,-345.0,-1230.236234664917,0.0,0.0,4.096679268,2.346685808637024E-15,0.0,-17570.0,11.0,277.5,1230.236234664917,0.0,0.0,2.564697003,2.343606790115397E-15,0.0,1.7300000190734863,-1.149999976158142,61.900001525878906,-0.4239501953125,-0.0068359375,0.91668701171875,28.270000457763672,0.0,-221.0,-1.780670166015625,-0.10015869140625,Waiting,0.0,0.0,-114.0,0.0,0.0,0.0,0.0,0.0,
3.6462430000000006,0.0,0.0,false,4484434.926829268,,-1240.0,11.5,-337.5,-1230.236234664917,0.0,0.0,1.798095519,4.963999999999999,0.0012207030000004337,-25323.0,16.0,487.5,1230.236234664917,0.0,0.0,2.7392575320000003,4.948999999999997,0.0,9542.0,11.75,-622.5,-1230.236234664917,0.0,0.0,4.102782783,2.346685808637024E-15,0.0,-17570.0,11.125,465.0,1230.236234664917,0.0,0.0,2.5634763,2.343606790115397E-15,0.0,1.7599999904632568,-1.7400000095367432,61.619998931884766,-0.28814697265625,0.05999755859375,1.00067138671875,28.290000915527344,0.0,-96.0,-1.78765869140625,-0.0902557373046875,Waiting,0.0,0.0,-114.0,0.0,0.0,0.0,0.0,0.0,
3.686564,0.0,0.0,false,4484962.917933131,,-1330.0,11.625,-465.0,-1230.236234664917,0.0,0.0,1.8115232520000002,4.963999999999999,0.0,-25213.0,15.625,577.5,1230.236234664917,0.0,0.0,2.7453610470000003,4.948999999999997,-0.009765623999999917,9419.0,10.0,-757.5,-1230.236234664917,0.0,0.0,4.084472238,2.346685808637024E-15,0.0,-17462.0,9.875,652.5,1230.236234664917,0.0,0.0,2.559814191,2.343606790115397E-15,0.0,1.809999942779541,-2.1700000762939453,61.40999984741211,-0.30419921875,-0.044677734375,0.88519287109375,28.290000915527344,0.0,-193.0,-1.796142578125,-0.077392578125,Waiting,0.0,0.0,-114.0,0.0,0.0,0.0,0.0,0.0,
3.72834,0.0,0.0,false,4485271.612121212,,-1330.0,10.875,-637.5,-1230.236234664917,0.0,0.0,1.8115232520000002,4.963999999999999,-0.0012207030000004337,-25213.0,13.25,757.5,1230.236234664917,0.0,0.0,2.733154017,4.948999999999997,-0.004882812000000403,9419.0,8.875,-855.0,-1230.236234664917,0.0,0.0,4.082030832,2.346685808637024E-15,0.0,-17462.0,8.625,810.0,1230.236234664917,0.0,0.0,2.557372785,2.343606790115397E-15,0.0,1.8899999856948853,-2.4600000381469727,61.310001373291016,-0.20953369140625,0.01165771484375,1.02337646484375,28.290000915527344,0.0,-98.0,-1.802581787109375,-0.067596435546875,Waiting,0.0,0.0,-114.0,0.0,0.0,0.0,0.0,0.0,
3.76566,0.0,0.0,false,4485363.166163142,,-1330.0,9.5,-802.5,-1250.0787448883057,0.0,0.0,1.8115232520000002,4.963999999999999,0.0,-25213.0,11.0,892.5,1250.0787448883057,0.0,0.0,2.73437472,4.948999999999997,0.0,9419.0,8.5,-907.5,-1250.0787448883057,0.0,0.0,4.082030832,2.346685808637024E-15,0.0,-17462.0,7.5,937.5,1250.0787448883057,0.0,0.0,2.561034894,2.343606790115397E-15,0.0,1.909999966621399,-2.700000047683716,61.150001525878906,-0.148193359375,-0.01708984375,1.10931396484375,28.290000915527344,0.0,-93.0,-1.8128662109375,-0.0514984130859375,Waiting,0.0,0.0,-114.0,0.0,0.0,0.0,0.0,0.0,
3.7980020000000003,0.0,0.0,false,4485350.843373494,,-1491.0,8.875,-945.0,-1250.0787448883057,0.0,0.0,1.80664044,4.963999999999999,0.0,-25044.0,9.25,1005.0,1250.0787448883057,0.0,0.0,2.729491908,4.948999999999997,0.0,9249.0,7.625,-1012.5,-1250.0787448883057,0.0,0.0,4.082030832,2.346685808637024E-15,0.0,-17295.0,7.125,990.0,1250.0787448883057,0.0,0.0,2.559814191,2.343606790115397E-15,0.0,1.809999942779541,-2.8499999046325684,61.040000915527344,-0.07470703125,0.0123291015625,0.89764404296875,28.290000915527344,0.0,-28.0,-1.8204498291015625,-0.0345916748046875,Waiting,0.0,0.0,-114.0,0.0,0.0,0.0,0.0,0.0,
3.840677,0.0,0.0,false,4485124.228228228,,-1491.0,7.875,-1057.5,-1250.0787448883057,0.0,0.0,1.799316222,4.963999999999999,-0.0012207029999995456,-25044.0,7.875,1102.5,1250.0787448883057,0.0,0.0,2.729491908,4.948999999999997,-0.004882811999999959,9249.0,6.5,-1095.0,-1250.0787448883057,0.0,0.0,4.0759273170000005,2.346685808637024E-15,0.0,-17295.0,6.25,1095.0,1250.0787448883057,0.0,0.0,2.559814191,2.343606790115397E-15,0.0,1.9199999570846558,-3.0299999713897705,60.849998474121094,-0.15576171875,-0.04742431640625,1.1619873046875,28.290000915527344,0.0,-121.0,-1.832305908203125,-0.02264404296875,Waiting,0.0,0.0,-114.0,0.0,0.0,0.0,0.0,0.0,
3.8815949999999995,0.0,0.0,false,4484788.16766467,,-1491.0,7.375,-1102.5,-1250.0787448883057,0.0,0.0,1.8127439550000002,4.963999999999999,0.0024414059999999793,-25044.0,6.5,1185.0,1250.0787448883057,0.0,0.0,2.729491908,4.948999999999997,0.0,9249.0,5.75,-1162.5,-1250.0787448883057,0.0,0.0,4.0783687230000005,2.346685808637024E-15,-0.004882811999999959,-17295.0,5.0,1170.0,1250.0787448883057,0.0,0.0,2.558593488,2.343606790115397E-15,0.0,1.8600000143051147,-3.119999885559082,60.66999816894531,-0.001708984375,0.0350341796875,1.07147216796875,28.290000915527344,0.0,27.0,-1.844573974609375,-0.00469970703125,Waiting,0.0,0.0,-114.0,0.0,0.0,0.0,0.0,0.0,
3.9144930000000002,0.0,0.0,false,4484249.313432836,,-1686.0,6.5,-1170.0,-1250.0787448883057,0.0,0.0,1.807861143,4.963999999999999,0.0,-24841.0,6.0,1230.0,1250.0787448883057,0.0,0.0,2.729491908,4.948999999999997,0.0,9055.0,5.25,-1200.0,-1250.0787448883057,0.0,0.0,4.07714802,2.346685808637024E-15,0.0,-17094.0,4.125,1230.0,1250.0787448883057,0.0,0.0,2.559814191,2.343606790115397E-15,0.0,1.8799999952316284,-3.240000009536743,60.529998779296875,-0.031494140625,-0.0130615234375,1.18212890625,28.290000915527344,0.0,-27.0,-1.852783203125,0.0072174072265625,Waiting,0.0,0.0,-114.0,0.0,0.0,0.0,0.0,0.0,
3.9541880000000003,0.0,0.0,false,4483501.428571428,,-1686.0,5.625,-1222.5,-1434.854314869869,0.0,0.0,1.807861143,0.08230340986084286,0.0,-24841.0,4.875,1282.5,1083.4055960283347,0.0,0.0,2.729491908,0.10882205805587232,0.0,9055.0,5.5,-1230.0,-1434.854314869869,0.0,0.0,4.0783687230000005,4.871862390723083,0.0,-17094.0,3.0,1282.5,1083.4055960283347,0.0,0.0,2.559814191,4.838710924988598,0.0,1.8600000143051147,-3.1700000762939453,60.310001373291016,-0.020263671875,0.01483154296875,1.1763916015625,28.290000915527344,0.0,1.0,-1.8653106689453125,0.0249786376953125,Waiting,0.0,0.0,-114.0,0.0,0.0,0.0,0.0,0.0,
3.9928850000000002,0.0,0.0,false,4482648.3323442135,,-1686.0,6.75,-1267.5,-1546.0984481898759,0.0,0.0,1.8164060640000002,0.12027523381119833,0.0,-24841.0,3.375,1282.5,999.8222019365363,0.0,0.0,2.727050502,0.18644932576311207,-0.004882811999999959,9055.0,5.625,-1252.5,-1546.0984481898759,0.0,0.0,4.039306227,4.833967061180363,0.0,-17094.0,2.5,1297.5,999.8222019365363,0.0,0.0,2.546386458,4.76110718544898,0.0,1.7799999713897705,-3.0999999046325684,60.25,-0.121826171875,0.008056640625,0.84130859375,28.290000915527344,0.0,-53.0,-1.8741302490234375,0.0365447998046875,Waiting,0.0,0.0,-114.0,0.0,0.0,0.0,0.0,0.0,
4.030777,0.0,0.0,false,4481597.254437869,,-1686.0,8.25,-1312.5,-1617.2356486822448,0.0,0.0,1.8115232520000002,0.14132561935512314,0.0012207030000004337,-24841.0,2.125,1245.0,953.199749144555,0.0,0.0,2.7478024530000003,0.2415494237733749,0.004882811999999959,8836.0,7.125,-1320.0,-1617.2356486822448,0.0,0.0,4.045409742,4.81295908173141,-0.01831054500000029,-16892.0,1.25,1297.5,953.199749144555,0.0,0.0,2.504882556,4.706023787811927,-0.019531247999999835,1.7400000095367432,-3.2300000190734863,60.25,0.08648681640625,0.1492919921875,1.05224609375,28.290000915527344,0.0,174.0,-1.883148193359375,0.0481719970703125,Waiting,0.0,0.0,-114.0,0.0,0.0,0.0,0.0,0.0,
4.069497999999999,0.0,0.0,false,4480443.0206489675,,-1902.0,9.125,-1365.0,-1631.5936365844864,0.0,0.0,1.8115232520000002,0.14531463265864744,0.0,-24642.0,1.25,1230.0,944.4677634269208,0.0,0.0,2.7893063550000003,0.25320622588684283,0.0,8836.0,7.875,-1395.0,-1631.5936365844864,0.0,0.0,3.9929195130000004,4.808978104312865,0.0,-16892.0,1.25,1222.5,944.4677634269208,0.0,0.0,2.45361303,4.6943705187764895,0.0,1.809999942779541,-3.140000104904175,60.310001373291016,-2.44140625E-4,0.1246337890625,0.87408447265625,28.290000915527344,0.0,107.0,-1.895660400390625,0.0598297119140625,Waiting,0.0,0.0,-114.0,0.0,0.0,0.0,0.0,0.0,
4.107304,0.0,0.0,false,4479093.788235294,,-1902.0,9.375,-1432.5,-1689.4238366659943,0.0,0.0,1.8115232520000002,0.1605897861623564,0.0,-24642.0,1.0,1215.0,911.7050579580485,0.0,0.0,2.8564450200000002,0.3019850086160343,0.0,8836.0,7.75,-1455.0,-1689.4238366659943,0.0,0.0,3.961181235,4.793733722673587,0.0,-16892.0,1.0,1125.0,911.7050579580485,0.0,0.0,2.386474365,4.645606520483364,0.0,1.9299999475479126,-2.9700000286102295,60.7400016784668,0.09014892578125,0.04461669921875,0.836181640625,28.290000915527344,0.0,79.0,-1.9072265625,0.0598907470703125,Waiting,0.0,0.0,-114.0,0.0,0.0,0.0,0.0,0.0,
4.1463410000000005,0.0,0.0,false,4477643.941348974,,-1902.0,9.625,-1455.0,-1703.9758670137596,0.0,0.125,1.850585748,0.16424614188689032,0.007324217999999938,-24642.0,0.875,1192.5,904.0851237496577,0.0,0.0,2.9028317340000003,0.3147168099686875,0.0,8836.0,7.5,-1515.0,-1703.9758670137596,0.0,0.0,3.9355464720000004,4.790084732693865,0.0,-16703.0,0.5,1132.5,904.0851237496577,0.0,0.0,2.34374976,4.632878578031909,0.0,1.9600000381469727,-2.9100000858306885,61.2400016784668,-0.06744384765625,0.26324462890625,1.02337646484375,28.290000915527344,0.0,192.0,-1.9142913818359375,0.0595855712890625,Waiting,0.0,0.0,-114.0,0.0,0.0,0.0,0.0,0.0,
4.185567999999999,0.0,0.0,false,4475994.222222222,,-2146.0,9.75,-1507.5,-1703.9758670137596,0.0,0.125,1.8896482440000002,0.16424614188689032,0.04516601100000006,-24463.0,1.0,1117.5,904.0851237496577,0.0,0.0,2.937011418,0.3147168099686875,0.052490229,8586.0,7.5,-1545.0,-1703.9758670137596,0.0,0.0,3.93066366,4.790084732693865,-0.02075195099999938,-16703.0,0.375,1185.0,904.0851237496577,0.0,0.0,2.308349373,4.632878578031909,-0.043945308000000516,2.009999990463257,-2.869999885559082,62.349998474121094,0.02520751953125,0.0865478515625,1.2493896484375,28.290000915527344,0.0,78.0,-1.9240570068359375,0.0588226318359375,Waiting,0.0,0.0,-114.0,0.0,0.0,0.0,0.0,0.0,
4.214707000000001,0.0,0.0,false,4474254.110787172,,-2146.0,9.125,-1560.0,-1718.5637757754332,0.0,0.125,1.933593552,0.167840500072467,0.0,-24463.0,1.25,1042.5,896.7053863096581,0.0,0.0,2.977294617,0.32766160200546357,0.0,8586.0,7.25,-1597.5,-1718.5637757754332,0.0,0.0,3.922118739,4.786497615358783,0.0,-16703.0,0.375,1267.5,896.7053863096581,0.0,0.0,2.280273204,4.619937709452004,0.0,1.9299999475479126,-2.690000057220459,63.34000015258789,-0.08380126953125,-0.0994873046875,0.46136474609375,28.290000915527344,0.0,-130.0,-1.92999267578125,0.0582275390625,Waiting,0.0,0.0,-114.0,0.0,0.0,0.0,0.0,0.0,
4.257211999999999,0.0,0.0,false,4472316.604651162,,-2146.0,8.75,-1612.5,-1718.5637757754332,0.0,0.125,1.9494626910000001,0.167840500072467,0.0,-24463.0,1.5,1020.0,896.7053863096581,0.0,0.0,2.991943053,0.32766160200546357,0.0,8586.0,6.25,-1650.0,-1718.5637757754332,0.0,0.0,3.91845663,4.786497615358783,0.0,-16703.0,0.25,1200.0,896.7053863096581,0.0,0.0,2.255859144,4.619937709452004,0.0,2.069999933242798,-2.819999933242798,65.18000030517578,-0.029052734375,0.24749755859375,1.585205078125,28.290000915527344,0.0,192.0,-1.9387359619140625,0.05670166015625,Waiting,0.0,0.0,-114.0,0.0,0.0,0.0,0.0,0.0,
4.2957790000000005,0.0,0.0,false,4470186.991304348,,-2411.0,8.625,-1642.5,-1718.5637757754332,0.0,0.0,1.962890424,0.167840500072467,0.01586913900000031,-24301.0,1.625,1020.0,896.7053863096581,0.0,0.0,2.9956051620000004,0.32766160200546357,0.014648435999999876,8313.0,5.75,-1710.0,-1718.5637757754332,0.0,0.0,3.920898036,4.786497615358783,0.0,-16531.0,0.375,1057.5,896.7053863096581,0.0,0.0,2.257079847,4.619937709452004,0.0,1.9199999570846558,-2.6700000762939453,67.36000061035156,-0.10235595703125,0.01605224609375,1.10614013671875,28.290000915527344,0.0,-39.0,-1.94677734375,0.0547943115234375,Waiting,0.0,0.0,-114.0,0.0,0.0,0.0,0.0,0.0,
4.332961999999999,0.0,0.0,false,4467863.583815029,,-2411.0,7.875,-1672.5,-1718.5637757754332,0.0,0.0,1.955566206,0.167840500072467,0.0012207029999995456,-24301.0,1.5,1005.0,896.7053863096581,0.0,0.0,3.0065914890000003,0.32766160200546357,0.003662109000000413,8313.0,5.125,-1740.0,-1718.5637757754332,0.0,0.0,3.922118739,4.786497615358783,0.0012207029999995456,-16531.0,0.75,952.5,896.7053863096581,0.0,0.0,2.257079847,4.619937709452004,-0.009765624000000805,1.9600000381469727,-2.680000066757202,68.91999816894531,0.0689697265625,0.07379150390625,1.28680419921875,28.290000915527344,0.0,74.0,-1.951629638671875,0.053466796875,Waiting,0.0,0.0,-114.0,0.0,0.0,0.0,0.0,0.0,
4.373383,0.0,0.0,false,4465447.0778097985,,-2411.0,7.625,-1702.5,-1718.5637757754332,0.0,0.0,1.9689939390000002,0.167840500072467,0.0012207030000004337,-24301.0,1.25,997.5,896.7053863096581,0.0,0.0,3.0017086770000003,0.32766160200546357,0.004882811999999959,8313.0,4.5,-1762.5,-1718.5637757754332,0.0,0.0,3.922118739,4.786497615358783,-0.0024414059999999793,-16531.0,0.75,930.0,896.7053863096581,0.0,0.0,2.255859144,4.619937709452004,0.0,1.940000057220459,-2.5,70.5,0.00506591796875,0.094482421875,0.6995849609375,28.290000915527344,0.0,78.0,-1.9559783935546875,0.0518646240234375,Waiting,0.0,0.0,-114.0,0.0,0.0,0.0,0.0,0.0,
4.409860999999999,0.0,0.0,false,4462847.310344827,,-2683.0,7.625,-1717.5,-1718.5637757754332,0.0,0.0,1.956786909,0.167840500072467,0.0,-24140.0,1.25,1005.0,896.7053863096581,0.0,0.0,3.0004879740000003,0.32766160200546357,0.0,8033.0,4.25,-1755.0,-1718.5637757754332,0.0,0.0,3.925780848,4.786497615358783,0.0,-16375.0,0.75,960.0,896.7053863096581,0.0,0.0,2.255859144,4.619937709452004,0.0,1.899999976158142,-2.4700000286102295,72.8499984741211,0.0677490234375,0.01300048828125,0.809814453125,28.290000915527344,0.0,16.0,-1.9616546630859375,0.04925537109375,Waiting,0.0,0.0,-114.0,0.0,0.0,0.0,0.0,0.0,
