Time,ClimberA1,ClimberA2,CameraExists,HeapSpace,LoopTime,FRpos,FRCurrent,FRspeed,FRsetpoint,FRApos,FRACurrent,FREncpos,FREncSetpoint,FREncSpeed,FLpos,FLCurrent,FLspeed,FLsetpoint,FLApos,FLACurrent,FLEncpos,FLEncSetpoint,FLEncSpeed,BRpos,BRCurrent,BRspeed,BRsetpoint,BRApos,BRACurrent,BREncpos,BREncSetpoint,BREncSpeed,BLpos,BLCurrent,BLspeed,BLsetpoint,BLApos,BLACurrent,BLEncpos,BLEncSetpoint,BLEncSpeed,navx_Pitch,navx_Roll,navx_Yaw,navx_XAcc,navx_YAcc,navx_ZAcc,navx_Temp,navx_Bar,navx_Alt,navx_XDis,navx_YDis,GearPlacerState,ShootOutputV,ShootOutputCurrent,ShootEncPos,ShootEncVelocity,ShootSpeed,ShootSetpoint,CarouselSetpoint,CarouselCurrent,
0.4567039999999997,0.0,0.0,false,4394550.16,,-9271.0,0.0,0.0,0.0,0.0,0.0,1.910400195,0.0,0.0,-43428.0,0.0,0.0,0.0,0.0,0.0,2.6843258970000003,0.0,0.0,13707.0,0.0,0.0,0.0,0.0,0.0,3.9941402160000004,0.0,0.0,-28623.0,0.0,0.0,0.0,0.0,0.0,2.603759499,0.0,0.0,1.159999966621399,0.09000000357627869,79.80999755859375,0.00238037109375,0.020751953125,1.0009765625,30.770000457763672,0.0,0.0,-1.12542724609375,-0.6932525634765625,Waiting,0.0,0.0,-114.0,0.0,0.0,0.0,0.0,0.0,
0.5069329999999991,0.0,0.0,false,4396118.403990025,,-9271.0,1.75,0.0,1260.0,0.0,0.125,1.907958789,0.0,0.0012207030000004337,-43428.0,0.0,0.0,-1260.0,0.0,0.0,2.6855466000000003,0.0,0.0,13707.0,0.0,0.0,1260.0,0.0,0.0,3.9916988100000004,-0.0,0.0012207029999995456,-28623.0,0.0,0.0,-1260.0,0.0,0.0,2.60009739,-0.0,0.0024414059999999793,1.159999966621399,0.09000000357627869,79.80999755859375,0.00408935546875,0.02227783203125,1.00567626953125,30.770000457763672,0.0,2.0,-1.12542724609375,-0.6932525634765625,Waiting,0.0,0.0,-114.0,0.0,0.0,0.0,0.0,0.0,
0.536143,0.0,0.0,false,4397591.92039801,,-9271.0,3.375,30.0,1260.0,0.0,0.125,1.8933103530000002,0.0,-0.0012207030000004337,-43428.0,3.0,0.0,-1260.0,0.0,0.0,2.669677461,0.0,0.0,13707.0,4.0,67.5,1260.0,0.0,0.0,3.9965816220000003,-0.0,-0.0012207029999995456,-28623.0,4.75,-30.0,-1260.0,0.0,0.0,2.608642311,-0.0,-0.0012207029999999897,1.2200000286102295,0.17000000178813934,79.81999969482422,0.38323974609375,-0.02142333984375,1.07293701171875,30.770000457763672,0.0,23.0,-1.125335693359375,-0.6935882568359375,Waiting,0.0,0.0,-114.0,0.0,0.0,0.0,0.0,0.0,
0.5727609999999986,0.0,0.0,false,4398890.342431761,,-9271.0,8.125,195.0,1260.0,0.0,0.0,1.8969724620000001,2.758366902669271E-4,-0.0012207030000004337,-43428.0,9.625,-60.0,-1260.0,0.0,0.0,2.680663788,2.75003178914388E-4,0.0,13707.0,5.625,180.0,1260.0,0.0,0.0,3.9953609190000003,2.7528101603190106E-4,-0.0012207029999995456,-28623.0,7.625,-60.0,-1260.0,0.0,0.0,2.608642311,2.749198277791341E-4,0.0,1.2100000381469727,0.8600000143051147,79.77999877929688,0.15875244140625,0.14947509765625,1.07904052734375,30.770000457763672,0.0,149.0,-1.125,-0.695953369140625,Waiting,0.0,0.0,-114.0,0.0,0.0,0.0,0.0,0.0,
0.6129279999999999,0.0,0.0,false,4400101.504950495,,-9271.0,9.75,307.5,1260.0,0.0,0.0,1.937255661,4.963586350165474,-0.007324217999999938,-43428.0,12.25,-157.5,-1260.0,0.0,0.0,2.681884491,4.94858760011461,0.0,13790.0,6.875,465.0,1260.0,0.0,0.0,4.000243731,4.953587183464898,0.006103514999999504,-28657.0,10.375,-135.0,-1260.0,0.0,0.0,2.607421608,4.947087725109524,0.0,1.059999942779541,1.2300000190734863,79.75,0.211181640625,0.02008056640625,0.95880126953125,30.770000457763672,0.0,36.0,-1.1243133544921875,-0.6985321044921875,Waiting,0.0,0.0,-114.0,0.0,0.0,0.0,0.0,0.0,
0.6458589999999985,0.0,0.0,false,4401139.772839506,,-9210.0,9.375,330.0,1260.0000000000002,0.0,0.0,1.8933103530000002,4.963172700330947,-0.004882811999999959,-43466.0,12.125,-277.5,-1260.0000000000002,0.0,0.0,2.680663788,4.948175200229221,-0.0012207029999995456,13790.0,7.875,547.5,1260.0000000000002,0.0,0.0,3.9990230280000003,4.953174366929796,0.0,-28657.0,12.0,-232.5,-1260.0000000000002,0.0,0.0,2.608642311,4.946675450219049,0.0012207029999999897,1.1799999475479126,1.4800000190734863,79.66999816894531,0.26678466796875,-0.09808349609375,1.15087890625,30.770000457763672,0.0,-77.0,-1.1230316162109375,-0.7025146484375,Waiting,0.0,0.0,-114.0,0.0,0.0,0.0,0.0,0.0,
0.681208999999999,0.0,0.0,false,4402006.384236453,,-9210.0,10.375,360.0,1260.0,0.0,0.0,1.8933103530000002,4.961655914137099,-0.004882811999999959,-43466.0,12.625,-352.5,-1260.0,0.0,0.0,2.681884491,4.946662997394138,0.0,13790.0,7.75,465.0,1260.0,0.0,0.0,3.9990230280000003,4.951660636308458,0.0,-28657.0,12.25,-367.5,-1260.0,0.0,0.0,2.609863014,4.945163705719842,-0.0024414059999999793,1.2400000095367432,2.0,79.66000366210938,0.3026123046875,-0.0869140625,1.02789306640625,30.770000457763672,0.0,-59.0,-1.1203460693359375,-0.7113189697265625,Waiting,0.0,0.0,-114.0,0.0,0.0,0.0,0.0,0.0,
0.7221009999999988,0.0,0.0,false,4402782.879606879,,-9210.0,11.125,510.0,1260.0,0.0,0.0,1.883544729,4.961931750827366,0.0,-43466.0,12.0,-547.5,-1260.0,0.0,0.0,2.674560273,4.946938000573052,0.0,13790.0,9.125,472.5,1260.0,0.0,0.0,3.9978023250000003,4.95193591732449,0.0,-28657.0,11.875,-450.0,-1260.0,0.0,0.0,2.603759499,4.945438625547621,-0.0024414059999999793,1.2300000190734863,2.3399999141693115,79.7300033569336,0.25787353515625,-0.08660888671875,0.77777099609375,30.770000457763672,0.0,-61.0,-1.1180877685546875,-0.7188720703125,Waiting,0.0,0.0,-114.0,0.0,0.0,0.0,0.0,0.0,
0.7592799999999988,0.0,0.0,false,4403395.490196078,,-9105.0,10.75,645.0,1260.0000000000002,0.0,0.0,1.884765432,4.96331061867608,-0.0012207029999995456,-43585.0,10.625,-720.0,-1260.0000000000002,0.0,0.0,2.681884491,4.948312701818677,0.0012207029999995456,13892.0,9.125,622.5,1260.0000000000002,0.0,0.0,3.9990230280000003,4.953312007437812,0.0,-28754.0,11.125,-607.5,-1260.0000000000002,0.0,0.0,2.603759499,4.9468129101329374,0.0024414059999999793,1.309999942779541,2.619999885559082,79.81999969482422,0.23248291015625,-0.113525390625,1.008056640625,30.770000457763672,0.0,-101.0,-1.1141815185546875,-0.7319488525390625,Waiting,0.0,0.0,-114.0,0.0,0.0,0.0,0.0,0.0,
0.7898499999999985,0.0,0.0,false,4403919.589242054,,-9105.0,10.375,705.0,1260.0,0.0,0.0,1.848144342,1.3791834513346356E-4,-0.003662109000000413,-43585.0,9.25,-862.5,-1260.0,0.0,0.0,2.679443085,1.37501589457194E-4,0.0,13892.0,7.875,817.5,1260.0,0.0,0.0,4.008788652,1.3764050801595053E-4,0.0,-28754.0,10.375,-742.5,-1260.0,0.0,0.0,2.608642311,1.3745991388956706E-4,0.0,1.2599999904632568,2.8299999237060547,79.87000274658203,0.24578857421875,0.114990234375,0.86334228515625,30.770000457763672,0.0,130.0,-1.1117095947265625,-0.7415924072265625,Waiting,0.0,0.0,-114.0,0.0,0.0,0.0,0.0,0.0,
0.8273369999999995,0.0,0.0,false,4404276.253658537,,-9105.0,9.625,832.5,1260.0,0.0,0.0,1.8896482440000002,8.274048699273006E-4,-0.003662109000000413,-43585.0,8.5,-922.5,-1260.0,0.0,0.0,2.6831051940000004,8.249046537611221E-4,0.0,13892.0,8.0,885.0,1260.0,0.0,0.0,3.9990230280000003,8.257380591498482E-4,0.0,-28754.0,9.875,-810.0,-1260.0,0.0,0.0,2.608642311,8.246546321445042E-4,0.0,1.2400000095367432,2.990000009536743,79.87999725341797,0.08038330078125,-0.0584716796875,0.8919677734375,30.770000457763672,0.0,-70.0,-1.1088409423828125,-0.7520904541015625,Waiting,0.0,0.0,-114.0,0.0,0.0,0.0,0.0,0.0,
0.8644779999999992,0.0,0.0,false,4404551.727493918,,-8950.0,8.75,937.5,1260.0,0.0,0.0,1.8896482440000002,9.652180141872831E-4,0.0,-43750.0,7.25,-1012.5,-1260.0,0.0,0.0,2.680663788,9.623013602362738E-4,-0.0012207029999995456,14048.0,6.875,960.0,1260.0,0.0,0.0,4.00390584,9.632735782199436E-4,0.003662109000000413,-28907.0,8.75,-915.0,-1260.0,0.0,0.0,2.609863014,9.62009694841173E-4,-0.0012207029999999897,1.2799999713897705,3.180000066757202,79.91000366210938,0.1776123046875,-0.022705078125,0.6690673828125,30.770000457763672,0.0,-12.0,-1.1042327880859375,-0.7689361572265625,Waiting,0.0,0.0,-114.0,0.0,0.0,0.0,0.0,0.0,
0.9059480000000003,0.0,0.0,false,4404661.747572816,,-8950.0,7.875,1035.0,1260.0,0.0,0.0,1.8908689470000002,0.0013789730495876737,-0.0012207029999995456,-43750.0,6.375,-1087.5,-1260.0,0.0,0.0,2.6843258970000003,0.0013748061286078558,0.0012207029999995456,14048.0,6.375,990.0,1260.0,0.0,0.0,4.002685137,0.0013761951022677951,0.0012207029999995456,-28907.0,8.0,-1005.0,-1260.0,0.0,0.0,2.609863014,0.0013743894365098742,0.0024414059999999793,1.3899999856948853,3.259999990463257,79.91999816894531,0.06817626953125,0.1005859375,1.3623046875,30.770000457763672,0.0,64.0,-1.1008453369140625,-0.78106689453125,Waiting,0.0,0.0,-114.0,0.0,0.0,0.0,0.0,0.0,
0.9377259999999987,0.0,0.0,false,4404607.554479419,,-8950.0,7.75,1072.5,1260.0,0.0,0.0,1.8884275410000002,0.001516786193847657,-0.0012207030000004337,-43750.0,5.5,-1155.0,-1260.0,0.0,0.0,2.6867673030000003,0.0015122028350830082,-0.0012207029999995456,14048.0,6.0,1065.0,1260.0,0.0,0.0,4.00390584,0.001513730621337891,-0.0012207029999995456,-28907.0,7.125,-1087.5,-1260.0,0.0,0.0,2.603759499,0.0015117444992065433,-0.0024414059999999793,1.309999942779541,3.430000066757202,79.94999694824219,0.12200927734375,-0.08966064453125,0.9193115234375,30.770000457763672,0.0,-97.0,-1.095733642578125,-0.7998199462890625,Waiting,0.0,0.0,-114.0,0.0,0.0,0.0,0.0,0.0,
0.973045,0.0,0.0,false,4404474.743961353,,-8950.0,7.0,1140.0,1260.0,0.0,0.0,1.884765432,0.0019304360283745662,-0.0012207030000004337,-43750.0,5.25,-1185.0,-1260.0,0.0,0.0,2.6867673030000003,0.0019246027204725476,-0.0012207029999995456,14231.0,5.875,1102.5,1260.0,0.0,0.0,4.00390584,0.0019265471564398871,-0.0012207029999995456,-29095.0,6.625,-1125.0,-1260.0,0.0,0.0,2.603759499,0.001924019389682346,-0.0024414059999999793,1.3300000429153442,3.509999990463257,79.98999786376953,0.093505859375,0.01959228515625,0.9881591796875,30.770000457763672,0.0,2.0,-1.092437744140625,-0.81256103515625,Waiting,0.0,0.0,-114.0,0.0,0.0,0.0,0.0,0.0,
1.0118029999999998,0.0,0.0,false,4404179.643373494,,-8762.0,6.125,1192.5,1260.0,0.0,0.0,1.8627927780000002,0.002482004208034939,0.0024414059999999793,-43945.0,4.625,-1222.5,-1260.0,0.0,0.0,2.6867673030000003,0.0024745041953192813,0.006103515000000392,14231.0,5.0,1162.5,1260.0,0.0,0.0,4.005126543,0.002477004199557834,0.0012207029999995456,-29095.0,6.0,-1192.5,-1260.0,0.0,0.0,2.603759499,0.0024737541940477153,0.0024414059999999793,1.2799999713897705,3.619999885559082,80.05000305175781,-0.09246826171875,0.16351318359375,0.76788330078125,30.770000457763672,0.0,119.0,-1.087646484375,-0.831268310546875,Waiting,0.0,0.0,-114.0,0.0,0.0,0.0,0.0,0.0,
1.046833999999999,0.0,0.0,false,4403801.961538462,,-8762.0,4.75,1282.5,1260.0,0.0,0.0,1.8908689470000002,0.00330940907796224,-0.006103515000000392,-43945.0,4.375,-1245.0,-1260.0,0.0,0.0,2.6977536300000002,0.0032994088490804034,0.0,14231.0,4.875,1200.0,1260.0,0.0,0.0,4.00390584,0.0033027422587076825,0.0,-29095.0,5.5,-1252.5,-1260.0,0.0,0.0,2.608642311,0.00329840882619222,-0.003662108999999969,1.5199999809265137,3.440000057220459,80.16999816894531,0.48602294921875,0.129150390625,0.8045654296875,30.770000457763672,0.0,180.0,-1.0841827392578125,-0.84356689453125,Waiting,0.0,0.0,-114.0,0.0,0.0,0.0,0.0,0.0,
1.0834609999999993,0.0,0.0,false,4403269.467625899,,-8762.0,4.75,1320.0,1260.0000000000002,0.0,0.0,1.881103323,0.004964008416069878,-0.006103515000000392,-43945.0,4.125,-1252.5,-1260.0000000000002,0.0,0.0,2.70996066,0.004949008390638563,-4.9306894549999996,14231.0,4.75,1200.0,1260.0000000000002,0.0,0.0,4.00390584,0.004954008399115668,0.0,-29303.0,4.75,-1282.5,-1260.0000000000002,0.0,0.0,2.608642311,0.0049475083880954306,0.0024414059999999793,1.2899999618530273,3.380000114440918,80.18000030517578,0.02740478515625,0.30499267578125,1.79168701171875,30.770000457763672,0.0,247.0,-1.0814208984375,-0.8566436767578125,Waiting,0.0,0.0,-114.0,0.0,0.0,0.0,0.0,0.0,
1.119027,0.0,0.0,false,4402655.885167464,,-8545.0,4.375,1350.0,1260.0000000000002,0.0,0.0,1.884765432,0.005653494940863715,0.0012207030000004337,-44151.0,3.75,-1275.0,-1260.0000000000002,0.0,0.0,2.711181363,0.00563641145494249,-4.9306894549999996,14427.0,4.5,1200.0,1260.0000000000002,0.0,0.0,4.005126543,0.005642105950249565,0.0,-29303.0,4.5,-1290.0,-1260.0000000000002,0.0,0.0,2.603759499,0.005634703106350368,0.0024414059999999793,1.3200000524520874,3.369999885559082,80.26000213623047,0.01519775390625,-0.03839111328125,0.90875244140625,30.770000457763672,0.0,-65.0,-1.0767822265625,-0.8762359619140625,Waiting,0.0,0.0,-114.0,0.0,0.0,0.0,0.0,0.0,
1.1569789999999993,0.0,0.0,false,4401883.8949880665,,-8545.0,3.875,1320.0,1259.9999999999998,0.0,0.0,1.8920896500000002,0.006205063120524091,-0.0012207030000004337,-44151.0,3.5,-1305.0,-1259.9999999999998,0.0,0.0,2.712402066,0.006186312929789227,0.004882811999999959,14427.0,4.25,1237.5,1259.9999999999998,0.0,0.0,4.005126543,0.0061925629933675145,-0.0012207029999995456,-29303.0,4.25,-1305.0,-1259.9999999999998,0.0,0.0,2.598876687,0.00618443791071574,0.0,1.6100000143051147,3.380000114440918,80.26000213623047,-0.00323486328125,0.05218505859375,1.4281005859375,30.770000457763672,0.0,-3.0,-1.073699951171875,-0.88922119140625,Waiting,0.0,0.0,-114.0,0.0,0.0,0.0,0.0,0.0,
1.1880609999999996,0.0,0.0,false,4400960.076190476,,-8545.0,3.75,1312.5,1259.9999999999998,0.0,0.0,1.8676755900000002,0.006205063120524091,0.0,-44151.0,3.25,-1312.5,-1259.9999999999998,0.0,0.0,2.714843472,0.006186312929789227,0.004882811999999959,14427.0,4.0,1275.0,1259.9999999999998,0.0,0.0,4.00390584,0.0061925629933675145,0.0012207029999995456,-29303.0,4.125,-1305.0,-1259.9999999999998,0.0,0.0,2.603759499,0.00618443791071574,0.0012207029999999897,1.2799999713897705,3.3499999046325684,80.25,0.03472900390625,0.13671875,0.8232421875,30.770000457763672,0.0,114.0,-1.0710906982421875,-0.902191162109375,Waiting,0.0,0.0,-114.0,0.0,0.0,0.0,0.0,0.0,
1.2253050000000003,0.0,0.0,false,4399957.605700713,,-8334.0,3.75,1320.0,1260.0000000000002,0.0,0.0,1.884765432,0.006067144775390625,0.0,-44361.0,3.125,-1305.0,-1260.0000000000002,0.0,0.0,2.733154017,0.00604881134033203,0.004882811999999959,14632.0,3.875,1282.5,1260.0000000000002,0.0,0.0,4.00390584,0.006054922485351562,0.0012207029999995456,-29513.0,4.125,-1305.0,-1260.0000000000002,0.0,0.0,2.607421608,0.006046977996826171,0.0012207029999999897,1.4800000190734863,3.25,80.22000122070312,-0.03973388671875,-0.125244140625,1.2921142578125,30.770000457763672,0.0,-175.0,-1.0674285888671875,-0.9217376708984375,Waiting,0.0,0.0,-114.0,0.0,0.0,0.0,0.0,0.0,
1.2609219999999988,0.0,0.0,false,4398799.696682464,,-8334.0,3.5,1312.5,1260.0000000000002,0.0,0.0,1.884765432,0.005653494940863715,0.0012207030000004337,-44361.0,3.0,-1297.5,-1260.0000000000002,0.0,0.0,2.719726284,0.00563641145494249,0.0,14632.0,3.5,1282.5,1260.0000000000002,0.0,0.0,4.005126543,0.005642105950249565,0.0012207030000004337,-29513.0,4.0,-1297.5,-1260.0000000000002,0.0,0.0,2.603759499,0.005634703106350368,-0.004882811999999959,1.3700000047683716,3.299999952316284,80.22000122070312,0.02972412109375,-0.05938720703125,0.7918701171875,30.770000457763672,0.0,-79.0,-1.065185546875,-0.9343109130859375,Waiting,0.0,0.0,-114.0,0.0,0.0,0.0,0.0,0.0,
1.2974339999999993,0.0,0.0,false,4397570.061465721,,-8334.0,3.375,1320.0,1260.0,0.0,0.0,1.884765432,0.005515576595730253,-0.0012207030000004337,-44361.0,3.125,-1297.5,-1260.0,0.0,0.0,2.718505581,0.005498909865485297,0.004882811999999959,14632.0,3.375,1297.5,1260.0,0.0,0.0,4.005126543,0.005504465442233615,-0.0024414059999999793,-29513.0,3.875,-1305.0,-1260.0,0.0,0.0,2.608642311,0.005497243192460801,0.0,1.2599999904632568,3.2699999809265137,80.19999694824219,0.0557861328125,0.09185791015625,0.67071533203125,30.770000457763672,0.0,78.0,-1.06207275390625,-0.9525604248046875,Waiting,0.0,0.0,-114.0,0.0,0.0,0.0,0.0,0.0,
1.3320659999999989,0.0,0.0,false,4396186.754716981,,-8334.0,3.375,1320.0,1260.0,0.0,0.0,1.882324026,0.0053776582505967886,-0.0012207030000004337,-44361.0,3.125,-1297.5,-1260.0,0.0,0.0,2.719726284,0.005361408276028103,0.0,14843.0,3.375,1305.0,1260.0,0.0,0.0,4.00390584,0.005366824934217665,0.0012207029999995456,-29726.0,3.625,-1327.5,-1260.0,0.0,0.0,2.606200905,0.0053597832785712346,0.003662108999999969,1.4299999475479126,3.069999933242798,80.19000244140625,0.0050048828125,-0.083984375,1.146484375,30.770000457763672,0.0,-120.0,-1.05987548828125,-0.9641571044921875,Waiting,0.0,0.0,-114.0,0.0,0.0,0.0,0.0,0.0,
1.3685460000000003,0.0,0.0,false,4394727.7364705885,,-8122.0,3.25,1320.0,1260.0,0.0,0.0,1.883544729,0.005239845106336807,0.0,-44569.0,3.0,-1297.5,-1260.0,0.0,0.0,2.719726284,0.0052240115695529514,0.0,14843.0,3.125,1312.5,1260.0,0.0,0.0,4.012450761,0.00522928941514757,0.0012207029999995456,-29726.0,3.375,-1335.0,-1260.0,0.0,0.0,2.607421608,0.005222428215874567,0.003662108999999969,1.350000023841858,3.109999895095825,80.18000030517578,-0.04730224609375,-0.03326416015625,0.915283203125,30.770000457763672,0.0,-70.0,-1.05780029296875,-0.9754638671875,Waiting,0.0,0.0,-114.0,0.0,0.0,0.0,0.0,0.0,
1.4072209999999996,0.0,0.0,false,4393122.253521127,,-8122.0,3.125,1327.5,1260.0,0.0,0.0,1.883544729,0.005101926761203342,0.0,-44569.0,2.875,-1297.5,-1260.0,0.0,0.0,2.7355954230000004,0.005086509980095757,0.0,14843.0,3.125,1305.0,1260.0,0.0,0.0,4.001464434,0.005091648907131618,0.0,-29726.0,3.125,-1350.0,-1260.0,0.0,0.0,2.607421608,0.005084968301984998,-0.0012207029999999897,1.409999966621399,2.990000009536743,80.12999725341797,-0.02606201171875,0.0914306640625,1.2164306640625,30.75,0.0,44.0,-1.05523681640625,-0.9918670654296875,Waiting,0.0,0.0,-114.0,0.0,0.0,0.0,0.0,0.0,
1.4446679999999996,0.0,0.0,false,4391442.416861827,,-8122.0,3.25,1327.5,1260.0,0.0,0.0,1.883544729,0.004412440236409506,0.0,-44569.0,2.625,-1305.0,-1260.0,0.0,0.0,2.724609096,0.004399106915791829,0.003662108999999969,14843.0,3.125,1305.0,1260.0,0.0,0.0,4.005126543,0.004403551355997721,0.0,-29941.0,3.0,-1342.5,-1260.0,0.0,0.0,2.608642311,0.0043977735837300615,0.0012207029999999897,1.340000033378601,2.940000057220459,80.0999984741211,-0.00994873046875,0.08282470703125,0.98638916015625,30.75,0.0,48.0,-1.053924560546875,-1.0024566650390625,Waiting,0.0,0.0,-114.0,0.0,0.0,0.0,0.0,0.0,
1.479599,0.0,0.0,false,4389612.485981309,,-7909.0,3.0,1327.5,1260.0,0.0,0.0,1.882324026,0.003998790401882596,0.0,-44778.0,2.625,-1305.0,-1260.0,0.0,0.0,2.724609096,0.003986707030402289,0.003662108999999969,15051.0,3.0,1305.0,1260.0,0.0,0.0,4.005126543,0.003990734820895725,0.0,-29941.0,3.0,-1335.0,-1260.0,0.0,0.0,2.596435281,0.003985498693254259,0.0012207029999999897,1.3899999856948853,2.799999952316284,80.02999877929688,-0.02935791015625,-0.002197265625,1.0897216796875,30.75,0.0,-42.0,-1.0518646240234375,-1.017913818359375,Waiting,0.0,0.0,-114.0,0.0,0.0,0.0,0.0,0.0,
1.5120739999999988,0.0,0.0,false,4387630.097902098,,-7909.0,2.875,1320.0,1260.0,0.0,0.0,1.876220511,0.003033572387695314,0.0,-44778.0,2.625,-1312.5,-1260.0,0.0,0.0,2.724609096,0.0030244056701660164,0.0012207029999999897,15051.0,3.0,1305.0,1260.0,0.0,0.0,4.00390584,0.003027461242675782,0.0,-29941.0,3.0,-1335.0,-1260.0,0.0,0.0,2.607421608,0.0030234889984130865,0.0012207029999999897,1.4900000095367432,2.700000047683716,80.0,0.0555419921875,0.14031982421875,1.07891845703125,30.75,0.0,111.0,-1.0504608154296875,-1.0279998779296875,Waiting,0.0,0.0,-114.0,0.0,0.0,0.0,0.0,0.0,
1.548268,0.0,0.0,false,4385575.627906977,,-7909.0,3.0,1312.5,1260.0,0.0,0.0,1.860351372,0.0026199225531684037,0.0,-44778.0,2.625,-1297.5,-1260.0,0.0,0.0,2.724609096,0.0026120057847764757,0.0,15051.0,3.125,1297.5,1260.0,0.0,0.0,4.00390584,0.002614644707573785,0.0,-29941.0,3.0,-1320.0,-1260.0,0.0,0.0,2.602538796,0.0026112141079372834,0.0,1.3600000143051147,2.680000066757202,79.9800033569336,0.10382080078125,-0.0321044921875,0.6221923828125,30.75,0.0,-33.0,-1.0491485595703125,-1.03802490234375,Waiting,0.0,0.0,-114.0,0.0,0.0,0.0,0.0,0.0,
1.5866389999999992,0.0,0.0,false,4383373.8468677495,,-7698.0,3.0,1312.5,1260.0000000000002,0.0,0.0,1.884765432,0.0020683543735080297,0.0012207030000004337,-44985.0,2.5,-1290.0,-1260.0000000000002,0.0,0.0,2.733154017,0.0020621043099297415,0.003662108999999969,15260.0,3.125,1282.5,1260.0000000000002,0.0,0.0,4.005126543,0.002064187664455838,0.0,-30150.0,3.0,-1305.0,-1260.0000000000002,0.0,0.0,2.603759499,0.002061479303571913,-0.0024414059999999793,1.4700000286102295,2.549999952316284,79.94999694824219,0.07080078125,0.0174560546875,1.09906005859375,30.75,0.0,-6.0,-1.0471343994140625,-1.0528411865234375,Waiting,0.0,0.0,-114.0,0.0,0.0,0.0,0.0,0.0,
1.6246219999999993,0.0,0.0,false,4381101.333333333,,-7698.0,3.0,1305.0,1260.0,0.0,0.0,1.884765432,0.0019304360283745662,0.0012207030000004337,-44985.0,2.5,-1290.0,-1260.0,0.0,0.0,2.723388393,0.0019246027204725476,0.003662108999999969,15260.0,3.0,1275.0,1260.0,0.0,0.0,4.006347246,0.0019265471564398871,0.0,-30150.0,3.0,-1305.0,-1260.0,0.0,0.0,2.603759499,0.001924019389682346,-0.0024414059999999793,1.440000057220459,2.509999990463257,79.94999694824219,-0.0399169921875,0.0289306640625,0.61407470703125,30.75,0.0,1.0,-1.04559326171875,-1.0621490478515625,Waiting,0.0,0.0,-114.0,0.0,0.0,0.0,0.0,0.0,
1.6595019999999985,0.0,0.0,false,4378688.480369515,,-7698.0,3.125,1290.0,1260.0,0.0,0.0,1.884765432,0.0019304360283745662,0.0,-44985.0,2.625,-1290.0,-1260.0,0.0,0.0,2.733154017,0.0019246027204725476,0.0012207029999999897,15260.0,3.125,1267.5,1260.0,0.0,0.0,4.005126543,0.0019265471564398871,0.0,-30150.0,3.0,-1305.0,-1260.0,0.0,0.0,2.606200905,0.001924019389682346,0.0,1.4800000190734863,2.319999933242798,79.9800033569336,-0.038818359375,0.06683349609375,1.28924560546875,30.75,0.0,16.0,-1.043182373046875,-1.075225830078125,Waiting,0.0,0.0,-114.0,0.0,0.0,0.0,0.0,0.0,
1.6978899999999995,0.0,0.0,false,4376206.230414746,,-7495.0,3.125,1275.0,1260.0,0.0,0.0,1.8725584020000001,0.0023441910637749565,-0.0012207030000004337,-45187.0,2.875,-1267.5,-1260.0,0.0,0.0,2.733154017,0.0023371074888441294,0.004882811999999959,15463.0,3.125,1275.0,1260.0,0.0,0.0,4.00390584,0.002339468680487738,-0.0012207029999995456,-30358.0,3.0,-1297.5,-1260.0,0.0,0.0,2.603759499,0.0023363991313510466,0.0012207029999999897,1.3799999952316284,2.319999933242798,80.0,-0.0596923828125,-0.060302734375,0.71435546875,30.75,0.0,-91.0,-1.04132080078125,-1.0832061767578125,Waiting,0.0,0.0,-114.0,0.0,0.0,0.0,0.0,0.0,
1.731762999999999,0.0,0.0,false,4373579.954022989,,-7495.0,3.125,1275.0,1260.0,0.0,0.0,1.883544729,0.0026199225531684037,-0.0012207030000004337,-45187.0,3.0,-1252.5,-1260.0,0.0,0.0,2.729491908,0.0026120057847764757,0.004882811999999959,15463.0,3.25,1275.0,1260.0,0.0,0.0,3.9990230280000003,0.002614644707573785,0.0012207029999995456,-30358.0,3.0,-1275.0,-1260.0,0.0,0.0,2.607421608,0.0026112141079372834,-0.0012207029999999897,1.5,2.109999895095825,79.94000244140625,0.022705078125,0.00335693359375,1.209716796875,30.75,0.0,-31.0,-1.0385894775390625,-1.09442138671875,Waiting,0.0,0.0,-114.0,0.0,0.0,0.0,0.0,0.0,
1.76867,0.0,0.0,false,4370890.825688073,,-7495.0,3.125,1267.5,1260.0,0.0,0.0,1.883544729,0.0017926228841145836,0.0012207030000004337,-45187.0,2.875,-1237.5,-1260.0,0.0,0.0,2.7355954230000004,0.0017872060139973956,0.0,15463.0,3.125,1267.5,1260.0,0.0,0.0,4.002685137,0.0017890116373697916,0.0012207029999995456,-30358.0,3.25,-1267.5,-1260.0,0.0,0.0,2.608642311,0.0017866643269856771,0.0,1.4500000476837158,2.119999885559082,79.87999725341797,-0.03094482421875,0.07745361328125,1.0892333984375,30.75,0.0,36.0,-1.0362091064453125,-1.105194091796875,Waiting,0.0,0.0,-114.0,0.0,0.0,0.0,0.0,0.0,
1.81834,0.0,0.0,false,4372372.8512585815,,-7290.0,3.125,1275.0,1260.0,0.0,0.0,1.936034958,9.652180141872831E-4,-0.0012207030000004337,-45390.0,3.125,-1260.0,-1260.0,0.0,0.0,2.7380368290000003,9.623013602362738E-4,0.0,15663.0,3.125,1252.5,1260.0,0.0,0.0,3.9978023250000003,9.632735782199436E-4,0.0,-30557.0,3.375,-1245.0,-1260.0,0.0,0.0,2.608642311,9.62009694841173E-4,0.0,1.399999976158142,2.009999990463257,79.8499984741211,-0.00360107421875,0.10614013671875,0.78887939453125,30.75,0.0,79.0,-1.0345306396484375,-1.1120758056640625,Waiting,0.0,0.0,-114.0,0.0,0.0,0.0,0.0,0.0,
1.8491899999999988,0.0,0.0,false,4373763.652968037,,-7290.0,3.125,1275.0,1260.0,0.0,0.0,1.883544729,5.515681796603733E-4,0.0,-45390.0,3.125,-1260.0,-1260.0,0.0,0.0,2.7392575320000003,5.499014748467339E-4,0.004882812000000403,15663.0,3.375,1245.0,1260.0,0.0,0.0,4.00390584,5.50457043117947E-4,0.0,-30557.0,3.375,-1237.5,-1260.0,0.0,0.0,2.596435281,5.4973480436537E-4,0.0,1.5,1.9700000286102295,79.80999755859375,0.04949951171875,-0.063232421875,1.172607421875,30.75,0.0,-90.0,-1.0328216552734375,-1.11883544921875,Waiting,0.0,0.0,-114.0,0.0,0.0,0.0,0.0,0.0,
1.886056999999999,0.0,0.0,false,4375063.562642369,,-7290.0,3.125,1275.0,1260.0,0.0,0.0,1.854247857,4.963586350165474,0.0,-45390.0,3.125,-1252.5,-1260.0,0.0,0.0,2.7429196410000003,4.94858760011461,0.0,15663.0,3.5,1245.0,1260.0,0.0,0.0,4.00390584,4.953587183464898,0.0,-30557.0,3.625,-1230.0,-1260.0,0.0,0.0,2.607421608,4.947087725109524,0.0,1.4500000476837158,1.909999966621399,79.7300033569336,-0.04241943359375,0.21209716796875,1.083984375,30.75,0.0,167.0,-1.030517578125,-1.1284637451171875,Waiting,0.0,0.0,-114.0,0.0,0.0,0.0,0.0,0.0,
1.9223339999999989,0.0,0.0,false,4376198.7272727275,,-7290.0,3.0,1267.5,1260.0,0.0,0.0,1.8994138680000001,4.962896968841553,0.0,-45390.0,3.25,-1230.0,-1260.0,0.0,0.0,2.7429196410000003,4.947900301933288,0.0,15663.0,3.375,1237.5,1260.0,0.0,0.0,4.006347246,4.95289919090271,0.0,-30557.0,3.875,-1222.5,-1260.0,0.0,0.0,2.601318093,4.946400635242462,0.0,1.4600000381469727,1.9199999570846558,79.6500015258789,-0.0147705078125,0.04443359375,0.88604736328125,30.760000228881836,0.0,13.0,-1.028839111328125,-1.1345367431640625,Waiting,0.0,0.0,-114.0,0.0,0.0,0.0,0.0,0.0,
1.9522889999999988,0.0,0.0,false,4377244.861678004,,-7084.0,3.0,1275.0,1260.0,0.0,0.0,1.883544729,4.961793832482233,0.0,-45588.0,3.5,-1237.5,-1260.0,0.0,0.0,2.7490231560000002,4.9468004989835945,0.003662108999999969,15864.0,3.375,1245.0,1260.0,0.0,0.0,4.005126543,4.951798276816474,0.0,-30754.0,4.0,-1215.0,-1260.0,0.0,0.0,2.603759499,4.945301165633731,0.0,1.5399999618530273,1.75,79.56999969482422,0.1256103515625,-0.0426025390625,0.98980712890625,30.760000228881836,0.0,-50.0,-1.027069091796875,-1.140655517578125,Waiting,0.0,0.0,-114.0,0.0,0.0,0.0,0.0,0.0,
1.9862079999999986,0.0,0.0,false,4378123.384615385,,-7084.0,2.875,1275.0,1260.0,0.0,0.0,1.883544729,4.960690696122912,0.0,-45588.0,3.5,-1237.5,-1260.0,0.0,0.0,2.7478024530000003,4.945700696033901,0.003662108999999969,15864.0,3.625,1245.0,1260.0,0.0,0.0,4.005126543,4.950697362730238,0.0,-30754.0,4.125,-1215.0,-1260.0,0.0,0.0,2.603759499,4.944201696025001,-0.0024414059999999793,1.5099999904632568,1.7599999904632568,79.45999908447266,0.010498046875,0.1419677734375,1.06011962890625,30.760000228881836,0.0,107.0,-1.0251617431640625,-1.147003173828125,Waiting,0.0,0.0,-114.0,0.0,0.0,0.0,0.0,0.0,
2.0215129999999992,0.0,0.0,false,4378919.060948081,,-7084.0,2.75,1290.0,1260.0000000000002,0.0,0.0,1.884765432,4.958484528605144,0.0,-45588.0,3.5,-1230.0,-1260.0000000000002,0.0,0.0,2.7478024530000003,4.943501195017497,0.003662108999999969,15864.0,3.625,1237.5,1260.0000000000002,0.0,0.0,4.005126543,4.948495639546712,0.0,-30754.0,4.125,-1215.0,-1260.0000000000002,0.0,0.0,2.603759499,4.942002861658732,-0.0024414059999999793,1.5099999904632568,1.7699999809265137,79.37000274658203,0.00811767578125,-0.05377197265625,0.83795166015625,30.760000228881836,0.0,-77.0,-1.023101806640625,-1.153289794921875,Waiting,0.0,0.0,-114.0,0.0,0.0,0.0,0.0,0.0,
2.0493259999999993,0.0,0.0,false,4379548.864864865,,-7084.0,2.75,1297.5,1260.0,0.0,0.0,1.884765432,4.956967742411297,0.0,-45588.0,3.625,-1222.5,-1260.0,0.0,0.0,2.7490231560000002,4.941988992182414,0.0024414059999999793,16061.0,3.625,1237.5,1260.0,0.0,0.0,4.005126543,4.946981908925374,0.0,-30948.0,4.25,-1215.0,-1260.0,0.0,0.0,2.602538796,4.940491117159525,0.0,1.4800000190734863,1.6699999570846558,79.19999694824219,-0.08953857421875,0.0682373046875,0.72796630859375,30.760000228881836,0.0,27.0,-1.019866943359375,-1.153289794921875,Waiting,0.0,0.0,-114.0,0.0,0.0,0.0,0.0,0.0,
2.0894459999999997,0.0,0.0,false,4380092.710112359,,-6877.0,2.75,1305.0,0.0,0.0,0.0,1.884765432,0.0,-0.0012207029999995456,-45785.0,3.625,-1237.5,-0.0,0.0,0.0,2.752685265,0.0,0.004882811999999959,16061.0,3.625,1237.5,0.0,0.0,0.0,4.00390584,0.0,-0.0012207029999995456,-30948.0,2.625,-1215.0,-0.0,0.0,0.0,2.603759499,0.0,0.0012207029999999897,1.5700000524520874,1.590000033378601,79.05999755859375,0.031494140625,-0.12750244140625,0.99957275390625,30.760000228881836,0.0,-151.0,-1.0161590576171875,-1.1527252197265625,Waiting,0.0,0.0,-114.0,0.0,0.0,0.0,0.0,0.0,
2.1265460000000003,0.0,0.0,false,4380550.887892377,,-6877.0,0.625,1252.5,0.0,0.0,0.0,1.884765432,0.0,-0.0012207029999995456,-45785.0,0.875,-1200.0,-0.0,0.0,0.0,2.7429196410000003,0.0,0.004882811999999959,16061.0,1.0,1207.5,0.0,0.0,0.0,4.00390584,0.0,-0.0012207029999995456,-30948.0,1.25,-1192.5,-0.0,0.0,0.0,2.5939938750000002,0.0,0.0012207029999999897,1.4900000095367432,1.4199999570846558,78.97000122070312,0.0098876953125,0.04345703125,1.02435302734375,30.760000228881836,0.0,13.0,-1.0140380859375,-1.151702880859375,Waiting,0.0,0.0,-114.0,0.0,0.0,0.0,0.0,0.0,
2.160242,0.0,0.0,false,4380850.666666667,,-6877.0,0.125,1155.0,0.0,0.0,0.0,1.883544729,0.0,0.0012207029999995456,-45785.0,0.0,-1117.5,-0.0,0.0,0.0,2.7429196410000003,0.0,-0.006103514999999948,16061.0,0.0,960.0,0.0,0.0,0.0,4.013671464000001,0.0,0.009765623999999917,-30948.0,0.0,-1020.0,-0.0,0.0,0.0,2.5939938750000002,0.0,-0.010986326999999907,1.5499999523162842,0.5600000023841858,78.88999938964844,-0.0933837890625,-0.06365966796875,0.87066650390625,30.760000228881836,0.0,-105.0,-1.01409912109375,-1.1483001708984375,Waiting,0.0,0.0,-114.0,0.0,0.0,0.0,0.0,0.0,
2.1906119999999993,0.0,0.0,false,4381066.535714285,,-6723.0,0.0,960.0,0.0,0.0,0.0,1.884765432,0.0,-0.0012207029999995456,-45931.0,0.0,-915.0,-0.0,0.0,0.0,2.7392575320000003,0.0,-0.003662108999999969,16184.0,0.0,682.5,0.0,0.0,0.0,4.018554276000001,0.0,0.0,-31097.0,0.125,-870.0,-0.0,0.0,0.0,2.5866696570000003,0.0,0.0,1.4500000476837158,0.5400000214576721,78.81999969482422,-0.35589599609375,-0.107421875,0.5372314453125,30.760000228881836,0.0,-188.0,-1.0145721435546875,-1.143157958984375,Waiting,0.0,0.0,-114.0,0.0,0.0,0.0,0.0,0.0,
2.230076999999999,0.0,0.0,false,4381121.069042317,,-6723.0,0.125,870.0,0.0,0.0,0.0,1.8627927780000002,0.0,-0.0012207029999995456,-45931.0,0.125,-817.5,-0.0,0.0,0.0,2.7429196410000003,0.0,-0.003662108999999969,16184.0,0.0,607.5,0.0,0.0,0.0,4.018554276000001,0.0,0.0,-31097.0,0.125,-832.5,-0.0,0.0,0.0,2.5830075480000003,0.0,0.0,1.5299999713897705,-0.15000000596046448,78.7300033569336,-0.26971435546875,-0.12640380859375,1.080322265625,30.760000228881836,0.0,-204.0,-1.0166778564453125,-1.132781982421875,Waiting,0.0,0.0,-114.0,0.0,0.0,0.0,0.0,0.0,
2.2666549999999988,0.0,0.0,false,4381097.706666667,,-6723.0,0.375,840.0,0.0,0.0,0.0,1.883544729,0.0,0.0024414059999999793,-45931.0,0.125,-780.0,-0.0,0.0,0.0,2.728271205,0.0,0.0,16184.0,0.0,622.5,0.0,0.0,0.0,4.018554276000001,0.0,0.004882811999999959,-31097.0,0.0,-802.5,-0.0,0.0,0.0,2.5854489540000003,0.0,-0.004882811999999959,1.350000023841858,-0.5699999928474426,78.66999816894531,-0.2777099609375,-0.05145263671875,0.6453857421875,30.760000228881836,0.0,-118.0,-1.0202178955078125,-1.118988037109375,Waiting,0.0,0.0,-114.0,0.0,0.0,0.0,0.0,0.0,
2.2984709999999997,0.0,0.0,false,4380914.67849224,,-6613.0,0.875,787.5,0.0,0.0,0.0,1.883544729,0.0,-0.0012207030000004337,-46035.0,0.25,-735.0,-0.0,0.0,0.0,2.7429196410000003,0.0,-0.0012207029999999897,16282.0,0.0,622.5,0.0,0.0,0.0,4.018554276000001,0.0,0.0,-31204.0,0.125,-690.0,-0.0,0.0,0.0,2.5854489540000003,0.0,-0.004882811999999959,1.3700000047683716,-1.0800000429153442,78.63999938964844,-0.30419921875,0.02099609375,1.40802001953125,30.760000228881836,0.0,-67.0,-1.023193359375,-1.108154296875,Waiting,0.0,0.0,-114.0,0.0,0.0,0.0,0.0,0.0,
2.3324069999999995,0.0,0.0,false,4380650.619469026,,-6613.0,1.125,622.5,0.0,0.0,0.0,1.883544729,0.0,0.0,-46035.0,0.375,-592.5,-0.0,0.0,0.0,2.7429196410000003,0.0,0.0012207029999999897,16282.0,0.0,592.5,0.0,0.0,0.0,4.018554276000001,0.0,0.0,-31204.0,0.125,-547.5,-0.0,0.0,0.0,2.5842282510000003,0.0,0.0,1.2699999809265137,-1.5800000429153442,78.62000274658203,-0.24627685546875,0.0206298828125,0.9423828125,30.760000228881836,0.0,-43.0,-1.0282745361328125,-1.0892333984375,Waiting,0.0,0.0,-114.0,0.0,0.0,0.0,0.0,0.0,
2.3833779999999987,0.0,0.0,false,4380305.783664459,,-6613.0,0.875,495.0,0.0,0.0,0.0,1.884765432,0.0,0.0,-46035.0,0.25,-457.5,-0.0,0.0,0.0,2.7429196410000003,0.0,0.0012207029999999897,16282.0,0.0,480.0,0.0,0.0,0.0,4.018554276000001,0.0,0.0,-31204.0,0.0,-412.5,-0.0,0.0,0.0,2.5781247360000004,0.0,0.0012207029999999897,1.309999942779541,-1.809999942779541,78.55999755859375,-0.28033447265625,0.01287841796875,1.15234375,30.760000228881836,0.0,-61.0,-1.032135009765625,-1.0750579833984375,Waiting,0.0,0.0,-114.0,0.0,0.0,0.0,0.0,0.0,
2.417423999999999,0.0,0.0,false,4379804.017621146,,-6564.0,0.375,360.0,420.0,0.0,0.0,1.884765432,0.5533560492066917,-0.0012207029999995456,-46077.0,0.25,-322.5,-420.0,0.0,0.0,2.7429196410000003,1.9228160581136373,0.0,16331.0,0.0,352.5,420.0,0.0,0.0,4.018554276000001,4.40175868900686,0.0,-31250.0,0.0,-345.0,-420.0,0.0,0.0,2.5842282510000003,3.0252667311543298,0.0012207029999999897,1.2300000190734863,-2.0399999618530273,78.54000091552734,-0.2073974609375,-0.01702880859375,0.793701171875,30.760000228881836,0.0,-69.0,-1.036224365234375,-1.05975341796875,Waiting,0.0,0.0,-114.0,0.0,0.0,0.0,0.0,0.0,
2.4488140000000005,0.0,0.0,false,4379227.621978022,,-6564.0,0.25,300.0,420.0,0.0,0.0,1.8969724620000001,0.5533560492066917,0.0012207029999995456,-46077.0,0.125,-217.5,-420.0,0.0,3.25,2.7429196410000003,1.9228160581136373,-0.0012207029999999897,16331.0,0.125,262.5,420.0,0.0,1.125,3.9892574040000004,4.40175868900686,0.0012207030000004337,-31250.0,0.0,-240.0,-420.0,0.0,6.375,2.5280759130000003,3.0252667311543298,0.0,1.2999999523162842,-2.180000066757202,78.5199966430664,-0.0145263671875,0.04107666015625,0.99365234375,30.739999771118164,0.0,22.0,-1.04046630859375,-1.027557373046875,Waiting,0.0,0.0,-114.0,0.0,0.0,0.0,0.0,0.0,
2.4882799999999987,0.0,0.0,false,4378495.8771929825,,-6564.0,0.125,225.0,420.0,0.0,1.375,1.8920896500000002,0.5533560492066917,0.0,-46077.0,0.0,-187.5,-420.0,0.0,6.25,2.930907903,1.9228160581136373,0.0012207029999999897,16331.0,0.125,240.0,420.0,0.0,1.75,3.867187104,4.40175868900686,-0.035400387000000144,-31250.0,0.375,-172.5,-420.0,0.0,9.375,2.288818125,3.0252667311543298,4.873037116999999,1.25,-2.190000057220459,78.5999984741211,-0.01702880859375,0.0032958984375,0.86602783203125,30.739999771118164,0.0,-12.0,-1.04034423828125,-1.0112457275390625,Waiting,0.0,0.0,-114.0,0.0,0.0,0.0,0.0,0.0,
2.524814,0.0,0.0,false,4377686.12691466,,-6564.0,0.25,180.0,420.0,0.0,1.125,2.003173623,0.5533560492066917,0.0,-46077.0,0.25,-142.5,-420.0,0.0,3.625,3.1701656910000002,1.9228160581136373,0.0012207029999999897,16331.0,0.375,247.5,420.0,0.0,0.875,3.7329097740000003,4.40175868900686,-0.035400387000000144,-31250.0,0.5,-165.0,-420.0,0.0,6.375,2.0666501790000003,3.0252667311543298,4.873037116999999,1.2699999809265137,-2.190000057220459,78.66000366210938,-0.01416015625,0.02197265625,1.1444091796875,30.739999771118164,0.0,2.0,-1.040313720703125,-0.995086669921875,Waiting,0.0,0.0,-114.0,0.0,0.0,0.0,0.0,0.0,
2.552726999999999,0.0,0.0,false,4376727.318777293,,-6537.0,0.25,165.0,420.0,0.0,0.5,2.139892359,0.5533560492066917,0.16967771700000078,-46103.0,0.25,-142.5,-420.0,0.0,1.875,3.4252926180000003,1.9228160581136373,0.46752924900000004,16366.0,1.125,225.0,420.0,0.0,0.0,3.614501583,4.40175868900686,-0.2600097390000009,-31281.0,0.625,-180.0,-420.0,0.0,1.5,1.8103025490000002,3.0252667311543298,-0.4565429219999997,1.2300000190734863,-2.119999885559082,78.66999816894531,0.0484619140625,-0.0223388671875,0.94073486328125,30.739999771118164,0.0,-25.0,-1.040252685546875,-0.9791412353515625,Waiting,0.0,0.0,-114.0,0.0,0.0,0.0,0.0,0.0,
2.5888599999999986,0.0,0.0,false,4375692.095860566,,-6537.0,0.5,165.0,420.0,0.0,0.375,2.24609352,0.5533560492066917,0.1269531119999998,-46103.0,0.25,-195.0,-420.0,0.0,2.0,3.706054308,1.9228160581136373,0.2709960659999999,16366.0,1.5,195.0,420.0,0.0,0.0,3.541259403,4.40175868900686,-0.12207029999999897,-31281.0,1.375,-142.5,-420.0,0.0,1.875,1.535644374,3.0252667311543298,-0.25756833300000004,1.2200000286102295,-2.0199999809265137,78.5999984741211,0.05804443359375,0.05438232421875,0.967529296875,30.739999771118164,0.0,51.0,-1.040313720703125,-0.963531494140625,Waiting,0.0,0.0,-114.0,0.0,0.0,0.0,0.0,0.0,
2.6277749999999997,0.0,0.0,false,4374580.678260869,,-6537.0,0.875,165.0,420.0,0.0,0.25,2.308349373,0.5533560492066917,0.1269531119999998,-46103.0,0.5,-262.5,-420.0,0.0,1.875,3.968505453,1.9228160581136373,0.2709960659999999,16366.0,2.125,135.0,420.0,0.0,0.0,3.504638313,4.40175868900686,-0.12207029999999897,-31281.0,1.875,-105.0,-420.0,0.0,2.25,1.350097518,3.0252667311543298,-0.25756833300000004,1.2400000095367432,-1.840000033378601,78.31999969482422,0.0706787109375,-0.00372314453125,0.964111328125,30.739999771118164,0.0,-3.0,-1.040130615234375,-0.9411163330078125,Waiting,0.0,0.0,-114.0,0.0,0.0,0.0,0.0,0.0,
2.662145999999999,0.0,0.0,false,4373318.039045553,,-6514.0,1.0,150.0,420.0,0.0,0.25,2.341308354,0.5533560492066917,0.13183592399999977,-46138.0,0.625,-255.0,-420.0,0.0,1.125,4.202880429,1.9228160581136373,0.5090331510000001,16390.0,2.375,135.0,420.0,0.0,0.0,3.463134411,4.40175868900686,-0.0988769430000005,-31283.0,2.5,-22.5,-420.0,0.0,1.875,1.097411997,3.0252667311543298,-0.4663085460000005,1.2100000381469727,-1.7100000381469727,78.08000183105469,-0.0230712890625,0.00335693359375,0.87445068359375,30.739999771118164,0.0,-14.0,-1.040130615234375,-0.9267425537109375,Waiting,0.0,0.0,-114.0,0.0,0.0,0.0,0.0,0.0,
2.690681999999999,0.0,0.0,false,4371980.675324676,,-6514.0,1.125,127.5,420.0,0.0,0.125,2.346191166,0.5533560492066917,0.029296871999999752,-46138.0,1.25,-180.0,-420.0,0.0,0.75,4.373778849,1.9228160581136373,0.23925778799999975,16390.0,2.5,157.5,420.0,0.0,0.0,3.4790035500000003,4.40175868900686,-0.024414059999999793,-31283.0,2.375,-7.5,-420.0,0.0,1.125,0.914306547,3.0252667311543298,-0.23803708499999976,1.25,-1.75,77.94000244140625,-0.04302978515625,0.03265380859375,1.12890625,30.739999771118164,0.0,5.0,-1.040130615234375,-0.9267425537109375,Waiting,0.0,0.0,-114.0,0.0,0.0,0.0,0.0,0.0,
2.7256659999999995,0.0,0.0,false,4370498.1425485965,,-6514.0,1.25,127.5,420.0,0.0,0.125,2.347411869,0.5533560492066917,0.029296871999999752,-46138.0,2.125,-120.0,-420.0,0.0,0.25,4.501952664,1.9228160581136373,0.23925778799999975,16390.0,2.125,172.5,420.0,0.0,0.0,3.4741207380000003,4.40175868900686,-0.024414059999999793,-31283.0,3.25,-60.0,-420.0,0.0,0.375,0.782470623,3.0252667311543298,-0.23803708499999976,1.2400000095367432,-1.8600000143051147,77.08999633789062,-0.06805419921875,0.0557861328125,1.05535888671875,30.739999771118164,0.0,24.0,-1.0404205322265625,-0.9261627197265625,Waiting,0.0,0.0,-114.0,0.0,0.0,0.0,0.0,0.0,
2.767484999999999,0.0,0.0,false,4368942.017241379,,-6514.0,1.5,157.5,420.0,0.0,0.0,2.341308354,0.5533560492066917,0.004882811999999959,-46138.0,2.375,-120.0,-420.0,0.0,0.125,4.581298359,1.9228160581136373,0.18310545000000022,16390.0,2.25,210.0,420.0,0.0,0.0,3.4729000350000003,4.40175868900686,0.0,-31308.0,3.625,-120.0,-420.0,0.0,0.0,0.666503838,3.0252667311543298,-0.17944334100000026,1.2999999523162842,-1.840000033378601,76.48999786376953,0.01824951171875,0.07061767578125,1.016845703125,30.739999771118164,0.0,57.0,-1.040618896484375,-0.9256439208984375,Waiting,0.0,0.0,-114.0,0.0,0.0,0.0,0.0,0.0,
2.7997019999999995,0.0,0.0,false,4367237.883870968,,-6486.0,1.75,172.5,420.0,0.0,0.0,2.341308354,0.5533560492066917,0.0012207030000004337,-46160.0,2.875,-135.0,-420.0,0.0,0.375,4.588622577000001,1.9228160581136373,0.17211912299999987,16429.0,2.625,232.5,420.0,0.0,0.0,3.492431283,4.40175868900686,-0.006103514999999504,-31308.0,3.0,-172.5,-420.0,0.0,0.0,0.596923767,3.0252667311543298,-0.23803708499999976,1.3600000143051147,-1.7599999904632568,75.37999725341797,0.00775146484375,-0.01629638671875,1.01934814453125,30.739999771118164,0.0,-29.0,-1.040374755859375,-0.9250030517578125,Waiting,0.0,0.0,-114.0,0.0,0.0,0.0,0.0,0.0,
2.838965,0.0,0.0,false,4365466.077253219,,-6486.0,1.75,195.0,420.0,0.0,0.0,2.3217771060000003,0.5533560492066917,0.0012207030000004337,-46160.0,2.75,-135.0,-420.0,0.0,0.125,4.584960468,1.9228160581136373,0.0,16429.0,2.375,277.5,420.0,0.0,0.0,3.461913708,4.40175868900686,0.0,-31308.0,2.875,-187.5,-420.0,0.0,0.0,0.5822753310000001,3.0252667311543298,-0.07934569500000022,1.4299999475479126,-1.7400000095367432,74.55999755859375,0.016357421875,0.00445556640625,0.93255615234375,30.739999771118164,0.0,-6.0,-1.0400543212890625,-0.9246978759765625,Waiting,0.0,0.0,-114.0,0.0,0.0,0.0,0.0,0.0,
2.8815169999999997,0.0,0.0,false,4363622.372591007,,-6486.0,1.75,240.0,420.0,0.0,0.0,2.347411869,0.5533560492066917,-0.0024414059999999793,-46160.0,2.75,-157.5,-420.0,0.0,0.0,4.586181171000001,1.9228160581136373,0.0,16429.0,2.375,300.0,420.0,0.0,0.0,3.4680172230000004,4.40175868900686,0.0,-31308.0,3.125,-232.5,-420.0,0.0,0.0,0.5810546280000001,3.0252667311543298,-0.013427732999999886,1.5399999618530273,-1.7100000381469727,73.19000244140625,-0.05609130859375,0.06402587890625,0.99285888671875,30.739999771118164,0.0,28.0,-1.03912353515625,-0.9245452880859375,Waiting,0.0,0.0,-114.0,0.0,0.0,0.0,0.0,0.0,
2.918009,0.0,0.0,false,4361632.837606838,,-6438.0,1.75,270.0,420.0,0.0,0.0,2.347411869,0.5533560492066917,0.0024414059999999793,-46193.0,2.75,-217.5,-420.0,0.0,0.0,4.586181171000001,1.9228160581136373,-0.0012207029999995456,16479.0,2.25,307.5,420.0,0.0,0.0,3.4655758170000004,4.40175868900686,-0.003662109000000413,-31352.0,3.25,-277.5,-420.0,0.0,0.0,0.5822753310000001,3.0252667311543298,-0.013427732999999886,1.5499999523162842,-1.6799999475479126,72.16000366210938,-0.09014892578125,0.0167236328125,0.984375,30.739999771118164,0.0,-28.0,-1.038360595703125,-0.9244537353515625,Waiting,0.0,0.0,-114.0,0.0,0.0,0.0,0.0,0.0,
2.948869999999999,0.0,0.0,false,4359572.793176972,,-6438.0,1.5,315.0,420.0,0.0,0.0,2.347411869,0.5533560492066917,-0.0012207030000004337,-46193.0,2.75,-247.5,-420.0,0.0,0.0,4.586181171000001,1.9228160581136373,0.0,16479.0,2.375,315.0,420.0,0.0,0.0,3.4680172230000004,4.40175868900686,0.0,-31352.0,3.25,-292.5,-420.0,0.0,0.0,0.5822753310000001,3.0252667311543298,0.0,1.590000033378601,-1.6799999475479126,71.05999755859375,-0.02520751953125,-0.02325439453125,1.04156494140625,30.690000534057617,0.0,-47.0,-1.0375518798828125,-0.924346923828125,Waiting,0.0,0.0,-114.0,0.0,0.0,0.0,0.0,0.0,
2.9843809999999995,0.0,0.0,false,4357372.817021277,,-6438.0,1.375,345.0,420.0,0.0,0.0,2.362060305,0.5533560492066917,-0.0012207030000004337,-46193.0,2.5,-300.0,-420.0,0.0,0.0,4.584960468,1.9228160581136373,0.0012207029999995456,16479.0,2.375,345.0,420.0,0.0,0.0,3.4692379260000004,4.40175868900686,0.0,-31352.0,2.625,-352.5,-420.0,0.0,0.0,0.5822753310000001,3.0252667311543298,0.0012207029999999897,1.590000033378601,-1.5499999523162842,69.30000305175781,-0.0455322265625,-0.07879638671875,1.03387451171875,30.690000534057617,0.0,-106.0,-1.03631591796875,-0.92449951171875,Waiting,0.0,0.0,-114.0,0.0,0.0,0.0,0.0,0.0,
3.0259359999999997,0.0,0.0,false,4355103.388535032,,-6380.0,1.375,360.0,420.0,0.0,0.0,2.347411869,0.5533560492066917,0.0012207030000004337,-46253.0,2.25,-352.5,-420.0,0.0,0.0,4.584960468,1.9228160581136373,0.0012207029999995456,16541.0,2.125,382.5,420.0,0.0,0.0,3.4643551140000004,4.40175868900686,0.0,-31414.0,2.5,-367.5,-420.0,0.0,0.0,0.5822753310000001,3.0252667311543298,0.0012207029999999897,1.6399999856948853,-1.5,68.05999755859375,0.00201416015625,0.10638427734375,1.11212158203125,30.690000534057617,0.0,80.0,-1.035491943359375,-0.9248046875,Waiting,0.0,0.0,-114.0,0.0,0.0,0.0,0.0,0.0,
3.0621669999999996,0.0,0.0,false,4352691.169491526,,-6380.0,1.375,367.5,420.0,0.0,0.0,2.340087651,0.5533560492066917,-0.0012207030000004337,-46253.0,2.25,-367.5,-420.0,0.0,0.0,4.582519062,1.9228160581136373,0.0,16541.0,1.875,405.0,420.0,0.0,0.0,3.4643551140000004,4.40175868900686,-0.004882811999999959,-31414.0,2.5,-397.5,-420.0,0.0,0.0,0.5822753310000001,3.0252667311543298,0.0,1.649999976158142,-1.350000023841858,66.1500015258789,-0.0179443359375,0.020263671875,0.97607421875,30.690000534057617,0.0,-5.0,-1.0341033935546875,-0.9257049560546875,Waiting,0.0,0.0,-114.0,0.0,0.0,0.0,0.0,0.0,
3.093075999999999,0.0,0.0,false,4350210.672304439,,-6380.0,1.25,390.0,420.0,0.0,0.0,2.347411869,0.5533560492066917,0.0012207030000004337,-46253.0,2.375,-352.5,-420.0,0.0,0.0,4.584960468,1.9228160581136373,-0.0012207029999995456,16541.0,1.75,427.5,420.0,0.0,0.0,3.4643551140000004,4.40175868900686,0.0,-31414.0,2.25,-412.5,-420.0,0.0,0.0,0.5810546280000001,3.0252667311543298,-0.0012207029999999897,1.6799999475479126,-1.2599999904632568,64.86000061035156,0.03448486328125,0.0513916015625,1.0435791015625,30.690000534057617,0.0,43.0,-1.0330810546875,-0.926605224609375,Waiting,0.0,0.0,-114.0,0.0,0.0,0.0,0.0,0.0,
3.1468719999999992,0.0,0.0,false,4351737.502109705,,-6312.0,1.125,412.5,420.0,0.0,0.0,2.364501711,0.5533560492066917,-0.0012207030000004337,-46295.0,3.0,-262.5,-420.0,0.0,0.0,4.584960468,1.9228160581136373,0.0012207029999995456,16612.0,1.625,450.0,420.0,0.0,0.0,3.4643551140000004,4.40175868900686,0.0,-31480.0,2.125,-412.5,-420.0,0.0,0.0,0.5822753310000001,3.0252667311543298,0.0012207029999999897,1.7200000286102295,-1.1399999856948853,62.27000045776367,-0.00811767578125,0.05096435546875,0.97540283203125,30.690000534057617,0.0,24.0,-1.03070068359375,-0.928955078125,Waiting,0.0,0.0,-114.0,0.0,0.0,0.0,0.0,0.0,
3.185129999999999,0.0,0.0,false,4353156.277894737,,-6312.0,1.125,412.5,420.0,0.0,0.0,2.347411869,0.5533560492066917,-0.0012207030000004337,-46295.0,3.0,-270.0,-420.0,0.0,0.0,4.584960468,1.9228160581136373,0.0,16612.0,1.625,450.0,420.0,0.0,0.0,3.4643551140000004,4.40175868900686,0.0012207029999995456,-31480.0,2.125,-405.0,-420.0,0.0,0.0,0.5822753310000001,3.0252667311543298,0.0,1.809999942779541,-1.1200000047683716,61.02000045776367,-0.03009033203125,0.01837158203125,1.106201171875,30.690000534057617,0.0,-18.0,-1.02935791015625,-0.928955078125,Waiting,0.0,0.0,-114.0,0.0,0.0,0.0,0.0,0.0,
3.223474,0.0,0.0,false,4354487.781512605,,-6312.0,1.125,412.5,420.0,0.0,0.0,2.347411869,0.5533560492066917,0.0012207030000004337,-46295.0,2.375,-375.0,-420.0,0.0,0.0,4.586181171000001,1.9228160581136373,0.0,16612.0,1.625,450.0,420.0,0.0,0.0,3.461913708,4.40175868900686,0.0012207029999995456,-31480.0,2.25,-412.5,-420.0,0.0,0.0,0.5822753310000001,3.0252667311543298,0.0,1.7699999809265137,-1.0700000524520874,59.779998779296875,0.018798828125,0.1015625,0.82080078125,30.690000534057617,0.0,82.0,-1.02801513671875,-0.9288787841796875,Waiting,0.0,0.0,-114.0,0.0,0.0,0.0,0.0,0.0,
3.251245999999999,0.0,0.0,false,4355655.446540881,,-6247.0,1.125,405.0,420.0,0.0,0.0,2.347411869,0.5533560492066917,0.0,-46370.0,2.375,-480.0,-420.0,0.0,0.0,4.588622577000001,1.9228160581136373,-0.0012207029999995456,16685.0,1.625,442.5,420.0,0.0,0.0,3.463134411,4.40175868900686,-0.0024414059999999793,-31548.0,2.125,-412.5,-420.0,0.0,0.0,0.5822753310000001,3.0252667311543298,0.0,1.8600000143051147,-0.9200000166893005,57.2400016784668,0.02880859375,-0.01593017578125,0.8138427734375,30.690000534057617,0.0,-12.0,-1.0272369384765625,-0.92901611328125,Waiting,0.0,0.0,-114.0,0.0,0.0,0.0,0.0,0.0,
3.304124,0.0,0.0,false,4356737.255230126,,-6247.0,1.125,405.0,420.0,0.0,0.0,2.346191166,0.5533560492066917,-0.0012207030000004337,-46370.0,2.25,-427.5,-420.0,0.0,0.0,4.584960468,1.9228160581136373,0.0012207029999995456,16685.0,1.625,435.0,420.0,0.0,0.0,3.463134411,4.40175868900686,0.0012207030000004337,-31548.0,2.0,-412.5,-420.0,0.0,0.0,0.5822753310000001,3.0252667311543298,-0.0012207029999999897,1.850000023841858,-0.8999999761581421,55.97999954223633,-0.00811767578125,0.051025390625,1.0548095703125,30.690000534057617,0.0,18.0,-1.0272369384765625,-0.9293212890625,Waiting,0.0,0.0,-114.0,0.0,0.0,0.0,0.0,0.0,
3.34033,0.0,0.0,false,4357733.628392484,,-6247.0,1.125,405.0,420.0,0.0,0.0,2.346191166,0.5533560492066917,-0.0012207030000004337,-46370.0,2.25,-345.0,-420.0,0.0,0.0,4.584960468,1.9228160581136373,0.0,16685.0,1.625,427.5,420.0,0.0,0.0,3.463134411,4.40175868900686,0.0,-31548.0,2.125,-412.5,-420.0,0.0,0.0,0.5822753310000001,3.0252667311543298,0.0,1.8899999856948853,-0.8399999737739563,54.72999954223633,-0.02423095703125,-0.03509521484375,1.07476806640625,30.690000534057617,0.0,-62.0,-1.0272979736328125,-0.9296417236328125,Waiting,0.0,0.0,-114.0,0.0,0.0,0.0,0.0,0.0,
3.3724359999999995,0.0,0.0,false,4358573.116666666,,-6247.0,1.25,412.5,420.0,0.0,0.0,2.3291013240000003,0.5533560492066917,0.0,-46432.0,2.375,-352.5,-420.0,0.0,0.0,4.586181171000001,1.9228160581136373,0.0,16754.0,1.625,427.5,420.0,0.0,0.0,3.4643551140000004,4.40175868900686,0.0,-31614.0,2.125,-420.0,-420.0,0.0,0.0,0.583496034,3.0252667311543298,0.0,1.899999976158142,-0.75,52.849998474121094,-7.32421875E-4,0.04827880859375,1.0211181640625,30.690000534057617,0.0,19.0,-1.027374267578125,-0.93011474609375,Waiting,0.0,0.0,-114.0,0.0,0.0,0.0,0.0,0.0,
3.416947,0.0,0.0,false,4359328.399168399,,-6182.0,1.25,405.0,420.0,0.0,0.0,2.35595679,0.5533560492066917,0.0012207030000004337,-46432.0,2.625,-405.0,-420.0,0.0,0.0,4.586181171000001,1.9228160581136373,-0.0012207029999995456,16754.0,1.625,427.5,420.0,0.0,0.0,3.459472302,4.40175868900686,0.0,-31614.0,2.125,-420.0,-420.0,0.0,0.0,0.574951113,3.0252667311543298,0.0,1.9299999475479126,-0.6899999976158142,51.56999969482422,0.0440673828125,0.0230712890625,0.99737548828125,30.690000534057617,0.0,26.0,-1.027374267578125,-0.9302215576171875,Waiting,0.0,0.0,-114.0,0.0,0.0,0.0,0.0,0.0,
3.4474399999999985,0.0,0.0,false,4359924.199170125,,-6182.0,1.25,405.0,420.0,0.0,0.0,2.347411869,0.5533560492066917,0.0,-46432.0,2.75,-397.5,-420.0,0.0,0.0,4.586181171000001,1.9228160581136373,0.0,16754.0,1.625,435.0,420.0,0.0,0.0,3.452148084,4.40175868900686,0.0,-31614.0,2.0,-420.0,-420.0,0.0,0.0,0.5822753310000001,3.0252667311543298,0.0012207029999999897,1.9199999570846558,-0.550000011920929,49.689998626708984,-0.02764892578125,0.04803466796875,0.93255615234375,30.700000762939453,0.0,0.0,-1.027252197265625,-0.93060302734375,Waiting,0.0,0.0,-114.0,0.0,0.0,0.0,0.0,0.0,
3.485475999999999,0.0,0.0,false,4360437.134575569,,-6182.0,1.25,405.0,420.0,0.0,0.0,2.347411869,0.5533560492066917,0.0,-46432.0,2.625,-367.5,-420.0,0.0,0.0,4.58984328,1.9228160581136373,0.0,16754.0,1.625,435.0,420.0,0.0,0.0,3.463134411,4.40175868900686,0.0,-31683.0,2.125,-420.0,-420.0,0.0,0.0,0.5822753310000001,3.0252667311543298,0.0,1.9800000190734863,-0.5600000023841858,48.41999816894531,-0.05047607421875,0.0108642578125,1.05023193359375,30.700000762939453,0.0,-45.0,-1.0272064208984375,-0.930908203125,Waiting,0.0,0.0,-114.0,0.0,0.0,0.0,0.0,0.0,
3.524903,0.0,0.0,false,4360867.983471074,,-6116.0,1.25,412.5,420.0,0.0,0.0,2.347411869,0.5533560492066917,-0.0012207030000004337,-46493.0,2.875,-382.5,-420.0,0.0,0.0,4.583739765000001,1.9228160581136373,0.0012207029999995456,16824.0,1.625,435.0,420.0,0.0,0.0,3.463134411,4.40175868900686,0.0,-31683.0,2.125,-420.0,-420.0,0.0,0.0,0.5822753310000001,3.0252667311543298,0.0,1.9199999570846558,-0.4300000071525574,46.47999954223633,-0.03228759765625,0.00457763671875,0.908447265625,30.700000762939453,0.0,-36.0,-1.0274505615234375,-0.9310760498046875,Waiting,0.0,0.0,-114.0,0.0,0.0,0.0,0.0,0.0,
3.564049999999999,0.0,0.0,false,4361141.558762887,,-6116.0,1.25,412.5,420.0,0.0,0.0,2.347411869,0.5533560492066917,0.0,-46493.0,2.875,-382.5,-420.0,0.0,0.0,4.584960468,1.9228160581136373,0.0,16824.0,1.5,450.0,420.0,0.0,0.0,3.463134411,4.40175868900686,0.0,-31683.0,2.0,-427.5,-420.0,0.0,0.0,0.576171816,3.0252667311543298,0.0,1.9299999475479126,-0.4000000059604645,45.18000030517578,-0.04046630859375,0.0029296875,1.03350830078125,30.700000762939453,0.0,-46.0,-1.0276336669921875,-0.93145751953125,Waiting,0.0,0.0,-114.0,0.0,0.0,0.0,0.0,0.0,
3.599162,0.0,0.0,false,4361338.58436214,,-6116.0,1.25,412.5,420.0,0.0,0.0,2.341308354,0.5533560492066917,0.0012207030000004337,-46493.0,2.875,-375.0,-420.0,0.0,0.0,4.584960468,1.9228160581136373,-0.0012207029999995456,16824.0,1.375,450.0,420.0,0.0,0.0,3.463134411,4.40175868900686,0.0,-31752.0,2.125,-427.5,-420.0,0.0,0.0,0.5822753310000001,3.0252667311543298,-0.0012207029999999897,1.9600000381469727,-0.33000001311302185,43.27000045776367,-0.07550048828125,0.0335693359375,1.08380126953125,30.700000762939453,0.0,-52.0,-1.027923583984375,-0.9322357177734375,Waiting,0.0,0.0,-114.0,0.0,0.0,0.0,0.0,0.0,
3.6445540000000003,0.0,0.0,false,4361455.080082135,,-6049.0,0.75,412.5,0.0,0.0,0.0,2.347411869,0.0,0.0,-46554.0,2.625,-375.0,-0.0,0.0,0.0,4.583739765000001,0.0,0.0,16894.0,0.625,435.0,0.0,0.0,0.0,3.4643551140000004,0.0,0.0,-31752.0,1.375,-427.5,-0.0,0.0,2.875,0.587158143,0.0,0.0012207029999999897,1.9800000190734863,-0.30000001192092896,41.34000015258789,-0.0020751953125,0.03887939453125,1.0308837890625,30.700000762939453,0.0,4.0,-1.028045654296875,-0.9329071044921875,Waiting,0.0,0.0,-114.0,0.0,0.0,0.0,0.0,0.0,
3.6845379999999985,0.0,0.0,false,4361416.672131147,,-6049.0,0.25,390.0,0.0,0.0,1.25,2.335204839,0.0,0.0,-46554.0,1.5,-375.0,-0.0,0.0,4.25,4.559325705,0.0,0.0,16894.0,0.375,420.0,0.0,0.0,1.625,3.549804324,0.0,0.0,-31752.0,0.25,-382.5,-0.0,0.0,7.875,0.832519446,0.0,0.009765623999999917,1.9700000286102295,-0.20999999344348907,40.11000061035156,-0.0059814453125,0.02410888671875,1.03472900390625,30.700000762939453,0.0,-9.0,-1.0279693603515625,-0.9333648681640625,Waiting,0.0,0.0,-114.0,0.0,0.0,0.0,0.0,0.0,
3.7244399999999986,0.0,0.0,false,4361299.010224949,,-6049.0,0.125,307.5,0.0,0.0,1.5,2.255859144,0.0,-0.0012207030000004337,-46554.0,0.625,-277.5,-0.0,0.0,6.125,4.24804644,0.0,-0.003662109000000413,16894.0,0.0,322.5,0.0,0.0,2.25,3.719482041,0.0,0.0,-31752.0,0.125,-345.0,-0.0,0.0,7.875,1.114501839,0.0,0.009765623999999917,1.9199999570846558,-0.10999999940395355,38.43000030517578,-0.00653076171875,0.07452392578125,1.033935546875,30.700000762939453,0.0,21.0,-1.0281219482421875,-0.9344635009765625,Waiting,0.0,0.0,-114.0,0.0,0.0,0.0,0.0,0.0,
3.753146999999999,0.0,0.0,false,4361107.020408163,,-6013.0,0.125,210.0,0.0,0.0,0.375,2.130126735,0.0,-0.10742186399999909,-46582.0,0.75,-157.5,-0.0,0.0,1.25,3.978271077,0.0,-0.3833007420000003,16931.0,0.0,210.0,0.0,0.0,0.125,3.8903804610000003,0.0,0.2758788780000003,-31800.0,0.0,-285.0,-0.0,0.0,1.125,1.3940428260000002,0.0,0.5163573690000005,1.8899999856948853,0.009999999776482582,37.540000915527344,0.13800048828125,-0.017822265625,0.967041015625,30.700000762939453,0.0,78.0,-1.0282745361328125,-0.9354705810546875,Waiting,0.0,0.0,-114.0,0.0,0.0,0.0,0.0,0.0,
3.790137999999999,0.0,0.0,false,4360762.329938901,,-6013.0,0.25,202.5,0.0,0.0,0.25,1.9958494050000002,0.0,-0.10742186399999909,-46582.0,1.125,-120.0,-0.0,0.0,1.0,3.696288684,0.0,-0.26977536299999993,16931.0,0.0,217.5,0.0,0.0,0.0,3.9941402160000004,0.0,0.1599120929999991,-31800.0,0.25,-262.5,-0.0,0.0,1.375,1.702880685,0.0,0.29052731399999976,2.0,0.25,36.720001220703125,0.0535888671875,0.0426025390625,1.1043701171875,30.700000762939453,0.0,41.0,-1.027587890625,-0.9376220703125,Waiting,0.0,0.0,-114.0,0.0,0.0,0.0,0.0,0.0,
3.8325599999999995,0.0,0.0,false,4360340.260162601,,-6013.0,0.125,240.0,0.0,0.0,0.125,1.90429668,0.0,-0.15014646900000095,-46582.0,1.125,-127.5,-0.0,0.0,1.125,3.406982073,0.0,-0.26977536299999993,16931.0,0.0,247.5,0.0,0.0,0.0,4.0332027120000005,0.0,0.1599120929999991,-31800.0,0.125,-225.0,-0.0,0.0,1.375,1.939697067,0.0,0.29052731399999976,2.0299999713897705,0.3499999940395355,36.5,0.0416259765625,0.0948486328125,0.78643798828125,30.700000762939453,0.0,69.0,-1.026580810546875,-0.9390869140625,Waiting,0.0,0.0,-114.0,0.0,0.0,0.0,0.0,0.0,
3.8693099999999996,0.0,0.0,false,4359841.152129818,,-5977.0,0.0,240.0,0.0,0.0,0.125,1.8469236390000001,0.0,-0.1293945179999998,-46613.0,0.75,-180.0,-0.0,0.0,1.375,3.126220383,0.0,-0.34301754299999976,16966.0,0.0,240.0,0.0,0.0,0.0,4.05273396,0.0,0.10620116100000043,-31837.0,0.0,-210.0,-0.0,0.0,1.375,2.191161885,0.0,0.3039550470000001,2.2300000190734863,0.27000001072883606,36.41999816894531,-0.0234375,0.0966796875,1.14532470703125,30.700000762939453,0.0,7.0,-1.0252838134765625,-0.940032958984375,Waiting,0.0,0.0,-114.0,0.0,0.0,0.0,0.0,0.0,
3.9064749999999986,0.0,0.0,false,4359195.659919028,,-5977.0,0.0,150.0,0.0,0.0,0.0,1.8310545,0.0,-0.12329100300000029,-46613.0,0.625,-165.0,-0.0,0.0,1.5,2.838134475,0.0,-0.5651854890000001,16966.0,0.0,120.0,0.0,0.0,0.0,4.05273396,0.0,-4.906392583,-31837.0,0.0,-210.0,-0.0,0.0,0.875,2.438964594,0.0,0.5688475980000005,2.119999885559082,0.14000000059604645,36.33000183105469,-0.05865478515625,-0.04925537109375,0.93060302734375,30.700000762939453,0.0,-98.0,-1.023895263671875,-0.9410247802734375,Waiting,0.0,0.0,-114.0,0.0,0.0,0.0,0.0,0.0,
3.947029999999999,0.0,0.0,false,4358474.585858586,,-5977.0,0.125,82.5,8.4,0.0,0.0,1.8212888760000001,4.962758997895983,-0.01586913899999942,-46613.0,0.75,-60.0,-8.4,0.0,0.25,2.70996066,4.94776274790234,-0.22949216399999983,16966.0,0.0,52.5,8.4,0.0,0.0,4.05273396,4.952761497900221,0.0,-31837.0,0.0,-187.5,-8.4,0.0,0.25,2.507323962,4.946263122902976,0.18554685599999932,1.9800000190734863,0.05000000074505806,36.2400016784668,-0.0091552734375,0.02276611328125,0.965576171875,30.700000762939453,0.0,-14.0,-1.023651123046875,-0.9422607421875,Waiting,0.0,0.0,-114.0,0.0,0.0,0.0,0.0,0.0,
3.9852609999999986,0.0,0.0,false,4357678.129032258,,-5965.0,0.125,75.0,8.4,0.0,0.0,1.822509579,4.9619316982269295,-0.01586913899999942,-46611.0,1.0,0.0,-8.4,0.0,0.0,2.680663788,4.946937948131561,-0.22949216399999983,16982.0,0.0,90.0,8.4,0.0,0.0,4.046630445,4.951935864830017,0.0,-31851.0,0.125,-97.5,-8.4,0.0,0.0,2.5268552100000004,4.945438573122025,0.06347655600000035,1.9800000190734863,0.03999999910593033,36.209999084472656,-0.0126953125,0.07330322265625,1.0008544921875,30.700000762939453,0.0,11.0,-1.0236968994140625,-0.9431915283203125,Waiting,0.0,0.0,-114.0,0.0,0.0,0.0,0.0,0.0,
4.023343999999999,0.0,0.0,false,4356733.247484909,,-5965.0,0.125,75.0,8.4,0.0,0.0,1.822509579,4.961517995791966,0.0,-46611.0,1.25,0.0,-8.4,0.0,0.0,2.680663788,4.94652549580468,4.853785166,16982.0,0.0,112.5,8.4,0.0,0.0,4.053954663,4.951522995800442,-0.0012207030000004337,-31851.0,0.375,-30.0,-8.4,0.0,0.0,2.5268552100000004,4.945026245805952,0.06347655600000035,2.0199999809265137,0.009999999776482582,36.22999954223633,-0.02264404296875,0.06488037109375,1.02105712890625,30.700000762939453,0.0,-1.0,-1.0237274169921875,-0.944000244140625,Waiting,0.0,0.0,-114.0,0.0,0.0,0.0,0.0,0.0,
4.052642,0.0,0.0,false,4355714.329317269,,-5965.0,0.125,67.5,8.4,0.0,0.0,1.827392391,4.962069563971626,0.0012207029999995456,-46611.0,1.375,0.0,-8.4,0.0,0.0,2.6904294120000003,4.947075397279527,-0.01342773300000033,16982.0,0.0,112.5,8.4,0.0,0.0,4.05273396,4.95207345284356,0.0012207030000004337,-31851.0,0.5,-7.5,-8.4,0.0,0.0,2.512206774,4.945575980610317,0.004882811999999959,2.0399999618530273,-0.009999999776482582,36.2599983215332,-0.02252197265625,-0.00628662109375,0.96746826171875,30.700000762939453,0.0,-42.0,-1.0237579345703125,-0.9449462890625,Waiting,0.0,0.0,-114.0,0.0,0.0,0.0,0.0,0.0,
4.097092999999999,0.0,0.0,false,4354552.577154309,,-5957.0,0.125,60.0,8.4,0.0,0.0,1.8212888760000001,4.962207429716322,0.0,-46612.0,1.25,0.0,-8.4,0.0,0.0,2.6953122240000003,4.947212846427493,0.008544921000000372,16989.0,0.0,60.0,8.4,0.0,0.0,4.05273396,4.952211040857103,0.0,-31857.0,0.5,-30.0,-8.4,0.0,0.0,2.518310289,4.945713388098611,-0.006103515000000392,1.9600000381469727,-0.05000000074505806,36.2599983215332,-0.00872802734375,0.0235595703125,1.00054931640625,30.700000762939453,0.0,-12.0,-1.024139404296875,-0.9460906982421875,Waiting,0.0,0.0,-114.0,0.0,0.0,0.0,0.0,0.0,
