Time,ClimberA1,ClimberA2,CameraExists,HeapSpace,LoopTime,FRpos,FRCurrent,FRspeed,FRsetpoint,FRApos,FRACurrent,FREncpos,FREncSetpoint,FREncSpeed,FLpos,FLCurrent,FLspeed,FLsetpoint,FLApos,FLACurrent,FLEncpos,FLEncSetpoint,FLEncSpeed,BRpos,BRCurrent,BRspeed,BRsetpoint,BRApos,BRACurrent,BREncpos,BREncSetpoint,BREncSpeed,BLpos,BLCurrent,BLspeed,BLsetpoint,BLApos,BLACurrent,BLEncpos,BLEncSetpoint,BLEncSpeed,navx_Pitch,navx_Roll,navx_Yaw,navx_XAcc,navx_YAcc,navx_ZAcc,navx_Temp,navx_Bar,navx_Alt,navx_XDis,navx_YDis,GearPlacerState,ShootOutputV,ShootOutputCurrent,ShootEncPos,ShootEncVelocity,ShootSpeed,ShootSetpoint,CarouselSetpoint,CarouselCurrent,
0.18267600000000675,0.0,0.0,false,3743562.130242489,,-7253.0,0.0,0.0,0.0,0.0,0.0,1.8457029360000001,0.0,0.0,-53542.0,0.0,0.0,0.0,0.0,0.0,2.714843472,0.0,0.0,16088.0,0.0,0.0,0.0,0.0,0.0,3.9990230280000003,0.0,0.0,-31255.0,0.0,0.0,0.0,0.0,0.0,2.510986071,0.0,0.0,1.190000057220459,0.10000000149011612,78.62999725341797,0.004150390625,0.0196533203125,0.9984130859375,31.530000686645508,0.0,0.0,-0.9815673828125,-0.5121307373046875,Waiting,0.0,0.0,-114.0,0.0,0.0,0.0,0.0,0.0,
0.2720059999999939,0.0,0.0,false,3743779.374199451,,-7253.0,5.625,127.5,1260.0,0.0,0.0,1.856689263,0.0,0.0,-53542.0,8.25,-180.0,-1260.0,0.0,0.0,2.718505581,0.0,0.0,16088.0,10.25,150.0,1260.0,0.0,0.0,3.9953609190000003,-0.0,0.0,-31255.0,10.25,-135.0,-1260.0,0.0,0.0,2.520751695,-0.0,0.0,1.0099999904632568,0.8899999856948853,78.63999938964844,0.20745849609375,-0.2410888671875,0.5849609375,31.530000686645508,0.0,-207.0,-0.9807891845703125,-0.5145416259765625,Waiting,0.0,0.0,-114.0,0.0,0.0,0.0,0.0,0.0,
0.37288699999998787,0.0,0.0,false,3743976.520811099,,-7185.0,8.375,397.5,1260.0000000000002,0.0,0.0,1.8457029360000001,2.7573148939344627E-4,0.0,-53602.0,10.625,-375.0,-1260.0000000000002,0.0,0.0,2.719726284,2.7489829593234594E-4,0.0,16142.0,12.0,382.5,1260.0000000000002,0.0,0.0,3.9941402160000004,2.7517602708604605E-4,0.0,-31301.0,12.625,-337.5,-1260.0000000000002,0.0,0.0,2.517089586,2.7481497658623594E-4,0.0,1.0,2.0999999046325684,78.43000030517578,0.25152587890625,0.0247802734375,0.62799072265625,31.530000686645508,0.0,59.0,-0.974151611328125,-0.5344696044921875,Waiting,0.0,0.0,-114.0,0.0,0.0,0.0,0.0,0.0,
0.47779800000000977,0.0,0.0,false,3744153.91097561,,-7068.0,8.5,720.0,1260.0,0.0,0.0,1.8457029360000001,4.961380077446832,0.0,-53723.0,9.625,-750.0,-1260.0,0.0,0.0,2.718505581,4.946387994215224,0.0,16253.0,10.5,765.0,1260.0,0.0,0.0,3.9929195130000004,4.951385355292426,0.0,-31406.0,12.0,-727.5,-1260.0,0.0,0.0,2.5366208340000003,4.944888785892062,0.0,1.1200000047683716,2.940000057220459,78.27999877929688,0.145751953125,-0.1170654296875,0.9866943359375,31.530000686645508,0.0,-114.0,-0.963134765625,-0.571441650390625,Waiting,0.0,0.0,-114.0,0.0,0.0,0.0,0.0,0.0,
0.5742779999999912,0.0,0.0,false,3744305.1790885534,,-6902.0,6.0,1020.0,1260.0000000000002,0.0,0.0,1.8457029360000001,4.959311723073324,0.0,-53889.0,7.0,-1020.0,-1260.0000000000002,0.0,0.0,2.724609096,4.9443258899052935,0.0,16416.0,8.125,997.5,1260.0000000000002,0.0,0.0,3.9892574040000004,4.9493211676279705,0.0,-31561.0,9.625,-982.5,-1260.0000000000002,0.0,0.0,2.525634507,4.942827306588491,0.0,1.090000033378601,3.440000057220459,77.94000244140625,0.049072265625,0.12664794921875,1.0567626953125,31.530000686645508,0.0,101.0,-0.9579620361328125,-0.619110107421875,Waiting,0.0,0.0,-114.0,0.0,0.0,0.0,0.0,0.0,
0.6834809999999998,0.0,0.0,false,3744436.691252667,,-6704.0,4.25,1200.0,1260.0,0.0,0.0,1.8469236390000001,4.954623551347521,0.0,-54079.0,5.5,-1162.5,-1260.0,0.0,0.0,2.729491908,4.9396518846935695,0.0,16614.0,5.625,1192.5,1260.0,0.0,0.0,3.9892574040000004,4.944642440244887,0.0,-31748.0,7.75,-1155.0,-1260.0,0.0,0.0,2.5268552100000004,4.938154718028175,0.0,1.159999966621399,3.559999942779541,77.4800033569336,0.093017578125,-0.04327392578125,0.8494873046875,31.549999237060547,0.0,-50.0,-0.9559783935546875,-0.6708526611328125,Waiting,0.0,0.0,-114.0,0.0,0.0,0.0,0.0,0.0,
0.7902770000000019,0.0,0.0,false,3744548.4760018284,,-6704.0,2.875,1320.0,1260.0000000000002,0.0,0.0,1.8395994210000002,4.948280675082737,0.0,-54079.0,4.625,-1230.0,-1260.0000000000002,0.0,0.0,2.7490231560000002,4.933328175057305,0.004882811999999959,16614.0,4.25,1282.5,1260.0000000000002,0.0,0.0,3.9892574040000004,4.938312341732449,0.0,-31748.0,6.375,-1245.0,-1260.0000000000002,0.0,0.0,2.5305173190000003,4.931832925054762,0.0,1.3799999952316284,3.2899999618530273,77.0199966430664,0.02960205078125,-0.4635009765625,1.99993896484375,31.549999237060547,0.0,-517.0,-0.9521942138671875,-0.7229461669921875,Waiting,0.0,0.0,-114.0,0.0,0.0,0.0,0.0,0.0,
0.8912949999999837,0.0,0.0,false,3744633.8769043265,,-6487.0,2.125,1350.0,1260.0,0.0,0.0,1.861572075,4.94193769361708,-0.0012207030000004337,-54284.0,4.625,-1245.0,-1260.0,0.0,0.0,2.762450889,4.927004360538058,0.01953124800000028,16821.0,3.625,1320.0,1260.0,0.0,0.0,3.9904781070000004,4.931982138231065,-0.0012207030000004337,-31951.0,5.5,-1275.0,-1260.0,0.0,0.0,2.5292966160000003,4.925511027230157,0.006103515000000392,1.5,3.2899999618530273,76.5199966430664,0.060546875,-0.04388427734375,1.79864501953125,31.549999237060547,0.0,-98.0,-0.947052001953125,-0.76605224609375,Waiting,0.0,0.0,-114.0,0.0,0.0,0.0,0.0,0.0,
0.9897440000000061,0.0,0.0,false,3744699.5704493527,,-6273.0,2.0,1327.5,1260.0,0.0,0.0,1.8444822330000001,4.933664381323921,0.0,-54474.0,5.375,-1207.5,-1260.0,0.0,0.0,2.764892295,4.918756048181321,0.014648435999999876,17034.0,3.0,1327.5,1260.0,0.0,0.0,3.9904781070000004,4.923725492562188,0.0,-32156.0,5.5,-1267.5,-1260.0,0.0,0.0,2.5305173190000003,4.917265214867062,0.0,1.4500000476837158,2.930000066757202,75.91999816894531,0.1234130859375,0.08612060546875,1.7652587890625,31.549999237060547,0.0,47.0,-0.9412841796875,-0.8126373291015625,Waiting,0.0,0.0,-114.0,0.0,0.0,0.0,0.0,0.0,
1.090997000000003,0.0,0.0,false,3744745.565641182,,-6063.0,2.0,1305.0,1260.0,0.0,0.0,1.850585748,4.925942637210422,0.0012207030000004337,-54667.0,5.25,-1207.5,-1260.0,0.0,0.0,2.7368161260000003,4.9110576372994315,0.003662108999999969,17244.0,3.0,1305.0,1260.0,0.0,0.0,3.9904781070000004,4.916019303936428,0.0,-32358.0,5.375,-1275.0,-1260.0,0.0,0.0,2.5305173190000003,4.909569137308332,0.0,1.2999999523162842,2.950000047683716,75.52999877929688,-0.1962890625,-0.04217529296875,1.2801513671875,31.549999237060547,0.0,-134.0,-0.9342803955078125,-0.857940673828125,Waiting,0.0,0.0,-114.0,0.0,0.0,0.0,0.0,0.0,
1.190021000000008,0.0,0.0,false,3744765.5209380235,,-5855.0,2.0,1297.5,1260.0,0.0,0.0,1.8395994210000002,4.92139227862888,0.0,-54871.0,4.75,-1260.0,-1260.0,0.0,0.0,2.6855466000000003,4.906521028794183,-0.036621090000000134,17453.0,3.0,1297.5,1260.0,0.0,0.0,3.9892574040000004,4.911478112072415,0.0,-32568.0,5.0,-1305.0,-1260.0,0.0,0.0,2.5305173190000003,4.905033903810713,-0.0012207029999995456,1.3899999856948853,2.6700000762939453,75.30999755859375,0.08612060546875,-0.12066650390625,1.265869140625,31.520000457763672,0.0,-138.0,-0.929107666015625,-0.8964996337890625,Waiting,0.0,0.0,-114.0,0.0,0.0,0.0,0.0,0.0,
1.288828999999998,0.0,0.0,false,3744765.485992692,,-5650.0,2.0,1282.5,1260.0,0.0,0.0,1.8457029360000001,4.918358706241184,0.0,-55080.0,3.875,-1297.5,-1260.0,0.0,0.0,2.66113254,4.903496623124016,4.905054692,17658.0,3.0,1282.5,1260.0,0.0,0.0,3.9892574040000004,4.908450650829739,0.0,-32781.0,4.375,-1327.5,-1260.0,0.0,0.0,2.5366208340000003,4.9020104148123,0.0,1.2999999523162842,2.630000114440918,75.38999938964844,0.02496337890625,0.032958984375,0.90576171875,31.520000457763672,0.0,7.0,-0.9261016845703125,-0.9289398193359375,Waiting,0.0,0.0,-114.0,0.0,0.0,0.0,0.0,0.0,
1.3857309999999998,0.0,0.0,false,3744745.781701933,,-5650.0,2.0,1275.0,1260.0,0.0,0.0,1.8371580150000002,4.919461842600505,0.0,-55080.0,3.375,-1342.5,-1260.0,0.0,0.0,2.66113254,4.90459642607371,0.0,17658.0,3.0,1282.5,1260.0,0.0,0.0,3.9904781070000004,4.909551564915975,0.0,-32781.0,3.625,-1335.0,-1260.0,0.0,0.0,2.5366208340000003,4.90310988442103,0.0,1.2899999618530273,2.509999990463257,75.72000122070312,0.02911376953125,0.03961181640625,0.97711181640625,31.520000457763672,0.0,13.0,-0.927215576171875,-0.9643402099609375,Waiting,0.0,0.0,-114.0,0.0,0.0,0.0,0.0,0.0,
1.4860780000000087,0.0,0.0,false,3744706.417047184,,-5446.0,2.125,1267.5,1260.0000000000002,0.0,0.0,1.8457029360000001,4.924012201182048,0.0,-55294.0,2.875,-1327.5,-1260.0000000000002,0.0,0.0,2.66113254,4.909133034578959,0.0,17864.0,3.0,1282.5,1260.0000000000002,0.0,0.0,3.9941402160000004,4.914092756779989,0.0,-32998.0,3.25,-1350.0,-1260.0000000000002,0.0,0.0,2.5354001310000003,4.90764511791865,0.0,1.3200000524520874,2.3399999141693115,75.9800033569336,-0.0068359375,0.029296875,1.19012451171875,31.520000457763672,0.0,-11.0,-0.928985595703125,-0.9647369384765625,Waiting,0.0,0.0,-114.0,0.0,0.0,0.0,0.0,0.0,
1.5887049999999872,0.0,0.0,false,3744641.05432963,,-5240.0,1.75,1290.0,1260.0,0.0,0.0,1.8469236390000001,4.9275973417494034,0.0,-55508.0,2.875,-1327.5,-1260.0,0.0,0.0,2.66113254,4.912707341723972,0.0,18068.0,3.0,1275.0,1260.0,0.0,0.0,3.9892574040000004,4.917670675065782,0.0,-33212.0,3.125,-1320.0,-1260.0,0.0,0.0,2.5354001310000003,4.911218341721429,0.0,1.3700000047683716,2.109999895095825,76.26000213623047,0.03680419921875,0.085205078125,1.13629150390625,31.520000457763672,0.0,54.0,-0.9340667724609375,-0.964935302734375,Waiting,0.0,0.0,-114.0,0.0,0.0,0.0,0.0,0.0,
1.7082079999999842,0.0,0.0,false,3744864.3347535,,-5034.0,1.625,1290.0,1260.0,0.0,0.0,1.8457029360000001,4.931458213806153,0.0,-55718.0,2.375,-1312.5,-1260.0,0.0,0.0,2.662353243,4.916556547164917,0.0,18274.0,3.0,1267.5,1260.0,0.0,0.0,3.9892574040000004,4.921523769378662,0.0,-33421.0,3.0,-1305.0,-1260.0,0.0,0.0,2.5354001310000003,4.915066380500793,0.0,1.4199999570846558,1.8899999856948853,76.37000274658203,-0.02667236328125,-0.036865234375,1.0982666015625,31.510000228881836,0.0,-77.0,-0.9404296875,-0.962799072265625,Waiting,0.0,0.0,-114.0,0.0,0.0,0.0,0.0,0.0,
1.8147569999999833,0.0,0.0,false,3745067.405446524,,-4823.0,1.25,1312.5,1260.0,0.0,0.0,1.8664548870000002,4.932975000000001,0.0,-55931.0,2.125,-1320.0,-1260.0,0.0,0.0,2.66113254,4.91806875,0.0,18478.0,3.0,1275.0,1260.0,0.0,0.0,3.9880367010000004,4.9230375,0.0,-33630.0,2.875,-1305.0,-1260.0,0.0,0.0,2.5354001310000003,4.916578125,0.0,1.4299999475479126,1.7400000095367432,76.48999786376953,-0.0816650390625,0.08111572265625,0.91607666015625,31.510000228881836,0.0,30.0,-0.9489593505859375,-0.956787109375,Waiting,0.0,0.0,-114.0,0.0,0.0,0.0,0.0,0.0,
1.9190409999999973,0.0,0.0,false,3745250.6248859144,,-4649.0,0.5,1072.5,0.0,0.0,0.0,1.8457029360000001,0.0,0.0,-56106.0,0.125,-1087.5,-0.0,0.0,0.0,2.66113254,0.0,0.0,18641.0,0.0,825.0,0.0,0.0,0.0,4.0307613060000005,0.0,0.0,-33816.0,0.125,-1020.0,-0.0,0.0,0.0,2.5415036460000002,0.0,0.0,1.3899999856948853,0.6499999761581421,76.63999938964844,-0.485107421875,0.31219482421875,0.4918212890625,31.510000228881836,0.0,178.0,-0.9583740234375,-0.9418487548828125,Waiting,0.0,0.0,-114.0,0.0,0.0,0.0,0.0,0.0,
2.031723999999987,0.0,0.0,false,3745413.983878327,,-4515.0,1.5,765.0,0.0,0.0,0.0,1.8420408270000002,0.0,0.0,-56240.0,0.75,-750.0,-0.0,0.0,0.0,2.662353243,0.0,0.0,18729.0,0.0,547.5,0.0,0.0,0.0,4.012450761,0.0,0.0,-33949.0,0.625,-795.0,-0.0,0.0,0.0,2.55126927,0.0,0.0,1.5199999809265137,-1.0099999904632568,76.77999877929688,-0.4837646484375,0.10546875,1.9122314453125,31.510000228881836,0.0,-49.0,-0.971771240234375,-0.902252197265625,Waiting,0.0,0.0,-114.0,0.0,0.0,0.0,0.0,0.0,
2.1492489999999815,0.0,0.0,false,3745550.791970803,,-4451.0,1.125,390.0,0.0,0.0,0.125,1.861572075,0.0,0.0,-56303.0,0.375,-382.5,-0.0,0.0,0.0,2.66113254,0.0,0.0,18783.0,0.0,277.5,0.0,0.0,0.0,4.013671464000001,0.0,0.0,-34015.0,0.375,-330.0,-0.0,0.0,0.0,2.5390622400000002,0.0,0.0,1.4199999570846558,-2.0999999046325684,76.80999755859375,-0.245361328125,0.08038330078125,0.87811279296875,31.450000762939453,0.0,8.0,-0.9884796142578125,-0.83355712890625,Waiting,0.0,0.0,-114.0,0.0,0.0,0.0,0.0,0.0,
2.259665000000008,0.0,0.0,false,3745667.778014292,,-4440.0,0.125,52.5,0.0,0.0,0.0,1.8469236390000001,0.0,0.0,-56313.0,0.0,-45.0,-0.0,0.0,0.0,2.662353243,0.0,0.0,18796.0,0.0,60.0,0.0,0.0,0.0,4.014892167,0.0,0.0,-34027.0,0.0,-52.5,-0.0,0.0,0.0,2.5402829430000002,0.0,0.0,1.4299999475479126,-2.6700000762939453,76.77999877929688,-0.0169677734375,0.04962158203125,0.9544677734375,31.450000762939453,0.0,7.0,-0.99017333984375,-0.748626708984375,Waiting,0.0,0.0,-114.0,0.0,0.0,0.0,0.0,0.0,
2.3696929999999994,0.0,0.0,false,3745764.639708118,,-4437.0,0.25,-7.5,420.0,0.0,1.875,1.956786909,0.5533560492066917,0.0,-56314.0,0.25,0.0,-420.0,0.0,6.375,2.9565426660000003,1.9228160581136373,0.0,18809.0,1.875,75.0,420.0,0.0,1.75,3.77197227,4.40175868900686,0.0,-34041.0,0.625,-60.0,-420.0,0.0,9.75,2.208251727,3.0252667311543298,0.0,1.4299999475479126,-2.3499999046325684,76.94999694824219,0.09832763671875,-0.07904052734375,0.97528076171875,31.450000762939453,0.0,-69.0,-0.9908905029296875,-0.685699462890625,Waiting,0.0,0.0,-114.0,0.0,0.0,0.0,0.0,0.0,
2.4736809999999823,0.0,0.0,false,3745841.69752242,,-4417.0,0.5,120.0,420.0,0.0,0.25,2.366943117,0.5533560492066917,0.0,-56353.0,0.5,-195.0,-420.0,0.0,1.5,3.812255469,1.9228160581136373,0.0,18827.0,2.875,105.0,420.0,0.0,0.0,3.460693005,4.40175868900686,0.0,-34037.0,2.0,0.0,-420.0,0.0,1.875,1.431884619,3.0252667311543298,0.0,1.4299999475479126,-1.6200000047683716,76.56999969482422,6.103515625E-5,0.01312255859375,1.06805419921875,31.450000762939453,0.0,-6.0,-0.9900360107421875,-0.60992431640625,Waiting,0.0,0.0,-114.0,0.0,0.0,0.0,0.0,0.0,
2.5835620000000055,0.0,0.0,false,3745892.577507599,,-4417.0,1.125,120.0,420.0,0.0,0.0,2.519530992,0.5533560492066917,0.0,-56353.0,1.25,-142.5,-420.0,0.0,1.0,4.569091329,1.9228160581136373,0.0,18827.0,3.0,172.5,420.0,0.0,0.0,3.331298487,4.40175868900686,0.0,-34051.0,4.125,-60.0,-420.0,0.0,1.5,0.668945244,3.0252667311543298,0.0,1.2999999523162842,-1.7400000095367432,75.43000030517578,-0.10955810546875,-0.1246337890625,0.9249267578125,31.450000762939453,0.0,-161.0,-0.9900360107421875,-0.6005096435546875,Waiting,0.0,0.0,-114.0,0.0,0.0,0.0,0.0,0.0,
2.696728999999992,0.0,0.0,false,3745923.362406929,,-4403.0,2.625,15.0,420.0,0.0,0.125,2.493896229,0.5533560492066917,0.0,-56371.0,2.75,-75.0,-420.0,0.0,2.125,4.722899907,1.9228160581136373,0.0,18859.0,3.25,195.0,420.0,0.0,0.0,3.337402002,4.40175868900686,0.0,-34051.0,3.625,-165.0,-420.0,0.0,0.0,0.2441406,3.0252667311543298,0.0,1.6200000047683716,-1.9299999475479126,73.48999786376953,-0.0611572265625,0.10650634765625,1.03424072265625,31.440000534057617,0.0,66.0,-0.9930267333984375,-0.5977325439453125,Waiting,0.0,0.0,-114.0,0.0,0.0,0.0,0.0,0.0,
2.808054999999993,0.0,0.0,false,3745934.0613795198,,-4380.0,1.875,330.0,420.0,0.0,0.0,2.469482169,0.5533560492066917,0.0,-56378.0,2.25,-240.0,-420.0,0.0,0.0,4.7106928770000005,1.9228160581136373,0.0,18890.0,5.375,202.5,420.0,0.0,0.0,3.4252926180000003,4.40175868900686,0.0,-34085.0,2.875,-300.0,-420.0,0.0,0.5,0.294189423,3.0252667311543298,0.0,1.75,-1.7999999523162842,70.51000213623047,0.0128173828125,0.003662109375,0.78839111328125,31.440000534057617,0.0,-6.0,-0.992828369140625,-0.5934295654296875,Waiting,0.0,0.0,-114.0,0.0,0.0,0.0,0.0,0.0,
2.9114929999999877,0.0,0.0,false,3745924.994683275,,-4329.0,1.75,292.5,420.0,0.0,0.0,2.470702872,0.5533560492066917,0.0,-56463.0,0.5,-457.5,-420.0,0.0,0.0,4.704589362,1.9228160581136373,0.0,18925.0,5.875,262.5,420.0,0.0,0.0,3.450927381,4.40175868900686,0.0,-34140.0,2.25,-405.0,-420.0,0.0,0.0,0.578613222,3.0252667311543298,0.0,1.6299999952316284,-1.5299999713897705,66.7699966430664,0.03350830078125,0.0052490234375,0.990234375,31.440000534057617,0.0,2.0,-0.993927001953125,-0.59124755859375,Waiting,0.0,0.0,-114.0,0.0,0.0,0.0,0.0,0.0,
3.024154999999999,0.0,0.0,false,3745889.7922235723,,-4274.0,1.75,367.5,420.0,0.0,0.125,2.45361303,0.5533560492066917,0.0,-56529.0,1.0,-427.5,-420.0,0.0,0.0,4.7058100650000005,1.9228160581136373,0.0,18982.0,4.375,397.5,420.0,0.0,0.0,3.453368787,4.40175868900686,0.0,-34212.0,1.5,-510.0,-420.0,0.0,0.0,0.760497969,3.0252667311543298,0.0,1.6299999952316284,-1.0,61.459999084472656,0.0723876953125,-0.06402587890625,1.13250732421875,31.440000534057617,0.0,-40.0,-0.9959869384765625,-0.5964202880859375,Waiting,0.0,0.0,-114.0,0.0,0.0,0.0,0.0,0.0,
3.1292799999999987,0.0,0.0,false,3745834.5330296126,,-4203.0,1.25,450.0,420.0,0.0,0.0,2.419433346,0.5533560492066917,0.0,-56598.0,1.0,-420.0,-420.0,0.0,0.0,4.704589362,1.9228160581136373,0.0,19065.0,2.5,547.5,420.0,0.0,0.0,3.435058242,4.40175868900686,0.0,-34299.0,1.0,-510.0,-420.0,0.0,0.0,0.771484296,3.0252667311543298,0.0,1.6299999952316284,-0.6800000071525574,56.11000061035156,0.02008056640625,0.01312255859375,1.08648681640625,31.440000534057617,0.0,3.0,-0.9975128173828125,-0.6055145263671875,Waiting,0.0,0.0,-114.0,0.0,0.0,0.0,0.0,0.0,
3.242475000000006,0.0,0.0,false,3745759.5372001217,,-4134.0,1.25,427.5,420.0,0.0,0.0,2.412109128,0.5533560492066917,0.0,-56664.0,1.25,-405.0,-420.0,0.0,0.0,4.7058100650000005,1.9228160581136373,0.0,19155.0,1.75,555.0,420.0,0.0,0.0,3.458251599,4.40175868900686,0.0,-34369.0,1.25,-420.0,-420.0,0.0,0.0,0.6726073530000001,3.0252667311543298,0.0,1.7300000190734863,-0.47999998927116394,50.290000915527344,-0.0126953125,0.02972412109375,0.96636962890625,31.420000076293945,0.0,-2.0,-0.9982147216796875,-0.61236572265625,Waiting,0.0,0.0,-114.0,0.0,0.0,0.0,0.0,0.0,
3.3521149999999906,0.0,0.0,false,3745981.1665401547,,-4066.0,1.375,420.0,420.0,0.0,0.0,2.414550534,0.5533560492066917,-0.006103515000000392,-56727.0,1.625,-390.0,-420.0,0.0,0.0,4.7058100650000005,1.9228160581136373,0.0,19238.0,1.75,502.5,420.0,0.0,0.0,3.449706678,4.40175868900686,0.0,-34457.0,0.5,-570.0,-420.0,0.0,0.0,0.6103515,3.0252667311543298,0.0,1.8899999856948853,-0.4399999976158142,45.47999954223633,0.00555419921875,0.06292724609375,1.17425537109375,31.420000076293945,0.0,27.0,-0.9982452392578125,-0.6116180419921875,Waiting,0.0,0.0,-114.0,0.0,0.0,0.0,0.0,0.0,
3.4541359999999988,0.0,0.0,false,3746176.586520947,,-3997.0,1.25,420.0,420.0,0.0,0.0,2.407226316,0.5533560492066917,0.0,-56796.0,1.125,-427.5,-420.0,0.0,0.0,4.7058100650000005,1.9228160581136373,0.0,19314.0,1.625,480.0,420.0,0.0,0.0,3.453368787,4.40175868900686,0.0,-34532.0,0.625,-457.5,-420.0,0.0,0.0,0.601806579,3.0252667311543298,0.0,1.9199999570846558,-0.23000000417232513,40.54999923706055,-0.0404052734375,0.00762939453125,1.14892578125,31.420000076293945,0.0,-47.0,-0.997650146484375,-0.6111297607421875,Waiting,0.0,0.0,-114.0,0.0,0.0,0.0,0.0,0.0,
3.5610480000000098,0.0,0.0,false,3746352.2027621795,,-3929.0,1.25,427.5,420.0,0.0,0.0,2.4316403760000003,0.5533560492066917,0.0,-56866.0,1.0,-435.0,-420.0,0.0,0.0,4.703368659000001,1.9228160581136373,0.0,19391.0,1.625,472.5,420.0,0.0,0.0,3.45458949,4.40175868900686,0.0,-34616.0,0.5,-517.5,-420.0,0.0,0.0,0.601806579,3.0252667311543298,0.0,1.8600000143051147,-0.029999999329447746,36.31999969482422,0.0245361328125,0.009521484375,0.9356689453125,31.420000076293945,0.0,7.0,-0.9969940185546875,-0.6114501953125,Waiting,0.0,0.0,-114.0,0.0,0.0,0.0,0.0,0.0,
3.6644739999999874,0.0,0.0,false,3746508.0060698027,,-3929.0,1.375,420.0,420.0,0.0,0.0,2.408447019,0.5533560492066917,0.0,-56866.0,1.0,-442.5,-420.0,0.0,0.0,4.7058100650000005,1.9228160581136373,0.0,19391.0,1.375,480.0,420.0,0.0,0.0,3.459472302,4.40175868900686,0.0,-34616.0,0.25,-502.5,-420.0,0.0,0.0,0.601806579,3.0252667311543298,0.0,1.8799999952316284,0.05999999865889549,32.08000183105469,0.04925537109375,0.05755615234375,1.00634765625,31.420000076293945,0.0,53.0,-0.9969329833984375,-0.6114349365234375,Waiting,0.0,0.0,-114.0,0.0,0.0,0.0,0.0,0.0,
3.7684649999999964,0.0,0.0,false,3746643.693521469,,-3861.0,0.125,360.0,0.0,0.0,2.25,2.250976332,0.0,0.0,-56938.0,0.0,-360.0,-0.0,0.0,7.75,4.335937056000001,0.0,0.0,19468.0,0.0,390.0,0.0,0.0,2.25,3.720702744,0.0,0.0,-34690.0,0.0,-360.0,-0.0,0.0,7.75,0.925292874,0.0,0.0,1.9299999475479126,0.20000000298023224,26.719999313354492,0.04791259765625,0.01715087890625,1.20745849609375,31.40999984741211,0.0,28.0,-0.9968414306640625,-0.61236572265625,Waiting,0.0,0.0,-114.0,0.0,0.0,0.0,0.0,0.0,
3.8701440000000003,0.0,0.0,false,3746753.2330097086,,-3825.0,0.125,195.0,0.0,0.0,0.125,1.860351372,0.0,0.0,-56964.0,0.0,-120.0,-0.0,0.0,0.875,3.493651986,0.0,0.0,19503.0,0.0,202.5,0.0,0.0,0.0,4.063720287000001,0.0,0.0,-34755.0,0.0,-345.0,-0.0,0.0,1.125,1.730956854,0.0,0.0,1.9500000476837158,0.6200000047683716,24.5,0.11053466796875,0.09857177734375,1.03424072265625,31.40999984741211,0.0,116.0,-0.99462890625,-0.615936279296875,Waiting,0.0,0.0,-114.0,0.0,0.0,0.0,0.0,0.0,
3.971222000000009,0.0,0.0,false,3746843.006825421,,-3793.0,0.125,150.0,0.0,0.0,0.125,1.7102049030000002,0.0,0.0,-56986.0,0.125,-75.0,-0.0,0.0,0.625,2.829589554,0.0,0.0,19537.0,0.125,135.0,0.0,0.0,0.0,4.1406245760000004,0.0,0.0,-34774.0,0.0,-105.0,-0.0,0.0,0.875,2.442626703,0.0,0.0,1.9299999475479126,0.41999998688697815,24.649999618530273,-0.03326416015625,-0.03515625,0.8746337890625,31.40999984741211,0.0,-63.0,-0.9896697998046875,-0.6192474365234375,Waiting,0.0,0.0,-114.0,0.0,0.0,0.0,0.0,0.0,
4.0740519999999965,0.0,0.0,false,3746913.0239611766,,-3786.0,0.25,37.5,0.0,0.0,0.125,1.7639158350000002,0.0,0.0,-56988.0,0.625,-7.5,-0.0,0.0,0.0,2.5378415370000003,0.0,0.0,19541.0,0.5,15.0,0.0,0.0,0.0,4.0856929410000005,0.0,0.0,-34787.0,0.0,-67.5,-0.0,0.0,0.0,2.774657919,0.0,0.0,1.909999966621399,0.3799999952316284,24.709999084472656,0.01513671875,0.06268310546875,1.1104736328125,31.40999984741211,0.0,17.0,-0.987701416015625,-0.6237030029296875,Waiting,0.0,0.0,-114.0,0.0,0.0,0.0,0.0,0.0,
4.171394,0.0,0.0,false,3746962.9828658076,,-3777.0,0.25,60.0,8.4,0.0,0.125,1.7687986470000001,0.0013788678487141927,0.0,-56990.0,0.5,-7.5,-8.4,0.0,0.0,2.5891110630000003,0.0013747012456258136,0.0,19544.0,0.5,15.0,8.4,0.0,0.0,4.057616772,0.00137609011332194,0.0,-34790.0,0.0,-22.5,-8.4,0.0,0.0,2.703857145,0.0013742845853169756,0.0,1.809999942779541,0.4099999964237213,24.68000030517578,1.220703125E-4,0.0186767578125,0.97601318359375,31.40999984741211,0.0,-11.0,-0.98809814453125,-0.6283416748046875,Waiting,0.0,0.0,-114.0,0.0,0.0,0.0,0.0,0.0,
4.274362999999983,0.0,0.0,false,3746986.8356579747,,-3776.0,0.375,15.0,8.4,0.0,0.0,1.77001935,9.652180141872833E-4,0.0,-56990.0,0.625,0.0,-8.4,0.0,0.0,2.609863014,9.62301360236274E-4,0.0,19544.0,0.5,0.0,8.4,0.0,0.0,4.05273396,9.632735782199438E-4,0.0,-34791.0,0.0,-7.5,-8.4,0.0,0.0,2.619628638,9.620096948411731E-4,0.0,1.850000023841858,0.3100000023841858,24.75,-0.0194091796875,4.2724609375E-4,1.03216552734375,31.40999984741211,0.0,-36.0,-0.9887542724609375,-0.6281280517578125,Waiting,0.0,0.0,-114.0,0.0,0.0,0.0,0.0,0.0,
4.37975,0.0,0.0,false,3746990.9607397304,,-3776.0,0.375,0.0,0.0,0.0,0.125,1.7883298950000002,0.0,0.0,-56990.0,0.25,-7.5,-0.0,0.0,0.0,2.6342770740000003,0.0,0.0,19544.0,0.375,7.5,0.0,0.0,0.0,4.05273396,0.0,0.0,-34791.0,0.0,0.0,-0.0,0.0,0.0,2.569579815,0.0,0.0,1.8300000429153442,0.3100000023841858,24.729999542236328,0.00360107421875,0.039794921875,0.99334716796875,31.40999984741211,0.0,1.0,-0.9888763427734375,-0.6282806396484375,Waiting,0.0,0.0,-114.0,0.0,0.0,0.0,0.0,0.0,
4.481551000000007,0.0,0.0,false,3746975.3670809334,,-3776.0,0.375,0.0,0.0,0.0,0.0,1.800536925,0.0,0.0,-56991.0,0.5,0.0,-0.0,0.0,0.0,2.656249728,0.0,0.0,19545.0,0.5,0.0,0.0,0.0,0.0,4.056396069,0.0,0.0,-34791.0,0.0,0.0,-0.0,0.0,0.0,2.569579815,0.0,0.0,1.7799999713897705,0.28999999165534973,24.739999771118164,0.0050048828125,0.03668212890625,1.03302001953125,31.40999984741211,0.0,1.0,-0.9888763427734375,-0.6282806396484375,Waiting,0.0,0.0,-114.0,0.0,0.0,0.0,0.0,0.0,
4.612606999999989,0.0,0.0,false,3746931.798151235,,-3765.0,2.0,90.0,294.0,0.0,0.0,1.7846677860000002,0.0,0.0,-57004.0,2.375,-90.0,-294.0,0.0,0.0,2.667236055,0.0,0.0,19556.0,2.25,90.0,294.0,0.0,0.0,4.051513257,0.0,0.0,-34819.0,0.25,-157.5,-294.0,0.0,0.0,2.569579815,0.0,0.0,1.7799999713897705,0.7699999809265137,24.790000915527344,0.05718994140625,0.01202392578125,1.0460205078125,31.440000534057617,0.0,30.0,-0.9816741943359375,-0.631591796875,Waiting,0.0,0.0,-114.0,0.0,0.0,0.0,0.0,0.0,
4.812742999999988,0.0,0.0,false,3746857.998787879,,-3688.0,5.0,277.5,638.6900656813132,0.0,1.375,2.550048567,0.8630799875740827,0.0,-57096.0,4.875,-352.5,-638.6900656813132,0.0,1.5,3.441161757,0.8604719698839917,0.0,19628.0,5.75,255.0,638.6900656813132,0.0,0.75,4.732665531,0.861341309114022,0.0,-34904.0,2.25,-322.5,-638.6900656813132,0.0,0.5,3.177489909,0.8602111681149825,0.0,2.109999895095825,1.4800000190734863,24.899999618530273,-0.01837158203125,0.3980712890625,0.90966796875,31.440000534057617,0.0,115.0,-0.9620208740234375,-0.6392822265625,Waiting,0.0,0.0,-114.0,0.0,0.0,0.0,0.0,0.0,
4.986070999999996,0.0,0.0,false,3747074.5850628694,,-3625.0,1.5,412.5,298.28871919668705,0.0,0.375,2.3303220270000002,0.13413249980321573,0.0,-57162.0,1.25,-390.0,-298.28871919668705,0.0,0.375,3.2617184160000003,0.13372718403024064,0.0,19690.0,2.0,397.5,298.28871919668705,0.0,0.125,4.466552277,0.133862289287899,0.0,-34964.0,0.875,-292.5,-298.28871919668705,0.0,0.375,3.079833669,0.13368665245294312,0.0,2.6500000953674316,0.8799999952316284,24.239999771118164,0.28497314453125,-0.327392578125,0.8671875,31.440000534057617,0.0,96.0,-0.943023681640625,-0.6230926513671875,Waiting,0.0,0.0,-114.0,0.0,0.0,0.0,0.0,0.0,
5.190285000000004,0.0,0.0,false,3747261.3353529233,,-3556.0,1.125,360.0,298.28871919668705,0.0,0.125,1.835937312,0.13413249980321573,0.0,-57269.0,1.625,-345.0,-298.28871919668705,0.0,0.0,2.708739957,0.13372718403024064,0.0,19811.0,1.75,360.0,298.28871919668705,0.0,0.0,4.0332027120000005,0.133862289287899,0.0,-35063.0,0.5,-427.5,-298.28871919668705,0.0,0.0,2.572021221,0.13368665245294312,0.0,1.6100000143051147,1.2100000381469727,24.280000686645508,-0.0435791015625,0.05120849609375,0.8958740234375,31.459999084472656,0.0,-46.0,-0.9247894287109375,-0.6334991455078125,Waiting,0.0,0.0,-114.0,0.0,0.0,0.0,0.0,0.0,
5.364005000000005,0.0,0.0,false,3747426.3601393304,,-3444.0,1.125,345.0,300.6742423288034,0.0,0.125,1.8176267670000001,0.16677326147302257,0.0,-57327.0,1.5,-352.5,-300.6742423288034,0.0,0.25,2.613525123,0.1662693132614804,0.0,19870.0,1.875,367.5,300.6742423288034,0.0,0.0,4.014892167,0.1664372959986611,0.0,-35119.0,0.375,-345.0,-300.6742423288034,0.0,0.25,2.398681395,0.16621891844032616,0.0,1.409999966621399,1.1200000047683716,24.299999237060547,0.04046630859375,0.00775146484375,1.065673828125,31.459999084472656,0.0,10.0,-0.918548583984375,-0.648651123046875,Waiting,0.0,0.0,-114.0,0.0,0.0,0.0,0.0,0.0,
5.472970000000001,0.0,0.0,false,3747570.7534827376,,-3383.0,0.625,382.5,296.42003980837734,0.0,0.125,1.8896482440000002,0.10102300739189345,0.0,-57388.0,1.0,-390.0,-296.42003980837734,0.0,0.0,2.757568077,0.1007177404477197,0.0,19929.0,1.125,360.0,296.42003980837734,0.0,0.0,4.155273012,0.10081949609577762,0.0,-35177.0,0.125,-367.5,-296.42003980837734,0.0,0.0,2.622070044,0.10068721375330232,0.0,1.6100000143051147,1.090000033378601,24.229999542236328,-0.0107421875,0.12347412109375,1.0501708984375,31.459999084472656,0.0,10.0,-0.91717529296875,-0.6659393310546875,Waiting,0.0,0.0,-114.0,0.0,0.0,0.0,0.0,0.0,
5.632741999999999,0.0,0.0,false,3747687.4295230885,,-3326.0,0.625,345.0,298.28871919668705,0.0,0.125,1.8908689470000002,4.829867500196785,0.0,-57434.0,1.5,-247.5,-298.28871919668705,0.0,0.0,2.777099325,4.8152728159697595,0.0,19988.0,1.0,367.5,298.28871919668705,0.0,0.0,3.984374592,4.820137710712101,0.0,-35237.0,0.0,-322.5,-298.28871919668705,0.0,0.0,2.61230442,4.813813347547057,0.0,1.7000000476837158,0.8399999737739563,24.399999618530273,0.0130615234375,0.02374267578125,1.07342529296875,31.459999084472656,0.0,-5.0,-0.917572021484375,-0.6770477294921875,Waiting,0.0,0.0,-114.0,0.0,0.0,0.0,0.0,0.0,
5.806894999999989,0.0,0.0,false,3747781.117771723,,-3219.0,0.625,322.5,296.42003980837734,0.0,0.125,1.743163884,4.862976992608107,0.0,-57542.0,1.0,-262.5,-296.42003980837734,0.0,0.0,2.5781247360000004,4.848282259552279,0.0,20094.0,1.125,307.5,296.42003980837734,0.0,0.0,3.8842769460000004,4.8531805039042215,0.0,-35338.0,0.125,-292.5,-296.42003980837734,0.0,0.0,2.409667722,4.846812786246697,0.0,1.340000033378601,0.5400000214576721,24.3700008392334,0.01202392578125,0.0279541015625,0.85546875,31.450000762939453,0.0,6.0,-0.9259185791015625,-0.688507080078125,Waiting,0.0,0.0,-114.0,0.0,0.0,0.0,0.0,0.0,
5.976783999999985,0.0,0.0,false,3747846.3593158773,,-3174.0,0.875,270.0,296.42003980837734,0.0,0.0,1.6577146740000002,4.862976992608107,0.0,-57590.0,1.25,-277.5,-296.42003980837734,0.0,0.0,2.513427477,4.848282259552279,0.0,20138.0,1.5,262.5,296.42003980837734,0.0,0.0,3.870849213,4.8531805039042215,0.0,-35382.0,0.25,-277.5,-296.42003980837734,0.0,0.0,2.352294681,4.846812786246697,0.0,1.2899999618530273,0.4399999976158142,24.399999618530273,0.0087890625,-0.00555419921875,0.95001220703125,31.450000762939453,0.0,-9.0,-0.9263153076171875,-0.6983489990234375,Waiting,0.0,0.0,-114.0,0.0,0.0,0.0,0.0,0.0,
6.1397090000000025,0.0,0.0,false,3747891.273607748,,-3086.0,1.0,277.5,295.078023580205,0.0,0.0,1.668701001,4.896446958498327,0.0,-57674.0,1.625,-255.0,-295.078023580205,0.0,0.0,2.570800518,4.881651087350567,0.0,20227.0,1.5,285.0,295.078023580205,0.0,0.0,3.928222254,4.886583044399821,0.0,-35469.0,0.25,-277.5,-295.078023580205,0.0,0.0,2.388915771,4.880171500235791,0.0,1.340000033378601,0.5600000023841858,24.43000030517578,0.056640625,0.04608154296875,1.00103759765625,31.469999313354492,0.0,51.0,-0.9245758056640625,-0.7039031982421875,Waiting,0.0,0.0,-114.0,0.0,0.0,0.0,0.0,0.0,
6.330695999999996,0.0,0.0,false,3747906.4173097294,,-3040.0,1.0,285.0,295.078023580205,0.0,0.125,1.727294745,4.896446958498327,0.0,-57726.0,1.75,-255.0,-295.078023580205,0.0,0.0,2.628173559,4.881651087350567,0.0,20272.0,1.5,285.0,295.078023580205,0.0,0.0,3.9550777200000002,4.886583044399821,0.0,-35518.0,0.25,-300.0,-295.078023580205,0.0,0.0,2.438964594,4.880171500235791,0.0,1.3899999856948853,0.5600000023841858,24.600000381469727,0.06103515625,-0.04754638671875,0.9404296875,31.469999313354492,0.0,17.0,-0.92327880859375,-0.70257568359375,Waiting,0.0,0.0,-114.0,0.0,0.0,0.0,0.0,0.0,
6.53425,0.0,0.0,false,3747899.9382753405,,-2948.0,1.0,277.5,294.26987613413644,0.0,0.0,1.772460756,4.930161629910133,0.0,-57811.0,1.5,-352.5,-294.26987613413644,0.0,0.0,2.651366916,4.915263881229904,0.0,20365.0,1.625,277.5,294.26987613413644,0.0,0.0,3.958739829,4.9202297974566465,0.0,-35610.0,0.375,-277.5,-294.26987613413644,0.0,0.0,2.442626703,4.913774106361881,0.0,1.4299999475479126,0.49000000953674316,24.43000030517578,-0.01788330078125,0.07843017578125,0.92742919921875,31.469999313354492,0.0,0.0,-0.923248291015625,-0.7003326416015625,Waiting,0.0,0.0,-114.0,0.0,0.0,0.0,0.0,0.0,
6.714630000000005,0.0,0.0,false,3747870.9665708668,,-2901.0,1.0,285.0,294.26987613413644,0.0,0.0,1.7687986470000001,4.930161629910133,0.0,-57840.0,2.25,-232.5,-294.26987613413644,0.0,0.0,2.652587619,4.915263881229904,0.0,20412.0,1.625,292.5,294.26987613413644,0.0,0.0,3.959960532,4.9202297974566465,0.0,-35653.0,0.5,-262.5,-294.26987613413644,0.0,0.0,2.4353024850000002,4.913774106361881,0.0,1.4600000381469727,0.4399999976158142,24.229999542236328,-0.01220703125,-0.01953125,0.99560546875,31.479999542236328,0.0,-36.0,-0.9227294921875,-0.7001190185546875,Waiting,0.0,0.0,-114.0,0.0,0.0,0.0,0.0,0.0,
6.866608000000007,0.0,0.0,false,3747815.356321839,,-2854.0,1.0,292.5,294.0,0.0,0.0,1.772460756,0.0,-0.0012207029999995456,-57896.0,2.0,-240.0,-294.0,0.0,0.0,2.657470431,0.0,0.0,20459.0,1.5,292.5,294.0,0.0,0.0,3.969726156,0.0,0.0,-35698.0,0.375,-270.0,-294.0,0.0,0.0,2.452392327,0.0,0.0,1.4199999570846558,0.4699999988079071,24.100000381469727,0.05181884765625,-0.0023193359375,0.9398193359375,31.479999542236328,0.0,29.0,-0.9218902587890625,-0.7000885009765625,Waiting,0.0,0.0,-114.0,0.0,0.0,0.0,0.0,0.0,
6.969563999999984,0.0,0.0,false,3747738.783608045,,-2806.0,1.0,285.0,294.0,0.0,0.125,1.776122865,0.0,0.0,-57976.0,1.875,-360.0,-294.0,0.0,0.0,2.680663788,0.0,0.0,20552.0,1.625,277.5,294.0,0.0,0.0,3.9941402160000004,0.0,0.0,-35786.0,0.5,-277.5,-294.0,0.0,0.0,2.506103259,0.0,0.0,1.5,0.46000000834465027,24.040000915527344,0.0289306640625,0.081787109375,1.0184326171875,31.479999542236328,0.0,41.0,-0.9218597412109375,-0.69830322265625,Waiting,0.0,0.0,-114.0,0.0,0.0,0.0,0.0,0.0,
7.141514999999985,0.0,0.0,false,3747945.843362564,,-2759.0,1.0,292.5,294.0,0.0,0.0,1.778564271,0.0,0.0,-57976.0,2.625,-210.0,-294.0,0.0,0.0,2.6904294120000003,0.0,0.0,20600.0,1.75,292.5,294.0,0.0,0.0,3.9990230280000003,0.0,0.0,-35828.0,0.625,-262.5,-294.0,0.0,0.0,2.520751695,0.0,0.0,1.440000057220459,0.4000000059604645,23.920000076293945,-0.03424072265625,0.115966796875,0.95379638671875,31.479999542236328,0.0,0.0,-0.9226837158203125,-0.6954193115234375,Waiting,0.0,0.0,-114.0,0.0,0.0,0.0,0.0,0.0,
7.289160999999993,0.0,0.0,false,3748126.526984127,,-2666.0,1.125,285.0,294.26987613413644,0.0,0.125,1.779784974,0.033838370089867696,0.0,-58061.0,2.625,-172.5,-294.26987613413644,0.0,0.0,2.700195036,0.03373611877009573,0.0,20644.0,1.625,277.5,294.26987613413644,0.0,0.0,4.013671464000001,0.033770202543353056,0.0,-35874.0,0.5,-285.0,-294.26987613413644,0.0,0.0,2.520751695,0.03372589363811854,0.0,1.4700000286102295,0.3799999952316284,24.0,0.07330322265625,-0.0079345703125,0.91082763671875,31.489999771118164,0.0,48.0,-0.92218017578125,-0.694854736328125,Waiting,0.0,0.0,-114.0,0.0,0.0,0.0,0.0,0.0,
7.392334999999992,0.0,0.0,false,3748288.141475212,,-2621.0,1.125,277.5,294.26987613413644,0.0,0.125,1.809081846,0.033838370089867696,0.0,-58130.0,1.875,-367.5,-294.26987613413644,0.0,0.0,2.716064175,0.03373611877009573,0.0,20689.0,1.875,277.5,294.26987613413644,0.0,0.0,4.0332027120000005,0.033770202543353056,0.0,-35922.0,0.5,-300.0,-294.26987613413644,0.0,0.0,2.5366208340000003,0.03372589363811854,0.0,1.5399999618530273,0.4399999976158142,24.1299991607666,0.0357666015625,0.02557373046875,1.06060791015625,31.489999771118164,0.0,23.0,-0.9218292236328125,-0.694854736328125,Waiting,0.0,0.0,-114.0,0.0,0.0,0.0,0.0,0.0,
7.566032999999996,0.0,0.0,false,3748423.075109566,,-2574.0,1.125,292.5,294.0,0.0,0.125,1.822509579,0.0,0.032958981000000165,-58157.0,2.625,-217.5,-294.0,0.0,0.0,2.717284878,0.0,0.0,20740.0,1.75,300.0,294.0,0.0,0.0,4.042968336,0.0,0.0,-35969.0,0.625,-285.0,-294.0,0.0,0.0,2.5402829430000002,0.0,0.0,1.5299999713897705,0.4399999976158142,24.049999237060547,-0.0325927734375,0.02862548828125,0.98223876953125,31.489999771118164,0.0,-35.0,-0.9219970703125,-0.6955413818359375,Waiting,0.0,0.0,-114.0,0.0,0.0,0.0,0.0,0.0,
7.686578999999998,0.0,0.0,false,3748538.959202176,,-2528.0,1.125,292.5,294.26987613413644,0.0,0.0,1.822509579,0.033838370089867696,0.0,-58215.0,2.125,-255.0,-294.26987613413644,0.0,0.0,2.733154017,0.03373611877009573,0.0,20786.0,1.625,292.5,294.26987613413644,0.0,0.0,4.053954663,0.033770202543353056,0.0,-36017.0,0.5,-307.5,-294.26987613413644,0.0,0.0,2.5402829430000002,0.03372589363811854,0.0,1.5299999713897705,0.5,24.190000534057617,-0.06292724609375,0.0655517578125,0.982666015625,31.489999771118164,0.0,-49.0,-0.921630859375,-0.6962890625,Waiting,0.0,0.0,-114.0,0.0,0.0,0.0,0.0,0.0,
7.791802999999986,0.0,0.0,false,3748628.9457622,,-2479.0,1.125,285.0,294.26987613413644,0.0,0.0,1.8701169960000001,0.033838370089867696,0.0,-58263.0,1.75,-442.5,-294.26987613413644,0.0,0.0,2.7429196410000003,0.03373611877009573,0.0,20835.0,1.75,292.5,294.26987613413644,0.0,0.0,4.044189039,0.033770202543353056,0.0,-36064.0,0.5,-300.0,-294.26987613413644,0.0,0.0,2.545165755,0.03372589363811854,0.0,1.4800000190734863,0.49000000953674316,24.25,0.0548095703125,0.0574951171875,0.93060302734375,31.479999542236328,0.0,-64.0,-0.9224700927734375,-0.6933441162109375,Waiting,0.0,0.0,-114.0,0.0,0.0,0.0,0.0,0.0,
7.972059000000009,0.0,0.0,false,3748698.866465257,,-2386.0,1.125,292.5,294.26987613413644,0.0,0.0,1.8212888760000001,0.033838370089867696,0.0,-58365.0,2.125,-375.0,-294.26987613413644,0.0,0.0,2.768554404,0.03373611877009573,0.0,20930.0,1.625,300.0,294.26987613413644,0.0,0.0,4.039306227,0.033770202543353056,0.0,-36159.0,0.5,-277.5,-294.26987613413644,0.0,0.0,2.546386458,0.03372589363811854,0.0,1.5199999809265137,0.38999998569488525,24.190000534057617,0.0615234375,0.04400634765625,1.02410888671875,31.479999542236328,0.0,56.0,-0.9231719970703125,-0.69244384765625,Waiting,0.0,0.0,-114.0,0.0,0.0,0.0,0.0,0.0,
8.13416399999999,0.0,0.0,false,3748742.4836127474,,-2339.0,1.25,292.5,294.26987613413644,0.0,0.0,1.8212888760000001,0.033838370089867696,0.0,-58386.0,2.875,-262.5,-294.26987613413644,0.0,0.0,2.77099581,0.03373611877009573,0.0,20978.0,1.625,292.5,294.26987613413644,0.0,0.0,4.041747633,0.033770202543353056,0.0,-36206.0,0.625,-277.5,-294.26987613413644,0.0,0.0,2.546386458,0.03372589363811854,0.0,1.4500000476837158,0.41999998688697815,24.18000030517578,0.0391845703125,0.02679443359375,0.92376708984375,31.479999542236328,0.0,30.0,-0.9240570068359375,-0.6912994384765625,Waiting,0.0,0.0,-114.0,0.0,0.0,0.0,0.0,0.0,
8.322192999999999,0.0,0.0,false,3748764.8662035638,,-2246.0,1.25,292.5,294.26987613413644,0.0,0.0,1.8212888760000001,0.033838370089867696,0.0,-58481.0,3.125,-165.0,-294.26987613413644,0.0,0.0,2.7917477610000003,0.03373611877009573,0.0,21073.0,1.625,300.0,294.26987613413644,0.0,0.0,4.042968336,0.033770202543353056,0.0,-36296.0,0.75,-270.0,-294.26987613413644,0.0,0.0,2.545165755,0.03372589363811854,0.0,1.4900000095367432,0.38999998569488525,24.1299991607666,-0.0506591796875,0.0047607421875,1.06402587890625,31.479999542236328,0.0,-62.0,-0.9245758056640625,-0.6919403076171875,Waiting,0.0,0.0,-114.0,0.0,0.0,0.0,0.0,0.0,
8.532388000000006,0.0,0.0,false,3748761.089536464,,-2156.0,1.25,292.5,296.42003980837734,0.0,0.125,1.85546856,0.10102300739189345,0.0,-58573.0,3.625,-135.0,-296.42003980837734,0.0,0.0,2.7917477610000003,0.1007177404477197,0.0,21164.0,1.625,285.0,296.42003980837734,0.0,0.0,4.091796456,0.10081949609577762,0.0,-36385.0,0.875,-270.0,-296.42003980837734,0.0,0.0,2.5927731720000002,0.10068721375330232,0.0,1.4800000190734863,0.38999998569488525,24.049999237060547,-0.06005859375,0.007080078125,1.135009765625,31.479999542236328,0.0,-71.0,-0.925811767578125,-0.6944122314453125,Waiting,0.0,0.0,-114.0,0.0,0.0,0.0,0.0,0.0,
8.715842000000004,0.0,0.0,false,3748736.4009661837,,-2110.0,1.25,285.0,295.078023580205,0.0,0.0,1.8896482440000002,0.06755304150167364,0.0,-58621.0,3.0,-232.5,-295.078023580205,0.0,0.0,2.7917477610000003,0.06734891264943248,0.0,21207.0,1.625,285.0,295.078023580205,0.0,0.0,4.127196843,0.06741695560017953,0.0,-36433.0,0.625,-300.0,-295.078023580205,0.0,0.0,2.608642311,0.06732849976420836,0.0,1.5,0.4300000071525574,24.15999984741211,0.0799560546875,0.0494384765625,1.00714111328125,31.520000457763672,0.0,75.0,-0.9254302978515625,-0.6963348388671875,Waiting,0.0,0.0,-114.0,0.0,0.0,0.0,0.0,0.0,
8.887734999999987,0.0,0.0,false,3748685.1308679245,,-2010.0,1.125,307.5,295.078023580205,0.0,0.0,1.884765432,0.06755304150167364,0.0,-58708.0,2.75,-180.0,-295.078023580205,0.0,0.0,2.7905270580000003,0.06734891264943248,0.0,21309.0,1.5,315.0,295.078023580205,0.0,0.0,4.125976140000001,0.06741695560017953,0.0,-36534.0,0.5,-315.0,-295.078023580205,0.0,0.0,2.607421608,0.06732849976420836,0.0,1.5,0.49000000953674316,24.25,0.03253173828125,-0.07952880859375,0.949462890625,31.520000457763672,0.0,-20.0,-0.9253387451171875,-0.6991424560546875,Waiting,0.0,0.0,-114.0,0.0,0.0,0.0,0.0,0.0,
9.091103000000002,0.0,0.0,false,3748612.9815876847,,-1959.0,1.0,315.0,294.26987613413644,0.0,0.0,1.850585748,0.033838370089867696,0.0,-58782.0,2.25,-397.5,-294.26987613413644,0.0,0.0,2.785644246,0.03373611877009573,0.0,21360.0,1.5,315.0,294.26987613413644,0.0,0.0,4.119872625,0.033770202543353056,0.0,-36584.0,0.5,-322.5,-294.26987613413644,0.0,0.0,2.608642311,0.03372589363811854,0.0,1.4700000286102295,0.5199999809265137,24.329999923706055,0.022705078125,0.0284423828125,1.003173828125,31.520000457763672,0.0,13.0,-0.92425537109375,-0.702850341796875,Waiting,0.0,0.0,-114.0,0.0,0.0,0.0,0.0,0.0,
9.256538,0.0,0.0,false,3748829.59649917,,-1859.0,1.0,300.0,294.26987613413644,0.0,0.0,1.884765432,0.033838370089867696,0.0,-58868.0,2.75,-157.5,-294.26987613413644,0.0,0.0,2.773437216,0.03373611877009573,0.0,21461.0,1.375,307.5,294.26987613413644,0.0,0.0,4.0808101290000005,0.033770202543353056,0.0,-36687.0,0.5,-315.0,-294.26987613413644,0.0,0.0,2.607421608,0.03372589363811854,0.0,1.4199999570846558,0.41999998688697815,24.3799991607666,-0.08587646484375,-0.02978515625,1.0836181640625,31.540000915527344,0.0,-109.0,-0.926727294921875,-0.703216552734375,Waiting,0.0,0.0,-114.0,0.0,0.0,0.0,0.0,0.0,
9.501100000000006,0.0,0.0,false,3749024.323476162,,-1810.0,1.0,292.5,294.26987613413644,0.0,0.0,1.885986135,0.033838370089867696,0.0,-58931.0,2.125,-405.0,-294.26987613413644,0.0,0.0,2.767333701,0.03373611877009573,0.0,21509.0,1.375,292.5,294.26987613413644,0.0,0.0,4.0759273170000005,0.033770202543353056,0.0,-36735.0,0.375,-300.0,-294.26987613413644,0.0,0.0,2.607421608,0.03372589363811854,0.0,1.3899999856948853,0.4000000059604645,24.479999542236328,-0.026611328125,-0.0433349609375,0.8790283203125,31.540000915527344,0.0,-56.0,-0.9282379150390625,-0.703338623046875,Waiting,0.0,0.0,-114.0,0.0,0.0,0.0,0.0,0.0,
9.642835999999981,0.0,0.0,false,3749193.7607482276,,-1762.0,0.875,300.0,294.26987613413644,0.0,0.0,1.883544729,0.033838370089867696,0.0,-58958.0,2.0,-390.0,-294.26987613413644,0.0,0.0,2.762450889,0.03373611877009573,0.0,21558.0,1.5,300.0,294.26987613413644,0.0,0.0,4.07714802,0.033770202543353056,0.0,-36785.0,0.375,-292.5,-294.26987613413644,0.0,0.0,2.608642311,0.03372589363811854,0.0,1.409999966621399,0.4000000059604645,24.489999771118164,-0.01605224609375,0.0985107421875,1.11175537109375,31.540000915527344,0.0,7.0,-0.931121826171875,-0.703094482421875,Waiting,0.0,0.0,-114.0,0.0,0.0,0.0,0.0,0.0,
9.771801000000007,0.0,0.0,false,3749343.2808446456,,-1666.0,1.0,292.5,294.26987613413644,0.0,0.0,1.876220511,0.033838370089867696,0.0,-59071.0,2.125,-315.0,-294.26987613413644,0.0,0.0,2.760009483,0.03373611877009573,0.0,21654.0,1.375,300.0,294.26987613413644,0.0,0.0,4.07714802,0.033770202543353056,0.0,-36880.0,0.375,-285.0,-294.26987613413644,0.0,0.0,2.597655984,0.03372589363811854,0.0,1.3600000143051147,0.36000001430511475,24.530000686645508,0.0206298828125,0.031982421875,1.0125732421875,31.540000915527344,0.0,16.0,-0.9347991943359375,-0.7030181884765625,Waiting,0.0,0.0,-114.0,0.0,0.0,0.0,0.0,0.0,
9.970812999999994,0.0,0.0,false,3749466.8918715124,,-1572.0,1.0,285.0,294.0,0.0,0.0,1.885986135,0.0,0.0,-59170.0,2.0,-352.5,-294.0,0.0,0.0,2.7478024530000003,0.0,0.0,21747.0,1.375,277.5,294.0,0.0,0.0,4.068603099000001,0.0,0.0,-36974.0,0.375,-300.0,-294.0,0.0,0.0,2.609863014,0.0,0.0,1.3700000047683716,0.30000001192092896,24.639999389648438,0.03057861328125,0.02630615234375,1.15057373046875,31.540000915527344,0.0,21.0,-0.940887451171875,-0.703338623046875,Waiting,0.0,0.0,-114.0,0.0,0.0,0.0,0.0,0.0,
10.18759700000001,0.0,0.0,false,3749569.3075995175,,-1524.0,1.0,300.0,294.26987613413644,0.0,0.0,1.884765432,0.033838370089867696,0.0,-59217.0,2.25,-285.0,-294.26987613413644,0.0,0.0,2.73437472,0.03373611877009573,0.0,21796.0,1.375,307.5,294.26987613413644,0.0,0.0,4.06494099,0.033770202543353056,0.0,-37019.0,0.5,-277.5,-294.26987613413644,0.0,0.0,2.608642311,0.03372589363811854,0.0,1.3200000524520874,0.3799999952316284,24.579999923706055,-0.043212890625,0.07275390625,1.00360107421875,31.540000915527344,0.0,-24.0,-0.945343017578125,-0.7041015625,Waiting,0.0,0.0,-114.0,0.0,0.0,0.0,0.0,0.0,
10.309673000000009,0.0,0.0,false,3749646.4947987334,,-1478.0,1.0,285.0,294.26987613413644,0.0,0.0,1.884765432,0.033838370089867696,0.0,-59263.0,2.0,-285.0,-294.26987613413644,0.0,0.0,2.733154017,0.03373611877009573,0.0,21842.0,1.5,285.0,294.26987613413644,0.0,0.0,4.072265208,0.033770202543353056,0.0,-37069.0,0.375,-307.5,-294.26987613413644,0.0,0.0,2.607421608,0.03372589363811854,0.0,1.309999942779541,0.3400000035762787,24.690000534057617,0.0413818359375,0.03997802734375,1.03131103515625,31.540000915527344,0.0,38.0,-0.9492340087890625,-0.705352783203125,Waiting,0.0,0.0,-114.0,0.0,0.0,0.0,0.0,0.0,
10.428005000000004,0.0,0.0,false,3749697.7570093456,,-1430.0,1.0,300.0,294.26987613413644,0.0,0.125,1.883544729,0.033838370089867696,0.0,-59315.0,1.875,-322.5,-294.26987613413644,0.0,0.0,2.733154017,0.03373611877009573,0.0,21890.0,1.375,292.5,294.26987613413644,0.0,0.0,4.068603099000001,0.033770202543353056,0.0,-37117.0,0.25,-322.5,-294.26987613413644,0.0,0.0,2.609863014,0.03372589363811854,0.0,1.309999942779541,0.41999998688697815,24.8799991607666,0.01416015625,-0.0020751953125,0.94891357421875,31.540000915527344,0.0,-3.0,-0.9533843994140625,-0.705474853515625,Waiting,0.0,0.0,-114.0,0.0,0.0,0.0,0.0,0.0,
10.590218999999983,0.0,0.0,false,3749729.5264506405,,-1380.0,1.0,292.5,294.26987613413644,0.0,0.125,1.883544729,0.033838370089867696,0.0,-59367.0,1.75,-322.5,-294.26987613413644,0.0,0.0,2.733154017,0.03373611877009573,0.0,21942.0,1.25,315.0,294.26987613413644,0.0,0.0,4.067382396,0.033770202543353056,0.0,-37169.0,0.125,-322.5,-294.26987613413644,0.0,0.0,2.607421608,0.03372589363811854,0.0,1.2699999809265137,0.46000000834465027,24.940000534057617,-0.018310546875,0.0313720703125,0.99365234375,31.540000915527344,0.0,-19.0,-0.9556427001953125,-0.705841064453125,Waiting,0.0,0.0,-114.0,0.0,0.0,0.0,0.0,0.0,
10.712929999999993,0.0,0.0,false,3749736.100060277,,-1336.0,1.0,300.0,294.26987613413644,0.0,0.0,1.884765432,0.033838370089867696,0.0,-59418.0,1.625,-322.5,-294.26987613413644,0.0,0.0,2.73437472,0.03373611877009573,0.0,21987.0,1.375,300.0,294.26987613413644,0.0,0.0,4.073485911000001,0.033770202543353056,0.0,-37222.0,0.125,-307.5,-294.26987613413644,0.0,0.0,2.607421608,0.03372589363811854,0.0,1.4299999475479126,0.4000000059604645,24.940000534057617,0.01910400390625,0.04193115234375,1.102783203125,31.540000915527344,0.0,16.0,-0.956268310546875,-0.70660400390625,Waiting,0.0,0.0,-114.0,0.0,0.0,0.0,0.0,0.0,
10.823513000000005,0.0,0.0,false,3749722.850685551,,-1231.0,0.625,322.5,294.26987613413644,0.0,0.0,1.884765432,0.033838370089867696,0.0,-59525.0,1.5,-322.5,-294.26987613413644,0.0,0.0,2.733154017,0.03373611877009573,0.0,22090.0,1.125,285.0,294.26987613413644,0.0,0.0,4.068603099000001,0.033770202543353056,0.0,-37326.0,0.0,-375.0,-294.26987613413644,0.0,0.0,2.608642311,0.03372589363811854,0.0,1.350000023841858,0.3199999928474426,25.09000015258789,-0.016845703125,0.00341796875,1.0985107421875,31.530000686645508,0.0,-30.0,-0.9556732177734375,-0.7061309814453125,Waiting,0.0,0.0,-114.0,0.0,0.0,0.0,0.0,0.0,
10.988353000000004,0.0,0.0,false,3749683.7228080747,,-1183.0,0.875,292.5,294.26987613413644,0.0,0.0,1.877441214,0.033838370089867696,0.0,-59573.0,1.5,-292.5,-294.26987613413644,0.0,0.0,2.73437472,0.03373611877009573,0.0,22139.0,1.25,277.5,294.26987613413644,0.0,0.0,4.066161693000001,0.033770202543353056,0.0,-37374.0,0.125,-292.5,-294.26987613413644,0.0,0.0,2.607421608,0.03372589363811854,0.0,1.3200000524520874,0.3400000035762787,25.18000030517578,-0.01507568359375,0.01922607421875,0.9942626953125,31.530000686645508,0.0,-20.0,-0.9563446044921875,-0.7059478759765625,Waiting,0.0,0.0,-114.0,0.0,0.0,0.0,0.0,0.0,
11.170366999999999,0.0,0.0,false,3749624.4868203043,,-1137.0,0.875,285.0,294.26987613413644,0.0,0.0,1.883544729,0.033838370089867696,0.0,-59619.0,1.5,-292.5,-294.26987613413644,0.0,0.0,2.730712611,0.03373611877009573,0.0,22187.0,1.375,277.5,294.26987613413644,0.0,0.0,4.067382396,0.033770202543353056,0.0,-37467.0,0.125,-292.5,-294.26987613413644,0.0,0.0,2.607421608,0.03372589363811854,0.0,1.350000023841858,0.3700000047683716,25.239999771118164,-0.01593017578125,0.01239013671875,0.9273681640625,31.530000686645508,0.0,-23.0,-0.95428466796875,-0.70635986328125,Waiting,0.0,0.0,-114.0,0.0,0.0,0.0,0.0,0.0,
11.350375,0.0,0.0,false,3749539.01686747,,-1044.0,0.875,285.0,294.26987613413644,0.0,0.0,1.882324026,0.033838370089867696,0.0,-59714.0,1.5,-307.5,-294.26987613413644,0.0,0.0,2.73437472,0.03373611877009573,0.0,22278.0,1.375,285.0,294.26987613413644,0.0,0.0,4.071044505000001,0.033770202543353056,0.0,-37513.0,0.125,-307.5,-294.26987613413644,0.0,0.0,2.607421608,0.03372589363811854,0.0,1.3200000524520874,0.4099999964237213,25.3799991607666,0.024169921875,-0.0068359375,0.82763671875,31.540000915527344,0.0,5.0,-0.9535064697265625,-0.7070770263671875,Waiting,0.0,0.0,-114.0,0.0,0.0,0.0,0.0,0.0,
11.528875,0.0,0.0,false,3749741.5461526876,,-997.0,1.0,285.0,295.078023580205,0.0,0.0,1.8737791050000001,0.06755304150167364,0.0,-59760.0,1.5,-307.5,-295.078023580205,0.0,0.0,2.733154017,0.06734891264943248,0.0,22326.0,1.25,292.5,295.078023580205,0.0,0.0,4.073485911000001,0.06741695560017953,0.0,-37559.0,0.125,-300.0,-295.078023580205,0.0,0.0,2.609863014,0.06732849976420836,0.0,1.3799999952316284,0.4300000071525574,25.469999313354492,0.01092529296875,0.0701904296875,1.14703369140625,31.540000915527344,0.0,20.0,-0.953460693359375,-0.7101593017578125,Waiting,0.0,0.0,-114.0,0.0,0.0,0.0,0.0,0.0,
11.714318999999989,0.0,0.0,false,3749924.084311954,,-905.0,1.0,285.0,295.078023580205,0.0,0.0,1.882324026,0.06755304150167364,0.0,-59857.0,1.625,-300.0,-295.078023580205,0.0,0.0,2.73437472,0.06734891264943248,0.0,22421.0,1.375,285.0,295.078023580205,0.0,0.0,4.066161693000001,0.06741695560017953,0.0,-37654.0,0.125,-292.5,-295.078023580205,0.0,0.0,2.608642311,0.06732849976420836,0.0,1.3799999952316284,0.4300000071525574,25.610000610351562,0.02008056640625,-0.046875,0.97662353515625,31.540000915527344,0.0,-18.0,-0.9534912109375,-0.712310791015625,Waiting,0.0,0.0,-114.0,0.0,0.0,0.0,0.0,0.0,
11.908378999999986,0.0,0.0,false,3750080.314315821,,-815.0,1.125,277.5,295.078023580205,0.0,0.0,1.8920896500000002,0.06755304150167364,0.0,-59951.0,1.5,-292.5,-295.078023580205,0.0,0.0,2.73437472,0.06734891264943248,0.0,22509.0,1.375,285.0,295.078023580205,0.0,0.0,4.067382396,0.06741695560017953,0.0,-37750.0,0.25,-270.0,-295.078023580205,0.0,0.0,2.607421608,0.06732849976420836,0.0,1.3700000047683716,0.4300000071525574,25.780000686645508,-0.00390625,0.02886962890625,1.0985107421875,31.559999465942383,0.0,-9.0,-0.953704833984375,-0.713226318359375,Waiting,0.0,0.0,-114.0,0.0,0.0,0.0,0.0,0.0,
12.108438999999985,0.0,0.0,false,3750215.6435881997,,-769.0,1.125,277.5,296.42003980837734,0.0,0.0,1.876220511,0.10102300739189345,0.0,-59999.0,1.5,-307.5,-296.42003980837734,0.0,0.0,2.73437472,0.1007177404477197,0.0,22601.0,1.5,277.5,296.42003980837734,0.0,0.0,4.0759273170000005,0.10081949609577762,0.0,-37847.0,0.25,-285.0,-296.42003980837734,0.0,0.0,2.608642311,0.10068721375330232,0.0,1.3300000429153442,0.28999999165534973,26.09000015258789,-0.1995849609375,-0.025390625,0.8233642578125,31.559999465942383,0.0,-202.0,-0.954681396484375,-0.712615966796875,Waiting,0.0,0.0,-114.0,0.0,0.0,0.0,0.0,0.0,
12.296309999999998,0.0,0.0,false,3750324.395485327,,-723.0,4.125,0.0,296.42003980837734,0.0,0.0,1.884765432,0.10102300739189345,0.0,-60055.0,4.625,-30.0,-296.42003980837734,0.0,0.0,2.7429196410000003,0.1007177404477197,0.0,22609.0,4.375,52.5,296.42003980837734,0.0,0.0,4.0808101290000005,0.10081949609577762,0.0,-37855.0,1.875,-22.5,-296.42003980837734,0.0,0.0,2.61230442,0.10068721375330232,0.0,1.3200000524520874,-0.6800000071525574,26.31999969482422,0.19158935546875,0.0504150390625,0.6947021484375,31.56999969482422,0.0,194.0,-0.9742279052734375,-0.7028961181640625,Waiting,0.0,0.0,-114.0,0.0,0.0,0.0,0.0,0.0,
12.454212,0.0,0.0,false,3750406.5747818234,,-719.0,7.375,37.5,298.28871919668705,0.0,0.125,1.8896482440000002,0.13413249980321573,0.0,-60059.0,7.75,-45.0,-298.28871919668705,0.0,0.0,2.777099325,0.13372718403024064,0.0,22622.0,4.125,142.5,298.28871919668705,0.0,0.0,4.107665595,0.133862289287899,0.0,-37856.0,3.75,-22.5,-298.28871919668705,0.0,0.0,2.607421608,0.13368665245294312,0.0,1.4199999570846558,-0.4300000071525574,26.440000534057617,-0.22760009765625,0.05609130859375,1.15802001953125,31.56999969482422,0.0,-183.0,-0.99072265625,-0.6953277587890625,Waiting,0.0,0.0,-114.0,0.0,0.0,0.0,0.0,0.0,
12.646271000000008,0.0,0.0,false,3750468.8418835565,,-715.0,10.625,22.5,294.26987613413644,0.0,0.0,1.887206838,0.033838370089867696,0.0,-60072.0,12.25,-52.5,-294.26987613413644,0.0,0.0,2.7868649490000004,0.03373611877009573,0.0,22713.0,3.375,210.0,294.26987613413644,0.0,0.0,4.091796456,0.033770202543353056,0.0,-37862.0,7.125,-30.0,-294.26987613413644,0.0,0.0,2.61230442,0.03372589363811854,0.0,1.3700000047683716,-0.23999999463558197,26.579999923706055,0.0882568359375,-0.0247802734375,0.92559814453125,31.56999969482422,0.0,61.0,-1.008575439453125,-0.6871490478515625,Waiting,0.0,0.0,-114.0,0.0,0.0,0.0,0.0,0.0,
12.835597999999997,0.0,0.0,false,3750503.9542719615,,-714.0,14.25,15.0,295.078023580205,0.0,0.0,1.900634571,0.06755304150167364,0.0,-60105.0,9.625,-262.5,-295.078023580205,0.0,0.0,2.7868649490000004,0.06734891264943248,0.0,22767.0,6.375,22.5,295.078023580205,0.0,0.0,4.0856929410000005,0.06741695560017953,0.0,-37864.0,11.5,-7.5,-295.078023580205,0.0,0.0,2.613525123,0.06732849976420836,0.0,1.3300000429153442,-0.11999999731779099,26.59000015258789,-0.00555419921875,-0.00274658203125,0.97601318359375,31.559999465942383,0.0,-14.0,-1.016632080078125,-0.682952880859375,Waiting,0.0,0.0,-114.0,0.0,0.0,0.0,0.0,0.0,
12.99764499999999,0.0,0.0,false,3750519.1649872162,,-711.0,10.25,0.0,NaN,0.0,0.0,1.8896482440000002,NaN,0.0,-60135.0,8.75,-7.5,NaN,0.0,0.0,2.785644246,NaN,0.0,22769.0,6.5,0.0,NaN,0.0,0.0,4.086913644,NaN,0.0,-37866.0,10.125,0.0,NaN,0.0,0.0,2.613525123,NaN,0.0,1.3600000143051147,-0.07000000029802322,26.56999969482422,0.016845703125,0.03570556640625,1.00445556640625,31.559999465942383,0.0,21.0,-1.016143798828125,-0.682769775390625,Waiting,0.0,0.0,-114.0,0.0,0.0,0.0,0.0,0.0,
13.235294999999983,0.0,0.0,false,3750507.2312781955,,-708.0,16.625,7.5,295.078023580205,0.0,0.0,1.8920896500000002,0.06755304150167364,0.0,-60202.0,7.25,-405.0,-295.078023580205,0.0,0.0,2.785644246,0.06734891264943248,0.0,22771.0,12.875,7.5,295.078023580205,0.0,0.0,4.086913644,0.06741695560017953,0.0,-37870.0,16.875,-22.5,-295.078023580205,0.0,0.0,2.598876687,0.06732849976420836,0.0,1.3799999952316284,0.05999999865889549,26.610000610351562,-0.00445556640625,0.0552978515625,0.98016357421875,31.559999465942383,0.0,9.0,-1.01409912109375,-0.6828155517578125,Waiting,0.0,0.0,-114.0,0.0,0.0,0.0,0.0,0.0,
13.395798999999998,0.0,0.0,false,3750475.425650278,,-707.0,15.0,0.0,NaN,0.0,0.0,1.8896482440000002,NaN,0.0,-60213.0,7.5,-15.0,NaN,0.0,0.0,2.785644246,NaN,0.0,22772.0,9.875,0.0,NaN,0.0,0.0,4.0856929410000005,NaN,0.0,-37871.0,15.0,0.0,NaN,0.0,0.0,2.613525123,NaN,0.0,1.3799999952316284,0.07000000029802322,26.6299991607666,-0.00299072265625,0.01617431640625,0.9642333984375,31.530000686645508,0.0,-6.0,-1.0140380859375,-0.6828460693359375,Waiting,0.0,0.0,-114.0,0.0,0.0,0.0,0.0,0.0,
13.593438999999984,0.0,0.0,false,3750417.74383644,,-707.0,15.0,0.0,NaN,0.0,0.0,1.8896482440000002,NaN,0.0,-60227.0,5.625,-150.0,NaN,0.0,0.0,2.7868649490000004,NaN,0.0,22772.0,10.125,0.0,NaN,0.0,0.0,4.0856929410000005,NaN,0.0,-37871.0,14.0,0.0,NaN,0.0,0.0,2.613525123,NaN,0.0,1.399999976158142,0.10999999940395355,26.6200008392334,-0.0128173828125,0.0089111328125,1.06951904296875,31.530000686645508,0.0,-21.0,-1.0139617919921875,-0.6828460693359375,Waiting,0.0,0.0,-114.0,0.0,0.0,0.0,0.0,0.0,
13.741722000000008,0.0,0.0,false,3750340.2002104316,,-707.0,14.75,0.0,NaN,0.0,0.0,1.8896482440000002,NaN,0.0,-60256.0,5.625,-45.0,NaN,0.0,0.0,2.785644246,NaN,0.0,22772.0,10.125,0.0,NaN,0.0,0.0,4.086913644,NaN,0.0,-37871.0,13.875,0.0,NaN,0.0,0.0,2.613525123,NaN,0.0,1.399999976158142,0.15000000596046448,26.6200008392334,-0.01788330078125,0.02734375,1.060791015625,31.530000686645508,0.0,-17.0,-1.0138092041015625,-0.6828460693359375,Waiting,0.0,0.0,-114.0,0.0,0.0,0.0,0.0,0.0,
13.857410999999992,0.0,0.0,false,3750553.7481214306,,-707.0,15.0,0.0,NaN,0.0,0.0,1.8896482440000002,NaN,0.0,-60264.0,5.625,-30.0,NaN,0.0,0.0,2.785644246,NaN,0.0,22772.0,10.125,0.0,NaN,0.0,0.0,4.0856929410000005,NaN,0.0,-37871.0,14.125,0.0,NaN,0.0,0.0,2.613525123,NaN,0.0,1.399999976158142,0.18000000715255737,26.6200008392334,-0.0057373046875,0.01513671875,0.98773193359375,31.530000686645508,0.0,-12.0,-1.01373291015625,-0.6828460693359375,Waiting,0.0,0.0,-114.0,0.0,0.0,0.0,0.0,0.0,
14.024748999999982,0.0,0.0,false,3750741.3301277235,,-707.0,14.625,0.0,NaN,0.0,0.0,1.8896482440000002,NaN,0.0,-60265.0,5.875,-15.0,NaN,0.0,0.0,2.785644246,NaN,0.0,22772.0,10.125,0.0,NaN,0.0,0.0,4.086913644,NaN,0.0,-37871.0,13.75,0.0,NaN,0.0,0.0,2.613525123,NaN,0.0,1.399999976158142,0.23000000417232513,26.610000610351562,0.00738525390625,0.02618408203125,1.0078125,31.530000686645508,0.0,3.0,-1.0135955810546875,-0.6828460693359375,Waiting,0.0,0.0,-114.0,0.0,0.0,0.0,0.0,0.0,
14.18057800000001,0.0,0.0,false,3750908.967548077,,-707.0,14.75,0.0,NaN,0.0,0.0,1.8884275410000002,NaN,0.0,-60272.0,5.5,0.0,NaN,0.0,0.0,2.7880856520000004,NaN,0.0,22772.0,10.125,0.0,NaN,0.0,0.0,4.07714802,NaN,0.0,-37871.0,13.625,0.0,NaN,0.0,0.0,2.613525123,NaN,0.0,1.409999966621399,0.25999999046325684,26.610000610351562,0.00537109375,0.02880859375,0.9896240234375,31.530000686645508,0.0,2.0,-1.0135955810546875,-0.6828460693359375,Waiting,0.0,0.0,-114.0,0.0,0.0,0.0,0.0,0.0,
14.362854999999982,0.0,0.0,false,3751050.9767162385,,-707.0,14.625,0.0,NaN,0.0,0.0,1.8896482440000002,NaN,0.0,-60277.0,5.25,-30.0,NaN,0.0,0.0,2.78320284,NaN,0.0,22772.0,10.25,0.0,NaN,0.0,0.0,4.086913644,NaN,0.0,-37871.0,13.5,0.0,NaN,0.0,0.0,2.603759499,NaN,0.0,1.409999966621399,0.2800000011920929,26.6200008392334,-0.01080322265625,0.01983642578125,0.99102783203125,31.510000228881836,0.0,-16.0,-1.0135955810546875,-0.6828460693359375,Waiting,0.0,0.0,-114.0,0.0,0.0,0.0,0.0,0.0,
14.624494999999996,0.0,0.0,false,3751171.844998498,,-706.0,14.875,0.0,NaN,0.0,0.0,1.8896482440000002,NaN,0.0,-60278.0,6.125,0.0,NaN,0.0,0.0,2.785644246,NaN,0.0,22772.0,10.125,0.0,NaN,0.0,0.0,4.086913644,NaN,0.0,-37871.0,13.625,0.0,NaN,0.0,0.0,2.61230442,NaN,0.0,1.409999966621399,0.3100000023841858,26.610000610351562,0.00982666015625,0.02880859375,0.99005126953125,31.510000228881836,0.0,5.0,-1.0135955810546875,-0.6828460693359375,Waiting,0.0,0.0,-114.0,0.0,0.0,0.0,0.0,0.0,
14.726440000000002,0.0,0.0,false,3751268.053461481,,-699.0,23.25,22.5,420.0,0.0,0.0,1.8933103530000002,0.0,0.0,-60308.0,9.125,-105.0,-420.0,0.0,0.0,2.785644246,0.0,0.0,22776.0,18.375,15.0,420.0,0.0,0.0,4.086913644,-0.0,0.0,-37874.0,23.5,-15.0,-420.0,0.0,0.0,2.613525123,-0.0,0.0,1.399999976158142,0.47999998927116394,26.540000915527344,0.04779052734375,-0.00726318359375,0.87603759765625,31.510000228881836,0.0,23.0,-1.0126190185546875,-0.6832427978515625,Waiting,0.0,0.0,-114.0,0.0,0.0,0.0,0.0,0.0,
14.823934000000008,0.0,0.0,false,3751345.306906907,,-699.0,25.75,90.0,420.0,0.0,0.0,1.885986135,4.963034781985813,0.0,-60308.0,6.625,-397.5,-420.0,0.0,0.0,2.7880856520000004,4.948037698639763,0.0,22776.0,9.875,315.0,420.0,0.0,0.0,4.072265208,4.9530367264217805,0.0,-37874.0,27.625,-15.0,-420.0,0.0,0.0,2.613525123,4.946537990305159,0.0,1.4500000476837158,0.30000001192092896,26.579999923706055,-0.1279296875,-0.02178955078125,0.79632568359375,31.510000228881836,0.0,-136.0,-1.01263427734375,-0.683074951171875,Waiting,0.0,0.0,-114.0,0.0,0.0,0.0,0.0,0.0,
14.925323999999993,0.0,0.0,false,3751403.9213331332,,-688.0,33.0,30.0,420.0,0.0,0.0,1.8896482440000002,4.963586323865255,0.0,-60369.0,6.625,-322.5,-420.0,0.0,0.0,2.785644246,4.948587573893865,0.0,22855.0,5.875,592.5,420.0,0.0,0.0,4.066161693000001,4.953587157217662,-0.014648435999999876,-37877.0,35.5,0.0,-420.0,0.0,0.0,2.622070044,4.947087698896726,0.0,1.3700000047683716,0.4099999964237213,26.770000457763672,-0.344482421875,-0.277099609375,0.72064208984375,31.520000457763672,0.0,-444.0,-1.012298583984375,-0.6832275390625,Waiting,0.0,0.0,-114.0,0.0,0.0,0.0,0.0,0.0,
