Time,ClimberA1,ClimberA2,CameraExists,HeapSpace,LoopTime,FRpos,FRCurrent,FRspeed,FRsetpoint,FRApos,FRACurrent,FREncpos,FREncSetpoint,FREncSpeed,FLpos,FLCurrent,FLspeed,FLsetpoint,FLApos,FLACurrent,FLEncpos,FLEncSetpoint,FLEncSpeed,BRpos,BRCurrent,BRspeed,BRsetpoint,BRApos,BRACurrent,BREncpos,BREncSetpoint,BREncSpeed,BLpos,BLCurrent,BLspeed,BLsetpoint,BLApos,BLACurrent,BLEncpos,BLEncSetpoint,BLEncSpeed,navx_Pitch,navx_Roll,navx_Yaw,navx_XAcc,navx_YAcc,navx_ZAcc,navx_Temp,navx_Bar,navx_Alt,navx_XDis,navx_YDis,GearPlacerState,ShootOutputV,ShootOutputCurrent,ShootEncPos,ShootEncVelocity,ShootSpeed,ShootSetpoint,CarouselSetpoint,CarouselCurrent,
0.45321699999999965,0.0,0.0,false,4391974.6122448975,,821.0,0.0,0.0,0.0,0.0,0.0,2.4291989700000003,0.0,0.0,-62794.0,0.0,0.0,-0.0,0.0,0.0,2.153320092,0.0,0.0,23161.0,0.0,0.0,0.0,0.0,0.0,3.511962531,0.0,0.0,-40461.0,0.0,0.0,-0.0,0.0,0.0,3.070068045,0.0,0.5300680450000002,1.149999976158142,0.05999999865889549,91.97000122070312,0.005126953125,0.021240234375,0.99896240234375,32.439998626708984,0.0,0.0,0.4956817626953125,-1.57513427734375,Waiting,0.0,0.0,-114.0,0.0,0.0,0.0,0.0,0.0,
0.487683,0.0,0.0,false,4397489.939393939,,821.0,0.0,0.0,0.0,0.0,0.0,2.4243161580000003,0.0,0.5931989700000013,-62794.0,0.0,0.0,-0.0,0.0,1.125,2.156982201,0.0,4.401099389,23161.0,0.0,0.0,0.0,0.0,1.25,3.5229488580000003,0.0,4.434741828,-40461.0,0.0,0.0,-0.0,0.0,2.25,3.018798519,0.0,0.5300680450000002,1.159999966621399,0.05999999865889549,91.97000122070312,0.00244140625,0.0174560546875,1.0003662109375,32.439998626708984,0.0,-2.0,0.4956817626953125,-1.57513427734375,Waiting,0.0,0.0,-114.0,0.0,0.0,0.0,0.0,0.0,
0.5126109999999999,0.0,0.0,false,4402401.52,,821.0,0.0,0.0,0.0,0.0,2.5,2.3229978090000003,0.0,0.5931989700000013,-62794.0,0.0,0.0,-0.0,0.0,1.75,2.176513449,0.0,0.004882811999999959,23161.0,0.0,0.0,0.0,0.0,1.875,3.6328121280000003,0.0,0.023193357000000248,-40461.0,0.0,0.0,-0.0,0.0,2.625,2.8967282190000003,0.0,-0.07812499200000023,1.159999966621399,0.05999999865889549,91.97000122070312,0.0499267578125,-0.0091552734375,0.99853515625,32.439998626708984,0.0,-31.0,0.49566650390625,-1.5751190185546875,Waiting,0.0,0.0,-114.0,0.0,0.0,0.0,0.0,0.0,
0.5482729999999992,0.0,0.0,false,4406970.297029703,,821.0,0.0,0.0,0.0,0.0,2.875,2.150878686,0.0,-0.06347655600000124,-62794.0,0.0,0.0,-0.0,0.0,1.125,2.316894294,0.0,0.004882811999999959,23161.0,0.0,0.0,0.0,0.0,0.75,3.7426753980000003,0.0,0.023193357000000248,-40461.0,0.0,0.0,-0.0,0.0,0.375,2.7868649490000004,0.0,-0.07812499200000023,1.1399999856948853,0.05999999865889549,91.94999694824219,-0.01068115234375,-0.033203125,1.0252685546875,32.439998626708984,0.0,-53.0,0.4954376220703125,-1.5751495361328125,Waiting,0.0,0.0,-114.0,0.0,0.0,0.0,0.0,0.0,
0.5855519999999996,0.0,0.0,false,4410835.137254902,,821.0,0.0,0.0,0.0,0.0,0.75,2.019042762,0.0,-0.1599120929999991,-62794.0,0.0,0.0,-0.0,0.0,0.5,2.49023412,0.0,0.11596678500000035,23161.0,0.0,0.0,0.0,0.0,0.375,3.8879390550000004,0.0,0.16113279599999952,-40461.0,0.0,0.0,-0.0,0.0,0.375,2.701415739,0.0,-0.13549803299999974,1.1100000143051147,0.07999999821186066,91.91999816894531,7.9345703125E-4,0.0069580078125,0.97418212890625,32.439998626708984,0.0,-11.0,0.495269775390625,-1.5750885009765625,Waiting,0.0,0.0,-114.0,0.0,0.0,0.0,0.0,0.0,
0.6154829999999992,0.0,0.0,false,4414341.203883495,,821.0,0.0,0.0,0.0,0.0,0.375,1.90429668,0.0,-0.2343749759999998,-62794.0,0.0,0.0,-0.0,0.0,0.25,2.652587619,0.0,0.2758788780000003,23161.0,0.0,0.0,0.0,0.0,0.125,4.00390584,0.0,0.22705075799999985,-40461.0,0.0,0.0,-0.0,0.0,0.0,2.626952856,0.0,-0.17700193500000028,1.1200000047683716,0.07999999821186066,91.83999633789062,-0.005615234375,0.02850341796875,0.98968505859375,32.439998626708984,0.0,9.0,0.4953460693359375,-1.575042724609375,Waiting,0.0,0.0,-114.0,0.0,0.0,0.0,0.0,0.0,
0.662241,0.0,0.0,false,4417541.230769231,,821.0,0.0,0.0,0.0,0.0,0.25,1.8652341840000002,0.0,-0.2343749759999998,-62794.0,0.0,0.0,-0.0,0.0,0.25,2.6855466000000003,0.0,0.11596678499999946,23161.0,0.0,0.0,0.0,0.0,0.125,4.012450761,0.0,0.08544921000000016,-40461.0,0.0,0.0,-0.0,0.0,0.0,2.623290747,0.0,-0.05371093199999999,1.1399999856948853,0.07999999821186066,91.7699966430664,-0.01934814453125,0.0560302734375,0.987060546875,32.439998626708984,0.0,36.0,0.49554443359375,-1.575042724609375,Waiting,0.0,0.0,-114.0,0.0,0.0,0.0,0.0,0.0,
0.6934619999999996,0.0,0.0,false,4420209.142857143,,821.0,0.0,0.0,0.0,0.0,0.125,1.8640134810000002,0.0,-0.09765624000000095,-62794.0,0.0,0.0,-0.0,0.0,0.0,2.6904294120000003,0.0,0.11596678499999946,23161.0,0.0,0.0,0.0,0.0,0.0,4.013671464000001,0.0,0.08544921000000016,-40461.0,0.0,0.0,-0.0,0.0,0.0,2.623290747,0.0,-0.05371093199999999,1.1799999475479126,0.07000000029802322,91.7300033569336,-0.00238037109375,0.0418701171875,1.0394287109375,32.41999816894531,0.0,20.0,0.49591064453125,-1.575042724609375,Waiting,0.0,0.0,-114.0,0.0,0.0,0.0,0.0,0.0,
0.7235929999999998,0.0,0.0,false,4422551.018867925,,821.0,0.0,0.0,0.0,0.0,0.125,1.8640134810000002,0.0,-0.009765623999999917,-62794.0,0.0,0.0,-0.0,0.0,0.0,2.6904294120000003,0.0,0.024414059999999793,23161.0,0.0,0.0,0.0,0.0,0.0,4.010009355,0.0,0.004882811999999959,-40461.0,0.0,0.0,-0.0,0.0,0.0,2.622070044,0.0,-0.003662108999999969,1.1799999475479126,0.07000000029802322,91.73999786376953,-0.00537109375,-3.662109375E-4,0.977783203125,32.41999816894531,0.0,-20.0,0.496307373046875,-1.575042724609375,Waiting,0.0,0.0,-114.0,0.0,0.0,0.0,0.0,0.0,
0.7508859999999995,0.0,0.0,false,4424386.61682243,,821.0,0.0,0.0,0.0,0.0,0.0,1.8701169960000001,0.0,-0.009765623999999917,-62794.0,0.0,0.0,-0.0,0.0,0.0,2.6904294120000003,0.0,0.024414059999999793,23161.0,0.0,0.0,0.0,0.0,0.0,4.005126543,0.0,0.004882811999999959,-40461.0,0.0,0.0,-0.0,0.0,0.0,2.623290747,0.0,-0.003662108999999969,1.159999966621399,0.05999999865889549,91.7699966430664,-1.8310546875E-4,0.015625,1.00531005859375,32.41999816894531,0.0,-4.0,0.496612548828125,-1.575042724609375,Waiting,0.0,0.0,-114.0,0.0,0.0,0.0,0.0,0.0,
0.7781219999999994,0.0,0.0,false,4425958.592592592,,821.0,0.0,0.0,0.0,0.0,0.0,1.8688962930000002,0.0,0.003662109000000413,-62794.0,0.0,0.0,-0.0,0.0,0.0,2.6904294120000003,0.0,0.0012207030000004337,23161.0,0.0,0.0,0.0,0.0,0.0,3.9990230280000003,0.0,-0.003662109000000413,-40461.0,0.0,0.0,-0.0,0.0,0.0,2.622070044,0.0,0.0,1.149999976158142,0.05999999865889549,91.79000091552734,-0.001220703125,0.01739501953125,1.0013427734375,32.41999816894531,0.0,-2.0,0.496612548828125,-1.575042724609375,Waiting,0.0,0.0,-114.0,0.0,0.0,0.0,0.0,0.0,
0.8061939999999995,0.0,0.0,false,4427048.733944954,,821.0,0.0,0.0,0.0,0.0,0.125,1.8652341840000002,0.0,0.003662109000000413,-62794.0,0.0,0.0,-0.0,0.0,0.0,2.6904294120000003,0.0,0.0012207030000004337,23161.0,0.0,0.0,0.0,0.0,0.0,3.9953609190000003,0.0,-0.003662109000000413,-40461.0,0.0,0.0,-0.0,0.0,0.0,2.623290747,0.0,0.0,1.149999976158142,0.05999999865889549,91.79000091552734,-8.544921875E-4,0.0245361328125,0.9716796875,32.41999816894531,0.0,5.0,0.496612548828125,-1.575042724609375,Waiting,0.0,0.0,-114.0,0.0,0.0,0.0,0.0,0.0,
0.8395549999999994,0.0,0.0,false,4427851.781818182,,821.0,0.0,0.0,0.0,0.0,0.125,1.8701169960000001,0.0,-0.003662109000000413,-62794.0,0.0,0.0,-0.0,0.0,0.0,2.6904294120000003,0.0,-0.0012207030000004337,23161.0,0.0,0.0,0.0,0.0,0.0,3.9904781070000004,0.0,-0.009765623999999917,-40461.0,0.0,0.0,-0.0,0.0,0.0,2.623290747,0.0,0.0,1.1699999570846558,0.05999999865889549,91.75,0.002685546875,0.02484130859375,0.997802734375,32.41999816894531,0.0,4.0,0.496612548828125,-1.575042724609375,Waiting,0.0,0.0,-114.0,0.0,0.0,0.0,0.0,0.0,
0.8727529999999997,0.0,0.0,false,4428418.09009009,,821.0,0.0,0.0,0.0,0.0,0.125,1.8701169960000001,0.0,0.0012207030000004337,-62794.0,0.0,0.0,-0.0,0.0,0.0,2.6904294120000003,0.0,0.0,23161.0,0.0,0.0,0.0,0.0,0.0,3.984374592,0.0,-0.009765623999999917,-40461.0,0.0,0.0,-0.0,0.0,0.0,2.623290747,0.0,0.0,1.1699999570846558,0.05999999865889549,91.75,0.00201416015625,0.01483154296875,0.9967041015625,32.41999816894531,0.0,-5.0,0.496612548828125,-1.575042724609375,Waiting,0.0,0.0,-114.0,0.0,0.0,0.0,0.0,0.0,
0.9002899999999999,0.0,0.0,false,4428532.571428572,,821.0,0.0,0.0,0.0,0.0,0.125,1.8676755900000002,0.0,0.0012207030000004337,-62794.0,0.0,0.0,-0.0,0.0,0.0,2.6904294120000003,0.0,0.0,23161.0,0.0,0.0,0.0,0.0,0.0,3.9855952950000004,0.0,-0.009765623999999917,-40461.0,0.0,0.0,-0.0,0.0,0.0,2.622070044,0.0,0.0,1.1699999570846558,0.05999999865889549,91.76000213623047,-6.103515625E-5,0.01751708984375,1.01287841796875,32.41999816894531,0.0,0.0,0.496612548828125,-1.575042724609375,Waiting,0.0,0.0,-114.0,0.0,0.0,0.0,0.0,0.0,
0.9321669999999994,0.0,0.0,false,4428385.840707964,,821.0,0.0,0.0,360.9375,0.0,0.125,1.8676755900000002,0.5533560492066917,0.003662109000000413,-62794.0,0.0,0.0,360.9375,0.0,0.0,2.6953122240000003,4.397316058113637,0.0,23161.0,0.0,0.0,360.9375,0.0,0.0,3.984374592,4.40175868900686,0.0012207029999995456,-40461.0,0.0,0.0,360.9375,0.0,0.0,2.622070044,0.5515167311543303,0.0012207029999999897,1.159999966621399,0.07999999821186066,91.77999877929688,0.0018310546875,0.01873779296875,0.984375,32.41999816894531,0.0,-1.0,0.496612548828125,-1.575042724609375,Waiting,0.0,0.0,-114.0,0.0,0.0,0.0,0.0,0.0,
0.9590129999999999,0.0,0.0,false,4427808.280701755,,821.0,0.125,0.0,1821.09375,0.0,0.125,1.861572075,0.5533560492066917,-0.0024414059999999793,-62794.0,0.125,0.0,1821.09375,0.0,0.0,2.6916501150000003,4.397316058113637,0.0,23161.0,4.75,0.0,1821.09375,0.0,0.0,3.984374592,4.40175868900686,0.0,-40461.0,1.625,0.0,1821.09375,0.0,0.0,2.623290747,0.5515167311543303,0.0,1.1699999570846558,0.07000000029802322,91.7699966430664,0.00384521484375,0.0177001953125,1.01507568359375,32.41999816894531,0.0,-3.0,0.496612548828125,-1.575042724609375,Waiting,0.0,0.0,-114.0,0.0,0.0,0.0,0.0,0.0,
0.9905789999999998,0.0,0.0,false,4427025.113043479,,821.0,4.625,7.5,2100.0,0.0,0.125,1.8652341840000002,0.5533560492066917,0.0,-62794.0,4.0,0.0,2100.0,0.0,1.0,2.657470431,4.397316058113637,0.0,23161.0,9.125,45.0,2100.0,0.0,0.875,3.9465327990000003,4.40175868900686,-0.0024414059999999793,-40461.0,5.625,30.0,2100.0,0.0,0.875,2.623290747,0.5515167311543303,-0.0024414059999999793,1.2300000190734863,0.12999999523162842,91.69999694824219,-0.1436767578125,0.01812744140625,1.1260986328125,32.41999816894531,0.0,-1.0,0.496612548828125,-1.574951171875,Waiting,0.0,0.0,-114.0,0.0,0.0,0.0,0.0,0.0,
1.0260059999999993,0.0,0.0,false,4425829.724137931,,821.0,16.375,135.0,2100.0,0.0,1.375,1.85546856,0.5533560492066917,0.0,-62794.0,17.375,97.5,2100.0,0.0,1.25,2.620849341,4.397316058113637,0.0,23161.0,14.375,157.5,2100.0,0.0,0.875,3.852538668,4.40175868900686,0.0,-40461.0,23.125,180.0,2100.0,0.0,0.875,2.6904294120000003,0.5515167311543303,0.0,1.1699999570846558,0.0,91.01000213623047,-0.16473388671875,0.40972900390625,0.6727294921875,32.41999816894531,0.0,398.0,0.4960784912109375,-1.574371337890625,Waiting,0.0,0.0,-114.0,0.0,0.0,0.0,0.0,0.0,
1.0563689999999997,0.0,0.0,false,4424403.897435897,,882.0,23.0,300.0,1214.0625,0.0,0.5,1.9750974540000001,0.5533560492066917,0.06958007099999985,-62749.0,32.5,232.5,1214.0625,0.0,0.125,2.570800518,4.397316058113637,-0.017089842000000743,23248.0,23.25,480.0,1214.0625,0.0,0.0,3.7414546950000003,4.40175868900686,0.0,-40408.0,28.0,262.5,1214.0625,0.0,0.25,2.760009483,0.5515167311543303,0.0,1.0199999809265137,0.0,89.87999725341797,0.201171875,0.22637939453125,1.8583984375,32.41999816894531,0.0,193.0,0.4946441650390625,-1.5733795166015625,Waiting,0.0,0.0,-114.0,0.0,0.0,0.0,0.0,0.0,
1.0911439999999992,0.0,0.0,false,4422791.93220339,,882.0,18.875,390.0,0.0,0.0,0.5,2.082519318,0.5533560492066917,0.0,-62749.0,30.75,300.0,0.0,0.0,0.375,2.462157951,4.397316058113637,0.0,23248.0,17.375,645.0,0.0,0.0,0.0,3.6743160300000004,4.40175868900686,0.0,-40408.0,18.125,427.5,0.0,0.0,0.5,2.8479000990000003,0.5515167311543303,0.0,1.0700000524520874,0.15000000596046448,88.51000213623047,0.1512451171875,0.02655029296875,0.800048828125,32.41999816894531,0.0,15.0,0.4930419921875,-1.57269287109375,Waiting,0.0,0.0,-114.0,0.0,0.0,0.0,0.0,0.0,
1.1141929999999993,0.0,0.0,false,4420792.403361345,,882.0,11.875,465.0,0.0,0.0,0.625,2.1643064190000003,0.5533560492066917,0.0,-62749.0,12.625,360.0,0.0,0.0,0.875,2.387695068,4.397316058113637,-0.17700193499999983,23248.0,8.25,615.0,0.0,0.0,0.0,3.6230465040000004,4.40175868900686,-0.13183592400000066,-40408.0,9.5,465.0,0.0,0.0,0.5,2.916259467,0.5515167311543303,0.15380857800000003,1.0,0.09000000357627869,87.02999877929688,0.0032958984375,-0.1124267578125,1.07666015625,32.41999816894531,0.0,-131.0,0.491851806640625,-1.571929931640625,Waiting,0.0,0.0,-114.0,0.0,0.0,0.0,0.0,0.0,
1.1448849999999993,0.0,0.0,false,4418581.6,,882.0,1.25,442.5,0.0,0.0,0.5,2.254638441,0.5533560492066917,0.19042966800000016,-62749.0,4.375,337.5,0.0,0.0,0.875,2.3266599180000003,4.397316058113637,-0.17700193499999983,23248.0,3.0,502.5,0.0,0.0,0.0,3.593749632,4.40175868900686,-0.13183592400000066,-40408.0,3.375,442.5,0.0,0.0,0.25,2.96630829,0.5515167311543303,0.15380857800000003,0.9300000071525574,0.1899999976158142,85.94000244140625,0.030029296875,-0.04986572265625,0.912109375,32.41999816894531,0.0,-62.0,0.49072265625,-1.5719451904296875,Waiting,0.0,0.0,-114.0,0.0,0.0,0.0,0.0,0.0,
1.1851259999999992,0.0,0.0,false,4415999.5371900825,,913.0,0.0,232.5,0.0,0.0,0.25,2.3278806210000003,0.5533560492066917,0.16723631099999992,-62717.0,0.0,217.5,0.0,0.0,0.375,2.2680661740000003,4.397316058113637,-0.14404295399999967,23284.0,0.0,262.5,0.0,0.0,0.0,3.5791011960000003,4.40175868900686,-0.07934569499999888,-40368.0,0.0,285.0,0.0,0.0,0.0,3.0126950040000002,0.5515167311543303,0.12329100299999984,1.059999942779541,0.15000000596046448,85.33000183105469,0.0089111328125,0.0340576171875,1.067626953125,32.41999816894531,0.0,14.0,0.48968505859375,-1.5718994140625,Waiting,0.0,0.0,-114.0,0.0,0.0,0.0,0.0,0.0,
1.2113009999999995,0.0,0.0,false,4413256.5245901635,,913.0,0.0,105.0,0.0,0.0,0.25,2.342529057,0.5533560492066917,0.16723631099999992,-62717.0,0.0,150.0,0.0,0.0,0.125,2.259521253,4.397316058113637,-0.14404295399999967,23284.0,0.0,172.5,0.0,0.0,0.0,3.5791011960000003,4.40175868900686,-0.007324218000000826,-40368.0,0.0,112.5,0.0,0.0,0.0,3.016357113,0.5515167311543303,0.03906249600000011,1.2000000476837158,0.28999999165534973,85.16999816894531,0.02044677734375,0.2822265625,1.013916015625,32.41999816894531,0.0,69.0,0.489044189453125,-1.571929931640625,Waiting,0.0,0.0,-114.0,0.0,0.0,0.0,0.0,0.0,
1.246495,0.0,0.0,false,4410118.764227643,,913.0,0.0,0.0,0.0,0.0,0.125,2.342529057,0.5533560492066917,0.048828119999999586,-62717.0,0.0,52.5,0.0,0.0,0.0,2.254638441,4.397316058113637,-0.04272460500000008,23284.0,0.0,52.5,0.0,0.0,0.0,3.5803218990000003,4.40175868900686,-0.007324218000000826,-40368.0,0.0,75.0,0.0,0.0,0.0,3.022460628,0.5515167311543303,0.03906249600000011,1.3300000429153442,0.28999999165534973,85.27999877929688,0.03704833984375,0.08282470703125,1.048583984375,32.41999816894531,0.0,60.0,0.4891510009765625,-1.57196044921875,Waiting,0.0,0.0,-114.0,0.0,0.0,0.0,0.0,0.0,
1.2687909999999993,0.0,0.0,false,4406832.645161291,,913.0,0.0,0.0,0.0,0.0,0.125,2.342529057,0.5533560492066917,0.0,-62717.0,0.0,37.5,0.0,0.0,0.0,2.254638441,4.397316058113637,-0.003662109000000413,23284.0,0.0,30.0,0.0,0.0,0.0,3.5803218990000003,4.40175868900686,-0.0012207029999995456,-40368.0,0.0,60.0,0.0,0.0,0.0,3.022460628,0.5515167311543303,0.004882811999999959,1.309999942779541,0.3499999940395355,85.54000091552734,-0.0167236328125,-0.04669189453125,0.93328857421875,32.41999816894531,0.0,-69.0,0.4893798828125,-1.5721893310546875,Waiting,0.0,0.0,-114.0,0.0,0.0,0.0,0.0,0.0,
1.2914449999999997,0.0,0.0,false,4403400.704,,913.0,0.0,0.0,0.0,0.0,0.0,2.341308354,0.5533560492066917,0.0,-62717.0,0.0,30.0,0.0,0.0,0.0,2.253417738,4.397316058113637,-0.003662109000000413,23286.0,0.0,22.5,0.0,0.0,0.0,3.5742183840000004,4.40175868900686,-0.0012207029999995456,-40362.0,0.0,52.5,0.0,0.0,0.0,3.022460628,0.5515167311543303,0.004882811999999959,1.2999999523162842,0.3199999928474426,85.69999694824219,-0.01019287109375,-0.05401611328125,1.13970947265625,32.41999816894531,0.0,-80.0,0.4893646240234375,-1.5721893310546875,Waiting,0.0,0.0,-114.0,0.0,0.0,0.0,0.0,0.0,
1.3114279999999998,0.0,0.0,false,4399631.619047619,,913.0,0.0,0.0,0.0,0.0,0.0,2.341308354,0.5533560492066917,0.0,-62715.0,0.0,15.0,0.0,0.0,0.0,2.254638441,4.397316058113637,-0.003662109000000413,23286.0,0.0,7.5,0.0,0.0,0.0,3.5754390870000003,4.40175868900686,-0.0012207029999995456,-40362.0,0.0,30.0,0.0,0.0,0.0,3.022460628,0.5515167311543303,0.0,1.1799999475479126,0.30000001192092896,86.06999969482422,-0.01434326171875,-0.0087890625,0.922607421875,32.41999816894531,0.0,-29.0,0.4890594482421875,-1.5721893310546875,Waiting,0.0,0.0,-114.0,0.0,0.0,0.0,0.0,0.0,
1.3350309999999999,0.0,0.0,false,4395726.614173228,,913.0,0.0,0.0,0.0,0.0,0.0,2.342529057,0.5533560492066917,0.0,-62715.0,0.0,0.0,0.0,0.0,0.0,2.254638441,4.397316058113637,-0.0012207029999995456,23286.0,0.0,0.0,0.0,0.0,0.0,3.5742183840000004,4.40175868900686,-0.003662109000000413,-40362.0,0.0,7.5,0.0,0.0,0.0,3.022460628,0.5515167311543303,0.0,1.159999966621399,0.2800000011920929,86.26000213623047,-0.01678466796875,-0.00555419921875,0.919921875,32.41999816894531,0.0,-25.0,0.4888458251953125,-1.5721893310546875,Waiting,0.0,0.0,-114.0,0.0,0.0,0.0,0.0,0.0,
1.3601449999999995,0.0,0.0,false,4391461.5625,,913.0,0.0,0.0,0.0,0.0,0.0,2.342529057,0.5533560492066917,0.0,-62715.0,0.0,0.0,0.0,0.0,0.0,2.255859144,4.397316058113637,-0.0012207029999995456,23286.0,0.0,-7.5,0.0,0.0,0.0,3.562011354,4.40175868900686,0.0,-40362.0,0.0,-7.5,0.0,0.0,0.0,3.028564143,0.5515167311543303,0.0012207029999999897,1.2100000381469727,0.2199999988079071,86.5999984741211,0.001953125,0.04266357421875,1.084716796875,32.41999816894531,0.0,19.0,0.4883880615234375,-1.5721893310546875,Waiting,0.0,0.0,-114.0,0.0,0.0,0.0,0.0,0.0,
1.3908589999999994,0.0,0.0,false,4387070.3875969,,913.0,0.0,0.0,803.90625,0.0,0.0,2.342529057,0.5533560492066917,0.0,-62715.0,0.0,0.0,803.90625,0.0,0.0,2.249755629,4.397316058113637,-0.004882811999999959,23286.0,0.0,-22.5,803.90625,0.0,0.0,3.5864254140000003,4.40175868900686,0.0,-40362.0,0.0,-30.0,803.90625,0.0,0.0,3.022460628,0.5515167311543303,0.0,1.2599999904632568,0.23000000417232513,86.83000183105469,3.662109375E-4,0.0491943359375,0.972900390625,32.41999816894531,0.0,27.0,0.488128662109375,-1.5721893310546875,Waiting,0.0,0.0,-114.0,0.0,0.0,0.0,0.0,0.0,
1.4111229999999997,0.0,0.0,false,4382367.2,,913.0,0.0,0.0,1575.0,0.0,0.0,2.341308354,0.5533560492066917,0.0,-62715.0,0.0,0.0,1575.0,0.0,0.0,2.243652114,4.397316058113637,-0.0012207030000004337,23282.0,1.0,-37.5,1575.0,0.0,0.0,3.56445276,4.40175868900686,0.0,-40369.0,0.375,-37.5,1575.0,0.0,0.0,3.018798519,0.5515167311543303,0.0,1.2699999809265137,0.23000000417232513,86.91000366210938,-0.01226806640625,0.0439453125,0.991455078125,32.41999816894531,0.0,-25.0,0.4879913330078125,-1.5721893310546875,Waiting,0.0,0.0,-114.0,0.0,0.0,0.0,0.0,0.0,
1.4355129999999998,0.0,0.0,false,4377546.503816794,,912.0,5.375,0.0,1919.53125,0.0,0.0,2.342529057,0.5533560492066916,0.0,-62711.0,7.375,22.5,1919.53125,0.0,0.0,2.2241208660000003,4.397316058113637,-0.008544920999999484,23282.0,4.875,-30.0,1919.53125,0.0,0.0,3.554687136,4.40175868900686,-0.009765623999999917,-40369.0,2.5,-37.5,1919.53125,0.0,0.0,3.021239925,0.5515167311543303,0.004882811999999959,1.2999999523162842,0.18000000715255737,86.94999694824219,0.041015625,-0.0106201171875,1.09033203125,32.41999816894531,0.0,-33.0,0.487884521484375,-1.57220458984375,Waiting,0.0,0.0,-114.0,0.0,0.0,0.0,0.0,0.0,
1.4665639999999993,0.0,0.0,false,4372577.454545454,,912.0,11.25,22.5,2100.0,0.0,0.0,2.35595679,0.5533560492066917,0.0,-62711.0,15.0,45.0,2100.0,0.0,0.0,2.235107193,4.397316058113637,0.0,23282.0,12.875,60.0,2100.0,0.0,0.0,3.5290523730000003,4.40175868900686,0.0,-40369.0,17.25,52.5,2100.0,0.0,0.0,3.02734344,0.5515167311543303,0.0,1.1399999856948853,0.2199999988079071,85.97000122070312,-0.096435546875,-0.14471435546875,0.9241943359375,32.41999816894531,0.0,-169.0,0.486602783203125,-1.5723876953125,Waiting,0.0,0.0,-114.0,0.0,0.0,0.0,0.0,0.0,
1.493982,0.0,0.0,false,4367125.533834587,,912.0,17.375,90.0,738.28125,0.0,0.0,2.34374976,0.5533560492066917,0.0,-62711.0,22.875,97.5,738.28125,0.0,0.0,2.235107193,4.397316058113637,0.0,23282.0,29.5,165.0,738.28125,0.0,0.0,3.487548471,4.40175868900686,-0.04150390200000054,-40369.0,23.75,157.5,738.28125,0.0,0.0,3.026122737,0.5515167311543303,0.0,1.059999942779541,0.15000000596046448,84.33999633789062,-0.02435302734375,-0.06951904296875,0.9476318359375,32.41999816894531,0.0,-89.0,0.48516845703125,-1.5722808837890625,Waiting,0.0,0.0,-114.0,0.0,0.0,0.0,0.0,0.0,
1.5225549999999994,0.0,0.0,false,4361570.865671642,,912.0,14.875,330.0,0.0,0.0,0.0,2.342529057,0.5533560492066917,0.0,-62711.0,18.75,277.5,0.0,0.0,0.0,2.230224381,4.397316058113637,-0.004882811999999959,23282.0,24.125,285.0,0.0,0.0,0.0,3.4790035500000003,4.40175868900686,-0.029296871999999752,-40289.0,21.375,285.0,0.0,0.0,0.0,3.028564143,0.5515167311543303,0.0,0.9200000166893005,0.18000000715255737,83.25,0.053955078125,0.02630615234375,0.88214111328125,32.41999816894531,0.0,169.0,0.48370361328125,-1.5721435546875,Waiting,0.0,0.0,-114.0,0.0,0.0,0.0,0.0,0.0,
1.5480689999999995,0.0,0.0,false,4355732.02962963,,992.0,7.875,450.0,0.0,0.0,0.0,2.347411869,0.5533560492066917,0.0,-62638.0,10.125,382.5,0.0,0.0,0.0,2.2204587570000003,4.397316058113637,-0.004882811999999959,23363.0,14.0,412.5,0.0,0.0,0.0,3.4729000350000003,4.40175868900686,-0.029296871999999752,-40289.0,13.125,420.0,0.0,0.0,0.0,3.02734344,0.5515167311543303,0.0,0.9800000190734863,0.09000000357627869,80.91000366210938,-0.09625244140625,-0.175048828125,1.16595458984375,32.41999816894531,0.0,-208.0,0.483001708984375,-1.571990966796875,Waiting,0.0,0.0,-114.0,0.0,0.0,0.0,0.0,0.0,
1.5714989999999998,0.0,0.0,false,4349764.176470588,,992.0,1.125,525.0,0.0,0.0,0.0,2.347411869,0.5533560492066917,0.004882811999999959,-62638.0,2.25,472.5,0.0,0.0,0.0,2.210693133,4.397316058113637,-0.010986327000000351,23363.0,3.875,577.5,0.0,0.0,0.0,3.4680172230000004,4.40175868900686,-0.009765623999999917,-40289.0,0.375,555.0,0.0,0.0,0.0,3.032226252,0.5515167311543303,0.0,0.8500000238418579,0.1899999976158142,78.6500015258789,0.0260009765625,-0.1456298828125,0.80517578125,32.41999816894531,0.0,-149.0,0.4813232421875,-1.571685791015625,Waiting,0.0,0.0,-114.0,0.0,0.0,0.0,0.0,0.0,
1.5936909999999997,0.0,0.0,false,4343702.423357665,,992.0,0.0,532.5,0.0,0.0,0.0,2.347411869,0.5533560492066917,0.004882811999999959,-62638.0,0.125,525.0,0.0,0.0,0.0,2.205810321,4.397316058113637,-0.010986327000000351,23363.0,0.5,577.5,0.0,0.0,0.0,3.4680172230000004,4.40175868900686,-0.009765623999999917,-40289.0,0.0,562.5,0.0,0.0,0.0,3.032226252,0.5515167311543303,0.0,0.8999999761581421,0.20999999344348907,77.58999633789062,-0.0830078125,0.1683349609375,0.99945068359375,32.41999816894531,0.0,130.0,0.4804229736328125,-1.5715179443359375,Waiting,0.0,0.0,-114.0,0.0,0.0,0.0,0.0,0.0,
1.6135079999999997,0.0,0.0,false,4337370.956521739,,992.0,0.0,495.0,0.0,0.0,0.0,2.347411869,0.5533560492066917,0.004882811999999959,-62638.0,0.0,525.0,0.0,0.0,0.0,2.192382588,4.397316058113637,-0.017089841999999855,23363.0,0.0,547.5,0.0,0.0,0.0,3.4680172230000004,4.40175868900686,-0.004882811999999959,-40289.0,0.0,570.0,0.0,0.0,0.0,3.024902034,0.5515167311543303,0.004882811999999959,0.9300000071525574,0.20999999344348907,75.77999877929688,-0.0225830078125,-0.05584716796875,0.97039794921875,32.41999816894531,0.0,-75.0,0.479248046875,-1.571075439453125,Waiting,0.0,0.0,-114.0,0.0,0.0,0.0,0.0,0.0,
1.6445369999999992,0.0,0.0,false,4330952.057553957,,992.0,0.0,450.0,0.0,0.0,0.0,2.347411869,0.5533560492066917,0.0012207030000004337,-62638.0,0.0,472.5,0.0,0.0,0.0,2.181396261,4.397316058113637,-0.017089841999999855,23363.0,0.0,525.0,0.0,0.0,0.0,3.4680172230000004,4.40175868900686,-0.004882811999999959,-40186.0,0.0,592.5,0.0,0.0,0.0,3.032226252,0.5515167311543303,0.004882811999999959,0.8999999761581421,0.2199999988079071,74.97000122070312,-0.050537109375,0.12451171875,0.776123046875,32.41999816894531,0.0,94.0,0.478729248046875,-1.57080078125,Waiting,0.0,0.0,-114.0,0.0,0.0,0.0,0.0,0.0,
1.6673909999999996,0.0,0.0,false,4324239.885714286,,1071.0,0.0,472.5,0.0,0.0,0.0,2.347411869,0.5533560492066917,0.0012207030000004337,-62559.0,0.0,480.0,0.0,0.0,0.0,2.1630857160000003,4.397316058113637,-0.024414059999999793,23447.0,0.0,525.0,0.0,0.0,0.0,3.4692379260000004,4.40175868900686,0.0,-40186.0,0.0,637.5,0.0,0.0,0.0,3.031005549,0.5515167311543303,0.0,1.0800000429153442,0.20000000298023224,73.4000015258789,0.07342529296875,0.08099365234375,1.3602294921875,32.41999816894531,0.0,72.0,0.477935791015625,-1.570343017578125,Waiting,0.0,0.0,-114.0,0.0,0.0,0.0,0.0,0.0,
1.6910099999999992,0.0,0.0,false,4317447.035460993,,1071.0,0.0,510.0,0.0,0.0,0.0,2.348632572,0.5533560492066917,0.0,-62559.0,0.0,487.5,0.0,0.0,0.0,2.153320092,4.397316058113637,-0.024414059999999793,23447.0,0.0,532.5,0.0,0.0,0.0,3.4680172230000004,4.40175868900686,0.0,-40186.0,0.0,682.5,0.0,0.0,0.0,3.032226252,0.5515167311543303,0.0,1.0099999904632568,0.4000000059604645,71.95999908447266,0.11737060546875,-0.11846923828125,0.75067138671875,32.43000030517578,0.0,-90.0,0.477264404296875,-1.570281982421875,Waiting,0.0,0.0,-114.0,0.0,0.0,0.0,0.0,0.0,
1.7121239999999998,0.0,0.0,false,4310402.366197183,,1071.0,0.0,532.5,0.0,0.0,0.0,2.347411869,0.5533560492066917,0.0,-62559.0,0.0,495.0,0.0,0.0,0.0,2.153320092,4.397316058113637,-0.024414059999999793,23447.0,0.0,540.0,0.0,0.0,0.0,3.4680172230000004,4.40175868900686,0.0,-40186.0,0.0,645.0,0.0,0.0,0.0,3.032226252,0.5515167311543303,0.0,1.0299999713897705,0.4399999976158142,71.29000091552734,0.0361328125,0.0902099609375,0.89251708984375,32.43000030517578,0.0,79.0,0.4769134521484375,-1.5704193115234375,Waiting,0.0,0.0,-114.0,0.0,0.0,0.0,0.0,0.0,
1.7366279999999996,0.0,0.0,false,4303282.797202798,,1071.0,0.0,502.5,0.0,0.0,0.0,2.347411869,0.5533560492066917,0.0,-62559.0,0.0,480.0,0.0,0.0,0.0,2.153320092,4.397316058113637,-0.02441406000000068,23447.0,0.0,510.0,0.0,0.0,0.0,3.4680172230000004,4.40175868900686,0.0,-40186.0,0.0,555.0,0.0,0.0,0.0,3.031005549,0.5515167311543303,0.0,1.159999966621399,0.4300000071525574,70.05999755859375,0.0308837890625,0.118408203125,1.2230224609375,32.43000030517578,0.0,95.0,0.4763031005859375,-1.5707550048828125,Waiting,0.0,0.0,-114.0,0.0,0.0,0.0,0.0,0.0,
1.759388,0.0,0.0,false,4296090.777777778,,1071.0,0.0,442.5,0.0,0.0,0.0,2.347411869,0.5533560492066917,0.0,-62559.0,0.0,442.5,0.0,0.0,0.0,2.14843728,4.397316058113637,-0.02441406000000068,23447.0,0.0,397.5,0.0,0.0,0.0,3.4667965200000004,4.40175868900686,-0.0012207029999995456,-40132.0,0.0,450.0,0.0,0.0,0.0,3.032226252,0.5515167311543303,0.0,1.159999966621399,0.4300000071525574,69.51000213623047,-0.04034423828125,0.0068359375,1.08477783203125,32.43000030517578,0.0,-31.0,0.47607421875,-1.570892333984375,Waiting,0.0,0.0,-114.0,0.0,0.0,0.0,0.0,0.0,
1.7891629999999996,0.0,0.0,false,4288625.379310345,,1122.0,0.0,360.0,0.0,0.0,0.0,2.346191166,0.5533560492066917,-0.0012207030000004337,-62504.0,0.0,360.0,0.0,0.0,0.0,2.14843728,4.397316058113637,0.0,23505.0,0.0,360.0,0.0,0.0,0.0,3.4680172230000004,4.40175868900686,-0.0012207029999995456,-40132.0,0.0,345.0,0.0,0.0,0.0,3.037109064,0.5515167311543303,0.0,1.159999966621399,0.47999998927116394,68.55999755859375,0.0458984375,0.09429931640625,1.00787353515625,32.43000030517578,0.0,82.0,0.4757232666015625,-1.5711822509765625,Waiting,0.0,0.0,-114.0,0.0,0.0,0.0,0.0,0.0,
1.811629,0.0,0.0,false,4281093.2602739725,,1122.0,0.0,307.5,0.0,0.0,0.0,2.347411869,0.5533560492066917,-0.0012207030000004337,-62504.0,0.0,337.5,0.0,0.0,0.0,2.14843728,4.397316058113637,0.0,23505.0,0.0,337.5,0.0,0.0,0.0,3.4680172230000004,4.40175868900686,0.0012207029999995456,-40132.0,0.0,277.5,0.0,0.0,0.0,3.035888361,0.5515167311543303,0.004882811999999959,1.2000000476837158,0.5099999904632568,67.79000091552734,0.0479736328125,0.04473876953125,0.9437255859375,32.43000030517578,0.0,37.0,0.475494384765625,-1.571197509765625,Waiting,0.0,0.0,-114.0,0.0,0.0,0.0,0.0,0.0,
1.838388,0.0,0.0,false,4273403.210884354,,1122.0,0.0,277.5,-165.35433009266853,0.0,0.0,2.352294681,0.5533560492066895,0.0,-62504.0,0.125,270.0,-165.35433009266853,0.0,0.0,2.147216577,4.397316058113635,0.0,23505.0,0.375,240.0,-165.35433009266853,0.0,0.0,3.463134411,4.401758689006861,0.0,-40132.0,0.25,195.0,-165.35433009266853,0.0,0.0,3.037109064,0.5515167311543325,0.0,1.2400000095367432,0.4699999988079071,66.94000244140625,-0.0433349609375,0.06158447265625,0.97711181640625,32.43000030517578,0.0,17.0,0.4752349853515625,-1.5711212158203125,Waiting,0.0,0.0,-114.0,0.0,0.0,0.0,0.0,0.0,
1.8873849999999992,0.0,0.0,false,4278226.162162162,,1122.0,0.5,247.5,-892.9133981466293,0.0,0.0,2.34374976,0.5533560492066895,0.0,-62504.0,0.625,217.5,-892.9133981466293,0.0,0.0,2.143554468,4.397316058113635,-0.004882811999999959,23529.0,0.375,240.0,-892.9133981466293,0.0,0.0,3.4680172230000004,4.401758689006861,0.0,-40109.0,0.625,172.5,-892.9133981466293,0.0,0.0,3.040771173,0.5515167311543325,0.0012207029999999897,1.25,0.4099999964237213,66.7300033569336,0.01715087890625,0.0029296875,1.11956787109375,32.43000030517578,0.0,-43.0,0.475067138671875,-1.5709686279296875,Waiting,0.0,0.0,-114.0,0.0,0.0,0.0,0.0,0.0,
1.9103539999999994,0.0,0.0,false,4282789.798657718,,1145.0,2.0,195.0,-777.1653592586516,0.0,0.0,2.346191166,0.5533560492066895,0.0,-62484.0,1.875,165.0,-777.1653592586516,0.0,0.0,2.143554468,4.397316058113635,0.0012207030000004337,23529.0,0.625,187.5,-777.1653592586516,0.0,0.0,3.4667965200000004,4.401758689006861,0.0,-40109.0,2.875,127.5,-777.1653592586516,0.0,0.0,3.035888361,0.5515167311543325,0.0,1.2300000190734863,0.49000000953674316,66.77999877929688,0.058349609375,0.0584716796875,0.89678955078125,32.43000030517578,0.0,55.0,0.4749755859375,-1.5709991455078125,Waiting,0.0,0.0,-114.0,0.0,0.0,0.0,0.0,0.0,
1.9344439999999996,0.0,0.0,false,4287074.933333334,,1145.0,3.375,120.0,-281.1023533344269,0.0,0.0,2.347411869,0.5533560492066895,-0.0012207030000004337,-62484.0,5.5,37.5,-281.1023533344269,0.0,0.0,2.143554468,4.397316058113635,0.0,23529.0,3.875,60.0,-281.1023533344269,0.0,0.0,3.4680172230000004,4.401758689006861,-0.0012207029999995456,-40109.0,4.375,67.5,-281.1023533344269,0.0,0.0,3.035888361,0.5515167311543325,0.0,1.309999942779541,0.49000000953674316,67.27999877929688,-0.0135498046875,0.0823974609375,0.9765625,32.43000030517578,0.0,46.0,0.475006103515625,-1.5709381103515625,Waiting,0.0,0.0,-114.0,0.0,0.0,0.0,0.0,0.0,
1.9687149999999993,0.0,0.0,false,4291111.311258278,,1145.0,3.5,-22.5,0.0,0.0,0.0,2.347411869,0.5533560492066895,0.0012207030000004337,-62484.0,4.75,-37.5,0.0,0.0,0.0,2.143554468,4.397316058113635,-0.0012207030000004337,23529.0,4.125,-7.5,0.0,0.0,0.0,3.4692379260000004,4.401758689006861,0.0012207029999995456,-40109.0,2.375,-82.5,0.0,0.0,0.0,3.040771173,0.5515167311543325,0.0,1.350000023841858,0.47999998927116394,68.22000122070312,-0.0050048828125,0.0250244140625,0.98480224609375,32.43000030517578,0.0,-3.0,0.4753265380859375,-1.570831298828125,Waiting,0.0,0.0,-114.0,0.0,0.0,0.0,0.0,0.0,
1.9910259999999997,0.0,0.0,false,4294903.0,,1145.0,1.625,-90.0,0.0,0.0,0.0,2.347411869,0.5533560492066895,0.0012207030000004337,-62484.0,2.375,-105.0,0.0,0.0,0.0,2.152099389,4.397316058113635,-0.0012207030000004337,23529.0,2.25,-82.5,0.0,0.0,0.0,3.4680172230000004,4.401758689006861,0.0012207029999995456,-40109.0,0.75,-150.0,0.0,0.0,0.0,3.041991876,0.5515167311543325,0.0,1.340000033378601,0.5199999809265137,68.73999786376953,0.0015869140625,0.12542724609375,0.86163330078125,32.43000030517578,0.0,95.0,0.4755706787109375,-1.5707550048828125,Waiting,0.0,0.0,-114.0,0.0,0.0,0.0,0.0,0.0,
2.0121799999999994,0.0,0.0,false,4298264.3660130715,,1145.0,0.25,-150.0,0.0,0.0,0.0,2.347411869,0.5533560492066895,0.0012207030000004337,-62484.0,0.625,-165.0,0.0,0.0,0.0,2.1728513400000002,4.397316058113635,-0.0012207030000004337,23502.0,0.375,-142.5,0.0,0.0,0.0,3.4741207380000003,4.401758689006861,0.0,-40141.0,0.125,-187.5,0.0,0.0,0.0,3.045653985,0.5515167311543325,0.004882811999999959,1.399999976158142,0.4099999964237213,69.75,-0.00628662109375,0.01885986328125,1.18438720703125,32.43000030517578,0.0,-14.0,0.476165771484375,-1.5705108642578125,Waiting,0.0,0.0,-114.0,0.0,0.0,0.0,0.0,0.0,
2.0418649999999996,0.0,0.0,false,4301370.961038961,,1113.0,0.0,-187.5,0.0,0.0,0.0,2.353515384,0.5533560492066895,-0.0012207030000004337,-62513.0,0.0,-172.5,0.0,0.0,0.0,2.1728513400000002,4.397316058113635,0.02075195100000027,23502.0,0.0,-157.5,0.0,0.0,0.0,3.4741207380000003,4.401758689006861,0.0,-40141.0,0.0,-202.5,0.0,0.0,0.0,3.045653985,0.5515167311543325,0.004882811999999959,1.3600000143051147,0.46000000834465027,70.23999786376953,0.02716064453125,0.04547119140625,0.93389892578125,32.43000030517578,0.0,28.0,0.476470947265625,-1.5705108642578125,Waiting,0.0,0.0,-114.0,0.0,0.0,0.0,0.0,0.0,
2.0629519999999992,0.0,0.0,false,4304250.425806452,,1113.0,0.0,-195.0,0.0,0.0,0.0,2.357177493,0.5533560492066895,-0.0012207030000004337,-62513.0,0.0,-135.0,0.0,0.0,0.0,2.1728513400000002,4.397316058113635,0.02075195100000027,23502.0,0.0,-142.5,0.0,0.0,0.0,3.4753414410000003,4.401758689006861,0.004882811999999959,-40141.0,0.0,-180.0,0.0,0.0,0.0,3.0554196090000003,0.5515167311543325,0.004882811999999959,1.2699999809265137,0.5,71.08999633789062,0.00421142578125,0.04852294921875,0.9647216796875,32.43000030517578,0.0,24.0,0.47711181640625,-1.5706939697265625,Waiting,0.0,0.0,-114.0,0.0,0.0,0.0,0.0,0.0,
2.088866999999999,0.0,0.0,false,4306906.307692308,,1113.0,0.0,-127.5,0.0,0.0,0.0,2.357177493,0.5533560492066895,0.004882811999999959,-62513.0,0.0,-90.0,0.0,0.0,0.0,2.1716306370000003,4.397316058113635,0.008544921000000372,23502.0,0.0,-127.5,0.0,0.0,0.0,3.4741207380000003,4.401758689006861,0.004882811999999959,-40141.0,0.0,-150.0,0.0,0.0,0.0,3.0566403120000003,0.5515167311543325,0.004882811999999959,1.340000033378601,0.47999998927116394,71.41999816894531,-0.048583984375,-0.06158447265625,1.30865478515625,32.43000030517578,0.0,7.0,0.4776153564453125,-1.5708770751953125,Waiting,0.0,0.0,-114.0,0.0,0.0,0.0,0.0,0.0,
2.109089,0.0,0.0,false,4309136.560509554,,1113.0,0.0,-82.5,0.0,0.0,0.0,2.357177493,0.5533560492066895,0.004882811999999959,-62513.0,0.0,-75.0,0.0,0.0,0.0,2.1716306370000003,4.397316058113635,0.008544921000000372,23502.0,0.0,-142.5,0.0,0.0,0.0,3.4741207380000003,4.401758689006861,0.004882811999999959,-40141.0,0.0,-135.0,0.0,0.0,0.0,3.0554196090000003,0.5515167311543325,0.009765624000000361,1.2799999713897705,0.4099999964237213,71.9000015258789,-0.02972412109375,-0.08062744140625,0.95782470703125,32.43000030517578,0.0,-108.0,0.477752685546875,-1.57098388671875,Waiting,0.0,0.0,-114.0,0.0,0.0,0.0,0.0,0.0,
2.1340859999999995,0.0,0.0,false,4311154.278481012,,1113.0,0.0,-60.0,-148.8189049065113,0.0,0.0,2.357177493,0.5533560492066895,0.0012207030000004337,-62527.0,0.0,-82.5,-148.8189049065113,0.0,0.0,2.1716306370000003,4.397316058113635,0.0,23479.0,0.0,-157.5,-148.8189049065113,0.0,0.0,3.4729000350000003,4.401758689006861,0.0,-40169.0,0.0,-165.0,-148.8189049065113,0.0,0.0,3.0554196090000003,0.5515167311543325,0.0,1.2899999618530273,0.36000001430511475,72.2699966430664,-0.0845947265625,-0.00885009765625,1.12298583984375,32.43000030517578,0.0,-60.0,0.4779052734375,-1.57122802734375,Waiting,0.0,0.0,-114.0,0.0,0.0,0.0,0.0,0.0,
2.1547069999999993,0.0,0.0,false,4312964.2767295595,,1103.0,0.125,-60.0,-429.9212738871575,0.0,0.0,2.357177493,0.5533560492066895,-0.0012207030000004337,-62527.0,0.0,-97.5,-429.9212738871575,0.0,0.0,2.1716306370000003,4.397316058113635,0.0,23479.0,0.0,-165.0,-429.9212738871575,0.0,0.0,3.4729000350000003,4.401758689006861,0.0,-40169.0,0.0,-187.5,-429.9212738871575,0.0,0.0,3.0566403120000003,0.5515167311543325,0.0,1.2599999904632568,0.3100000023841858,72.4000015258789,-0.01708984375,-0.0849609375,1.173095703125,32.43000030517578,0.0,-112.0,0.47784423828125,-1.5713043212890625,Waiting,0.0,0.0,-114.0,0.0,0.0,0.0,0.0,0.0,
2.186192,0.0,0.0,false,4314567.95,,1103.0,0.125,-67.5,-992.1260118484497,0.0,0.0,2.35595679,0.5533560492066895,0.0,-62527.0,0.0,-112.5,-992.1260118484497,0.0,0.0,2.1728513400000002,4.397316058113635,0.0,23479.0,0.0,-120.0,-992.1260118484497,0.0,0.0,3.4729000350000003,4.401758689006861,0.0,-40169.0,0.0,-187.5,-992.1260118484497,0.0,0.0,3.0566403120000003,0.5515167311543325,0.0,1.2000000476837158,0.33000001311302185,72.55000305175781,-0.03802490234375,-0.035400390625,0.96746826171875,32.43000030517578,0.0,-66.0,0.4774932861328125,-1.5713653564453125,Waiting,0.0,0.0,-114.0,0.0,0.0,0.0,0.0,0.0,
2.208339,0.0,0.0,false,4315770.484472049,,1103.0,0.375,-75.0,-1388.9763414859772,0.0,0.0,2.357177493,0.5533560492066895,0.0,-62527.0,0.0,-112.5,-1388.9763414859772,0.0,0.0,2.1716306370000003,4.397316058113635,0.0,23479.0,2.375,-105.0,-1388.9763414859772,0.0,0.0,3.4729000350000003,4.401758689006861,-0.0012207029999995456,-40169.0,0.5,-165.0,-1388.9763414859772,0.0,0.0,3.0578610150000003,0.5515167311543325,0.0,1.2200000286102295,0.28999999165534973,72.5999984741211,-0.02020263671875,0.0870361328125,1.11956787109375,32.43000030517578,0.0,52.0,0.4772796630859375,-1.5713348388671875,Waiting,0.0,0.0,-114.0,0.0,0.0,0.0,0.0,0.0,
2.232696999999999,0.0,0.0,false,4316778.419753087,,1103.0,3.875,-142.5,-1124.4094133377075,0.0,0.0,2.3718259290000003,0.5533560492066895,0.0012207030000004337,-62527.0,3.625,-127.5,-1124.4094133377075,0.0,0.0,2.1716306370000003,4.397316058113635,0.0,23479.0,4.75,-150.0,-1124.4094133377075,0.0,0.0,3.4680172230000004,4.401758689006861,-0.004882811999999959,-40169.0,2.375,-142.5,-1124.4094133377075,0.0,0.0,3.084716481,0.5515167311543325,0.0,1.2000000476837158,0.27000001072883606,72.66999816894531,-5.4931640625E-4,-0.02691650390625,0.99761962890625,32.40999984741211,0.0,-47.0,0.4767913818359375,-1.571197509765625,Waiting,0.0,0.0,-114.0,0.0,0.0,0.0,0.0,0.0,
2.2555069999999997,0.0,0.0,false,4317596.122699386,,1103.0,5.75,-210.0,0.0,0.0,0.0,2.3815915530000002,0.5533560492066895,0.0012207030000004337,-62574.0,3.75,-195.0,0.0,0.0,0.0,2.1716306370000003,4.397316058113635,0.0,23431.0,7.0,-232.5,0.0,0.0,0.0,3.4729000350000003,4.401758689006861,-0.004882811999999959,-40200.0,4.75,-157.5,0.0,0.0,0.0,3.094482105,0.5515167311543325,0.03051757499999974,1.0800000429153442,0.14000000059604645,73.01000213623047,0.0445556640625,0.48809814453125,1.232177734375,32.40999984741211,0.0,456.0,0.4769744873046875,-1.570831298828125,Waiting,0.0,0.0,-114.0,0.0,0.0,0.0,0.0,0.0,
2.285187,0.0,0.0,false,4318204.780487805,,1062.0,4.25,-270.0,0.0,0.0,0.0,2.3815915530000002,0.5533560492066895,0.023193357000000248,-62574.0,3.0,-270.0,0.0,0.0,0.0,2.1716306370000003,4.397316058113635,0.0,23431.0,5.375,-307.5,0.0,0.0,0.0,3.4729000350000003,4.401758689006861,0.0012207029999995456,-40200.0,4.875,-232.5,0.0,0.0,0.0,3.094482105,0.5515167311543325,0.03051757499999974,1.2000000476837158,0.23999999463558197,73.45999908447266,0.02947998046875,0.13787841796875,0.584228515625,32.40999984741211,0.0,128.0,0.477691650390625,-1.5705108642578125,Waiting,0.0,0.0,-114.0,0.0,0.0,0.0,0.0,0.0,
2.3063949999999993,0.0,0.0,false,4318454.642424243,,1062.0,2.75,-300.0,0.0,0.0,0.0,2.3754880380000003,0.5533560492066895,0.023193357000000248,-62574.0,1.375,-300.0,0.0,0.0,0.0,2.1716306370000003,4.397316058113635,0.0,23431.0,3.25,-330.0,0.0,0.0,0.0,3.4729000350000003,4.401758689006861,0.0012207029999995456,-40200.0,3.5,-232.5,0.0,0.0,0.0,3.095702808,0.5515167311543325,0.03051757499999974,1.2699999809265137,0.25999999046325684,74.44999694824219,-0.056396484375,0.2474365234375,1.30511474609375,32.40999984741211,0.0,193.0,0.47906494140625,-1.570068359375,Waiting,0.0,0.0,-114.0,0.0,0.0,0.0,0.0,0.0,
2.3301989999999995,0.0,0.0,false,4318526.843373494,,1062.0,0.25,-285.0,0.0,0.0,0.0,2.3767087410000003,0.5533560492066895,-0.003662108999999525,-62574.0,0.0,-277.5,0.0,0.0,0.0,2.1728513400000002,4.397316058113635,0.0,23431.0,0.375,-300.0,0.0,0.0,0.0,3.4777828470000003,4.401758689006861,0.009765623999999917,-40200.0,0.0,-195.0,0.0,0.0,0.0,3.095702808,0.5515167311543325,0.008544920999999928,1.340000033378601,0.1899999976158142,74.91999816894531,0.001708984375,-0.00286865234375,1.5,32.40999984741211,0.0,-37.0,0.4798583984375,-1.5697784423828125,Waiting,0.0,0.0,-114.0,0.0,0.0,0.0,0.0,0.0,
2.3498999999999994,0.0,0.0,false,4318422.275449102,,1062.0,0.0,-210.0,0.0,0.0,0.125,2.3754880380000003,0.5533560492066895,-0.003662108999999525,-62574.0,0.0,-210.0,0.0,0.0,0.0,2.1728513400000002,4.397316058113635,0.0,23431.0,0.0,-217.5,0.0,0.0,0.0,3.4790035500000003,4.401758689006861,0.009765623999999917,-40200.0,0.0,-135.0,0.0,0.0,0.0,3.094482105,0.5515167311543325,0.008544920999999928,1.149999976158142,0.4099999964237213,75.7699966430664,0.06134033203125,0.005615234375,0.71826171875,32.40999984741211,0.0,5.0,0.4815216064453125,-1.569427490234375,Waiting,0.0,0.0,-114.0,0.0,0.0,0.0,0.0,0.0,
2.370236,0.0,0.0,false,4318126.19047619,,1062.0,0.0,-127.5,0.0,0.0,0.125,2.3754880380000003,0.5533560492066895,-0.003662108999999525,-62574.0,0.0,-120.0,0.0,0.0,0.0,2.1728513400000002,4.397316058113635,0.0,23409.0,0.0,-112.5,0.0,0.0,0.0,3.4777828470000003,4.401758689006861,0.0,-40218.0,0.0,-90.0,0.0,0.0,0.0,3.094482105,0.5515167311543325,0.0,1.190000057220459,0.30000001192092896,76.05000305175781,-0.12469482421875,0.11077880859375,0.9371337890625,32.40999984741211,0.0,57.0,0.4824066162109375,-1.5692291259765625,Waiting,0.0,0.0,-114.0,0.0,0.0,0.0,0.0,0.0,
2.392714,0.0,0.0,false,4317489.7514792895,,1049.0,0.0,-75.0,0.0,0.0,0.125,2.3767087410000003,0.5533560492066895,-0.0012207030000004337,-62580.0,0.0,-52.5,0.0,0.0,0.0,2.1728513400000002,4.397316058113635,0.0,23409.0,0.0,-112.5,0.0,0.0,0.0,3.4777828470000003,4.401758689006861,0.0,-40218.0,0.0,-90.0,0.0,0.0,0.0,3.094482105,0.5515167311543325,0.0,1.2200000286102295,0.25,76.41999816894531,-0.0205078125,-0.02398681640625,1.1156005859375,32.40999984741211,0.0,-52.0,0.484283447265625,-1.5687255859375,Waiting,0.0,0.0,-114.0,0.0,0.0,0.0,0.0,0.0,
2.4129399999999994,0.0,0.0,false,4316690.25882353,,1049.0,0.0,-67.5,0.0,0.0,0.125,2.3815915530000002,0.5533560492066895,-0.0012207030000004337,-62580.0,0.0,-45.0,0.0,0.0,0.0,2.1728513400000002,4.397316058113635,0.0,23409.0,0.0,-157.5,0.0,0.0,0.0,3.4777828470000003,4.401758689006861,-0.0012207029999995456,-40218.0,0.0,-120.0,0.0,0.0,0.0,3.094482105,0.5515167311543325,0.0,1.190000057220459,0.25999999046325684,76.69999694824219,-0.0521240234375,-0.00860595703125,1.00433349609375,32.40999984741211,0.0,-41.0,0.485992431640625,-1.568267822265625,Waiting,0.0,0.0,-114.0,0.0,0.0,0.0,0.0,0.0,
2.44649,0.0,0.0,false,4315709.192982456,,1049.0,0.0,-82.5,0.0,0.0,0.125,2.3803708500000003,0.5533560492066895,0.0,-62580.0,0.0,-90.0,0.0,0.0,0.0,2.1716306370000003,4.397316058113635,0.0,23409.0,0.0,-165.0,0.0,0.0,0.0,3.4777828470000003,4.401758689006861,-0.0012207029999995456,-40218.0,0.0,-142.5,0.0,0.0,0.0,3.094482105,0.5515167311543325,0.0,1.1200000047683716,0.25,76.80999755859375,-0.04046630859375,0.00665283203125,0.89013671875,32.40999984741211,0.0,-20.0,0.486785888671875,-1.5679779052734375,Waiting,0.0,0.0,-114.0,0.0,0.0,0.0,0.0,0.0,
2.4667699999999995,0.0,0.0,false,4314570.976744186,,1049.0,0.0,-82.5,0.0,0.0,0.125,2.3767087410000003,0.5533560492066895,0.0,-62580.0,0.0,-97.5,0.0,0.0,0.0,2.1716306370000003,4.397316058113635,0.0,23409.0,0.0,-142.5,0.0,0.0,0.0,3.4777828470000003,4.401758689006861,0.0012207029999995456,-40218.0,0.0,-150.0,0.0,0.0,0.0,3.094482105,0.5515167311543325,0.0,1.1100000143051147,0.1899999976158142,76.94000244140625,-0.00726318359375,-0.01519775390625,1.18310546875,32.40999984741211,0.0,-39.0,0.48828125,-1.5673675537109375,Waiting,0.0,0.0,-114.0,0.0,0.0,0.0,0.0,0.0,
2.490389999999999,0.0,0.0,false,4313109.919075144,,1049.0,0.0,-67.5,0.0,0.0,0.125,2.3815915530000002,0.5533560492066895,0.0,-62580.0,0.0,-82.5,0.0,0.0,0.0,2.1716306370000003,4.397316058113635,0.0,23404.0,0.0,-97.5,0.0,0.0,0.0,3.4777828470000003,4.401758689006861,0.0012207029999995456,-40230.0,0.0,-127.5,0.0,0.0,0.0,3.094482105,0.5515167311543325,0.0,1.1100000143051147,0.1899999976158142,76.97000122070312,-0.04779052734375,0.043212890625,1.11663818359375,32.40999984741211,0.0,9.0,0.488983154296875,-1.5670318603515625,Waiting,0.0,0.0,-114.0,0.0,0.0,0.0,0.0,0.0,
2.5099039999999997,0.0,0.0,false,4311499.0344827585,,1042.0,0.0,-45.0,0.0,0.0,0.125,2.3815915530000002,0.5533560492066895,0.0,-62589.0,0.0,-60.0,0.0,0.0,0.0,2.1728513400000002,4.397316058113635,0.0,23404.0,0.0,-45.0,0.0,0.0,0.0,3.4790035500000003,4.401758689006861,0.0012207029999995456,-40230.0,0.0,-90.0,0.0,0.0,0.0,3.094482105,0.5515167311543325,0.0,1.0499999523162842,0.1899999976158142,76.97000122070312,-0.02239990234375,0.02154541015625,0.9427490234375,32.40999984741211,0.0,-1.0,0.4903411865234375,-1.5662841796875,Waiting,0.0,0.0,-114.0,0.0,0.0,0.0,0.0,0.0,
2.5329029999999992,0.0,0.0,false,4309553.645714286,,1042.0,0.0,-22.5,0.0,0.0,0.125,2.3803708500000003,0.5533560492066895,0.0,-62589.0,0.0,-37.5,0.0,0.0,0.0,2.1716306370000003,4.397316058113635,0.0,23404.0,0.0,-7.5,0.0,0.0,0.0,3.4777828470000003,4.401758689006861,0.0,-40230.0,0.0,-45.0,0.0,0.0,0.0,3.094482105,0.5515167311543325,0.0,1.100000023841858,0.17000000178813934,76.88999938964844,-0.04241943359375,0.06243896484375,1.06585693359375,32.40999984741211,0.0,30.0,0.49169921875,-1.565460205078125,Waiting,0.0,0.0,-114.0,0.0,0.0,0.0,0.0,0.0,
2.552491999999999,0.0,0.0,false,4307465.636363637,,1042.0,0.0,-7.5,0.0,0.0,0.125,2.3767087410000003,0.5533560492066895,0.0,-62589.0,0.0,-30.0,0.0,0.0,0.0,2.1728513400000002,4.397316058113635,0.0,23404.0,0.0,0.0,0.0,0.0,0.0,3.4777828470000003,4.401758689006861,0.0,-40230.0,0.0,0.0,0.0,0.0,0.0,3.094482105,0.5515167311543325,0.0,1.090000033378601,0.1599999964237213,76.79000091552734,0.02362060546875,0.050537109375,0.94158935546875,32.40999984741211,0.0,36.0,0.4931182861328125,-1.56451416015625,Waiting,0.0,0.0,-114.0,0.0,0.0,0.0,0.0,0.0,
2.584625999999999,0.0,0.0,false,4305237.062146893,,1042.0,0.0,-7.5,0.0,0.0,0.125,2.3767087410000003,0.5533560492066895,0.003662108999999525,-62589.0,0.0,-15.0,0.0,0.0,0.0,2.1716306370000003,4.397316058113635,0.0,23404.0,0.0,0.0,0.0,0.0,0.0,3.4765621440000003,4.401758689006861,0.0,-40230.0,0.0,0.0,0.0,0.0,0.0,3.095702808,0.5515167311543325,0.0,1.100000023841858,0.17000000178813934,76.7300033569336,0.010498046875,0.00799560546875,0.9337158203125,32.40999984741211,0.0,-7.0,0.493865966796875,-1.56451416015625,Waiting,0.0,0.0,-114.0,0.0,0.0,0.0,0.0,0.0,
2.6069319999999996,0.0,0.0,false,4302870.292134832,,1042.0,0.0,0.0,0.0,0.0,0.0,2.3754880380000003,0.5533560492066895,0.003662108999999525,-62589.0,0.0,-7.5,0.0,0.0,0.0,2.1728513400000002,4.397316058113635,0.0,23404.0,0.0,0.0,0.0,0.0,0.0,3.4765621440000003,4.401758689006861,0.0,-40230.0,0.0,0.0,0.0,0.0,0.0,3.095702808,0.5515167311543325,0.0,1.1100000143051147,0.17000000178813934,76.66999816894531,0.0059814453125,0.0250244140625,1.0478515625,32.40999984741211,0.0,5.0,0.4946136474609375,-1.56451416015625,Waiting,0.0,0.0,-114.0,0.0,0.0,0.0,0.0,0.0,
2.63071,0.0,0.0,false,4300348.290502793,,1042.0,0.0,0.0,0.0,0.0,0.0,2.3754880380000003,0.5533560492066895,-0.0012207029999995456,-62589.0,0.0,0.0,0.0,0.0,0.0,2.1716306370000003,4.397316058113635,0.0,23404.0,0.0,0.0,0.0,0.0,0.0,3.4790035500000003,4.401758689006861,0.0,-40230.0,0.0,0.0,0.0,0.0,0.0,3.094482105,0.5515167311543325,0.0,1.1100000143051147,0.1899999976158142,76.56999969482422,0.02166748046875,0.010498046875,0.95465087890625,32.40999984741211,0.0,-3.0,0.4946136474609375,-1.56451416015625,Waiting,0.0,0.0,-114.0,0.0,0.0,0.0,0.0,0.0,
2.6509569999999996,0.0,0.0,false,4297531.466666667,,1042.0,0.0,0.0,0.0,0.0,0.0,2.3803708500000003,0.5533560492066895,-0.0012207029999995456,-62589.0,0.0,0.0,0.0,0.0,0.0,2.1728513400000002,4.397316058113635,0.0,23404.0,0.0,0.0,0.0,0.0,0.0,3.4777828470000003,4.401758689006861,0.0,-40230.0,0.0,0.0,0.0,0.0,0.0,3.094482105,0.5515167311543325,0.0,1.1100000143051147,0.20000000298023224,76.48999786376953,0.00103759765625,0.0185546875,1.03802490234375,32.40999984741211,0.0,-2.0,0.4946136474609375,-1.5645904541015625,Waiting,0.0,0.0,-114.0,0.0,0.0,0.0,0.0,0.0,
2.6714249999999993,0.0,0.0,false,4294585.591160221,,1042.0,0.0,0.0,0.0,0.0,0.0,2.3767087410000003,0.5533560492066895,0.0,-62589.0,0.0,0.0,0.0,0.0,0.0,2.1728513400000002,4.397316058113635,0.0,23404.0,0.0,0.0,0.0,0.0,0.0,3.4777828470000003,4.401758689006861,0.0,-40230.0,0.0,0.0,0.0,0.0,0.0,3.095702808,0.5515167311543325,0.0,1.1200000047683716,0.1899999976158142,76.45999908447266,0.01446533203125,0.02655029296875,1.0504150390625,32.40999984741211,0.0,8.0,0.4946136474609375,-1.5646514892578125,Waiting,0.0,0.0,-114.0,0.0,0.0,0.0,0.0,0.0,
2.693745999999999,0.0,0.0,false,4291492.043956044,,1042.0,0.0,0.0,0.0,0.0,0.0,2.3767087410000003,0.5533560492066895,0.0,-62589.0,0.0,0.0,0.0,0.0,0.0,2.1716306370000003,4.397316058113635,0.0,23404.0,0.0,0.0,0.0,0.0,0.0,3.4790035500000003,4.401758689006861,0.0,-40230.0,0.0,0.0,0.0,0.0,0.0,3.094482105,0.5515167311543325,0.0,1.1100000143051147,0.20999999344348907,76.44000244140625,0.0103759765625,0.024658203125,0.990478515625,32.40999984741211,0.0,6.0,0.4946136474609375,-1.5646514892578125,Waiting,0.0,0.0,-114.0,0.0,0.0,0.0,0.0,0.0,
2.714473,0.0,0.0,false,4288273.87978142,,1042.0,0.0,0.0,0.0,0.0,0.0,2.3767087410000003,0.5533560492066895,0.0,-62589.0,0.0,0.0,0.0,0.0,0.0,2.1728513400000002,4.397316058113635,0.0,23404.0,0.0,0.0,0.0,0.0,0.0,3.4765621440000003,4.401758689006861,-0.0012207029999995456,-40230.0,0.0,0.0,0.0,0.0,0.0,3.095702808,0.5515167311543325,0.0,1.1299999952316284,0.20000000298023224,76.38999938964844,-0.013916015625,0.0274658203125,0.9881591796875,32.41999816894531,0.0,3.0,0.4946136474609375,-1.5646514892578125,Waiting,0.0,0.0,-114.0,0.0,0.0,0.0,0.0,0.0,
2.7465829999999998,0.0,0.0,false,4284774.652173913,,1042.0,0.0,0.0,-198.42519611120224,0.0,0.0,2.3767087410000003,0.5533560492066895,0.0012207029999995456,-62589.0,0.0,0.0,-198.42519611120224,0.0,0.0,2.1716306370000003,4.397316058113635,0.0,23404.0,0.0,0.0,-198.42519611120224,0.0,0.0,3.4753414410000003,4.401758689006861,0.0,-40230.0,0.0,0.0,-198.42519611120224,0.0,0.0,3.094482105,0.5515167311543325,0.0,1.1299999952316284,0.18000000715255737,76.37999725341797,-8.544921875E-4,0.02789306640625,1.00872802734375,32.41999816894531,0.0,6.0,0.4946136474609375,-1.5646514892578125,Waiting,0.0,0.0,-114.0,0.0,0.0,0.0,0.0,0.0,
2.7681499999999994,0.0,0.0,false,4281156.540540541,,1042.0,0.125,0.0,-536.7794710157093,0.0,0.0,2.3803708500000003,0.7274494309831288,-0.0012207029999995456,-62589.0,0.0,0.0,-485.95037937995755,0.0,0.0,2.1728513400000002,4.1026916735117185,0.0,23404.0,0.0,0.0,-327.5186343116011,0.0,0.0,3.4814449560000003,4.8535288874200875,0.0,-40230.0,0.0,0.0,-235.12555483604118,0.0,0.0,3.095702808,0.14012833137468758,0.0,1.1399999856948853,0.17000000178813934,76.37999725341797,-0.00421142578125,0.0211181640625,1.00823974609375,32.41999816894531,0.0,0.0,0.4946136474609375,-1.5646514892578125,Waiting,0.0,0.0,-114.0,0.0,0.0,0.0,0.0,0.0,
2.790942,0.0,0.0,false,4277401.806451613,,1042.0,0.125,0.0,-706.3652822482674,0.0,0.125,2.3767087410000003,0.738818469165788,-0.0012207029999995456,-62589.0,0.125,0.0,-637.4887076732455,0.0,0.0,2.1667478250000003,4.081831381223659,0.0,23404.0,0.0,0.0,-420.3236740568234,0.0,0.0,3.492431283,4.900651456083121,0.003662109000000413,-40230.0,0.0,0.0,-290.0205706805241,0.0,0.75,3.095702808,0.07728112412990923,0.0,1.1299999952316284,0.17000000178813934,76.4000015258789,0.0057373046875,0.02032470703125,0.98193359375,32.41999816894531,0.0,1.0,0.4946136474609375,-1.5646514892578125,Waiting,0.0,0.0,-114.0,0.0,0.0,0.0,0.0,0.0,
2.8109659999999996,0.0,0.0,false,4273532.192513369,,1042.0,0.5,-15.0,-515.4380703950806,0.0,0.125,2.36816382,0.8097245893004258,0.003662108999999525,-62589.0,0.625,0.0,-461.32751843826816,0.0,0.125,2.130126735,3.94917168716345,-0.020751951000001156,23404.0,0.0,0.0,-285.49723081344854,0.0,1.25,3.5693355720000004,0.28063249657155437,0.026855465999998884,-40230.0,0.0,-15.0,-169.27889312597148,0.0,1.125,3.0114743010000002,4.452837642250341,0.0,1.1299999952316284,0.18000000715255737,76.43000030517578,-0.011962890625,0.07574462890625,0.989013671875,32.41999816894531,0.0,50.0,0.4946441650390625,-1.56463623046875,Waiting,0.0,0.0,-114.0,0.0,0.0,0.0,0.0,0.0,
2.8417299999999996,0.0,0.0,false,4269394.638297873,,1042.0,1.0,-105.0,-297.63780355453486,0.0,0.25,2.4255368610000003,1.0538847819858097,0.03417968399999971,-62589.0,1.0,-67.5,-297.63780355453486,0.0,0.5,2.0581052580000003,3.5252001986397605,-0.058593743999999504,23404.0,0.375,-7.5,297.63780355453486,0.0,2.625,3.701171496,3.5287617264217768,0.10131834900000047,-40230.0,0.0,-30.0,297.63780355453486,0.0,4.875,2.882079783,1.0503817403051556,-0.09277342799999966,1.100000023841858,0.15000000596046448,76.45999908447266,-0.0760498046875,-0.0535888671875,0.9722900390625,32.41999816894531,0.0,-88.0,0.4946441650390625,-1.5645751953125,Waiting,0.0,0.0,-114.0,0.0,0.0,0.0,0.0,0.0,
2.8639479999999993,0.0,0.0,false,4265146.116402117,,1021.0,0.875,-142.5,-317.4803137779236,0.0,0.25,2.454833733,1.0542984318203366,0.02075195100000027,-62610.0,0.875,-120.0,-317.4803137779236,0.0,0.625,1.984863078,3.52561259852515,-0.05004882300000002,23393.0,0.375,-37.5,317.4803137779236,0.0,2.25,3.8500972620000002,3.529174542956879,0.10986326999999996,-40237.0,0.0,-37.5,317.4803137779236,0.0,5.25,2.702636442,1.0507940151956314,0.0,1.090000033378601,0.20000000298023224,76.6500015258789,0.024658203125,-0.0606689453125,0.81060791015625,32.41999816894531,0.0,-69.0,0.4947357177734375,-1.564453125,Waiting,0.0,0.0,-114.0,0.0,0.0,0.0,0.0,0.0,
2.8886629999999998,0.0,0.0,false,4260771.2,,1021.0,0.75,-150.0,-396.8503922224044,0.0,0.375,2.508544665,1.056918354373506,0.04760741700000004,-62610.0,0.5,-150.0,-396.8503922224044,0.0,0.625,1.907958789,3.5282246043099272,-0.10131834899999959,23393.0,0.125,-67.5,-396.8503922224044,0.0,7.5,3.922118739,1.0547891876644535,0.20141599500000051,-40237.0,0.125,-37.5,396.8503922224044,0.0,7.75,2.702636442,1.0534052293035696,-0.20019529200000008,1.1100000143051147,0.17000000178813934,76.76000213623047,-0.03558349609375,0.10052490234375,1.12322998046875,32.41999816894531,0.0,67.0,0.494781494140625,-1.5644073486328125,Waiting,0.0,0.0,-114.0,0.0,0.0,0.0,0.0,0.0,
2.9079299999999995,0.0,0.0,false,4256290.303664922,,1021.0,0.375,-135.0,-575.433059334755,0.0,0.875,2.559814191,1.0584351405673535,0.05493163499999998,-62610.0,0.5,-150.0,-575.433059334755,0.0,2.0,1.8151853610000002,3.52973680714501,-0.07446288299999981,23393.0,0.125,-82.5,-575.433059334755,0.0,11.25,3.8391109350000003,1.0563029182857915,-0.021972654000000702,-40237.0,0.25,-22.5,575.433059334755,0.0,7.5,2.775878622,1.0549169738027762,0.05371093199999999,1.1299999952316284,0.10000000149011612,76.87999725341797,-0.04681396484375,-0.00860595703125,1.19793701171875,32.41999816894531,0.0,-42.0,0.4948577880859375,-1.5642852783203125,Waiting,0.0,0.0,-114.0,0.0,0.0,0.0,0.0,0.0,
2.931643,0.0,0.0,false,4251553.916666667,,1021.0,0.75,-112.5,-575.433059334755,0.0,0.875,2.6391598860000003,1.061606526099308,0.07324218000000027,-62610.0,1.0,-135.0,-575.433059334755,0.0,2.375,1.666259595,3.532898609521651,-0.1269531120000007,23393.0,0.375,-82.5,575.433059334755,0.0,11.25,3.658446891,3.5364679150475364,-0.1293945179999998,-40237.0,0.375,7.5,575.433059334755,0.0,8.0,2.889404001,1.058077817863885,0.07690428900000024,1.0700000524520874,0.1899999976158142,77.0999984741211,-0.06689453125,0.0069580078125,0.95562744140625,32.41999816894531,0.0,-26.0,0.494903564453125,-1.5640411376953125,Waiting,0.0,0.0,-114.0,0.0,0.0,0.0,0.0,0.0,
2.9513789999999998,0.0,0.0,false,4246697.616580311,,1021.0,1.375,-97.5,-575.433059334755,0.0,0.625,2.6989743330000002,1.0631233122931556,0.06225585299999992,-62610.0,1.75,-105.0,-575.433059334755,0.0,2.5,1.563720543,3.5344108123567337,-0.1171874879999999,23393.0,0.75,-82.5,575.433059334755,0.0,15.0,3.770751567,3.537981645668874,-0.11596678499999946,-40237.0,0.75,90.0,575.433059334755,0.0,4.125,3.074950857,1.0595895623630915,0.0,1.0,0.07000000029802322,77.33000183105469,0.059326171875,-0.11572265625,1.01776123046875,32.41999816894531,0.0,-117.0,0.4946136474609375,-1.5634613037109375,Waiting,0.0,0.0,-114.0,0.0,0.0,0.0,0.0,0.0,
2.9858339999999997,0.0,0.0,false,4241741.608247423,,999.0,1.875,-97.5,-595.2756071090697,0.0,0.375,2.781982137,1.0662948030259851,0.06713866499999988,-62620.0,2.25,-67.5,-595.2756071090697,0.0,0.5,1.411132668,3.5375727196163576,0.0,23390.0,1.375,-45.0,595.2756071090697,0.0,16.25,3.912353115,3.541146747419567,0.16845701399999946,-40225.0,1.75,90.0,595.2756071090697,0.0,0.875,3.225097326,1.062750511275395,0.18798826200000018,0.9399999976158142,0.05999999865889549,77.44999694824219,-0.083984375,-0.0504150390625,0.92962646484375,32.41999816894531,0.0,-82.0,0.4942626953125,-1.56317138671875,Waiting,0.0,0.0,-114.0,0.0,0.0,0.0,0.0,0.0,
3.014522999999999,0.0,0.0,false,4236687.425641025,,999.0,2.625,-157.5,-615.1181173324586,0.0,0.25,2.81982393,1.0698798383924666,0.05737304099999996,-62620.0,3.625,-67.5,-615.1181173324586,0.0,0.25,1.3464354090000001,3.5411469218783873,0.0,23390.0,1.5,-15.0,-615.1181173324586,0.0,13.125,3.7292476650000004,1.0677245607164139,0.0,-40225.0,2.75,22.5,615.1181173324586,0.0,0.875,3.4179684000000004,1.0663236302269798,0.0,0.8100000023841858,0.05999999865889549,77.87000274658203,0.01739501953125,-0.07843017578125,0.94415283203125,32.41999816894531,0.0,-86.0,0.4925384521484375,-1.562469482421875,Waiting,0.0,0.0,-114.0,0.0,0.0,0.0,0.0,0.0,
3.0460149999999993,0.0,0.0,false,4231369.714285715,,999.0,2.875,-180.0,-634.9606275558472,0.0,0.25,2.9028317340000003,1.0737408156500892,0.05859374399999995,-62620.0,4.25,-82.5,-634.9606275558472,0.0,0.0,1.326904161,3.5449962322023145,-0.052490229,23390.0,1.375,0.0,634.9606275558472,0.0,14.0,3.6889644660000003,3.5485777600182398,-0.20507810400000004,-40225.0,3.5,-7.5,634.9606275558472,0.0,0.5,3.4851070650000002,1.0701717738575374,0.16601560800000037,0.7400000095367432,0.10999999940395355,77.97000122070312,-0.0164794921875,-0.07281494140625,0.65582275390625,32.41999816894531,0.0,-83.0,0.491790771484375,-1.5623321533203125,Waiting,0.0,0.0,-114.0,0.0,0.0,0.0,0.0,0.0,
3.069451,0.0,0.0,false,4225958.822335025,,999.0,3.125,-195.0,-634.9606275558472,0.0,0.125,2.888183298,1.0764985513475176,0.028076168999999762,-62620.0,5.625,-120.0,-634.9606275558472,0.0,0.0,1.3195799430000001,3.547745634693566,0.0,23390.0,1.5,-45.0,634.9606275558472,0.0,11.625,3.8879390550000004,3.5513299402448837,0.0,-40225.0,4.375,-22.5,634.9606275558472,0.0,0.5,3.5339351850000003,1.0729203430281713,0.0,0.7300000190734863,-0.05999999865889549,78.1500015258789,-0.05810546875,-0.0328369140625,1.16717529296875,32.41999816894531,0.0,-58.0,0.4901885986328125,-1.56195068359375,Waiting,0.0,0.0,-114.0,0.0,0.0,0.0,0.0,0.0,
3.0982179999999997,0.0,0.0,false,4220455.515151516,,963.0,3.75,-210.0,-634.9606275558472,0.0,0.125,2.8942868130000003,1.0791184739006867,0.008544921000000372,-62648.0,6.125,-150.0,-634.9606275558472,0.0,0.0,1.3232420520000001,3.5503576404783437,-0.006103514999999504,23383.0,1.75,-82.5,-634.9606275558472,0.0,16.875,3.853759371,1.0769445849524582,0.1452636569999992,-40222.0,5.25,-15.0,634.9606275558472,0.0,0.25,3.538817997,1.0755315571361095,0.03906249600000011,0.75,-0.10000000149011612,78.37000274658203,-0.13787841796875,-0.00189208984375,1.0408935546875,32.41999816894531,0.0,-42.0,0.4886474609375,-1.5612640380859375,Waiting,0.0,0.0,-114.0,0.0,0.0,0.0,0.0,0.0,
3.1307789999999995,0.0,0.0,false,4214844.100502512,,963.0,4.25,-217.5,-634.9606275558472,0.0,0.0,2.8906247040000004,1.0806352600945337,0.0,-62648.0,6.625,-187.5,-634.9606275558472,0.0,0.0,1.324462755,3.5518698433134257,0.0,23383.0,1.625,-97.5,634.9606275558472,0.0,13.875,3.708495714,3.5554583155737953,0.0,-40222.0,5.75,37.5,634.9606275558472,0.0,0.0,3.538817997,1.0770433016353151,0.0,0.8700000047683716,-0.10000000149011612,78.7300033569336,0.02801513671875,0.1365966796875,1.20703125,32.41999816894531,0.0,121.0,0.4864959716796875,-1.56011962890625,Waiting,0.0,0.0,-114.0,0.0,0.0,0.0,0.0,0.0,
