Time,ClimberA1,ClimberA2,CameraExists,HeapSpace,LoopTime,FRpos,FRCurrent,FRspeed,FRsetpoint,FRApos,FRACurrent,FREncpos,FREncSetpoint,FREncSpeed,FLpos,FLCurrent,FLspeed,FLsetpoint,FLApos,FLACurrent,FLEncpos,FLEncSetpoint,FLEncSpeed,BRpos,BRCurrent,BRspeed,BRsetpoint,BRApos,BRACurrent,BREncpos,BREncSetpoint,BREncSpeed,BLpos,BLCurrent,BLspeed,BLsetpoint,BLApos,BLACurrent,BLEncpos,BLEncSetpoint,BLEncSpeed,navx_Pitch,navx_Roll,navx_Yaw,navx_XAcc,navx_YAcc,navx_ZAcc,navx_Temp,navx_Bar,navx_Alt,navx_XDis,navx_YDis,GearPlacerState,ShootOutputV,ShootOutputCurrent,ShootEncPos,ShootEncVelocity,ShootSpeed,ShootSetpoint,CarouselSetpoint,CarouselCurrent,
0.4517479999999996,0.0,0.0,false,4267645.070422535,,-9254.0,0.0,0.0,0.0,0.0,0.0,2.3754880380000003,0.0,0.0,-43391.0,0.0,0.0,-0.0,0.0,0.0,2.125243923,0.0,0.0,13769.0,0.0,0.0,0.0,0.0,0.0,3.4826656590000002,0.0,0.0,-28598.0,0.0,0.0,-0.0,0.0,0.0,3.095702808,0.0,0.0,1.1799999475479126,0.07000000029802322,78.58000183105469,1.220703125E-4,0.02349853515625,1.00164794921875,30.729999542236328,0.0,2.0,-1.1372528076171875,-0.6974639892578125,Waiting,0.0,0.0,-114.0,0.0,0.0,0.0,0.0,0.0,
0.49477199999999993,0.0,0.0,false,4271295.328671329,,-9254.0,0.0,0.0,0.0,0.0,0.0,2.3754880380000003,0.0,0.5394880380000009,-43391.0,0.0,0.0,-0.0,0.0,1.125,2.143554468,0.0,4.37302322,13769.0,0.0,0.0,0.0,0.0,1.625,3.511962531,0.0,4.406665659,-28598.0,0.0,0.0,-0.0,0.0,2.25,3.084716481,0.0,0.554482105,1.1799999475479126,0.05999999865889549,78.58000183105469,-0.00152587890625,0.02288818359375,1.0009765625,30.729999542236328,0.0,1.0,-1.1372528076171875,-0.6974639892578125,Waiting,0.0,0.0,-114.0,0.0,0.0,0.0,0.0,0.0,
0.5240729999999995,0.0,0.0,false,4274730.888888889,,-9254.0,0.0,0.0,0.0,0.0,1.875,2.341308354,0.0,-0.003662108999999525,-43391.0,0.0,0.0,-0.0,0.0,2.125,2.259521253,0.0,0.04394530799999963,13769.0,0.0,0.0,0.0,0.0,2.0,3.6315914250000003,0.0,0.053710931999999545,-28598.0,0.0,0.0,-0.0,0.0,2.625,2.988280944,0.0,0.0,1.1799999475479126,0.07000000029802322,78.58000183105469,0.00848388671875,0.06451416015625,1.029296875,30.729999542236328,0.0,43.0,-1.1372222900390625,-0.6975250244140625,Waiting,0.0,0.0,-114.0,0.0,0.0,0.0,0.0,0.0,
0.5523969999999999,0.0,0.0,false,4277954.317241379,,-9254.0,0.0,0.0,0.0,0.0,2.0,2.235107193,0.0,-0.003662108999999525,-43391.0,0.0,0.0,-0.0,0.0,2.625,2.3742673350000003,0.0,0.04394530799999963,13769.0,0.0,0.0,0.0,0.0,2.25,3.752441022,0.0,0.053710931999999545,-28598.0,0.0,0.0,-0.0,0.0,2.625,2.882079783,0.0,0.0,1.159999966621399,0.07999999821186066,78.58000183105469,-0.0208740234375,-0.01611328125,1.031494140625,30.729999542236328,0.0,-40.0,-1.13720703125,-0.697540283203125,Waiting,0.0,0.0,-114.0,0.0,0.0,0.0,0.0,0.0,
0.5751880000000001,0.0,0.0,false,4280780.05479452,,-9254.0,0.0,0.0,0.0,0.0,0.625,2.1166990020000003,0.0,-0.19409177700000058,-43391.0,0.0,0.0,-0.0,0.0,0.875,2.503661853,0.0,0.24780270900000012,13769.0,0.0,0.0,0.0,0.0,0.125,3.853759371,0.0,0.23559567900000022,-28598.0,0.0,0.0,-0.0,0.0,0.375,2.77099581,0.0,-0.22583005499999986,1.159999966621399,0.10999999940395355,78.58999633789062,0.00177001953125,-0.04608154296875,0.9464111328125,30.729999542236328,0.0,-64.0,-1.13739013671875,-0.697540283203125,Waiting,0.0,0.0,-114.0,0.0,0.0,0.0,0.0,0.0,
0.6273849999999993,0.0,0.0,false,4283406.040816327,,-9254.0,0.0,0.0,0.0,0.0,0.25,1.9714353450000002,0.0,-0.1696777169999999,-43391.0,0.0,0.0,-0.0,0.0,0.375,2.647704807,0.0,0.18066404400000025,13769.0,0.0,0.0,0.0,0.0,0.125,3.961181235,0.0,0.1452636570000001,-28598.0,0.0,0.0,-0.0,0.0,0.0,2.6391598860000003,0.0,-0.17089841999999988,1.149999976158142,0.11999999731779099,78.54000091552734,0.027587890625,0.03570556640625,1.00811767578125,30.729999542236328,0.0,20.0,-1.1381072998046875,-0.69757080078125,Waiting,0.0,0.0,-114.0,0.0,0.0,0.0,0.0,0.0,
0.6647779999999993,0.0,0.0,false,4285676.108108108,,-9254.0,0.0,0.0,0.0,0.0,0.125,1.9177244130000002,0.0,-0.1696777169999999,-43391.0,0.0,0.0,-0.0,0.0,0.125,2.672118867,0.0,0.18066404400000025,13769.0,0.0,0.0,0.0,0.0,0.0,3.977050374,0.0,0.1452636570000001,-28598.0,0.0,0.0,-0.0,0.0,0.0,2.622070044,0.0,-0.17089841999999988,1.149999976158142,0.11999999731779099,78.54000091552734,0.027587890625,0.03570556640625,1.00811767578125,30.729999542236328,0.0,20.0,-1.1381072998046875,-0.69757080078125,Waiting,0.0,0.0,-114.0,0.0,0.0,0.0,0.0,0.0,
0.6907619999999998,0.0,0.0,false,4287726.711409396,,-9254.0,0.0,0.0,0.0,0.0,0.125,1.909179492,0.0,-0.07568358600000025,-43391.0,0.0,0.0,-0.0,0.0,0.0,2.677001679,0.0,0.06469725899999901,13769.0,0.0,0.0,0.0,0.0,0.0,3.975829671,0.0,0.04760741700000004,-28598.0,0.0,0.0,-0.0,0.0,0.0,2.613525123,0.0,-0.0646972589999999,1.1699999570846558,0.11999999731779099,78.4800033569336,-0.0098876953125,0.02142333984375,0.9666748046875,30.729999542236328,0.0,0.0,-1.1380157470703125,-0.6976165771484375,Waiting,0.0,0.0,-114.0,0.0,0.0,0.0,0.0,0.0,
0.7142709999999998,0.0,0.0,false,4289435.52,,-9254.0,0.0,0.0,0.0,0.0,0.125,1.900634571,0.0,-0.07568358600000025,-43391.0,0.0,0.0,-0.0,0.0,0.0,2.675780976,0.0,0.06469725899999901,13769.0,0.0,0.0,0.0,0.0,0.0,3.975829671,0.0,0.009765623999999917,-28598.0,0.0,0.0,-0.0,0.0,0.0,2.613525123,0.0,-0.02075195100000027,1.1799999475479126,0.10000000149011612,78.45999908447266,-0.01361083984375,0.0240478515625,1.04248046875,30.729999542236328,0.0,0.0,-1.1380157470703125,-0.6976165771484375,Waiting,0.0,0.0,-114.0,0.0,0.0,0.0,0.0,0.0,
0.7487739999999994,0.0,0.0,false,4290964.662251656,,-9254.0,0.0,0.0,0.0,0.0,0.125,1.90429668,0.0,-0.029296871999999752,-43391.0,0.0,0.0,-0.0,0.0,0.0,2.675780976,0.0,0.014648435999999876,13769.0,0.0,0.0,0.0,0.0,0.0,3.975829671,0.0,0.009765623999999917,-28598.0,0.0,0.0,-0.0,0.0,0.0,2.61230442,0.0,-0.02075195100000027,1.1699999570846558,0.09000000357627869,78.4800033569336,-0.019287109375,0.01214599609375,0.978271484375,30.729999542236328,0.0,-11.0,-1.1380157470703125,-0.6976165771484375,Waiting,0.0,0.0,-114.0,0.0,0.0,0.0,0.0,0.0,
0.7728019999999997,0.0,0.0,false,4292133.157894737,,-9254.0,0.0,0.0,0.0,0.0,0.0,1.903075977,0.0,-0.029296871999999752,-43391.0,0.0,0.0,-0.0,0.0,0.0,2.664794649,0.0,-0.004882811999999959,13769.0,0.0,0.0,0.0,0.0,0.0,3.975829671,0.0,0.0024414059999999793,-28598.0,0.0,0.0,-0.0,0.0,0.0,2.61230442,0.0,0.0,1.1699999570846558,0.07000000029802322,78.5,-0.01409912109375,0.01397705078125,1.0115966796875,30.729999542236328,0.0,-9.0,-1.1380157470703125,-0.6976165771484375,Waiting,0.0,0.0,-114.0,0.0,0.0,0.0,0.0,0.0,
0.8061579999999995,0.0,0.0,false,4293131.398692811,,-9254.0,0.0,0.0,0.0,0.0,0.0,1.8908689470000002,0.0,0.0,-43391.0,0.0,0.0,-0.0,0.0,0.0,2.662353243,0.0,-0.004882811999999959,13769.0,0.0,0.0,0.0,0.0,0.0,3.974608968,0.0,0.0024414059999999793,-28598.0,0.0,0.0,-0.0,0.0,0.0,2.609863014,0.0,0.0,1.159999966621399,0.05000000074505806,78.5,-0.00726318359375,0.022705078125,1.0009765625,30.729999542236328,0.0,0.0,-1.1380157470703125,-0.6976165771484375,Waiting,0.0,0.0,-114.0,0.0,0.0,0.0,0.0,0.0,
0.8426689999999999,0.0,0.0,false,4293809.454545454,,-9254.0,0.0,0.0,0.0,0.0,0.0,1.903075977,0.0,0.0,-43391.0,0.0,0.0,-0.0,0.0,0.0,2.653808322,0.0,-0.004882811999999959,13769.0,0.0,0.0,0.0,0.0,0.0,3.968505453,0.0,0.0,-28598.0,0.0,0.0,-0.0,0.0,0.0,2.613525123,0.0,0.0,1.1699999570846558,0.03999999910593033,78.48999786376953,0.0013427734375,0.0301513671875,1.0050048828125,30.729999542236328,0.0,9.0,-1.1380157470703125,-0.6976165771484375,Waiting,0.0,0.0,-114.0,0.0,0.0,0.0,0.0,0.0,
0.8750079999999998,0.0,0.0,false,4294325.780645161,,-9254.0,0.0,0.0,0.0,0.0,0.0,1.903075977,0.0,0.0,-43391.0,0.0,0.0,-0.0,0.0,0.0,2.647704807,0.0,-0.013427732999999442,13769.0,0.0,0.0,0.0,0.0,0.0,3.975829671,0.0,-0.0012207030000004337,-28598.0,0.0,0.0,-0.0,0.0,0.0,2.613525123,0.0,0.0012207029999999897,1.1699999570846558,0.05000000074505806,78.4800033569336,0.00830078125,0.01904296875,0.982666015625,30.729999542236328,0.0,0.0,-1.1380157470703125,-0.6976165771484375,Waiting,0.0,0.0,-114.0,0.0,0.0,0.0,0.0,0.0,
0.9086809999999996,0.0,0.0,false,4294503.384615385,,-9254.0,0.0,0.0,0.0,0.0,0.125,1.903075977,0.0,0.0,-43391.0,0.0,0.0,-0.0,0.0,0.0,2.647704807,0.0,-0.013427732999999442,13769.0,0.0,0.0,0.0,0.0,0.0,3.975829671,0.0,-0.0012207030000004337,-28598.0,0.0,0.0,-0.0,0.0,0.0,2.614745826,0.0,0.0012207029999999897,1.1699999570846558,0.05999999865889549,78.48999786376953,0.00811767578125,0.01806640625,1.00836181640625,30.729999542236328,0.0,-1.0,-1.1380157470703125,-0.6976165771484375,Waiting,0.0,0.0,-114.0,0.0,0.0,0.0,0.0,0.0,
0.934527,0.0,0.0,false,4294528.305732484,,-9254.0,0.0,0.0,0.0,0.0,0.125,1.903075977,0.0,0.0,-43391.0,0.0,0.0,-0.0,0.0,0.0,2.647704807,0.0,-0.006103515000000392,13769.0,0.0,0.0,0.0,0.0,0.0,3.975829671,0.0,-0.0012207029999995456,-28598.0,0.0,0.0,-0.0,0.0,0.0,2.61230442,0.0,-0.0012207029999999897,1.1699999570846558,0.07000000029802322,78.5,0.0103759765625,0.022705078125,0.9990234375,30.709999084472656,0.0,4.0,-1.1380157470703125,-0.6976165771484375,Waiting,0.0,0.0,-114.0,0.0,0.0,0.0,0.0,0.0,
0.9654589999999998,0.0,0.0,false,4294253.772151899,,-9254.0,0.0,0.0,0.0,0.0,0.125,1.90429668,0.0,0.0,-43391.0,0.0,0.0,-0.0,0.0,0.0,2.6464841040000002,0.0,-0.006103515000000392,13769.0,0.0,0.0,0.0,0.0,0.0,3.975829671,0.0,-0.0012207029999995456,-28598.0,0.0,0.0,-0.0,0.0,0.0,2.61230442,0.0,-0.0012207029999999897,1.1699999570846558,0.07000000029802322,78.5,0.00775146484375,0.022705078125,0.99017333984375,30.709999084472656,0.0,3.0,-1.1380157470703125,-0.6976165771484375,Waiting,0.0,0.0,-114.0,0.0,0.0,0.0,0.0,0.0,
0.9907599999999993,0.0,0.0,false,4293804.779874214,,-9254.0,0.0,0.0,0.0,0.0,0.125,1.903075977,0.0,0.0,-43391.0,0.0,0.0,-0.0,0.0,0.0,2.647704807,0.0,0.0012207030000004337,13769.0,0.0,0.0,0.0,0.0,0.0,3.974608968,0.0,0.0012207029999995456,-28598.0,0.0,0.0,-0.0,0.0,0.0,2.613525123,0.0,0.0012207029999999897,1.1799999475479126,0.07000000029802322,78.48999786376953,0.00408935546875,0.021728515625,1.01092529296875,30.709999084472656,0.0,1.0,-1.1380157470703125,-0.6976165771484375,Waiting,0.0,0.0,-114.0,0.0,0.0,0.0,0.0,0.0,
1.0416549999999998,0.0,0.0,false,4293066.2,,-9254.0,0.0,0.0,0.0,0.0,0.0,1.903075977,0.0,-0.0012207030000004337,-43391.0,0.0,0.0,-0.0,0.0,0.0,2.64892551,0.0,-0.0012207030000004337,13769.0,0.0,0.0,0.0,0.0,0.0,3.974608968,0.0,-0.0012207029999995456,-28598.0,0.0,0.0,-0.0,0.0,0.0,2.613525123,0.0,-0.0012207029999999897,1.1699999570846558,0.07000000029802322,78.48999786376953,-0.00518798828125,0.01739501953125,1.0093994140625,30.709999084472656,0.0,-4.0,-1.1380157470703125,-0.6976165771484375,Waiting,0.0,0.0,-114.0,0.0,0.0,0.0,0.0,0.0,
1.074076,0.0,0.0,false,4292189.515527951,,-9254.0,0.0,0.0,0.0,0.0,0.0,1.90429668,0.0,0.0012207030000004337,-43391.0,0.0,0.0,-0.0,0.0,0.0,2.647704807,0.0,0.0,13769.0,0.0,0.0,0.0,0.0,0.0,3.975829671,0.0,0.0,-28598.0,0.0,0.0,-0.0,0.0,0.0,2.613525123,0.0,0.0,1.1699999570846558,0.05999999865889549,78.48999786376953,-0.001708984375,0.02117919921875,0.9886474609375,30.709999084472656,0.0,0.0,-1.1380157470703125,-0.6976165771484375,Waiting,0.0,0.0,-114.0,0.0,0.0,0.0,0.0,0.0,
1.1065239999999994,0.0,0.0,false,4291003.358024691,,-9254.0,0.0,0.0,0.0,0.0,0.0,1.90429668,0.0,0.0012207030000004337,-43391.0,0.0,0.0,-0.0,0.0,0.0,2.647704807,0.0,0.0,13769.0,0.0,0.0,0.0,0.0,0.0,3.975829671,0.0,0.0,-28598.0,0.0,0.0,-0.0,0.0,0.0,2.613525123,0.0,0.0,1.1799999475479126,0.05999999865889549,78.48999786376953,-9.765625E-4,0.01983642578125,1.0101318359375,30.709999084472656,0.0,-1.0,-1.1380157470703125,-0.6976165771484375,Waiting,0.0,0.0,-114.0,0.0,0.0,0.0,0.0,0.0,
1.1307479999999996,0.0,0.0,false,4289687.067484663,,-9254.0,0.0,0.0,0.0,0.0,0.0,1.90429668,0.0,0.0,-43391.0,0.0,0.0,-0.0,0.0,0.0,2.647704807,0.0,0.0012207030000004337,13769.0,0.0,0.0,0.0,0.0,0.0,3.974608968,0.0,0.0012207029999995456,-28598.0,0.0,0.0,-0.0,0.0,0.0,2.613525123,0.0,0.0,1.1699999570846558,0.05999999865889549,78.48999786376953,0.00537109375,0.016845703125,0.99542236328125,30.709999084472656,0.0,-2.0,-1.1380157470703125,-0.6976165771484375,Waiting,0.0,0.0,-114.0,0.0,0.0,0.0,0.0,0.0,
1.158188,0.0,0.0,false,4288098.439024391,,-9254.0,0.0,0.0,0.0,0.0,0.0,1.90429668,0.0,0.0,-43391.0,0.0,0.0,-0.0,0.0,0.0,2.6428219950000003,0.0,0.0012207030000004337,13769.0,0.0,0.0,0.0,0.0,0.0,3.975829671,0.0,0.0012207029999995456,-28598.0,0.0,0.0,-0.0,0.0,0.0,2.61230442,0.0,0.0,1.1799999475479126,0.07000000029802322,78.48999786376953,0.0069580078125,0.0179443359375,1.009521484375,30.709999084472656,0.0,-1.0,-1.1380157470703125,-0.6976165771484375,Waiting,0.0,0.0,-114.0,0.0,0.0,0.0,0.0,0.0,
1.2028069999999997,0.0,0.0,false,4286357.624242424,,-9254.0,0.0,0.0,0.0,0.0,0.0,1.90429668,0.0,0.0,-43391.0,0.0,0.0,-0.0,0.0,0.0,2.6452634010000002,0.0,0.0,13769.0,0.0,0.0,0.0,0.0,0.0,3.97949178,0.0,0.0,-28598.0,0.0,0.0,-0.0,0.0,0.0,2.613525123,0.0,0.0,1.1699999570846558,0.07000000029802322,78.48999786376953,0.003662109375,0.0205078125,0.99462890625,30.709999084472656,0.0,0.0,-1.1380157470703125,-0.6976165771484375,Waiting,0.0,0.0,-114.0,0.0,0.0,0.0,0.0,0.0,
1.2247889999999997,0.0,0.0,false,4284495.710843373,,-9254.0,0.0,0.0,0.0,0.0,0.0,1.903075977,0.0,0.0,-43391.0,0.0,0.0,-0.0,0.0,0.0,2.647704807,0.0,0.0,13769.0,0.0,0.0,0.0,0.0,0.0,3.980712483,0.0,0.0,-28598.0,0.0,0.0,-0.0,0.0,0.0,2.611083717,0.0,0.0,1.1699999570846558,0.07999999821186066,78.48999786376953,1.220703125E-4,0.022216796875,1.0025634765625,30.709999084472656,0.0,1.0,-1.1380157470703125,-0.6976165771484375,Waiting,0.0,0.0,-114.0,0.0,0.0,0.0,0.0,0.0,
1.2530819999999994,0.0,0.0,false,4282372.886227545,,-9254.0,0.0,0.0,0.0,0.0,0.0,1.903075977,0.0,0.0,-43391.0,0.0,0.0,-0.0,0.0,0.0,2.650146213,0.0,-0.0012207030000004337,13769.0,0.0,0.0,0.0,0.0,0.0,3.972167562,0.0,0.0,-28598.0,0.0,0.0,-0.0,0.0,0.0,2.613525123,0.0,0.0,1.1799999475479126,0.07000000029802322,78.48999786376953,0.00152587890625,0.02313232421875,1.0030517578125,30.709999084472656,0.0,2.0,-1.1380157470703125,-0.6976165771484375,Waiting,0.0,0.0,-114.0,0.0,0.0,0.0,0.0,0.0,
1.2850419999999994,0.0,0.0,false,4280134.952380952,,-9254.0,0.0,0.0,0.0,0.0,0.0,1.8981931650000001,0.0,0.0,-43391.0,0.0,0.0,-0.0,0.0,0.0,2.647704807,0.0,0.0012207030000004337,13769.0,0.0,0.0,0.0,0.0,0.0,3.980712483,0.0,0.0,-28598.0,0.0,0.0,-0.0,0.0,0.0,2.614745826,0.0,0.0,1.1699999570846558,0.07999999821186066,78.48999786376953,4.2724609375E-4,0.014892578125,0.99609375,30.709999084472656,0.0,-5.0,-1.1380157470703125,-0.6976165771484375,Waiting,0.0,0.0,-114.0,0.0,0.0,0.0,0.0,0.0,
1.3088859999999995,0.0,0.0,false,4277616.568047337,,-9254.0,0.0,0.0,0.0,0.0,0.0,1.8920896500000002,0.0,0.0,-43391.0,0.0,0.0,-0.0,0.0,0.0,2.64892551,0.0,0.0012207030000004337,13769.0,0.0,0.0,0.0,0.0,0.0,3.980712483,0.0,0.0,-28598.0,0.0,0.0,-0.0,0.0,0.0,2.613525123,0.0,0.0,1.1699999570846558,0.07000000029802322,78.48999786376953,2.44140625E-4,0.02215576171875,1.00250244140625,30.709999084472656,0.0,1.0,-1.1380157470703125,-0.6976165771484375,Waiting,0.0,0.0,-114.0,0.0,0.0,0.0,0.0,0.0,
1.3313099999999995,0.0,0.0,false,4274989.082352941,,-9254.0,0.0,0.0,0.0,0.0,0.0,1.903075977,0.0,0.0,-43391.0,0.0,0.0,-0.0,0.0,0.0,2.647704807,0.0,-0.0012207030000004337,13769.0,0.0,0.0,0.0,0.0,0.0,3.980712483,0.0,0.0024414060000008675,-28598.0,0.0,0.0,-0.0,0.0,0.0,2.611083717,0.0,0.0,1.1799999475479126,0.07000000029802322,78.48999786376953,-5.4931640625E-4,0.02197265625,1.00146484375,30.709999084472656,0.0,0.0,-1.1380157470703125,-0.6976165771484375,Waiting,0.0,0.0,-114.0,0.0,0.0,0.0,0.0,0.0,
1.3527209999999996,0.0,0.0,false,4272115.742690058,,-9254.0,0.0,0.0,0.0,0.0,0.0,1.903075977,0.0,0.0,-43391.0,0.0,0.0,-0.0,0.0,0.0,2.647704807,0.0,-0.0012207030000004337,13769.0,0.0,0.0,0.0,0.0,0.0,3.975829671,0.0,0.0024414060000008675,-28598.0,0.0,0.0,-0.0,0.0,0.0,2.613525123,0.0,0.0,1.1799999475479126,0.07000000029802322,78.48999786376953,0.00262451171875,0.02459716796875,0.997314453125,30.709999084472656,0.0,4.0,-1.1380157470703125,-0.6976165771484375,Waiting,0.0,0.0,-114.0,0.0,0.0,0.0,0.0,0.0,
1.3739499999999998,0.0,0.0,false,4269138.697674419,,-9254.0,0.0,0.0,0.0,0.0,0.125,1.90429668,0.0,0.0,-43391.0,0.0,0.0,-0.0,0.0,0.0,2.647704807,0.0,0.0,13769.0,0.0,0.0,0.0,0.0,0.0,3.980712483,0.0,0.0,-28598.0,0.0,0.0,-0.0,0.0,0.0,2.613525123,0.0,0.0,1.1799999475479126,0.07000000029802322,78.48999786376953,0.002197265625,0.02130126953125,0.995849609375,30.709999084472656,0.0,0.0,-1.1380157470703125,-0.6976165771484375,Waiting,0.0,0.0,-114.0,0.0,0.0,0.0,0.0,0.0,
1.4038999999999997,0.0,0.0,false,4265921.942196532,,-9254.0,0.0,0.0,0.0,0.0,0.125,1.934814255,0.0,0.0,-43391.0,0.0,0.0,-0.0,0.0,0.0,2.647704807,0.0,0.0,13769.0,0.0,0.0,0.0,0.0,0.0,3.980712483,0.0,0.0,-28598.0,0.0,0.0,-0.0,0.0,0.0,2.598876687,0.0,0.0,1.1799999475479126,0.07000000029802322,78.48999786376953,0.00152587890625,0.02020263671875,1.00323486328125,30.709999084472656,0.0,0.0,-1.1380157470703125,-0.6976165771484375,Waiting,0.0,0.0,-114.0,0.0,0.0,0.0,0.0,0.0,
1.4315909999999994,0.0,0.0,false,4262581.057471264,,-9254.0,0.0,0.0,0.0,0.0,0.0,1.90429668,0.0,0.0,-43391.0,0.0,0.0,-0.0,0.0,0.0,2.647704807,0.0,0.0,13769.0,0.0,0.0,0.0,0.0,0.0,3.974608968,0.0,0.0012207029999995456,-28598.0,0.0,0.0,-0.0,0.0,0.0,2.613525123,0.0,0.0,1.1799999475479126,0.07000000029802322,78.48999786376953,0.00115966796875,0.01885986328125,0.998291015625,30.709999084472656,0.0,-1.0,-1.1380157470703125,-0.6976165771484375,Waiting,0.0,0.0,-114.0,0.0,0.0,0.0,0.0,0.0,
1.4601049999999995,0.0,0.0,false,4259008.091428571,,-9254.0,0.0,0.0,-611.8110448122025,0.0,0.0,1.90429668,0.5533560492066895,0.0,-43391.0,0.0,0.0,-611.8110448122025,0.0,0.0,2.6440426980000002,4.397316058113635,0.0,13769.0,0.0,0.0,-611.8110448122025,0.0,0.0,3.980712483,4.401758689006861,-0.003662109000000413,-28598.0,0.0,0.0,-611.8110448122025,0.0,0.0,2.613525123,0.5515167311543325,0.0,1.1799999475479126,0.07000000029802322,78.48999786376953,0.0020751953125,0.0234375,1.00042724609375,30.75,0.0,2.0,-1.1380157470703125,-0.6976165771484375,Waiting,0.0,0.0,-114.0,0.0,0.0,0.0,0.0,0.0,
1.4884549999999999,0.0,0.0,false,4255185.863636363,,-9254.0,2.25,-7.5,-1504.7244429588318,0.0,0.375,1.90429668,0.5533560492066895,0.0,-43391.0,0.625,0.0,-1504.7244429588318,0.0,0.0,2.663573946,4.397316058113635,0.0,13769.0,1.5,0.0,-1504.7244429588318,0.0,0.375,3.966064047,4.401758689006861,0.0,-28598.0,0.375,0.0,-1504.7244429588318,0.0,0.25,2.61230442,0.5515167311543325,0.0,1.1799999475479126,0.07000000029802322,78.48999786376953,-0.003662109375,0.02264404296875,0.99908447265625,30.75,0.0,0.0,-1.1380157470703125,-0.6976165771484375,Waiting,0.0,0.0,-114.0,0.0,0.0,0.0,0.0,0.0,
1.5116189999999996,0.0,0.0,false,4251272.135593221,,-9254.0,5.125,-37.5,-892.9133981466293,0.0,1.125,1.938476364,0.5533560492066895,0.01586913900000031,-43391.0,4.0,-30.0,-892.9133981466293,0.0,0.875,2.608642311,4.397316058113635,-0.007324217999999938,13769.0,5.0,-30.0,-892.9133981466293,0.0,1.125,3.93066366,4.401758689006861,-0.035400387000000144,-28598.0,3.0,-22.5,-892.9133981466293,0.0,1.125,2.680663788,0.5515167311543325,0.004882811999999959,1.1699999570846558,0.05000000074505806,78.48999786376953,-0.10748291015625,0.01324462890625,0.98809814453125,30.75,0.0,-28.0,-1.138031005859375,-0.6975555419921875,Waiting,0.0,0.0,-114.0,0.0,0.0,0.0,0.0,0.0,
1.5358779999999996,0.0,0.0,false,4247112.224719102,,-9270.0,6.5,-67.5,-198.42519611120224,0.0,1.25,1.981200969,0.5533560492066895,0.05004882299999913,-43424.0,5.375,-97.5,-198.42519611120224,0.0,1.25,2.623290747,4.397316058113635,0.0,13729.0,5.75,-112.5,-198.42519611120224,0.0,1.25,3.8281246080000004,4.401758689006861,-0.04150390199999965,-28618.0,5.75,-75.0,-198.42519611120224,0.0,1.125,2.702636442,0.5515167311543325,0.0,1.2400000095367432,-0.05000000074505806,78.80999755859375,0.0804443359375,0.3310546875,1.30316162109375,30.75,0.0,312.0,-1.1378326416015625,-0.69696044921875,Waiting,0.0,0.0,-114.0,0.0,0.0,0.0,0.0,0.0,
1.559657,0.0,0.0,false,4242734.748603352,,-9270.0,5.375,-105.0,-198.42519611120224,0.0,1.125,2.023925574,0.5533560492066895,0.012207030000000785,-43424.0,5.375,-180.0,-198.42519611120224,0.0,1.25,2.550048567,4.397316058113635,-0.003662109000000413,13729.0,4.875,-232.5,-198.42519611120224,0.0,0.875,3.7402339920000003,4.401758689006861,-0.09765624000000095,-28618.0,6.0,-120.0,-198.42519611120224,0.0,0.875,2.78320284,0.5515167311543325,0.01953124800000028,1.2400000095367432,0.15000000596046448,79.13999938964844,-0.029052734375,0.174560546875,0.63507080078125,30.75,0.0,152.0,-1.137298583984375,-0.69659423828125,Waiting,0.0,0.0,-114.0,0.0,0.0,0.0,0.0,0.0,
1.5885609999999997,0.0,0.0,false,4238274.888888889,,-9270.0,2.75,-120.0,0.0,0.0,0.25,2.1154782990000003,0.5533560492066895,0.07446288299999893,-43424.0,3.25,-240.0,0.0,0.0,0.125,2.445068109,4.397316058113635,-0.08422850699999884,13729.0,0.25,-405.0,0.0,0.0,0.0,3.647460564,4.401758689006861,-0.07446288299999893,-28618.0,1.125,-157.5,0.0,0.0,0.0,2.8564450200000002,0.5515167311543325,0.08422850699999973,1.340000033378601,0.019999999552965164,79.75,0.04766845703125,0.01300048828125,1.37322998046875,30.75,0.0,-10.0,-1.1358795166015625,-0.695831298828125,Waiting,0.0,0.0,-114.0,0.0,0.0,0.0,0.0,0.0,
1.609661,0.0,0.0,false,4233602.298342542,,-9270.0,0.875,-127.5,0.0,0.0,0.25,2.1655271220000003,0.5533560492066895,0.07446288299999893,-43424.0,1.125,-240.0,0.0,0.0,0.125,2.3767087410000003,4.397316058113635,-0.08422850699999884,13729.0,0.25,-405.0,0.0,0.0,0.0,3.598632444,4.401758689006861,-0.07446288299999893,-28618.0,0.125,-135.0,0.0,0.0,0.0,2.9052731400000003,0.5515167311543325,0.08422850699999973,1.190000057220459,0.05999999865889549,80.08999633789062,0.06158447265625,0.030517578125,0.74896240234375,30.75,0.0,25.0,-1.13470458984375,-0.695159912109375,Waiting,0.0,0.0,-114.0,0.0,0.0,0.0,0.0,0.0,
1.6310769999999992,0.0,0.0,false,4228827.032967033,,-9270.0,0.125,-105.0,0.0,0.0,0.25,2.2229001630000003,0.5533560492066895,0.14282225100000012,-43424.0,0.0,-202.5,0.0,0.0,0.0,2.296142343,4.397316058113635,-0.18920896500000062,13729.0,0.0,-292.5,0.0,0.0,0.0,3.55224573,4.401758689006861,-0.14648436000000054,-28618.0,0.0,-97.5,0.0,0.0,0.0,2.9589840720000002,0.5515167311543325,0.1342773300000002,1.159999966621399,0.12999999523162842,80.12999725341797,0.09832763671875,-0.07562255859375,0.6666259765625,30.75,0.0,-71.0,-1.134185791015625,-0.6949462890625,Waiting,0.0,0.0,-114.0,0.0,0.0,0.0,0.0,0.0,
1.6518130000000002,0.0,0.0,false,4223845.508196721,,-9278.0,0.0,-82.5,0.0,0.0,0.25,2.255859144,0.5533560492066895,0.14282225100000012,-43422.0,0.0,-120.0,0.0,0.0,0.0,2.249755629,4.397316058113635,-0.18920896500000062,13712.0,0.0,-165.0,0.0,0.0,0.0,3.5314937790000003,4.401758689006861,-0.14648436000000054,-28626.0,0.0,-60.0,0.0,0.0,0.0,2.983398132,0.5515167311543325,0.1342773300000002,1.190000057220459,0.05000000074505806,80.0199966430664,-0.01434326171875,0.071533203125,1.06964111328125,30.75,0.0,45.0,-1.1333465576171875,-0.694580078125,Waiting,0.0,0.0,-114.0,0.0,0.0,0.0,0.0,0.0,
1.6844079999999995,0.0,0.0,false,4218789.956521739,,-9278.0,0.0,-37.5,0.0,0.0,0.25,2.291259531,0.5533560492066895,0.07690428900000068,-43422.0,0.0,15.0,0.0,0.0,0.0,2.200927509,4.397316058113635,-0.12207029999999985,13712.0,0.0,-60.0,0.0,0.0,0.0,3.5266109670000003,4.401758689006861,-0.05615233800000041,-28626.0,0.0,-45.0,0.0,0.0,0.0,3.0041500830000003,0.5515167311543325,0.06591796199999989,1.149999976158142,-0.03999999910593033,79.80999755859375,-0.0179443359375,-0.03472900390625,1.142333984375,30.75,0.0,-59.0,-1.132568359375,-0.6940765380859375,Waiting,0.0,0.0,-114.0,0.0,0.0,0.0,0.0,0.0,
1.7085839999999999,0.0,0.0,false,4213533.405405405,,-9278.0,0.0,-22.5,0.0,0.0,0.125,2.296142343,0.5533560492066895,0.07690428900000068,-43422.0,0.0,22.5,0.0,0.0,0.0,2.187499776,4.397316058113635,-0.12207029999999985,13712.0,0.0,0.0,0.0,0.0,0.0,3.5327144820000003,4.401758689006861,-0.05615233800000041,-28626.0,0.0,-37.5,0.0,0.0,0.0,3.0065914890000003,0.5515167311543325,0.06591796199999989,1.1299999952316284,0.0,79.72000122070312,-0.02252197265625,0.0294189453125,0.95416259765625,30.75,0.0,6.0,-1.1322479248046875,-0.6938018798828125,Waiting,0.0,0.0,-114.0,0.0,0.0,0.0,0.0,0.0,
1.7307479999999995,0.0,0.0,false,4208181.978494624,,-9278.0,0.0,-15.0,0.0,0.0,0.25,2.297363046,0.5533560492066895,0.0183105449999994,-43422.0,0.0,22.5,0.0,0.0,0.0,2.187499776,4.397316058113635,-0.03662108999999969,13712.0,0.0,30.0,0.0,0.0,0.0,3.5229488580000003,4.401758689006861,0.0,-28626.0,0.0,-7.5,0.0,0.0,0.0,3.013915707,0.5515167311543325,0.023193357000000248,1.1699999570846558,-0.019999999552965164,79.61000061035156,0.03460693359375,0.0419921875,1.05816650390625,30.75,0.0,26.0,-1.1315155029296875,-0.693206787109375,Waiting,0.0,0.0,-114.0,0.0,0.0,0.0,0.0,0.0,
1.7540839999999998,0.0,0.0,false,4202634.866310161,,-9278.0,0.0,-7.5,0.0,0.0,0.125,2.293700937,0.5533560492066895,0.0183105449999994,-43422.0,0.0,22.5,0.0,0.0,0.0,2.187499776,4.397316058113635,-0.03662108999999969,13712.0,0.0,37.5,0.0,0.0,0.0,3.5217281550000004,4.401758689006861,0.0,-28626.0,0.0,0.0,0.0,0.0,0.0,3.01513641,0.5515167311543325,0.023193357000000248,1.2100000381469727,-0.019999999552965164,79.58999633789062,0.00482177734375,0.07421875,1.16339111328125,30.75,0.0,49.0,-1.1310577392578125,-0.6929473876953125,Waiting,0.0,0.0,-114.0,0.0,0.0,0.0,0.0,0.0,
1.77363,0.0,0.0,false,4197021.319148936,,-9277.0,0.0,0.0,0.0,0.0,0.125,2.286376719,0.5533560492066895,0.0183105449999994,-43420.0,0.0,15.0,0.0,0.0,0.0,2.183837667,4.397316058113635,-0.03662108999999969,13717.0,0.0,30.0,0.0,0.0,0.0,3.5266109670000003,4.401758689006861,-0.002441405999999091,-28625.0,0.0,0.0,0.0,0.0,0.0,3.0114743010000002,0.5515167311543325,0.006103514999999948,1.2000000476837158,0.03999999910593033,79.61000061035156,0.0228271484375,0.0384521484375,0.931640625,30.75,0.0,22.0,-1.13006591796875,-0.6924591064453125,Waiting,0.0,0.0,-114.0,0.0,0.0,0.0,0.0,0.0,
1.8024039999999995,0.0,0.0,false,4191216.9312169314,,-9277.0,0.0,0.0,0.0,0.0,0.125,2.29492164,0.5533560492066895,0.0,-43420.0,0.0,7.5,0.0,0.0,0.0,2.187499776,4.397316058113635,0.0,13717.0,0.0,22.5,0.0,0.0,0.0,3.5229488580000003,4.401758689006861,-0.002441405999999091,-28625.0,0.0,0.0,0.0,0.0,0.0,3.013915707,0.5515167311543325,0.006103514999999948,1.2200000286102295,0.03999999910593033,79.63999938964844,0.01898193359375,0.0369873046875,0.97467041015625,30.75,0.0,19.0,-1.1295166015625,-0.6922454833984375,Waiting,0.0,0.0,-114.0,0.0,0.0,0.0,0.0,0.0,
1.826978,0.0,0.0,false,4185348.8421052634,,-9277.0,0.0,0.0,0.0,0.0,0.125,2.29492164,0.5533560492066895,0.0,-43420.0,0.0,0.0,0.0,0.0,0.0,2.186279073,4.397316058113635,0.0,13717.0,0.0,7.5,0.0,0.0,0.0,3.5253902640000003,4.401758689006861,-0.0024414060000008675,-28625.0,0.0,0.0,0.0,0.0,0.0,3.013915707,0.5515167311543325,-0.0012207029999999897,1.1799999475479126,0.05999999865889549,79.68000030517578,-0.0177001953125,-0.00543212890625,0.91961669921875,30.75,0.0,-27.0,-1.1275634765625,-0.6922454833984375,Waiting,0.0,0.0,-114.0,0.0,0.0,0.0,0.0,0.0,
1.8719780000000001,0.0,0.0,false,4189233.3403141364,,-9277.0,0.0,0.0,0.0,0.0,0.125,2.290038828,0.5533560492066895,0.0,-43420.0,0.0,0.0,0.0,0.0,0.0,2.187499776,4.397316058113635,0.0,13717.0,0.0,0.0,0.0,0.0,0.0,3.5217281550000004,4.401758689006861,0.0012207030000004337,-28625.0,0.0,0.0,0.0,0.0,0.0,3.0102535980000003,0.5515167311543325,0.0,1.1799999475479126,0.009999999776482582,79.66000366210938,-0.0078125,0.028564453125,1.0628662109375,30.75,0.0,5.0,-1.1267242431640625,-0.692169189453125,Waiting,0.0,0.0,-114.0,0.0,0.0,0.0,0.0,0.0,
1.900031,0.0,0.0,false,4192786.375,,-9277.0,0.0,0.0,-198.42519611120224,0.0,0.125,2.287597422,0.5533560492066895,0.0,-43420.0,0.0,0.0,-198.42519611120224,0.0,0.0,2.18505837,4.397316058113635,0.0,13717.0,0.0,0.0,-198.42519611120224,0.0,0.0,3.5217281550000004,4.401758689006861,-0.0012207030000004337,-28625.0,0.0,0.0,-198.42519611120224,0.0,0.0,3.0126950040000002,0.5515167311543325,0.0012207029999999897,1.1799999475479126,0.019999999552965164,79.66000366210938,0.015380859375,0.05029296875,1.01995849609375,30.75,0.0,31.0,-1.12628173828125,-0.6921234130859375,Waiting,0.0,0.0,-114.0,0.0,0.0,0.0,0.0,0.0,
1.9214250000000002,0.0,0.0,false,4196158.176165803,,-9277.0,0.125,0.0,-644.8818951845169,0.0,0.125,2.29492164,0.5533560492066895,-0.0012207029999995456,-43420.0,0.0,0.0,-644.8818951845169,0.0,0.0,2.193603291,4.397316058113635,-0.0012207030000004337,13717.0,0.0,0.0,-644.8818951845169,0.0,0.0,3.5241695610000003,4.401758689006861,0.0,-28625.0,0.0,0.0,-644.8818951845169,0.0,0.0,3.0126950040000002,0.5515167311543325,0.0,1.2000000476837158,0.05000000074505806,79.66000366210938,0.03375244140625,0.0225830078125,0.969482421875,30.75,0.0,8.0,-1.125274658203125,-0.6921539306640625,Waiting,0.0,0.0,-114.0,0.0,0.0,0.0,0.0,0.0,
1.9517109999999993,0.0,0.0,false,4199332.577319588,,-9277.0,1.375,0.0,-942.519673705101,0.0,0.125,2.29492164,0.5533560492066895,0.0024414059999999793,-43420.0,1.0,0.0,-942.519673705101,0.0,0.0,2.186279073,4.397316058113635,0.0012207030000004337,13717.0,1.5,-7.5,-942.519673705101,0.0,0.0,3.5229488580000003,4.401758689006861,0.0012207029999995456,-28625.0,0.5,0.0,-942.519673705101,0.0,0.0,3.0114743010000002,0.5515167311543325,-0.0012207029999999897,1.2100000381469727,0.05000000074505806,79.68000030517578,-0.09112548828125,0.008544921875,1.0260009765625,30.75,0.0,-29.0,-1.12530517578125,-0.69219970703125,Waiting,0.0,0.0,-114.0,0.0,0.0,0.0,0.0,0.0,
1.9715479999999999,0.0,0.0,false,4202331.487179487,,-9277.0,1.375,0.0,-711.0235959291458,0.0,0.125,2.29492164,0.5533560492066895,-0.0024414059999999793,-43420.0,2.625,-7.5,-711.0235959291458,0.0,0.0,2.188720479,4.397316058113635,0.0012207029999995456,13717.0,3.25,-22.5,-711.0235959291458,0.0,0.0,3.5217281550000004,4.401758689006861,0.0,-28625.0,1.5,0.0,-711.0235959291458,0.0,0.0,3.017577816,0.5515167311543325,0.0,1.2300000190734863,0.0,79.7300033569336,0.0601806640625,0.00152587890625,1.02435302734375,30.739999771118164,0.0,-9.0,-1.1253509521484375,-0.692169189453125,Waiting,0.0,0.0,-114.0,0.0,0.0,0.0,0.0,0.0,
1.9943229999999994,0.0,0.0,false,4205014.734693877,,-9277.0,3.875,-15.0,-264.56692814826965,0.0,0.125,2.299804452,0.5533560492066895,0.0012207029999995456,-43420.0,3.75,-22.5,-264.56692814826965,0.0,0.0,2.186279073,4.397316058113635,0.0,13717.0,4.25,-52.5,-264.56692814826965,0.0,0.0,3.5205074520000004,4.401758689006861,0.0,-28625.0,2.5,-15.0,-264.56692814826965,0.0,0.0,3.017577816,0.5515167311543325,0.004882811999999959,1.2000000476837158,0.029999999329447746,80.05000305175781,0.04766845703125,0.12420654296875,0.9290771484375,30.739999771118164,0.0,111.0,-1.12542724609375,-0.692169189453125,Waiting,0.0,0.0,-114.0,0.0,0.0,0.0,0.0,0.0,
2.0162109999999993,0.0,0.0,false,4207528.121827411,,-9285.0,3.625,-37.5,0.0,0.0,0.125,2.299804452,0.5533560492066895,0.0012207029999995456,-43430.0,3.25,-45.0,0.0,0.0,0.0,2.187499776,4.397316058113635,0.0,13698.0,4.0,-82.5,0.0,0.0,0.0,3.5217281550000004,4.401758689006861,0.0,-28633.0,2.25,-37.5,0.0,0.0,0.0,3.017577816,0.5515167311543325,0.004882811999999959,1.2300000190734863,0.009999999776482582,80.29000091552734,-0.04412841796875,0.01287841796875,0.9739990234375,30.739999771118164,0.0,-15.0,-1.1253662109375,-0.6921539306640625,Waiting,0.0,0.0,-114.0,0.0,0.0,0.0,0.0,0.0,
2.0461089999999995,0.0,0.0,false,4209857.6161616165,,-9285.0,1.875,-52.5,0.0,0.0,0.125,2.309570076,0.5533560492066895,0.004882811999999959,-43430.0,1.75,-60.0,0.0,0.0,0.0,2.187499776,4.397316058113635,-0.0012207029999995456,13698.0,2.125,-112.5,0.0,0.0,0.0,3.5168453430000004,4.401758689006861,0.0,-28633.0,0.5,-60.0,0.0,0.0,0.0,3.018798519,0.5515167311543325,-0.0012207029999999897,1.2799999713897705,0.019999999552965164,80.80999755859375,0.00946044921875,0.0240478515625,1.02783203125,30.739999771118164,0.0,2.0,-1.1251678466796875,-0.692169189453125,Waiting,0.0,0.0,-114.0,0.0,0.0,0.0,0.0,0.0,
2.068559,0.0,0.0,false,4211883.417085427,,-9285.0,0.75,-52.5,0.0,0.0,0.125,2.309570076,0.5533560492066895,0.004882811999999959,-43430.0,0.5,-67.5,0.0,0.0,0.0,2.186279073,4.397316058113635,-0.0012207029999995456,13698.0,0.875,-120.0,0.0,0.0,0.0,3.5168453430000004,4.401758689006861,0.0,-28633.0,0.0,-52.5,0.0,0.0,0.0,3.0102535980000003,0.5515167311543325,0.0,1.2699999809265137,0.07000000029802322,81.19000244140625,0.03765869140625,-0.05810546875,1.0128173828125,30.739999771118164,0.0,-74.0,-1.1249847412109375,-0.6922149658203125,Waiting,0.0,0.0,-114.0,0.0,0.0,0.0,0.0,0.0,
2.0940909999999993,0.0,0.0,false,4213748.96,,-9285.0,0.125,-52.5,0.0,0.0,0.125,2.313232185,0.5533560492066895,0.009765623999999917,-43430.0,0.0,-37.5,0.0,0.0,0.0,2.188720479,4.397316058113635,0.0,13698.0,0.0,-75.0,0.0,0.0,0.0,3.5168453430000004,4.401758689006861,0.0,-28633.0,0.0,-37.5,0.0,0.0,0.0,3.018798519,0.5515167311543325,0.0,1.2300000190734863,0.07999999821186066,81.31999969482422,-0.00408935546875,-0.0047607421875,1.05047607421875,30.739999771118164,0.0,-28.0,-1.125,-0.6922760009765625,Waiting,0.0,0.0,-114.0,0.0,0.0,0.0,0.0,0.0,
2.1164560000000003,0.0,0.0,false,4215439.60199005,,-9285.0,0.0,-15.0,0.0,0.0,0.125,2.3291013240000003,0.5533560492066895,0.009765623999999917,-43430.0,0.0,-22.5,0.0,0.0,0.0,2.194823994,4.397316058113635,0.0,13698.0,0.0,-45.0,0.0,0.0,0.0,3.5180660460000004,4.401758689006861,-0.006103514999999504,-28634.0,0.0,-22.5,0.0,0.0,0.0,3.017577816,0.5515167311543325,0.0012207029999999897,1.1799999475479126,0.07000000029802322,81.47000122070312,-0.0274658203125,0.0362548828125,1.1182861328125,30.739999771118164,0.0,8.0,-1.1252899169921875,-0.692626953125,Waiting,0.0,0.0,-114.0,0.0,0.0,0.0,0.0,0.0,
2.150308,0.0,0.0,false,4216974.891089109,,-9285.0,0.0,0.0,0.0,0.0,0.125,2.3205564030000003,0.5533560492066895,0.004882811999999959,-43430.0,0.0,0.0,0.0,0.0,0.0,2.182616964,4.397316058113635,-0.003662109000000413,13698.0,0.0,-22.5,0.0,0.0,0.0,3.5180660460000004,4.401758689006861,-0.006103514999999504,-28634.0,0.0,0.0,0.0,0.0,0.0,3.018798519,0.5515167311543325,0.0012207029999999897,1.1799999475479126,0.07999999821186066,81.44999694824219,-0.04119873046875,0.0126953125,0.99407958984375,30.739999771118164,0.0,-14.0,-1.1252899169921875,-0.6927032470703125,Waiting,0.0,0.0,-114.0,0.0,0.0,0.0,0.0,0.0,
2.173639,0.0,0.0,false,4218220.45320197,,-9285.0,0.0,0.0,0.0,0.0,0.125,2.3181149970000003,0.5533560492066895,0.004882811999999959,-43430.0,0.0,0.0,0.0,0.0,0.0,2.178954855,4.397316058113635,-0.003662109000000413,13698.0,0.0,0.0,0.0,0.0,0.0,3.5180660460000004,4.401758689006861,0.0012207029999995456,-28634.0,0.0,0.0,0.0,0.0,0.0,3.018798519,0.5515167311543325,0.0,1.149999976158142,0.0,81.33000183105469,-0.02984619140625,0.05316162109375,0.96142578125,30.739999771118164,0.0,28.0,-1.125274658203125,-0.692718505859375,Waiting,0.0,0.0,-114.0,0.0,0.0,0.0,0.0,0.0,
2.205353,0.0,0.0,false,4219298.705882353,,-9285.0,0.0,0.0,0.0,0.0,0.125,2.3181149970000003,0.5533560492066895,0.004882812000000847,-43430.0,0.0,0.0,0.0,0.0,0.0,2.187499776,4.397316058113635,-0.0012207029999995456,13698.0,0.0,0.0,0.0,0.0,0.0,3.5168453430000004,4.401758689006861,0.0012207029999995456,-28634.0,0.0,0.0,0.0,0.0,0.0,3.017577816,0.5515167311543325,0.0,1.190000057220459,-0.029999999329447746,81.12999725341797,-0.02252197265625,0.021240234375,1.0980224609375,30.739999771118164,0.0,-5.0,-1.1251678466796875,-0.6925506591796875,Waiting,0.0,0.0,-114.0,0.0,0.0,0.0,0.0,0.0,
2.23204,0.0,0.0,false,4220230.478048781,,-9285.0,0.0,0.0,0.0,0.0,0.125,2.3205564030000003,0.5533560492066895,-0.0012207030000004337,-43430.0,0.0,0.0,0.0,0.0,0.0,2.182616964,4.397316058113635,0.0,13698.0,0.0,0.0,0.0,0.0,0.0,3.5180660460000004,4.401758689006861,-0.0012207029999995456,-28634.0,0.0,0.0,0.0,0.0,0.0,3.017577816,0.5515167311543325,-0.0012207029999999897,1.159999966621399,-0.009999999776482582,80.88999938964844,0.0128173828125,0.00701904296875,0.89434814453125,30.739999771118164,0.0,-8.0,-1.1251678466796875,-0.69244384765625,Waiting,0.0,0.0,-114.0,0.0,0.0,0.0,0.0,0.0,
2.25662,0.0,0.0,false,4220881.980582524,,-9285.0,0.0,0.0,0.0,0.0,0.125,2.3193357000000003,0.5533560492066895,-0.0012207030000004337,-43430.0,0.0,0.0,0.0,0.0,0.0,2.182616964,4.397316058113635,0.0,13698.0,0.0,0.0,0.0,0.0,0.0,3.5180660460000004,4.401758689006861,-0.0012207029999995456,-28634.0,0.0,0.0,0.0,0.0,0.0,3.020019222,0.5515167311543325,-0.0012207029999999897,1.1799999475479126,-0.029999999329447746,80.66000366210938,0.012939453125,0.03363037109375,1.0728759765625,30.739999771118164,0.0,13.0,-1.1252288818359375,-0.69244384765625,Waiting,0.0,0.0,-114.0,0.0,0.0,0.0,0.0,0.0,
2.2860169999999997,0.0,0.0,false,4221375.381642512,,-9285.0,0.0,0.0,0.0,0.0,0.125,2.3193357000000003,0.5533560492066895,0.0012207030000004337,-43430.0,0.0,0.0,0.0,0.0,0.0,2.182616964,4.397316058113635,0.0,13698.0,0.0,0.0,0.0,0.0,0.0,3.5180660460000004,4.401758689006861,0.0012207029999995456,-28634.0,0.0,0.0,0.0,0.0,0.0,3.017577816,0.5515167311543325,0.0,1.1299999952316284,0.03999999910593033,80.51000213623047,0.02423095703125,0.015625,0.9193115234375,30.739999771118164,0.0,1.0,-1.1253814697265625,-0.6925811767578125,Waiting,0.0,0.0,-114.0,0.0,0.0,0.0,0.0,0.0,
2.308432,0.0,0.0,false,4221729.423076923,,-9285.0,0.0,0.0,0.0,0.0,0.125,2.3193357000000003,0.5533560492066895,0.0012207030000004337,-43430.0,0.0,0.0,0.0,0.0,0.0,2.182616964,4.397316058113635,0.0,13698.0,0.0,7.5,0.0,0.0,0.0,3.5180660460000004,4.401758689006861,0.0012207029999995456,-28634.0,0.0,0.0,0.0,0.0,0.0,3.018798519,0.5515167311543325,0.0,1.1399999856948853,0.05999999865889549,80.44000244140625,0.03753662109375,0.06658935546875,0.94580078125,30.739999771118164,0.0,53.0,-1.12542724609375,-0.6927032470703125,Waiting,0.0,0.0,-114.0,0.0,0.0,0.0,0.0,0.0,
2.3297719999999997,0.0,0.0,false,4221946.717703349,,-9285.0,0.0,0.0,0.0,0.0,0.125,2.3181149970000003,0.5533560492066895,0.0,-43430.0,0.0,7.5,0.0,0.0,0.0,2.182616964,4.397316058113635,0.0,13698.0,0.0,15.0,0.0,0.0,0.0,3.5180660460000004,4.401758689006861,0.0,-28634.0,0.0,0.0,0.0,0.0,0.0,3.017577816,0.5515167311543325,0.0,1.190000057220459,0.05000000074505806,80.38999938964844,0.026123046875,0.0523681640625,1.02874755859375,30.739999771118164,0.0,34.0,-1.1254119873046875,-0.6929931640625,Waiting,0.0,0.0,-114.0,0.0,0.0,0.0,0.0,0.0,
2.3558220000000003,0.0,0.0,false,4221894.819047619,,-9285.0,0.0,0.0,0.0,0.0,0.125,2.3181149970000003,0.5533560492066895,0.0,-43430.0,0.0,7.5,0.0,0.0,0.0,2.183837667,4.397316058113635,0.0,13698.0,0.0,22.5,0.0,0.0,0.0,3.5180660460000004,4.401758689006861,0.0,-28634.0,0.0,0.0,0.0,0.0,0.0,3.01513641,0.5515167311543325,0.0,1.190000057220459,0.07999999821186066,80.4000015258789,-0.003173828125,0.04248046875,0.9320068359375,30.739999771118164,0.0,21.0,-1.125335693359375,-0.6929931640625,Waiting,0.0,0.0,-114.0,0.0,0.0,0.0,0.0,0.0,
2.3768130000000003,0.0,0.0,false,4221695.127962085,,-9285.0,0.0,0.0,0.0,0.0,0.125,2.3181149970000003,0.5533560492066895,0.0,-43428.0,0.0,15.0,0.0,0.0,0.0,2.1740720430000002,4.397316058113635,0.0,13702.0,0.0,22.5,0.0,0.0,0.0,3.5180660460000004,4.401758689006861,0.0,-28634.0,0.0,0.0,0.0,0.0,0.0,3.017577816,0.5515167311543325,0.0,1.2200000286102295,0.05999999865889549,80.44999694824219,0.01800537109375,0.01812744140625,1.04730224609375,30.739999771118164,0.0,-1.0,-1.125244140625,-0.6929931640625,Waiting,0.0,0.0,-114.0,0.0,0.0,0.0,0.0,0.0,
2.4063589999999992,0.0,0.0,false,4221365.245283019,,-9285.0,0.0,0.0,0.0,0.0,0.125,2.316894294,0.5533560492066895,0.0,-43428.0,0.0,7.5,0.0,0.0,0.0,2.191161885,4.397316058113635,0.0,13702.0,0.0,22.5,0.0,0.0,0.0,3.5168453430000004,4.401758689006861,0.0,-28634.0,0.0,0.0,0.0,0.0,0.0,3.018798519,0.5515167311543325,0.0,1.2200000286102295,0.05999999865889549,80.47000122070312,-0.01629638671875,0.00347900390625,1.033447265625,30.739999771118164,0.0,-21.0,-1.1252593994140625,-0.6929931640625,Waiting,0.0,0.0,-114.0,0.0,0.0,0.0,0.0,0.0,
2.427281,0.0,0.0,false,4220907.605633803,,-9285.0,0.0,0.0,0.0,0.0,0.125,2.3181149970000003,0.5533560492066895,0.0,-43428.0,0.0,7.5,0.0,0.0,0.0,2.182616964,4.397316058113635,0.0,13702.0,0.0,7.5,0.0,0.0,0.0,3.5168453430000004,4.401758689006861,0.0,-28634.0,0.0,0.0,0.0,0.0,0.0,3.022460628,0.5515167311543325,0.0,1.1799999475479126,0.05999999865889549,80.48999786376953,-0.01409912109375,0.00311279296875,0.9920654296875,30.739999771118164,0.0,-19.0,-1.1253814697265625,-0.6929931640625,Waiting,0.0,0.0,-114.0,0.0,0.0,0.0,0.0,0.0,
2.452476,0.0,0.0,false,4220176.5607476635,,-9285.0,0.0,0.0,0.0,0.0,0.125,2.3181149970000003,0.5533560492066895,0.0,-43428.0,0.0,0.0,0.0,0.0,0.0,2.182616964,4.397316058113635,0.0,13702.0,0.0,0.0,0.0,0.0,0.0,3.5168453430000004,4.401758689006861,0.0,-28634.0,0.0,0.0,0.0,0.0,0.0,3.022460628,0.5515167311543325,0.0,1.1699999570846558,0.05000000074505806,80.4800033569336,-0.0235595703125,0.0123291015625,1.0247802734375,30.739999771118164,0.0,-12.0,-1.1253814697265625,-0.692962646484375,Waiting,0.0,0.0,-114.0,0.0,0.0,0.0,0.0,0.0,
2.485679,0.0,0.0,false,4219322.679069768,,-9285.0,0.0,0.0,0.0,0.0,0.125,2.3181149970000003,0.5533560492066895,0.0012207030000004337,-43428.0,0.0,0.0,0.0,0.0,0.0,2.181396261,4.397316058113635,0.0,13702.0,0.0,0.0,0.0,0.0,0.0,3.5180660460000004,4.401758689006861,0.0,-28634.0,0.0,0.0,0.0,0.0,0.0,3.022460628,0.5515167311543325,0.004882811999999959,1.1699999570846558,0.03999999910593033,80.45999908447266,0.00762939453125,0.03082275390625,0.9571533203125,30.770000457763672,0.0,12.0,-1.1253814697265625,-0.69287109375,Waiting,0.0,0.0,-114.0,0.0,0.0,0.0,0.0,0.0,
2.5132399999999997,0.0,0.0,false,4218218.037037037,,-9285.0,0.0,0.0,0.0,0.0,0.125,2.3181149970000003,0.5533560492066895,0.0012207030000004337,-43428.0,0.0,0.0,0.0,0.0,0.0,2.182616964,4.397316058113635,0.0,13702.0,0.0,0.0,0.0,0.0,0.0,3.5168453430000004,4.401758689006861,0.0,-28634.0,0.0,0.0,0.0,0.0,0.0,3.022460628,0.5515167311543325,0.004882811999999959,1.1799999475479126,0.03999999910593033,80.44999694824219,-3.0517578125E-4,0.037353515625,1.03350830078125,30.770000457763672,0.0,17.0,-1.1253814697265625,-0.69287109375,Waiting,0.0,0.0,-114.0,0.0,0.0,0.0,0.0,0.0,
2.540469,0.0,0.0,false,4216978.064516129,,-9285.0,0.0,0.0,0.0,0.0,0.125,2.3193357000000003,0.5533560492066895,-0.0012207030000004337,-43428.0,0.0,0.0,0.0,0.0,0.0,2.182616964,4.397316058113635,0.0,13702.0,0.0,0.0,0.0,0.0,0.0,3.5180660460000004,4.401758689006861,0.0,-28634.0,0.0,0.0,0.0,0.0,0.0,3.017577816,0.5515167311543325,0.0012207029999999897,1.2000000476837158,0.05000000074505806,80.44999694824219,0.0103759765625,0.01922607421875,1.0255126953125,30.770000457763672,0.0,0.0,-1.1253814697265625,-0.69287109375,Waiting,0.0,0.0,-114.0,0.0,0.0,0.0,0.0,0.0,
2.566889,0.0,0.0,false,4215493.467889909,,-9285.0,0.0,0.0,0.0,0.0,0.125,2.3181149970000003,0.5533560492066895,-0.0012207030000004337,-43428.0,0.0,0.0,0.0,0.0,0.0,2.182616964,4.397316058113635,0.0,13702.0,0.0,0.0,0.0,0.0,0.0,3.5168453430000004,4.401758689006861,0.0,-28634.0,0.0,0.0,0.0,0.0,0.0,3.022460628,0.5515167311543325,0.0012207029999999897,1.190000057220459,0.07000000029802322,80.44999694824219,0.01080322265625,0.00531005859375,0.97747802734375,30.770000457763672,0.0,-13.0,-1.1253814697265625,-0.69287109375,Waiting,0.0,0.0,-114.0,0.0,0.0,0.0,0.0,0.0,
2.592802,0.0,0.0,false,4213894.867579909,,-9285.0,0.0,0.0,0.0,0.0,0.125,2.362060305,0.5533560492066895,-0.0012207030000004337,-43428.0,0.0,0.0,0.0,0.0,0.0,2.182616964,4.397316058113635,0.0,13702.0,0.0,0.0,0.0,0.0,0.0,3.5168453430000004,4.401758689006861,-0.0012207029999995456,-28634.0,0.0,0.0,0.0,0.0,0.0,3.022460628,0.5515167311543325,-0.0012207029999999897,1.1799999475479126,0.07000000029802322,80.45999908447266,-0.00897216796875,0.0235595703125,1.03173828125,30.770000457763672,0.0,0.0,-1.1253814697265625,-0.69287109375,Waiting,0.0,0.0,-114.0,0.0,0.0,0.0,0.0,0.0,
2.623371,0.0,0.0,false,4212167.672727273,,-9285.0,0.0,0.0,0.0,0.0,0.125,2.3181149970000003,0.5533560492066895,-0.0012207030000004337,-43428.0,0.0,0.0,0.0,0.0,0.0,2.182616964,4.397316058113635,0.0,13702.0,0.0,0.0,0.0,0.0,0.0,3.5168453430000004,4.401758689006861,0.0,-28634.0,0.0,0.0,0.0,0.0,0.0,3.022460628,0.5515167311543325,0.0,1.1799999475479126,0.05999999865889549,80.45999908447266,-0.015869140625,0.0255126953125,0.98101806640625,30.770000457763672,0.0,2.0,-1.1253814697265625,-0.69287109375,Waiting,0.0,0.0,-114.0,0.0,0.0,0.0,0.0,0.0,
2.652049,0.0,0.0,false,4210329.411764706,,-9285.0,0.0,0.0,0.0,0.0,0.125,2.3181149970000003,0.5533560492066895,0.0,-43428.0,0.0,0.0,0.0,0.0,0.0,2.181396261,4.397316058113635,0.0,13702.0,0.0,0.0,0.0,0.0,0.0,3.497314095,4.401758689006861,0.0,-28634.0,0.0,0.0,0.0,0.0,0.0,3.023681331,0.5515167311543325,0.0,1.190000057220459,0.03999999910593033,80.45999908447266,0.0028076171875,0.0244140625,1.01849365234375,30.770000457763672,0.0,3.0,-1.1253814697265625,-0.69287109375,Waiting,0.0,0.0,-114.0,0.0,0.0,0.0,0.0,0.0,
2.6725609999999995,0.0,0.0,false,4208256.612612613,,-9285.0,0.0,0.0,0.0,0.0,0.125,2.3181149970000003,0.5533560492066895,0.0,-43428.0,0.0,0.0,0.0,0.0,0.0,2.182616964,4.397316058113635,0.0,13702.0,0.0,0.0,0.0,0.0,0.0,3.5168453430000004,4.401758689006861,0.0012207029999995456,-28634.0,0.0,0.0,0.0,0.0,0.0,3.021239925,0.5515167311543325,0.0012207029999999897,1.190000057220459,0.03999999910593033,80.44999694824219,0.01593017578125,0.02392578125,1.01934814453125,30.770000457763672,0.0,5.0,-1.1253814697265625,-0.69287109375,Waiting,0.0,0.0,-114.0,0.0,0.0,0.0,0.0,0.0,
2.7062429999999993,0.0,0.0,false,4206060.520179372,,-9285.0,0.0,0.0,0.0,0.0,0.125,2.3181149970000003,0.5533560492066895,0.0012207030000004337,-43428.0,0.0,0.0,0.0,0.0,0.0,2.182616964,4.397316058113635,0.0,13702.0,0.0,0.0,0.0,0.0,0.0,3.5168453430000004,4.401758689006861,0.0012207029999995456,-28634.0,0.0,0.0,0.0,0.0,0.0,3.031005549,0.5515167311543325,0.0012207029999999897,1.1799999475479126,0.07000000029802322,80.44999694824219,0.010498046875,0.01300048828125,0.98931884765625,30.770000457763672,0.0,-5.0,-1.1253814697265625,-0.69287109375,Waiting,0.0,0.0,-114.0,0.0,0.0,0.0,0.0,0.0,
2.7278409999999993,0.0,0.0,false,4203759.5,,-9285.0,0.0,0.0,0.0,0.0,0.125,2.3181149970000003,0.5533560492066895,-0.0012207030000004337,-43428.0,0.0,0.0,0.0,0.0,0.0,2.181396261,4.397316058113635,0.0,13702.0,0.0,0.0,0.0,0.0,0.0,3.5168453430000004,4.401758689006861,0.0,-28634.0,0.0,0.0,0.0,0.0,0.0,3.022460628,0.5515167311543325,-0.0012207029999999897,1.1799999475479126,0.07000000029802322,80.44999694824219,0.00177001953125,0.02178955078125,1.00390625,30.770000457763672,0.0,1.0,-1.1253814697265625,-0.69287109375,Waiting,0.0,0.0,-114.0,0.0,0.0,0.0,0.0,0.0,
2.756482,0.0,0.0,false,4201354.488888889,,-9285.0,0.0,0.0,0.0,0.0,0.125,2.3181149970000003,0.5533560492066895,-0.0012207030000004337,-43428.0,0.0,0.0,0.0,0.0,0.0,2.182616964,4.397316058113635,0.0,13702.0,0.0,0.0,0.0,0.0,0.0,3.5180660460000004,4.401758689006861,0.0,-28634.0,0.0,0.0,0.0,0.0,0.0,3.023681331,0.5515167311543325,-0.0012207029999999897,1.1799999475479126,0.07000000029802322,80.45999908447266,1.8310546875E-4,0.0245361328125,0.9893798828125,30.770000457763672,0.0,3.0,-1.1253814697265625,-0.69287109375,Waiting,0.0,0.0,-114.0,0.0,0.0,0.0,0.0,0.0,
2.7852440000000005,0.0,0.0,false,4198708.389380531,,-9285.0,0.0,0.0,0.0,0.0,0.125,2.3181149970000003,0.5533560492066895,0.0012207030000004337,-43428.0,0.0,0.0,0.0,0.0,0.0,2.182616964,4.397316058113635,0.0,13702.0,0.0,0.0,0.0,0.0,0.0,3.5168453430000004,4.401758689006861,-0.0012207029999995456,-28634.0,0.0,0.0,0.0,0.0,0.0,3.022460628,0.5515167311543325,0.0,1.2000000476837158,0.05999999865889549,80.45999908447266,-0.00567626953125,0.01995849609375,1.0155029296875,30.770000457763672,0.0,-2.0,-1.1253814697265625,-0.69287109375,Waiting,0.0,0.0,-114.0,0.0,0.0,0.0,0.0,0.0,
2.823219999999999,0.0,0.0,false,4195924.052863436,,-9285.0,0.0,0.0,0.0,0.0,0.125,2.3181149970000003,0.5533560492066895,0.0012207030000004337,-43428.0,0.0,0.0,0.0,0.0,0.0,2.182616964,4.397316058113635,0.0,13702.0,0.0,0.0,0.0,0.0,0.0,3.5180660460000004,4.401758689006861,0.0,-28634.0,0.0,0.0,0.0,0.0,0.0,3.022460628,0.5515167311543325,0.0,1.1799999475479126,0.05999999865889549,80.44999694824219,0.0101318359375,0.0108642578125,0.97821044921875,30.770000457763672,0.0,-7.0,-1.1253814697265625,-0.69287109375,Waiting,0.0,0.0,-114.0,0.0,0.0,0.0,0.0,0.0,
2.850231,0.0,0.0,false,4193041.4736842103,,-9285.0,0.0,0.0,0.0,0.0,0.125,2.3181149970000003,0.5533560492066895,0.0,-43428.0,0.0,0.0,0.0,0.0,0.0,2.182616964,4.397316058113635,0.0,13702.0,0.0,0.0,0.0,0.0,0.0,3.5168453430000004,4.401758689006861,0.0,-28634.0,0.0,0.0,0.0,0.0,0.0,3.021239925,0.5515167311543325,0.0,1.1799999475479126,0.07000000029802322,80.44999694824219,0.00732421875,0.02716064453125,1.019775390625,30.770000457763672,0.0,6.0,-1.1253814697265625,-0.69287109375,Waiting,0.0,0.0,-114.0,0.0,0.0,0.0,0.0,0.0,
2.8725200000000006,0.0,0.0,false,4189924.6113537117,,-9285.0,0.0,0.0,0.0,0.0,0.125,2.3181149970000003,0.5533560492066895,0.0,-43428.0,0.0,0.0,0.0,0.0,0.0,2.182616964,4.397316058113635,0.0,13702.0,0.0,0.0,0.0,0.0,0.0,3.5168453430000004,4.401758689006861,0.0,-28634.0,0.0,0.0,0.0,0.0,0.0,3.022460628,0.5515167311543325,0.0,1.1799999475479126,0.07999999821186066,80.44999694824219,0.0037841796875,0.02728271484375,1.0059814453125,30.770000457763672,0.0,6.0,-1.1253814697265625,-0.69287109375,Waiting,0.0,0.0,-114.0,0.0,0.0,0.0,0.0,0.0,
2.8958150000000007,0.0,0.0,false,4186713.113043478,,-9285.0,0.0,0.0,0.0,0.0,0.125,2.3193357000000003,0.5533560492066895,0.0,-43428.0,0.0,0.0,0.0,0.0,0.0,2.183837667,4.397316058113635,0.0,13702.0,0.0,0.0,0.0,0.0,0.0,3.5168453430000004,4.401758689006861,0.0012207029999995456,-28634.0,0.0,0.0,0.0,0.0,0.0,3.022460628,0.5515167311543325,0.0,1.190000057220459,0.07000000029802322,80.44999694824219,-0.00323486328125,0.019775390625,0.99127197265625,30.770000457763672,0.0,-1.0,-1.1253814697265625,-0.69287109375,Waiting,0.0,0.0,-114.0,0.0,0.0,0.0,0.0,0.0,
2.9204040000000004,0.0,0.0,false,4183408.761904762,,-9285.0,0.0,0.0,0.0,0.0,0.125,2.2717282830000003,0.5533560492066895,0.0,-43428.0,0.0,0.0,0.0,0.0,0.0,2.182616964,4.397316058113635,0.0,13702.0,0.0,0.0,0.0,0.0,0.0,3.5180660460000004,4.401758689006861,0.0,-28634.0,0.0,0.0,0.0,0.0,0.0,3.022460628,0.5515167311543325,0.0,1.190000057220459,0.07000000029802322,80.44999694824219,-0.005126953125,0.0245361328125,1.00830078125,30.770000457763672,0.0,2.0,-1.1253814697265625,-0.69287109375,Waiting,0.0,0.0,-114.0,0.0,0.0,0.0,0.0,0.0,
2.948135,0.0,0.0,false,4179997.0344827585,,-9285.0,0.0,0.0,0.0,0.0,0.125,2.3181149970000003,0.5533560492066895,0.0,-43428.0,0.0,0.0,0.0,0.0,0.0,2.175292746,4.397316058113635,0.0,13702.0,0.0,0.0,0.0,0.0,0.0,3.5168453430000004,4.401758689006861,0.0,-28634.0,0.0,0.0,0.0,0.0,0.0,3.022460628,0.5515167311543325,0.0,1.1799999475479126,0.07000000029802322,80.44999694824219,0.00115966796875,0.01239013671875,0.99456787109375,30.770000457763672,0.0,-8.0,-1.1253814697265625,-0.69287109375,Waiting,0.0,0.0,-114.0,0.0,0.0,0.0,0.0,0.0,
2.9690509999999994,0.0,0.0,false,4176375.2103004293,,-9285.0,0.0,0.0,0.0,0.0,0.125,2.316894294,0.5533560492066895,0.0,-43428.0,0.0,0.0,0.0,0.0,0.0,2.182616964,4.397316058113635,0.0,13702.0,0.0,0.0,0.0,0.0,0.0,3.5168453430000004,4.401758689006861,0.0,-28634.0,0.0,0.0,0.0,0.0,0.0,3.022460628,0.5515167311543325,0.0,1.1799999475479126,0.07000000029802322,80.44999694824219,0.0025634765625,0.015625,0.9923095703125,30.770000457763672,0.0,-4.0,-1.1253814697265625,-0.69287109375,Waiting,0.0,0.0,-114.0,0.0,0.0,0.0,0.0,0.0,
2.9928559999999997,0.0,0.0,false,4172664.9572649575,,-9285.0,0.0,0.0,0.0,0.0,0.125,2.3181149970000003,0.5533560492066895,0.0,-43428.0,0.0,0.0,0.0,0.0,0.0,2.181396261,4.397316058113635,0.0,13702.0,0.0,0.0,0.0,0.0,0.0,3.5168453430000004,4.401758689006861,0.0,-28634.0,0.0,0.0,0.0,0.0,0.0,3.022460628,0.5515167311543325,0.0,1.1799999475479126,0.07000000029802322,80.44999694824219,-0.00238037109375,0.02044677734375,1.00732421875,30.770000457763672,0.0,-1.0,-1.1253814697265625,-0.69287109375,Waiting,0.0,0.0,-114.0,0.0,0.0,0.0,0.0,0.0,
3.0163899999999995,0.0,0.0,false,4168866.45106383,,-9285.0,0.0,0.0,0.0,0.0,0.125,2.3193357000000003,0.5533560492066895,0.0,-43428.0,0.0,0.0,0.0,0.0,0.0,2.182616964,4.397316058113635,0.0,13702.0,0.0,0.0,0.0,0.0,0.0,3.5168453430000004,4.401758689006861,0.0,-28634.0,0.0,0.0,0.0,0.0,0.0,3.021239925,0.5515167311543325,0.0,1.190000057220459,0.07000000029802322,80.44999694824219,-2.44140625E-4,0.0301513671875,0.997314453125,30.770000457763672,0.0,8.0,-1.1253814697265625,-0.69287109375,Waiting,0.0,0.0,-114.0,0.0,0.0,0.0,0.0,0.0,
3.042588,0.0,0.0,false,4164967.2881355933,,-9285.0,0.0,0.0,0.0,0.0,0.125,2.3181149970000003,0.5533560492066895,0.0,-43428.0,0.0,0.0,0.0,0.0,0.0,2.182616964,4.397316058113635,0.0,13702.0,0.0,0.0,0.0,0.0,0.0,3.5168453430000004,4.401758689006861,0.0,-28634.0,0.0,0.0,0.0,0.0,0.0,3.022460628,0.5515167311543325,0.0,1.190000057220459,0.07000000029802322,80.44999694824219,4.2724609375E-4,0.023193359375,1.003662109375,30.770000457763672,0.0,1.0,-1.1253814697265625,-0.69287109375,Waiting,0.0,0.0,-114.0,0.0,0.0,0.0,0.0,0.0,
3.067991,0.0,0.0,false,4160865.552742616,,-9285.0,0.0,0.0,0.0,0.0,0.125,2.302245858,0.5533560492066895,0.0,-43428.0,0.0,0.0,0.0,0.0,0.0,2.182616964,4.397316058113635,0.0,13702.0,0.0,0.0,0.0,0.0,0.0,3.5180660460000004,4.401758689006861,0.0,-28634.0,0.0,0.0,0.0,0.0,0.0,3.018798519,0.5515167311543325,0.0,1.190000057220459,0.07000000029802322,80.44999694824219,0.0029296875,0.0155029296875,1.00067138671875,30.770000457763672,0.0,-5.0,-1.1253814697265625,-0.69287109375,Waiting,0.0,0.0,-114.0,0.0,0.0,0.0,0.0,0.0,
3.092215,0.0,0.0,false,4156680.907563025,,-9285.0,0.0,0.0,0.0,0.0,0.125,2.3193357000000003,0.5533560492066895,-0.0012207030000004337,-43428.0,0.0,0.0,0.0,0.0,0.0,2.182616964,4.397316058113635,0.0,13702.0,0.0,0.0,0.0,0.0,0.0,3.5168453430000004,4.401758689006861,-0.0012207029999995456,-28634.0,0.0,0.0,0.0,0.0,0.0,3.023681331,0.5515167311543325,0.0012207029999999897,1.1799999475479126,0.07999999821186066,80.44999694824219,-2.44140625E-4,0.01611328125,0.99334716796875,30.770000457763672,0.0,-4.0,-1.1253814697265625,-0.69287109375,Waiting,0.0,0.0,-114.0,0.0,0.0,0.0,0.0,0.0,
3.113714,0.0,0.0,false,4152399.531380753,,-9285.0,0.0,0.0,0.0,0.0,0.125,2.3181149970000003,0.5533560492066895,-0.0012207030000004337,-43428.0,0.0,0.0,0.0,0.0,0.0,2.182616964,4.397316058113635,0.0,13702.0,0.0,0.0,0.0,0.0,0.0,3.5168453430000004,4.401758689006861,-0.0012207029999995456,-28634.0,0.0,0.0,0.0,0.0,0.0,3.022460628,0.5515167311543325,0.0012207029999999897,1.1799999475479126,0.07999999821186066,80.44999694824219,0.0020751953125,0.02410888671875,1.003662109375,30.770000457763672,0.0,3.0,-1.1253814697265625,-0.69287109375,Waiting,0.0,0.0,-114.0,0.0,0.0,0.0,0.0,0.0,
3.144778,0.0,0.0,false,4148037.433333333,,-9285.0,0.0,0.0,0.0,0.0,0.125,2.3193357000000003,0.5533560492066895,0.0,-43428.0,0.0,0.0,0.0,0.0,0.0,2.182616964,4.397316058113635,0.0,13702.0,0.0,0.0,0.0,0.0,0.0,3.5253902640000003,4.401758689006861,0.0012207029999995456,-28634.0,0.0,0.0,0.0,0.0,0.0,3.022460628,0.5515167311543325,-0.0012207029999999897,1.190000057220459,0.07000000029802322,80.44999694824219,3.0517578125E-4,0.02374267578125,0.994140625,30.770000457763672,0.0,2.0,-1.1253814697265625,-0.69287109375,Waiting,0.0,0.0,-114.0,0.0,0.0,0.0,0.0,0.0,
3.171081,0.0,0.0,false,4143479.9668049794,,-9285.0,0.0,0.0,0.0,0.0,0.125,2.3303220270000002,0.5533560492066895,0.0,-43428.0,0.0,0.0,0.0,0.0,0.0,2.181396261,4.397316058113635,0.0,13702.0,0.0,0.0,0.0,0.0,0.0,3.5180660460000004,4.401758689006861,0.0012207029999995456,-28634.0,0.0,0.0,0.0,0.0,0.0,3.022460628,0.5515167311543325,-0.0012207029999999897,1.190000057220459,0.07999999821186066,80.44999694824219,0.00384521484375,0.0185546875,1.00750732421875,30.770000457763672,0.0,-2.0,-1.1253814697265625,-0.69287109375,Waiting,0.0,0.0,-114.0,0.0,0.0,0.0,0.0,0.0,
3.194222,0.0,0.0,false,4138843.8016528925,,-9285.0,0.0,0.0,0.0,0.0,0.125,2.3193357000000003,0.5533560492066895,0.0,-43428.0,0.0,0.0,0.0,0.0,0.0,2.182616964,4.397316058113635,0.0,13702.0,0.0,0.0,0.0,0.0,0.0,3.5180660460000004,4.401758689006861,0.0,-28634.0,0.0,0.0,0.0,0.0,0.0,3.022460628,0.5515167311543325,0.0,1.190000057220459,0.07999999821186066,80.44999694824219,0.00323486328125,0.01806640625,0.998291015625,30.770000457763672,0.0,-2.0,-1.1253814697265625,-0.69287109375,Waiting,0.0,0.0,-114.0,0.0,0.0,0.0,0.0,0.0,
3.2157520000000006,0.0,0.0,false,4134126.452674897,,-9285.0,0.0,0.0,0.0,0.0,0.125,2.3181149970000003,0.5533560492066895,0.0,-43428.0,0.0,0.0,0.0,0.0,0.0,2.182616964,4.397316058113635,0.0,13702.0,0.0,0.0,0.0,0.0,0.0,3.5168453430000004,4.401758689006861,0.0,-28634.0,0.0,0.0,0.0,0.0,0.0,3.031005549,0.5515167311543325,0.0012207029999999897,1.190000057220459,0.07999999821186066,80.44999694824219,0.00384521484375,0.01666259765625,1.0,30.770000457763672,0.0,-3.0,-1.1253814697265625,-0.69287109375,Waiting,0.0,0.0,-114.0,0.0,0.0,0.0,0.0,0.0,
3.253370999999999,0.0,0.0,false,4137426.6885245903,,-9285.0,0.0,0.0,0.0,0.0,0.125,2.3181149970000003,0.5533560492066895,0.0012207030000004337,-43428.0,0.0,0.0,0.0,0.0,0.0,2.182616964,4.397316058113635,0.0,13702.0,0.0,0.0,0.0,0.0,0.0,3.5168453430000004,4.401758689006861,0.0,-28634.0,0.0,0.0,0.0,0.0,0.0,3.022460628,0.5515167311543325,0.0012207029999999897,1.190000057220459,0.07999999821186066,80.44999694824219,-0.00146484375,0.02191162109375,1.00201416015625,30.770000457763672,0.0,0.0,-1.1253814697265625,-0.69287109375,Waiting,0.0,0.0,-114.0,0.0,0.0,0.0,0.0,0.0,
3.2782739999999992,0.0,0.0,false,4140570.285714286,,-9285.0,0.0,0.0,0.0,0.0,0.125,2.3181149970000003,0.5533560492066895,0.0,-43428.0,0.0,0.0,0.0,0.0,0.0,2.177734152,4.397316058113635,0.0,13702.0,0.0,0.0,0.0,0.0,0.0,3.514403937,4.401758689006861,0.0,-28634.0,0.0,0.0,0.0,0.0,0.0,3.022460628,0.5515167311543325,-0.0012207029999999897,1.190000057220459,0.07000000029802322,80.44999694824219,-6.103515625E-5,0.02215576171875,1.002685546875,30.770000457763672,0.0,0.0,-1.1253814697265625,-0.69287109375,Waiting,0.0,0.0,-114.0,0.0,0.0,0.0,0.0,0.0,
3.308126,0.0,0.0,false,4143428.1300813006,,-9285.0,0.0,0.0,0.0,0.0,0.125,2.3193357000000003,0.5533560492066895,0.0,-43428.0,0.0,0.0,0.0,0.0,0.0,2.182616964,4.397316058113635,0.0,13702.0,0.0,0.0,0.0,0.0,0.0,3.5168453430000004,4.401758689006861,0.0,-28634.0,0.0,0.0,0.0,0.0,0.0,3.02734344,0.5515167311543325,-0.0012207029999999897,1.190000057220459,0.07000000029802322,80.44999694824219,0.00384521484375,0.01904296875,1.00335693359375,30.770000457763672,0.0,-1.0,-1.1253814697265625,-0.69287109375,Waiting,0.0,0.0,-114.0,0.0,0.0,0.0,0.0,0.0,
3.3299480000000004,0.0,0.0,false,4146123.4331983807,,-9285.0,0.0,0.0,0.0,0.0,0.125,2.314452888,0.0,-0.0012207030000004337,-43428.0,0.0,0.0,-0.0,0.0,0.0,2.182616964,0.0,0.0,13702.0,0.0,0.0,0.0,0.0,0.125,3.5168453430000004,0.0,0.0,-28634.0,0.0,0.0,-0.0,0.0,0.0,3.022460628,0.0,0.0,1.190000057220459,0.07999999821186066,80.44999694824219,0.00836181640625,0.01507568359375,1.00335693359375,30.770000457763672,0.0,-4.0,-1.1253814697265625,-0.69287109375,Waiting,0.0,0.0,-114.0,0.0,0.0,0.0,0.0,0.0,
3.355218999999999,0.0,0.0,false,4148668.35483871,,-9285.0,0.0,0.0,0.0,0.0,1.25,2.315673591,0.0,-0.0012207030000004337,-43428.0,0.0,0.0,-0.0,0.0,0.5,2.186279073,0.0,0.0,13702.0,0.0,0.0,0.0,0.0,1.625,3.5705562750000004,0.0,0.0,-28634.0,0.0,0.0,-0.0,0.0,1.125,3.022460628,0.0,0.0,1.190000057220459,0.07999999821186066,80.44999694824219,-0.0064697265625,0.0191650390625,1.00152587890625,30.770000457763672,0.0,-3.0,-1.1253814697265625,-0.69287109375,Waiting,0.0,0.0,-114.0,0.0,0.0,0.0,0.0,0.0,
3.377637999999999,0.0,0.0,false,4151053.6546184737,,-9285.0,0.0,0.0,0.0,0.0,1.375,2.303466561,0.0,-0.01342773300000033,-43428.0,0.0,0.0,-0.0,0.0,1.5,2.186279073,0.0,0.0,13702.0,0.0,0.0,0.0,0.0,1.875,3.660888297,0.0,0.059814447000000825,-28634.0,0.0,0.0,-0.0,0.0,1.5,2.994384459,0.0,0.0012207029999999897,1.1799999475479126,0.09000000357627869,80.44999694824219,-0.00775146484375,-0.0025634765625,1.005126953125,30.770000457763672,0.0,-24.0,-1.125396728515625,-0.69287109375,Waiting,0.0,0.0,-114.0,0.0,0.0,0.0,0.0,0.0,
