Time,ClimberA1,ClimberA2,CameraExists,HeapSpace,LoopTime,FRpos,FRCurrent,FRspeed,FRsetpoint,FRApos,FRACurrent,FREncpos,FREncSetpoint,FREncSpeed,FLpos,FLCurrent,FLspeed,FLsetpoint,FLApos,FLACurrent,FLEncpos,FLEncSetpoint,FLEncSpeed,BRpos,BRCurrent,BRspeed,BRsetpoint,BRApos,BRACurrent,BREncpos,BREncSetpoint,BREncSpeed,BLpos,BLCurrent,BLspeed,BLsetpoint,BLApos,BLACurrent,BLEncpos,BLEncSetpoint,BLEncSpeed,navx_Pitch,navx_Roll,navx_Yaw,navx_XAcc,navx_YAcc,navx_ZAcc,navx_Temp,navx_Bar,navx_Alt,navx_XDis,navx_YDis,GearPlacerState,ShootOutputV,ShootOutputCurrent,ShootEncPos,ShootEncVelocity,ShootSpeed,ShootSetpoint,CarouselSetpoint,CarouselCurrent,
0.24692999999999302,0.0,0.0,false,4324174.599537037,,42097.0,0.0,0.0,0.0,0.0,0.0,2.542724349,0.0,0.0,-119960.0,0.0,0.0,-0.0,0.0,0.0,3.438720351,0.0,-0.019531247999999835,74561.0,0.0,0.0,0.0,0.0,0.0,4.6606440540000005,0.0,-0.003662108999999525,-99164.0,0.0,0.0,-0.0,0.0,0.0,3.223876623,0.0,0.003662108999999969,1.340000033378601,0.07000000029802322,32.7400016784668,0.008056640625,0.02703857421875,0.99578857421875,34.47999954223633,0.0,9.0,-0.6216888427734375,-2.622955322265625,Waiting,0.0,0.0,-113.0,0.0,0.0,0.0,0.0,0.0,
0.30562699999999315,0.0,0.0,false,4324420.08909459,,42097.0,0.0,0.0,0.0,0.0,2.25,2.509765368,0.0,0.0,-119960.0,0.0,0.0,-0.0,0.0,1.875,3.342284814,0.0,0.0,74561.0,0.0,0.0,0.0,0.0,1.75,4.575194844,0.0,0.0,-99164.0,0.0,0.0,-0.0,0.0,4.875,3.089599293,0.0,0.0,1.350000023841858,0.10000000149011612,32.7400016784668,0.01007080078125,0.02685546875,1.00018310546875,34.47999954223633,0.0,8.0,-0.6216888427734375,-2.622955322265625,Waiting,0.0,0.0,-113.0,0.0,0.0,0.0,0.0,0.0,
0.37196600000000035,0.0,0.0,false,4324631.268941585,,42097.0,0.0,0.0,0.0,0.0,2.0,2.202148212,0.0,-0.0805663980000002,-119960.0,0.0,0.0,-0.0,0.0,1.875,3.020019222,0.0,-0.13916014200000015,74561.0,0.0,0.0,0.0,0.0,1.125,4.2956538570000005,0.0,0.0,-99164.0,0.0,0.0,-0.0,0.0,1.125,2.767333701,0.0,-0.16235349899999996,1.3200000524520874,0.11999999731779099,32.709999084472656,0.01190185546875,0.03076171875,0.9873046875,34.47999954223633,0.0,12.0,-0.621551513671875,-2.622894287109375,Waiting,0.0,0.0,-113.0,0.0,0.0,0.0,0.0,0.0,
0.4303539999999921,0.0,0.0,false,4324819.776814108,,42097.0,0.0,0.0,0.0,0.0,1.125,1.912841601,0.0,-0.3308105129999994,-119960.0,0.0,0.0,-0.0,0.0,0.625,2.724609096,0.0,-0.3405761369999998,74561.0,0.0,0.0,0.0,0.0,0.375,4.044189039,0.0,-0.2868652050000007,-99164.0,0.0,0.0,-0.0,0.0,0.75,2.545165755,0.0,-0.3234862949999999,1.3300000429153442,0.10999999940395355,32.630001068115234,7.32421875E-4,0.02899169921875,0.95550537109375,34.47999954223633,0.0,20.0,-0.6217803955078125,-2.6229705810546875,Waiting,0.0,0.0,-113.0,0.0,0.0,0.0,0.0,0.0,
0.49222299999999813,0.0,0.0,false,4324985.632369942,,42097.0,0.0,0.0,0.0,0.0,0.25,1.7590330230000002,0.0,-0.27954098699999985,-119960.0,0.0,0.0,-0.0,0.0,0.0,2.5903317660000003,0.0,4.676783231,74561.0,0.0,0.0,0.0,0.0,0.0,3.9562984230000002,0.0,4.726949242,-99164.0,0.0,0.0,-0.0,0.0,0.0,2.5354001310000003,0.0,-0.1977538860000001,1.3799999952316284,0.09000000357627869,32.65999984741211,0.01104736328125,0.0537109375,1.049072265625,34.47999954223633,0.0,23.0,-0.621826171875,-2.6228790283203125,Waiting,0.0,0.0,-113.0,0.0,0.0,0.0,0.0,0.0,
0.5524709999999905,0.0,0.0,false,4325117.2562843105,,42097.0,0.0,0.0,0.0,0.0,0.125,1.7578123200000002,0.0,-0.10253905200000002,-119960.0,0.0,0.0,-0.0,0.0,0.0,2.5939938750000002,0.0,-0.10253905200000091,74561.0,0.0,0.0,0.0,0.0,0.0,3.970946859,0.0,-0.07202147699999983,-99164.0,0.0,0.0,-0.0,0.0,0.0,2.569579815,0.0,4.942617188,1.3799999952316284,0.14000000059604645,32.689998626708984,0.0230712890625,0.0343017578125,0.99798583984375,34.47999954223633,0.0,22.0,-0.6215972900390625,-2.6228790283203125,Waiting,0.0,0.0,-113.0,0.0,0.0,0.0,0.0,0.0,
0.611603999999992,0.0,0.0,false,4325226.273830156,,42097.0,0.0,0.0,0.0,0.0,0.125,1.802978331,0.0,0.019531247999999835,-119960.0,0.0,0.0,-0.0,0.0,0.0,2.647704807,0.0,0.01831054500000029,74561.0,0.0,0.0,0.0,0.0,0.0,4.007567949,0.0,0.017089841999999855,-99164.0,0.0,0.0,-0.0,0.0,0.0,2.5891110630000003,0.0,0.0,1.3899999856948853,0.20000000298023224,32.709999084472656,0.02093505859375,0.015869140625,1.028564453125,34.47999954223633,0.0,9.0,-0.6209259033203125,-2.623016357421875,Waiting,0.0,0.0,-113.0,0.0,0.0,0.0,0.0,0.0,
0.674903999999995,0.0,0.0,false,4325312.667629223,,42097.0,0.0,0.0,0.0,0.0,0.125,1.8310545,0.0,0.03906249599999967,-119960.0,0.0,0.0,-0.0,0.0,0.0,2.6855466000000003,0.0,0.05737304099999996,74561.0,0.0,0.0,0.0,0.0,0.0,4.0332027120000005,0.0,0.037841793000000123,-99164.0,0.0,0.0,-0.0,0.0,0.0,2.5891110630000003,0.0,0.01831054500000029,1.3899999856948853,0.23000000417232513,32.70000076293945,0.0135498046875,0.03668212890625,1.00958251953125,34.47999954223633,0.0,14.0,-0.620819091796875,-2.623016357421875,Waiting,0.0,0.0,-113.0,0.0,0.0,0.0,0.0,0.0,
0.7330629999999947,0.0,0.0,false,4325375.90300231,,42097.0,0.0,0.0,0.0,0.0,0.0,1.8457029360000001,0.0,0.028076169000000206,-119960.0,0.0,0.0,-0.0,0.0,0.0,2.6953122240000003,0.0,0.029296871999999752,74561.0,0.0,0.0,0.0,0.0,0.0,4.049071851,0.0,-4.9259238309999995,-99164.0,0.0,0.0,-0.0,0.0,0.0,2.5891110630000003,0.0,0.0,1.409999966621399,0.23999999463558197,32.709999084472656,7.9345703125E-4,0.02606201171875,0.99273681640625,34.470001220703125,0.0,-1.0,-0.620819091796875,-2.623016357421875,Waiting,0.0,0.0,-113.0,0.0,0.0,0.0,0.0,0.0,
0.7944440000000031,0.0,0.0,false,4325405.631168831,,42097.0,0.0,0.0,0.0,0.0,0.0,1.8457029360000001,0.0,0.009765623999999917,-119960.0,0.0,0.0,-0.0,0.0,0.0,2.6989743330000002,0.0,0.004882811999999959,74561.0,0.0,0.0,0.0,0.0,0.0,4.053954663,0.0,0.009765623999999917,-99164.0,0.0,0.0,-0.0,0.0,0.0,2.5891110630000003,0.0,0.0,1.399999976158142,0.2199999988079071,32.709999084472656,-0.00628662109375,0.02099609375,0.9881591796875,34.470001220703125,0.0,-10.0,-0.620819091796875,-2.623016357421875,Waiting,0.0,0.0,-113.0,0.0,0.0,0.0,0.0,0.0,
0.852455999999991,0.0,0.0,false,4325412.837853434,,42097.0,0.0,0.0,0.0,0.0,0.0,1.8457029360000001,0.0,0.0,-119960.0,0.0,0.0,-0.0,0.0,0.0,2.6953122240000003,0.0,0.0012207030000004337,74561.0,0.0,0.0,0.0,0.0,0.0,4.053954663,0.0,0.004882811999999959,-99164.0,0.0,0.0,-0.0,0.0,0.0,2.5878903600000003,0.0,0.0,1.409999966621399,0.20999999344348907,32.709999084472656,0.00665283203125,0.032470703125,0.9901123046875,34.470001220703125,0.0,6.0,-0.620819091796875,-2.623016357421875,Waiting,0.0,0.0,-113.0,0.0,0.0,0.0,0.0,0.0,
0.9101070000000037,0.0,0.0,false,4325397.542543986,,42097.0,2.25,-15.0,-1011.9684720039367,0.0,0.0,1.853027154,4.963999999999999,0.0,-119960.0,2.625,0.0,1011.9684720039367,0.0,0.0,2.6965329270000002,4.948999999999997,0.0,74561.0,2.625,-7.5,-1011.9684720039367,0.0,0.0,4.051513257,2.346685808637024E-15,0.0,-99164.0,1.5,7.5,1011.9684720039367,0.0,0.0,2.5891110630000003,2.343606790115397E-15,0.0,1.4199999570846558,0.20999999344348907,32.709999084472656,-0.10302734375,-0.01708984375,1.03326416015625,34.470001220703125,0.0,-113.0,-0.6208953857421875,-2.6230010986328125,Waiting,0.0,0.0,-113.0,0.0,0.0,0.0,0.0,0.0,
0.9710749999999971,0.0,0.0,false,4325348.223760093,,42097.0,10.125,-82.5,-2142.9921555519104,0.0,0.0,1.854247857,4.963999999999999,0.010986327000000351,-119960.0,18.625,0.0,2142.9921555519104,0.0,0.0,2.703857145,4.948999999999997,-4.9404550789999995,74561.0,14.625,-112.5,-2142.9921555519104,0.0,0.0,4.053954663,2.346685808637024E-15,0.0,-99164.0,14.0,165.0,2142.9921555519104,0.0,0.0,2.5878903600000003,2.343606790115397E-15,0.0,1.399999976158142,-0.9700000286102295,32.7400016784668,-0.38543701171875,0.18359375,1.34722900390625,34.470001220703125,0.0,-223.0,-0.626190185546875,-2.6184234619140625,Waiting,0.0,0.0,-113.0,0.0,0.0,0.0,0.0,0.0,
1.0336889999999985,0.0,0.0,false,4325276.448544249,,42060.0,31.125,-292.5,-2520.0,0.0,0.125,1.850585748,4.963999999999999,0.0,-119960.0,42.125,0.0,2520.0,0.0,0.0,2.6855466000000003,4.948999999999997,0.0,74508.0,25.0,-472.5,-2520.0,0.0,0.0,4.055175366,2.346685808637024E-15,0.0,-99120.0,34.125,427.5,2520.0,0.0,0.0,2.5891110630000003,2.343606790115397E-15,0.0,1.440000057220459,-2.140000104904175,32.54999923706055,-0.447998046875,-0.04876708984375,1.55889892578125,34.470001220703125,0.0,-375.0,-0.6386260986328125,-2.6092529296875,Waiting,0.0,0.0,-113.0,0.0,0.0,0.0,0.0,0.0,
1.0942949999999982,1.625,1.375,false,4325182.236311239,,42060.0,36.75,-615.0,-2520.0,0.0,0.125,1.850585748,4.963999999999999,0.0,-119960.0,46.75,60.0,2520.0,0.0,0.0,2.6428219950000003,4.948999999999997,0.0,74336.0,26.5,-900.0,-2520.0,0.0,0.0,4.05273396,2.346685808637024E-15,0.0,-98976.0,37.75,817.5,2520.0,0.0,0.0,2.5842282510000003,2.343606790115397E-15,0.0,1.440000057220459,-3.0899999141693115,32.290000915527344,-0.42047119140625,-0.07635498046875,0.97265625,34.470001220703125,0.0,-364.0,-0.658538818359375,-2.595184326171875,Waiting,0.0,0.0,-113.0,0.0,0.0,0.0,0.0,0.0,
1.1625570000000007,0.0,0.0,false,4325054.07548257,,41929.0,35.25,-982.5,-2520.0,0.0,0.125,1.851806451,4.963999999999999,0.0,-119948.0,41.875,75.0,2520.0,0.0,0.0,2.574462627,4.948999999999997,0.0,74336.0,23.625,-1260.0,-2520.0,0.0,0.0,4.05273396,2.346685808637024E-15,0.0,-98976.0,35.625,1230.0,2520.0,0.0,0.0,2.5793454390000004,2.343606790115397E-15,0.0,1.5700000524520874,-3.869999885559082,31.81999969482422,-0.47039794921875,-0.12835693359375,0.8084716796875,34.470001220703125,0.0,-432.0,-0.6851806640625,-2.5777435302734375,Waiting,0.0,0.0,-113.0,0.0,0.0,0.0,0.0,0.0,
1.2307359999999898,0.0,0.0,false,4324902.933179723,,41699.0,32.125,-1305.0,-2944.3818622222593,0.0,0.125,1.850585748,0.09171566963990294,0.0,-119936.0,38.125,82.5,2142.7507379942895,0.0,0.0,2.57568333,0.12590027616584687,0.0,74066.0,27.0,-1635.0,-2944.3818622222593,0.0,0.0,4.055175366,4.862469091983062,0.0,-98717.0,26.5,1582.5,2142.7507379942895,0.0,0.0,2.5781247360000004,4.821637883141943,0.0,1.7799999713897705,-4.869999885559082,30.979999542236328,-0.33123779296875,-0.04986572265625,1.12908935546875,34.470001220703125,0.0,-244.0,-0.7263946533203125,-2.5507049560546875,Waiting,0.0,0.0,-113.0,0.0,0.0,0.0,0.0,0.0,
1.2956609999999928,0.0,0.0,false,4324718.484307515,,41699.0,30.25,-1605.0,-4200.0,0.0,0.125,1.859130669,0.2504537652665757,0.0,-119936.0,34.125,127.5,1580.0273237738393,0.0,2.25,2.659911837,0.769273323785483,0.0,74066.0,26.125,-1890.0,-4200.0,0.0,0.0,4.031982009,4.704050774953543,0.0,-98717.0,12.5,1807.5,1580.0273237738393,0.0,3.75,2.4865720110000002,4.178459836446014,0.0,1.7300000190734863,-5.559999942779541,30.309999465942383,-0.17742919921875,-0.0679931640625,1.14617919921875,34.439998626708984,0.0,-108.0,-0.7649993896484375,-2.5266876220703125,Waiting,0.0,0.0,-113.0,0.0,0.0,0.0,0.0,0.0,
1.360247000000003,0.0,0.0,false,4324511.689119171,,41388.0,27.75,-1837.5,-4200.0,0.0,0.25,1.8701169960000001,0.2504537652665757,0.0,-119908.0,33.0,172.5,1580.0273237738393,0.0,2.625,2.980956726,0.769273323785483,0.0,73723.0,24.25,-2145.0,-4200.0,0.0,0.125,3.961181235,4.704050774953543,0.0,-98408.0,5.75,1927.5,1580.0273237738393,0.0,4.125,2.199706806,4.178459836446014,0.0,1.6399999856948853,-5.820000171661377,29.920000076293945,-0.1956787109375,0.1737060546875,0.93194580078125,34.439998626708984,0.0,-13.0,-0.8067169189453125,-2.502349853515625,Waiting,0.0,0.0,-113.0,0.0,0.0,0.0,0.0,0.0,
1.4286429999999963,0.0,0.0,false,4324271.049208633,,41388.0,24.0,-2205.0,-4200.0,0.0,0.125,1.939697067,0.2504537652665757,0.0,-119908.0,34.875,120.0,1580.0273237738393,0.0,1.0,3.343505517,0.769273323785483,0.0,73723.0,21.625,-2340.0,-4200.0,0.0,0.125,3.879394134,4.704050774953543,0.0,-98408.0,6.75,1927.5,1580.0273237738393,0.0,0.75,1.910400195,4.178459836446014,0.0,1.8600000143051147,-5.360000133514404,31.8799991607666,0.0670166015625,0.17724609375,0.01312255859375,34.439998626708984,0.0,151.0,-0.858489990234375,-2.47039794921875,Waiting,0.0,0.0,-113.0,0.0,0.0,0.0,0.0,0.0,
1.4902770000000019,0.0,0.0,false,4324008.108170311,,40987.0,20.0,-2445.0,-2520.0,0.0,0.125,2.0056150290000003,4.963999999999999,0.0,-119826.0,36.375,382.5,2520.0,0.0,0.0,3.5900875230000002,4.948999999999997,0.0,73313.0,17.375,-2580.0,-2520.0,0.0,0.0,3.8415523410000003,2.346685808637024E-15,0.0,-98150.0,26.875,1500.0,2520.0,0.0,3.25,1.774902162,2.343606790115397E-15,0.0,1.9900000095367432,-4.670000076293945,37.900001525878906,0.2020263671875,0.11285400390625,0.23480224609375,34.439998626708984,0.0,238.0,-0.900726318359375,-2.437713623046875,Waiting,0.0,0.0,-113.0,0.0,0.0,0.0,0.0,0.0,
1.5641549999999989,0.0,0.0,false,4324270.601092896,,40987.0,15.0,-2767.5,-2520.0,0.0,0.125,2.000732217,4.963999999999999,0.0,-119826.0,38.125,1470.0,2520.0,0.0,1.875,3.135986007,4.948999999999997,0.0,72843.0,11.75,-2910.0,-2520.0,0.0,0.0,3.8940425700000003,2.346685808637024E-15,0.0,-97905.0,43.5,1522.5,2520.0,0.0,1.125,2.1130368930000003,2.343606790115397E-15,0.0,1.7999999523162842,-4.429999828338623,47.25,-0.16546630859375,0.1470947265625,0.3489990234375,34.439998626708984,0.0,6.0,-0.9356842041015625,-2.40533447265625,Waiting,0.0,0.0,-113.0,0.0,0.0,0.0,0.0,0.0,
1.6756129999999976,0.0,0.0,false,4324495.247843589,,40520.0,13.5,-3052.5,-2520.0,0.0,0.125,2.00195292,4.963999999999999,0.0,-119560.0,37.375,1290.0,2520.0,0.0,0.0,2.7380368290000003,4.948999999999997,0.0,72843.0,11.5,-3090.0,-2520.0,0.0,0.0,3.9904781070000004,2.346685808637024E-15,0.0,-97634.0,37.875,1590.0,2520.0,0.0,0.25,2.437743891,2.343606790115397E-15,0.0,1.6200000047683716,-5.980000019073486,59.70000076293945,-0.15081787109375,0.25042724609375,0.88037109375,34.439998626708984,0.0,164.0,-0.9807891845703125,-2.3484649658203125,Waiting,0.0,0.0,-113.0,0.0,0.0,0.0,0.0,0.0,
1.753449999999997,0.0,0.0,false,4324696.567979304,,40032.0,14.875,-3030.0,-1587.401568889618,0.0,0.25,1.986083781,4.963999999999999,0.0,-119384.0,36.25,1117.5,1587.401568889618,0.0,0.0,2.554931379,4.948999999999997,0.0,72349.0,7.625,-3000.0,-1587.401568889618,0.0,0.125,4.019774979,2.346685808637024E-15,0.0,-97634.0,30.5,1837.5,1587.401568889618,0.0,0.5,2.5415036460000002,2.343606790115397E-15,0.0,1.7999999523162842,-6.480000019073486,64.20999908447266,-0.12750244140625,0.27777099609375,0.76947021484375,34.439998626708984,0.0,210.0,-1.002899169921875,-2.3070831298828125,Waiting,0.0,0.0,-113.0,0.0,0.0,0.0,0.0,0.0,
1.8238300000000018,0.0,0.0,false,4324875.206896552,,39608.0,2.875,-2775.0,0.0,0.0,0.125,1.937255661,4.963999999999999,0.0,-119253.0,6.125,847.5,0.0,0.0,0.125,2.492675526,4.948999999999997,0.0,71931.0,0.375,-2730.0,0.0,0.0,0.0,4.0356441180000004,2.346685808637024E-15,0.0,-97314.0,9.25,2047.5,0.0,0.0,0.0,2.554931379,2.343606790115397E-15,0.0,2.0,-6.429999828338623,67.5,0.04437255859375,0.019287109375,0.864013671875,34.349998474121094,0.0,43.0,-1.025299072265625,-2.251190185546875,Waiting,0.0,0.0,-113.0,0.0,0.0,0.0,0.0,0.0,
1.891728999999992,0.0,0.0,false,4325019.575983913,,39608.0,5.25,-2272.5,-1349.291296005249,0.0,0.125,1.8945310560000002,4.963999999999999,0.0,-119253.0,0.0,630.0,1349.291296005249,0.0,0.0,2.4877927140000002,4.948999999999997,0.0,71931.0,7.125,-2265.0,-1349.291296005249,0.0,0.0,4.018554276000001,2.346685808637024E-15,0.0,-97314.0,4.125,1770.0,1349.291296005249,0.0,0.0,2.559814191,2.343606790115397E-15,0.0,2.1700000762939453,-4.900000095367432,69.41000366210938,0.615234375,0.28570556640625,1.16064453125,34.349998474121094,0.0,477.0,-1.0400543212890625,-2.200408935546875,Waiting,0.0,0.0,-113.0,0.0,0.0,0.0,0.0,0.0,
1.9578830000000016,0.0,0.0,false,4325141.309592188,,39365.0,4.25,-1560.0,-2004.0944337844849,0.0,0.125,1.8713376990000001,4.963999999999999,0.0,-119209.0,5.5,345.0,2004.0944337844849,0.0,0.0,2.546386458,4.948999999999997,0.0,71786.0,3.25,-1072.5,-2004.0944337844849,0.0,0.0,4.029540603,2.346685808637024E-15,0.0,-97057.0,0.875,1567.5,2004.0944337844849,0.0,0.0,2.559814191,2.343606790115397E-15,0.0,2.1500000953674316,-3.259999990463257,70.2300033569336,0.35687255859375,0.06536865234375,0.39923095703125,34.349998474121094,0.0,175.0,-1.0424346923828125,-2.1717681884765625,Waiting,0.0,0.0,-113.0,0.0,0.0,0.0,0.0,0.0,
2.031129000000001,0.0,0.0,false,4325239.802469136,,39365.0,0.375,-1402.5,-1428.6614871025085,0.0,0.125,1.876220511,4.963999999999999,0.0,-119209.0,11.5,277.5,1428.6614871025085,0.0,0.0,2.651366916,4.948999999999997,0.0,71786.0,0.0,-975.0,-1428.6614871025085,0.0,0.0,4.0283199000000005,2.346685808637024E-15,0.0,-97057.0,0.0,1455.0,1428.6614871025085,0.0,0.0,2.559814191,2.343606790115397E-15,0.0,2.5199999809265137,-2.299999952316284,70.27999877929688,0.0472412109375,0.121826171875,0.771484375,34.349998474121094,0.0,108.0,-1.03594970703125,-2.143402099609375,Waiting,0.0,0.0,-113.0,0.0,0.0,0.0,0.0,0.0,
2.1014130000000004,0.0,0.0,false,4325304.723306544,,39154.0,0.25,-1252.5,0.0,0.0,0.125,1.8737791050000001,4.963999999999999,0.0,-119141.0,3.25,487.5,0.0,0.0,0.0,2.711181363,4.948999999999997,0.09765624000000006,71569.0,0.0,-1342.5,0.0,0.0,0.0,4.029540603,2.346685808637024E-15,-0.0012207029999995456,-96826.0,0.0,1447.5,0.0,0.0,0.0,2.559814191,2.343606790115397E-15,0.0,2.380000114440918,-1.690000057220459,69.31999969482422,0.1319580078125,-0.081787109375,0.5911865234375,34.349998474121094,0.0,-46.0,-1.0265045166015625,-2.1207275390625,Waiting,0.0,0.0,-113.0,0.0,0.0,0.0,0.0,0.0,
2.1685239999999903,0.0,0.0,false,4325346.451649928,,39154.0,0.0,-1237.5,0.0,0.0,0.125,1.8737791050000001,4.963999999999999,0.0,-119141.0,0.0,105.0,0.0,0.0,0.0,2.719726284,4.948999999999997,-4.895289068,71569.0,0.0,-1215.0,0.0,0.0,0.0,4.029540603,2.346685808637024E-15,0.0,-96616.0,0.0,1365.0,0.0,0.0,0.0,2.559814191,2.343606790115397E-15,0.0,2.1500000953674316,-1.3899999856948853,69.08000183105469,-0.04449462890625,0.11444091796875,1.14080810546875,34.349998474121094,0.0,60.0,-1.017913818359375,-2.103363037109375,Waiting,0.0,0.0,-113.0,0.0,0.0,0.0,0.0,0.0,
2.2355149999999995,0.0,0.0,false,4325365.629374641,,38957.0,0.0,-1200.0,0.0,0.0,0.125,1.8737791050000001,4.963999999999999,0.0,-119141.0,0.0,0.0,0.0,0.0,0.0,2.718505581,4.948999999999997,0.004882811999999959,71373.0,0.0,-1207.5,0.0,0.0,0.0,4.029540603,2.346685808637024E-15,0.0,-96616.0,0.0,1207.5,0.0,0.0,0.0,2.559814191,2.343606790115397E-15,-0.0012207029999999897,2.140000104904175,-1.0,69.2699966430664,0.07330322265625,0.1685791015625,1.0223388671875,34.349998474121094,0.0,154.0,-1.01019287109375,-2.092529296875,Waiting,0.0,0.0,-113.0,0.0,0.0,0.0,0.0,0.0,
2.306479999999996,0.0,0.0,false,4325350.722110697,,38771.0,0.0,-1185.0,0.0,0.0,0.125,1.8737791050000001,4.963999999999999,-0.0012207029999995456,-119140.0,0.0,0.0,0.0,0.0,0.0,2.719726284,4.948999999999997,0.0,71192.0,0.0,-1147.5,0.0,0.0,0.0,4.0283199000000005,2.346685808637024E-15,0.0,-96443.0,0.0,1095.0,0.0,0.0,0.0,2.556152082,2.343606790115397E-15,0.0,2.200000047683716,-0.6200000047683716,69.47000122070312,0.0526123046875,0.11407470703125,1.19720458984375,34.34000015258789,0.0,86.0,-0.998809814453125,-2.0825653076171875,Waiting,0.0,0.0,-113.0,0.0,0.0,0.0,0.0,0.0,
2.3785160000000034,0.0,0.0,false,4325302.346330275,,38771.0,1.125,-1072.5,-654.8031377792358,0.0,0.125,1.8737791050000001,4.963999999999999,0.0,-119140.0,0.25,0.0,654.8031377792358,0.0,0.0,2.718505581,4.948999999999997,0.0,71192.0,1.0,-1042.5,-654.8031377792358,0.0,0.0,4.0283199000000005,2.346685808637024E-15,0.0,-96443.0,1.125,982.5,654.8031377792358,0.0,0.0,2.559814191,2.343606790115397E-15,0.0,2.190000057220459,-0.23999999463558197,69.54000091552734,0.48193359375,0.04022216796875,0.94024658203125,34.34000015258789,0.0,173.0,-0.988525390625,-2.0771331787109375,Waiting,0.0,0.0,-113.0,0.0,0.0,0.0,0.0,0.0,
2.442694000000003,0.0,0.0,false,4325230.90398395,,38644.0,1.25,-817.5,-714.3307435512543,0.0,0.125,1.8737791050000001,4.963999999999999,0.0,-119140.0,1.0,0.0,714.3307435512543,0.0,0.0,2.718505581,4.948999999999997,0.0,71065.0,1.0,-817.5,-714.3307435512543,0.0,0.0,4.0283199000000005,2.346685808637024E-15,0.0,-96306.0,1.25,877.5,714.3307435512543,0.0,0.0,2.559814191,2.343606790115397E-15,0.0,2.109999895095825,1.0299999713897705,69.2300033569336,0.33013916015625,-0.01885986328125,0.78436279296875,34.34000015258789,0.0,67.0,-0.9722137451171875,-2.0792083740234375,Waiting,0.0,0.0,-113.0,0.0,0.0,0.0,0.0,0.0,
2.5069219999999914,0.0,0.0,false,4325137.001719197,,38644.0,0.125,-600.0,-714.3307435512543,0.0,0.125,1.882324026,4.963999999999999,0.0,-119140.0,4.25,0.0,714.3307435512543,0.0,0.0,2.718505581,4.948999999999997,0.0,71065.0,0.125,-607.5,-714.3307435512543,0.0,0.0,4.0283199000000005,2.346685808637024E-15,0.0,-96306.0,0.125,622.5,714.3307435512543,0.0,0.0,2.559814191,2.343606790115397E-15,0.0,1.9700000286102295,1.4800000190734863,69.05000305175781,0.1524658203125,0.04046630859375,0.46893310546875,34.34000015258789,0.0,72.0,-0.957977294921875,-2.087188720703125,Waiting,0.0,0.0,-113.0,0.0,0.0,0.0,0.0,0.0,
2.5740509999999923,0.0,0.0,false,4325009.118304211,,38561.0,0.125,-532.5,-734.173253774643,0.0,0.125,1.8737791050000001,4.963999999999999,0.0,-119140.0,7.75,0.0,734.173253774643,0.0,0.0,2.718505581,4.948999999999997,0.0,70980.0,0.0,-525.0,-734.173253774643,0.0,0.0,4.029540603,2.346685808637024E-15,0.0,-96220.0,0.0,510.0,734.173253774643,0.0,0.0,2.559814191,2.343606790115397E-15,0.0,2.0399999618530273,1.340000033378601,69.11000061035156,0.04632568359375,0.0338134765625,0.81805419921875,34.34000015258789,0.0,13.0,-0.9394989013671875,-2.0994415283203125,Waiting,0.0,0.0,-113.0,0.0,0.0,0.0,0.0,0.0,
2.638851999999999,0.0,0.0,false,4324858.820160367,,38561.0,0.125,-465.0,-734.173253774643,0.0,0.125,1.874999808,4.963999999999999,0.0,-119140.0,11.375,0.0,734.173253774643,0.0,0.0,2.718505581,4.948999999999997,0.0,70980.0,0.0,-442.5,-734.173253774643,0.0,0.0,4.029540603,2.346685808637024E-15,0.0,-96220.0,0.0,442.5,734.173253774643,0.0,0.0,2.559814191,2.343606790115397E-15,0.0,2.059999942779541,1.3799999952316284,69.01000213623047,0.06951904296875,-0.0196533203125,0.852294921875,34.34000015258789,0.0,-29.0,-0.9244537353515625,-2.109375,Waiting,0.0,0.0,-113.0,0.0,0.0,0.0,0.0,0.0,
2.7017160000000002,0.0,0.0,false,4324685.540223304,,38494.0,0.125,-412.5,-734.173253774643,0.0,0.125,1.8737791050000001,4.963999999999999,0.0,-119141.0,15.75,0.0,734.173253774643,0.0,0.0,2.718505581,4.948999999999997,0.0,70912.0,0.0,-412.5,-734.173253774643,0.0,0.0,4.029540603,2.346685808637024E-15,0.0,-96151.0,0.0,427.5,734.173253774643,0.0,0.0,2.559814191,2.343606790115397E-15,0.0,2.0299999713897705,1.2899999618530273,68.86000061035156,-0.05633544921875,0.004638671875,1.26422119140625,34.34000015258789,0.0,-68.0,-0.90985107421875,-2.11962890625,Waiting,0.0,0.0,-113.0,0.0,0.0,0.0,0.0,0.0,
2.7688369999999995,0.0,0.0,false,4324478.939896966,,38494.0,0.125,-397.5,-734.173253774643,0.0,0.125,1.874999808,4.963999999999999,0.0,-119141.0,19.875,0.0,734.173253774643,0.0,0.0,2.719726284,4.948999999999997,0.0,70912.0,0.0,-412.5,-734.173253774643,0.0,0.0,4.029540603,2.346685808637024E-15,0.0,-96151.0,0.0,435.0,734.173253774643,0.0,0.0,2.559814191,2.343606790115397E-15,0.0,2.0199999809265137,1.1799999475479126,68.69000244140625,-0.01092529296875,0.0654296875,1.2158203125,34.34000015258789,0.0,7.0,-0.895660400390625,-2.1289825439453125,Waiting,0.0,0.0,-113.0,0.0,0.0,0.0,0.0,0.0,
2.8325679999999993,0.0,0.0,false,4324249.403147354,,38427.0,0.25,-435.0,-754.0157639980315,0.0,0.125,1.8737791050000001,4.963999999999999,0.0,-119132.0,25.375,127.5,754.0157639980315,0.0,0.0,2.719726284,4.948999999999997,0.0,70845.0,0.125,-427.5,-754.0157639980315,0.0,0.0,4.029540603,2.346685808637024E-15,0.0,-96081.0,0.25,450.0,754.0157639980315,0.0,0.0,2.559814191,2.343606790115397E-15,0.0,1.8799999952316284,1.0399999618530273,68.4800033569336,-0.06866455078125,-0.0457763671875,0.83349609375,34.34000015258789,0.0,-98.0,-0.878753662109375,-2.1392822265625,Waiting,0.0,0.0,-113.0,0.0,0.0,0.0,0.0,0.0,
2.897303,0.0,0.0,false,4323997.535469107,,38427.0,0.25,-502.5,-793.700784444809,0.0,0.125,1.8737791050000001,4.963999999999999,0.0,-119132.0,28.5,150.0,793.700784444809,0.0,0.0,2.720946987,4.948999999999997,0.0,70768.0,0.125,-465.0,-793.700784444809,0.0,0.0,4.0307613060000005,2.346685808637024E-15,0.0,-95997.0,0.375,487.5,793.700784444809,0.0,0.0,2.561034894,2.343606790115397E-15,0.0,1.809999942779541,0.8100000023841858,68.27999877929688,-0.0875244140625,0.0120849609375,0.738037109375,34.34000015258789,0.0,-46.0,-0.8661041259765625,-2.14581298828125,Waiting,0.0,0.0,-113.0,0.0,0.0,0.0,0.0,0.0,
2.9648790000000007,0.0,0.0,false,4323711.835287389,,38340.0,0.5,-592.5,-972.2834515571594,0.0,0.125,1.8737791050000001,4.963999999999999,0.0,-119116.0,38.375,30.0,972.2834515571594,0.0,0.0,2.72216769,4.948999999999997,0.0,70768.0,0.875,-532.5,-972.2834515571594,0.0,0.0,4.020995682000001,2.346685808637024E-15,0.0,-95997.0,1.0,592.5,972.2834515571594,0.0,0.0,2.559814191,2.343606790115397E-15,0.0,1.8700000047683716,0.4699999988079071,67.97000122070312,-0.11492919921875,-0.03057861328125,0.9488525390625,34.34000015258789,0.0,-103.0,-0.8512725830078125,-2.1511383056640625,Waiting,0.0,0.0,-113.0,0.0,0.0,0.0,0.0,0.0,
3.040202999999994,0.0,0.0,false,4323957.758719268,,38239.0,0.875,-630.0,-793.700784444809,0.0,0.125,1.8725584020000001,4.963999999999999,0.0,-119026.0,42.25,420.0,793.700784444809,0.0,0.0,2.718505581,4.948999999999997,0.0,70662.0,0.375,-667.5,-793.700784444809,0.0,0.0,4.029540603,2.346685808637024E-15,0.0,-95886.0,0.5,682.5,793.700784444809,0.0,0.0,2.559814191,2.343606790115397E-15,0.0,1.8700000047683716,0.10999999940395355,67.63999938964844,-0.13543701171875,0.0555419921875,1.139892578125,34.34000015258789,0.0,-35.0,-0.838134765625,-2.1532135009765625,Waiting,0.0,0.0,-113.0,0.0,0.0,0.0,0.0,0.0,
3.1068369999999996,0.0,0.0,false,4324180.172620749,,38239.0,0.25,-615.0,-436.53545022010803,0.0,0.125,1.8737791050000001,4.963999999999999,0.0,-119026.0,23.875,480.0,436.53545022010803,0.0,0.0,2.719726284,4.948999999999997,0.0,70662.0,0.0,-652.5,-436.53545022010803,0.0,0.0,4.027099197,2.346685808637024E-15,0.0,-95886.0,0.25,682.5,436.53545022010803,0.0,0.0,2.559814191,2.343606790115397E-15,0.0,1.9299999475479126,-0.07999999821186066,67.33000183105469,0.0142822265625,0.06134033203125,1.44140625,34.34000015258789,0.0,17.0,-0.8284454345703125,-2.152557373046875,Waiting,0.0,0.0,-113.0,0.0,0.0,0.0,0.0,0.0,
3.1755889999999924,0.0,0.0,false,4324379.68,,38153.0,0.125,-540.0,-436.53545022010803,0.0,0.125,1.8737791050000001,4.963999999999999,0.0,-119013.0,29.75,45.0,436.53545022010803,0.0,0.0,2.718505581,4.948999999999997,0.0,70568.0,0.0,-570.0,-436.53545022010803,0.0,0.0,4.0307613060000005,2.346685808637024E-15,0.0,-95785.0,0.0,637.5,436.53545022010803,0.0,0.0,2.559814191,2.343606790115397E-15,0.0,1.8300000429153442,0.0,67.12999725341797,-0.0875244140625,0.00213623046875,1.46673583984375,34.34000015258789,0.0,-75.0,-0.8283538818359375,-2.152252197265625,Waiting,0.0,0.0,-113.0,0.0,0.0,0.0,0.0,0.0,
3.2478150000000023,0.0,0.0,false,4324544.6763781775,,38153.0,0.125,-600.0,-436.53545022010803,0.0,0.125,1.8737791050000001,4.963999999999999,0.0,-119013.0,38.5,52.5,436.53545022010803,0.0,0.0,2.719726284,4.948999999999997,0.0,70568.0,0.0,-675.0,-436.53545022010803,0.0,0.0,4.029540603,2.346685808637024E-15,0.0,-95669.0,0.0,705.0,436.53545022010803,0.0,0.0,2.559814191,2.343606790115397E-15,0.0,1.7999999523162842,0.05000000074505806,66.77999877929688,-0.03167724609375,0.001220703125,1.289306640625,34.34000015258789,0.0,-49.0,-0.828033447265625,-2.1520538330078125,Waiting,0.0,0.0,-113.0,0.0,0.0,0.0,0.0,0.0,
3.3163859999999987,0.0,0.0,false,4324686.84865791,,38045.0,0.125,-652.5,-416.69290244579315,0.0,0.125,1.8725584020000001,4.963999999999999,0.0,-118965.0,34.0,555.0,416.69290244579315,0.0,0.0,2.718505581,4.948999999999997,0.0,70461.0,0.0,-652.5,-416.69290244579315,0.0,0.0,4.0283199000000005,2.346685808637024E-15,0.0,-95669.0,0.0,735.0,416.69290244579315,0.0,0.0,2.559814191,2.343606790115397E-15,0.0,1.7400000095367432,0.05999999865889549,66.31999969482422,-0.05145263671875,-0.04376220703125,1.13360595703125,34.33000183105469,0.0,-92.0,-0.828369140625,-2.1524505615234375,Waiting,0.0,0.0,-113.0,0.0,0.0,0.0,0.0,0.0,
3.3878340000000025,0.0,0.0,false,4324794.5235512415,,37936.0,0.125,-660.0,-905.1756327402225,0.0,0.125,1.8737791050000001,0.8824427498183703,0.0,-118817.0,30.125,870.0,905.1756327402225,0.0,0.0,2.718505581,0.8797762225727466,0.0,70353.0,0.0,-645.0,-905.1756327402225,0.0,0.0,4.067382396,0.8806650649879545,0.0,-95547.0,0.0,765.0,905.1756327402225,0.0,0.0,2.558593488,0.8795095698481843,0.0,1.6299999952316284,0.09000000357627869,65.94000244140625,0.0712890625,0.02117919921875,0.922119140625,34.33000183105469,0.0,23.0,-0.8295135498046875,-2.1526031494140625,Waiting,0.0,0.0,-113.0,0.0,0.0,0.0,0.0,0.0,
3.4515969999999943,0.0,0.0,false,4324879.383561644,,37936.0,2.75,-720.0,-1810.025088464774,0.0,4.625,2.078857209,1.0663628492619432,0.0,-118817.0,42.25,892.5,1810.025088464774,0.0,5.625,3.0090328950000003,1.0631405602331498,0.0,70353.0,2.375,-720.0,-1810.025088464774,0.0,6.25,4.437255405,1.0642146565760808,0.0,-95547.0,1.125,750.0,1810.025088464774,0.0,7.0,2.886962595,1.0628183313302706,0.0,1.4900000095367432,0.05999999865889549,65.7300033569336,-0.02459716796875,-0.10888671875,1.21856689453125,34.33000183105469,0.0,-138.0,-0.8309783935546875,-2.1531524658203125,Waiting,0.0,0.0,-113.0,0.0,0.0,0.0,0.0,0.0,
3.5113649999999907,0.0,0.0,false,4324929.837375178,,37778.0,5.25,-960.0,-1868.1498115151603,0.0,0.5,2.5280759130000003,1.0718824011921897,0.0,-118749.0,61.875,592.5,1868.1498115151603,0.0,2.25,3.38134731,1.0686434334206578,0.0,70199.0,4.875,-945.0,-1868.1498115151603,0.0,0.125,4.842528801,1.0697230893445018,0.0,-95408.0,6.375,892.5,1868.1498115151603,0.0,0.875,3.240966465,1.0683195366435048,0.0,0.3700000047683716,0.07999999821186066,65.66999816894531,0.2503662109375,-0.56500244140625,1.00457763671875,34.33000183105469,0.0,-418.0,-0.837249755859375,-2.15570068359375,Waiting,0.0,0.0,-113.0,0.0,0.0,0.0,0.0,0.0,
3.577425999999992,0.0,0.0,false,4324957.558471193,,37778.0,6.125,-1042.5,-1868.1498115151603,0.0,0.375,2.8393551780000004,1.0718824011921897,0.417480426,-118749.0,57.375,277.5,1868.1498115151603,0.0,0.5,3.5803218990000003,1.0686434334206578,0.0,70199.0,9.125,-900.0,-1868.1498115151603,0.0,0.125,0.172119123,1.0697230893445018,0.0,-95408.0,11.625,727.5,1868.1498115151603,0.0,0.5,3.44238246,1.0683195366435048,0.0,-0.5600000023841858,1.2799999713897705,66.30999755859375,0.8697509765625,0.02593994140625,1.0972900390625,34.33000183105469,0.0,373.0,-0.849456787109375,-2.16900634765625,Waiting,0.0,0.0,-113.0,0.0,0.0,0.0,0.0,0.0,
3.6361689999999944,0.0,0.0,false,4324962.56629598,,37605.0,3.0,-1095.0,-257.95276433229446,0.0,0.125,3.07617156,1.2409999999999985,0.0,-118691.0,56.0,330.0,257.95276433229446,0.0,0.75,3.6865230600000003,1.2372499999999984,0.0,70094.0,6.5,-720.0,-257.95276433229446,0.0,0.125,0.279540987,1.2384999999999984,0.0,-95318.0,6.75,555.0,257.95276433229446,0.0,0.25,3.565673463,1.2368749999999984,0.0,-0.7799999713897705,2.0,68.08000183105469,-0.06072998046875,0.2930908203125,1.05926513671875,34.33000183105469,0.0,248.0,-0.8609466552734375,-2.19342041015625,Waiting,0.0,0.0,-113.0,0.0,0.0,0.0,0.0,0.0,
3.707466,0.0,0.0,false,4324944.880273661,,37605.0,0.0,-855.0,0.0,0.0,0.125,3.135986007,1.2409999999999985,0.17333982599999986,-118691.0,26.0,172.5,0.0,0.0,1.125,3.803710548,1.2372499999999984,0.10131834900000003,70094.0,0.5,-502.5,0.0,0.0,0.125,0.302734344,1.2384999999999984,0.09033202199999968,-95318.0,0.875,495.0,0.0,0.0,0.25,3.6853023570000003,1.2368749999999984,0.11962889399999987,-0.6600000262260437,2.1600000858306885,68.76000213623047,-0.06781005859375,0.898681640625,1.3338623046875,34.33000183105469,0.0,809.0,-0.8709869384765625,-2.2183074951171875,Waiting,0.0,0.0,-113.0,0.0,0.0,0.0,0.0,0.0,
3.766866999999998,0.0,0.0,false,4324892.885722428,,37509.0,0.0,-592.5,0.0,0.0,0.125,3.135986007,1.2409999999999985,0.04150390200000009,-118669.0,0.0,127.5,0.0,0.0,0.125,3.8964839760000003,1.2372499999999984,0.1171874879999999,70023.0,0.0,-480.0,0.0,0.0,0.0,0.301513641,1.2384999999999984,0.030517575000000186,-95237.0,0.0,517.5,0.0,0.0,0.0,3.770751567,1.2368749999999984,0.12573240900000027,0.03999999910593033,2.3299999237060547,68.66999816894531,0.22723388671875,0.1181640625,0.93304443359375,34.33000183105469,0.0,178.0,-0.877288818359375,-2.2469024658203125,Waiting,0.0,0.0,-113.0,0.0,0.0,0.0,0.0,0.0,
3.83243299999999,0.0,0.0,false,4324818.242735043,,37509.0,0.0,-607.5,0.0,0.0,0.125,3.131103195,1.2409999999999985,0.0,-118669.0,0.0,112.5,0.0,0.0,0.0,3.9392085810000004,1.2372499999999984,0.0927734280000001,70023.0,0.0,-510.0,0.0,0.0,0.0,0.302734344,1.2384999999999984,0.0,-95237.0,0.0,487.5,0.0,0.0,0.0,3.8000484390000002,1.2368749999999984,0.08056639799999976,0.3700000047683716,2.059999942779541,68.91000366210938,0.0242919921875,0.1319580078125,1.16180419921875,34.33000183105469,0.0,109.0,-0.8793792724609375,-2.2693939208984375,Waiting,0.0,0.0,-113.0,0.0,0.0,0.0,0.0,0.0,
3.891294999999998,0.0,0.0,false,4324720.38735403,,37432.0,0.0,-472.5,0.0,0.0,0.125,3.131103195,1.2409999999999985,-0.003662108999999969,-118668.0,0.0,7.5,0.0,0.0,0.0,3.962401938,1.2372499999999984,0.037841793000000123,69943.0,0.0,-472.5,0.0,0.0,0.0,0.302734344,1.2384999999999984,0.0,-95161.0,0.0,465.0,0.0,0.0,0.0,3.804931251,1.2368749999999984,0.029296872000000196,0.7400000095367432,2.0899999141693115,69.02999877929688,0.07769775390625,0.09332275390625,0.9403076171875,34.33000183105469,0.0,91.0,-0.87908935546875,-2.2899932861328125,Waiting,0.0,0.0,-113.0,0.0,0.0,0.0,0.0,0.0,
3.9526949999999923,0.0,0.0,false,4324599.922551253,,37432.0,0.0,-405.0,0.0,0.0,0.125,3.150634443,1.2409999999999985,0.0,-118668.0,0.0,0.0,0.0,0.0,0.0,3.968505453,1.2372499999999984,0.023193356999999803,69943.0,0.0,-375.0,0.0,0.0,0.0,0.286865205,1.2384999999999984,0.0,-95161.0,0.0,375.0,0.0,0.0,0.0,3.806151954,1.2368749999999984,0.004882811999999959,1.0399999618530273,2.069999933242798,69.26000213623047,-0.03253173828125,0.10675048828125,0.84808349609375,34.33000183105469,0.0,62.0,-0.87640380859375,-2.3092803955078125,Waiting,0.0,0.0,-113.0,0.0,0.0,0.0,0.0,0.0,
4.011409,0.0,0.0,false,4324445.246797609,,37377.0,0.0,-360.0,0.0,0.0,0.125,3.131103195,1.2409999999999985,0.0,-118668.0,0.0,0.0,0.0,0.0,0.0,3.969726156,1.2372499999999984,0.0012207029999999897,69895.0,0.0,-285.0,0.0,0.0,0.0,0.302734344,1.2384999999999984,0.0,-95110.0,0.0,307.5,0.0,0.0,0.0,3.806151954,1.2368749999999984,0.0,1.2999999523162842,1.909999966621399,69.38999938964844,0.02032470703125,0.170166015625,0.849853515625,34.33000183105469,0.0,138.0,-0.8720550537109375,-2.3266754150390625,Waiting,0.0,0.0,-113.0,0.0,0.0,0.0,0.0,0.0,
4.069834999999991,0.0,0.0,false,4324268.006829823,,37377.0,0.375,-277.5,-992.1259617805481,0.0,0.125,3.132323898,1.2409999999999985,0.0,-118668.0,1.625,0.0,992.1259617805481,0.0,0.0,3.968505453,1.2372499999999984,0.0,69895.0,0.875,-255.0,-992.1259617805481,0.0,0.0,0.301513641,1.2384999999999984,0.0,-95110.0,1.125,255.0,992.1259617805481,0.0,0.0,3.801269142,1.2368749999999984,0.0,1.4700000286102295,1.850000023841858,69.37999725341797,0.02685546875,0.02056884765625,1.004150390625,34.33000183105469,0.0,-6.0,-0.8647918701171875,-2.3470001220703125,Waiting,0.0,0.0,-113.0,0.0,0.0,0.0,0.0,0.0,
4.135259999999994,0.0,0.0,false,4324068.221906116,,37316.0,3.0,-352.5,-1468.346507549286,0.0,0.125,3.132323898,1.2409999999999985,0.0,-118669.0,9.0,0.0,1468.346507549286,0.0,0.0,3.961181235,1.2372499999999984,0.0,69837.0,5.125,-382.5,-1468.346507549286,0.0,0.0,0.295410126,1.2384999999999984,0.0,-95066.0,5.375,285.0,1468.346507549286,0.0,0.0,3.813476172,1.2368749999999984,0.0,1.2200000286102295,1.850000023841858,69.55000305175781,-0.08447265625,-0.2547607421875,0.818603515625,34.33000183105469,0.0,-293.0,-0.8614654541015625,-2.358245849609375,Waiting,0.0,0.0,-113.0,0.0,0.0,0.0,0.0,0.0,
4.205709000000002,0.0,0.0,false,4323845.328782707,,37316.0,2.125,-405.0,0.0,0.0,0.125,3.1542965520000004,1.2409999999999985,0.0,-118669.0,8.75,0.0,0.0,0.0,0.0,3.973388265,1.2372499999999984,0.0,69837.0,2.75,-337.5,0.0,0.0,0.0,0.311279265,1.2384999999999984,0.004882811999999959,-95066.0,4.25,390.0,0.0,0.0,0.0,3.811034766,1.2368749999999984,0.0,0.6800000071525574,1.840000033378601,69.87000274658203,0.00787353515625,-0.1456298828125,0.50518798828125,34.33000183105469,0.0,-145.0,-0.8611297607421875,-2.3773956298828125,Waiting,0.0,0.0,-113.0,0.0,0.0,0.0,0.0,0.0,
4.267914999999993,0.0,0.0,false,4323588.904179699,,37277.0,0.0,-202.5,0.0,0.0,0.125,3.132323898,1.2409999999999985,0.0012207029999999897,-118669.0,0.0,15.0,0.0,0.0,0.0,3.973388265,1.2372499999999984,0.009765623999999917,69809.0,0.0,-165.0,0.0,0.0,0.0,0.301513641,1.2384999999999984,-0.0024414059999999793,-95025.0,0.0,210.0,0.0,0.0,0.0,3.811034766,1.2368749999999984,0.0,1.149999976158142,1.6799999475479126,69.98999786376953,0.094970703125,0.24139404296875,0.80108642578125,34.33000183105469,0.0,235.0,-0.860565185546875,-2.3923492431640625,Waiting,0.0,0.0,-113.0,0.0,0.0,0.0,0.0,0.0,
4.332553,0.0,0.0,false,4323309.99886299,,37277.0,0.0,-202.5,0.0,0.0,0.125,3.131103195,1.2409999999999985,0.0,-118669.0,0.0,90.0,0.0,0.0,0.0,3.972167562,1.2372499999999984,0.0,69779.0,0.0,-210.0,0.0,0.0,0.0,0.302734344,1.2384999999999984,0.0,-94991.0,0.0,210.0,0.0,0.0,0.0,3.809814063,1.2368749999999984,0.0,1.850000023841858,1.6100000143051147,70.31999969482422,-0.01513671875,0.2646484375,0.9786376953125,34.36000061035156,0.0,204.0,-0.853790283203125,-2.3912811279296875,Waiting,0.0,0.0,-113.0,0.0,0.0,0.0,0.0,0.0,
4.400543999999995,0.0,0.0,false,4323555.075873828,,37238.0,0.0,-217.5,0.0,0.0,0.125,3.131103195,1.2409999999999985,0.0012207029999999897,-118656.0,0.0,30.0,0.0,0.0,0.0,3.973388265,1.2372499999999984,0.0,69779.0,0.0,-52.5,0.0,0.0,0.0,0.301513641,1.2384999999999984,0.0,-94991.0,0.0,105.0,0.0,0.0,0.0,3.811034766,1.2368749999999984,0.0,2.390000104904175,1.3200000524520874,70.4000015258789,-0.10906982421875,0.18621826171875,1.31097412109375,34.36000061035156,0.0,76.0,-0.84423828125,-2.3874969482421875,Waiting,0.0,0.0,-113.0,0.0,0.0,0.0,0.0,0.0,
4.466362999999998,0.0,0.0,false,4323776.629545455,,37231.0,0.125,-60.0,-429.9212738871575,0.0,3.375,3.03955047,0.5533560492066895,0.0,-118656.0,0.625,0.0,429.9212738871575,0.0,2.5,4.063720287000001,1.9228160581136347,0.0,69783.0,0.125,-7.5,429.9212738871575,0.0,3.25,0.457763625,1.924758689006862,0.0,-94988.0,0.375,30.0,-429.9212738871575,0.0,3.75,3.809814063,0.5515167311543325,0.0,2.609999895095825,1.3899999856948853,70.18000030517578,0.046630859375,0.08148193359375,1.0086669921875,34.36000061035156,0.0,40.0,-0.8292999267578125,-2.3800048828125,Waiting,0.0,0.0,-113.0,0.0,0.0,0.0,0.0,0.0,
4.531661999999996,0.0,0.0,false,4323975.259301335,,37231.0,0.25,-15.0,0.0,0.0,1.75,2.703857145,0.5533560492066895,0.0,-118656.0,0.375,0.0,0.0,0.0,1.75,4.346923383,1.9228160581136347,0.12084959700000031,69783.0,0.125,52.5,0.0,0.0,0.75,0.766601484,1.924758689006862,0.0,-94988.0,0.25,-75.0,0.0,0.0,1.5,3.4667965200000004,0.5515167311543325,-0.009765623999999917,2.4200000762939453,1.3600000143051147,70.30999755859375,-0.0390625,0.09320068359375,1.0181884765625,34.36000061035156,0.0,25.0,-0.8180084228515625,-2.374420166015625,Waiting,0.0,0.0,-113.0,0.0,0.0,0.0,0.0,0.0,
4.589413,0.0,0.0,false,4324139.934128337,,37255.0,0.0,120.0,0.0,0.0,0.875,2.401122801,0.5533560492066895,-0.35522457299999965,-118656.0,0.0,0.0,0.0,0.0,0.875,4.584960468,1.9228160581136347,0.29174801699999975,69788.0,0.0,52.5,0.0,0.0,0.375,1.011962787,1.924758689006862,0.311279265,-95004.0,0.0,-105.0,0.0,0.0,1.125,3.122558274,0.5515167311543325,-0.36254879100000004,2.130000114440918,1.3300000429153442,70.25,-0.01593017578125,-0.14794921875,0.8648681640625,34.36000061035156,0.0,-181.0,-0.8082427978515625,-2.36907958984375,Waiting,0.0,0.0,-113.0,0.0,0.0,0.0,0.0,0.0,
4.651425999999992,0.0,0.0,false,4324281.185353392,,37255.0,0.25,112.5,393.75,0.0,2.125,2.337646245,1.2410000000000012,0.0,-118656.0,0.25,0.0,-393.75,0.0,0.75,4.624022964,1.237250000000001,0.0,69788.0,0.125,0.0,393.75,0.0,3.125,0.9838866180000001,1.2385000000000013,0.0,-95004.0,0.375,-7.5,-393.75,0.0,0.875,3.0017086770000003,1.236875000000001,0.0,1.8700000047683716,1.2000000476837158,70.16999816894531,0.04022216796875,0.019287109375,0.97271728515625,34.36000061035156,0.0,-5.0,-0.8010101318359375,-2.363739013671875,Waiting,0.0,0.0,-113.0,0.0,0.0,0.0,0.0,0.0,
4.710665999999997,0.0,0.0,false,4324399.580022701,,37282.0,2.375,90.0,1043.4375,0.0,2.25,2.5805661420000003,1.2410000000000012,0.0,-118658.0,3.875,0.0,-1043.4375,0.0,2.75,4.464110871,1.237250000000001,0.0,69798.0,3.25,15.0,1043.4375,0.0,1.75,0.679931571,1.2385000000000013,0.0,-95016.0,5.125,-45.0,-1043.4375,0.0,5.5,3.2678219310000003,1.236875000000001,0.0,2.2699999809265137,1.159999966621399,70.25,-0.0010986328125,0.33074951171875,0.9605712890625,34.36000061035156,0.0,268.0,-0.800384521484375,-2.3570709228515625,Waiting,0.0,0.0,-113.0,0.0,0.0,0.0,0.0,0.0,
4.776688999999998,0.0,0.0,false,4324495.171631206,,37282.0,2.0,150.0,0.0,0.0,0.5,2.835693069,1.2410000000000012,0.262451145,-118658.0,4.0,-15.0,0.0,0.0,0.5,4.201659726,1.237250000000001,-0.21362302499999952,69798.0,3.375,90.0,0.0,0.0,0.125,0.45166011,1.2385000000000013,-0.2966308289999997,-95016.0,5.125,-97.5,0.0,0.0,0.25,3.5729976810000004,1.236875000000001,0.25878903600000003,2.2200000286102295,1.059999942779541,70.13999938964844,-0.01080322265625,-0.20361328125,0.997802734375,34.36000061035156,0.0,-237.0,-0.798004150390625,-2.35089111328125,Waiting,0.0,0.0,-113.0,0.0,0.0,0.0,0.0,0.0,
4.8352519999999934,0.0,0.0,false,4324556.288145207,,37269.0,0.0,-37.5,0.0,0.0,0.875,3.043212579,1.2410000000000012,0.24291989700000016,-118660.0,0.0,-15.0,0.0,0.0,0.75,3.981933186,1.237250000000001,-0.24658200600000058,69802.0,0.0,52.5,0.0,0.0,0.125,0.306396453,1.2385000000000013,-0.22949216400000028,-95018.0,0.0,-7.5,0.0,0.0,0.875,3.804931251,1.236875000000001,0.30639645300000007,1.9500000476837158,1.100000023841858,70.01000213623047,0.013916015625,0.01300048828125,1.0028076171875,34.36000061035156,0.0,-21.0,-0.7971038818359375,-2.3451080322265625,Waiting,0.0,0.0,-113.0,0.0,0.0,0.0,0.0,0.0,
4.904027999999991,0.0,0.0,false,4324594.64700879,,37269.0,0.5,-45.0,-628.3464699983597,0.0,2.25,3.0639645300000002,0.5533560492066895,0.0,-118660.0,1.0,0.0,628.3464699983597,0.0,0.25,3.9343257690000004,1.9228160581136347,0.0,69802.0,0.5,7.5,628.3464699983597,0.0,2.25,0.344238246,1.924758689006862,0.0,-95018.0,1.0,-15.0,-628.3464699983597,0.0,1.875,3.8366695290000004,0.5515167311543325,0.0,1.8799999952316284,1.1100000143051147,69.95999908447266,0.04632568359375,-0.06683349609375,0.73919677734375,34.36000061035156,0.0,-74.0,-0.7971954345703125,-2.3450775146484375,Waiting,0.0,0.0,-113.0,0.0,0.0,0.0,0.0,0.0,
4.962548999999999,0.0,0.0,false,4324610.267573697,,37256.0,2.125,-90.0,-677.9527455568314,0.0,1.75,2.872314159,0.5533560492066895,0.0,-118661.0,3.5,0.0,677.9527455568314,0.0,3.125,4.102782783,1.9228160581136347,0.0,69813.0,2.75,75.0,677.9527455568314,0.0,1.375,0.675048759,1.924758689006862,0.0,-95028.0,2.0,-45.0,-677.9527455568314,0.0,4.5,3.5876461170000002,0.5515167311543325,0.0,1.7599999904632568,1.0299999713897705,70.16999816894531,-0.052001953125,-0.0523681640625,0.85931396484375,34.36000061035156,0.0,-97.0,-0.79852294921875,-2.3449554443359375,Waiting,0.0,0.0,-113.0,0.0,0.0,0.0,0.0,0.0,
5.0318499999999915,0.0,0.0,false,4324602.588835364,,37256.0,0.875,-75.0,0.0,0.0,0.75,2.651366916,0.5533560492066895,-0.24536130300000014,-118661.0,2.0,0.0,0.0,0.0,1.0,4.359130413,1.9228160581136347,0.20263669800000006,69813.0,2.0,30.0,0.0,0.0,0.375,0.8569335060000001,1.924758689006862,0.0,-95028.0,3.0,-75.0,0.0,0.0,0.375,3.305663724,0.5515167311543325,-0.262451145,1.6699999570846558,1.0299999713897705,70.61000061035156,0.13525390625,-0.0447998046875,0.89093017578125,34.36000061035156,0.0,-27.0,-0.8013916015625,-2.3450164794921875,Waiting,0.0,0.0,-113.0,0.0,0.0,0.0,0.0,0.0,
5.089160999999993,0.0,0.0,false,4324561.1490084985,,37253.0,0.0,-7.5,0.0,0.0,0.875,2.4829099020000003,0.5533560492066895,-0.20629880699999958,-118660.0,0.0,0.0,0.0,0.0,1.5,4.559325705,1.9228160581136347,0.2441405999999997,69808.0,0.0,-37.5,0.0,0.0,0.375,0.981445212,1.924758689006862,0.17089842000000033,-95018.0,0.0,60.0,0.0,0.0,0.75,3.1005856200000004,0.5515167311543325,-0.28442379900000025,1.600000023841858,0.9200000166893005,70.69000244140625,0.0318603515625,0.00860595703125,0.92083740234375,34.36000061035156,0.0,-10.0,-0.805084228515625,-2.34588623046875,Waiting,0.0,0.0,-113.0,0.0,0.0,0.0,0.0,0.0,
5.151661999999996,0.0,0.0,false,4324497.035400736,,37253.0,0.0,0.0,0.0,0.0,0.25,2.414550534,0.5533560492066895,-0.1611327960000004,-118660.0,0.0,0.0,0.0,0.0,0.5,4.622802261,1.9228160581136347,0.20263669800000006,69808.0,0.0,-52.5,0.0,0.0,0.125,0.9863280240000001,1.924758689006862,0.10986326999999996,-95018.0,0.0,67.5,0.0,0.0,0.0,3.037109064,0.5515167311543325,-0.21484372799999996,1.7799999713897705,0.8999999761581421,70.61000061035156,-0.0015869140625,0.08978271484375,1.11529541015625,34.36000061035156,0.0,45.0,-0.8043975830078125,-2.34588623046875,Waiting,0.0,0.0,-113.0,0.0,0.0,0.0,0.0,0.0,
5.210688999999999,0.0,0.0,false,4324409.687429219,,37253.0,0.0,0.0,0.0,0.0,0.125,2.414550534,0.5533560492066895,-0.046386714000000495,-118660.0,0.0,0.0,0.0,0.0,0.0,4.617919449,1.9228160581136347,0.03417968399999971,69802.0,0.0,-22.5,0.0,0.0,0.0,0.977783103,1.924758689006862,0.010986326999999907,-95016.0,0.0,15.0,0.0,0.0,0.0,3.045653985,0.5515167311543325,-0.04150390200000009,1.7999999523162842,0.8600000143051147,70.69999694824219,-0.01971435546875,0.0111083984375,1.1046142578125,34.36000061035156,0.0,-34.0,-0.80291748046875,-2.3455810546875,Waiting,0.0,0.0,-113.0,0.0,0.0,0.0,0.0,0.0,
5.270021999999997,0.0,0.0,false,4324299.704500425,,37253.0,0.0,0.0,0.0,0.0,0.125,2.413329831,0.5533560492066895,0.0,-118660.0,0.0,0.0,0.0,0.0,0.0,4.617919449,1.9228160581136347,-0.003662108999999525,69802.0,0.0,0.0,0.0,0.0,0.0,0.963134667,1.924758689006862,-0.015869138999999866,-95016.0,0.0,0.0,0.0,0.0,0.0,3.074950857,0.5515167311543325,0.01342773300000033,1.6699999570846558,0.8299999833106995,70.73999786376953,-0.011962890625,0.02978515625,1.044921875,34.36000061035156,0.0,-9.0,-0.8022918701171875,-2.345458984375,Waiting,0.0,0.0,-113.0,0.0,0.0,0.0,0.0,0.0,
5.336478999999992,0.0,0.0,false,4324155.477079797,,37253.0,0.0,0.0,0.0,0.0,0.125,2.414550534,0.5533560492066895,0.0,-118660.0,0.0,0.0,0.0,0.0,0.0,4.617919449,1.9228160581136347,0.0,69802.0,0.0,0.0,0.0,0.0,0.0,0.963134667,1.924758689006862,-0.014648435999999876,-95016.0,0.0,0.0,0.0,0.0,0.0,3.089599293,0.5515167311543325,0.025634762999999783,1.7300000190734863,0.7799999713897705,70.69000244140625,-0.00433349609375,0.0299072265625,1.04791259765625,34.36000061035156,0.0,-7.0,-0.80157470703125,-2.3453216552734375,Waiting,0.0,0.0,-113.0,0.0,0.0,0.0,0.0,0.0,
5.396554999999993,0.0,0.0,false,4323988.659688826,,37253.0,3.0,45.0,1181.25,0.0,0.625,2.419433346,1.2410000000000012,0.0,-118660.0,5.125,0.0,-1181.25,0.0,0.625,4.6008296070000005,1.237250000000001,0.0,69802.0,3.875,7.5,1181.25,0.0,0.875,0.930175686,1.2385000000000013,0.0,-95016.0,2.5,-7.5,-1181.25,0.0,2.0,3.1127926500000003,1.236875000000001,0.0,1.7599999904632568,0.7400000095367432,70.70999908447266,-0.1029052734375,0.43243408203125,1.0313720703125,34.36000061035156,0.0,339.0,-0.8015899658203125,-2.3451690673828125,Waiting,0.0,0.0,-113.0,0.0,0.0,0.0,0.0,0.0,
5.461815999999992,0.0,0.0,false,4323788.228506788,,37285.0,14.25,247.5,1791.5625,0.0,2.5,2.55126927,1.2410000000000012,0.0,-118664.0,21.625,-45.0,-1791.5625,0.0,2.0,4.493407743000001,1.237250000000001,0.0,69811.0,16.5,75.0,1791.5625,0.0,1.5,0.6982421160000001,1.2385000000000013,0.0,-95026.0,14.5,-82.5,-1791.5625,0.0,1.375,3.3215328630000003,1.236875000000001,0.0,2.109999895095825,0.699999988079071,70.51000213623047,-0.13970947265625,0.21063232421875,1.16845703125,34.36000061035156,0.0,106.0,-0.79949951171875,-2.34326171875,Waiting,0.0,0.0,-113.0,0.0,0.0,0.0,0.0,0.0,
5.52582699999999,1.375,0.0,false,4323564.672886627,,37285.0,5.625,135.0,0.0,0.0,1.75,2.7880856520000004,1.2410000000000012,0.14892576600000051,-118664.0,6.375,-75.0,0.0,0.0,2.25,4.256591361,1.237250000000001,-0.12573240900000027,69811.0,9.25,75.0,0.0,0.0,0.125,0.47241206100000005,1.2385000000000013,0.0,-95026.0,11.75,-82.5,0.0,0.0,0.5,3.598632444,1.236875000000001,0.0,1.649999976158142,0.8299999833106995,70.31999969482422,0.12652587890625,-0.21649169921875,0.71282958984375,34.36000061035156,0.0,-184.0,-0.79754638671875,-2.34100341796875,Waiting,0.0,0.0,-113.0,0.0,0.0,0.0,0.0,0.0,
5.5914309999999965,1.375,0.0,false,4323318.591294517,,37277.0,0.0,-105.0,0.0,0.0,1.25,3.0053707860000003,1.2410000000000012,0.2758788779999999,-118671.0,0.0,0.0,0.0,0.0,2.125,4.050292554,1.237250000000001,-0.26977536299999993,69806.0,0.0,-75.0,0.0,0.0,0.125,0.311279265,1.2385000000000013,-0.24658200600000013,-95035.0,0.0,-37.5,0.0,0.0,0.875,3.7829585970000004,1.236875000000001,0.29174801699999975,1.340000033378601,0.6899999976158142,70.41999816894531,-0.0101318359375,-0.022705078125,0.9716796875,34.36000061035156,0.0,-50.0,-0.80047607421875,-2.3420257568359375,Waiting,0.0,0.0,-113.0,0.0,0.0,0.0,0.0,0.0,
5.649063999999998,0.0,0.0,false,4323049.42413111,,37277.0,0.0,-75.0,0.0,0.0,0.375,3.098144214,1.2410000000000012,0.19042966799999972,-118671.0,0.0,30.0,0.0,0.0,0.375,3.963622641,1.237250000000001,-0.18676755899999975,69805.0,0.0,-60.0,0.0,0.0,0.0,0.272216769,1.2385000000000013,-0.1403808449999997,-95033.0,0.0,-7.5,0.0,0.0,0.0,3.8293453110000004,1.236875000000001,0.16967771700000034,1.4299999475479126,0.6000000238418579,70.41000366210938,-0.0250244140625,0.0816650390625,1.03466796875,34.36000061035156,0.0,40.0,-0.803924560546875,-2.3428955078125,Waiting,0.0,0.0,-113.0,0.0,0.0,0.0,0.0,0.0,
5.713703999999998,0.0,0.0,false,4323296.897175142,,37274.0,0.0,-7.5,0.0,0.0,0.125,3.096923511,1.2410000000000012,0.06225585299999992,-118668.0,0.0,7.5,0.0,0.0,0.0,3.959960532,1.237250000000001,-0.06347655600000035,69805.0,0.0,0.0,0.0,0.0,0.0,0.27832028400000003,1.2385000000000013,-0.031738278000000175,-95033.0,0.0,30.0,0.0,0.0,0.0,3.823241796,1.236875000000001,0.04638671400000005,1.600000023841858,0.6600000262260437,70.37000274658203,-0.003662109375,0.119140625,0.88958740234375,34.36000061035156,0.0,83.0,-0.806304931640625,-2.343353271484375,Waiting,0.0,0.0,-113.0,0.0,0.0,0.0,0.0,0.0,
5.771525999999998,0.0,0.0,false,4323518.127082745,,37274.0,0.0,0.0,0.0,0.0,0.125,3.096923511,1.2410000000000012,0.0,-118668.0,0.0,0.0,0.0,0.0,0.0,3.96728475,1.237250000000001,0.0,69805.0,0.0,0.0,0.0,0.0,0.0,0.29663082900000004,1.2385000000000013,0.009765623999999917,-95033.0,0.0,15.0,0.0,0.0,0.0,3.8000484390000002,1.236875000000001,-0.009765624000000361,1.6799999475479126,0.6100000143051147,70.38999938964844,-0.02099609375,0.023193359375,0.98553466796875,34.36000061035156,0.0,-15.0,-0.80712890625,-2.3431854248046875,Waiting,0.0,0.0,-113.0,0.0,0.0,0.0,0.0,0.0,
5.838122999999992,0.0,0.0,false,4323715.990965556,,37274.0,1.0,0.0,866.25,0.0,0.125,3.092040699,1.2410000000000012,0.0,-118668.0,2.0,0.0,-866.25,0.0,0.0,3.972167562,1.237250000000001,0.0,69805.0,2.0,22.5,866.25,0.0,0.0,0.301513641,1.2385000000000013,0.0,-95032.0,1.625,0.0,-866.25,0.0,0.0,3.7902828150000003,1.236875000000001,0.0,1.690000057220459,0.5899999737739563,70.33000183105469,0.01605224609375,0.162109375,1.000244140625,34.34000015258789,0.0,126.0,-0.807098388671875,-2.34295654296875,Waiting,0.0,0.0,-113.0,0.0,0.0,0.0,0.0,0.0,
5.895540999999997,0.0,0.0,false,4323891.122777307,,37274.0,11.375,142.5,2480.625,0.0,0.125,3.093261402,1.2410000000000012,0.0,-118668.0,17.625,-52.5,-2480.625,0.0,0.0,3.977050374,1.237250000000001,0.0,69842.0,20.75,172.5,2480.625,0.0,0.0,0.301513641,1.2385000000000013,0.0,-95060.0,18.0,-90.0,-2480.625,0.0,0.0,3.7915035180000003,1.236875000000001,0.0,2.369999885559082,0.6299999952316284,70.19999694824219,0.1036376953125,0.49151611328125,0.95233154296875,34.34000015258789,0.0,456.0,-0.8041839599609375,-2.341339111328125,Waiting,0.0,0.0,-113.0,0.0,0.0,0.0,0.0,0.0,
5.9661689999999945,0.0,0.0,false,4324032.523702032,,37318.0,17.0,315.0,0.0,0.0,0.125,3.092040699,1.2410000000000012,0.0,-118719.0,11.625,-525.0,0.0,0.0,0.0,3.972167562,1.237250000000001,0.004882811999999959,69842.0,11.0,262.5,0.0,0.0,0.0,0.29296872,1.2385000000000013,0.0,-95060.0,15.375,-277.5,0.0,0.0,0.0,3.7866207060000003,1.236875000000001,0.0,3.2699999809265137,0.6200000047683716,70.02999877929688,-0.0865478515625,-0.2615966796875,0.70751953125,34.34000015258789,0.0,-315.0,-0.79351806640625,-2.3371734619140625,Waiting,0.0,0.0,-113.0,0.0,0.0,0.0,0.0,0.0,
6.027869999999996,0.0,0.0,false,4324150.625669958,,37318.0,0.0,247.5,0.0,0.0,0.125,3.1005856200000004,1.2410000000000012,0.0,-118749.0,0.0,-435.0,0.0,0.0,0.0,3.968505453,1.237250000000001,-0.004882811999999959,69894.0,0.0,255.0,0.0,0.0,0.0,0.288085908,1.2385000000000013,-0.009765623999999917,-95105.0,0.0,-240.0,0.0,0.0,0.0,3.8000484390000002,1.236875000000001,-0.003662108999999969,2.630000114440918,0.6200000047683716,69.7699966430664,-0.063720703125,-0.0841064453125,0.47344970703125,34.34000015258789,0.0,-123.0,-0.7846221923828125,-2.3334197998046875,Waiting,0.0,0.0,-113.0,0.0,0.0,0.0,0.0,0.0,
6.092027999999991,0.0,0.0,false,4324246.059785674,,37371.0,0.0,367.5,0.0,0.0,0.125,3.1018063230000004,1.2410000000000012,0.008544921000000372,-118749.0,0.0,-30.0,0.0,0.0,0.0,3.968505453,1.237250000000001,-0.004882811999999959,69894.0,0.0,382.5,0.0,0.0,0.0,0.286865205,1.2385000000000013,-0.004882812000000403,-95105.0,0.0,-285.0,0.0,0.0,0.0,3.7902828150000003,1.236875000000001,0.003662108999999969,2.4000000953674316,0.5199999809265137,69.51000213623047,-0.064697265625,-0.10498046875,0.55291748046875,34.34000015258789,0.0,-144.0,-0.7784423828125,-2.3291015625,Waiting,0.0,0.0,-113.0,0.0,0.0,0.0,0.0,0.0,
6.1495409999999975,0.0,0.0,false,4324318.80913448,,37418.0,0.0,435.0,0.0,0.0,0.125,3.1005856200000004,1.2410000000000012,0.0,-118749.0,0.0,0.0,0.0,0.0,0.0,3.968505453,1.237250000000001,0.0,69934.0,0.0,255.0,0.0,0.0,0.0,0.288085908,1.2385000000000013,0.0,-95149.0,0.0,-307.5,0.0,0.0,0.0,3.7951656270000003,1.236875000000001,0.003662108999999969,2.140000104904175,0.4699999988079071,69.25,-0.03875732421875,0.052978515625,1.0443115234375,34.34000015258789,0.0,-3.0,-0.776641845703125,-2.326019287109375,Waiting,0.0,0.0,-113.0,0.0,0.0,0.0,0.0,0.0,
6.208462,0.0,0.0,false,4324357.346110485,,37418.0,0.0,217.5,0.0,0.0,0.125,3.1018063230000004,1.2410000000000012,0.0,-118749.0,0.0,0.0,0.0,0.0,0.0,3.968505453,1.237250000000001,0.0,69934.0,0.0,217.5,0.0,0.0,0.0,0.288085908,1.2385000000000013,0.0,-95149.0,0.0,-255.0,0.0,0.0,0.0,3.7902828150000003,1.236875000000001,0.0,1.8200000524520874,0.49000000953674316,69.25,0.0150146484375,-0.09979248046875,1.0224609375,34.34000015258789,0.0,-121.0,-0.7771453857421875,-2.323272705078125,Waiting,0.0,0.0,-113.0,0.0,0.0,0.0,0.0,0.0,
6.268175000000003,0.0,0.0,false,4324373.279233587,,37418.0,0.0,195.0,0.0,0.0,0.125,3.1005856200000004,1.2410000000000012,0.0,-118749.0,0.0,0.0,0.0,0.0,0.0,3.96728475,1.237250000000001,0.0,69959.0,0.0,195.0,0.0,0.0,0.0,0.288085908,1.2385000000000013,0.0,-95177.0,0.0,-202.5,0.0,0.0,0.0,3.7951656270000003,1.236875000000001,-0.0024414059999999793,1.5700000524520874,0.4300000071525574,69.0999984741211,0.0067138671875,-0.0362548828125,1.216064453125,34.34000015258789,0.0,-65.0,-0.7799072265625,-2.3209381103515625,Waiting,0.0,0.0,-113.0,0.0,0.0,0.0,0.0,0.0,
6.328270999999994,0.0,0.0,false,4324366.593802817,,37449.0,0.5,142.5,-248.03150296211243,0.0,3.125,3.092040699,0.5533560492066895,0.0,-118749.0,0.25,0.0,248.03150296211243,0.0,2.5,3.96728475,1.9228160581136347,0.0,69959.0,0.0,120.0,248.03150296211243,0.0,3.75,0.450439407,1.9247586890068615,0.0,-95177.0,0.0,-127.5,-248.03150296211243,0.0,4.5,3.6889644660000003,0.5515167311543325,0.0,1.2599999904632568,0.44999998807907104,69.02999877929688,0.02496337890625,-0.16015625,1.07025146484375,34.34000015258789,0.0,-165.0,-0.7847900390625,-2.3194122314453125,Waiting,0.0,0.0,-113.0,0.0,0.0,0.0,0.0,0.0,
6.39316799999999,0.0,0.0,false,4324336.765981413,,37450.0,1.5,37.5,-446.45669907331467,0.0,0.875,2.728271205,0.5533560492066895,0.0,-118749.0,1.375,0.0,446.45669907331467,0.0,1.0,4.329833541,1.9228160581136347,0.0,69970.0,0.375,52.5,446.45669907331467,0.0,0.75,0.834960852,1.924758689006862,0.0,-95187.0,0.375,-52.5,-446.45669907331467,0.0,0.75,3.355712547,0.5515167311543325,0.0,0.9800000190734863,0.4399999976158142,69.33000183105469,0.0184326171875,-0.0960693359375,0.95037841796875,34.36000061035156,0.0,-101.0,-0.794525146484375,-2.3193206787109375,Waiting,0.0,0.0,-113.0,0.0,0.0,0.0,0.0,0.0,
6.453406999999992,0.0,0.0,false,4324273.3986486485,,37450.0,2.25,-30.0,-446.45669907331467,0.0,0.75,2.4353024850000002,0.5533560492066895,0.0,-118749.0,2.5,0.0,446.45669907331467,0.0,0.75,4.61425734,1.9228160581136347,0.0,69970.0,1.0,112.5,446.45669907331467,0.0,0.375,1.03759755,1.924758689006862,0.0,-95187.0,0.875,-150.0,-446.45669907331467,0.0,0.375,3.118896165,0.5515167311543325,0.0,1.059999942779541,0.4099999964237213,69.62000274658203,0.0509033203125,0.09735107421875,1.071533203125,34.36000061035156,0.0,87.0,-0.8031158447265625,-2.3198699951171875,Waiting,0.0,0.0,-113.0,0.0,0.0,0.0,0.0,0.0,
6.515766999999992,0.0,0.0,false,4324187.510273009,,37436.0,2.375,-75.0,-446.45669907331467,0.0,0.125,2.347411869,0.5533560492066895,0.0,-118749.0,3.125,0.0,446.45669907331467,0.0,0.125,4.631347182,1.9228160581136347,0.0,69989.0,1.25,127.5,446.45669907331467,0.0,0.125,1.044921768,1.924758689006862,0.0,-95213.0,1.125,-142.5,-446.45669907331467,0.0,0.0,3.089599293,0.5515167311543325,0.0,1.2400000095367432,0.3700000047683716,70.36000061035156,0.01617431640625,0.12298583984375,1.06866455078125,34.36000061035156,0.0,97.0,-0.810028076171875,-2.3198394775390625,Waiting,0.0,0.0,-113.0,0.0,0.0,0.0,0.0,0.0,
6.581437999999995,0.0,0.0,false,4324067.556555993,,37436.0,2.5,-127.5,-446.45669907331467,0.0,0.125,2.347411869,0.5533560492066895,0.0,-118749.0,4.375,0.0,446.45669907331467,0.0,0.0,4.622802261,1.9228160581136347,0.0,69989.0,1.625,105.0,446.45669907331467,0.0,0.0,1.038818253,1.924758689006862,0.0,-95213.0,1.375,-142.5,-446.45669907331467,0.0,0.0,3.096923511,0.5515167311543325,0.0,1.2799999713897705,0.33000001311302185,71.5199966430664,-0.04241943359375,-0.01837158203125,0.990478515625,34.36000061035156,0.0,-53.0,-0.8159942626953125,-2.3196868896484375,Waiting,0.0,0.0,-113.0,0.0,0.0,0.0,0.0,0.0,
6.646601999999999,0.0,0.0,false,4323925.126300985,,37403.0,2.75,-195.0,-446.45669907331467,0.0,0.125,2.352294681,0.5533560492066895,0.0,-118749.0,5.0,0.0,446.45669907331467,0.0,0.0,4.637450697,1.9228160581136347,0.0,70027.0,1.625,217.5,446.45669907331467,0.0,0.0,1.036376847,1.924758689006862,0.0,-95247.0,1.625,-202.5,-446.45669907331467,0.0,0.0,3.08837859,0.5515167311543325,0.0,1.190000057220459,0.4699999988079071,72.87000274658203,0.14794921875,0.00732421875,0.947265625,34.36000061035156,0.0,29.0,-0.82232666015625,-2.320526123046875,Waiting,0.0,0.0,-113.0,0.0,0.0,0.0,0.0,0.0,
6.707534,0.0,0.0,false,4323760.238470191,,37403.0,0.875,-157.5,0.0,0.0,0.125,2.35595679,0.5533560492066895,0.003662109000000413,-118749.0,2.5,0.0,0.0,0.0,0.0,4.627685073,1.9228160581136347,0.003662108999999525,70027.0,0.625,210.0,0.0,0.0,0.0,1.0302733320000002,1.924758689006862,-0.003662108999999969,-95247.0,0.375,-202.5,0.0,0.0,0.0,3.089599293,0.5515167311543325,0.0,1.2200000286102295,0.5600000023841858,73.7300033569336,-0.13433837890625,0.033203125,0.93133544921875,34.36000061035156,0.0,-27.0,-0.8297576904296875,-2.3241729736328125,Waiting,0.0,0.0,-113.0,0.0,0.0,0.0,0.0,0.0,
6.769568,0.0,0.0,false,4323572.336238403,,37405.0,0.0,7.5,0.0,0.0,0.125,2.357177493,0.5533560492066895,0.006103514999999504,-118748.0,0.0,0.0,0.0,0.0,0.0,4.62646437,1.9228160581136347,-0.0012207029999995456,70028.0,0.0,7.5,0.0,0.0,0.0,1.0302733320000002,1.924758689006862,-0.007324217999999938,-95265.0,0.0,-120.0,0.0,0.0,0.0,3.089599293,0.5515167311543325,0.0012207029999999897,1.2400000095367432,0.14000000059604645,73.62000274658203,-0.164306640625,0.00360107421875,0.92010498046875,34.36000061035156,0.0,-62.0,-0.8346099853515625,-2.324310302734375,Waiting,0.0,0.0,-113.0,0.0,0.0,0.0,0.0,0.0,
