Time,ClimberA1,ClimberA2,CameraExists,HeapSpace,LoopTime,FRpos,FRCurrent,FRspeed,FRsetpoint,FRApos,FRACurrent,FREncpos,FREncSetpoint,FREncSpeed,FLpos,FLCurrent,FLspeed,FLsetpoint,FLApos,FLACurrent,FLEncpos,FLEncSetpoint,FLEncSpeed,BRpos,BRCurrent,BRspeed,BRsetpoint,BRApos,BRACurrent,BREncpos,BREncSetpoint,BREncSpeed,BLpos,BLCurrent,BLspeed,BLsetpoint,BLApos,BLACurrent,BLEncpos,BLEncSetpoint,BLEncSpeed,navx_Pitch,navx_Roll,navx_Yaw,navx_XAcc,navx_YAcc,navx_ZAcc,navx_Temp,navx_Bar,navx_Alt,navx_XDis,navx_YDis,GearPlacerState,ShootOutputV,ShootOutputCurrent,ShootEncPos,ShootEncVelocity,ShootSpeed,ShootSetpoint,CarouselSetpoint,CarouselCurrent,
0.482987000000001,0.0,0.0,false,4583829.4144,,929.0,0.0,0.0,0.0,0.0,0.125,1.8212888760000001,0.0,0.0,-62681.0,0.0,0.0,0.0,0.0,0.0,2.706298551,0.0,0.0,23449.0,0.0,0.0,0.0,0.0,0.0,4.016112870000001,0.0,0.0,-40176.0,0.0,0.0,0.0,0.0,0.0,2.57568333,0.0,0.0,1.190000057220459,0.05999999865889549,78.4800033569336,1.220703125E-4,0.01995849609375,1.00152587890625,32.439998626708984,0.0,-1.0,0.4840087890625,-1.5430450439453125,Waiting,0.0,0.0,-114.0,0.0,0.0,0.0,0.0,0.0,
0.5405240000000012,0.0,0.0,false,4584416.677316294,,929.0,0.125,0.0,1260.0,0.0,0.125,1.8212888760000001,0.0,0.0,-62681.0,0.5,0.0,-1260.0,0.0,0.0,2.705077848,0.0,0.0,23449.0,0.0,0.0,1260.0,0.0,0.0,4.017333573,-0.0,0.0,-40176.0,0.0,0.0,-1260.0,0.0,0.0,2.5781247360000004,-0.0,0.0,1.190000057220459,0.05000000074505806,78.4800033569336,6.103515625E-4,0.0167236328125,0.99658203125,32.439998626708984,0.0,-4.0,0.4840087890625,-1.5430450439453125,Waiting,0.0,0.0,-114.0,0.0,0.0,0.0,0.0,0.0,
0.5681239999999999,0.0,0.0,false,4584942.239234449,,929.0,2.5,7.5,1260.0,0.0,0.125,1.8212888760000001,0.0,0.0,-62681.0,5.25,-75.0,-1260.0,0.0,0.0,2.705077848,0.0,0.0,23449.0,4.625,60.0,1260.0,0.0,0.0,4.017333573,-0.0,0.0012207030000004337,-40176.0,2.75,-30.0,-1260.0,0.0,0.0,2.5854489540000003,-0.0,-0.0012207029999999897,1.1399999856948853,0.10999999940395355,78.48999786376953,0.4796142578125,0.21844482421875,0.873046875,32.439998626708984,0.0,292.0,0.4841461181640625,-1.5433807373046875,Waiting,0.0,0.0,-114.0,0.0,0.0,0.0,0.0,0.0,
0.6065099999999984,0.0,0.0,false,4585356.267515924,,970.0,5.875,150.0,1260.0,0.0,0.125,1.8212888760000001,1.3781314425998265E-4,0.0,-62718.0,8.5,-150.0,-1260.0,0.0,0.0,2.703857145,1.373967064751519E-4,0.0,23482.0,8.625,210.0,1260.0,0.0,0.0,4.013671464000001,1.375355190700955E-4,0.0012207030000004337,-40203.0,7.875,-157.5,-1260.0,0.0,0.0,2.5854489540000003,1.3735506269666882E-4,0.009765624000000361,1.2899999618530273,0.8999999761581421,78.44000244140625,0.40863037109375,-0.08392333984375,0.6142578125,32.439998626708984,0.0,-15.0,0.4846649169921875,-1.5484771728515625,Waiting,0.0,0.0,-114.0,0.0,0.0,0.0,0.0,0.0,
0.6448050000000003,0.0,0.0,false,4585709.138314785,,970.0,8.125,315.0,1260.0,0.0,0.125,1.8212888760000001,4.96344843182034,0.0,-62718.0,11.25,-292.5,-1260.0,0.0,0.0,2.703857145,4.948450098525153,0.004882811999999959,23482.0,11.5,262.5,1260.0,0.0,0.0,4.014892167,4.953449542956882,-0.004882811999999959,-40203.0,10.0,-270.0,-1260.0,0.0,0.0,2.5842282510000003,4.9469502651956345,0.009765624000000361,1.2300000190734863,1.2799999713897705,78.45999908447266,0.29541015625,-0.0155029296875,0.86932373046875,32.439998626708984,0.0,21.0,0.48480224609375,-1.553863525390625,Waiting,0.0,0.0,-114.0,0.0,0.0,0.0,0.0,0.0,
0.6741140000000014,0.0,0.0,false,4585951.377777778,,970.0,8.5,375.0,1260.0,0.0,0.125,1.8212888760000001,4.963724163309734,-0.0012207029999995456,-62718.0,10.875,-345.0,-1260.0,0.0,0.0,2.708739957,4.948724996821086,-0.0024414059999999793,23482.0,11.625,315.0,1260.0,0.0,0.0,4.020995682000001,4.953724718983968,-0.0012207030000004337,-40203.0,10.0,-307.5,-1260.0,0.0,0.0,2.5781247360000004,4.94722508017222,-0.0012207029999999897,1.309999942779541,1.4800000190734863,78.4800033569336,0.1568603515625,0.05169677734375,1.35980224609375,32.439998626708984,0.0,44.0,0.4851226806640625,-1.5607757568359375,Waiting,0.0,0.0,-114.0,0.0,0.0,0.0,0.0,0.0,
0.7109759999999987,0.0,0.0,false,4586133.400950871,,970.0,8.875,375.0,1260.0,0.0,0.125,1.823730282,0.0,-0.0012207029999995456,-62718.0,10.875,-375.0,-1260.0,0.0,0.0,2.70996066,0.0,-0.0024414059999999793,23482.0,11.375,360.0,1260.0,0.0,0.0,4.018554276000001,-0.0,0.004882811999999959,-40274.0,10.0,-367.5,-1260.0,0.0,0.0,2.5793454390000004,-0.0,-0.0024414059999999793,1.309999942779541,1.9500000476837158,78.52999877929688,0.2515869140625,-0.05316162109375,1.36492919921875,32.439998626708984,0.0,-42.0,0.4862213134765625,-1.5737457275390625,Waiting,0.0,0.0,-114.0,0.0,0.0,0.0,0.0,0.0,
0.7471569999999993,0.0,0.0,false,4586260.265822785,,1047.0,9.75,465.0,1260.0000000000002,0.0,0.125,1.8212888760000001,6.893813239203561E-4,0.0012207029999995456,-62802.0,11.5,-517.5,-1260.0000000000002,0.0,0.0,2.70996066,6.87298181321886E-4,0.0,23554.0,12.5,442.5,1260.0000000000002,0.0,0.0,4.018554276000001,6.879925621880428E-4,0.004882811999999959,-40274.0,10.0,-427.5,-1260.0000000000002,0.0,0.0,2.5793454390000004,6.87089867062039E-4,-0.0024414059999999793,1.2999999523162842,2.2899999618530273,78.55000305175781,0.23455810546875,0.043212890625,1.0462646484375,32.439998626708984,0.0,57.0,0.4872894287109375,-1.58380126953125,Waiting,0.0,0.0,-114.0,0.0,0.0,0.0,0.0,0.0,
0.7790139999999992,0.0,0.0,false,4586272.97314376,,1047.0,9.625,622.5,1260.0,0.0,0.125,1.8212888760000001,9.652180141872831E-4,0.0,-62802.0,10.5,-675.0,-1260.0,0.0,0.0,2.70996066,9.623013602362738E-4,0.0012207029999999897,23554.0,12.75,585.0,1260.0,0.0,0.0,4.018554276000001,9.632735782199436E-4,0.0,-40274.0,10.25,-585.0,-1260.0,0.0,0.0,2.5793454390000004,9.62009694841173E-4,0.0012207029999999897,1.2100000381469727,2.6500000953674316,78.58999633789062,0.17218017578125,0.1480712890625,0.77783203125,32.439998626708984,0.0,155.0,0.4885711669921875,-1.595123291015625,Waiting,0.0,0.0,-114.0,0.0,0.0,0.0,0.0,0.0,
0.8245780000000014,0.0,0.0,false,4586172.921135646,,1047.0,8.75,765.0,1260.0,0.0,0.0,1.8212888760000001,0.0017925176832411026,-0.0012207029999995456,-62802.0,9.5,-802.5,-1260.0,0.0,0.0,2.708739957,0.0017871011310153537,0.0012207029999999897,23554.0,11.875,727.5,1260.0,0.0,0.0,4.0307613060000005,0.0017889066484239366,0.0,-40274.0,10.0,-727.5,-1260.0,0.0,0.0,2.5793454390000004,0.0017865594757927787,-0.0024414059999999793,1.340000033378601,2.9000000953674316,78.63999938964844,0.15338134765625,0.00927734375,1.208740234375,32.439998626708984,0.0,0.0,0.49114990234375,-1.61395263671875,Waiting,0.0,0.0,-114.0,0.0,0.0,0.0,0.0,0.0,
0.8629729999999981,0.0,0.0,false,4586013.908661418,,1185.0,8.375,832.5,1260.0,0.0,0.0,1.8676755900000002,0.0022061675177680127,-0.0012207029999995456,-62947.0,8.875,-930.0,-1260.0,0.0,0.0,2.70996066,0.002199501016404894,0.0,23687.0,10.5,847.5,1260.0,0.0,0.0,4.020995682000001,0.0022017231835259336,0.0,-40408.0,8.75,-847.5,-1260.0,0.0,0.0,2.5793454390000004,0.002198834366268582,0.0012207029999999897,1.2899999618530273,3.0799999237060547,78.70999908447266,0.205810546875,0.0911865234375,0.91424560546875,32.439998626708984,0.0,99.0,0.4929351806640625,-1.627655029296875,Waiting,0.0,0.0,-114.0,0.0,0.0,0.0,0.0,0.0,
0.8960040000000008,0.0,0.0,false,4585746.918238994,,1185.0,7.625,945.0,1260.0,0.0,0.0,1.822509579,0.0034472222222222226,0.0,-62947.0,8.0,-975.0,-1260.0,0.0,0.0,2.707519254,0.0034368055555555554,0.0,23687.0,9.75,907.5,1260.0,0.0,0.0,4.014892167,0.0034402777777777778,0.0,-40408.0,7.625,-952.5,-1260.0,0.0,0.0,2.5793454390000004,0.003435763888888889,0.0012207029999999897,1.2999999523162842,3.2699999809265137,78.7699966430664,0.21343994140625,0.1087646484375,1.05657958984375,32.439998626708984,0.0,112.0,0.496185302734375,-1.6493988037109375,Waiting,0.0,0.0,-114.0,0.0,0.0,0.0,0.0,0.0,
0.935137999999999,0.0,0.0,false,4585421.87755102,,1185.0,6.75,1035.0,1260.0,0.0,0.0,1.781005677,0.003998685201009115,0.0012207029999995456,-62947.0,7.0,-1057.5,-1260.0,0.0,0.0,2.714843472,0.0039866021474202476,0.0,23687.0,9.0,997.5,1260.0,0.0,0.0,4.018554276000001,0.00399062983194987,0.0012207030000004337,-40408.0,7.25,-997.5,-1260.0,0.0,0.0,2.5793454390000004,0.003985393842061361,-0.0012207029999999897,1.350000023841858,3.3399999141693115,78.79000091552734,0.0711669921875,0.119873046875,1.2357177734375,32.439998626708984,0.0,88.0,0.4988555908203125,-1.66455078125,Waiting,0.0,0.0,-114.0,0.0,0.0,0.0,0.0,0.0,
0.9669219999999986,0.0,0.0,false,4585039.059561129,,1367.0,6.375,1110.0,1260.0000000000002,0.0,0.125,1.828613094,0.004274521891276042,0.0,-63132.0,6.125,-1140.0,-1260.0000000000002,0.0,0.0,2.716064175,0.0042616053263346354,0.004882811999999959,23864.0,7.875,1080.0,1260.0000000000002,0.0,0.0,4.018554276000001,0.004265910847981771,-0.0012207030000004337,-40585.0,6.375,-1087.5,-1260.0000000000002,0.0,0.0,2.5793454390000004,0.004260313669840495,0.0012207029999999897,1.2999999523162842,3.509999990463257,78.83999633789062,0.076171875,-0.04058837890625,0.6458740234375,32.470001220703125,0.0,-47.0,0.501678466796875,-1.6800689697265625,Waiting,0.0,0.0,-114.0,0.0,0.0,0.0,0.0,0.0,
1.0045730000000004,0.0,0.0,false,4584549.471048513,,1367.0,5.75,1147.5,1260.0,0.0,0.125,1.8212888760000001,0.004963903215196398,0.0,-63132.0,5.5,-1177.5,-1260.0,0.0,0.0,2.718505581,0.00494890350765652,0.004882811999999959,23864.0,7.375,1117.5,1260.0,0.0,0.0,4.017333573,0.004953903410169813,-0.0012207030000004337,-40585.0,5.625,-1170.0,-1260.0,0.0,0.0,2.5793454390000004,0.004947403536902532,0.0012207029999999897,1.3799999952316284,3.5,78.87999725341797,0.0863037109375,0.13385009765625,0.92144775390625,32.470001220703125,0.0,115.0,0.506072998046875,-1.7032318115234375,Waiting,0.0,0.0,-114.0,0.0,0.0,0.0,0.0,0.0,
1.0379099999999999,0.0,0.0,false,4584007.5125,,1367.0,5.25,1200.0,1260.0000000000002,0.0,0.125,1.833495906,0.005515471394856771,-0.0012207029999995456,-63132.0,4.875,-1230.0,-1260.0000000000002,0.0,0.0,2.719726284,0.0054988049825032545,0.004882811999999959,23864.0,6.625,1192.5,1260.0000000000002,0.0,0.0,4.017333573,0.00550436045328776,0.0012207030000004337,-40585.0,4.75,-1230.0,-1260.0000000000002,0.0,0.0,2.5805661420000003,0.005497138341267902,-0.0012207029999999897,1.2899999618530273,3.490000009536743,78.91999816894531,0.00457763671875,0.06512451171875,0.909912109375,32.470001220703125,0.0,33.0,0.509063720703125,-1.7187957763671875,Waiting,0.0,0.0,-114.0,0.0,0.0,0.0,0.0,0.0,
1.0746039999999994,0.0,0.0,false,4583354.70826833,,1367.0,4.75,1237.5,1260.0,0.0,0.125,1.834716609,0.006618607754177517,0.0024414059999999793,-63336.0,4.5,-1252.5,-1260.0,0.0,0.0,2.723388393,0.006598607932196721,0.0012207029999999897,24062.0,6.0,1230.0,1260.0,0.0,0.0,4.017333573,0.006605274539523653,0.0,-40789.0,4.5,-1245.0,-1260.0,0.0,0.0,2.5878903600000003,0.006596607949998642,0.0,1.4500000476837158,3.4600000381469727,78.9800033569336,-0.01995849609375,-0.20751953125,1.033203125,32.470001220703125,0.0,-245.0,0.513885498046875,-1.741943359375,Waiting,0.0,0.0,-114.0,0.0,0.0,0.0,0.0,0.0,
1.1103610000000008,0.0,0.0,false,4582650.205607477,,1568.0,4.625,1252.5,1260.0000000000002,0.0,0.125,1.8212888760000001,0.006894444444444445,0.0024414059999999793,-63336.0,4.125,-1260.0,-1260.0000000000002,0.0,0.0,2.723388393,0.006873611111111111,0.0012207029999999897,24062.0,5.375,1245.0,1260.0000000000002,0.0,0.0,4.018554276000001,0.0068805555555555556,0.0,-40789.0,4.125,-1275.0,-1260.0000000000002,0.0,0.0,2.5793454390000004,0.006871527777777778,0.0,1.3899999856948853,3.430000066757202,79.02999877929688,0.08245849609375,-0.01483154296875,1.0487060546875,32.470001220703125,0.0,-35.0,0.5166473388671875,-1.75732421875,Waiting,0.0,0.0,-114.0,0.0,0.0,0.0,0.0,0.0,
1.1496749999999993,0.0,0.0,false,4581835.906687403,,1568.0,4.125,1282.5,1260.0000000000002,0.0,0.125,1.822509579,0.007859662458631728,-0.0024414059999999793,-63336.0,4.125,-1267.5,-1260.0000000000002,0.0,0.0,2.723388393,0.007835912471347385,0.003662108999999969,24062.0,5.375,1252.5,1260.0000000000002,0.0,0.0,4.017333573,0.0078438291337755,0.0,-40789.0,3.875,-1290.0,-1260.0000000000002,0.0,0.0,2.5793454390000004,0.00783353747261895,0.0,1.399999976158142,3.4700000286102295,79.08000183105469,0.07086181640625,-0.0316162109375,0.68701171875,32.470001220703125,0.0,-42.0,0.51947021484375,-1.7725067138671875,Waiting,0.0,0.0,-114.0,0.0,0.0,0.0,0.0,0.0,
1.1803600000000005,0.0,0.0,false,4580965.888198758,,1568.0,3.875,1312.5,1260.0,0.0,0.125,1.8212888760000001,0.008273312293158638,0.0012207029999995456,-63336.0,3.875,-1282.5,-1260.0,0.0,0.0,2.729491908,0.008248312356736924,0.004882811999999959,24062.0,5.125,1282.5,1260.0,0.0,0.0,4.019774979,0.008256645668877495,-0.0012207030000004337,-40789.0,3.75,-1297.5,-1260.0,0.0,0.0,2.5805661420000003,0.008245812363094754,0.0012207029999999897,1.350000023841858,3.380000114440918,79.11000061035156,0.1026611328125,0.077392578125,0.618408203125,32.470001220703125,0.0,73.0,0.523834228515625,-1.7954559326171875,Waiting,0.0,0.0,-114.0,0.0,0.0,0.0,0.0,0.0,
1.223285,0.0,0.0,false,4579991.603100775,,1779.0,3.75,1312.5,1260.0,0.0,0.125,1.8212888760000001,0.008686962127685549,-0.0012207029999995456,-63542.0,4.0,-1290.0,-1260.0,0.0,0.0,2.730712611,0.008660712242126466,0.0012207029999999897,24272.0,4.75,1297.5,1260.0,0.0,0.0,4.041747633,0.008669462203979494,0.0,-40997.0,3.75,-1297.5,-1260.0,0.0,0.0,2.5781247360000004,0.008658087253570559,-0.0012207029999999897,1.440000057220459,3.2100000381469727,79.12999725341797,-0.07464599609375,0.13671875,1.45733642578125,32.470001220703125,0.0,68.0,0.52703857421875,-1.8108367919921875,Waiting,0.0,0.0,-114.0,0.0,0.0,0.0,0.0,0.0,
1.258559000000001,0.0,0.0,false,4578962.068111455,,1779.0,3.625,1312.5,1260.0,0.0,0.125,1.8212888760000001,0.009376448652479386,-0.0012207029999995456,-63542.0,3.875,-1290.0,-1260.0,0.0,0.0,2.733154017,0.009348115306430392,0.0012207029999999897,24272.0,4.625,1305.0,1260.0,0.0,0.0,4.014892167,0.00935755975511339,0.0,-40997.0,3.5,-1305.0,-1260.0,0.0,0.0,2.5805661420000003,0.009345281971825494,0.0,1.3600000143051147,3.259999990463257,79.18000030517578,-0.02545166015625,0.2142333984375,1.10247802734375,32.470001220703125,0.0,167.0,0.532440185546875,-1.8337249755859375,Waiting,0.0,0.0,-114.0,0.0,0.0,0.0,0.0,0.0,
1.2930420000000014,0.0,0.0,false,4577829.081916538,,1779.0,3.625,1305.0,1260.0,0.0,0.125,1.822509579,0.009652180141872831,0.0024414059999999793,-63542.0,3.875,-1282.5,-1260.0,0.0,0.0,2.733154017,0.009623013602362738,-0.0012207029999999897,24272.0,4.25,1305.0,1260.0,0.0,0.0,4.017333573,0.009632735782199435,0.0,-40997.0,3.375,-1320.0,-1260.0,0.0,0.0,2.5793454390000004,0.00962009694841173,0.0,1.4600000381469727,3.140000104904175,79.22000122070312,-0.0682373046875,-0.112548828125,1.17681884765625,32.470001220703125,0.0,-165.0,0.5361328125,-1.848663330078125,Waiting,0.0,0.0,-114.0,0.0,0.0,0.0,0.0,0.0,
1.3298430000000008,0.0,0.0,false,4576641.703703703,,1988.0,3.5,1305.0,1259.9999999999998,0.0,0.0,1.822509579,0.010617398156060116,0.0,-63744.0,4.0,-1267.5,-1259.9999999999998,0.0,0.0,2.7404782350000003,0.010585314962599013,0.009765624000000361,24481.0,4.0,1305.0,1259.9999999999998,0.0,0.0,4.018554276000001,0.01059600936041938,0.0012207030000004337,-41211.0,3.125,-1327.5,-1259.9999999999998,0.0,0.0,2.5793454390000004,0.010582106643252903,0.0,1.440000057220459,3.130000114440918,79.29000091552734,-0.1510009765625,0.08599853515625,1.43768310546875,32.470001220703125,0.0,6.0,0.5413360595703125,-1.8701019287109375,Waiting,0.0,0.0,-114.0,0.0,0.0,0.0,0.0,0.0,
1.368428,0.0,0.0,false,4575351.679506933,,1988.0,3.375,1305.0,1260.0,0.0,0.0,1.8212888760000001,0.011168966335720487,-0.0024414059999999793,-63744.0,4.25,-1245.0,-1260.0,0.0,0.0,2.7441403440000003,0.011135216437445746,0.004882811999999959,24481.0,4.0,1305.0,1260.0,0.0,0.0,4.018554276000001,0.011146466403537326,-0.0012207030000004337,-41211.0,2.875,-1335.0,-1260.0,0.0,0.0,2.5915524690000002,0.011131841447618272,0.0,1.3600000143051147,3.059999942779541,79.36000061035156,-0.0992431640625,0.0897216796875,0.82928466796875,32.470001220703125,0.0,42.0,0.5445709228515625,-1.8837432861328125,Waiting,0.0,0.0,-114.0,0.0,0.0,0.0,0.0,0.0,
1.4048110000000016,0.0,0.0,false,4574007.913846154,,1988.0,3.375,1305.0,1260.0,0.0,0.125,1.8212888760000001,0.012134184349907772,-0.0024414059999999793,-63744.0,4.25,-1237.5,-1260.0,0.0,0.0,2.7514645620000002,0.012097517797682021,0.004882811999999959,24481.0,4.0,1305.0,1260.0,0.0,0.0,4.018554276000001,0.012109739981757272,-0.0012207030000004337,-41211.0,2.5,-1335.0,-1260.0,0.0,0.0,2.5805661420000003,0.012093851142459446,0.0,1.309999942779541,3.0299999713897705,79.38999938964844,-0.16900634765625,0.1741943359375,1.21722412109375,32.470001220703125,0.0,100.0,0.547637939453125,-1.89697265625,Waiting,0.0,0.0,-114.0,0.0,0.0,0.0,0.0,0.0,
1.4358470000000016,0.0,0.0,false,4572562.298003072,,2198.0,3.25,1305.0,1260.0,0.0,0.125,1.8212888760000001,0.01254783418443468,0.0012207029999995456,-63939.0,4.625,-1222.5,-1260.0,0.0,0.0,2.756347374,0.01250991768307156,0.009765623999999917,24690.0,3.875,1305.0,1260.0,0.0,0.0,4.018554276000001,0.012522556516859266,0.0,-41426.0,2.5,-1342.5,-1260.0,0.0,0.0,2.5793454390000004,0.012506126032935248,0.0012207029999999897,1.3700000047683716,2.859999895095825,79.43000030517578,0.0352783203125,0.03533935546875,1.1602783203125,32.470001220703125,0.0,3.0,0.5523834228515625,-1.91534423828125,Waiting,0.0,0.0,-114.0,0.0,0.0,0.0,0.0,0.0,
1.4733110000000016,0.0,0.0,false,4571063.386503068,,2198.0,3.25,1305.0,1260.0,0.0,0.125,1.822509579,0.013099402364095057,0.0,-63939.0,4.875,-1215.0,-1260.0,0.0,0.0,2.762450889,0.013059819157918297,0.004882811999999959,24690.0,3.75,1305.0,1260.0,0.0,0.0,4.018554276000001,0.013073013559977217,0.0,-41426.0,2.375,-1342.5,-1260.0,0.0,0.0,2.5830075480000003,0.013055860837300622,0.0,1.4199999570846558,2.880000114440918,79.41999816894531,-0.0208740234375,-0.06927490234375,0.84185791015625,32.459999084472656,0.0,-100.0,0.555511474609375,-1.9272003173828125,Waiting,0.0,0.0,-114.0,0.0,0.0,0.0,0.0,0.0,
1.5097789999999986,0.0,0.0,false,4569463.41194487,,2198.0,3.25,1305.0,1260.0,0.0,0.125,1.8212888760000001,0.01254783418443468,0.0,-63939.0,5.0,-1222.5,-1260.0,0.0,0.0,2.785644246,0.01250991768307156,0.004882811999999959,24690.0,3.75,1305.0,1260.0,0.0,0.0,4.017333573,0.012522556516859266,0.0,-41426.0,2.375,-1335.0,-1260.0,0.0,0.0,2.57568333,0.012506126032935248,0.0,1.409999966621399,2.819999933242798,79.37000274658203,-0.1517333984375,0.09918212890625,0.8963623046875,32.459999084472656,0.0,39.0,0.5584259033203125,-1.9386138916015625,Waiting,0.0,0.0,-114.0,0.0,0.0,0.0,0.0,0.0,
1.5454809999999997,0.0,0.0,false,4567810.9724770645,,2198.0,3.125,1305.0,1260.0000000000002,0.0,0.125,1.8212888760000001,0.011858347659640842,0.0,-63939.0,4.875,-1237.5,-1260.0000000000002,0.0,0.0,2.8015133850000002,0.01182251461876763,0.009765623999999917,24690.0,3.875,1305.0,1260.0000000000002,0.0,0.0,4.002685137,0.011834458965725367,0.0,-41426.0,2.375,-1327.5,-1260.0000000000002,0.0,0.0,2.5805661420000003,0.011818931314680309,0.0,1.4199999570846558,2.700000047683716,79.27999877929688,0.04058837890625,-0.1407470703125,0.41748046875,32.459999084472656,0.0,-144.0,0.5631866455078125,-1.9547119140625,Waiting,0.0,0.0,-114.0,0.0,0.0,0.0,0.0,0.0,
1.573696,0.0,0.0,false,4566058.247328244,,2409.0,3.125,1297.5,1260.0000000000002,0.0,0.125,1.822509579,0.011031047990587023,0.0,-64140.0,5.0,-1245.0,-1260.0000000000002,0.0,0.0,2.8015133850000002,0.01099771484798855,0.032958981000000165,24897.0,3.875,1297.5,1260.0000000000002,0.0,0.0,4.018554276000001,0.011008825895521374,0.0012207030000004337,-41635.0,2.5,-1305.0,-1260.0000000000002,0.0,0.0,2.5793454390000004,0.010994381533728705,0.0,1.4900000095367432,2.240000009536743,79.18000030517578,-0.218017578125,0.02032470703125,1.69189453125,32.459999084472656,0.0,-76.0,0.5659942626953125,-1.9651641845703125,Waiting,0.0,0.0,-114.0,0.0,0.0,0.0,0.0,0.0,
1.6220869999999996,0.0,0.0,false,4564253.682926829,,2409.0,3.25,1275.0,1260.0,0.0,0.125,1.8212888760000001,0.009652180141872831,0.0,-64140.0,5.25,-1215.0,-1260.0,0.0,0.0,2.774657919,0.009623013602362738,0.0,24897.0,3.625,1275.0,1260.0,0.0,0.0,4.020995682000001,0.009632735782199435,-0.0012207030000004337,-41635.0,2.75,-1282.5,-1260.0,0.0,0.0,2.5793454390000004,0.00962009694841173,0.0,1.4199999570846558,2.4000000953674316,79.0999984741211,0.0965576171875,0.04425048828125,-0.1427001953125,32.459999084472656,0.0,66.0,0.571014404296875,-1.9801483154296875,Waiting,0.0,0.0,-114.0,0.0,0.0,0.0,0.0,0.0,
1.6552249999999986,0.0,0.0,false,4562402.106544901,,2409.0,3.125,1275.0,1260.0,0.0,0.125,1.8212888760000001,0.008549043782552085,0.0,-64140.0,5.25,-1207.5,-1260.0,0.0,0.0,2.775878622,0.008523210652669271,0.0,24897.0,3.625,1290.0,1260.0,0.0,0.0,4.019774979,0.008531821695963542,-0.0012207030000004337,-41635.0,2.875,-1260.0,-1260.0,0.0,0.0,2.5805661420000003,0.00852062733968099,0.0,1.6100000143051147,2.5199999809265137,78.95999908447266,-0.2806396484375,-0.40802001953125,1.57000732421875,32.459999084472656,0.0,-510.0,0.5740814208984375,-1.9902191162109375,Waiting,0.0,0.0,-114.0,0.0,0.0,0.0,0.0,0.0,
1.692708999999999,0.0,0.0,false,4560446.52887538,,2610.0,3.25,1275.0,1260.0,0.0,0.125,1.822509579,0.0063428762647840696,0.0,-64332.0,5.5,-1207.5,-1260.0,0.0,0.0,2.766112998,0.006323709636264375,-0.01464843600000032,25106.0,3.75,1305.0,1260.0,0.0,0.0,4.017333573,0.006330098512437606,0.0,-41835.0,3.0,-1245.0,-1260.0,0.0,0.0,2.5842282510000003,0.006321792973412405,-0.0012207029999999897,1.2200000286102295,2.5399999618530273,78.97000122070312,0.45611572265625,-0.30572509765625,-1.43731689453125,32.459999084472656,0.0,-170.0,0.578460693359375,-2.00396728515625,Waiting,0.0,0.0,-114.0,0.0,0.0,0.0,0.0,0.0,
1.729375,0.0,0.0,false,4558444.515933232,,2610.0,3.5,1267.5,1260.0,0.0,0.125,1.8212888760000001,0.006756526099310982,0.0,-64332.0,6.0,-1200.0,-1260.0,0.0,0.0,2.752685265,0.006736109521653917,-0.024414059999999793,25106.0,3.625,1297.5,1260.0,0.0,0.0,4.018554276000001,0.006742915047539605,0.0,-41835.0,3.125,-1245.0,-1260.0,0.0,0.0,2.5793454390000004,0.006734067863888211,0.0,1.6100000143051147,1.9800000190734863,78.94999694824219,0.1527099609375,-0.00396728515625,1.99993896484375,32.459999084472656,0.0,-43.0,0.5806884765625,-2.0137176513671875,Waiting,0.0,0.0,-114.0,0.0,0.0,0.0,0.0,0.0,
1.7665989999999983,0.0,0.0,false,4556339.466666667,,2610.0,3.5,1252.5,1260.0,0.0,0.125,1.8188474700000001,0.006480689409044053,-0.0012207029999995456,-64332.0,6.125,-1185.0,-1260.0,0.0,0.0,2.7441403440000003,0.006461106342739528,-0.012207029999999897,25106.0,3.75,1260.0,1260.0,0.0,0.0,4.018554276000001,0.0064676340315077034,0.0,-41835.0,3.25,-1245.0,-1260.0,0.0,0.0,2.5793454390000004,0.006459148036109075,0.0,1.4900000095367432,2.2699999809265137,79.01000213623047,-0.0936279296875,-0.06036376953125,0.72650146484375,32.459999084472656,0.0,-101.0,0.582733154296875,-2.02325439453125,Waiting,0.0,0.0,-114.0,0.0,0.0,0.0,0.0,0.0,
1.8046330000000017,0.0,0.0,false,4554188.599092284,,2610.0,3.625,1222.5,1260.0000000000002,0.0,0.125,1.8127439550000002,0.007859662458631728,-0.0012207029999995456,-64523.0,6.25,-1177.5,-1260.0000000000002,0.0,0.0,2.7380368290000003,0.007835912471347385,-0.012207029999999897,25303.0,3.875,1237.5,1260.0000000000002,0.0,0.0,4.018554276000001,0.0078438291337755,0.0,-42034.0,3.25,-1245.0,-1260.0000000000002,0.0,0.0,2.5793454390000004,0.00783353747261895,0.0,1.3799999952316284,2.140000104904175,79.08999633789062,0.0030517578125,0.09307861328125,0.78131103515625,32.459999084472656,0.0,67.0,0.585235595703125,-2.0372314453125,Waiting,0.0,0.0,-114.0,0.0,0.0,0.0,0.0,0.0,
1.8495230000000011,0.0,0.0,false,4554828.145015106,,2807.0,3.875,1230.0,1260.0,0.0,0.0,1.822509579,0.008686962127685549,0.0012207029999995456,-64523.0,6.125,-1207.5,-1260.0,0.0,0.0,2.73437472,0.008660712242126466,-0.006103514999999948,25303.0,4.625,1215.0,1260.0,0.0,0.0,4.018554276000001,0.008669462203979494,0.0012207030000004337,-42034.0,3.375,-1230.0,-1260.0,0.0,0.0,2.5793454390000004,0.008658087253570559,0.0012207029999999897,1.5,2.0399999618530273,79.12999725341797,-0.03070068359375,0.1529541015625,1.21124267578125,32.459999084472656,0.0,104.0,0.587890625,-2.050689697265625,Waiting,0.0,0.0,-114.0,0.0,0.0,0.0,0.0,0.0,
1.8823129999999983,0.0,0.0,false,4555411.185520362,,2807.0,3.75,1237.5,1260.0,0.0,0.0,1.823730282,0.008962693617078995,0.0,-64523.0,6.0,-1237.5,-1260.0,0.0,0.0,2.73437472,0.00893561053805881,-0.009765624000000361,25303.0,4.75,1207.5,1260.0,0.0,0.0,4.019774979,0.008944638231065538,0.0,-42034.0,3.375,-1230.0,-1260.0,0.0,0.0,2.565917706,0.008932902230156792,-0.0012207029999999897,1.2799999713897705,2.119999885559082,79.16000366210938,0.0189208984375,-0.018798828125,0.54937744140625,32.459999084472656,0.0,-30.0,0.589691162109375,-2.059356689453125,Waiting,0.0,0.0,-114.0,0.0,0.0,0.0,0.0,0.0,
1.9160370000000002,0.0,0.0,false,4555879.891566265,,2807.0,3.75,1245.0,1260.0,0.0,0.0,1.8212888760000001,0.009376448652479386,0.0,-64523.0,6.0,-1245.0,-1260.0,0.0,0.0,2.7392575320000003,0.009348115306430392,-0.009765624000000361,25303.0,4.625,1215.0,1260.0,0.0,0.0,4.018554276000001,0.00935755975511339,-0.0012207030000004337,-42234.0,3.375,-1230.0,-1260.0,0.0,0.0,2.5842282510000003,0.009345281971825494,0.0012207029999999897,1.4900000095367432,1.940000057220459,79.16000366210938,0.10247802734375,-0.1129150390625,1.33111572265625,32.459999084472656,0.0,-134.0,0.5913238525390625,-2.068145751953125,Waiting,0.0,0.0,-114.0,0.0,0.0,0.0,0.0,0.0,
1.9512839999999996,0.0,0.0,false,4556288.998496241,,3010.0,3.5,1260.0,1260.0,0.0,0.0,1.8212888760000001,0.009376448652479386,0.0012207030000004337,-64727.0,5.875,-1252.5,-1260.0,0.0,0.0,2.7380368290000003,0.009348115306430392,0.0,25499.0,4.75,1222.5,1260.0,0.0,0.0,4.018554276000001,0.00935755975511339,-0.0012207030000004337,-42234.0,3.375,-1237.5,-1260.0,0.0,0.0,2.5781247360000004,0.009345281971825494,0.0012207029999999897,1.3600000143051147,2.0,79.16000366210938,0.11993408203125,0.00457763671875,0.71649169921875,32.459999084472656,0.0,5.0,0.592681884765625,-2.07733154296875,Waiting,0.0,0.0,-114.0,0.0,0.0,0.0,0.0,0.0,
1.9915669999999992,0.0,0.0,false,4556588.216216216,,3010.0,3.5,1267.5,1260.0,0.0,0.0,1.833495906,0.009376448652479386,-0.0024414059999999793,-64727.0,5.875,-1237.5,-1260.0,0.0,0.0,2.7355954230000004,0.009348115306430392,0.004882812000000403,25499.0,4.875,1237.5,1260.0,0.0,0.0,4.002685137,0.00935755975511339,0.0012207030000004337,-42234.0,3.375,-1237.5,-1260.0,0.0,0.0,2.5781247360000004,0.009345281971825494,0.0,1.399999976158142,1.850000023841858,79.1500015258789,0.08233642578125,0.11663818359375,1.06353759765625,32.400001525878906,0.0,97.0,0.5928802490234375,-2.091217041015625,Waiting,0.0,0.0,-114.0,0.0,0.0,0.0,0.0,0.0,
2.0253290000000015,0.0,0.0,false,4556828.713643178,,3010.0,3.25,1275.0,1260.0,0.0,0.125,1.822509579,0.009238530307345925,0.0,-64727.0,5.875,-1230.0,-1260.0,0.0,0.0,2.7380368290000003,0.0092106137169732,-0.0012207029999999897,25499.0,4.625,1245.0,1260.0,0.0,0.0,4.001464434,0.009219919247097441,-0.0012207030000004337,-42234.0,3.375,-1237.5,-1260.0,0.0,0.0,2.5793454390000004,0.00920782205793593,0.0,1.4800000190734863,1.809999942779541,79.12000274658203,0.0140380859375,0.03753662109375,1.414306640625,32.400001525878906,0.0,-4.0,0.5930023193359375,-2.1053009033203125,Waiting,0.0,0.0,-114.0,0.0,0.0,0.0,0.0,0.0,
2.0615560000000004,0.0,0.0,false,4557010.6706586825,,3215.0,3.25,1282.5,1260.0,0.0,0.125,1.8212888760000001,0.008824880472819012,0.0,-64923.0,6.125,-1230.0,-1260.0,0.0,0.0,2.7380368290000003,0.008798213831583659,-0.0012207029999999897,25700.0,4.625,1245.0,1260.0,0.0,0.0,4.018554276000001,0.008807102711995442,-0.0012207030000004337,-42433.0,3.375,-1252.5,-1260.0,0.0,0.0,2.5793454390000004,0.008795547167460123,0.0,1.399999976158142,1.8600000143051147,79.13999938964844,0.05224609375,0.025146484375,0.73956298828125,32.400001525878906,0.0,12.0,0.59271240234375,-2.1145782470703125,Waiting,0.0,0.0,-114.0,0.0,0.0,0.0,0.0,0.0,
2.091476999999999,0.0,0.0,false,4557083.9103139015,,3215.0,3.125,1290.0,1260.0,0.0,0.125,1.8200681730000001,0.009100611962212459,0.0012207029999995456,-64923.0,5.75,-1260.0,-1260.0,0.0,0.0,2.7392575320000003,0.009073112127516006,0.0012207029999999897,25700.0,4.625,1245.0,1260.0,0.0,0.0,4.020995682000001,0.00908227873908149,0.0012207030000004337,-42433.0,3.25,-1260.0,-1260.0,0.0,0.0,2.5781247360000004,0.00907036214404636,0.0,1.4600000381469727,1.7599999904632568,79.13999938964844,-0.16802978515625,0.18829345703125,1.064208984375,32.400001525878906,0.0,120.0,0.5923614501953125,-2.1233978271484375,Waiting,0.0,0.0,-114.0,0.0,0.0,0.0,0.0,0.0,
2.126839,0.0,0.0,false,4557099.176119403,,3215.0,3.0,1290.0,1260.0,0.0,0.125,1.8103025490000002,0.009238530307345925,-0.0012207029999995456,-64923.0,5.25,-1297.5,-1260.0,0.0,0.0,2.7392575320000003,0.0092106137169732,0.0,25700.0,4.75,1245.0,1260.0,0.0,0.0,4.019774979,0.009219919247097441,-0.0012207030000004337,-42433.0,3.0,-1282.5,-1260.0,0.0,0.0,2.5793454390000004,0.00920782205793593,0.0,1.409999966621399,1.7300000190734863,79.1500015258789,-0.16131591796875,0.0535888671875,0.97357177734375,32.400001525878906,0.0,-6.0,0.59210205078125,-2.1314544677734375,Waiting,0.0,0.0,-114.0,0.0,0.0,0.0,0.0,0.0,
2.1602779999999986,0.0,0.0,false,4557006.545454546,,3215.0,3.0,1290.0,1260.0,0.0,0.125,1.8212888760000001,0.009514261796739365,-0.0012207029999995456,-65130.0,5.25,-1305.0,-1260.0,0.0,0.0,2.7380368290000003,0.009485512012905543,0.0,25900.0,4.625,1245.0,1260.0,0.0,0.0,4.017333573,0.009495095274183483,-0.0012207030000004337,-42640.0,2.875,-1290.0,-1260.0,0.0,0.0,2.5793454390000004,0.009482637034522162,0.0,1.5299999713897705,1.690000057220459,79.18000030517578,0.0411376953125,0.1129150390625,1.09454345703125,32.400001525878906,0.0,83.0,0.5921630859375,-2.1425628662109375,Waiting,0.0,0.0,-114.0,0.0,0.0,0.0,0.0,0.0,
2.193490999999998,0.0,0.0,false,4556856.797619048,,3422.0,1.75,1290.0,0.0,0.0,0.125,1.832275203,0.0,0.0012207029999995456,-65130.0,3.875,-1282.5,-0.0,0.0,0.0,2.7404782350000003,0.0,0.0,25900.0,2.875,1245.0,0.0,0.0,0.0,4.017333573,0.0,0.0,-42640.0,2.375,-1282.5,-0.0,0.0,0.0,2.5793454390000004,0.0,-0.0012207029999999897,1.4299999475479126,1.6799999475479126,79.19000244140625,-0.03515625,-0.03692626953125,0.74981689453125,32.400001525878906,0.0,-65.0,0.5922393798828125,-2.1499481201171875,Waiting,0.0,0.0,-114.0,0.0,0.0,0.0,0.0,0.0,
2.2278019999999996,0.0,0.0,false,4556650.008915304,,3422.0,0.375,1192.5,0.0,0.0,0.125,1.8212888760000001,0.0,0.0,-65130.0,1.25,-1207.5,-0.0,0.0,0.0,2.73437472,0.0,0.0,25900.0,0.75,1170.0,0.0,0.0,0.0,4.022216385,0.0,0.0012207030000004337,-42640.0,0.875,-1222.5,-0.0,0.0,0.0,2.574462627,0.0,0.0012207029999999897,1.4199999570846558,1.2400000095367432,79.18000030517578,-0.4825439453125,-0.1053466796875,1.03875732421875,32.400001525878906,0.0,-223.0,0.5920562744140625,-2.1601715087890625,Waiting,0.0,0.0,-114.0,0.0,0.0,0.0,0.0,0.0,
2.2676899999999987,0.0,0.0,false,4556336.462908012,,3422.0,0.0,1087.5,0.0,0.0,0.125,1.8212888760000001,0.0,0.0,-65130.0,0.0,-1155.0,-0.0,0.0,0.0,2.733154017,0.0,0.0,25900.0,0.0,952.5,0.0,0.0,0.0,4.024657791,0.0,0.003662108999999525,-42792.0,0.125,-1020.0,-0.0,0.0,0.0,2.57568333,0.0,-0.004882812000000403,1.440000057220459,0.5099999904632568,79.23999786376953,0.0491943359375,0.01416015625,1.05084228515625,32.400001525878906,0.0,-4.0,0.591339111328125,-2.164215087890625,Waiting,0.0,0.0,-114.0,0.0,0.0,0.0,0.0,0.0,
2.305470000000001,0.0,0.0,false,4555966.708148148,,3570.0,0.0,915.0,0.0,0.0,0.125,1.8212888760000001,0.0,0.0,-65295.0,0.0,-1042.5,-0.0,0.0,0.0,2.733154017,0.0,-0.004882812000000403,26038.0,0.0,855.0,0.0,0.0,0.0,4.0283199000000005,0.0,0.003662108999999525,-42792.0,0.125,-930.0,-0.0,0.0,0.0,2.574462627,0.0,-0.004882812000000403,1.3799999952316284,0.3199999928474426,79.30999755859375,-0.317138671875,-0.0953369140625,0.66552734375,32.400001525878906,0.0,-169.0,0.5902099609375,-2.1666107177734375,Waiting,0.0,0.0,-114.0,0.0,0.0,0.0,0.0,0.0,
2.3340020000000004,0.0,0.0,false,4555540.804733728,,3570.0,0.0,847.5,0.0,0.0,0.125,1.8212888760000001,0.0,0.0,-65295.0,0.125,-915.0,-0.0,0.0,0.0,2.73437472,0.0,0.0,26038.0,0.0,765.0,0.0,0.0,0.0,4.0283199000000005,0.0,0.0012207030000004337,-42792.0,0.125,-840.0,-0.0,0.0,0.0,2.574462627,0.0,0.0,1.340000033378601,-0.3499999940395355,79.38999938964844,-0.172119140625,-0.02276611328125,0.57391357421875,32.400001525878906,0.0,-66.0,0.58770751953125,-2.1667327880859375,Waiting,0.0,0.0,-114.0,0.0,0.0,0.0,0.0,0.0,
2.3702220000000014,0.0,0.0,false,4555009.264401773,,3570.0,0.25,825.0,0.0,0.0,0.125,1.8212888760000001,0.0,0.0,-65295.0,0.125,-780.0,-0.0,0.0,0.0,2.733154017,0.0,0.0,26038.0,0.0,735.0,0.0,0.0,0.0,4.022216385,0.0,0.0,-42792.0,0.25,-802.5,-0.0,0.0,0.0,2.574462627,0.0,-0.0012207029999999897,1.4299999475479126,-0.8299999833106995,79.44999694824219,-0.3839111328125,-0.0220947265625,1.094970703125,32.400001525878906,0.0,-115.0,0.585601806640625,-2.164886474609375,Waiting,0.0,0.0,-114.0,0.0,0.0,0.0,0.0,0.0,
2.4100030000000006,0.0,0.0,false,4554422.407079646,,3670.0,0.625,697.5,0.0,0.0,0.125,1.8212888760000001,0.0,0.0,-65394.0,0.125,-697.5,-0.0,0.0,0.0,2.73437472,0.0,0.0,26138.0,0.0,682.5,0.0,0.0,0.0,4.0234370880000005,0.0,0.0,-42897.0,0.375,-735.0,-0.0,0.0,0.0,2.57568333,0.0,-0.0012207029999999897,1.4500000476837158,-1.1699999570846558,79.48999786376953,-0.27813720703125,0.08056640625,1.169921875,32.400001525878906,0.0,3.0,0.5831298828125,-2.1614227294921875,Waiting,0.0,0.0,-114.0,0.0,0.0,0.0,0.0,0.0,
2.449298999999999,0.0,0.0,false,4553727.104565538,,3670.0,0.5,547.5,0.0,0.0,0.125,1.8212888760000001,0.0,-0.0012207029999995456,-65394.0,0.125,-540.0,-0.0,0.0,0.0,2.733154017,0.0,0.0,26138.0,0.0,547.5,0.0,0.0,0.0,4.0234370880000005,0.0,-0.0012207030000004337,-42897.0,0.5,-570.0,-0.0,0.0,0.0,2.561034894,0.0,0.0,1.3600000143051147,-1.690000057220459,79.4800033569336,-0.241455078125,0.09210205078125,1.15911865234375,32.400001525878906,0.0,25.0,0.578704833984375,-2.15362548828125,Waiting,0.0,0.0,-114.0,0.0,0.0,0.0,0.0,0.0,
2.4818569999999998,0.0,0.0,false,4552980.635294118,,3670.0,0.25,367.5,420.0,0.0,1.75,1.8212888760000001,0.5533560492066917,0.0012207029999995456,-65394.0,0.0,-352.5,-420.0,0.0,5.875,2.8430172870000003,1.9228160581136373,0.0,26189.0,0.125,337.5,420.0,0.0,2.0,3.8403316380000003,4.40175868900686,0.0,-42944.0,0.0,-322.5,-420.0,0.0,9.5,2.248534926,3.0252667311543298,0.0,1.409999966621399,-2.119999885559082,79.55000305175781,-0.08441162109375,0.0606689453125,1.1480712890625,32.40999984741211,0.0,24.0,0.572174072265625,-2.1326904296875,Waiting,0.0,0.0,-114.0,0.0,0.0,0.0,0.0,0.0,
2.5678950000000005,0.0,0.0,false,4552176.035242291,,3716.0,0.25,232.5,420.0,0.0,0.875,2.031249792,0.5533560492066917,0.0,-65437.0,0.25,-232.5,-420.0,0.0,2.375,3.199462563,1.9228160581136373,0.0,26189.0,0.125,292.5,420.0,0.0,0.375,3.6828609510000003,4.40175868900686,-0.2343749759999998,-42944.0,0.0,-255.0,-420.0,0.0,2.25,2.00195292,3.0252667311543298,4.59349613,1.340000033378601,-2.119999885559082,79.55999755859375,-0.07574462890625,0.030517578125,0.78759765625,32.40999984741211,0.0,3.0,0.572021484375,-2.1249542236328125,Waiting,0.0,0.0,-114.0,0.0,0.0,0.0,0.0,0.0,
2.6016349999999986,0.0,0.0,false,4551267.683284458,,3716.0,0.25,210.0,420.0,0.0,0.625,2.1691892310000003,0.5533560492066917,0.11718748800000078,-65437.0,0.625,-210.0,-420.0,0.0,1.5,3.4680172230000004,1.9228160581136373,0.2880859080000002,26189.0,0.375,300.0,420.0,0.0,0.0,3.541259403,4.40175868900686,-0.2343749759999998,-42944.0,0.125,-225.0,-420.0,0.0,1.5,1.7578123200000002,3.0252667311543298,4.59349613,1.3300000429153442,-2.25,79.5199966430664,-0.08636474609375,0.033935546875,1.15887451171875,32.40999984741211,0.0,0.0,0.5716705322265625,-2.116912841796875,Waiting,0.0,0.0,-114.0,0.0,0.0,0.0,0.0,0.0,
2.631737000000001,0.0,0.0,false,4550305.346998536,,3716.0,0.375,210.0,420.0,0.0,0.5,2.313232185,0.5533560492066917,0.26733395699999996,-65465.0,1.125,-180.0,-420.0,0.0,1.625,3.7792964880000004,1.9228160581136373,0.49438471500000025,26230.0,0.75,292.5,420.0,0.0,0.0,3.45458949,4.40175868900686,-0.2563476300000005,-42974.0,0.625,-202.5,-420.0,0.0,1.5,1.467285006,3.0252667311543298,-0.47485346700000086,1.2899999618530273,-2.180000066757202,79.3499984741211,-0.0621337890625,0.0653076171875,0.9871826171875,32.40999984741211,0.0,37.0,0.5710601806640625,-2.1046142578125,Waiting,0.0,0.0,-114.0,0.0,0.0,0.0,0.0,0.0,
2.6715989999999983,0.0,0.0,false,4549289.438596491,,3755.0,0.375,232.5,420.0,0.0,0.25,2.348632572,0.5533560492066917,0.1171874879999999,-65465.0,1.5,-172.5,-420.0,0.0,1.75,4.0258784940000005,1.9228160581136373,0.313720671,26230.0,1.25,247.5,420.0,0.0,0.0,3.443603163,4.40175868900686,-0.07812499199999934,-42974.0,1.125,-180.0,-420.0,0.0,1.875,1.226806515,3.0252667311543298,-0.2746581749999999,1.2699999809265137,-2.109999895095825,79.16999816894531,0.0225830078125,0.026123046875,1.00341796875,32.40999984741211,0.0,14.0,0.570648193359375,-2.0963897705078125,Waiting,0.0,0.0,-114.0,0.0,0.0,0.0,0.0,0.0,
2.7074530000000014,0.0,0.0,false,4548170.849635037,,3755.0,0.625,247.5,420.0,0.0,0.25,2.3767087410000003,0.5533560492066917,0.1171874879999999,-65465.0,1.5,-187.5,-420.0,0.0,1.5,4.251708549,1.9228160581136373,0.313720671,26230.0,1.375,210.0,420.0,0.0,0.0,3.44238246,4.40175868900686,-0.07812499199999934,-42974.0,1.75,-90.0,-420.0,0.0,1.875,1.040038956,3.0252667311543298,-0.2746581749999999,1.25,-2.0899999141693115,78.94000244140625,-0.0421142578125,0.01495361328125,1.009033203125,32.40999984741211,0.0,-8.0,0.5704345703125,-2.0883026123046875,Waiting,0.0,0.0,-114.0,0.0,0.0,0.0,0.0,0.0,
2.7339320000000007,0.0,0.0,false,4546999.113702624,,3755.0,1.0,195.0,420.0,0.0,0.125,2.3742673350000003,0.5533560492066917,0.052490229,-65465.0,2.0,-255.0,-420.0,0.0,1.125,4.482421416,1.9228160581136373,0.4492187040000002,26230.0,1.125,135.0,420.0,0.0,0.0,3.438720351,4.40175868900686,-0.009765623999999917,-42974.0,2.125,-45.0,-420.0,0.0,1.5,0.809326089,3.0252667311543298,-0.44311518900000024,1.309999942779541,-2.109999895095825,78.69000244140625,-0.0556640625,0.0615234375,1.00775146484375,32.40999984741211,0.0,33.0,0.5704498291015625,-2.088287353515625,Waiting,0.0,0.0,-114.0,0.0,0.0,0.0,0.0,0.0,
2.7707319999999998,0.0,0.0,false,4545725.449781659,,3775.0,1.25,157.5,420.0,0.0,0.125,2.3754880380000003,0.5533560492066917,-0.0012207030000004337,-65503.0,2.625,-240.0,-420.0,0.0,0.375,4.599608904,1.9228160581136373,0.2343749759999998,26251.0,2.0,120.0,420.0,0.0,0.0,3.443603163,4.40175868900686,-0.0012207030000004337,-42976.0,3.375,-15.0,-420.0,0.0,0.375,0.7104491460000001,3.0252667311543298,-0.22460935199999987,1.3799999952316284,-2.049999952316284,78.30999755859375,-0.00933837890625,0.12237548828125,0.885986328125,32.40999984741211,0.0,103.0,0.570831298828125,-2.0883026123046875,Waiting,0.0,0.0,-114.0,0.0,0.0,0.0,0.0,0.0,
2.810485000000001,0.0,0.0,false,4544399.430232558,,3775.0,1.875,112.5,420.0,0.0,0.125,2.3706052260000003,0.5533560492066917,-0.0012207030000004337,-65503.0,2.875,-195.0,-420.0,0.0,0.125,4.62646437,1.9228160581136373,0.2343749759999998,26251.0,2.5,142.5,420.0,0.0,0.0,3.45458949,4.40175868900686,-0.0012207030000004337,-42976.0,4.625,-15.0,-420.0,0.0,0.0,0.667724541,3.0252667311543298,-0.22460935199999987,1.3700000047683716,-2.0199999809265137,77.94000244140625,-0.11309814453125,0.1199951171875,1.1043701171875,32.40999984741211,0.0,75.0,0.5712738037109375,-2.0885467529296875,Waiting,0.0,0.0,-114.0,0.0,0.0,0.0,0.0,0.0,
2.846544999999998,0.0,0.0,false,4543021.201741654,,3775.0,2.25,127.5,420.0,0.0,0.125,2.3718259290000003,0.5533560492066917,0.0012207030000004337,-65503.0,3.75,-112.5,-420.0,0.0,0.125,4.604491716,1.9228160581136373,0.09033202200000012,26251.0,3.0,195.0,420.0,0.0,0.0,3.444823866,4.40175868900686,0.0012207030000004337,-42976.0,5.125,-15.0,-420.0,0.0,0.0,0.6726073530000001,3.0252667311543298,-0.1293945179999998,1.4299999475479126,-2.0299999713897705,77.47000122070312,-0.04876708984375,0.01123046875,1.05517578125,32.40999984741211,0.0,-17.0,0.571868896484375,-2.088653564453125,Waiting,0.0,0.0,-114.0,0.0,0.0,0.0,0.0,0.0,
2.8778640000000015,0.0,0.0,false,4541542.0869565215,,3775.0,2.375,142.5,420.0,0.0,0.125,2.3706052260000003,0.5533560492066917,-0.0024414059999999793,-65524.0,4.125,-120.0,-420.0,0.0,0.0,4.594726092,1.9228160581136373,0.0,26287.0,2.75,217.5,420.0,0.0,0.0,3.443603163,4.40175868900686,0.0,-42979.0,5.625,-7.5,-420.0,0.0,0.0,0.6726073530000001,3.0252667311543298,0.0,1.4800000190734863,-1.9900000095367432,76.58000183105469,-0.04931640625,0.137939453125,0.98272705078125,32.40999984741211,0.0,105.0,0.5731201171875,-2.0887298583984375,Waiting,0.0,0.0,-114.0,0.0,0.0,0.0,0.0,0.0,
2.911976999999999,0.0,0.0,false,4540011.2532561505,,3803.0,2.625,172.5,420.0,0.0,0.125,2.3828122560000002,0.5533560492066917,-0.0024414059999999793,-65524.0,4.375,-135.0,-420.0,0.0,0.0,4.588622577000001,1.9228160581136373,0.0,26287.0,2.875,210.0,420.0,0.0,0.0,3.433837539,4.40175868900686,0.0,-42979.0,5.25,-30.0,-420.0,0.0,0.0,0.667724541,3.0252667311543298,0.0,1.5700000524520874,-1.899999976158142,75.94999694824219,0.01275634765625,0.00335693359375,1.069091796875,32.40999984741211,0.0,-13.0,0.574310302734375,-2.0889739990234375,Waiting,0.0,0.0,-114.0,0.0,0.0,0.0,0.0,0.0,
2.949829999999998,0.0,0.0,false,4538429.10982659,,3803.0,2.5,202.5,420.0,0.0,0.125,2.3742673350000003,0.5533560492066917,-0.0012207029999995456,-65524.0,4.75,-180.0,-420.0,0.0,0.0,4.584960468,1.9228160581136373,-0.009765623999999917,26287.0,3.75,217.5,420.0,0.0,0.0,3.438720351,4.40175868900686,0.0,-42979.0,5.0,-75.0,-420.0,0.0,0.0,0.668945244,3.0252667311543298,0.0,1.5399999618530273,-1.850000023841858,75.29000091552734,0.01605224609375,0.0113525390625,0.98468017578125,32.40999984741211,0.0,-2.0,0.574310302734375,-2.089508056640625,Waiting,0.0,0.0,-114.0,0.0,0.0,0.0,0.0,0.0,
2.9830669999999992,0.0,0.0,false,4536747.105339105,,3803.0,2.5,232.5,420.0,0.0,0.125,2.3767087410000003,0.5533560492066917,0.0,-65524.0,4.875,-217.5,-420.0,0.0,0.0,4.586181171000001,1.9228160581136373,-0.008544921000000372,26287.0,3.375,240.0,420.0,0.0,0.0,3.4277340240000003,4.40175868900686,-0.006103515000000392,-42979.0,5.0,-180.0,-420.0,0.0,0.0,0.667724541,3.0252667311543298,-0.004882811999999959,1.5399999618530273,-1.7799999713897705,74.08999633789062,0.0162353515625,-0.04949951171875,1.041748046875,32.40999984741211,0.0,-61.0,0.57421875,-2.090545654296875,Waiting,0.0,0.0,-114.0,0.0,0.0,0.0,0.0,0.0,
3.0200289999999987,0.0,0.0,false,4535014.201729107,,3844.0,2.5,247.5,420.0,0.0,0.125,2.3815915530000002,0.5533560492066917,0.0,-65564.0,4.875,-232.5,-420.0,0.0,0.0,4.583739765000001,1.9228160581136373,-0.008544921000000372,26328.0,3.25,247.5,420.0,0.0,0.0,3.441161757,4.40175868900686,0.0012207030000004337,-43020.0,4.875,-270.0,-420.0,0.0,0.0,0.668945244,3.0252667311543298,0.0,1.5399999618530273,-1.6699999570846558,73.16000366210938,0.0435791015625,0.01531982421875,0.85272216796875,32.38999938964844,0.0,12.0,0.574005126953125,-2.0914764404296875,Waiting,0.0,0.0,-114.0,0.0,0.0,0.0,0.0,0.0,
3.057468000000001,0.0,0.0,false,4533178.728057554,,3844.0,2.5,277.5,420.0,0.0,0.125,2.3767087410000003,0.5533560492066917,0.0012207029999995456,-65564.0,4.625,-270.0,-420.0,0.0,0.0,4.593505389000001,1.9228160581136373,-0.0012207029999995456,26328.0,3.25,292.5,420.0,0.0,0.0,3.4155269940000004,4.40175868900686,0.0012207030000004337,-43020.0,4.625,-300.0,-420.0,0.0,0.0,0.667724541,3.0252667311543298,0.0,1.5700000524520874,-1.5499999523162842,71.55000305175781,0.06060791015625,0.05682373046875,0.92523193359375,32.38999938964844,0.0,56.0,0.57403564453125,-2.093414306640625,Waiting,0.0,0.0,-114.0,0.0,0.0,0.0,0.0,0.0,
3.0891630000000005,0.0,0.0,false,4531296.540229885,,3844.0,2.5,292.5,420.0,0.0,0.125,2.3754880380000003,0.5533560492066917,0.0024414059999999793,-65564.0,4.5,-307.5,-420.0,0.0,0.0,4.583739765000001,1.9228160581136373,0.0,26328.0,3.0,360.0,420.0,0.0,0.0,3.439941054,4.40175868900686,0.0,-43020.0,4.0,-345.0,-420.0,0.0,0.0,0.667724541,3.0252667311543298,0.0,1.6100000143051147,-1.4800000190734863,70.33999633789062,0.05267333984375,0.09814453125,1.0185546875,32.38999938964844,0.0,92.0,0.57415771484375,-2.0949554443359375,Waiting,0.0,0.0,-114.0,0.0,0.0,0.0,0.0,0.0,
3.1233899999999992,0.0,0.0,false,4529364.235294118,,3844.0,2.25,345.0,420.0,0.0,0.125,2.387695068,0.5533560492066917,0.0024414059999999793,-65619.0,4.375,-322.5,-420.0,0.0,0.0,4.584960468,1.9228160581136373,0.0,26397.0,2.75,390.0,420.0,0.0,0.0,3.438720351,4.40175868900686,0.0,-43075.0,3.625,-352.5,-420.0,0.0,0.0,0.668945244,3.0252667311543298,0.0,1.659999966621399,-1.3600000143051147,69.05000305175781,0.04705810546875,0.02081298828125,0.9073486328125,32.38999938964844,0.0,19.0,0.57452392578125,-2.0967559814453125,Waiting,0.0,0.0,-114.0,0.0,0.0,0.0,0.0,0.0,
3.1540819999999985,0.0,0.0,false,4527333.787965616,,3905.0,2.125,367.5,420.0,0.0,0.125,2.369384523,0.5533560492066917,0.0,-65619.0,4.25,-352.5,-420.0,0.0,0.0,4.58984328,1.9228160581136373,0.0,26397.0,2.375,427.5,420.0,0.0,0.0,3.438720351,4.40175868900686,0.0,-43075.0,3.625,-345.0,-420.0,0.0,0.0,0.670165947,3.0252667311543298,0.0,1.7000000476837158,-1.2899999618530273,67.77999877929688,-0.08709716796875,0.0682373046875,1.06817626953125,32.38999938964844,0.0,9.0,0.57452392578125,-2.0988006591796875,Waiting,0.0,0.0,-114.0,0.0,0.0,0.0,0.0,0.0,
3.1882890000000006,0.0,0.0,false,4525253.974248927,,3905.0,1.875,412.5,420.0,0.0,0.125,2.3840329590000002,0.5533560492066917,0.0,-65619.0,4.25,-367.5,-420.0,0.0,0.0,4.575194844,1.9228160581136373,0.0,26397.0,2.125,450.0,420.0,0.0,0.0,3.439941054,4.40175868900686,0.0,-43075.0,3.5,-390.0,-420.0,0.0,0.0,0.668945244,3.0252667311543298,0.0,1.7200000286102295,-1.2100000381469727,65.79000091552734,-0.02392578125,0.1220703125,1.1123046875,32.38999938964844,0.0,80.0,0.5744171142578125,-2.1019439697265625,Waiting,0.0,0.0,-114.0,0.0,0.0,0.0,0.0,0.0,
3.229738000000001,0.0,0.0,false,4525917.234285714,,3905.0,1.625,427.5,420.0,0.0,0.125,2.3754880380000003,0.5533560492066917,-0.004882811999999959,-65619.0,4.0,-382.5,-420.0,0.0,0.0,4.586181171000001,1.9228160581136373,0.0,26397.0,2.0,465.0,420.0,0.0,0.0,3.438720351,4.40175868900686,0.0,-43148.0,3.25,-457.5,-420.0,0.0,0.0,0.665283135,3.0252667311543298,0.0012207029999999897,1.7100000381469727,-1.159999966621399,64.41000366210938,0.03924560546875,0.0411376953125,0.910400390625,32.38999938964844,0.0,37.0,0.574310302734375,-2.104095458984375,Waiting,0.0,0.0,-114.0,0.0,0.0,0.0,0.0,0.0,
3.265915000000001,0.0,0.0,false,4526510.573466476,,3977.0,1.625,435.0,420.0,0.0,0.125,2.3718259290000003,0.5533560492066917,-0.004882811999999959,-65685.0,3.75,-397.5,-420.0,0.0,0.0,4.569091329,1.9228160581136373,0.0,26475.0,1.75,480.0,420.0,0.0,0.0,3.439941054,4.40175868900686,0.0,-43148.0,3.125,-457.5,-420.0,0.0,0.0,0.667724541,3.0252667311543298,0.0012207029999999897,1.7599999904632568,-1.100000023841858,62.97999954223633,0.0433349609375,0.02740478515625,1.09417724609375,32.38999938964844,0.0,23.0,0.5743408203125,-2.106353759765625,Waiting,0.0,0.0,-114.0,0.0,0.0,0.0,0.0,0.0,
3.303983,0.0,0.0,false,4526995.532763532,,3977.0,1.5,450.0,420.0,0.0,0.125,2.3779294440000003,0.5533560492066917,0.0024414059999999793,-65685.0,3.75,-412.5,-420.0,0.0,0.0,4.583739765000001,1.9228160581136373,0.0,26475.0,1.75,487.5,420.0,0.0,0.0,3.438720351,4.40175868900686,0.0,-43148.0,2.875,-405.0,-420.0,0.0,0.0,0.668945244,3.0252667311543298,-0.0012207029999999897,1.8200000524520874,-0.9200000166893005,60.93000030517578,-0.02716064453125,0.0020751953125,0.83349609375,32.38999938964844,0.0,-28.0,0.5748443603515625,-2.1103363037109375,Waiting,0.0,0.0,-114.0,0.0,0.0,0.0,0.0,0.0,
3.33748,0.0,0.0,false,4527422.748221906,,3977.0,1.5,450.0,420.0,0.0,0.125,2.3706052260000003,0.5533560492066917,0.0012207029999995456,-65685.0,3.875,-412.5,-420.0,0.0,0.0,4.583739765000001,1.9228160581136373,0.0012207029999995456,26475.0,1.625,487.5,420.0,0.0,0.0,3.439941054,4.40175868900686,0.0,-43148.0,3.125,-397.5,-420.0,0.0,0.0,0.667724541,3.0252667311543298,0.0,1.850000023841858,-0.8999999761581421,59.560001373291016,0.0135498046875,-0.00445556640625,1.04437255859375,32.38999938964844,0.0,-17.0,0.5752105712890625,-2.1132049560546875,Waiting,0.0,0.0,-114.0,0.0,0.0,0.0,0.0,0.0,
3.3722069999999986,0.0,0.0,false,4527792.6477272725,,4049.0,1.5,457.5,420.0,0.0,0.125,2.3718259290000003,0.5533560492066917,0.0,-65749.0,3.75,-405.0,-420.0,0.0,0.0,4.584960468,1.9228160581136373,0.0,26552.0,1.625,487.5,420.0,0.0,0.0,3.44238246,4.40175868900686,0.0,-43217.0,3.0,-442.5,-420.0,0.0,0.0,0.668945244,3.0252667311543298,0.0,1.8200000524520874,-0.8500000238418579,57.4900016784668,-0.01519775390625,0.05767822265625,0.841064453125,32.38999938964844,0.0,24.0,0.57537841796875,-2.1161346435546875,Waiting,0.0,0.0,-114.0,0.0,0.0,0.0,0.0,0.0,
3.4082819999999994,0.0,0.0,false,4528052.278014184,,4049.0,1.375,450.0,420.0,0.0,0.125,2.3767087410000003,0.5533560492066917,0.0,-65749.0,3.75,-405.0,-420.0,0.0,0.0,4.583739765000001,1.9228160581136373,0.0,26552.0,1.5,480.0,420.0,0.0,0.0,3.439941054,4.40175868900686,0.0,-43217.0,2.875,-442.5,-420.0,0.0,0.0,0.662841729,3.0252667311543298,0.0,1.9500000476837158,-0.8299999833106995,56.11000061035156,0.0594482421875,0.018798828125,1.2366943359375,32.38999938964844,0.0,23.0,0.5756683349609375,-2.1161041259765625,Waiting,0.0,0.0,-114.0,0.0,0.0,0.0,0.0,0.0,
3.436297999999999,0.0,0.0,false,4528258.130311615,,4049.0,1.375,450.0,420.0,0.0,0.125,2.3706052260000003,0.5533560492066917,0.0012207030000004337,-65749.0,3.75,-405.0,-420.0,0.0,0.0,4.584960468,1.9228160581136373,-0.0012207029999995456,26552.0,1.5,487.5,420.0,0.0,0.0,3.438720351,4.40175868900686,0.0,-43217.0,2.875,-420.0,-420.0,0.0,0.0,0.664062432,3.0252667311543298,-0.004882811999999959,1.8700000047683716,-0.6700000166893005,54.790000915527344,0.0291748046875,0.01171875,0.64251708984375,32.38999938964844,0.0,13.0,0.576019287109375,-2.11627197265625,Waiting,0.0,0.0,-114.0,0.0,0.0,0.0,0.0,0.0,
3.4762690000000003,0.0,0.0,false,4528407.366336633,,4049.0,1.5,442.5,420.0,0.0,0.125,2.3718259290000003,0.5533560492066917,0.0,-65813.0,4.0,-397.5,-420.0,0.0,0.0,4.584960468,1.9228160581136373,0.0012207029999995456,26629.0,1.375,487.5,420.0,0.0,0.0,3.438720351,4.40175868900686,0.0,-43287.0,2.875,-435.0,-420.0,0.0,0.0,0.664062432,3.0252667311543298,0.0012207029999999897,1.940000057220459,-0.6800000071525574,52.77000045776367,0.05322265625,0.021240234375,1.02484130859375,32.38999938964844,0.0,28.0,0.5764923095703125,-2.1165771484375,Waiting,0.0,0.0,-114.0,0.0,0.0,0.0,0.0,0.0,
3.512285,0.0,0.0,false,4528447.502824859,,4119.0,1.5,435.0,420.0,0.0,0.125,2.3718259290000003,0.5533560492066917,0.0,-65813.0,4.0,-397.5,-420.0,0.0,0.0,4.584960468,1.9228160581136373,0.0012207029999995456,26629.0,1.375,472.5,420.0,0.0,0.0,3.438720351,4.40175868900686,0.0,-43287.0,2.875,-442.5,-420.0,0.0,0.0,0.664062432,3.0252667311543298,0.0012207029999999897,1.9199999570846558,-0.6000000238418579,51.40999984741211,-0.0269775390625,0.1036376953125,0.87261962890625,32.36000061035156,0.0,47.0,0.576812744140625,-2.116790771484375,Waiting,0.0,0.0,-114.0,0.0,0.0,0.0,0.0,0.0,
3.5482439999999986,0.0,0.0,false,4528431.638928068,,4119.0,1.375,435.0,420.0,0.0,0.125,2.3767087410000003,0.5533560492066917,-0.0012207030000004337,-65813.0,4.0,-405.0,-420.0,0.0,0.0,4.584960468,1.9228160581136373,0.0,26629.0,1.125,465.0,420.0,0.0,0.0,3.444823866,4.40175868900686,0.0,-43287.0,2.625,-427.5,-420.0,0.0,0.0,0.664062432,3.0252667311543298,-0.0012207029999999897,2.049999952316284,-0.5400000214576721,50.04999923706055,-0.0086669921875,0.11572265625,1.093994140625,32.36000061035156,0.0,59.0,0.57733154296875,-2.1169281005859375,Waiting,0.0,0.0,-114.0,0.0,0.0,0.0,0.0,0.0,
3.578182000000001,0.0,0.0,false,4528363.076056338,,4119.0,1.375,435.0,420.0,0.0,0.125,2.36816382,0.5533560492066917,-0.0012207029999995456,-65813.0,3.875,-412.5,-420.0,0.0,0.0,4.583739765000001,1.9228160581136373,0.0,26629.0,1.375,472.5,420.0,0.0,0.0,3.439941054,4.40175868900686,0.0,-43287.0,2.875,-405.0,-420.0,0.0,0.0,0.665283135,3.0252667311543298,0.0,2.009999990463257,-0.41999998688697815,48.11000061035156,0.00677490234375,0.08917236328125,1.11590576171875,32.36000061035156,0.0,47.0,0.5782470703125,-2.1172027587890625,Waiting,0.0,0.0,-114.0,0.0,0.0,0.0,0.0,0.0,
3.6206389999999993,0.0,0.0,false,4528186.486638538,,4189.0,1.375,435.0,420.0,0.0,0.0,2.3706052260000003,0.5533560492066917,-0.0012207029999995456,-65879.0,4.125,-405.0,-420.0,0.0,0.0,4.584960468,1.9228160581136373,0.0,26705.0,1.5,472.5,420.0,0.0,0.0,3.438720351,4.40175868900686,0.0,-43354.0,3.0,-412.5,-420.0,0.0,0.0,0.664062432,3.0252667311543298,0.0,1.9900000095367432,-0.3799999952316284,46.810001373291016,-0.01348876953125,0.0150146484375,0.91748046875,32.36000061035156,0.0,-17.0,0.578765869140625,-2.1173095703125,Waiting,0.0,0.0,-114.0,0.0,0.0,0.0,0.0,0.0,
3.6522069999999984,0.0,0.0,false,4527954.842696629,,4189.0,1.5,427.5,420.0,0.0,0.0,2.365722414,0.5533560492066917,0.0024414059999999793,-65879.0,4.125,-397.5,-420.0,0.0,0.0,4.586181171000001,1.9228160581136373,0.0,26705.0,1.375,465.0,420.0,0.0,0.0,3.439941054,4.40175868900686,0.0,-43354.0,3.0,-420.0,-420.0,0.0,0.0,0.664062432,3.0252667311543298,0.0,2.0299999713897705,-0.3700000047683716,45.4900016784668,0.00439453125,0.02984619140625,1.04461669921875,32.36000061035156,0.0,2.0,0.5792694091796875,-2.117401123046875,Waiting,0.0,0.0,-114.0,0.0,0.0,0.0,0.0,0.0,
3.684316999999999,0.0,0.0,false,4527671.326788219,,4189.0,1.5,427.5,420.0,0.0,0.125,2.366943117,0.5533560492066917,-0.0012207030000004337,-65879.0,4.125,-397.5,-420.0,0.0,0.0,4.583739765000001,1.9228160581136373,-0.0012207029999995456,26705.0,1.125,442.5,420.0,0.0,0.0,3.438720351,4.40175868900686,0.0,-43354.0,2.875,-412.5,-420.0,0.0,0.0,0.664062432,3.0252667311543298,0.0,2.0,-0.2800000011920929,44.18000030517578,0.07183837890625,0.0723876953125,0.97369384765625,32.36000061035156,0.0,81.0,0.579925537109375,-2.117462158203125,Waiting,0.0,0.0,-114.0,0.0,0.0,0.0,0.0,0.0,
3.7201519999999983,0.0,0.0,false,4527280.672268908,,4189.0,1.5,420.0,420.0,0.0,0.125,2.3754880380000003,0.5533560492066917,-0.0012207030000004337,-65879.0,4.0,-397.5,-420.0,0.0,0.0,4.594726092,1.9228160581136373,-0.0012207029999995456,26779.0,1.125,457.5,420.0,0.0,0.0,3.438720351,4.40175868900686,0.0,-43419.0,2.875,-397.5,-420.0,0.0,0.0,0.666503838,3.0252667311543298,0.0,2.0199999809265137,-0.1899999976158142,42.2599983215332,-0.01763916015625,0.09075927734375,1.03790283203125,32.36000061035156,0.0,25.0,0.5813751220703125,-2.117462158203125,Waiting,0.0,0.0,-114.0,0.0,0.0,0.0,0.0,0.0,
3.759024000000001,0.0,0.0,false,4526835.871328671,,4257.0,1.125,420.0,0.0,0.0,0.125,2.3718259290000003,0.0,0.0012207030000004337,-65942.0,4.125,-390.0,-0.0,0.0,0.0,4.593505389000001,0.0,0.0,26779.0,0.625,465.0,0.0,0.0,0.0,3.439941054,0.0,0.0,-43419.0,2.5,-427.5,-0.0,0.0,0.0,0.664062432,0.0,0.0,2.0299999713897705,-0.15000000596046448,40.97999954223633,-0.01385498046875,-0.0279541015625,0.99365234375,32.36000061035156,0.0,-49.0,0.5823211669921875,-2.1173248291015625,Waiting,0.0,0.0,-114.0,0.0,0.0,0.0,0.0,0.0,
3.7917030000000014,0.0,0.0,false,4526336.972067039,,4257.0,0.5,405.0,0.0,0.0,0.25,2.366943117,0.0,-0.0012207030000004337,-65942.0,2.375,-375.0,-0.0,0.0,0.0,4.591063983000001,0.0,0.006103514999999504,26779.0,0.5,427.5,0.0,0.0,0.0,3.4753414410000003,0.0,0.0,-43419.0,1.0,-412.5,-0.0,0.0,0.25,0.664062432,0.0,0.0012207029999999897,2.0,-0.10999999940395355,39.060001373291016,0.16619873046875,0.01715087890625,1.0845947265625,32.36000061035156,0.0,117.0,0.5834197998046875,-2.1173248291015625,Waiting,0.0,0.0,-114.0,0.0,0.0,0.0,0.0,0.0,
3.827857,0.0,0.0,false,4525735.0069735,,4257.0,0.125,337.5,0.0,0.0,1.75,2.3315427300000002,0.0,-0.007324217999999938,-65942.0,0.75,-345.0,-0.0,0.0,5.625,4.403075721,0.0,-0.006103514999999504,26823.0,0.125,300.0,0.0,0.0,2.5,3.643798455,0.0,0.06469725899999901,-43474.0,0.5,-367.5,-0.0,0.0,7.875,0.9057616260000001,0.0,-0.0012207029999999897,2.0899999141693115,0.0,38.06999969482422,0.0926513671875,0.131591796875,0.9810791015625,32.36000061035156,0.0,131.0,0.584503173828125,-2.117431640625,Waiting,0.0,0.0,-114.0,0.0,0.0,0.0,0.0,0.0,
3.867198,0.0,0.0,false,4525079.710306407,,4300.0,0.125,285.0,0.0,0.0,1.75,2.207031024,0.0,-0.007324217999999938,-65990.0,0.75,-322.5,-0.0,0.0,3.375,4.184569884,0.0,-0.006103514999999504,26823.0,0.125,240.0,0.0,0.0,0.375,3.7915035180000003,0.0,0.06469725899999901,-43474.0,0.125,-322.5,-0.0,0.0,1.375,1.1376951960000001,0.0,-0.0012207029999999897,2.0299999713897705,0.05000000074505806,37.29999923706055,0.12969970703125,0.11541748046875,0.8583984375,32.36000061035156,0.0,153.0,0.5859527587890625,-2.1173095703125,Waiting,0.0,0.0,-114.0,0.0,0.0,0.0,0.0,0.0,
3.9055,0.0,0.0,false,4524371.226703756,,4300.0,0.25,202.5,0.0,0.0,0.25,2.048339634,0.0,-0.08911131899999969,-65990.0,1.125,-240.0,-0.0,0.0,1.125,3.870849213,0.0,-0.22460935200000076,26823.0,0.0,255.0,0.0,0.0,0.125,3.9404292840000004,0.0,0.17456052900000074,-43474.0,0.0,-382.5,-0.0,0.0,1.125,1.434326025,0.0,0.26977536299999993,2.009999990463257,0.1599999964237213,36.27000045776367,0.08770751953125,-0.02972412109375,0.7366943359375,32.36000061035156,0.0,36.0,0.5883026123046875,-2.1177520751953125,Waiting,0.0,0.0,-114.0,0.0,0.0,0.0,0.0,0.0,
3.933245999999999,0.0,0.0,false,4523560.688888889,,4300.0,0.25,180.0,0.0,0.0,0.25,1.929931443,0.0,-0.25756833300000004,-65990.0,1.5,-150.0,-0.0,0.0,1.125,3.596191038,0.0,-0.5078124479999997,26823.0,0.0,247.5,0.0,0.0,0.125,4.044189039,0.0,0.26733395699999996,-43474.0,0.0,-382.5,-0.0,0.0,1.125,1.7321775570000002,0.0,0.5053710420000002,2.0899999141693115,0.20000000298023224,35.720001220703125,0.05499267578125,0.15399169921875,1.08001708984375,32.36000061035156,0.0,108.0,0.590179443359375,-2.1184539794921875,Waiting,0.0,0.0,-114.0,0.0,0.0,0.0,0.0,0.0,
3.972012999999999,0.0,0.0,false,4522697.4535367545,,4334.0,0.125,210.0,0.0,0.0,0.125,1.8701169960000001,0.0,-0.11474608199999992,-66001.0,2.125,-75.0,-0.0,0.0,1.375,3.281249664,0.0,-0.29907223500000013,26850.0,0.0,172.5,0.0,0.0,0.0,4.07714802,0.0,-4.847798839,-43522.0,0.0,-315.0,-0.0,0.0,1.125,2.052001743,0.0,0.29541012600000016,2.130000114440918,0.33000001311302185,35.310001373291016,0.01995849609375,0.0892333984375,0.7315673828125,32.36000061035156,0.0,48.0,0.5937042236328125,-2.11932373046875,Waiting,0.0,0.0,-114.0,0.0,0.0,0.0,0.0,0.0,
4.021779999999999,0.0,0.0,false,4521779.047091412,,4334.0,0.125,217.5,0.0,0.0,0.125,1.8640134810000002,0.0,-0.11474608199999992,-66001.0,2.75,-22.5,-0.0,0.0,1.25,3.03955047,0.0,-0.29907223500000013,26850.0,0.0,127.5,0.0,0.0,0.0,4.082030832,0.0,-4.847798839,-43522.0,0.0,-172.5,-0.0,0.0,0.875,2.3278806210000003,0.0,0.3576659790000001,2.25,0.23999999463558197,35.2400016784668,-0.0311279296875,-0.0345458984375,1.1326904296875,32.36000061035156,0.0,-74.0,0.5975341796875,-2.119598388671875,Waiting,0.0,0.0,-114.0,0.0,0.0,0.0,0.0,0.0,
4.061137999999999,0.0,0.0,false,4520756.580912863,,4334.0,0.125,150.0,8.4,0.0,0.125,1.8652341840000002,4.963448484420777,-0.04150390200000054,-66001.0,3.0,0.0,-8.4,0.0,0.75,2.766112998,4.948450150966644,-0.3479003549999997,26850.0,0.0,127.5,8.4,0.0,0.0,4.0808101290000005,4.953449595451355,0.02929687200000064,-43522.0,0.125,-135.0,-8.4,0.0,0.5,2.507323962,4.946950317621231,0.3576659790000001,2.0799999237060547,0.1899999976158142,35.209999084472656,-0.0087890625,-0.1160888671875,0.85888671875,32.36000061035156,0.0,-94.0,0.5996246337890625,-2.119873046875,Waiting,0.0,0.0,-114.0,0.0,0.0,0.0,0.0,0.0,
4.089431,0.0,0.0,false,4519682.386740332,,4346.0,0.25,112.5,8.4,0.0,0.125,1.8652341840000002,4.962483213806153,0.0,-66001.0,3.0,0.0,-8.4,0.0,0.375,2.6391598860000003,4.947487797164917,-0.47119135800000045,26873.0,0.0,135.0,8.4,0.0,0.0,4.0808101290000005,4.952486269378662,0.0012207029999995456,-43547.0,0.25,-157.5,-8.4,0.0,0.0,2.613525123,4.945988255500794,0.4174804259999991,2.0,0.10000000149011612,35.099998474121094,-0.00518798828125,-0.02325439453125,1.13958740234375,32.36000061035156,0.0,-42.0,0.60205078125,-2.120880126953125,Waiting,0.0,0.0,-114.0,0.0,0.0,0.0,0.0,0.0,
