Time,ClimberA1,ClimberA2,CameraExists,HeapSpace,LoopTime,FRpos,FRCurrent,FRspeed,FRsetpoint,FRApos,FRACurrent,FREncpos,FREncSetpoint,FREncSpeed,FLpos,FLCurrent,FLspeed,FLsetpoint,FLApos,FLACurrent,FLEncpos,FLEncSetpoint,FLEncSpeed,BRpos,BRCurrent,BRspeed,BRsetpoint,BRApos,BRACurrent,BREncpos,BREncSetpoint,BREncSpeed,BLpos,BLCurrent,BLspeed,BLsetpoint,BLApos,BLACurrent,BLEncpos,BLEncSetpoint,BLEncSpeed,navx_Pitch,navx_Roll,navx_Yaw,navx_XAcc,navx_YAcc,navx_ZAcc,navx_Temp,navx_Bar,navx_Alt,navx_XDis,navx_YDis,GearPlacerState,ShootOutputV,ShootOutputCurrent,ShootEncPos,ShootEncVelocity,ShootSpeed,ShootSetpoint,CarouselSetpoint,CarouselCurrent,
0.2000450000000419,0.0,0.0,false,4349586.804243009,,25142.0,0.0,0.0,0.0,0.0,0.125,1.8640134810000002,0.0,0.0,-88331.0,0.0,0.0,-0.0,0.0,0.0,2.666015352,0.0,0.0,59358.0,0.0,0.0,0.0,0.0,0.0,4.018554276000001,0.0,0.0,-68386.0,0.0,0.0,-0.0,0.0,0.0,2.57568333,0.0,0.0,1.25,0.4099999964237213,26.040000915527344,-0.22052001953125,-0.0970458984375,0.75213623046875,33.20000076293945,0.0,-252.0,2.918365478515625,0.206878662109375,Waiting,0.0,0.0,-113.0,0.0,0.0,0.0,0.0,0.0,
0.35525200000003676,0.0,0.0,false,4349608.66147047,,25142.0,0.0,0.0,0.0,0.0,0.125,1.860351372,0.0,0.0,-88331.0,0.0,0.0,-0.0,0.0,0.0,2.666015352,0.0,0.0,59358.0,0.0,0.0,0.0,0.0,0.0,4.018554276000001,0.0,0.0,-68386.0,0.0,0.0,-0.0,0.0,0.0,2.574462627,0.0,0.0,1.2999999523162842,0.38999998569488525,26.040000915527344,0.04779052734375,0.09100341796875,0.98712158203125,33.20000076293945,0.0,66.0,2.918792724609375,0.2028045654296875,Waiting,0.0,0.0,-113.0,0.0,0.0,0.0,0.0,0.0,
0.513396000000008,0.0,0.0,false,4349612.547003053,,25142.0,0.0,0.0,0.0,0.0,0.125,1.8652341840000002,0.0,0.0,-88331.0,0.0,0.0,-0.0,0.0,0.0,2.666015352,0.0,0.0,59358.0,0.0,0.0,0.0,0.0,0.0,4.017333573,0.0,0.0,-68386.0,0.0,0.0,-0.0,0.0,0.0,2.574462627,0.0,0.0,1.3300000429153442,0.3799999952316284,26.040000915527344,0.07159423828125,0.02142333984375,1.04400634765625,33.20000076293945,0.0,56.0,2.9180908203125,0.2000885009765625,Waiting,0.0,0.0,-113.0,0.0,0.0,0.0,0.0,0.0,
0.669280000000028,0.0,0.0,false,4349599.371414798,,25142.0,0.0,0.0,0.0,0.0,0.125,1.860351372,0.0,0.0,-88331.0,0.0,0.0,-0.0,0.0,0.0,2.666015352,0.0,0.0,59358.0,0.0,0.0,0.0,0.0,0.0,4.017333573,0.0,0.0,-68386.0,0.0,0.0,-0.0,0.0,0.0,2.574462627,0.0,0.0,1.2300000190734863,0.3199999928474426,26.040000915527344,-0.0546875,0.14471435546875,0.84417724609375,33.20000076293945,0.0,2.0,2.91796875,0.1998748779296875,Waiting,0.0,0.0,-113.0,0.0,0.0,0.0,0.0,0.0,
0.8222570000000414,0.0,0.0,false,4349568.232647815,,25142.0,0.0,0.0,0.0,0.0,0.125,1.860351372,0.0,0.0,-88331.0,0.0,0.0,-0.0,0.0,0.0,2.666015352,0.0,0.0,59358.0,0.0,0.0,0.0,0.0,0.0,4.019774979,0.0,0.0,-68386.0,0.0,0.0,-0.0,0.0,0.0,2.574462627,0.0,0.0,1.340000033378601,0.3700000047683716,26.040000915527344,0.0811767578125,-0.05572509765625,0.94378662109375,33.209999084472656,0.0,33.0,2.9167633056640625,0.2037353515625,Waiting,0.0,0.0,-113.0,0.0,0.0,0.0,0.0,0.0,
0.9764210000000312,0.0,0.0,false,4349519.135030926,,25142.0,0.0,0.0,0.0,0.0,0.125,1.860351372,0.0,0.0,-88331.0,0.0,0.0,-0.0,0.0,0.0,2.666015352,0.0,0.0,59358.0,0.0,0.0,0.0,0.0,0.0,4.019774979,0.0,0.0,-68386.0,0.0,0.0,-0.0,0.0,0.0,2.574462627,0.0,0.0,1.3600000143051147,0.3499999940395355,26.030000686645508,0.01287841796875,0.08349609375,1.11724853515625,33.209999084472656,0.0,30.0,2.9156494140625,0.2059326171875,Waiting,0.0,0.0,-113.0,0.0,0.0,0.0,0.0,0.0,
1.1445740000000224,0.0,0.0,false,4349455.425542168,,25142.0,0.0,0.0,0.0,0.0,0.125,1.861572075,0.0,0.0,-88331.0,0.0,0.0,-0.0,0.0,0.0,2.667236055,0.0,0.0,59358.0,0.0,0.0,0.0,0.0,0.0,4.018554276000001,0.0,0.0,-68386.0,0.0,0.0,-0.0,0.0,0.0,2.574462627,0.0,0.0,1.3600000143051147,0.3799999952316284,26.040000915527344,-0.0458984375,0.0301513671875,0.94580078125,33.209999084472656,0.0,-43.0,2.9146881103515625,0.2082672119140625,Waiting,0.0,0.0,-113.0,0.0,0.0,0.0,0.0,0.0,
1.3072200000000302,0.0,0.0,false,4349373.765320054,,25113.0,1.375,-195.0,-595.2756071090697,0.0,0.125,1.859130669,4.963999999999999,0.0,-88308.0,2.5,157.5,595.2756071090697,0.0,0.0,2.667236055,4.948999999999997,0.0,59328.0,1.625,-202.5,-595.2756071090697,0.0,0.0,4.038085524,2.346685808637024E-15,0.0,-68361.0,1.5,172.5,595.2756071090697,0.0,0.0,2.574462627,2.343606790115397E-15,0.0,1.4299999475479126,0.09000000357627869,26.139999389648438,0.0528564453125,0.04888916015625,1.23370361328125,33.18000030517578,0.0,53.0,2.9114227294921875,0.2091522216796875,Waiting,0.0,0.0,-113.0,0.0,0.0,0.0,0.0,0.0,
1.4673130000000238,0.0,0.0,false,4349272.576292965,,25092.0,4.5,-172.5,-654.8031377792358,0.0,0.125,1.860351372,4.963999999999999,0.0,-88281.0,5.125,232.5,654.8031377792358,0.0,0.0,2.647704807,4.948999999999997,0.0,59307.0,4.875,-180.0,-654.8031377792358,0.0,0.0,4.038085524,2.346685808637024E-15,0.0,-68340.0,4.875,202.5,654.8031377792358,0.0,0.0,2.573241924,2.343606790115397E-15,0.0,1.4600000381469727,-0.6100000143051147,26.100000381469727,-0.0517578125,-0.005615234375,1.09295654296875,33.18000030517578,0.0,-50.0,2.9000701904296875,0.2115631103515625,Waiting,0.0,0.0,-113.0,0.0,0.0,0.0,0.0,0.0,
1.628152999999991,0.0,0.0,false,4349153.445434835,,25038.0,12.375,-577.5,-1309.6062755584717,0.0,0.125,1.860351372,4.963999999999999,0.0,-88102.0,13.125,652.5,1309.6062755584717,0.0,0.0,2.5854489540000003,4.948999999999997,0.0,59116.0,10.875,-772.5,-1309.6062755584717,0.0,0.0,4.039306227,2.346685808637024E-15,0.0,-68164.0,12.5,712.5,1309.6062755584717,0.0,0.0,2.574462627,2.343606790115397E-15,0.0,1.4500000476837158,-2.25,25.670000076293945,-0.2930908203125,-0.06182861328125,0.62896728515625,33.18000030517578,0.0,-275.0,2.86407470703125,0.22637939453125,Waiting,0.0,0.0,-113.0,0.0,0.0,0.0,0.0,0.0,
1.8061959999999964,0.0,0.0,false,4349180.553075317,,24754.0,9.0,-1102.5,-1329.4487857818604,0.0,0.125,1.861572075,4.963999999999999,0.0,-87921.0,8.25,1162.5,1329.4487857818604,0.0,0.0,2.613525123,4.948999999999997,0.0,58937.0,7.25,-1147.5,-1329.4487857818604,0.0,0.0,4.04052693,2.346685808637024E-15,0.0,-67985.0,7.75,1185.0,1329.4487857818604,0.0,0.0,2.57568333,2.343606790115397E-15,0.0,1.5,-3.1600000858306885,24.899999618530273,-0.1231689453125,0.05963134765625,0.569091796875,33.220001220703125,0.0,-64.0,2.798065185546875,0.25567626953125,Waiting,0.0,0.0,-113.0,0.0,0.0,0.0,0.0,0.0,
1.9679980000000215,0.0,0.0,false,4349187.713849859,,24545.0,6.0,-1372.5,-1349.291296005249,0.0,0.125,1.850585748,4.963999999999999,0.0,-87705.0,4.875,1417.5,1349.291296005249,0.0,0.0,2.6843258970000003,4.948999999999997,0.0,58728.0,4.5,-1357.5,-1349.291296005249,0.0,0.0,4.042968336,2.346685808637024E-15,0.0,-67771.0,4.875,1387.5,1349.291296005249,0.0,0.0,2.564697003,2.343606790115397E-15,0.0,1.5,-3.440000057220459,24.260000228881836,0.022216796875,0.02301025390625,1.0206298828125,33.220001220703125,0.0,74.0,2.717376708984375,0.2872161865234375,Waiting,0.0,0.0,-113.0,0.0,0.0,0.0,0.0,0.0,
2.125498000000021,0.0,0.0,false,4349177.691714836,,24082.0,4.75,-1470.0,-1388.9763164520261,0.0,0.125,1.860351372,4.963999999999999,0.0,-87232.0,3.375,1507.5,1388.9763164520261,0.0,0.0,2.705077848,4.948999999999997,0.0,58262.0,2.625,-1485.0,-1388.9763164520261,0.0,0.0,4.042968336,2.346685808637024E-15,0.0,-67296.0,2.875,1522.5,1388.9763164520261,0.0,0.0,2.574462627,2.343606790115397E-15,0.0,1.409999966621399,-3.309999942779541,23.56999969482422,0.03515625,-0.0118408203125,0.93463134765625,33.220001220703125,0.0,67.0,2.6472930908203125,0.2942352294921875,Waiting,0.0,0.0,-113.0,0.0,0.0,0.0,0.0,0.0,
2.2874010000000125,0.0,0.0,false,4349150.490808381,,23839.0,3.375,-1522.5,-1388.9763164520261,0.0,0.125,1.860351372,4.963999999999999,0.0,-86987.0,2.0,1522.5,1388.9763164520261,0.0,0.0,2.703857145,4.948999999999997,0.0,58021.0,1.75,-1500.0,-1388.9763164520261,0.0,0.0,4.042968336,2.346685808637024E-15,0.0,-67050.0,1.75,1537.5,1388.9763164520261,0.0,0.0,2.574462627,2.343606790115397E-15,0.0,1.5,-2.859999895095825,22.989999771118164,-0.18304443359375,-0.20684814453125,0.8082275390625,33.11000061035156,0.0,-220.0,2.64971923828125,0.287750244140625,Waiting,0.0,0.0,-113.0,0.0,0.0,0.0,0.0,0.0,
2.451942000000039,0.0,0.0,false,4349106.115267298,,23596.0,4.5,-1492.5,-1532.5357215630788,0.0,0.125,1.859130669,0.060494843027281406,0.0,-86747.0,0.75,1425.0,1255.3933467231466,0.0,0.0,2.720946987,0.07366201418114361,0.0,57782.0,3.625,-1515.0,-1532.5357215630788,0.0,0.0,4.0332027120000005,4.893627024102105,0.0,-66807.0,0.75,1402.5,1255.3933467231466,0.0,0.0,2.572021221,4.873860312151706,0.0,1.4800000190734863,-2.369999885559082,22.6299991607666,0.04150390625,0.03369140625,0.84356689453125,33.11000061035156,0.0,75.0,2.6599578857421875,0.2765960693359375,Waiting,0.0,0.0,-113.0,0.0,0.0,0.0,0.0,0.0,
2.613222000000009,0.0,0.0,false,4349041.810739225,,23110.0,5.75,-1537.5,-1618.7980065341321,0.0,0.125,1.859130669,0.06770085251897591,0.0,-86293.0,0.375,1432.5,1291.602425458277,0.0,0.0,2.757568077,0.08465417765827353,0.0,57297.0,4.375,-1515.0,-1618.7980065341321,0.0,0.0,4.018554276000001,4.886435531148468,0.0,-66355.0,0.625,1417.5,1291.602425458277,0.0,0.0,2.492675526,4.8628714803062625,0.0,1.559999942779541,-2.0199999809265137,23.229999542236328,0.0523681640625,0.0614013671875,0.6600341796875,33.11000061035156,0.0,86.0,2.6797027587890625,0.261260986328125,Waiting,0.0,0.0,-113.0,0.0,0.0,0.0,0.0,0.0,
2.77500900000002,0.0,0.0,false,4348960.966934189,,22853.0,8.875,-1612.5,-1846.6667676363638,0.0,0.125,1.8676755900000002,0.09598679821378109,0.0,-86074.0,0.75,1357.5,1321.1591742752055,0.0,0.0,2.7990719790000003,0.13407908174048022,0.0,57032.0,5.75,-1680.0,-1846.6667676363638,0.0,0.0,3.970946859,4.858206567616626,0.0,-66133.0,0.625,1365.0,1321.1591742752055,0.0,0.0,2.419433346,4.813461556494034,0.0,1.8300000429153442,-2.0299999713897705,25.299999237060547,-0.05535888671875,-0.17938232421875,1.3099365234375,33.06999969482422,0.0,-102.0,2.6869964599609375,0.2514801025390625,Waiting,0.0,0.0,-113.0,0.0,0.0,0.0,0.0,0.0,
2.9361930000000283,0.0,0.0,false,4348862.961239066,,22585.0,12.0,-1747.5,-2035.2265643761184,0.0,0.125,1.881103323,0.13721402945264782,0.0,-85861.0,0.375,1275.0,1221.9043509996627,0.0,0.0,2.9064938430000002,0.2299650088020027,0.0,56752.0,7.5,-1860.0,-2035.2265643761184,0.0,0.0,3.9343257690000004,4.817062388817805,0.0,-65710.0,0.375,1312.5,1221.9043509996627,0.0,0.0,2.340087651,4.7176046916451995,0.0,1.9700000286102295,-1.9900000095367432,29.520000457763672,-0.0115966796875,-0.06866455078125,0.98651123046875,33.06999969482422,0.0,-30.0,2.6922760009765625,0.24639892578125,Waiting,0.0,0.0,-113.0,0.0,0.0,0.0,0.0,0.0,
3.1073130000000235,0.0,0.0,false,4348745.039961483,,21993.0,13.625,-1905.0,-2136.0781642319275,0.0,0.125,1.909179492,0.15873790537320692,0.0,-85473.0,0.75,1185.0,1162.6707622928539,0.0,0.0,2.993163756,0.2956993967253193,0.0,56135.0,8.375,-1987.5,-2136.0781642319275,0.0,0.0,3.928222254,4.795581872840679,0.0,-65515.0,0.375,1200.0,1162.6707622928539,0.0,0.0,2.2656247680000003,4.651890227258331,0.0,2.240000009536743,-1.7699999809265137,36.529998779296875,0.18511962890625,0.0263671875,0.49468994140625,33.06999969482422,0.0,165.0,2.7065887451171875,0.245880126953125,Waiting,0.0,0.0,-113.0,0.0,0.0,0.0,0.0,0.0,
3.2714490000000223,0.0,0.0,false,4348777.365963251,,21663.0,14.25,-2085.0,-2253.091354000588,0.0,0.125,1.929931443,0.1809582040339367,0.0,-85292.0,0.625,1125.0,1105.9786177005633,0.0,0.0,3.0493160940000004,0.3787563340403664,0.0,55801.0,8.375,-2137.5,-2253.091354000588,0.0,0.0,3.93066366,4.77340633707008,0.0,-65334.0,0.5,1102.5,1105.9786177005633,0.0,0.0,2.193603291,4.5688584637977945,0.0,2.7300000190734863,-2.0,46.13999938964844,0.08160400390625,0.0594482421875,0.93115234375,33.06999969482422,0.0,89.0,2.7352752685546875,0.253936767578125,Waiting,0.0,0.0,-113.0,0.0,0.0,0.0,0.0,0.0,
3.4308550000000397,0.0,0.0,false,4348791.410783055,,21323.0,14.375,-2175.0,-2267.836026574472,0.0,0.125,1.955566206,0.18357402926688668,0.0,-85111.0,0.625,1102.5,1099.8057415706019,0.0,0.0,3.077392263,0.38971191351042134,0.0,55449.0,7.375,-2235.0,-2267.836026574472,0.0,0.0,3.907470303,4.770795781428655,0.0,-64985.0,0.75,1080.0,1099.8057415706019,0.0,0.0,2.187499776,4.557906204871124,0.0,3.0199999809265137,-2.2699999809265137,57.59000015258789,0.041015625,0.29217529296875,0.89544677734375,33.0099983215332,0.0,247.0,2.78192138671875,0.2607879638671875,Waiting,0.0,0.0,-113.0,0.0,0.0,0.0,0.0,0.0,
3.595684999999998,0.0,0.0,false,4348790.158684316,,20610.0,16.75,-2250.0,-2401.5879510755112,0.0,0.125,1.9531248,0.20566361215185874,0.0,-84756.0,0.25,1095.0,1054.3415767643853,0.0,0.0,3.1640621760000003,0.49343738370426116,0.0,54719.0,8.375,-2317.5,-2401.5879510755112,0.0,0.0,3.8830562430000004,4.748750698106304,0.0,-64813.0,0.625,1050.0,1054.3415767643853,0.0,0.0,2.1179197050000003,4.454212172989123,0.0,3.259999990463257,-2.6600000858306885,70.45999908447266,-0.04248046875,0.092529296875,0.65234375,33.0099983215332,0.0,48.0,2.8476104736328125,0.26348876953125,Waiting,0.0,0.0,-113.0,0.0,0.0,0.0,0.0,0.0,
3.7586270000000366,0.0,0.0,false,4348767.22605487,,20275.0,0.5,-1942.5,-1170.7086288928986,0.0,0.125,1.9677732360000002,4.963999999999999,0.0,-84574.0,1.0,1117.5,1170.7086288928986,0.0,0.0,2.9541012600000003,4.948999999999997,0.0,54370.0,0.0,-1800.0,-1170.7086288928986,0.0,0.0,3.931884363,2.346685808637024E-15,0.0,-64644.0,2.625,1005.0,1170.7086288928986,0.0,0.0,2.3266599180000003,2.343606790115397E-15,0.0,3.6500000953674316,-2.430000066757202,84.0,0.0538330078125,0.00201416015625,0.8812255859375,33.0099983215332,0.0,-44.0,2.9383087158203125,0.2561798095703125,Waiting,0.0,0.0,-113.0,0.0,0.0,0.0,0.0,0.0,
3.92050900000002,0.0,0.0,false,4348726.035774444,,20029.0,23.625,-202.5,2100.0,0.0,0.25,2.1154782990000003,0.5533560492066917,0.0,-84196.0,13.25,1200.0,2100.0,0.0,0.25,2.126464626,4.397316058113637,0.0,54146.0,33.125,45.0,2100.0,0.0,0.125,3.7243648530000004,4.40175868900686,0.0,-64302.0,19.0,1132.5,2100.0,0.0,0.875,3.035888361,0.5515167311543303,0.0,3.3499999046325684,-0.7099999785423279,86.75,0.1568603515625,0.07427978515625,0.809326171875,33.040000915527344,0.0,36.0,3.04022216796875,0.22003173828125,Waiting,0.0,0.0,-113.0,0.0,0.0,0.0,0.0,0.0,
4.083373000000021,0.0,0.0,false,4348669.561116458,,20069.0,0.0,210.0,0.0,0.0,0.25,2.4780270900000003,0.5533560492066917,0.0,-84100.0,0.0,352.5,0.0,0.0,0.0,1.7138670120000001,4.397316058113637,0.0,54159.0,0.0,120.0,0.0,0.0,0.0,3.460693005,4.40175868900686,0.0,-64218.0,0.0,315.0,0.0,0.0,0.0,3.2031246720000004,0.5515167311543303,0.0,2.759999990463257,3.190000057220459,78.80999755859375,-0.11395263671875,0.00726318359375,1.40753173828125,33.040000915527344,0.0,-96.0,3.1308135986328125,0.09124755859375,Waiting,0.0,0.0,-113.0,0.0,0.0,0.0,0.0,0.0,
4.25016399999999,0.0,0.0,false,4348594.837116048,,20106.0,0.0,45.0,0.0,0.0,0.125,2.570800518,0.5533560492066917,0.0,-84088.0,0.0,0.0,0.0,0.0,0.5,2.092284942,4.397316058113637,0.0,54197.0,0.0,82.5,0.0,0.0,0.0,3.337402002,4.40175868900686,0.0,-64218.0,0.0,75.0,0.0,0.0,0.0,3.2031246720000004,0.5515167311543303,0.0,2.5799999237060547,2.049999952316284,77.98999786376953,0.190185546875,-0.03759765625,0.93414306640625,33.040000915527344,0.0,-45.0,3.2077484130859375,-0.048828125,Waiting,0.0,0.0,-113.0,0.0,0.0,0.0,0.0,0.0,
4.408146999999997,0.0,0.0,false,4348501.421651965,,20123.0,1.875,120.0,531.5625,0.0,0.625,2.824706742,1.2410000000000012,0.0,-84070.0,2.375,127.5,531.5625,0.0,1.375,2.053222446,3.711750000000001,0.0,54177.0,2.25,-120.0,-531.5625,0.0,0.625,2.980956726,3.7155000000000014,0.0,-64227.0,2.0,-135.0,-531.5625,0.0,0.5,3.548583621,1.236875000000001,0.0,2.690000057220459,1.8200000524520874,78.61000061035156,0.1141357421875,-0.00946044921875,1.03436279296875,33.029998779296875,0.0,-40.0,3.283050537109375,-0.1854400634765625,Waiting,0.0,0.0,-113.0,0.0,0.0,0.0,0.0,0.0,
4.568027000000002,0.0,0.0,false,4348392.733862561,,20151.0,15.625,277.5,1279.6875,0.0,0.375,3.093261402,1.2410000000000012,0.0,-84035.0,14.5,315.0,1279.6875,0.0,0.75,1.363525251,3.711750000000001,0.0,54149.0,16.25,-247.5,-1279.6875,0.0,0.0,2.7355954230000004,3.7155000000000014,0.0,-64260.0,15.75,-307.5,-1279.6875,0.0,0.0,3.93066366,1.236875000000001,0.0,3.8399999141693115,1.7699999809265137,78.33999633789062,0.0994873046875,0.35223388671875,0.95233154296875,33.029998779296875,0.0,295.0,3.358612060546875,-0.30401611328125,Waiting,0.0,0.0,-113.0,0.0,0.0,0.0,0.0,0.0,
4.733438000000024,0.0,0.0,false,4348265.809493265,,20428.0,23.625,990.0,1889.9999999999998,0.0,0.125,3.127441086,1.2410000000000012,0.0,-83927.0,47.125,315.0,1889.9999999999998,0.0,0.125,1.052245986,3.711750000000001,0.0,53806.0,14.625,-1162.5,-1889.9999999999998,0.0,0.0,2.711181363,3.7155000000000014,0.0,-64526.0,25.125,-1065.0,-1889.9999999999998,0.0,0.0,3.961181235,1.236875000000001,0.0,5.150000095367432,1.7000000476837158,77.16999816894531,0.14813232421875,0.2138671875,1.0091552734375,33.029998779296875,0.0,145.0,3.4332275390625,-0.44287109375,Waiting,0.0,0.0,-113.0,0.0,0.0,0.0,0.0,0.0,
4.927814000000013,0.0,0.0,false,4348285.317084904,,20591.0,0.0,892.5,0.0,0.0,0.0,3.122558274,1.2410000000000012,0.0,-83887.0,0.0,405.0,0.0,0.0,0.75,1.376952984,3.711750000000001,0.0,53665.0,0.0,-795.0,0.0,0.0,0.0,2.773437216,3.7155000000000014,0.0,-64679.0,0.0,-862.5,0.0,0.0,0.0,3.873290619,1.236875000000001,0.0,3.940000057220459,1.2300000190734863,76.41000366210938,-0.121337890625,-0.19232177734375,1.4906005859375,33.029998779296875,0.0,-322.0,3.425384521484375,-0.573760986328125,Waiting,0.0,0.0,-113.0,0.0,0.0,0.0,0.0,0.0,
5.104964000000036,0.0,0.0,false,4348288.6900753565,,20722.0,0.125,480.0,793.700784444809,0.0,1.125,3.7475582100000002,2.481999999999998,0.0,-83742.0,25.375,330.0,-793.700784444809,0.0,3.375,1.099853403,2.4744999999999977,0.0,53575.0,14.625,45.0,793.700784444809,0.0,0.625,2.1691892310000003,2.4770000000000025,0.0,-64870.0,0.0,-435.0,-793.700784444809,0.0,1.125,4.461669465,2.473750000000002,0.0,0.7699999809265137,0.8999999761581421,76.26000213623047,-0.12042236328125,-0.510498046875,0.77496337890625,33.029998779296875,0.0,-537.0,3.3607940673828125,-0.703338623046875,Waiting,0.0,0.0,-113.0,0.0,0.0,0.0,0.0,0.0,
5.2760020000000365,0.0,0.0,false,4348275.9426052105,,20771.0,0.0,-52.5,0.0,0.0,1.625,4.483642119000001,2.481999999999998,0.0,-83727.0,0.0,97.5,0.0,0.0,2.875,0.112304676,2.4744999999999977,0.0,53577.0,0.0,-22.5,0.0,0.0,0.625,1.259765496,2.4770000000000025,0.0,-64888.0,0.0,-30.0,0.0,0.0,0.875,0.301513641,2.473750000000002,0.0,0.9100000262260437,1.0099999904632568,76.13999938964844,-0.04864501953125,0.0050048828125,1.06634521484375,33.029998779296875,0.0,-27.0,3.2427215576171875,-0.850830078125,Waiting,0.0,0.0,-113.0,0.0,0.0,0.0,0.0,0.0,
5.458698000000033,0.0,0.0,false,4348243.987175377,,20773.0,7.25,172.5,972.2834515571594,0.0,0.125,4.672851084,2.481999999999998,0.0,-83724.0,9.375,-135.0,-972.2834515571594,0.0,5.125,0.046386714,2.4744999999999977,0.0,53603.0,5.875,255.0,972.2834515571594,0.0,0.125,1.0607909070000001,2.4770000000000025,0.0,-64903.0,7.875,-45.0,-972.2834515571594,0.0,0.0,0.435790971,2.473750000000002,0.0,0.75,0.4099999964237213,76.58000183105469,0.14495849609375,-0.07525634765625,0.73358154296875,32.970001220703125,0.0,-50.0,3.129302978515625,-0.9910125732421875,Waiting,0.0,0.0,-113.0,0.0,0.0,0.0,0.0,0.0,
5.629030000000028,0.0,0.0,false,4348195.919531939,,20827.0,20.125,172.5,1111.1810982227325,0.0,0.25,4.384765176,2.481999999999998,0.0,-83798.0,19.0,-315.0,-1111.1810982227325,0.0,0.0,0.40161128700000004,2.4744999999999977,0.0,53736.0,5.625,810.0,1111.1810982227325,0.0,0.75,1.470947115,2.4770000000000025,0.0,-64957.0,17.25,-337.5,-1111.1810982227325,0.0,0.375,0.166015608,2.473750000000002,0.0,0.36000001430511475,-0.4699999988079071,75.63999938964844,-0.4031982421875,5.4931640625E-4,1.1983642578125,32.970001220703125,0.0,-104.0,3.02056884765625,-1.1140594482421875,Waiting,0.0,0.0,-113.0,0.0,0.0,0.0,0.0,0.0,
5.809080000000017,0.0,0.0,false,4348128.652668697,,20870.0,0.0,457.5,0.0,0.0,0.0,4.271239797000001,2.481999999999998,0.0,-83842.0,0.0,-112.5,0.0,0.0,0.0,0.347900355,2.4744999999999977,0.0,53843.0,0.0,390.0,0.0,0.0,0.0,1.6113279600000001,2.4770000000000025,0.0,-65015.0,0.0,-225.0,0.0,0.0,0.0,4.859618643,2.473750000000002,0.0,0.8999999761581421,0.009999999776482582,76.41999816894531,0.0594482421875,0.052001953125,1.155517578125,32.97999954223633,0.0,46.0,2.8878326416015625,-1.2373809814453125,Waiting,0.0,0.0,-113.0,0.0,0.0,0.0,0.0,0.0,
5.987320000000007,0.0,0.0,false,4348042.521996954,,20954.0,0.0,67.5,0.0,0.0,0.0,4.277343312,2.481999999999998,0.0,-83861.0,0.0,-15.0,0.0,0.0,0.0,0.20751951000000002,2.4744999999999977,0.0,53919.0,0.0,90.0,0.0,0.0,0.0,1.6027830390000002,2.4770000000000025,0.0,-65075.0,0.0,-105.0,0.0,0.0,0.0,4.890136218,2.473750000000002,0.0,0.9300000071525574,0.949999988079071,76.54000091552734,0.116455078125,-0.0546875,1.02008056640625,32.97999954223633,0.0,-46.0,2.7852935791015625,-1.3638916015625,Waiting,0.0,0.0,-113.0,0.0,0.0,0.0,0.0,0.0,
6.159694000000018,0.0,0.0,false,4347940.291666667,,20954.0,0.0,0.0,0.0,0.0,0.0,4.277343312,2.481999999999998,0.0,-83861.0,0.0,0.0,0.0,0.0,0.0,0.17089842,2.4744999999999977,0.0,53919.0,0.0,0.0,0.0,0.0,0.0,1.5844724940000001,2.4770000000000025,0.0,-65078.0,0.0,0.0,0.0,0.0,0.0,0.03662109,2.473750000000002,0.0,0.9300000071525574,0.8999999761581421,76.4800033569336,-0.00640869140625,0.0113525390625,1.01397705078125,32.97999954223633,0.0,-10.0,2.7125396728515625,-1.387542724609375,Waiting,0.0,0.0,-113.0,0.0,0.0,0.0,0.0,0.0,
6.328303000000014,0.0,0.0,false,4347821.965547632,,20954.0,0.0,0.0,0.0,0.0,0.125,4.278564015000001,2.481999999999998,0.0,-83861.0,0.0,0.0,0.0,0.0,0.0,0.189208965,2.4744999999999977,0.0,53919.0,0.0,0.0,0.0,0.0,0.0,1.5795896820000002,2.4770000000000025,0.0,-65078.0,0.0,0.0,0.0,0.0,0.0,0.056152338,2.473750000000002,0.0,0.9800000190734863,0.6899999976158142,76.4800033569336,-0.00506591796875,0.02667236328125,0.9918212890625,33.0,0.0,5.0,2.7125396728515625,-1.3816986083984375,Waiting,0.0,0.0,-113.0,0.0,0.0,0.0,0.0,0.0,
6.508168000000005,0.0,0.0,false,4347850.362441916,,20942.0,0.75,-82.5,-357.16537177562714,0.0,3.0,3.7902828150000003,1.2409999999999985,0.0,-83853.0,0.875,75.0,357.16537177562714,0.0,4.25,4.621581558,1.2372499999999984,0.0,53923.0,0.75,45.0,357.16537177562714,0.0,2.5,2.156982201,3.7154999999999982,0.0,-65068.0,0.75,105.0,357.16537177562714,0.0,1.5,4.416503454,1.2368749999999984,0.0,1.0,0.7400000095367432,76.44000244140625,-0.0108642578125,-0.03948974609375,1.09466552734375,33.0,0.0,-62.0,2.712127685546875,-1.380096435546875,Waiting,0.0,0.0,-113.0,0.0,0.0,0.0,0.0,0.0,
6.6677410000000386,0.0,0.0,false,4347862.361291356,,20944.0,4.375,-37.5,-555.5905491113663,0.0,1.875,2.940673527,1.2409999999999985,0.0,-83838.0,3.625,127.5,555.5905491113663,0.0,0.875,3.6950679810000002,1.2372499999999984,0.0,53923.0,4.0,15.0,555.5905491113663,0.0,0.625,3.077392263,3.7154999999999982,0.0,-65025.0,2.875,127.5,555.5905491113663,0.0,1.125,3.543700809,1.2368749999999984,0.0,0.3400000035762787,0.5899999737739563,76.3499984741211,-0.019287109375,-0.1588134765625,1.01629638671875,33.0,0.0,-167.0,2.7023773193359375,-1.3843536376953125,Waiting,0.0,0.0,-113.0,0.0,0.0,0.0,0.0,0.0,
6.835264000000024,0.0,0.0,false,4347857.955783403,,20903.0,6.25,-142.5,-555.5905491113663,0.0,0.125,2.75878878,1.2409999999999985,0.0,-83767.0,4.5,285.0,555.5905491113663,0.0,0.0,3.5363765910000002,1.2372499999999984,0.0,53985.0,4.75,292.5,555.5905491113663,0.0,0.0,3.1005856200000004,3.7154999999999982,0.0,-64966.0,2.5,390.0,555.5905491113663,0.0,0.0,3.4729000350000003,1.2368749999999984,0.0,0.3100000023841858,0.20000000298023224,74.76000213623047,0.0958251953125,-0.00726318359375,1.157470703125,33.0,0.0,10.0,2.6792449951171875,-1.384063720703125,Waiting,0.0,0.0,-113.0,0.0,0.0,0.0,0.0,0.0,
6.99321100000001,0.0,0.0,false,4347833.974209051,,20892.0,0.0,-30.0,0.0,0.0,1.0,2.971191102,1.2409999999999985,0.0,-83753.0,0.0,0.0,0.0,0.0,0.25,3.9953609190000003,1.2372499999999984,0.0,54014.0,0.0,37.5,0.0,0.0,0.125,2.813720415,3.7154999999999982,0.0,-64930.0,0.0,30.0,0.0,0.0,0.25,3.7951656270000003,1.2368749999999984,0.0,1.2400000095367432,0.5099999904632568,74.4000015258789,0.077392578125,0.10321044921875,0.9212646484375,33.0,0.0,98.0,2.6701507568359375,-1.383636474609375,Waiting,0.0,0.0,-113.0,0.0,0.0,0.0,0.0,0.0,
7.1560070000000415,0.0,0.0,false,4347790.431523306,,20887.0,0.0,-15.0,0.0,0.0,0.125,3.150634443,1.2409999999999985,0.0,-83753.0,0.0,0.0,0.0,0.0,0.0,4.161376527,1.2372499999999984,0.0,54018.0,0.0,7.5,0.0,0.0,0.0,2.681884491,3.7154999999999982,0.0,-64934.0,0.0,-7.5,0.0,0.0,0.0,3.922118739,1.2368749999999984,0.0,1.1799999475479126,0.41999998688697815,74.41999816894531,0.03448486328125,-0.01361083984375,0.912109375,33.0,0.0,-23.0,2.66937255859375,-1.383331298828125,Waiting,0.0,0.0,-113.0,0.0,0.0,0.0,0.0,0.0,
7.315837999999989,0.0,0.0,false,4347730.50756787,,20908.0,11.625,127.5,1190.5512142181394,0.0,3.375,3.703612902,2.481999999999998,0.0,-83790.0,9.5,-270.0,-1190.5512142181394,0.0,2.125,4.7058100650000005,2.4744999999999977,0.0,54042.0,11.25,142.5,1190.5512142181394,0.0,1.125,2.054443149,2.4770000000000025,0.0,-64966.0,9.0,-240.0,-1190.5512142181394,0.0,1.375,4.594726092,2.473750000000002,0.0,1.6399999856948853,0.25,74.06999969482422,-0.12554931640625,0.304443359375,1.005126953125,33.0,0.0,229.0,2.66619873046875,-1.383270263671875,Waiting,0.0,0.0,-113.0,0.0,0.0,0.0,0.0,0.0,
7.475594000000041,0.0,0.0,false,4347653.950032031,,20939.0,18.5,352.5,1190.5512142181394,0.0,1.25,4.412841345,2.481999999999998,0.0,-83846.0,14.0,-502.5,-1190.5512142181394,0.0,0.375,0.302734344,2.4744999999999977,0.0,54089.0,13.25,667.5,1190.5512142181394,0.0,0.0,1.249999872,2.4770000000000025,0.0,-65017.0,13.375,-525.0,-1190.5512142181394,0.0,0.25,0.306396453,2.473750000000002,0.0,1.340000033378601,-1.9299999475479126,73.4000015258789,-0.2373046875,-0.23126220703125,0.88128662109375,33.0099983215332,0.0,-300.0,2.6592864990234375,-1.3549346923828125,Waiting,0.0,0.0,-113.0,0.0,0.0,0.0,0.0,0.0,
7.634303000000014,0.0,0.0,false,4347561.0191368405,,21159.0,3.625,750.0,436.53545022010803,0.0,0.125,4.543456566000001,2.481999999999998,0.0,-84069.0,2.375,-712.5,-436.53545022010803,0.0,0.0,0.444335892,2.4744999999999977,0.0,54290.0,5.25,457.5,436.53545022010803,0.0,0.375,1.286620962,2.4770000000000025,0.0,-65214.0,4.0,-525.0,-436.53545022010803,0.0,0.0,0.311279265,2.473750000000002,0.0,0.6899999976158142,-0.9900000095367432,73.83000183105469,0.04437255859375,0.25592041015625,1.0677490234375,33.0099983215332,0.0,250.0,2.6270904541015625,-1.3119354248046875,Waiting,0.0,0.0,-113.0,0.0,0.0,0.0,0.0,0.0,
7.80395199999999,0.0,0.0,false,4347448.544435549,,21246.0,7.625,525.0,628.3464699983597,0.0,0.375,4.824218256,3.035356049206689,0.0,-84089.0,0.0,-45.0,628.3464699983597,0.0,2.75,4.709472174,1.9228160581136347,0.0,54383.0,7.625,510.0,628.3464699983597,0.0,0.0,1.1120604330000001,1.924758689006862,0.0,-65247.0,0.0,-75.0,628.3464699983597,0.0,0.25,0.29785153200000003,3.0252667311543324,0.0,1.0099999904632568,-0.019999999552965164,75.77999877929688,0.21759033203125,-0.12103271484375,1.1435546875,33.0099983215332,0.0,-83.0,2.6059112548828125,-1.2952117919921875,Waiting,0.0,0.0,-113.0,0.0,0.0,0.0,0.0,0.0,
7.986536000000022,0.0,0.0,false,4347320.571931791,,21295.0,0.0,0.0,0.0,0.0,0.125,4.940185041,3.035356049206689,0.0,-84090.0,0.0,165.0,0.0,0.0,0.0,4.360351116,1.9228160581136347,0.0,54427.0,0.0,7.5,0.0,0.0,0.0,0.991210836,1.924758689006862,0.0,-65258.0,0.0,-15.0,0.0,0.0,0.5,0.548095647,3.0252667311543324,0.0,1.5,0.8899999856948853,78.29000091552734,-0.154296875,0.00238037109375,1.02069091796875,33.0,0.0,-58.0,2.607757568359375,-1.310821533203125,Waiting,0.0,0.0,-113.0,0.0,0.0,0.0,0.0,0.0,
8.151331999999995,0.0,0.0,false,4347338.9221902015,,21326.0,4.875,187.5,892.9133981466293,0.0,0.0,4.942626447,3.035356049206689,0.0,-84037.0,4.875,195.0,892.9133981466293,0.0,0.0,4.476317901,1.9228160581136347,0.0,54449.0,6.75,150.0,892.9133981466293,0.0,0.0,0.9460448250000001,1.924758689006862,0.0,-65252.0,7.0,67.5,892.9133981466293,0.0,0.0,0.589599549,3.0252667311543324,0.0,1.190000057220459,0.6600000262260437,79.56999969482422,0.0380859375,0.10113525390625,0.70367431640625,33.0,0.0,90.0,2.616729736328125,-1.3190155029296875,Waiting,0.0,0.0,-113.0,0.0,0.0,0.0,0.0,0.0,
8.31527799999999,0.0,0.0,false,4347340.656047386,,21349.0,0.0,7.5,0.0,0.0,0.125,4.942626447,3.035356049206689,0.0,-84011.0,0.0,52.5,0.0,0.0,0.25,4.624022964,1.9228160581136347,0.0,54468.0,0.0,0.0,0.0,0.0,0.0,0.969238182,1.924758689006862,0.0,-65209.0,0.0,30.0,0.0,0.0,0.0,0.601806579,3.0252667311543324,0.0,1.440000057220459,0.38999998569488525,81.51000213623047,-0.02618408203125,0.08538818359375,1.112548828125,33.0,0.0,51.0,2.6288604736328125,-1.3246612548828125,Waiting,0.0,0.0,-113.0,0.0,0.0,0.0,0.0,0.0,
8.475489000000001,0.0,0.0,false,4347325.561069313,,21348.0,0.0,0.0,0.0,0.0,0.125,4.935302229,3.035356049206689,0.0,-84011.0,0.0,-22.5,0.0,0.0,0.0,4.619140152,1.9228160581136347,0.0,54468.0,0.0,0.0,0.0,0.0,0.0,0.9704588850000001,1.924758689006862,0.0,-65209.0,0.0,0.0,0.0,0.0,0.0,0.601806579,3.0252667311543324,0.0,1.309999942779541,0.550000011920929,80.91000366210938,0.00921630859375,0.04718017578125,1.02850341796875,33.0099983215332,0.0,23.0,2.6355743408203125,-1.3202972412109375,Waiting,0.0,0.0,-113.0,0.0,0.0,0.0,0.0,0.0,
8.637288,0.0,0.0,false,4347290.40160064,,21348.0,0.25,0.0,-229.6875,0.0,0.125,4.937743635,3.035356049206692,0.0,-84015.0,0.25,-15.0,-229.6875,0.0,0.0,4.617919449,1.9228160581136369,0.0,54455.0,0.0,-105.0,-229.6875,0.0,0.0,0.969238182,1.9247586890068593,0.0,-65209.0,0.25,0.0,-229.6875,0.0,0.0,0.601806579,3.02526673115433,0.0,1.2699999809265137,0.4399999976158142,80.93000030517578,0.01861572265625,0.0020751953125,0.9736328125,33.0099983215332,0.0,-17.0,2.63775634765625,-1.319580078125,Waiting,0.0,0.0,-113.0,0.0,0.0,0.0,0.0,0.0,
8.807622000000032,0.0,0.0,false,4347238.421895007,,21336.0,0.0,-45.0,0.0,0.0,0.125,4.936522932,3.035356049206692,0.0,-84033.0,0.0,-22.5,0.0,0.0,0.0,4.617919449,1.9228160581136369,0.0,54450.0,0.0,0.0,0.0,0.0,0.0,0.969238182,1.9247586890068593,0.0,-65209.0,0.0,0.0,0.0,0.0,0.0,0.601806579,3.02526673115433,0.0,1.2799999713897705,0.4300000071525574,80.91999816894531,-0.00732421875,0.015625,1.00244140625,33.0099983215332,0.0,-9.0,2.6378021240234375,-1.3197021484375,Waiting,0.0,0.0,-113.0,0.0,0.0,0.0,0.0,0.0,
8.96849900000001,0.0,0.0,false,4347169.832119709,,21301.0,3.625,-180.0,-836.7187499999999,0.0,0.125,4.9255366050000005,3.035356049206692,0.0,-84058.0,4.875,-105.0,-836.7187499999999,0.0,0.0,4.624022964,1.9228160581136373,0.0,54424.0,5.375,-150.0,-836.7187499999999,0.0,0.0,0.969238182,1.9247586890068593,0.0,-65244.0,3.75,-217.5,-836.7187499999999,0.0,0.0,0.600585876,3.0252667311543298,0.0,1.1699999570846558,0.41999998688697815,79.7300033569336,-0.04974365234375,0.05804443359375,0.8441162109375,33.02000045776367,0.0,30.0,2.6378173828125,-1.31890869140625,Waiting,0.0,0.0,-113.0,0.0,0.0,0.0,0.0,0.0,
9.134217999999994,0.0,0.0,false,4347084.440390462,,21280.0,0.0,-67.5,0.0,0.0,0.0,4.913329575000001,3.035356049206692,0.0,-84078.0,0.0,-45.0,0.0,0.0,0.0,4.619140152,1.9228160581136373,0.0,54401.0,0.0,-97.5,0.0,0.0,0.0,0.96435537,1.9247586890068593,0.0,-65266.0,0.0,-52.5,0.0,0.0,0.0,0.596923767,3.0252667311543298,0.0,1.3200000524520874,0.5600000023841858,75.44000244140625,0.0045166015625,0.01239013671875,1.01318359375,33.02000045776367,0.0,-12.0,2.6357421875,-1.316192626953125,Waiting,0.0,0.0,-113.0,0.0,0.0,0.0,0.0,0.0,
9.298174,0.0,0.0,false,4346979.0120809665,,21278.0,0.0,0.0,0.0,0.0,0.0,4.910888169000001,3.035356049206692,0.0,-84080.0,0.0,0.0,0.0,0.0,0.0,4.617919449,1.9228160581136373,0.0,54386.0,0.0,7.5,0.0,0.0,0.0,0.96435537,1.9247586890068593,0.0,-65271.0,0.0,0.0,0.0,0.0,0.0,0.601806579,3.0252667311543298,0.0,1.2799999713897705,0.4399999976158142,76.55000305175781,0.05218505859375,0.028564453125,0.94305419921875,33.02000045776367,0.0,17.0,2.6334381103515625,-1.313873291015625,Waiting,0.0,0.0,-113.0,0.0,0.0,0.0,0.0,0.0,
9.46826000000001,0.0,0.0,false,4346856.7904,,21278.0,0.0,0.0,0.0,0.0,0.0,4.910888169000001,3.035356049206692,0.0,-84080.0,0.0,0.0,0.0,0.0,0.0,4.617919449,1.9228160581136373,0.0,54389.0,0.0,0.0,0.0,0.0,0.0,0.965576073,1.9247586890068593,0.0,-65271.0,0.0,0.0,0.0,0.0,0.0,0.601806579,3.0252667311543298,0.0,1.25,0.33000001311302185,76.4000015258789,0.02252197265625,0.01568603515625,0.98883056640625,33.0099983215332,0.0,-1.0,2.633026123046875,-1.313018798828125,Waiting,0.0,0.0,-113.0,0.0,0.0,0.0,0.0,0.0,
9.63114300000004,0.0,0.0,false,4346885.108711303,,21278.0,0.0,0.0,0.0,0.0,0.0,4.910888169000001,3.035356049206692,0.0,-84080.0,0.0,0.0,0.0,0.0,0.0,4.617919449,1.9228160581136373,0.0,54389.0,0.0,0.0,0.0,0.0,0.0,0.9765624,1.9247586890068593,0.0,-65271.0,0.0,0.0,0.0,0.0,0.0,0.601806579,3.0252667311543298,0.0,1.2599999904632568,0.3199999928474426,76.45999908447266,-0.00701904296875,0.008544921875,1.00506591796875,33.0099983215332,0.0,-16.0,2.6331939697265625,-1.3130340576171875,Waiting,0.0,0.0,-113.0,0.0,0.0,0.0,0.0,0.0,
9.788015000000014,0.0,0.0,false,4346893.194048952,,21278.0,0.0,0.0,0.0,0.0,0.0,4.912108872,3.035356049206692,0.0,-84080.0,0.0,0.0,0.0,0.0,0.0,4.619140152,1.9228160581136373,0.0,54389.0,0.0,0.0,0.0,0.0,0.0,0.96435537,1.9247586890068593,0.0,-65271.0,0.0,0.0,0.0,0.0,0.0,0.601806579,3.0252667311543298,0.0,1.2699999809265137,0.33000001311302185,76.44000244140625,-0.00860595703125,0.0205078125,1.00152587890625,33.0099983215332,0.0,-5.0,2.6331939697265625,-1.3130340576171875,Waiting,0.0,0.0,-113.0,0.0,0.0,0.0,0.0,0.0,
9.949733999999996,0.0,0.0,false,4346884.344557306,,21278.0,0.0,0.0,0.0,0.0,0.0,4.910888169000001,3.035356049206692,0.0,-84080.0,0.0,0.0,0.0,0.0,0.0,4.617919449,1.9228160581136373,0.0,54389.0,0.0,0.0,0.0,0.0,0.0,0.96435537,1.9247586890068593,0.0,-65271.0,0.0,0.0,0.0,0.0,0.0,0.601806579,3.0252667311543298,0.0,1.2699999809265137,0.30000001192092896,76.44000244140625,0.00323486328125,0.02239990234375,0.99041748046875,33.08000183105469,0.0,0.0,2.6331939697265625,-1.3130340576171875,Waiting,0.0,0.0,-113.0,0.0,0.0,0.0,0.0,0.0,
10.12365400000004,0.0,0.0,false,4346858.5540627,,21296.0,1.875,127.5,555.5905491113663,0.0,1.25,0.263671848,3.722999999999999,0.0,-84066.0,2.0,120.0,555.5905491113663,0.0,0.75,4.267577688,1.2372499999999984,0.0,54384.0,3.625,-22.5,-555.5905491113663,0.0,0.625,0.4882812,1.2384999999999984,0.0,-65275.0,1.625,-142.5,-555.5905491113663,0.0,1.125,1.115722542,3.7106249999999985,0.0,1.0299999713897705,0.20999999344348907,76.55000305175781,-0.06024169921875,-0.0513916015625,1.02642822265625,33.08000183105469,0.0,-82.0,2.630706787109375,-1.3124847412109375,Waiting,0.0,0.0,-113.0,0.0,0.0,0.0,0.0,0.0,
10.289347999999999,0.0,0.0,false,4346815.664134346,,21338.0,5.25,187.5,654.8031377792358,0.0,0.375,0.780029217,3.722999999999999,0.0,-84006.0,4.5,217.5,654.8031377792358,0.0,0.0,3.701171496,1.2372499999999984,0.0,54344.0,6.0,-202.5,-654.8031377792358,0.0,0.0,0.147705063,1.2384999999999984,0.0,-65340.0,4.5,-210.0,-654.8031377792358,0.0,0.0,1.4794920360000001,3.7106249999999985,0.0,0.05999999865889549,0.25999999046325684,76.91000366210938,0.00128173828125,-0.24847412109375,0.95965576171875,33.08000183105469,0.0,-243.0,2.613800048828125,-1.31158447265625,Waiting,0.0,0.0,-113.0,0.0,0.0,0.0,0.0,0.0,
10.454135999999998,0.0,0.0,false,4346755.851591236,,21363.0,0.0,82.5,0.0,0.0,0.125,0.8410643670000001,3.722999999999999,0.0,-83980.0,0.0,97.5,0.0,0.0,0.0,3.696288684,1.2372499999999984,0.0,54311.0,0.0,-142.5,0.0,0.0,0.125,0.21362302500000002,1.2384999999999984,0.0,-65365.0,0.0,-45.0,0.0,0.0,0.0,1.457519382,3.7106249999999985,0.0,1.5399999618530273,0.2199999988079071,77.08000183105469,-0.00604248046875,0.24481201171875,0.90496826171875,33.08000183105469,0.0,212.0,2.5933074951171875,-1.31341552734375,Waiting,0.0,0.0,-113.0,0.0,0.0,0.0,0.0,0.0,
10.616687000000034,0.0,0.0,false,4346675.665787159,,21369.0,0.0,0.0,0.0,0.0,0.25,0.6347655600000001,3.722999999999999,0.0,-83974.0,0.0,0.0,0.0,0.0,0.125,3.9941402160000004,1.2372499999999984,0.0,54296.0,0.0,60.0,0.0,0.0,0.0,0.30517575,1.2384999999999984,0.0,-65367.0,0.0,7.5,0.0,0.0,0.0,1.328124864,3.7106249999999985,0.0,1.7000000476837158,0.20000000298023224,77.0999984741211,-0.00250244140625,-0.06988525390625,1.009033203125,33.08000183105469,0.0,-98.0,2.59954833984375,-1.3097381591796875,Waiting,0.0,0.0,-113.0,0.0,0.0,0.0,0.0,0.0,
10.788157000000007,0.0,0.0,false,4346578.566037736,,21368.0,0.0,-7.5,0.0,0.0,0.125,0.5407714290000001,3.722999999999999,0.0,-83983.0,0.0,-30.0,0.0,0.0,0.0,4.027099197,1.2372499999999984,0.0,54311.0,0.0,22.5,0.0,0.0,0.0,0.33081051300000003,1.2384999999999984,0.0,-65362.0,0.0,22.5,0.0,0.0,0.0,1.298827992,3.7106249999999985,0.0,1.2599999904632568,0.2199999988079071,77.02999877929688,0.02105712890625,-0.0029296875,0.9580078125,33.08000183105469,0.0,-19.0,2.5976104736328125,-1.3109130859375,Waiting,0.0,0.0,-113.0,0.0,0.0,0.0,0.0,0.0,
10.950439000000014,0.0,0.0,false,4346464.556399393,,21368.0,0.0,0.0,0.0,0.0,0.0,0.5566405680000001,3.722999999999999,0.0,-83983.0,0.0,0.0,0.0,0.0,0.0,4.002685137,1.2372499999999984,0.0,54311.0,0.0,0.0,0.0,0.0,0.0,0.32348629500000003,1.2384999999999984,0.0,-65362.0,0.0,0.0,0.0,0.0,0.0,1.300048695,3.7106249999999985,0.0,1.3600000143051147,0.1899999976158142,77.05000305175781,0.00775146484375,0.03936767578125,1.00225830078125,33.029998779296875,0.0,16.0,2.597747802734375,-1.310943603515625,Waiting,0.0,0.0,-113.0,0.0,0.0,0.0,0.0,0.0,
11.124346000000019,0.0,0.0,false,4346500.098481215,,21368.0,0.0,0.0,0.0,0.0,0.0,0.560302677,3.722999999999999,0.0,-83983.0,0.0,0.0,0.0,0.0,0.0,3.968505453,1.2372499999999984,0.0,54311.0,0.0,0.0,0.0,0.0,0.0,0.33081051300000003,1.2384999999999984,0.0,-65362.0,0.0,0.0,0.0,0.0,0.0,1.298827992,3.7106249999999985,0.0,1.309999942779541,0.1899999976158142,77.04000091552734,1.220703125E-4,0.0113525390625,0.98968505859375,33.029998779296875,0.0,-11.0,2.597747802734375,-1.310943603515625,Waiting,0.0,0.0,-113.0,0.0,0.0,0.0,0.0,0.0,
11.288258000000031,0.0,0.0,false,4346518.397570138,,21368.0,0.0,0.0,0.0,0.0,0.0,0.5664061920000001,3.722999999999999,0.0,-83983.0,0.0,0.0,0.0,0.0,0.0,3.958739829,1.2372499999999984,0.0,54311.0,0.0,0.0,0.0,0.0,0.0,0.32958981000000004,1.2384999999999984,0.0,-65362.0,0.0,0.0,0.0,0.0,0.0,1.300048695,3.7106249999999985,0.0,1.3200000524520874,0.18000000715255737,77.04000091552734,0.0042724609375,0.0250244140625,1.0076904296875,33.029998779296875,0.0,1.0,2.597747802734375,-1.310943603515625,Waiting,0.0,0.0,-113.0,0.0,0.0,0.0,0.0,0.0,
11.44750900000002,0.0,0.0,false,4346516.344629156,,21368.0,0.0,0.0,0.0,0.0,0.125,0.5664061920000001,3.722999999999999,0.0,-83983.0,0.0,0.0,0.0,0.0,0.0,3.959960532,1.2372499999999984,0.0,54311.0,0.0,0.0,0.0,0.0,0.0,0.33081051300000003,1.2384999999999984,0.0,-65362.0,0.0,0.0,0.0,0.0,0.0,1.300048695,3.7106249999999985,0.0,1.2999999523162842,0.17000000178813934,77.04000091552734,-0.00201416015625,0.026123046875,0.9901123046875,32.9900016784668,0.0,2.0,2.597747802734375,-1.310943603515625,Waiting,0.0,0.0,-113.0,0.0,0.0,0.0,0.0,0.0,
11.611197000000043,0.0,0.0,false,4346497.389275154,,21368.0,0.0,0.0,0.0,0.0,0.125,0.5664061920000001,3.722999999999999,0.0,-83983.0,0.0,0.0,0.0,0.0,0.0,3.958739829,1.2372499999999984,0.0,54311.0,0.0,0.0,0.0,0.0,0.0,0.33081051300000003,1.2384999999999984,0.0,-65362.0,0.0,0.0,0.0,0.0,0.0,1.300048695,3.7106249999999985,0.0,1.2899999618530273,0.17000000178813934,77.04000091552734,0.0052490234375,0.019775390625,0.993896484375,32.9900016784668,0.0,-2.0,2.597747802734375,-1.310943603515625,Waiting,0.0,0.0,-113.0,0.0,0.0,0.0,0.0,0.0,
11.771308000000019,0.0,0.0,false,4346461.381492728,,21368.0,0.0,0.0,0.0,0.0,0.125,0.565185489,3.722999999999999,0.0,-83983.0,0.0,0.0,0.0,0.0,0.0,3.958739829,1.2372499999999984,0.0,54311.0,0.0,0.0,0.0,0.0,0.0,0.33081051300000003,1.2384999999999984,0.0,-65362.0,0.0,0.0,0.0,0.0,0.0,1.300048695,3.7106249999999985,0.0,1.2899999618530273,0.17000000178813934,77.04000091552734,0.00274658203125,0.0191650390625,1.00225830078125,32.9900016784668,0.0,-3.0,2.597747802734375,-1.310943603515625,Waiting,0.0,0.0,-113.0,0.0,0.0,0.0,0.0,0.0,
11.929160000000033,0.0,0.0,false,4346408.489013184,,21368.0,0.0,0.0,0.0,0.0,0.125,0.5664061920000001,3.722999999999999,0.0,-83983.0,0.0,0.0,0.0,0.0,0.0,3.958739829,1.2372499999999984,0.0,54311.0,0.0,0.0,0.0,0.0,0.0,0.33081051300000003,1.2384999999999984,0.0,-65362.0,0.0,0.0,0.0,0.0,0.0,1.300048695,3.7106249999999985,0.0,1.2899999618530273,0.1599999964237213,77.04000091552734,0.0015869140625,0.0213623046875,0.99798583984375,32.9900016784668,0.0,-1.0,2.597747802734375,-1.310943603515625,Waiting,0.0,0.0,-113.0,0.0,0.0,0.0,0.0,0.0,
12.086277000000003,0.0,0.0,false,4346338.552253116,,21368.0,0.0,0.0,0.0,0.0,0.125,0.5664061920000001,3.722999999999999,0.0,-83983.0,0.0,0.0,0.0,0.0,0.0,3.957519126,1.2372499999999984,0.0,54311.0,0.0,0.0,0.0,0.0,0.0,0.33081051300000003,1.2384999999999984,0.0,-65362.0,0.0,0.0,0.0,0.0,0.0,1.300048695,3.7106249999999985,0.0,1.2799999713897705,0.15000000596046448,77.04000091552734,0.0010986328125,0.02227783203125,1.00146484375,33.029998779296875,0.0,0.0,2.597747802734375,-1.310943603515625,Waiting,0.0,0.0,-113.0,0.0,0.0,0.0,0.0,0.0,
12.262534000000043,0.0,0.0,false,4346251.575297595,,21368.0,0.0,0.0,0.0,0.0,0.125,0.5664061920000001,3.722999999999999,0.0,-83983.0,0.0,0.0,0.0,0.0,0.0,3.959960532,1.2372499999999984,0.0,54311.0,0.0,0.0,0.0,0.0,0.0,0.32958981000000004,1.2384999999999984,0.0,-65362.0,0.0,0.0,0.0,0.0,0.0,1.298827992,3.7106249999999985,0.0,1.2799999713897705,0.15000000596046448,77.04000091552734,0.0029296875,0.02105712890625,1.00189208984375,33.029998779296875,0.0,-1.0,2.597747802734375,-1.310943603515625,Waiting,0.0,0.0,-113.0,0.0,0.0,0.0,0.0,0.0,
12.44787599999999,0.0,0.0,false,4346147.562230389,,21368.0,0.0,0.0,0.0,0.0,0.125,0.565185489,3.722999999999999,0.0,-83983.0,0.0,0.0,0.0,0.0,0.0,3.958739829,1.2372499999999984,0.0,54311.0,0.0,0.0,0.0,0.0,0.0,0.33081051300000003,1.2384999999999984,0.0,-65362.0,0.0,0.0,0.0,0.0,0.0,1.298827992,3.7106249999999985,0.0,1.2699999809265137,0.14000000059604645,77.04000091552734,0.0030517578125,0.0224609375,1.004150390625,33.060001373291016,0.0,0.0,2.597747802734375,-1.310943603515625,Waiting,0.0,0.0,-113.0,0.0,0.0,0.0,0.0,0.0,
12.630829000000027,0.0,0.0,false,4346023.238277818,,21368.0,0.0,0.0,0.0,0.0,0.125,0.5664061920000001,3.722999999999999,0.0,-83983.0,0.0,0.0,0.0,0.0,0.0,3.958739829,1.2372499999999984,0.0,54311.0,0.0,0.0,0.0,0.0,0.0,0.33081051300000003,1.2384999999999984,0.0,-65362.0,0.0,0.0,0.0,0.0,0.0,1.300048695,3.7106249999999985,0.0,1.2699999809265137,0.14000000059604645,77.02999877929688,3.0517578125E-4,0.01953125,0.99859619140625,33.060001373291016,0.0,-3.0,2.597747802734375,-1.310943603515625,Waiting,0.0,0.0,-113.0,0.0,0.0,0.0,0.0,0.0,
12.812929999999993,0.0,0.0,false,4346044.886900959,,21368.0,0.0,0.0,0.0,0.0,0.125,0.565185489,3.722999999999999,0.0,-83983.0,0.0,0.0,0.0,0.0,0.0,3.959960532,1.2372499999999984,0.0,54311.0,0.0,0.0,0.0,0.0,0.0,0.33081051300000003,1.2384999999999984,0.0,-65362.0,0.0,0.0,0.0,0.0,0.0,1.300048695,3.7106249999999985,0.0,1.2699999809265137,0.14000000059604645,77.04000091552734,-9.1552734375E-4,0.0238037109375,0.99749755859375,33.060001373291016,0.0,0.0,2.597747802734375,-1.310943603515625,Waiting,0.0,0.0,-113.0,0.0,0.0,0.0,0.0,0.0,
12.989161000000022,0.0,0.0,false,4346049.629901765,,21368.0,0.0,0.0,0.0,0.0,0.125,0.5664061920000001,3.722999999999999,0.0,-83983.0,0.0,0.0,0.0,0.0,0.0,3.958739829,1.2372499999999984,0.0,54311.0,0.0,0.0,0.0,0.0,0.0,0.33081051300000003,1.2384999999999984,0.0,-65362.0,0.0,0.0,0.0,0.0,0.0,1.300048695,3.7106249999999985,0.0,1.2599999904632568,0.14000000059604645,77.02999877929688,0.0028076171875,0.02484130859375,0.99420166015625,33.08000183105469,0.0,2.0,2.597747802734375,-1.310943603515625,Waiting,0.0,0.0,-113.0,0.0,0.0,0.0,0.0,0.0,
13.175040000000036,0.0,0.0,false,4346037.318000319,,21368.0,0.0,0.0,0.0,0.0,0.125,0.5664061920000001,3.722999999999999,0.0,-83983.0,0.0,0.0,0.0,0.0,0.0,3.958739829,1.2372499999999984,0.0,54311.0,0.0,0.0,0.0,0.0,0.0,0.33081051300000003,1.2384999999999984,0.0,-65362.0,0.0,0.0,0.0,0.0,0.0,1.298827992,3.7106249999999985,0.0,1.2699999809265137,0.14000000059604645,77.02999877929688,4.8828125E-4,0.023681640625,0.99871826171875,33.08000183105469,0.0,0.0,2.597747802734375,-1.310943603515625,Waiting,0.0,0.0,-113.0,0.0,0.0,0.0,0.0,0.0,
13.348493000000017,0.0,0.0,false,4346007.964864649,,21368.0,0.0,0.0,0.0,0.0,0.125,0.5664061920000001,3.722999999999999,0.0,-83983.0,0.0,0.0,0.0,0.0,0.0,3.957519126,1.2372499999999984,0.0,54311.0,0.0,0.0,0.0,0.0,0.0,0.33081051300000003,1.2384999999999984,0.0,-65362.0,0.0,0.0,0.0,0.0,0.0,1.298827992,3.7106249999999985,0.0,1.2699999809265137,0.14000000059604645,77.02999877929688,0.0023193359375,0.0205078125,0.995849609375,33.08000183105469,0.0,-1.0,2.597747802734375,-1.310943603515625,Waiting,0.0,0.0,-113.0,0.0,0.0,0.0,0.0,0.0,
13.532236000000033,0.0,0.0,false,4345961.574576813,,21368.0,0.0,0.0,0.0,0.0,0.125,0.565185489,3.722999999999999,0.0,-83983.0,0.0,0.0,0.0,0.0,0.0,3.958739829,1.2372499999999984,0.0,54311.0,0.0,0.0,0.0,0.0,0.0,0.32958981000000004,1.2384999999999984,0.0,-65362.0,0.0,0.0,0.0,0.0,0.0,1.300048695,3.7106249999999985,0.0,1.2599999904632568,0.14000000059604645,77.02999877929688,0.00152587890625,0.01922607421875,1.00103759765625,33.06999969482422,0.0,-2.0,2.597747802734375,-1.310943603515625,Waiting,0.0,0.0,-113.0,0.0,0.0,0.0,0.0,0.0,
13.701608999999996,0.0,0.0,false,4345894.873932135,,21368.0,0.0,0.0,0.0,0.0,0.125,0.565185489,3.722999999999999,0.0,-83983.0,0.0,0.0,0.0,0.0,0.0,3.958739829,1.2372499999999984,0.0,54311.0,0.0,0.0,0.0,0.0,0.0,0.33081051300000003,1.2384999999999984,0.0,-65362.0,0.0,0.0,0.0,0.0,0.0,1.300048695,3.7106249999999985,0.0,1.25,0.14000000059604645,77.02999877929688,0.00372314453125,0.02362060546875,0.9991455078125,33.06999969482422,0.0,1.0,2.597747802734375,-1.310943603515625,Waiting,0.0,0.0,-113.0,0.0,0.0,0.0,0.0,0.0,
13.875722999999999,0.0,0.0,false,4345811.144818777,,21368.0,0.0,0.0,0.0,0.0,0.125,0.5664061920000001,3.722999999999999,0.0,-83983.0,0.0,0.0,0.0,0.0,0.0,3.958739829,1.2372499999999984,0.0,54311.0,0.0,0.0,0.0,0.0,0.0,0.33081051300000003,1.2384999999999984,0.0,-65362.0,0.0,0.0,0.0,0.0,0.0,1.298827992,3.7106249999999985,0.0,1.2599999904632568,0.12999999523162842,77.02999877929688,0.00103759765625,0.02093505859375,0.9964599609375,33.06999969482422,0.0,-1.0,2.597747802734375,-1.310943603515625,Waiting,0.0,0.0,-113.0,0.0,0.0,0.0,0.0,0.0,
14.036047000000021,0.0,0.0,false,4345710.39131476,,21368.0,0.0,0.0,0.0,0.0,0.125,0.565185489,3.722999999999999,0.0,-83983.0,0.0,0.0,0.0,0.0,0.0,3.958739829,1.2372499999999984,0.0,54311.0,0.0,0.0,0.0,0.0,0.0,0.33081051300000003,1.2384999999999984,0.0,-65362.0,0.0,0.0,0.0,0.0,0.0,1.300048695,3.7106249999999985,0.0,1.2599999904632568,0.14000000059604645,77.02999877929688,0.00299072265625,0.02239990234375,1.0009765625,33.08000183105469,0.0,0.0,2.597747802734375,-1.310943603515625,Waiting,0.0,0.0,-113.0,0.0,0.0,0.0,0.0,0.0,
14.194346000000019,0.0,0.0,false,4345592.780970626,,21368.0,0.0,0.0,0.0,0.0,0.125,0.565185489,3.722999999999999,0.0,-83983.0,0.0,0.0,0.0,0.0,0.0,3.958739829,1.2372499999999984,0.0,54311.0,0.0,0.0,0.0,0.0,0.0,0.33081051300000003,1.2384999999999984,0.0,-65362.0,0.0,0.0,0.0,0.0,0.0,1.298827992,3.7106249999999985,0.0,1.2599999904632568,0.12999999523162842,77.02999877929688,0.001953125,0.0218505859375,1.00091552734375,33.08000183105469,0.0,0.0,2.597747802734375,-1.310943603515625,Waiting,0.0,0.0,-113.0,0.0,0.0,0.0,0.0,0.0,
14.374205000000016,0.0,0.0,false,4345621.153483917,,21368.0,0.0,0.0,0.0,0.0,0.125,0.565185489,3.722999999999999,0.0,-83983.0,0.0,0.0,0.0,0.0,0.0,3.958739829,1.2372499999999984,0.0,54311.0,0.0,0.0,0.0,0.0,0.0,0.32958981000000004,1.2384999999999984,0.0,-65362.0,0.0,0.0,0.0,0.0,0.0,1.300048695,3.7106249999999985,0.0,1.2599999904632568,0.12999999523162842,77.02999877929688,0.0032958984375,0.0225830078125,0.99676513671875,33.08000183105469,0.0,0.0,2.597747802734375,-1.310943603515625,Waiting,0.0,0.0,-113.0,0.0,0.0,0.0,0.0,0.0,
14.536350000000034,0.0,0.0,false,4345632.637190742,,21368.0,0.0,0.0,0.0,0.0,0.125,0.5664061920000001,3.722999999999999,0.0,-83983.0,0.0,0.0,0.0,0.0,0.0,3.958739829,1.2372499999999984,0.0,54311.0,0.0,0.0,0.0,0.0,0.0,0.33081051300000003,1.2384999999999984,0.0,-65362.0,0.0,0.0,0.0,0.0,0.0,1.300048695,3.7106249999999985,0.0,1.2599999904632568,0.12999999523162842,77.02999877929688,1.8310546875E-4,0.02105712890625,0.99847412109375,33.09000015258789,0.0,-1.0,2.597747802734375,-1.310943603515625,Waiting,0.0,0.0,-113.0,0.0,0.0,0.0,0.0,0.0,
14.698364000000002,0.0,0.0,false,4345623.800813981,,21368.0,0.0,0.0,0.0,0.0,0.125,0.565185489,3.722999999999999,0.0,-83983.0,0.0,0.0,0.0,0.0,0.0,3.957519126,1.2372499999999984,0.0,54311.0,0.0,0.0,0.0,0.0,0.0,0.33081051300000003,1.2384999999999984,0.0,-65362.0,0.0,0.0,0.0,0.0,0.0,1.300048695,3.7106249999999985,0.0,1.2599999904632568,0.12999999523162842,77.02999877929688,0.00384521484375,0.01971435546875,0.997314453125,33.09000015258789,0.0,-1.0,2.597747802734375,-1.310943603515625,Waiting,0.0,0.0,-113.0,0.0,0.0,0.0,0.0,0.0,
14.857016000000003,0.0,0.0,false,4345598.088732844,,21368.0,0.0,0.0,0.0,0.0,0.125,0.565185489,3.722999999999999,0.0,-83983.0,0.0,0.0,0.0,0.0,0.0,3.957519126,1.2372499999999984,0.0,54311.0,0.0,0.0,0.0,0.0,0.0,0.32958981000000004,1.2384999999999984,0.0,-65362.0,0.0,0.0,0.0,0.0,0.0,1.298827992,3.7106249999999985,0.0,1.2599999904632568,0.12999999523162842,77.02999877929688,0.0030517578125,0.02191162109375,0.99798583984375,33.09000015258789,0.0,0.0,2.597747802734375,-1.310943603515625,Waiting,0.0,0.0,-113.0,0.0,0.0,0.0,0.0,0.0,
15.022742000000028,0.0,0.0,false,4345555.3511529565,,21368.0,0.0,0.0,0.0,0.0,0.125,0.5664061920000001,3.722999999999999,0.0,-83983.0,0.0,0.0,0.0,0.0,0.0,3.963622641,1.2372499999999984,0.0,54311.0,0.0,0.0,0.0,0.0,0.0,0.32958981000000004,1.2384999999999984,0.0,-65362.0,0.0,0.0,0.0,0.0,0.0,1.298827992,3.7106249999999985,0.0,1.2599999904632568,0.12999999523162842,77.02999877929688,0.00238037109375,0.0240478515625,0.999267578125,33.119998931884766,0.0,1.0,2.597747802734375,-1.310943603515625,Waiting,0.0,0.0,-113.0,0.0,0.0,0.0,0.0,0.0,
15.191773000000044,0.0,0.0,false,4345495.592149354,,21368.0,0.0,0.0,0.0,0.0,0.125,0.5664061920000001,3.722999999999999,0.0,-83983.0,0.0,0.0,0.0,0.0,0.0,3.958739829,1.2372499999999984,0.0,54311.0,0.0,0.0,0.0,0.0,0.0,0.32958981000000004,1.2384999999999984,0.0,-65362.0,0.0,0.0,0.0,0.0,0.0,1.298827992,3.7106249999999985,0.0,1.2599999904632568,0.12999999523162842,77.02999877929688,0.003662109375,0.022216796875,0.99688720703125,33.119998931884766,0.0,0.0,2.597747802734375,-1.310943603515625,Waiting,0.0,0.0,-113.0,0.0,0.0,0.0,0.0,0.0,
15.349449000000023,0.0,0.0,false,4345418.979178301,,21368.0,0.0,0.0,0.0,0.0,0.125,0.5664061920000001,3.722999999999999,0.0,-83983.0,0.0,0.0,0.0,0.0,0.0,3.958739829,1.2372499999999984,0.0,54311.0,0.0,0.0,0.0,0.0,0.0,0.33081051300000003,1.2384999999999984,0.0,-65362.0,0.0,0.0,0.0,0.0,0.0,1.300048695,3.7106249999999985,0.0,1.2599999904632568,0.11999999731779099,77.02999877929688,9.1552734375E-4,0.0244140625,0.99810791015625,33.119998931884766,0.0,2.0,2.597747802734375,-1.310943603515625,Waiting,0.0,0.0,-113.0,0.0,0.0,0.0,0.0,0.0,
15.509065000000003,0.0,0.0,false,4345325.352903637,,21368.0,0.0,0.0,0.0,0.0,0.125,0.565185489,3.722999999999999,0.0,-83983.0,0.0,0.0,0.0,0.0,0.0,3.958739829,1.2372499999999984,0.0,54311.0,0.0,0.0,0.0,0.0,0.0,0.32958981000000004,1.2384999999999984,0.0,-65362.0,0.0,0.0,0.0,0.0,0.0,1.300048695,3.7106249999999985,0.0,1.2599999904632568,0.11999999731779099,77.0199966430664,-6.103515625E-5,0.02130126953125,1.00042724609375,33.11000061035156,0.0,-1.0,2.597747802734375,-1.310943603515625,Waiting,0.0,0.0,-113.0,0.0,0.0,0.0,0.0,0.0,
15.674206000000005,0.0,0.0,false,4345214.880752971,,21368.0,0.0,0.0,0.0,0.0,0.125,0.565185489,3.722999999999999,0.0,-83983.0,0.0,0.0,0.0,0.0,0.0,3.957519126,1.2372499999999984,0.0,54311.0,0.0,0.0,0.0,0.0,0.0,0.32958981000000004,1.2384999999999984,0.0,-65362.0,0.0,0.0,0.0,0.0,0.0,1.300048695,3.7106249999999985,0.0,1.25,0.11999999731779099,77.0199966430664,0.0013427734375,0.02130126953125,1.001708984375,33.11000061035156,0.0,0.0,2.597747802734375,-1.310943603515625,Waiting,0.0,0.0,-113.0,0.0,0.0,0.0,0.0,0.0,
15.854195999999996,0.0,0.0,false,4345246.979741585,,21368.0,0.0,0.0,0.0,0.0,0.125,0.565185489,3.722999999999999,0.0,-83983.0,0.0,0.0,0.0,0.0,0.0,3.959960532,1.2372499999999984,0.0,54311.0,0.0,0.0,0.0,0.0,0.0,0.33081051300000003,1.2384999999999984,0.0,-65362.0,0.0,0.0,0.0,0.0,0.0,1.300048695,3.7106249999999985,0.0,1.25,0.11999999731779099,77.0199966430664,0.00128173828125,0.0223388671875,0.99560546875,33.11000061035156,0.0,0.0,2.597747802734375,-1.310943603515625,Waiting,0.0,0.0,-113.0,0.0,0.0,0.0,0.0,0.0,
16.013994000000007,0.0,0.0,false,4345262.038121062,,21368.0,0.0,0.0,0.0,0.0,0.125,0.5664061920000001,3.722999999999999,0.0,-83983.0,0.0,0.0,0.0,0.0,0.0,3.958739829,1.2372499999999984,0.0,54311.0,0.0,0.0,0.0,0.0,0.0,0.32958981000000004,1.2384999999999984,0.0,-65362.0,0.0,0.0,0.0,0.0,0.0,1.298827992,3.7106249999999985,0.0,1.25,0.11999999731779099,77.0199966430664,0.00335693359375,0.02117919921875,0.99652099609375,33.130001068115234,0.0,0.0,2.597747802734375,-1.310943603515625,Waiting,0.0,0.0,-113.0,0.0,0.0,0.0,0.0,0.0,
16.175178000000013,0.0,0.0,false,4345260.227113238,,21368.0,0.0,0.0,0.0,0.0,0.125,0.5664061920000001,3.722999999999999,0.0,-83983.0,0.0,0.0,0.0,0.0,0.0,3.959960532,1.2372499999999984,0.0,54311.0,0.0,0.0,0.0,0.0,0.0,0.33081051300000003,1.2384999999999984,0.0,-65362.0,0.0,0.0,0.0,0.0,0.0,1.300048695,3.7106249999999985,0.0,1.25,0.11999999731779099,77.0199966430664,0.005615234375,0.0203857421875,1.00048828125,33.130001068115234,0.0,0.0,2.597747802734375,-1.310943603515625,Waiting,0.0,0.0,-113.0,0.0,0.0,0.0,0.0,0.0,
16.33670300000004,0.0,0.0,false,4345241.388087074,,21368.0,0.0,0.0,0.0,0.0,0.125,0.565185489,3.722999999999999,0.0,-83983.0,0.0,0.0,0.0,0.0,0.0,3.957519126,1.2372499999999984,0.0,54311.0,0.0,0.0,0.0,0.0,0.0,0.32958981000000004,1.2384999999999984,0.0,-65362.0,0.0,0.0,0.0,0.0,0.0,1.300048695,3.7106249999999985,0.0,1.2400000095367432,0.12999999523162842,77.0199966430664,0.0015869140625,0.01983642578125,0.99658203125,33.130001068115234,0.0,-2.0,2.597747802734375,-1.310943603515625,Waiting,0.0,0.0,-113.0,0.0,0.0,0.0,0.0,0.0,
16.50319099999999,0.0,0.0,false,4345205.697974805,,21368.0,0.0,0.0,0.0,0.0,0.125,0.5664061920000001,3.722999999999999,0.0,-83983.0,0.0,0.0,0.0,0.0,0.0,3.957519126,1.2372499999999984,0.0,54311.0,0.0,0.0,0.0,0.0,0.0,0.33081051300000003,1.2384999999999984,0.0,-65362.0,0.0,0.0,0.0,0.0,0.0,1.300048695,3.7106249999999985,0.0,1.2400000095367432,0.12999999523162842,77.0199966430664,4.8828125E-4,0.0203857421875,0.99017333984375,33.130001068115234,0.0,-1.0,2.597747802734375,-1.310943603515625,Waiting,0.0,0.0,-113.0,0.0,0.0,0.0,0.0,0.0,
16.660777000000003,0.0,0.0,false,4345152.997528502,,21368.0,0.0,0.0,0.0,0.0,0.125,0.5676268950000001,3.722999999999999,0.0,-83983.0,0.0,0.0,0.0,0.0,0.0,3.959960532,1.2372499999999984,0.0,54311.0,0.0,0.0,0.0,0.0,0.0,0.33081051300000003,1.2384999999999984,0.0,-65362.0,0.0,0.0,0.0,0.0,0.0,1.300048695,3.7106249999999985,0.0,1.2300000190734863,0.12999999523162842,77.0199966430664,0.00115966796875,0.023681640625,0.9993896484375,33.13999938964844,0.0,1.0,2.597747802734375,-1.310943603515625,Waiting,0.0,0.0,-113.0,0.0,0.0,0.0,0.0,0.0,
16.834059999999997,0.0,0.0,false,4345083.454081632,,21368.0,0.0,0.0,0.0,0.0,0.125,0.5664061920000001,3.722999999999999,0.0,-83983.0,0.0,0.0,0.0,0.0,0.0,3.958739829,1.2372499999999984,0.0,54311.0,0.0,0.0,0.0,0.0,0.0,0.33081051300000003,1.2384999999999984,0.0,-65362.0,0.0,0.0,0.0,0.0,0.0,1.300048695,3.7106249999999985,0.0,1.2400000095367432,0.12999999523162842,77.0199966430664,0.0025634765625,0.02142333984375,1.000732421875,33.13999938964844,0.0,0.0,2.597747802734375,-1.310943603515625,Waiting,0.0,0.0,-113.0,0.0,0.0,0.0,0.0,0.0,
16.99830700000003,0.0,0.0,false,4344993.636349143,,21368.0,0.0,0.0,0.0,0.0,0.125,0.5664061920000001,3.722999999999999,0.0,-83983.0,0.0,0.0,0.0,0.0,0.0,3.957519126,1.2372499999999984,0.0,54311.0,0.0,0.0,0.0,0.0,0.0,0.32958981000000004,1.2384999999999984,0.0,-65362.0,0.0,0.0,0.0,0.0,0.0,1.300048695,3.7106249999999985,0.0,1.2400000095367432,0.12999999523162842,77.0199966430664,0.00103759765625,0.021728515625,1.0032958984375,33.13999938964844,0.0,0.0,2.597747802734375,-1.310943603515625,Waiting,0.0,0.0,-113.0,0.0,0.0,0.0,0.0,0.0,
17.163828000000038,0.0,0.0,false,4344886.820978798,,21368.0,0.0,0.0,0.0,0.0,0.125,0.5676268950000001,3.722999999999999,0.0,-83983.0,0.0,0.0,0.0,0.0,0.0,3.958739829,1.2372499999999984,0.0,54311.0,0.0,0.0,0.0,0.0,0.0,0.33081051300000003,1.2384999999999984,0.0,-65362.0,0.0,0.0,0.0,0.0,0.0,1.300048695,3.7106249999999985,0.0,1.2400000095367432,0.12999999523162842,77.0199966430664,0.0045166015625,0.0208740234375,0.99652099609375,33.13999938964844,0.0,0.0,2.597747802734375,-1.310943603515625,Waiting,0.0,0.0,-113.0,0.0,0.0,0.0,0.0,0.0,
17.319505000000003,0.0,0.0,false,4344763.01203475,,21368.0,0.0,0.0,0.0,0.0,0.125,0.565185489,3.722999999999999,0.0,-83983.0,0.0,0.0,0.0,0.0,0.0,3.958739829,1.2372499999999984,0.0,54311.0,0.0,0.0,0.0,0.0,0.0,0.33081051300000003,1.2384999999999984,0.0,-65362.0,0.0,0.0,0.0,0.0,0.0,1.300048695,3.7106249999999985,0.0,1.2400000095367432,0.12999999523162842,77.01000213623047,0.00494384765625,0.02349853515625,0.9990234375,33.13999938964844,0.0,2.0,2.597747802734375,-1.310943603515625,Waiting,0.0,0.0,-113.0,0.0,0.0,0.0,0.0,0.0,
17.49725800000003,0.0,0.0,false,4344784.879821486,,21368.0,0.0,0.0,0.0,0.0,0.125,0.5664061920000001,3.722999999999999,0.0,-83983.0,0.0,0.0,0.0,0.0,0.0,3.958739829,1.2372499999999984,0.0,54311.0,0.0,0.0,0.0,0.0,0.0,0.33081051300000003,1.2384999999999984,0.0,-65362.0,0.0,0.0,0.0,0.0,0.0,1.300048695,3.7106249999999985,0.0,1.2400000095367432,0.12999999523162842,77.01000213623047,0.00152587890625,0.02294921875,1.002197265625,33.13999938964844,0.0,0.0,2.597747802734375,-1.310943603515625,Waiting,0.0,0.0,-113.0,0.0,0.0,0.0,0.0,0.0,
17.66026199999999,0.0,0.0,false,4344789.716471432,,21368.0,0.0,0.0,0.0,0.0,0.125,0.565185489,3.722999999999999,0.0,-83983.0,0.0,0.0,0.0,0.0,0.0,3.958739829,1.2372499999999984,0.0,54311.0,0.0,0.0,0.0,0.0,0.0,0.32958981000000004,1.2384999999999984,0.0,-65362.0,0.0,0.0,0.0,0.0,0.0,1.300048695,3.7106249999999985,0.0,1.2400000095367432,0.12999999523162842,77.01000213623047,-6.103515625E-4,0.02142333984375,1.003662109375,33.15999984741211,0.0,-1.0,2.597747802734375,-1.310943603515625,Waiting,0.0,0.0,-113.0,0.0,0.0,0.0,0.0,0.0,
17.829266000000004,0.0,0.0,false,4344777.709003984,,21368.0,0.0,0.0,0.0,0.0,0.125,0.565185489,3.722999999999999,0.0,-83983.0,0.0,0.0,0.0,0.0,0.0,3.958739829,1.2372499999999984,0.0,54311.0,0.0,0.0,0.0,0.0,0.0,0.33081051300000003,1.2384999999999984,0.0,-65362.0,0.0,0.0,0.0,0.0,0.0,1.300048695,3.7106249999999985,0.0,1.2400000095367432,0.12999999523162842,77.01000213623047,0.0018310546875,0.0218505859375,1.0003662109375,33.15999984741211,0.0,0.0,2.597747802734375,-1.310943603515625,Waiting,0.0,0.0,-113.0,0.0,0.0,0.0,0.0,0.0,
17.995731000000028,0.0,0.0,false,4344748.688710063,,21368.0,0.0,0.0,0.0,0.0,0.125,0.565185489,3.722999999999999,0.0,-83983.0,0.0,0.0,0.0,0.0,0.0,3.957519126,1.2372499999999984,0.0,54311.0,0.0,0.0,0.0,0.0,0.0,0.33081051300000003,1.2384999999999984,0.0,-65362.0,0.0,0.0,0.0,0.0,0.0,1.300048695,3.7106249999999985,0.0,1.2400000095367432,0.12999999523162842,77.01000213623047,0.00177001953125,0.01995849609375,1.00048828125,33.15999984741211,0.0,-1.0,2.597747802734375,-1.310943603515625,Waiting,0.0,0.0,-113.0,0.0,0.0,0.0,0.0,0.0,
