Time,ClimberA1,ClimberA2,CameraExists,HeapSpace,LoopTime,FRpos,FRCurrent,FRspeed,FRsetpoint,FRApos,FRACurrent,FREncpos,FREncSetpoint,FREncSpeed,FLpos,FLCurrent,FLspeed,FLsetpoint,FLApos,FLACurrent,FLEncpos,FLEncSetpoint,FLEncSpeed,BRpos,BRCurrent,BRspeed,BRsetpoint,BRApos,BRACurrent,BREncpos,BREncSetpoint,BREncSpeed,BLpos,BLCurrent,BLspeed,BLsetpoint,BLApos,BLACurrent,BLEncpos,BLEncSetpoint,BLEncSpeed,navx_Pitch,navx_Roll,navx_Yaw,navx_XAcc,navx_YAcc,navx_ZAcc,navx_Temp,navx_Bar,navx_Alt,navx_XDis,navx_YDis,GearPlacerState,ShootOutputV,ShootOutputCurrent,ShootEncPos,ShootEncVelocity,ShootSpeed,ShootSetpoint,CarouselSetpoint,CarouselCurrent,
0.16242999999999302,0.0,0.0,false,4480376.292878636,,9179.0,0.0,0.0,0.0,0.0,0.125,1.8127439550000002,0.0,0.0,-65960.0,0.0,0.0,0.0,0.0,0.0,2.6904294120000003,0.0,0.0,40243.0,0.0,0.0,0.0,0.0,0.0,3.9941402160000004,0.0,0.0,-50386.0,0.0,0.0,0.0,0.0,0.0,2.629394262,0.0,0.0,1.2400000095367432,0.12999999523162842,77.51000213623047,-3.0517578125E-4,0.0230712890625,0.99945068359375,32.56999969482422,0.0,0.0,1.735015869140625,-0.3791656494140625,Waiting,0.0,0.0,-113.0,0.0,0.0,0.0,0.0,0.0,
0.2517609999999986,0.0,0.0,false,4480552.830283279,,9194.0,6.125,75.0,1260.0,0.0,0.125,1.8115232520000002,0.0,0.0,-65969.0,4.375,-67.5,-1260.0,0.0,0.0,2.6953122240000003,0.0,0.0,40251.0,11.25,75.0,1260.0,0.0,0.0,3.9953609190000003,-0.0,0.0,-50394.0,8.375,-75.0,-1260.0,0.0,0.0,2.628173559,-0.0,0.0,1.309999942779541,0.6100000143051147,77.44999694824219,0.65802001953125,-0.3643798828125,1.0196533203125,32.56999969482422,0.0,-237.0,1.7357330322265625,-0.38092041015625,Waiting,0.0,0.0,-113.0,0.0,0.0,0.0,0.0,0.0,
0.3371469999999972,0.0,0.0,false,4480698.746867168,,9249.0,9.75,322.5,1260.0,0.0,0.125,1.802978331,4.963172595130073,0.0,-66043.0,8.625,-412.5,-1260.0,0.0,0.0,2.6940915210000003,4.9481750953462385,0.0,40314.0,11.75,322.5,1260.0,0.0,0.0,3.9990230280000003,4.95317426194085,0.0,-50440.0,11.375,-247.5,-1260.0,0.0,0.0,2.628173559,4.946675345367855,0.0,1.25,1.840000033378601,77.43000030517578,0.412841796875,0.15313720703125,0.68853759765625,32.56999969482422,0.0,219.0,1.7398834228515625,-0.401702880859375,Waiting,0.0,0.0,-113.0,0.0,0.0,0.0,0.0,0.0,
0.43079299999999054,0.0,0.0,false,4480814.6108744675,,9249.0,11.0,547.5,1260.0,0.0,0.125,1.8127439550000002,4.96289686364068,-0.0024414059999999793,-66043.0,9.25,-607.5,-1260.0,0.0,0.0,2.6953122240000003,4.9479001970503065,0.0,40314.0,7.5,870.0,1260.0,0.0,0.0,4.000243731,4.9528990859137645,0.0,-50440.0,12.0,-570.0,-1260.0,0.0,0.0,2.622070044,4.946400530391269,0.0,1.340000033378601,2.509999990463257,77.77999877929688,0.138427734375,-0.03076171875,0.9217529296875,32.56999969482422,0.0,-30.0,1.7474822998046875,-0.425079345703125,Waiting,0.0,0.0,-113.0,0.0,0.0,0.0,0.0,0.0,
0.5226790000000038,0.0,0.0,false,4480899.901803607,,9361.0,10.25,795.0,1260.0,0.0,0.125,1.8115232520000002,0.004412440236409506,0.0012207029999995456,-66163.0,8.0,-840.0,-1260.0,0.0,0.0,2.700195036,0.004399106915791829,-0.0012207030000004337,40455.0,7.375,787.5,1260.0,0.0,0.0,4.002685137,0.004403551355997721,0.0,-50557.0,10.375,-802.5,-1260.0,0.0,0.0,2.6330563710000003,0.0043977735837300615,-0.004882811999999959,1.2999999523162842,2.950000047683716,78.08999633789062,0.326904296875,-0.109375,0.41864013671875,32.56999969482422,0.0,-53.0,1.7573699951171875,-0.460662841796875,Waiting,0.0,0.0,-113.0,0.0,0.0,0.0,0.0,0.0,
0.6087459999999992,0.0,0.0,false,4480954.640621087,,9520.0,9.125,975.0,1260.0,0.0,0.125,1.8127439550000002,0.008686962127685549,0.0,-66329.0,6.75,-1020.0,-1260.0,0.0,0.0,2.707519254,0.008660712242126466,0.0,40611.0,7.0,1020.0,1260.0,0.0,0.0,4.000243731,0.008669462203979494,0.0,-50715.0,8.875,-1012.5,-1260.0,0.0,0.0,2.623290747,0.008658087253570559,0.0,1.3700000047683716,3.119999885559082,78.4000015258789,0.17987060546875,-0.06524658203125,1.0120849609375,32.59000015258789,0.0,-62.0,1.7679901123046875,-0.5011749267578125,Waiting,0.0,0.0,-113.0,0.0,0.0,0.0,0.0,0.0,
0.6943479999999835,0.0,0.0,false,4480978.882323485,,9702.0,7.75,1140.0,1260.0,0.0,0.125,1.799316222,0.012272102695041236,0.0,-66514.0,5.25,-1155.0,-1260.0,0.0,0.0,2.708739957,0.012235019387139215,0.0,40793.0,6.25,1140.0,1260.0,0.0,0.0,3.9978023250000003,0.012247380489773222,0.0,-50899.0,7.625,-1132.5,-1260.0,0.0,0.0,2.623290747,0.012231311056349014,0.0,1.3799999952316284,3.490000009536743,78.66000366210938,-0.00439453125,-0.1185302734375,0.64813232421875,32.59000015258789,0.0,-140.0,1.7789154052734375,-0.5441131591796875,Waiting,0.0,0.0,-113.0,0.0,0.0,0.0,0.0,0.0,
0.7854779999999882,0.0,0.0,false,4480972.649812265,,9702.0,7.125,1200.0,1260.0000000000002,0.0,0.0,1.8127439550000002,0.016270893096923828,-0.0012207030000004337,-66514.0,4.75,-1230.0,-1260.0000000000002,0.0,0.0,2.714843472,0.0162217264175415,0.0,40793.0,6.125,1177.5,1260.0000000000002,0.0,0.0,3.9990230280000003,0.016238115310668943,0.0,-50899.0,6.5,-1215.0,-1260.0000000000002,0.0,0.0,2.622070044,0.016216809749603267,0.0,1.5099999904632568,3.3299999237060547,78.83999633789062,0.04119873046875,0.0357666015625,1.20263671875,32.59000015258789,0.0,-1.0,1.786285400390625,-0.58734130859375,Waiting,0.0,0.0,-113.0,0.0,0.0,0.0,0.0,0.0,
0.871702999999994,0.0,0.0,false,4480935.965965966,,9905.0,5.25,1327.5,1260.0000000000002,0.0,0.0,1.8127439550000002,0.018339142269558375,0.0,-66715.0,4.375,-1237.5,-1260.0000000000002,0.0,0.0,2.775878622,0.018283725844489198,0.006103514999999948,40989.0,5.625,1230.0,1260.0000000000002,0.0,0.0,3.9990230280000003,0.018302197986178926,0.0,-51101.0,5.75,-1290.0,-1260.0000000000002,0.0,0.0,2.619628638,0.018278184201982284,-0.0012207029999999897,1.7400000095367432,3.0799999237060547,78.94999694824219,-0.06964111328125,-0.767578125,1.6199951171875,32.59000015258789,0.0,-831.0,1.787567138671875,-0.629791259765625,Waiting,0.0,0.0,-113.0,0.0,0.0,0.0,0.0,0.0,
0.9639919999999839,0.0,0.0,false,4480868.85364023,,10124.0,4.375,1350.0,1260.0000000000002,0.0,0.0,1.8115232520000002,0.019855928463406034,-0.0012207029999995456,-66910.0,5.375,-1237.5,-1260.0000000000002,0.0,0.0,2.7941891670000003,0.019795928679572212,0.0,41190.0,5.0,1267.5,1260.0000000000002,0.0,0.0,4.000243731,0.019815928607516818,-0.0012207029999995456,-51307.0,5.375,-1275.0,-1260.0000000000002,0.0,0.0,2.628173559,0.019789928701188828,0.0,1.7400000095367432,3.140000104904175,78.80000305175781,0.217529296875,-0.2298583984375,0.9583740234375,32.59000015258789,0.0,-222.0,1.7888641357421875,-0.6722412109375,Waiting,0.0,0.0,-113.0,0.0,0.0,0.0,0.0,0.0,
1.0498570000000036,0.0,0.0,false,4480771.335667834,,10124.0,4.5,1312.5,1260.0,0.0,0.0,1.8127439550000002,0.016960274420844187,0.0,-67087.0,7.125,-1087.5,-1260.0,0.0,0.0,2.7905270580000003,0.016909024598863388,0.0,41396.0,4.375,1282.5,1260.0,0.0,0.0,4.005126543,0.016926107872856987,0.0,-51507.0,5.5,-1252.5,-1260.0,0.0,0.0,2.622070044,0.01690389961666531,0.0,1.590000033378601,2.930000066757202,78.5999984741211,-0.01666259765625,-0.07476806640625,0.91070556640625,32.61000061035156,0.0,-110.0,1.78955078125,-0.714324951171875,Waiting,0.0,0.0,-113.0,0.0,0.0,0.0,0.0,0.0,
1.1374790000000066,0.0,0.0,false,4480643.434858714,,10333.0,4.625,1290.0,1260.0,0.0,0.0,1.80664044,0.01502983839246962,0.0,-67087.0,7.0,-1215.0,-1260.0,0.0,0.0,2.769775107,0.01498442187839084,0.0,41396.0,4.5,1267.5,1260.0,0.0,0.0,4.002685137,0.014999560716417101,0.0,-51507.0,5.125,-1267.5,-1260.0,0.0,0.0,2.623290747,0.014979880226982965,0.0,1.4800000190734863,2.819999933242798,78.43000030517578,0.05499267578125,-0.15753173828125,0.3336181640625,32.61000061035156,0.0,-154.0,1.7888641357421875,-0.7527923583984375,Waiting,0.0,0.0,-113.0,0.0,0.0,0.0,0.0,0.0,
1.2278650000000053,0.0,0.0,false,4480485.174,,10539.0,4.625,1290.0,1260.0,0.0,0.0,1.8103025490000002,0.012410021040174699,0.0012207030000004337,-67284.0,6.875,-1192.5,-1260.0,0.0,0.0,2.7490231560000002,0.01237252097659641,-0.01953124800000028,41598.0,4.875,1267.5,1260.0,0.0,0.0,4.00390584,0.012385020997789173,0.0,-51715.0,4.75,-1290.0,-1260.0,0.0,0.0,2.62451145,0.012368770970238582,0.0,1.5700000524520874,2.619999885559082,78.36000061035156,-0.04388427734375,-0.08673095703125,1.09844970703125,32.61000061035156,0.0,-133.0,1.7880706787109375,-0.7886505126953125,Waiting,0.0,0.0,-113.0,0.0,0.0,0.0,0.0,0.0,
1.3176889999999986,0.0,0.0,false,4480296.575856036,,10744.0,4.75,1275.0,1260.0,0.0,0.0,1.807861143,0.011720534515380862,-0.0024414059999999793,-67482.0,6.875,-1230.0,-1260.0,0.0,0.0,2.729491908,0.011685117912292481,-0.028076168999999762,41800.0,4.875,1252.5,1260.0,0.0,0.0,4.022216385,0.011696923446655275,0.0012207030000004337,-51923.0,4.5,-1297.5,-1260.0,0.0,0.0,2.623290747,0.011681576251983643,0.0,1.659999966621399,2.359999895095825,78.38999938964844,0.0264892578125,0.00262451171875,1.68280029296875,32.61000061035156,0.0,-53.0,1.787872314453125,-0.8221435546875,Waiting,0.0,0.0,-113.0,0.0,0.0,0.0,0.0,0.0,
1.3983439999999974,0.0,0.0,false,4480077.663168415,,10744.0,4.875,1260.0,1260.0,0.0,0.0,1.8127439550000002,0.012134184349907772,0.0,-67482.0,5.75,-1320.0,-1260.0,0.0,0.0,2.730712611,0.012097517797682021,0.0,41800.0,5.5,1237.5,1260.0,0.0,0.0,4.010009355,0.012109739981757272,0.0,-52131.0,4.125,-1290.0,-1260.0,0.0,0.0,2.623290747,0.012093851142459446,0.0,1.590000033378601,2.3399999141693115,78.62999725341797,0.07421875,0.0374755859375,0.8199462890625,32.61000061035156,0.0,22.0,1.785186767578125,-0.8501739501953125,Waiting,0.0,0.0,-113.0,0.0,0.0,0.0,0.0,0.0,
1.491729999999996,0.0,0.0,false,4479828.458656008,,10946.0,5.25,1237.5,1260.0,0.0,0.0,1.8127439550000002,0.01544348822699653,0.0,-67695.0,5.875,-1275.0,-1260.0,0.0,0.0,2.73437472,0.01539682176378038,0.0,41999.0,5.5,1245.0,1260.0,0.0,0.0,4.031982009,0.015412377251519097,0.0,-52131.0,3.875,-1297.5,-1260.0,0.0,0.0,2.617187232,0.015392155117458768,0.0,1.4500000476837158,2.1600000858306885,79.06999969482422,0.10791015625,-0.01434326171875,0.6539306640625,32.61000061035156,0.0,-14.0,1.7789459228515625,-0.8876953125,Waiting,0.0,0.0,-113.0,0.0,0.0,0.0,0.0,0.0,
1.5887689999999857,0.0,0.0,false,4480028.037962038,,11143.0,5.25,1245.0,1260.0,0.0,0.0,1.8115232520000002,0.022613769361707906,-0.0012207029999995456,-67891.0,6.5,-1237.5,-1260.0,0.0,0.0,2.730712611,0.022545436053805882,0.0012207029999999897,42199.0,5.25,1252.5,1260.0,0.0,0.0,4.008788652,0.022568213823106555,0.0,-52339.0,3.875,-1297.5,-1260.0,0.0,0.0,2.617187232,0.022538602723015683,0.0,1.590000033378601,1.9600000381469727,79.4000015258789,-0.02545166015625,-0.01031494140625,1.499755859375,32.599998474121094,0.0,-65.0,1.770782470703125,-0.9196929931640625,Waiting,0.0,0.0,-113.0,0.0,0.0,0.0,0.0,0.0,
1.6731500000000088,0.0,0.0,false,4480194.063420724,,11348.0,5.0,1275.0,1260.0,0.0,0.0,1.8127439550000002,0.026060991583930132,0.0012207029999995456,-68102.0,5.625,-1305.0,-1260.0,0.0,0.0,2.729491908,0.025982241609361443,-0.0012207029999999897,42398.0,5.5,1237.5,1260.0,0.0,0.0,4.010009355,0.02600849160088434,0.0012207029999995456,-52543.0,3.875,-1282.5,-1260.0,0.0,0.0,2.618407935,0.025974366611904578,0.0,1.5800000429153442,1.8799999952316284,79.6500015258789,-0.074462890625,-0.054443359375,1.302001953125,32.599998474121094,0.0,-109.0,1.7628021240234375,-0.94818115234375,Waiting,0.0,0.0,-113.0,0.0,0.0,0.0,0.0,0.0,
1.7665470000000059,0.0,0.0,false,4480319.810284574,,11348.0,4.75,1290.0,1260.0,0.0,0.0,1.8115232520000002,0.029508213806152348,0.0,-68102.0,5.625,-1267.5,-1260.0,0.0,0.0,2.729491908,0.02941904716491699,0.0,42398.0,5.375,1252.5,1260.0,0.0,0.0,4.007567949,0.029448769378662108,-0.0012207029999995456,-52748.0,4.125,-1267.5,-1260.0,0.0,0.0,2.618407935,0.029410130500793455,0.0,1.4299999475479126,1.899999976158142,79.80999755859375,0.0679931640625,0.1153564453125,0.76904296875,32.599998474121094,0.0,101.0,1.756072998046875,-0.9735565185546875,Waiting,0.0,0.0,-113.0,0.0,0.0,0.0,0.0,0.0,
1.8514270000000106,0.0,0.0,false,4480415.123533816,,11556.0,4.25,1297.5,1260.0,0.0,0.0,1.807861143,0.03171438132392036,0.0,-68300.0,5.75,-1260.0,-1260.0,0.0,0.0,2.728271205,0.031618548181321884,0.0,42600.0,5.25,1260.0,1260.0,0.0,0.0,4.00390584,0.03165049256218804,0.0,-52748.0,3.75,-1282.5,-1260.0,0.0,0.0,2.617187232,0.03160896486706204,0.0,1.5,1.6699999570846558,80.0,0.16265869140625,0.07025146484375,0.98956298828125,32.599998474121094,0.0,66.0,1.75079345703125,-0.9949798583984375,Waiting,0.0,0.0,-113.0,0.0,0.0,0.0,0.0,0.0,
1.939400999999998,0.0,0.0,false,4480480.506986028,,11766.0,4.0,1297.5,1260.0,0.0,0.0,1.8127439550000002,0.03433430387708876,0.0,-68514.0,5.0,-1335.0,-1260.0,0.0,0.0,2.728271205,0.03423055396609836,0.0,42800.0,5.75,1245.0,1260.0,0.0,0.0,4.013671464000001,0.034265137269761825,0.0,-52959.0,3.125,-1335.0,-1260.0,0.0,0.0,2.618407935,0.03422017897499932,0.0,1.5299999713897705,1.649999976158142,80.27999877929688,-0.01373291015625,-0.02734375,1.1038818359375,32.599998474121094,0.0,-63.0,1.7457733154296875,-1.020111083984375,Waiting,0.0,0.0,-113.0,0.0,0.0,0.0,0.0,0.0,
2.031281999999992,0.0,0.0,false,4480514.959341481,,11940.0,0.5,1185.0,0.0,0.0,0.0,1.826171688,0.0,0.0,-68693.0,0.125,-1095.0,-0.0,0.0,0.0,2.728271205,0.0,0.0012207029999999897,42965.0,0.125,990.0,0.0,0.0,0.0,4.0283199000000005,0.0,0.0,-53144.0,0.0,-1117.5,-0.0,0.0,0.0,2.603759499,0.0,0.0,1.4299999475479126,1.0700000524520874,80.45999908447266,-0.32012939453125,0.13873291015625,1.20172119140625,32.599998474121094,0.0,-71.0,1.7358856201171875,-1.045684814453125,Waiting,0.0,0.0,-113.0,0.0,0.0,0.0,0.0,0.0,
2.1291109999999898,0.0,0.0,false,4480519.557107232,,11940.0,0.0,862.5,0.0,0.0,0.0,1.826171688,0.0,0.01586913899999942,-68693.0,0.125,-900.0,-0.0,0.0,0.0,2.728271205,0.0,-0.0012207029999999897,43071.0,0.125,615.0,0.0,0.0,0.0,4.0283199000000005,0.0,0.0,-53272.0,0.125,-825.0,-0.0,0.0,0.0,2.5939938750000002,0.0,0.0,1.5299999713897705,-0.3100000023841858,80.44000244140625,-0.1466064453125,0.04876708984375,0.88238525390625,32.560001373291016,0.0,-158.0,1.7234344482421875,-1.053192138671875,Waiting,0.0,0.0,-113.0,0.0,0.0,0.0,0.0,0.0,
2.2242810000000026,0.0,0.0,false,4480493.782099227,,12074.0,0.5,660.0,0.0,0.0,0.0,1.824950985,0.0,-0.0012207029999995456,-68827.0,0.25,-637.5,-0.0,0.0,0.0,2.728271205,0.0,0.0,43071.0,0.0,577.5,0.0,0.0,0.0,4.0283199000000005,0.0,-0.0012207030000004337,-53272.0,0.375,-607.5,-0.0,0.0,0.0,2.595214578,0.0,0.0,1.5099999904632568,-1.4800000190734863,80.62000274658203,-0.38616943359375,-0.04541015625,1.2012939453125,32.560001373291016,0.0,-133.0,1.7073211669921875,-1.0496826171875,Waiting,0.0,0.0,-113.0,0.0,0.0,0.0,0.0,0.0,
2.326428,0.0,0.0,false,4480437.176470588,,12147.0,0.125,330.0,0.0,0.0,0.0,1.826171688,0.0,0.0012207029999995456,-68898.0,0.0,-262.5,-0.0,0.0,0.0,2.729491908,0.0,0.0,43142.0,0.0,285.0,0.0,0.0,0.0,4.0283199000000005,0.0,0.0,-53349.0,0.125,-285.0,-0.0,0.0,0.0,2.5939938750000002,0.0,0.0,1.3899999856948853,-2.359999895095825,80.6500015258789,-0.17724609375,0.056396484375,1.022705078125,32.560001373291016,0.0,9.0,1.685211181640625,-1.032073974609375,Waiting,0.0,0.0,-113.0,0.0,0.0,0.0,0.0,0.0,
2.4241150000000053,0.0,0.0,false,4480350.273610765,,12171.0,0.375,127.5,420.0,0.0,1.625,1.834716609,0.5533560492066917,0.0,-68921.0,0.75,-90.0,-420.0,0.0,3.25,2.7441403440000003,1.9228160581136373,0.0,43168.0,1.125,157.5,420.0,0.0,1.75,3.8879390550000004,4.40175868900686,0.0,-53375.0,0.375,-120.0,-420.0,0.0,10.0,2.3181149970000003,3.0252667311543298,0.0,1.3799999952316284,-2.680000066757202,80.75,0.0145263671875,0.0289306640625,1.04266357421875,32.560001373291016,0.0,13.0,1.6612548828125,-1.0063934326171875,Waiting,0.0,0.0,-113.0,0.0,0.0,0.0,0.0,0.0,
2.5251610000000073,0.0,0.0,false,4480233.096163428,,12196.0,1.0,172.5,420.0,0.0,0.625,2.2192380540000003,0.5533560492066917,0.051269526000000454,-68937.0,1.5,-120.0,-420.0,0.0,1.375,3.452148084,1.9228160581136373,0.06347655600000035,43197.0,2.125,150.0,420.0,0.0,0.125,3.5266109670000003,4.40175868900686,-0.1611327960000004,-53392.0,1.25,-97.5,-420.0,0.0,2.25,1.669921704,3.0252667311543298,4.649648468,1.350000023841858,-2.119999885559082,80.61000061035156,0.0921630859375,-0.00640869140625,0.9486083984375,32.560001373291016,0.0,-7.0,1.6402130126953125,-0.9868927001953125,Waiting,0.0,0.0,-113.0,0.0,0.0,0.0,0.0,0.0,
2.6205919999999896,0.0,0.0,false,4480085.666749689,,12220.0,1.875,105.0,420.0,0.0,0.5,2.572021221,0.5533560492066917,0.4016112869999997,-68973.0,1.5,-255.0,-420.0,0.0,1.625,4.19921832,1.9228160581136373,0.0,43226.0,3.625,172.5,420.0,0.0,0.0,3.250732089,4.40175868900686,-0.36010738499999917,-53396.0,2.75,-15.0,-420.0,0.0,2.625,1.0046385690000001,3.0252667311543298,-0.6591796199999997,1.350000023841858,-1.809999942779541,79.9000015258789,-0.119140625,0.00433349609375,0.9722900390625,32.5,0.0,-33.0,1.6168060302734375,-0.9709625244140625,Waiting,0.0,0.0,-113.0,0.0,0.0,0.0,0.0,0.0,
2.7146310000000087,0.0,0.0,false,4479907.498007968,,12220.0,2.625,157.5,420.0,0.0,0.125,2.5805661420000003,0.5533560492066917,0.30151364100000055,-68973.0,3.0,-142.5,-420.0,0.0,0.125,4.6081538250000005,1.9228160581136373,0.0,43226.0,3.75,240.0,420.0,0.0,0.125,3.1677242850000003,4.40175868900686,-0.26733395699999996,-53396.0,3.875,-90.0,-420.0,0.0,1.125,0.46630854600000005,3.0252667311543298,-0.6628417290000002,1.3799999952316284,-2.0999999046325684,78.61000061035156,-0.104248046875,0.02301025390625,1.18951416015625,32.5,0.0,-17.0,1.5954437255859375,-0.968048095703125,Waiting,0.0,0.0,-113.0,0.0,0.0,0.0,0.0,0.0,
2.8108639999999867,0.0,0.0,false,4479699.122728405,,12238.0,4.25,90.0,420.0,0.0,0.125,2.562255597,0.5533560492066917,0.0,-68991.0,5.0,-82.5,-420.0,0.0,0.0,4.593505389000001,1.9228160581136373,0.0,43262.0,5.125,142.5,420.0,0.0,0.125,3.3129879420000004,4.40175868900686,-0.07080077400000029,-53414.0,3.625,-180.0,-420.0,0.0,0.0,0.42236323800000003,3.0252667311543298,0.0,1.649999976158142,-2.130000114440918,77.0,-3.662109375E-4,0.08209228515625,1.0113525390625,32.5,0.0,59.0,1.572845458984375,-0.9634857177734375,Waiting,0.0,0.0,-113.0,0.0,0.0,0.0,0.0,0.0,
2.9057249999999915,0.0,0.0,false,4479460.563464411,,12265.0,4.25,210.0,420.0,0.0,0.0,2.438964594,0.5533560492066917,0.0,-69025.0,4.0,-285.0,-420.0,0.0,0.0,4.58984328,1.9228160581136373,0.0,43298.0,5.25,307.5,420.0,0.0,0.125,3.439941054,4.40175868900686,0.0,-53453.0,3.5,-262.5,-420.0,0.0,0.0,0.5151366660000001,3.0252667311543298,0.0,1.590000033378601,-1.9199999570846558,74.55000305175781,-0.01708984375,0.0614013671875,1.350341796875,32.5,0.0,30.0,1.5545654296875,-0.9615020751953125,Waiting,0.0,0.0,-113.0,0.0,0.0,0.0,0.0,0.0,
2.994599000000002,0.0,0.0,false,4479191.842746952,,12320.0,3.25,360.0,420.0,0.0,0.0,2.395019286,0.5533560492066917,0.0,-69087.0,2.75,-397.5,-420.0,0.0,0.0,4.584960468,1.9228160581136373,0.0,43360.0,3.5,375.0,420.0,0.0,0.0,3.4753414410000003,4.40175868900686,0.0,-53517.0,2.625,-412.5,-420.0,0.0,0.0,0.59814447,3.0252667311543298,0.0,1.7200000286102295,-1.4700000286102295,70.13999938964844,0.04669189453125,-0.011962890625,0.92718505859375,32.5,0.0,-13.0,1.5337371826171875,-0.9619903564453125,Waiting,0.0,0.0,-113.0,0.0,0.0,0.0,0.0,0.0,
3.100351999999999,0.0,0.0,false,4479377.373134328,,12400.0,2.25,465.0,420.0,0.0,0.0,2.401122801,0.5533560492066917,0.0,-69158.0,2.25,-435.0,-420.0,0.0,0.0,4.588622577000001,1.9228160581136373,0.0,43444.0,2.375,517.5,420.0,0.0,0.0,3.4765621440000003,4.40175868900686,0.0,-53598.0,1.75,-502.5,-420.0,0.0,0.0,0.6103515,3.0252667311543298,0.0,1.7799999713897705,-1.1299999952316284,65.4000015258789,0.00811767578125,0.0078125,1.1116943359375,32.439998626708984,0.0,-11.0,1.518646240234375,-0.9660797119140625,Waiting,0.0,0.0,-113.0,0.0,0.0,0.0,0.0,0.0,
3.193498000000007,0.0,0.0,false,4479531.772195972,,12400.0,1.375,540.0,420.0,0.0,0.0,2.396239989,0.5533560492066917,0.0,-69158.0,1.5,-540.0,-420.0,0.0,0.0,4.58984328,1.9228160581136373,0.0,43444.0,1.5,577.5,420.0,0.0,0.0,3.4777828470000003,4.40175868900686,0.0,-53598.0,1.125,-540.0,-420.0,0.0,0.0,0.611572203,3.0252667311543298,0.0,1.940000057220459,-0.9300000071525574,60.33000183105469,-0.06146240234375,0.04547119140625,1.13238525390625,32.439998626708984,0.0,-15.0,1.5189056396484375,-0.9716644287109375,Waiting,0.0,0.0,-113.0,0.0,0.0,0.0,0.0,0.0,
3.2902279999999884,0.0,0.0,false,4479655.634012929,,12488.0,1.125,540.0,420.0,0.0,0.0,2.395019286,0.5533560492066917,0.0012207030000004337,-69243.0,1.25,-487.5,-420.0,0.0,0.0,4.588622577000001,1.9228160581136373,0.0,43537.0,1.0,577.5,420.0,0.0,0.0,3.492431283,4.40175868900686,0.0,-53686.0,0.625,-555.0,-420.0,0.0,0.0,0.611572203,3.0252667311543298,0.0,1.9600000381469727,-0.6399999856948853,54.36000061035156,0.03851318359375,0.0023193359375,0.748779296875,32.439998626708984,0.0,8.0,1.519012451171875,-0.9782867431640625,Waiting,0.0,0.0,-113.0,0.0,0.0,0.0,0.0,0.0,
3.381881999999998,0.0,0.0,false,4479749.490430027,,12573.0,1.0,532.5,420.0,0.0,0.0,2.395019286,0.5533560492066917,0.0,-69318.0,1.25,-472.5,-420.0,0.0,0.0,4.588622577000001,1.9228160581136373,-0.0012207029999995456,43628.0,0.5,562.5,420.0,0.0,0.0,3.4777828470000003,4.40175868900686,0.0,-53774.0,0.5,-540.0,-420.0,0.0,0.0,0.6103515,3.0252667311543298,0.0,2.0799999237060547,-0.49000000953674316,49.439998626708984,0.03778076171875,0.01947021484375,1.09478759765625,32.439998626708984,0.0,15.0,1.5188446044921875,-0.98529052734375,Waiting,0.0,0.0,-113.0,0.0,0.0,0.0,0.0,0.0,
3.479520000000004,0.0,0.0,false,4479812.284294235,,12655.0,0.875,510.0,420.0,0.0,0.0,2.385253662,0.5533560492066917,-0.0012207030000004337,-69392.0,1.125,-457.5,-420.0,0.0,0.0,4.588622577000001,1.9228160581136373,0.0,43715.0,0.5,532.5,420.0,0.0,0.0,3.4777828470000003,4.40175868900686,0.0,-53856.0,0.5,-502.5,-420.0,0.0,0.0,0.6103515,3.0252667311543298,0.0,2.0399999618530273,-0.25999999046325684,44.849998474121094,0.0010986328125,0.04559326171875,0.924560546875,32.439998626708984,0.0,12.0,1.5190277099609375,-0.98675537109375,Waiting,0.0,0.0,-113.0,0.0,0.0,0.0,0.0,0.0,
3.5723320000000096,0.0,0.0,false,4479844.609192546,,12730.0,0.875,472.5,420.0,0.0,0.0,2.396239989,0.5533560492066917,0.0,-69466.0,1.25,-465.0,-420.0,0.0,0.0,4.588622577000001,1.9228160581136373,0.0,43793.0,0.5,495.0,420.0,0.0,0.0,3.4765621440000003,4.40175868900686,0.0,-53932.0,0.5,-480.0,-420.0,0.0,0.0,0.6103515,3.0252667311543298,0.0024414059999999793,2.0799999237060547,-0.05999999865889549,39.86000061035156,0.0162353515625,0.0286865234375,0.85943603515625,32.41999816894531,0.0,11.0,1.5192108154296875,-0.986724853515625,Waiting,0.0,0.0,-113.0,0.0,0.0,0.0,0.0,0.0,
3.6669630000000035,0.0,0.0,false,4479846.996522603,,12730.0,1.0,442.5,420.0,0.0,0.0,2.396239989,0.5533560492066917,0.0,-69466.0,1.5,-435.0,-420.0,0.0,0.0,4.58984328,1.9228160581136373,0.0,43793.0,0.5,472.5,420.0,0.0,0.0,3.4765621440000003,4.40175868900686,0.0,-53932.0,0.5,-450.0,-420.0,0.0,0.0,0.6103515,3.0252667311543298,0.0,2.0799999237060547,0.05999999865889549,35.810001373291016,0.02301025390625,0.07781982421875,1.07208251953125,32.41999816894531,0.0,40.0,1.5194091796875,-0.9870147705078125,Waiting,0.0,0.0,-113.0,0.0,0.0,0.0,0.0,0.0,
3.7562290000000065,0.0,0.0,false,4479818.451452694,,12800.0,1.125,435.0,420.0,0.0,0.0,2.395019286,0.5533560492066917,0.0,-69532.0,1.5,-397.5,-420.0,0.0,0.0,4.58984328,1.9228160581136373,0.0,43868.0,0.75,450.0,420.0,0.0,0.0,3.4777828470000003,4.40175868900686,0.0,-54003.0,0.5,-435.0,-420.0,0.0,0.0,0.611572203,3.0252667311543298,0.0,2.0399999618530273,0.17000000178813934,31.84000015258789,-0.02105712890625,0.01727294921875,1.16851806640625,32.41999816894531,0.0,-33.0,1.519500732421875,-0.98773193359375,Waiting,0.0,0.0,-113.0,0.0,0.0,0.0,0.0,0.0,
3.851455000000002,0.0,0.0,false,4479759.505461767,,12865.0,0.25,382.5,0.0,0.0,2.0,2.237548599,0.0,0.0,-69592.0,0.125,-337.5,-0.0,0.0,5.875,4.367675334,0.0,0.0,43934.0,0.0,367.5,0.0,0.0,2.0,3.6865230600000003,0.0,0.0,-54070.0,0.0,-397.5,-0.0,0.0,7.625,0.9326170920000001,0.0,0.0,1.9900000095367432,0.28999999165534973,28.540000915527344,0.02801513671875,0.0341796875,1.064208984375,32.41999816894531,0.0,18.0,1.519683837890625,-0.9880218505859375,Waiting,0.0,0.0,-113.0,0.0,0.0,0.0,0.0,0.0,
3.9340619999999906,0.0,0.0,false,4479670.1811863985,,12900.0,0.25,202.5,0.0,0.0,0.25,1.907958789,0.0,-0.18432615299999977,-69607.0,0.25,-90.0,-0.0,0.0,1.0,3.721923447,0.0,-0.24047849100000018,43973.0,0.125,240.0,0.0,0.0,0.125,4.027099197,0.0,0.0,-54100.0,0.0,-217.5,-0.0,0.0,1.375,1.5783689790000002,0.0,0.0,1.9800000190734863,0.6100000143051147,25.889999389648438,0.0267333984375,0.04144287109375,1.204833984375,32.41999816894531,0.0,12.0,1.520751953125,-0.9898223876953125,Waiting,0.0,0.0,-113.0,0.0,0.0,0.0,0.0,0.0,
4.027235000000001,0.0,0.0,false,4479550.501240695,,12900.0,0.125,217.5,0.0,0.0,0.25,1.701659982,0.0,-0.3405761370000002,-69607.0,0.625,-150.0,-0.0,0.0,1.625,3.0590817180000003,0.0,-0.7055663340000002,43973.0,0.0,150.0,0.0,0.0,0.125,4.228515192000001,0.0,-4.597554724,-54100.0,0.0,-180.0,-0.0,0.0,1.375,2.253417738,0.0,0.6787108679999996,2.0899999141693115,0.46000000834465027,25.600000381469727,-0.0767822265625,0.02337646484375,1.1180419921875,32.41999816894531,0.0,-84.0,1.5229339599609375,-0.9920196533203125,Waiting,0.0,0.0,-113.0,0.0,0.0,0.0,0.0,0.0,
4.119180999999997,0.0,0.0,false,4479400.488216324,,12913.0,0.25,30.0,0.0,0.0,0.125,1.7382810720000001,0.0,0.0,-69620.0,1.125,-30.0,-0.0,0.0,0.0,2.6440426980000002,0.0,0.0,43978.0,0.0,82.5,0.0,0.0,0.0,4.146728091,0.0,0.003662109000000413,-54127.0,0.0,-90.0,-0.0,0.0,0.0,2.5939938750000002,0.0,0.03906249600000056,1.9900000095367432,0.3400000035762787,25.600000381469727,0.02001953125,0.01953125,0.97174072265625,32.400001525878906,0.0,6.0,1.522613525390625,-0.9929046630859375,Waiting,0.0,0.0,-113.0,0.0,0.0,0.0,0.0,0.0,
4.205588000000003,0.0,0.0,false,4479220.16468254,,12922.0,0.25,67.5,8.4,0.0,0.125,1.744384587,2.7578408983018664E-4,0.0,-69620.0,1.375,0.0,-8.4,0.0,0.0,2.5915524690000002,2.7495073742336693E-4,0.0,43993.0,0.125,75.0,8.4,0.0,0.0,4.07714802,2.752285215589735E-4,0.0,-54130.0,0.0,-22.5,-8.4,0.0,0.0,2.619628638,2.74867402182685E-4,0.0,1.9900000095367432,0.3499999940395355,25.6299991607666,0.0198974609375,0.015380859375,1.04034423828125,32.400001525878906,0.0,3.0,1.522674560546875,-0.9934844970703125,Waiting,0.0,0.0,-113.0,0.0,0.0,0.0,0.0,0.0,
4.293390999999989,0.0,0.0,false,4479009.553186214,,12931.0,0.125,82.5,8.4,0.0,0.125,1.80664044,5.515681796603733E-4,0.0,-69621.0,1.0,-7.5,-8.4,0.0,0.0,2.6464841040000002,5.499014748467339E-4,0.0,43996.0,0.125,15.0,8.4,0.0,0.0,4.047851148,5.50457043117947E-4,0.0,-54139.0,0.0,-52.5,-8.4,0.0,0.0,2.5793454390000004,5.4973480436537E-4,0.0,1.9600000381469727,0.3499999940395355,25.639999389648438,-0.00390625,0.0384521484375,0.9764404296875,32.400001525878906,0.0,-6.0,1.522674560546875,-0.99407958984375,Waiting,0.0,0.0,-113.0,0.0,0.0,0.0,0.0,0.0,
4.386474999999991,0.0,0.0,false,4478758.891422905,,12931.0,0.25,0.0,8.4,0.0,0.125,1.7871091920000002,8.273259692721898E-4,0.03906249599999967,-69621.0,1.125,0.0,-8.4,0.0,0.0,2.681884491,8.248259915245905E-4,0.05859374400000039,43996.0,0.125,7.5,8.4,0.0,0.0,4.049071851,8.256593174404569E-4,-0.02441406000000068,-54139.0,0.0,-37.5,-8.4,0.0,0.0,2.559814191,8.245759937498305E-4,-0.04272460500000008,1.9299999475479126,0.3199999928474426,25.649999618530273,-0.00396728515625,0.02581787109375,0.99090576171875,32.400001525878906,0.0,-11.0,1.5226287841796875,-0.99407958984375,Waiting,0.0,0.0,-113.0,0.0,0.0,0.0,0.0,0.0,
4.481199000000008,0.0,0.0,false,4478956.651301115,,12932.0,0.25,7.5,0.0,0.0,0.0,1.795654113,0.0,0.006103515000000392,-69622.0,1.125,0.0,-0.0,0.0,0.0,2.680663788,0.0,0.026855465999999772,43997.0,0.125,0.0,0.0,0.0,0.0,4.049071851,0.0,0.0012207030000004337,-54143.0,0.0,0.0,-0.0,0.0,0.0,2.559814191,0.0,-0.014648435999999876,1.9199999570846558,0.28999999165534973,25.649999618530273,0.00372314453125,0.02301025390625,0.998291015625,32.400001525878906,0.0,-5.0,1.5225830078125,-0.99407958984375,Waiting,0.0,0.0,-113.0,0.0,0.0,0.0,0.0,0.0,
4.5705230000000014,0.0,0.0,false,4479121.623389495,,12932.0,0.25,0.0,0.0,0.0,0.0,1.7932127070000001,0.0,0.0012207029999995456,-69622.0,1.125,0.0,-0.0,0.0,0.0,2.680663788,0.0,0.0012207029999995456,43997.0,0.125,0.0,0.0,0.0,0.0,4.047851148,0.0,0.0,-54143.0,0.0,0.0,-0.0,0.0,0.0,2.561034894,0.0,0.0,1.8899999856948853,0.28999999165534973,25.649999618530273,0.0037841796875,0.0406494140625,1.00579833984375,32.400001525878906,0.0,1.0,1.5225830078125,-0.99407958984375,Waiting,0.0,0.0,-113.0,0.0,0.0,0.0,0.0,0.0,
4.668067999999985,0.0,0.0,false,4479253.89943027,,12938.0,1.5,15.0,378.0,0.0,0.0,1.7919920040000001,0.0,0.0,-69626.0,2.75,0.0,-378.0,0.0,0.0,2.6953122240000003,0.0,0.0,44001.0,1.375,15.0,378.0,0.0,0.0,4.042968336,0.0,0.0,-54154.0,1.375,-45.0,-378.0,0.0,0.0,2.559814191,0.0,0.0,1.8799999952316284,0.3799999952316284,25.6299991607666,0.025146484375,0.0413818359375,1.02655029296875,32.43000030517578,0.0,19.0,1.522705078125,-0.9941558837890625,Waiting,0.0,0.0,-113.0,0.0,0.0,0.0,0.0,0.0,
4.782232000000004,0.0,0.0,false,4479355.972263496,,12949.0,0.375,75.0,NaN,0.0,0.0,1.7932127070000001,NaN,0.0,-69635.0,1.625,-22.5,NaN,0.0,0.0,2.723388393,NaN,0.0,44014.0,0.5,82.5,NaN,0.0,0.0,4.049071851,NaN,0.0,-54162.0,0.0,-52.5,NaN,0.0,0.0,2.559814191,NaN,0.0,1.8300000429153442,0.4699999988079071,25.690000534057617,-0.05816650390625,0.01397705078125,1.0975341796875,32.43000030517578,0.0,-69.0,1.5271148681640625,-0.996368408203125,Waiting,0.0,0.0,-113.0,0.0,0.0,0.0,0.0,0.0,
4.988828999999983,0.0,0.0,false,4479420.193117108,,12962.0,0.5,7.5,NaN,0.0,0.0,1.7932127070000001,NaN,0.0,-69635.0,1.875,0.0,NaN,0.0,0.0,2.729491908,NaN,0.0,44025.0,0.375,0.0,NaN,0.0,0.0,4.046630445,NaN,0.0,-54177.0,0.125,-15.0,NaN,0.0,0.0,2.562255597,NaN,0.0,1.7799999713897705,0.18000000715255737,25.75,-0.007568359375,0.030517578125,0.9840087890625,32.43000030517578,0.0,-9.0,1.5253448486328125,-0.9956512451171875,Waiting,0.0,0.0,-113.0,0.0,0.0,0.0,0.0,0.0,
5.133226000000009,0.0,0.0,false,4479451.279207921,,12967.0,3.375,60.0,454.2994607084626,0.0,2.0,1.956786909,0.4645485977748996,0.0,-69663.0,4.875,-225.0,-454.2994607084626,0.0,1.125,2.8015133850000002,0.463144844961317,0.0,44032.0,4.125,90.0,454.2994607084626,0.0,1.25,4.202880429,0.46361276256584455,0.0,-54182.0,2.875,-97.5,-454.2994607084626,0.0,1.125,2.752685265,0.4630044696799588,0.0,1.7599999904632568,0.949999988079071,25.829999923706055,0.1302490234375,0.07012939453125,0.9471435546875,32.470001220703125,0.0,120.0,1.53216552734375,-0.9972076416015625,Waiting,0.0,0.0,-113.0,0.0,0.0,0.0,0.0,0.0,
5.343311999999991,0.0,0.0,false,4479448.778025242,,13053.0,3.875,315.0,517.0607701228164,0.0,0.25,2.496337635,0.5932678543610616,0.0,-69758.0,5.625,-367.5,-517.0607701228164,0.0,0.0,3.3227535660000003,0.5914751432781815,0.0,44111.0,3.875,307.5,517.0607701228164,0.0,0.0,4.683837411,0.5920727136391415,0.0,-54276.0,2.375,-352.5,-517.0607701228164,0.0,0.0,3.2067867810000004,0.5912958721698935,0.0,2.759999990463257,1.2400000095367432,25.739999771118164,-0.08453369140625,0.22344970703125,1.14093017578125,32.470001220703125,0.0,-25.0,1.5580902099609375,-0.992462158203125,Waiting,0.0,0.0,-113.0,0.0,0.0,0.0,0.0,0.0,
5.513408000000011,0.0,0.0,false,4479403.02820386,,13137.0,2.375,577.5,590.4548754985431,0.0,0.125,2.6879880060000003,0.6921254030499885,0.0,-69845.0,3.875,-577.5,-590.4548754985431,0.0,0.0,3.593749632,0.6900339685121661,0.0,44191.0,3.125,532.5,590.4548754985431,0.0,0.0,4.794921384,0.6907311133581069,0.0,-54355.0,2.25,-510.0,-590.4548754985431,0.0,0.0,3.3239742690000003,0.6898248250583839,0.0,3.440000057220459,1.059999942779541,25.110000610351562,0.04559326171875,0.04412841796875,0.864990234375,32.470001220703125,0.0,23.0,1.591796875,-0.96826171875,Waiting,0.0,0.0,-113.0,0.0,0.0,0.0,0.0,0.0,
5.682572,0.0,0.0,false,4479320.08904279,,13247.0,0.375,667.5,447.43307879503055,0.0,0.75,2.569579815,0.446035304253418,0.0,-69951.0,1.125,-652.5,-447.43307879503055,0.0,1.0,3.400878558,0.4446874941076078,0.0,44289.0,0.75,637.5,447.43307879503055,0.0,0.125,4.650878430000001,0.4451367641562112,0.0,-54444.0,0.625,-592.5,-447.43307879503055,0.0,0.375,3.2153317020000003,0.4445527130930268,0.0,3.299999952316284,1.159999966621399,23.920000076293945,0.04425048828125,-0.06719970703125,1.0169677734375,32.4900016784668,0.0,-29.0,1.614776611328125,-0.93756103515625,Waiting,0.0,0.0,-113.0,0.0,0.0,0.0,0.0,0.0,
5.8328069999999865,0.0,0.0,false,4479205.376854599,,13465.0,0.375,705.0,600.1886703362536,0.0,0.125,2.299804452,0.7027436499183911,0.0,-70153.0,2.125,-615.0,-600.1886703362536,0.0,0.0,3.1555172550000004,0.7006201296225054,0.0,44495.0,1.125,645.0,600.1886703362536,0.0,0.0,4.519042506,0.701327969721134,0.0,-54632.0,1.25,-585.0,-600.1886703362536,0.0,0.0,3.037109064,0.700407777592917,0.0,2.369999885559082,1.6200000047683716,23.479999542236328,-0.0181884765625,0.096435546875,0.95977783203125,32.4900016784668,0.0,-19.0,1.615631103515625,-0.9300384521484375,Waiting,0.0,0.0,-113.0,0.0,0.0,0.0,0.0,0.0,
6.000814999999988,0.0,0.0,false,4479057.186650186,,13555.0,0.25,532.5,417.1342230026206,0.0,0.125,2.290038828,0.34495516451469077,0.0,-70248.0,0.625,-577.5,-417.1342230026206,0.0,0.0,3.145751631,0.3439127939531032,0.0,44591.0,0.375,585.0,417.1342230026206,0.0,0.0,4.534911645,0.3442602508069657,0.0,-54731.0,0.125,-585.0,-417.1342230026206,0.0,0.0,3.0114743010000002,0.34380855689694445,0.0,2.3499999046325684,1.2999999523162842,23.700000762939453,-0.00958251953125,-0.03924560546875,1.165283203125,32.4900016784668,0.0,-68.0,1.612518310546875,-0.9292755126953125,Waiting,0.0,0.0,-113.0,0.0,0.0,0.0,0.0,0.0,
6.111344999999987,0.0,0.0,false,4478866.360850222,,13633.0,0.375,480.0,385.4858752276145,0.0,0.625,2.192382588,0.15595140222510104,0.0,-70327.0,0.75,-495.0,-385.4858752276145,0.0,0.0,3.0126950040000002,0.15548015503868348,0.0,44672.0,0.375,502.5,385.4858752276145,0.0,0.125,4.331054244000001,0.155637237434156,0.0,-54817.0,0.125,-532.5,-385.4858752276145,0.0,0.0,2.8405758810000004,0.15543303032004174,0.0,2.0399999618530273,1.2100000381469727,23.889999389648438,4.2724609375E-4,-0.116943359375,1.0040283203125,32.4900016784668,0.0,-80.0,1.607147216796875,-0.93072509765625,Waiting,0.0,0.0,-113.0,0.0,0.0,0.0,0.0,0.0,
6.211599999999991,0.0,0.0,false,4478645.558685446,,13711.0,0.25,480.0,378.2099416990516,0.0,0.25,1.802978331,4.937674909229462,0.0,-70400.0,1.0,-412.5,-378.2099416990516,0.0,0.0,2.6318356680000004,4.922754457247502,0.0,44749.0,0.125,480.0,378.2099416990516,0.0,0.0,3.9404292840000004,4.927727941241488,0.0,-54896.0,0.125,-465.0,-378.2099416990516,0.0,0.0,2.4755856840000003,4.921262412049306,0.0,1.0399999618530273,1.0299999713897705,23.799999237060547,-0.0628662109375,-0.07598876953125,0.9322509765625,32.4900016784668,0.0,-110.0,1.58758544921875,-0.9464874267578125,Waiting,0.0,0.0,-113.0,0.0,0.0,0.0,0.0,0.0,
6.3880489999999845,0.0,0.0,false,4478392.577075099,,13783.0,0.25,412.5,378.2099416990516,0.0,0.25,1.56249984,4.937674909229462,0.0,-70467.0,0.625,-457.5,-378.2099416990516,0.0,0.125,2.445068109,4.922754457247502,0.0,44819.0,0.375,405.0,378.2099416990516,0.0,0.125,3.7780757850000004,4.927727941241488,0.0,-54963.0,0.25,-382.5,-378.2099416990516,0.0,0.0,2.303466561,4.921262412049306,0.0,0.6399999856948853,0.6499999761581421,24.030000686645508,-0.05145263671875,-0.0211181640625,0.97564697265625,32.4900016784668,0.0,-70.0,1.5632781982421875,-0.962738037109375,Waiting,0.0,0.0,-113.0,0.0,0.0,0.0,0.0,0.0,
6.514143999999986,0.0,0.0,false,4478580.43961472,,13844.0,0.25,382.5,385.4858752276145,0.0,0.0,1.571044761,4.808048597774899,0.0,-70539.0,1.625,-337.5,-385.4858752276145,0.0,0.0,2.470702872,4.793519844961316,0.0,44878.0,0.5,337.5,385.4858752276145,0.0,0.125,3.9025874910000002,4.798362762565844,0.0,-55023.0,0.5,-367.5,-385.4858752276145,0.0,0.0,2.297363046,4.792066969679958,0.0,0.8399999737739563,0.47999998927116394,24.270000457763672,-0.037353515625,0.05035400390625,1.020751953125,32.4900016784668,0.0,-27.0,1.534423828125,-0.9606781005859375,Waiting,0.0,0.0,-113.0,0.0,0.0,0.0,0.0,0.0,
6.608871999999988,0.0,0.0,false,4478735.595061729,,13907.0,0.5,330.0,391.2092023457526,0.0,0.0,1.585693197,4.758112347577015,0.0,-70573.0,2.0,-420.0,-391.2092023457526,0.0,0.0,2.508544665,4.7437344899594365,0.0,44939.0,1.125,285.0,391.2092023457526,0.0,0.0,3.9001460850000003,4.748527109165296,0.0,-55075.0,1.0,-300.0,-391.2092023457526,0.0,0.0,2.3229978090000003,4.7422967041976785,0.0,0.9200000166893005,0.3499999940395355,24.559999465942383,-0.0032958984375,0.05621337890625,0.92791748046875,32.5099983215332,0.0,8.0,1.4969329833984375,-0.9552001953125,Waiting,0.0,0.0,-113.0,0.0,0.0,0.0,0.0,0.0,
6.752879000000001,0.0,0.0,false,4478858.922735127,,13951.0,1.125,292.5,391.2092023457526,0.0,0.0,1.585693197,4.758112347577015,0.0,-70667.0,3.625,-172.5,-391.2092023457526,0.0,0.0,2.5854489540000003,4.7437344899594365,0.0,45029.0,1.875,300.0,391.2092023457526,0.0,0.0,3.8818355400000004,4.748527109165296,0.0,-55171.0,1.375,-285.0,-391.2092023457526,0.0,0.0,2.3229978090000003,4.7422967041976785,0.0,0.9599999785423279,0.4000000059604645,24.639999389648438,0.05908203125,-0.01947021484375,1.0135498046875,32.5099983215332,0.0,31.0,1.460693359375,-0.95477294921875,Waiting,0.0,0.0,-113.0,0.0,0.0,0.0,0.0,0.0,
6.9120660000000065,0.0,0.0,false,4478941.875616979,,14050.0,1.25,307.5,385.4858752276145,0.0,0.125,1.595458821,4.808048597774899,0.0,-70715.0,3.75,-300.0,-385.4858752276145,0.0,0.0,2.596435281,4.793519844961316,0.0,45080.0,2.125,315.0,385.4858752276145,0.0,0.0,3.8342281230000004,4.798362762565844,0.0,-55221.0,1.5,-307.5,-385.4858752276145,0.0,0.0,2.347411869,4.792066969679958,0.0,1.0099999904632568,0.4300000071525574,24.709999084472656,-0.037353515625,0.046875,0.98309326171875,32.5099983215332,0.0,-28.0,1.42596435546875,-0.95440673828125,Waiting,0.0,0.0,-113.0,0.0,0.0,0.0,0.0,0.0,
7.070588999999993,0.0,0.0,false,4478993.444855662,,14099.0,1.5,300.0,383.2140394087878,0.0,0.125,1.619872881,4.833525090442669,0.0,-70764.0,4.0,-375.0,-383.2140394087878,0.0,0.0,2.5842282510000003,4.818919353868003,0.0,45129.0,2.375,300.0,383.2140394087878,0.0,0.0,3.82080039,4.823787932726225,0.0,-55271.0,1.75,-315.0,-383.2140394087878,0.0,0.0,2.365722414,4.817458780210536,0.0,1.090000033378601,0.44999998807907104,24.8700008392334,-0.02996826171875,0.0025634765625,0.98321533203125,32.5099983215332,0.0,-41.0,1.4202880859375,-0.9556427001953125,Waiting,0.0,0.0,-113.0,0.0,0.0,0.0,0.0,0.0,
7.224844999999987,0.0,0.0,false,4479014.190429206,,14207.0,1.5,337.5,379.8852984783697,0.0,0.125,1.676025219,4.8852572657373665,0.0,-70878.0,4.125,-405.0,-379.8852984783697,0.0,0.0,2.606200905,4.870495207118095,0.0,45235.0,2.625,337.5,379.8852984783697,0.0,0.0,3.8977046790000003,4.875415893324519,0.0,-55381.0,1.875,-337.5,-379.8852984783697,0.0,0.0,2.419433346,4.869019001256168,0.0,1.1399999856948853,0.5699999928474426,24.920000076293945,0.05340576171875,0.05389404296875,0.97576904296875,32.470001220703125,0.0,53.0,1.4223785400390625,-0.955413818359375,Waiting,0.0,0.0,-113.0,0.0,0.0,0.0,0.0,0.0,
7.393773999999991,0.0,0.0,false,4479002.7462392105,,14207.0,1.5,352.5,378.8390687349973,0.0,0.125,1.718749824,4.911408145896064,0.06225585299999992,-70878.0,4.0,-270.0,-378.8390687349973,0.0,0.0,2.615966529,4.8965670656808244,0.02563476299999934,45235.0,2.375,352.5,378.8390687349973,0.0,0.0,3.9489742050000003,4.901514092419238,0.0,-55381.0,1.875,-367.5,-378.8390687349973,0.0,0.0,2.447509515,4.895082957659302,0.0,1.2300000190734863,0.5600000023841858,24.979999542236328,0.02752685546875,0.03204345703125,1.0740966796875,32.470001220703125,0.0,19.0,1.4235382080078125,-0.954681396484375,Waiting,0.0,0.0,-113.0,0.0,0.0,0.0,0.0,0.0,
7.495751000000004,0.0,0.0,false,4478952.451676529,,14265.0,1.375,367.5,378.2099416990516,0.0,0.125,1.7590330230000002,0.026325090770538857,0.0,-70928.0,3.25,-480.0,-378.2099416990516,0.0,0.0,2.66113254,0.02624554275249734,0.0,45294.0,2.375,367.5,378.2099416990516,0.0,0.0,3.9892574040000004,0.02627205875851118,0.0,-55440.0,1.625,-375.0,-378.2099416990516,0.0,0.0,2.491454823,0.026237587950693187,0.0,1.2400000095367432,0.7099999785423279,25.1299991607666,-0.02325439453125,0.06787109375,0.86541748046875,32.470001220703125,0.0,-9.0,1.42431640625,-0.954132080078125,Waiting,0.0,0.0,-113.0,0.0,0.0,0.0,0.0,0.0,
7.605184999999983,0.0,0.0,false,4478871.406457974,,14327.0,1.25,390.0,378.2099416990516,0.0,0.125,1.8115232520000002,0.026325090770538857,0.0,-70988.0,3.875,-307.5,-378.2099416990516,0.0,0.0,2.708739957,0.02624554275249734,0.0,45354.0,2.125,397.5,378.2099416990516,0.0,0.0,4.038085524,0.02627205875851118,0.0,-55504.0,1.25,-412.5,-378.2099416990516,0.0,0.0,2.5305173190000003,0.026237587950693187,0.0,1.440000057220459,0.75,25.270000457763672,0.04547119140625,-0.00244140625,0.99810791015625,32.470001220703125,0.0,17.0,1.4253387451171875,-0.9533843994140625,Waiting,0.0,0.0,-113.0,0.0,0.0,0.0,0.0,0.0,
7.743303,0.0,0.0,false,4478760.5165105965,,14459.0,1.0,412.5,378.8390687349973,0.0,0.125,1.826171688,0.052591854103937116,0.0,-71124.0,3.0,-420.0,-378.8390687349973,0.0,0.0,2.767333701,0.052432934319175006,0.0,45489.0,1.75,420.0,378.8390687349973,0.0,0.0,4.056396069,0.052485907580762374,0.0,-55642.0,1.0,-435.0,-378.8390687349973,0.0,0.0,2.55126927,0.0524170423406988,0.0,1.4800000190734863,0.75,25.440000534057617,0.02081298828125,-0.08294677734375,0.9339599609375,32.470001220703125,0.0,-10.0,1.4252471923828125,-0.94976806640625,Waiting,0.0,0.0,-113.0,0.0,0.0,0.0,0.0,0.0,
7.92799500000001,0.0,0.0,false,4478616.634639074,,14525.0,1.0,405.0,378.8390687349973,0.0,0.125,1.824950985,0.052591854103937116,0.0,-71201.0,2.875,-480.0,-378.8390687349973,0.0,0.0,2.767333701,0.052432934319175006,0.0,45556.0,1.625,412.5,378.8390687349973,0.0,0.0,4.063720287000001,0.052485907580762374,0.01586913899999942,-55709.0,0.875,-412.5,-378.8390687349973,0.0,0.0,2.548827864,0.0524170423406988,0.0,1.440000057220459,0.6399999856948853,25.549999237060547,-0.0361328125,0.07110595703125,1.0438232421875,32.470001220703125,0.0,-23.0,1.4236907958984375,-0.946746826171875,Waiting,0.0,0.0,-113.0,0.0,0.0,0.0,0.0,0.0,
8.047063999999999,0.0,0.0,false,4478434.00591133,,14586.0,1.0,382.5,381.3451979506232,0.0,0.125,1.799316222,0.10472169356024448,0.0,-71257.0,3.125,-390.0,-381.3451979506232,0.0,0.0,2.768554404,0.10440525008655314,0.0,45622.0,1.75,397.5,381.3451979506232,0.0,0.0,4.072265208,0.10451073124445026,0.0,-55772.0,1.0,-390.0,-381.3451979506232,0.0,0.0,2.57568333,0.10437360573918403,0.0,1.3899999856948853,0.5699999928474426,25.6200008392334,0.01556396484375,0.0927734375,0.68304443359375,32.470001220703125,0.0,40.0,1.41986083984375,-0.94171142578125,Waiting,0.0,0.0,-113.0,0.0,0.0,0.0,0.0,0.0,
8.151914000000005,0.0,0.0,false,4478220.714109825,,14646.0,1.125,367.5,383.2140394087878,0.0,0.25,1.8640134810000002,0.13047490955733115,0.0,-71308.0,3.25,-292.5,-383.2140394087878,0.0,0.0,2.7917477610000003,0.13008064613199674,0.0,45682.0,1.875,367.5,383.2140394087878,0.0,0.0,4.119872625,0.13021206727377488,0.0,-55835.0,1.125,-382.5,-383.2140394087878,0.0,0.0,2.628173559,0.1300412197894633,0.0,1.4900000095367432,0.49000000953674316,25.690000534057617,0.07781982421875,0.0950927734375,0.98956298828125,32.4900016784668,0.0,92.0,1.4153594970703125,-0.9382476806640625,Waiting,0.0,0.0,-113.0,0.0,0.0,0.0,0.0,0.0,
8.310376000000003,0.0,0.0,false,4477976.78385032,,14702.0,1.375,360.0,383.2140394087878,0.0,0.125,1.907958789,0.13047490955733115,0.0,-71380.0,3.375,-322.5,-383.2140394087878,0.0,0.0,2.8442379900000003,0.13008064613199674,0.0,45739.0,1.875,367.5,383.2140394087878,0.0,0.0,4.155273012,0.13021206727377488,0.0,-55957.0,1.125,-382.5,-383.2140394087878,0.0,0.0,2.666015352,0.1300412197894633,0.0,1.5499999523162842,0.6100000143051147,25.969999313354492,-1.220703125E-4,0.0831298828125,0.78631591796875,32.4900016784668,0.0,19.0,1.4130096435546875,-0.9391021728515625,Waiting,0.0,0.0,-113.0,0.0,0.0,0.0,0.0,0.0,
8.465509999999995,0.0,0.0,false,4477701.73960128,,14824.0,1.25,375.0,383.2140394087878,0.0,0.0,1.907958789,0.13047490955733115,0.0,-71508.0,2.875,-382.5,-383.2140394087878,0.0,0.0,2.8479000990000003,0.13008064613199674,0.0,45863.0,1.875,382.5,383.2140394087878,0.0,0.0,4.132079655,0.13021206727377488,0.0,-56020.0,1.0,-390.0,-383.2140394087878,0.0,0.0,2.666015352,0.1300412197894633,0.0,1.5399999618530273,0.5,26.1200008392334,-0.05975341796875,0.072021484375,1.0672607421875,32.4900016784668,0.0,-43.0,1.4127349853515625,-0.93939208984375,Waiting,0.0,0.0,-113.0,0.0,0.0,0.0,0.0,0.0,
8.651387999999992,0.0,0.0,false,4477868.438976378,,14886.0,1.25,375.0,388.1536293788839,0.0,0.25,1.907958789,0.18110357424708734,0.0,-71559.0,3.125,-397.5,-388.1536293788839,0.0,0.0,2.8503415050000003,0.18055632331765414,0.0,45924.0,1.875,382.5,388.1536293788839,0.0,0.0,4.165038636,0.18073874029413187,0.0,-56082.0,1.0,-390.0,-388.1536293788839,0.0,0.0,2.666015352,0.18050159822471082,0.0,1.5199999809265137,0.5099999904632568,26.200000762939453,-0.0166015625,-0.01043701171875,0.912109375,32.4900016784668,0.0,-37.0,1.41229248046875,-0.9396820068359375,Waiting,0.0,0.0,-113.0,0.0,0.0,0.0,0.0,0.0,
8.79485100000001,0.0,0.0,false,4478003.745141451,,14948.0,1.25,375.0,388.1536293788839,0.0,0.25,1.9189451160000002,0.18110357424708734,0.0,-71692.0,3.0,-390.0,-388.1536293788839,0.0,0.0,2.871093456,0.18055632331765414,0.0,46047.0,1.875,382.5,388.1536293788839,0.0,0.0,4.178466369000001,0.18073874029413187,0.0,-56208.0,1.0,-390.0,-388.1536293788839,0.0,0.0,2.666015352,0.18050159822471082,0.0,1.5099999904632568,0.5,26.260000228881836,0.01837158203125,0.06011962890625,0.8917236328125,32.4900016784668,0.0,25.0,1.412017822265625,-0.9398651123046875,Waiting,0.0,0.0,-113.0,0.0,0.0,0.0,0.0,0.0,
8.986479000000006,0.0,0.0,false,4478106.978848992,,15071.0,1.25,382.5,388.1536293788839,0.0,0.25,1.9140623040000002,0.18110357424708734,0.0,-71756.0,3.375,-412.5,-388.1536293788839,0.0,0.0,2.8515622080000003,0.18055632331765414,0.0,46109.0,1.875,382.5,388.1536293788839,0.0,0.0,4.176024963000001,0.18073874029413187,0.0,-56271.0,1.0,-390.0,-388.1536293788839,0.0,0.0,2.667236055,0.18050159822471082,0.0,1.4900000095367432,0.44999998807907104,26.399999618530273,7.32421875E-4,0.12384033203125,1.0211181640625,32.4900016784668,0.0,36.0,1.4118499755859375,-0.94024658203125,Waiting,0.0,0.0,-113.0,0.0,0.0,0.0,0.0,0.0,
9.136004000000002,0.0,0.0,false,4478180.065896238,,15133.0,1.25,382.5,385.4858752276145,0.0,0.125,1.9140623040000002,0.15595140222510104,0.0,-71808.0,3.125,-435.0,-385.4858752276145,0.0,0.0,2.8479000990000003,0.15548015503868348,0.0,46171.0,1.75,390.0,385.4858752276145,0.0,0.0,4.178466369000001,0.155637237434156,0.0,-56334.0,1.125,-390.0,-385.4858752276145,0.0,0.0,2.664794649,0.15543303032004174,0.0,1.5,0.38999998569488525,26.489999771118164,-0.02044677734375,0.0482177734375,1.1041259765625,32.5,0.0,-16.0,1.411651611328125,-0.9405517578125,Waiting,0.0,0.0,-113.0,0.0,0.0,0.0,0.0,0.0,
9.311450999999986,0.0,0.0,false,4478212.560471976,,15256.0,1.25,375.0,385.4858752276145,0.0,0.125,1.912841601,0.15595140222510104,0.0,-71936.0,3.5,-375.0,-385.4858752276145,0.0,0.0,2.8527829110000003,0.15548015503868348,0.0,46295.0,1.875,382.5,385.4858752276145,0.0,0.0,4.179687072,0.155637237434156,0.0,-56460.0,1.0,-382.5,-385.4858752276145,0.0,0.0,2.664794649,0.15543303032004174,0.0,1.4600000381469727,0.3700000047683716,26.649999618530273,0.0709228515625,-0.01177978515625,1.04248046875,32.5,0.0,39.0,1.4110565185546875,-0.941680908203125,Waiting,0.0,0.0,-113.0,0.0,0.0,0.0,0.0,0.0,
9.508563999999998,0.0,0.0,false,4478213.117719341,,15378.0,1.25,375.0,385.4858752276145,0.0,0.125,1.9140623040000002,0.15595140222510104,0.0,-72056.0,3.75,-322.5,-385.4858752276145,0.0,0.0,2.8527829110000003,0.15548015503868348,0.0,46419.0,1.875,382.5,385.4858752276145,0.0,0.0,4.177245666,0.155637237434156,0.0,-56584.0,1.0,-390.0,-385.4858752276145,0.0,0.0,2.666015352,0.15543303032004174,0.0,1.4500000476837158,0.41999998688697815,26.829999923706055,0.04168701171875,0.03131103515625,1.02020263671875,32.5,0.0,32.0,1.4107208251953125,-0.9431915283203125,Waiting,0.0,0.0,-113.0,0.0,0.0,0.0,0.0,0.0,
9.670295999999988,0.0,0.0,false,4478183.097788698,,15440.0,1.25,382.5,383.2140394087878,0.0,0.0,1.912841601,0.13047490955733115,0.0,-72116.0,3.375,-375.0,-383.2140394087878,0.0,0.0,2.8540036140000002,0.13008064613199674,0.0,46481.0,1.75,382.5,383.2140394087878,0.0,0.0,4.179687072,0.13021206727377488,0.0,-56648.0,0.875,-397.5,-383.2140394087878,0.0,0.0,2.666015352,0.1300412197894633,0.0,1.409999966621399,0.4099999964237213,27.0,-0.02044677734375,0.08544921875,1.02008056640625,32.52000045776367,0.0,2.0,1.4108123779296875,-0.9438934326171875,Waiting,0.0,0.0,-113.0,0.0,0.0,0.0,0.0,0.0,
9.810645000000005,0.0,0.0,false,4478113.06705969,,15502.0,1.25,382.5,381.3451979506232,0.0,0.125,1.9165037100000002,0.10472169356024448,0.0,-72186.0,3.0,-420.0,-381.3451979506232,0.0,0.0,2.8405758810000004,0.10440525008655314,0.0,46544.0,1.75,375.0,381.3451979506232,0.0,0.0,4.179687072,0.10451073124445026,0.0,-56712.0,0.75,-397.5,-381.3451979506232,0.0,0.0,2.664794649,0.10437360573918403,0.0,1.409999966621399,0.3499999940395355,27.110000610351562,0.02545166015625,-0.0303955078125,1.05279541015625,32.52000045776367,0.0,-8.0,1.4106292724609375,-0.9431610107421875,Waiting,0.0,0.0,-113.0,0.0,0.0,0.0,0.0,0.0,
9.971988999999986,0.0,0.0,false,4478013.01178782,,15563.0,1.25,375.0,381.3451979506232,0.0,0.125,1.9165037100000002,0.10472169356024448,0.0,-72248.0,3.5,-322.5,-381.3451979506232,0.0,0.0,2.8430172870000003,0.10440525008655314,0.0,46666.0,1.75,375.0,381.3451979506232,0.0,0.0,4.173583557000001,0.10451073124445026,0.0,-56839.0,0.625,-390.0,-381.3451979506232,0.0,0.0,2.666015352,0.10437360573918403,0.0,1.340000033378601,0.4399999976158142,27.350000381469727,0.03131103515625,0.0223388671875,0.90545654296875,32.52000045776367,0.0,22.0,1.410400390625,-0.9440155029296875,Waiting,0.0,0.0,-113.0,0.0,0.0,0.0,0.0,0.0,
10.18327399999999,0.0,0.0,false,4477880.597102873,,15686.0,1.125,390.0,381.3451979506232,0.0,0.125,1.912841601,0.10472169356024448,0.0,-72357.0,3.5,-285.0,-381.3451979506232,0.0,0.0,2.8430172870000003,0.10440525008655314,0.0,46727.0,1.75,390.0,381.3451979506232,0.0,0.0,4.169921448,0.10451073124445026,0.0,-56904.0,0.5,-397.5,-381.3451979506232,0.0,0.0,2.666015352,0.10437360573918403,0.0,1.4900000095367432,0.4099999964237213,27.489999771118164,-0.047607421875,0.00994873046875,0.7530517578125,32.5099983215332,0.0,-51.0,1.4102783203125,-0.9461822509765625,Waiting,0.0,0.0,-113.0,0.0,0.0,0.0,0.0,0.0,
10.33841799999999,0.0,0.0,false,4477708.243495337,,15750.0,1.0,375.0,379.88529847836963,0.0,0.0,1.912841601,0.078742734262634,0.0,-72433.0,2.625,-375.0,-379.88529847836963,0.0,0.0,2.833251663,0.07850479288190484,0.0,46790.0,1.625,382.5,379.88529847836963,0.0,0.0,4.154052309,0.07858410667548124,0.0,-56967.0,0.625,-375.0,-379.88529847836963,0.0,0.0,2.66113254,0.07848099874383194,0.0,1.309999942779541,0.4099999964237213,27.549999237060547,-6.103515625E-5,0.0975341796875,0.80029296875,32.5099983215332,0.0,31.0,1.408233642578125,-0.947906494140625,Waiting,0.0,0.0,-113.0,0.0,0.0,0.0,0.0,0.0,
10.504066999999996,0.0,0.0,false,4477504.771533743,,15810.0,1.125,367.5,379.88529847836963,0.0,0.0,1.9140623040000002,0.078742734262634,0.0,-72490.0,3.5,-315.0,-379.88529847836963,0.0,0.0,2.806396197,0.07850479288190484,0.0,46850.0,1.75,360.0,379.88529847836963,0.0,0.0,4.1406245760000004,0.07858410667548124,0.0,-57027.0,0.625,-367.5,-379.88529847836963,0.0,0.0,2.666015352,0.07848099874383194,0.0,1.350000023841858,0.3799999952316284,27.6299991607666,0.01947021484375,0.02764892578125,1.21783447265625,32.5099983215332,0.0,9.0,1.4076690673828125,-0.94903564453125,Waiting,0.0,0.0,-113.0,0.0,0.0,0.0,0.0,0.0,
10.622210999999997,0.0,0.0,false,4477272.041216879,,15869.0,1.25,375.0,378.8390687349973,0.0,0.125,1.912841601,0.052591854103937116,0.0,-72556.0,2.875,-382.5,-378.8390687349973,0.0,0.0,2.7917477610000003,0.052432934319175006,0.0,46909.0,1.875,375.0,378.8390687349973,0.0,0.0,4.1381831700000005,0.052485907580762374,0.0,-57086.0,0.625,-382.5,-378.8390687349973,0.0,0.0,2.666015352,0.0524170423406988,0.0,1.3700000047683716,0.5,27.709999084472656,0.02789306640625,-0.04534912109375,0.86676025390625,32.5099983215332,0.0,-12.0,1.407928466796875,-0.9515533447265625,Waiting,0.0,0.0,-113.0,0.0,0.0,0.0,0.0,0.0,
10.715146999999982,0.0,0.0,false,4476999.956831004,,15992.0,1.125,382.5,378.8390687349973,0.0,0.125,1.9165037100000002,0.052591854103937116,0.0,-72678.0,2.5,-375.0,-378.8390687349973,0.0,0.0,2.775878622,0.052432934319175006,0.0,47031.0,1.75,382.5,378.8390687349973,0.0,0.0,4.1357417640000005,0.052485907580762374,0.0,-57213.0,0.5,-397.5,-378.8390687349973,0.0,0.0,2.66113254,0.0524170423406988,0.0,1.350000023841858,0.5,27.899999618530273,0.0460205078125,0.03350830078125,0.93994140625,32.47999954223633,0.0,38.0,1.4083099365234375,-0.955841064453125,Waiting,0.0,0.0,-113.0,0.0,0.0,0.0,0.0,0.0,
10.916059999999984,0.0,0.0,false,4477174.813143698,,16053.0,1.125,382.5,378.2099416990516,0.0,0.0,1.912841601,0.026325090770538857,0.0,-72743.0,2.5,-412.5,-378.2099416990516,0.0,0.0,2.775878622,0.02624554275249734,0.0,47093.0,1.625,382.5,378.2099416990516,0.0,0.0,4.099120674,0.02627205875851118,0.0,-57278.0,0.375,-397.5,-378.2099416990516,0.0,0.0,2.622070044,0.026237587950693187,0.0,1.340000033378601,0.47999998927116394,28.299999237060547,0.00341796875,-1.8310546875E-4,1.0084228515625,32.47999954223633,0.0,-15.0,1.408447265625,-0.9639434814453125,Waiting,0.0,0.0,-113.0,0.0,0.0,0.0,0.0,0.0,
11.110651999999988,0.0,0.0,false,4477308.487374356,,16176.0,1.0,382.5,378.0,0.0,0.0,1.912841601,0.0,0.0,-72876.0,2.5,-420.0,-378.0,0.0,0.0,2.757568077,0.0,0.0,47221.0,1.5,390.0,378.0,0.0,0.0,4.053954663,0.0,0.0,-57405.0,0.375,-390.0,-378.0,0.0,0.0,2.5842282510000003,0.0,0.0,1.3200000524520874,0.5,28.43000030517578,-0.02655029296875,0.02105712890625,0.880126953125,32.47999954223633,0.0,-29.0,1.408294677734375,-0.966156005859375,Waiting,0.0,0.0,-113.0,0.0,0.0,0.0,0.0,0.0,
11.261001999999992,0.0,0.0,false,4477412.176470588,,16223.0,0.125,217.5,NaN,0.0,0.0,1.912841601,NaN,0.0,-72924.0,0.625,-255.0,NaN,0.0,0.0,2.718505581,NaN,0.0,47269.0,0.125,232.5,NaN,0.0,0.0,4.067382396,NaN,0.0,-57457.0,0.0,-195.0,NaN,0.0,0.0,2.5793454390000004,NaN,0.0,1.340000033378601,0.2199999988079071,28.5,-0.180419921875,0.01727294921875,0.87451171875,32.529998779296875,0.0,-163.0,1.4051361083984375,-0.9660797119140625,Waiting,0.0,0.0,-113.0,0.0,0.0,0.0,0.0,0.0,
11.406925000000003,0.0,0.0,false,4477485.978926734,,16256.0,0.125,217.5,NaN,0.0,0.0,1.912841601,NaN,0.0,-72957.0,0.125,-217.5,NaN,0.0,0.0,2.719726284,NaN,0.0,47307.0,0.0,202.5,NaN,0.0,0.0,4.056396069,NaN,0.0,-57492.0,0.0,-172.5,NaN,0.0,0.0,2.572021221,NaN,0.0,1.350000023841858,-0.36000001430511475,28.549999237060547,-0.11065673828125,0.0025634765625,1.01226806640625,32.529998779296875,0.0,-101.0,1.3903656005859375,-0.9601898193359375,Waiting,0.0,0.0,-113.0,0.0,0.0,0.0,0.0,0.0,
11.600241999999984,0.0,0.0,false,4477509.473787359,,16284.0,0.25,37.5,NaN,0.0,0.0,1.912841601,NaN,0.0,-72986.0,0.625,-45.0,NaN,0.0,0.0,2.718505581,NaN,0.0,47344.0,0.0,105.0,NaN,0.0,0.0,4.056396069,NaN,0.0,-57519.0,0.0,-22.5,NaN,0.0,0.0,2.5781247360000004,NaN,0.0,1.309999942779541,-0.7400000095367432,28.559999465942383,-0.00421142578125,0.00921630859375,0.947021484375,32.529998779296875,0.0,1.0,1.3646392822265625,-0.9489593505859375,Waiting,0.0,0.0,-113.0,0.0,0.0,0.0,0.0,0.0,
11.769387999999992,0.0,0.0,false,4477478.902767573,,16314.0,1.5,127.5,388.15362937888386,0.0,0.125,1.7590330230000002,4.782896425752913,0.0,-73015.0,3.875,-90.0,-388.15362937888386,0.0,0.0,2.604980202,4.768443676682346,0.0,47360.0,2.5,112.5,388.15362937888386,0.0,0.0,3.9062496,4.773261259705868,0.0,-57547.0,1.125,-97.5,-388.15362937888386,0.0,0.0,2.415771237,4.7669984017752896,0.0,1.3799999952316284,0.09000000357627869,28.489999771118164,0.10528564453125,0.039306640625,0.9600830078125,32.52000045776367,0.0,98.0,1.3756103515625,-0.9546661376953125,Waiting,0.0,0.0,-113.0,0.0,0.0,0.0,0.0,0.0,
12.006436,0.0,0.0,false,4477416.368266406,,16346.0,2.25,202.5,388.15362937888386,0.0,0.125,1.5808103850000002,4.782896425752913,0.0,-73043.0,5.0,-217.5,-388.15362937888386,0.0,0.0,2.4780270900000003,4.768443676682346,0.0,47390.0,3.75,210.0,388.15362937888386,0.0,0.0,3.758544537,4.773261259705868,0.0,-57574.0,1.875,-202.5,-388.15362937888386,0.0,0.0,2.3181149970000003,4.7669984017752896,0.0,1.159999966621399,0.17000000178813934,28.56999969482422,-0.005615234375,0.014892578125,0.9541015625,32.52000045776367,0.0,-9.0,1.3967437744140625,-0.969879150390625,Waiting,0.0,0.0,-113.0,0.0,0.0,0.0,0.0,0.0,
12.176336999999984,0.0,0.0,false,4477318.9875153,,16392.0,4.625,90.0,385.4858752276145,0.0,0.125,1.572265464,4.808048597774899,0.0,-73090.0,9.5,-82.5,-385.4858752276145,0.0,0.0,2.4792477930000003,4.793519844961316,0.0,47440.0,6.375,105.0,385.4858752276145,0.0,0.0,3.7854000030000003,4.798362762565844,0.0,-57617.0,5.0,-60.0,-385.4858752276145,0.0,0.0,2.3193357000000003,4.792066969679958,0.0,1.3200000524520874,-0.1899999976158142,28.40999984741211,0.06048583984375,-0.01507568359375,0.72064208984375,32.52000045776367,0.0,40.0,1.4074554443359375,-0.975677490234375,Waiting,0.0,0.0,-113.0,0.0,0.0,0.0,0.0,0.0,
12.34971699999999,0.0,0.0,false,4477173.464512971,,16398.0,11.25,30.0,391.2092023457526,0.0,0.0,1.5783689790000002,4.758112347577015,0.0,-73093.0,18.375,-30.0,-391.2092023457526,0.0,0.0,2.471923575,4.7437344899594365,0.0,47442.0,10.75,15.0,391.2092023457526,0.0,0.0,3.7951656270000003,4.748527109165296,0.0,-57624.0,10.75,-22.5,-391.2092023457526,0.0,0.0,2.3181149970000003,4.7422967041976785,0.0,1.350000023841858,-0.10999999940395355,28.3799991607666,0.0347900390625,0.0067138671875,1.0902099609375,32.47999954223633,0.0,23.0,1.4123077392578125,-0.9803924560546875,Waiting,0.0,0.0,-113.0,0.0,0.0,0.0,0.0,0.0,
12.57065000000001,1.5,0.0,false,4476970.988989479,,16419.0,15.125,97.5,428.4,0.0,0.125,1.561279137,4.576911596806739,0.0,-73103.0,25.75,-7.5,-428.4,0.0,0.0,2.468261466,4.563081283762399,0.0,47463.0,20.375,75.0,428.4,0.0,0.0,3.7451168040000002,4.567691388110513,0.0,-57633.0,16.625,-45.0,-428.4,0.0,0.0,2.299804452,4.5616982524579655,0.0,1.409999966621399,0.019999999552965164,28.110000610351562,-0.004638671875,0.22698974609375,1.10931396484375,32.47999954223633,0.0,89.0,1.4188232421875,-0.98187255859375,Waiting,0.0,0.0,-113.0,0.0,0.0,0.0,0.0,0.0,
12.728849000000002,1.75,1.375,false,4476739.927592955,,16432.0,19.5,52.5,402.60894177849553,0.0,0.0,1.5783689790000002,4.686342749394934,0.0,-73102.0,33.875,-15.0,-402.60894177849553,0.0,0.0,2.452392327,4.672181762037777,0.0,47474.0,26.875,37.5,402.60894177849553,0.0,0.0,3.709716417,4.67690209115683,0.0,-57637.0,25.875,-30.0,-402.60894177849553,0.0,0.0,2.28271461,4.6707656633020616,0.0,1.3799999952316284,-0.03999999910593033,28.030000686645508,0.01043701171875,-0.0035400390625,0.829345703125,32.4900016784668,0.0,-1.0,1.42388916015625,-0.981964111328125,Waiting,0.0,0.0,-113.0,0.0,0.0,0.0,0.0,0.0,
12.87132100000001,1.875,1.5,false,4476479.800440205,,16440.0,15.125,30.0,NaN,0.0,0.0,1.5783689790000002,NaN,0.0,-73105.0,27.5,0.0,NaN,0.0,0.0,2.467040763,NaN,0.0,47476.0,24.125,0.0,NaN,0.0,0.0,3.719482041,NaN,0.0,-57641.0,20.875,0.0,NaN,0.0,0.0,2.290038828,NaN,0.0,1.4199999570846558,-0.019999999552965164,28.030000686645508,0.03240966796875,0.0614013671875,0.94171142578125,32.4900016784668,0.0,46.0,1.4278717041015625,-0.9814453125,Waiting,0.0,0.0,-113.0,0.0,0.0,0.0,0.0,0.0,
13.009534,1.75,1.375,false,4476658.351100245,,16442.0,16.375,7.5,NaN,0.0,0.0,1.5820310880000001,NaN,0.0012207029999995456,-73105.0,27.25,0.0,NaN,0.0,0.0,2.468261466,NaN,0.0,47476.0,24.25,0.0,NaN,0.0,0.0,3.719482041,NaN,0.0,-57641.0,21.125,0.0,NaN,0.0,0.0,2.291259531,NaN,0.0,1.409999966621399,0.019999999552965164,28.020000457763672,0.0089111328125,0.01055908203125,0.99090576171875,32.4900016784668,0.0,0.0,1.431060791015625,-0.981597900390625,Waiting,0.0,0.0,-113.0,0.0,0.0,0.0,0.0,0.0,
