Time,ClimberA1,ClimberA2,CameraExists,HeapSpace,LoopTime,FRpos,FRCurrent,FRspeed,FRsetpoint,FRApos,FRACurrent,FREncpos,FREncSetpoint,FREncSpeed,FLpos,FLCurrent,FLspeed,FLsetpoint,FLApos,FLACurrent,FLEncpos,FLEncSetpoint,FLEncSpeed,BRpos,BRCurrent,BRspeed,BRsetpoint,BRApos,BRACurrent,BREncpos,BREncSetpoint,BREncSpeed,BLpos,BLCurrent,BLspeed,BLsetpoint,BLApos,BLACurrent,BLEncpos,BLEncSetpoint,BLEncSpeed,navx_Pitch,navx_Roll,navx_Yaw,navx_XAcc,navx_YAcc,navx_ZAcc,navx_Temp,navx_Bar,navx_Alt,navx_XDis,navx_YDis,GearPlacerState,ShootOutputV,ShootOutputCurrent,ShootEncPos,ShootEncVelocity,ShootSpeed,ShootSetpoint,CarouselSetpoint,CarouselCurrent,
0.24614800000000106,0.0,0.0,false,4236713.909052983,,39851.0,0.0,0.0,0.0,0.0,0.125,1.777343568,0.0,0.0012207029999995456,-116590.0,0.0,0.0,-0.0,0.0,0.0,2.7478024530000003,0.0,-0.003662108999999969,72809.0,0.0,0.0,0.0,0.0,0.0,4.012450761,0.0,0.0,-90890.0,0.0,0.0,-0.0,0.0,0.25,2.4340817820000002,0.0,0.0,1.5800000429153442,0.09000000357627869,23.1299991607666,0.002197265625,0.02716064453125,0.99688720703125,34.599998474121094,0.0,0.0,-0.291839599609375,-0.8876953125,Waiting,0.0,0.0,-113.0,0.0,0.0,0.0,0.0,0.0,
0.27753800000000045,0.0,0.0,false,4236862.018348624,,39851.0,0.0,0.0,0.0,0.0,0.125,1.778564271,0.0,-0.0012207029999995456,-116590.0,0.0,0.0,-0.0,0.0,0.0,2.7478024530000003,0.0,0.0,72809.0,0.0,0.0,0.0,0.0,0.0,4.013671464000001,0.0,0.0,-90890.0,0.0,0.0,-0.0,0.0,0.25,2.4328610790000003,0.0,0.0,1.5700000524520874,0.09000000357627869,23.1299991607666,-0.00146484375,0.03314208984375,0.99932861328125,34.599998474121094,0.0,0.0,-0.291839599609375,-0.8876953125,Waiting,0.0,0.0,-113.0,0.0,0.0,0.0,0.0,0.0,
0.3146670000000013,0.0,0.0,false,4236988.301792414,,39851.0,0.0,0.0,0.0,0.0,0.125,1.773681459,0.0,-0.0012207029999995456,-116590.0,0.0,0.0,-0.0,0.0,0.0,2.7478024530000003,0.0,0.0,72809.0,0.0,0.0,0.0,0.0,0.0,4.013671464000001,0.0,0.0,-90890.0,0.0,0.0,-0.0,0.0,0.25,2.4328610790000003,0.0,0.0,1.559999942779541,0.11999999731779099,23.1299991607666,0.03619384765625,0.1317138671875,0.9093017578125,34.599998474121094,0.0,73.0,-0.2919464111328125,-0.8878326416015625,Waiting,0.0,0.0,-113.0,0.0,0.0,0.0,0.0,0.0,
0.3514360000000015,0.0,0.0,false,4237092.786666667,,39851.0,0.0,0.0,0.0,0.0,0.125,1.7663572410000001,0.0,0.0,-116590.0,0.0,0.0,-0.0,0.0,0.0,2.7478024530000003,0.0,-0.0012207029999999897,72809.0,0.0,0.0,0.0,0.0,0.0,4.012450761,0.0,0.0,-90890.0,0.0,0.0,-0.0,0.0,0.25,2.4340817820000002,0.0,0.0,1.5199999809265137,0.029999999329447746,23.1299991607666,0.1365966796875,0.06402587890625,1.22906494140625,34.599998474121094,0.0,137.0,-0.291534423828125,-0.888153076171875,Waiting,0.0,0.0,-113.0,0.0,0.0,0.0,0.0,0.0,
0.3834519999999975,0.0,0.0,false,4237175.5002082465,,39851.0,0.0,0.0,0.0,0.0,0.125,1.774902162,0.0,-0.003662109000000413,-116590.0,0.0,0.0,-0.0,0.0,0.0,2.7478024530000003,0.0,0.0,72809.0,0.0,0.0,0.0,0.0,0.0,4.012450761,0.0,0.0,-90890.0,0.0,0.0,-0.0,0.0,0.25,2.4340817820000002,0.0,0.0,1.440000057220459,0.1599999964237213,23.110000610351562,-0.1246337890625,0.06396484375,0.69732666015625,34.599998474121094,0.0,-98.0,-0.2900238037109375,-0.888702392578125,Waiting,0.0,0.0,-113.0,0.0,0.0,0.0,0.0,0.0,
0.4209029999999984,0.0,0.0,false,4237236.46960866,,39851.0,0.0,0.0,0.0,0.0,0.125,1.772460756,0.0,0.0,-116590.0,0.0,0.0,-0.0,0.0,0.0,2.7490231560000002,0.0,0.0012207029999999897,72809.0,0.0,0.0,0.0,0.0,0.0,4.012450761,0.0,0.0,-90890.0,0.0,0.0,-0.0,0.0,0.25,2.4328610790000003,0.0,0.0,1.5499999523162842,0.15000000596046448,23.1299991607666,-0.0750732421875,-0.01959228515625,1.05877685546875,34.599998474121094,0.0,-90.0,-0.2870941162109375,-0.88909912109375,Waiting,0.0,0.0,-113.0,0.0,0.0,0.0,0.0,0.0,
0.4551419999999998,0.0,0.0,false,4237275.722014149,,39851.0,0.0,0.0,0.0,0.0,0.125,1.773681459,0.0,0.0,-116590.0,0.0,0.0,-0.0,0.0,0.0,2.7478024530000003,0.0,0.0012207029999999897,72809.0,0.0,0.0,0.0,0.0,0.0,4.012450761,0.0,0.0,-90890.0,0.0,0.0,-0.0,0.0,0.25,2.4328610790000003,0.0,0.0,1.5099999904632568,0.12999999523162842,23.1200008392334,0.08624267578125,0.015869140625,0.84674072265625,34.599998474121094,0.0,74.0,-0.285064697265625,-0.88934326171875,Waiting,0.0,0.0,-113.0,0.0,0.0,0.0,0.0,0.0,
0.49277300000000107,0.0,0.0,false,4237288.202995008,,39851.0,0.0,0.0,0.0,0.0,0.125,1.7663572410000001,0.0,0.0,-116590.0,0.0,0.0,-0.0,0.0,0.0,2.7478024530000003,0.0,0.0,72809.0,0.0,0.0,0.0,0.0,0.0,4.012450761,0.0,0.0,-90890.0,0.0,0.0,-0.0,0.0,0.25,2.4353024850000002,0.0,0.0,1.559999942779541,0.10000000149011612,23.1200008392334,-0.02056884765625,0.05499267578125,1.086669921875,34.599998474121094,0.0,-10.0,-0.2828826904296875,-0.8896331787109375,Waiting,0.0,0.0,-113.0,0.0,0.0,0.0,0.0,0.0,
0.5263029999999999,0.0,0.0,false,4237279.025363825,,39851.0,0.0,0.0,0.0,0.0,0.125,1.773681459,0.0,0.0,-116590.0,0.0,0.0,-0.0,0.0,0.0,2.7478024530000003,0.0,0.0,72809.0,0.0,0.0,0.0,0.0,0.0,4.012450761,0.0,0.0,-90890.0,0.0,0.0,-0.0,0.0,0.25,2.4328610790000003,0.0,0.0,1.5800000429153442,0.11999999731779099,23.139999389648438,-3.0517578125E-4,0.0137939453125,1.06817626953125,34.599998474121094,0.0,-8.0,-0.2828216552734375,-0.8900146484375,Waiting,0.0,0.0,-113.0,0.0,0.0,0.0,0.0,0.0,
0.5601169999999984,0.0,0.0,false,4237248.216126351,,39851.0,0.0,0.0,0.0,0.0,0.125,1.778564271,0.0,0.0,-116590.0,0.0,0.0,-0.0,0.0,0.0,2.7478024530000003,0.0,0.0,72809.0,0.0,0.0,0.0,0.0,0.0,4.011230058000001,0.0,0.0,-90890.0,0.0,0.0,-0.0,0.0,0.25,2.4340817820000002,0.0,0.0,1.559999942779541,0.11999999731779099,23.1299991607666,-5.4931640625E-4,0.01702880859375,0.99676513671875,34.599998474121094,0.0,-6.0,-0.282806396484375,-0.890289306640625,Waiting,0.0,0.0,-113.0,0.0,0.0,0.0,0.0,0.0,
0.5939349999999977,0.0,0.0,false,4237195.802243456,,39851.0,0.0,0.0,0.0,0.0,0.125,1.772460756,0.0,0.0012207029999995456,-116590.0,0.0,0.0,-0.0,0.0,0.0,2.7478024530000003,0.0,-0.0012207029999999897,72809.0,0.0,0.0,0.0,0.0,0.0,4.013671464000001,0.0,0.0,-90890.0,0.0,0.0,-0.0,0.0,0.25,2.4340817820000002,0.0,0.0,1.5499999523162842,0.12999999523162842,23.1200008392334,0.00140380859375,0.006591796875,1.02191162109375,34.599998474121094,0.0,-9.0,-0.2828216552734375,-0.8904571533203125,Waiting,0.0,0.0,-113.0,0.0,0.0,0.0,0.0,0.0,
0.6306849999999977,0.0,0.0,false,4237121.81063123,,39851.0,0.0,0.0,0.0,0.0,0.125,1.829833797,0.0,0.0,-116590.0,0.0,0.0,-0.0,0.0,0.0,2.7478024530000003,0.0,0.0,72809.0,0.0,0.0,0.0,0.0,0.0,4.012450761,0.0,0.0,-90890.0,0.0,0.0,-0.0,0.0,0.25,2.4328610790000003,0.0,0.0,1.5499999523162842,0.12999999523162842,23.1299991607666,-0.01007080078125,0.01983642578125,0.95294189453125,34.599998474121094,0.0,-13.0,-0.2829132080078125,-0.8904571533203125,Waiting,0.0,0.0,-113.0,0.0,0.0,0.0,0.0,0.0,
0.6673719999999957,0.0,0.0,false,4237026.268161063,,39851.0,0.0,0.0,0.0,0.0,0.125,1.778564271,0.0,0.0,-116590.0,0.0,0.0,-0.0,0.0,0.0,2.7478024530000003,0.0,0.0,72809.0,0.0,0.0,0.0,0.0,0.0,4.014892167,0.0,0.0,-90890.0,0.0,0.0,-0.0,0.0,0.25,2.4328610790000003,0.0,0.0,1.5499999523162842,0.10000000149011612,23.1299991607666,-0.00543212890625,0.049072265625,1.02001953125,34.599998474121094,0.0,1.0,-0.2829132080078125,-0.89044189453125,Waiting,0.0,0.0,-113.0,0.0,0.0,0.0,0.0,0.0,
0.7003450000000012,0.0,0.0,false,4236909.201659751,,39851.0,0.0,0.0,0.0,0.0,0.125,1.7687986470000001,0.0,-0.0012207029999995456,-116590.0,0.0,0.0,-0.0,0.0,0.0,2.7478024530000003,0.0,0.0,72809.0,0.0,0.0,0.0,0.0,0.0,4.013671464000001,0.0,0.0,-90890.0,0.0,0.0,-0.0,0.0,0.25,2.4328610790000003,0.0,0.0,1.559999942779541,0.11999999731779099,23.1299991607666,0.01580810546875,0.0421142578125,1.04083251953125,34.599998474121094,0.0,17.0,-0.2829132080078125,-0.8903961181640625,Waiting,0.0,0.0,-113.0,0.0,0.0,0.0,0.0,0.0,
0.7315080000000016,0.0,0.0,false,4236770.637909581,,39851.0,0.0,0.0,0.0,0.0,0.125,1.772460756,0.0,0.0012207029999995456,-116590.0,0.0,0.0,-0.0,0.0,0.0,2.7478024530000003,0.0,0.0,72809.0,0.0,0.0,0.0,0.0,0.0,4.013671464000001,0.0,0.0,-90890.0,0.0,0.0,-0.0,0.0,0.25,2.4328610790000003,0.0,0.0,1.5399999618530273,0.12999999523162842,23.1299991607666,-0.0048828125,0.0362548828125,0.966552734375,34.599998474121094,0.0,-2.0,-0.2829132080078125,-0.89044189453125,Waiting,0.0,0.0,-113.0,0.0,0.0,0.0,0.0,0.0,
0.772439999999995,0.0,0.0,false,4236605.538971808,,39851.0,0.0,0.0,0.0,0.0,0.125,1.772460756,0.0,0.0,-116590.0,0.0,0.0,-0.0,0.0,0.0,2.7429196410000003,0.0,0.0,72809.0,0.0,0.0,0.0,0.0,0.0,4.012450761,0.0,0.0,-90890.0,0.0,0.0,-0.0,0.0,0.25,2.4328610790000003,0.0,0.0,1.559999942779541,0.11999999731779099,23.1299991607666,0.00347900390625,0.0264892578125,1.02117919921875,34.599998474121094,0.0,0.0,-0.2829132080078125,-0.8904571533203125,Waiting,0.0,0.0,-113.0,0.0,0.0,0.0,0.0,0.0,
0.808989999999998,0.0,0.0,false,4236419.000414422,,39851.0,0.0,0.0,0.0,0.0,0.125,1.772460756,0.0,0.0,-116590.0,0.0,0.0,-0.0,0.0,0.0,2.7478024530000003,0.0,0.0,72809.0,0.0,0.0,0.0,0.0,0.0,4.017333573,0.0,0.0,-90890.0,0.0,0.0,-0.0,0.0,0.25,2.4340817820000002,0.0,0.0,1.5700000524520874,0.11999999731779099,23.1200008392334,-0.00323486328125,0.02386474609375,1.0252685546875,34.599998474121094,0.0,-6.0,-0.2829132080078125,-0.8904571533203125,Waiting,0.0,0.0,-113.0,0.0,0.0,0.0,0.0,0.0,
0.8431189999999987,0.0,0.0,false,4236211.048881524,,39851.0,0.0,0.0,0.0,0.0,0.125,1.773681459,0.0,-0.0012207029999995456,-116590.0,0.0,0.0,-0.0,0.0,0.0,2.7478024530000003,0.0,0.0,72809.0,0.0,0.0,0.0,0.0,0.0,4.012450761,0.0,0.0,-90890.0,0.0,0.0,-0.0,0.0,0.25,2.4328610790000003,0.0,0.0,1.5700000524520874,0.10999999940395355,23.1299991607666,-6.7138671875E-4,0.01177978515625,1.055908203125,34.599998474121094,0.0,-9.0,-0.2829132080078125,-0.8904571533203125,Waiting,0.0,0.0,-113.0,0.0,0.0,0.0,0.0,0.0,
0.8761389999999956,0.0,0.0,false,4235981.710973085,,39851.0,0.0,0.0,0.0,0.0,0.125,1.772460756,0.0,0.0,-116590.0,0.0,0.0,-0.0,0.0,0.0,2.7478024530000003,0.0,0.0012207029999999897,72809.0,0.0,0.0,0.0,0.0,0.0,4.013671464000001,0.0,0.0,-90890.0,0.0,0.0,-0.0,0.0,0.25,2.4328610790000003,0.0,0.0,1.559999942779541,0.11999999731779099,23.1299991607666,-0.00103759765625,0.02777099609375,1.0330810546875,34.599998474121094,0.0,-3.0,-0.2829132080078125,-0.8904571533203125,Waiting,0.0,0.0,-113.0,0.0,0.0,0.0,0.0,0.0,
0.9138039999999964,0.0,0.0,false,4235731.013245033,,39851.0,0.0,0.0,0.0,0.0,0.125,1.772460756,0.0,0.0,-116590.0,0.0,0.0,-0.0,0.0,0.0,2.7478024530000003,0.0,0.0012207029999999897,72809.0,0.0,0.0,0.0,0.0,0.0,4.012450761,0.0,0.0,-90890.0,0.0,0.0,-0.0,0.0,0.25,2.4328610790000003,0.0,0.0,1.559999942779541,0.12999999523162842,23.1299991607666,-0.00189208984375,0.02252197265625,0.9708251953125,34.599998474121094,0.0,-5.0,-0.2829132080078125,-0.8904571533203125,Waiting,0.0,0.0,-113.0,0.0,0.0,0.0,0.0,0.0,
0.9506579999999958,0.0,0.0,false,4235458.98220935,,39851.0,0.0,0.0,0.0,0.0,0.125,1.773681459,0.0,0.0,-116590.0,0.0,0.0,-0.0,0.0,0.0,2.7465817500000003,0.0,-0.0012207029999999897,72809.0,0.0,0.0,0.0,0.0,0.0,4.013671464000001,0.0,0.0,-90890.0,0.0,0.0,-0.0,0.0,0.25,2.4340817820000002,0.0,0.0,1.559999942779541,0.11999999731779099,23.1299991607666,-0.00439453125,0.0391845703125,1.00592041015625,34.630001068115234,0.0,-1.0,-0.2829132080078125,-0.8904571533203125,Waiting,0.0,0.0,-113.0,0.0,0.0,0.0,0.0,0.0,
0.9847909999999974,0.0,0.0,false,4235165.644334161,,39851.0,0.0,0.0,0.0,0.0,0.125,1.773681459,0.0,0.0,-116590.0,0.0,0.0,-0.0,0.0,0.0,2.7478024530000003,0.0,0.0,72809.0,0.0,0.0,0.0,0.0,0.0,4.012450761,0.0,0.0,-90890.0,0.0,0.0,-0.0,0.0,0.25,2.4340817820000002,0.0,0.0,1.559999942779541,0.11999999731779099,23.1299991607666,0.005859375,0.03173828125,0.9827880859375,34.630001068115234,0.0,5.0,-0.2829132080078125,-0.8904571533203125,Waiting,0.0,0.0,-113.0,0.0,0.0,0.0,0.0,0.0,
1.0259309999999968,0.0,0.0,false,4234845.97602315,,39851.0,0.0,0.0,0.0,0.0,0.125,1.773681459,0.0,0.0,-116590.0,0.0,0.0,-0.0,0.0,0.0,2.7478024530000003,0.0,0.0012207029999999897,72809.0,0.0,0.0,0.0,0.0,0.0,4.012450761,0.0,0.0,-90890.0,0.0,0.0,-0.0,0.0,0.25,2.440185297,0.0,0.0,1.559999942779541,0.11999999731779099,23.1299991607666,0.00347900390625,0.03631591796875,1.00146484375,34.630001068115234,0.0,4.0,-0.2829132080078125,-0.8904571533203125,Waiting,0.0,0.0,-113.0,0.0,0.0,0.0,0.0,0.0,
1.0675420000000013,0.0,0.0,false,4234505.05785124,,39851.0,0.0,0.0,0.0,0.0,0.125,1.773681459,0.0,0.0,-116590.0,0.0,0.0,-0.0,0.0,0.0,2.7478024530000003,0.0,0.0,72809.0,0.0,0.0,0.0,0.0,0.0,4.012450761,0.0,0.0,-90890.0,0.0,0.0,-0.0,0.0,0.25,2.4340817820000002,0.0,0.0,1.559999942779541,0.11999999731779099,23.1299991607666,-0.0067138671875,0.03143310546875,1.0009765625,34.630001068115234,0.0,-6.0,-0.2829132080078125,-0.8904571533203125,Waiting,0.0,0.0,-113.0,0.0,0.0,0.0,0.0,0.0,
1.1529459999999963,0.0,0.0,false,4234132.163568773,,39851.0,0.0,0.0,0.0,0.0,0.125,1.77001935,0.0,0.0,-116590.0,0.0,0.0,-0.0,0.0,0.0,2.7478024530000003,0.0,0.0,72809.0,0.0,0.0,0.0,0.0,0.0,4.013671464000001,0.0,0.0,-90890.0,0.0,0.0,-0.0,0.0,0.25,2.4328610790000003,0.0,0.0,1.559999942779541,0.11999999731779099,23.1299991607666,0.00103759765625,0.0308837890625,1.0166015625,34.630001068115234,0.0,0.0,-0.2829132080078125,-0.8904571533203125,Waiting,0.0,0.0,-113.0,0.0,0.0,0.0,0.0,0.0,
1.190489999999998,0.0,0.0,false,4233738.080924856,,39851.0,0.0,0.0,0.0,0.0,0.125,1.773681459,0.0,0.0,-116590.0,0.0,0.0,-0.0,0.0,0.0,2.7453610470000003,0.0,0.0,72809.0,0.0,0.0,0.0,0.0,0.0,4.010009355,0.0,0.0,-90890.0,0.0,0.0,-0.0,0.0,0.25,2.4328610790000003,0.0,0.0,1.559999942779541,0.12999999523162842,23.1299991607666,0.0089111328125,0.0286865234375,0.9873046875,34.630001068115234,0.0,6.0,-0.2829132080078125,-0.8904571533203125,Waiting,0.0,0.0,-113.0,0.0,0.0,0.0,0.0,0.0,
1.2248739999999962,0.0,0.0,false,4233322.836153529,,39851.0,0.0,0.0,0.0,0.0,0.125,1.773681459,0.0,0.0,-116590.0,0.0,0.0,-0.0,0.0,0.0,2.7490231560000002,0.0,0.0,72809.0,0.0,0.0,0.0,0.0,0.0,4.013671464000001,0.0,0.0,-90890.0,0.0,0.0,-0.0,0.0,0.25,2.4340817820000002,0.0,0.0,1.559999942779541,0.11999999731779099,23.1299991607666,-0.00225830078125,0.0299072265625,0.98370361328125,34.630001068115234,0.0,-2.0,-0.2829132080078125,-0.8904571533203125,Waiting,0.0,0.0,-113.0,0.0,0.0,0.0,0.0,0.0,
1.264752999999997,0.0,0.0,false,4232886.455445545,,39851.0,0.0,0.0,0.0,0.0,0.125,1.778564271,0.0,0.0,-116590.0,0.0,0.0,-0.0,0.0,0.0,2.7478024530000003,0.0,0.0,72809.0,0.0,0.0,0.0,0.0,0.0,4.012450761,0.0,0.0,-90890.0,0.0,0.0,-0.0,0.0,0.25,2.4340817820000002,0.0,0.0,1.559999942779541,0.11999999731779099,23.1299991607666,9.1552734375E-4,0.0260009765625,1.001953125,34.630001068115234,0.0,-1.0,-0.2829132080078125,-0.8904571533203125,Waiting,0.0,0.0,-113.0,0.0,0.0,0.0,0.0,0.0,
1.302118000000002,0.0,0.0,false,4232428.964948454,,39851.0,0.0,0.0,0.0,0.0,0.125,1.773681459,0.0,0.0,-116590.0,0.0,0.0,-0.0,0.0,0.0,2.7478024530000003,0.0,0.0,72809.0,0.0,0.0,0.0,0.0,0.0,4.019774979,0.0,0.0,-90890.0,0.0,0.0,-0.0,0.0,0.25,2.4328610790000003,0.0,0.0,1.559999942779541,0.11999999731779099,23.1299991607666,6.103515625E-4,0.03369140625,0.99554443359375,34.630001068115234,0.0,1.0,-0.2829132080078125,-0.8904571533203125,Waiting,0.0,0.0,-113.0,0.0,0.0,0.0,0.0,0.0,
1.3313839999999981,0.0,0.0,false,4231945.355317395,,39851.0,0.0,0.0,0.0,0.0,0.125,1.773681459,0.0,0.0024414059999999793,-116590.0,0.0,0.0,-0.0,0.0,0.0,2.7478024530000003,0.0,0.0,72809.0,0.0,0.0,0.0,0.0,0.0,4.011230058000001,0.0,0.0,-90890.0,0.0,0.0,-0.0,0.0,0.25,2.4328610790000003,0.0,0.0,1.559999942779541,0.11999999731779099,23.1299991607666,0.006103515625,0.02392578125,0.98785400390625,34.630001068115234,0.0,2.0,-0.2829132080078125,-0.8904571533203125,Waiting,0.0,0.0,-113.0,0.0,0.0,0.0,0.0,0.0,
1.3686579999999957,0.0,0.0,false,4231440.692212608,,39851.0,0.0,0.0,-198.42519611120224,0.0,0.125,1.777343568,0.5533560492066895,-0.0012207030000004337,-116590.0,0.125,0.0,-198.42519611120224,0.0,0.0,2.7478024530000003,4.397316058113635,0.0,72809.0,0.0,0.0,-198.42519611120224,0.0,0.0,4.012450761,4.401758689006861,0.0,-90890.0,0.0,0.0,-198.42519611120224,0.0,0.25,2.4328610790000003,0.5515167311543325,0.0,1.559999942779541,0.11999999731779099,23.1299991607666,-0.0010986328125,0.02569580078125,1.00732421875,34.630001068115234,0.0,-3.0,-0.2829132080078125,-0.8904571533203125,Waiting,0.0,0.0,-113.0,0.0,0.0,0.0,0.0,0.0,
1.4069329999999973,0.0,0.0,false,4230915.001647446,,39851.0,0.125,0.0,-446.45669907331467,0.0,2.0,1.834716609,0.5533560492066895,-0.002441405999999091,-116590.0,0.125,0.0,-446.45669907331467,0.0,1.625,2.647704807,4.397316058113635,0.0,72809.0,0.0,0.0,-446.45669907331467,0.0,1.25,3.9550777200000002,4.401758689006861,-0.0012207029999995456,-90890.0,0.125,0.0,-446.45669907331467,0.0,4.125,2.5354001310000003,0.5515167311543325,0.0,1.5700000524520874,0.11999999731779099,23.1299991607666,-0.020751953125,0.019775390625,1.0120849609375,34.630001068115234,0.0,-24.0,-0.282928466796875,-0.8904571533203125,Waiting,0.0,0.0,-113.0,0.0,0.0,0.0,0.0,0.0,
1.435745999999999,0.0,0.0,false,4230357.592424866,,39851.0,0.5,-15.0,-578.740131855011,0.0,3.375,2.0056150290000003,0.5533560492066895,0.0,-116590.0,1.5,0.0,-578.740131855011,0.0,2.875,2.492675526,4.397316058113635,0.0,72809.0,0.875,0.0,-578.740131855011,0.0,1.75,3.806151954,4.401758689006861,0.0,-90890.0,0.375,-52.5,-578.740131855011,0.0,4.75,2.705077848,0.5515167311543325,0.0,1.5499999523162842,0.11999999731779099,23.1299991607666,0.00140380859375,-0.0062255859375,0.980712890625,34.61000061035156,0.0,-13.0,-0.28302001953125,-0.890472412109375,Waiting,0.0,0.0,-113.0,0.0,0.0,0.0,0.0,0.0,
1.4742739999999976,0.0,0.0,false,4229779.216460905,,39841.0,1.125,-37.5,-760.6299340724945,0.0,1.75,2.143554468,0.5533560492066895,0.0,-116589.0,2.125,0.0,-760.6299340724945,0.0,0.625,2.3791501470000003,4.397316058113635,0.0,72808.0,2.25,0.0,-760.6299340724945,0.0,0.125,3.6865230600000003,4.401758689006861,0.0,-90917.0,0.75,-112.5,-760.6299340724945,0.0,1.125,2.838134475,0.5515167311543325,0.0,1.5399999618530273,0.12999999523162842,23.209999084472656,0.07635498046875,0.05841064453125,1.05633544921875,34.61000061035156,0.0,79.0,-0.28289794921875,-0.8905181884765625,Waiting,0.0,0.0,-113.0,0.0,0.0,0.0,0.0,0.0,
1.5101429999999965,0.0,0.0,false,4229179.899629782,,39841.0,2.625,-75.0,-909.4488233327866,0.0,0.5,2.255859144,0.5533560492066895,0.1330566270000002,-116589.0,4.125,0.0,-909.4488233327866,0.0,0.5,2.288818125,4.397316058113635,-0.12207029999999985,72808.0,2.875,-7.5,-909.4488233327866,0.0,0.125,3.608398068,4.401758689006861,-0.12573240900000027,-90917.0,2.5,-217.5,-909.4488233327866,0.0,0.875,2.9064938430000002,0.5515167311543325,0.13061522100000023,1.5299999713897705,0.20999999344348907,23.3799991607666,-0.01617431640625,-0.02655029296875,0.9647216796875,34.61000061035156,0.0,-38.0,-0.2825164794921875,-0.890655517578125,Waiting,0.0,0.0,-113.0,0.0,0.0,0.0,0.0,0.0,
1.5573819999999978,0.0,0.0,false,4229342.16118421,,39841.0,4.875,-90.0,-932.6057321837538,0.0,0.5,2.315673591,0.18898916621652692,0.104980458,-116589.0,6.875,-37.5,-602.4797046404287,0.0,0.25,2.2204587570000003,4.653209323628851,-0.09765624000000006,72808.0,5.25,-37.5,-1360.803476687587,0.0,0.0,3.5400387,4.28996071514863,-0.09521483400000008,-90917.0,4.5,-217.5,-1159.7475781249325,0.0,0.5,2.991943053,0.8396937785347407,0.104980458,1.5,0.23999999463558197,23.68000030517578,-0.0010986328125,0.01470947265625,0.976318359375,34.61000061035156,0.0,-9.0,-0.2820892333984375,-0.8907928466796875,Waiting,0.0,0.0,-113.0,0.0,0.0,0.0,0.0,0.0,
1.5874419999999954,0.0,0.0,false,4229479.14837649,,39841.0,7.125,-97.5,-1050.6716274532293,0.0,0.375,2.362060305,0.015178844960091724,0.0,-116616.0,6.25,-120.0,-492.3360249404403,0.0,0.125,2.186279073,4.916698341836033,0.0,72776.0,12.5,-112.5,-1655.903163074394,0.0,0.0,3.508300422,4.2573338163116095,0.0,-90947.0,6.0,-195.0,-1371.3129395578235,0.0,0.25,3.0566403120000003,0.9479709873078922,0.0,1.590000033378601,0.20000000298023224,24.559999465942383,-0.0224609375,0.0499267578125,0.85736083984375,34.61000061035156,0.0,-12.0,-0.2818603515625,-0.890594482421875,Waiting,0.0,0.0,-113.0,0.0,0.0,0.0,0.0,0.0,
1.626423999999999,0.0,0.0,false,4229603.457682827,,39816.0,7.875,-135.0,-1269.8635703390132,0.0,1.375,2.332763433,4.814804901401351,0.03662109000000058,-116616.0,4.75,-157.5,-462.4313927005817,0.0,1.375,2.192382588,0.4265877285582567,0.0,72776.0,23.75,-262.5,-2047.6056509995237,0.0,0.125,3.492431283,4.231922512298191,0.0,-90947.0,11.75,-217.5,-1671.51972997211,0.0,0.875,3.18603483,1.0484141698691056,0.0,1.7999999523162842,0.0,26.06999969482422,-0.0645751953125,0.1553955078125,1.11083984375,34.61000061035156,0.0,-4.0,-0.2820587158203125,-0.88922119140625,Waiting,0.0,0.0,-113.0,0.0,0.0,0.0,0.0,0.0,
1.6659349999999977,0.0,0.0,false,4229702.534702259,,39816.0,10.125,-247.5,-1313.952671002058,0.0,0.875,2.249755629,4.822624694438973,-0.0024414060000008675,-116616.0,3.5,-187.5,-442.6777012777762,0.0,2.625,2.365722414,0.4384225372038486,0.012207029999999008,72776.0,32.5,-487.5,-2088.9231205658725,0.0,0.125,3.4851070650000002,4.241733525918877,-0.014648435999999876,-90947.0,18.125,-352.5,-1683.1790544115606,0.0,0.25,3.3264156750000002,1.0595489210479936,0.13183592399999977,1.9500000476837158,-0.05000000074505806,27.540000915527344,-0.07568359375,0.09674072265625,0.8553466796875,34.61000061035156,0.0,-35.0,-0.28216552734375,-0.887451171875,Waiting,0.0,0.0,-113.0,0.0,0.0,0.0,0.0,0.0,
1.706339,0.0,0.0,false,4229776.420361248,,39816.0,11.25,-435.0,-1359.4377707650913,0.0,1.125,2.086181427,4.84536799124853,-0.16113279599999952,-116616.0,3.625,-172.5,-404.7675177424828,0.0,2.0,2.6391598860000003,0.4146231086473977,0.2160644310000004,72634.0,33.875,-750.0,-2113.872379458782,0.0,0.125,3.486327768,4.258847526215398,-0.003662108999999525,-91052.0,19.75,-540.0,-1668.5988515743927,0.0,0.25,3.4655758170000004,1.0704868478787182,0.156249984,2.1600000858306885,-0.3799999952316284,30.579999923706055,-0.2166748046875,0.1475830078125,0.9012451171875,34.61000061035156,0.0,-123.0,-0.282470703125,-0.8829193115234375,Waiting,0.0,0.0,-113.0,0.0,0.0,0.0,0.0,0.0,
1.7389769999999989,0.0,0.0,false,4229821.711940911,,39714.0,11.125,-630.0,-1390.1599680940828,0.0,0.75,1.912841601,4.85897603016109,0.0,-116652.0,2.875,-202.5,-365.9821647194073,0.0,0.625,2.8942868130000003,0.4155635697158777,0.0,72634.0,30.0,-1012.5,-2120.931454612675,0.0,0.125,3.4802242530000003,4.273049989529585,0.0,-91052.0,19.375,-757.5,-1643.0911244257884,0.0,0.25,3.5815426020000003,1.0843832002937954,0.0,2.549999952316284,-0.7400000095367432,32.970001220703125,-0.24652099609375,0.39044189453125,1.01263427734375,34.61000061035156,0.0,-7.0,-0.282928466796875,-0.877960205078125,Waiting,0.0,0.0,-113.0,0.0,0.0,0.0,0.0,0.0,
1.7741029999999955,0.0,0.0,false,4229854.421657096,,39714.0,10.875,-795.0,-1441.828406065482,0.0,0.25,1.8139646580000002,4.882464835676687,-0.17456052899999985,-116652.0,2.625,-307.5,-299.3986911920147,0.0,0.25,2.99072235,0.4088910482747146,-4.708521509,72634.0,28.375,-1147.5,-2131.3501832806946,0.0,0.125,3.4814449560000003,4.297460715042893,0.0,-91052.0,18.625,-862.5,-1597.943687218299,0.0,0.0,3.6218258010000004,1.1082053864133177,0.0,3.130000114440918,-1.3700000047683716,36.779998779296875,-0.2098388671875,0.57147216796875,1.13482666015625,34.61000061035156,0.0,158.0,-0.2835845947265625,-0.8665771484375,Waiting,0.0,0.0,-113.0,0.0,0.0,0.0,0.0,0.0,
1.8130630000000019,0.0,0.0,false,4229862.025420254,,39714.0,10.625,-870.0,-1476.8281672848273,0.0,0.0,1.743163884,4.89883674697402,-0.09521483400000008,-116652.0,2.625,-345.0,-253.42219420139,0.0,0.0,3.07617156,0.39444623181508254,0.13061522099999978,72634.0,23.875,-1425.0,-2137.30446393215,0.0,0.0,3.4802242530000003,4.314405522345854,0.0,-91052.0,16.75,-1027.5,-1565.653775383396,0.0,0.0,3.64990197,1.1246920413502113,0.04394530800000007,3.549999952316284,-1.7799999713897705,39.22999954223633,-0.1834716796875,0.3486328125,1.0924072265625,34.61000061035156,0.0,61.0,-0.2835693359375,-0.8562774658203125,Waiting,0.0,0.0,-113.0,0.0,0.0,0.0,0.0,0.0,
1.8504589999999952,0.0,0.0,false,4229844.55409836,,39542.0,10.0,-1020.0,-1509.9033454593102,0.0,0.125,1.724853339,4.91467814285879,0.0,-116700.0,1.875,-315.0,-209.51997554187128,0.0,0.0,3.131103195,0.3673011470425396,0.0,72372.0,21.25,-1552.5,-2142.053818163091,0.0,0.0,3.4802242530000003,4.330752507050701,0.0,-91233.0,15.25,-1132.5,-1533.781297131024,0.0,0.0,3.664550406,1.140555521767288,0.0,3.7100000381469727,-1.9800000190734863,41.65999984741211,0.01580810546875,0.16473388671875,0.8111572265625,34.61000061035156,0.0,107.0,-0.28326416015625,-0.8444976806640625,Waiting,0.0,0.0,-113.0,0.0,0.0,0.0,0.0,0.0,
1.881064999999995,0.0,0.0,false,4229802.038508808,,39542.0,9.875,-1162.5,-1740.445197783827,0.0,0.125,1.7102049030000002,4.957342271248062,0.0,-116700.0,1.125,-210.0,48.54099047692698,0.0,0.0,3.131103195,4.7072316365731055,0.0,72372.0,17.75,-1755.0,-2260.656370516631,0.0,0.0,3.4802242530000003,4.40824946606143,0.0,-91233.0,15.0,-1162.5,-1443.5283048229858,0.0,0.0,3.6743160300000004,1.2621200014147473,0.0,3.930000066757202,-2.200000047683716,45.459999084472656,0.06427001953125,0.3634033203125,1.0732421875,34.61000061035156,0.0,280.0,-0.2819366455078125,-0.825653076171875,Waiting,0.0,0.0,-113.0,0.0,0.0,0.0,0.0,0.0,
1.9180089999999983,0.0,0.0,false,4229747.033579034,,39542.0,10.5,-1230.0,-1458.3533216949224,0.0,0.125,1.722411933,4.794434359094411,0.0,-116700.0,1.125,-157.5,644.9189120571555,0.0,2.375,3.131103195,4.553200501868171,0.013427732999999886,72372.0,14.125,-1905.0,-1761.3099062691026,0.0,0.0,3.4753414410000003,4.458571694473012,0.0012207030000004337,-91233.0,12.75,-1230.0,-1179.5501592353105,0.0,0.0,3.6889644660000003,1.6303470803488374,0.009765624000000361,3.890000104904175,-2.2200000286102295,48.22999954223633,0.023193359375,0.27923583984375,0.70611572265625,34.61000061035156,0.0,206.0,-0.27978515625,-0.8124847412109375,Waiting,0.0,0.0,-113.0,0.0,0.0,0.0,0.0,0.0,
1.9545,0.0,0.0,false,4229663.610315186,,39323.0,9.375,-1335.0,-1234.065908003143,0.0,0.125,1.717529121,4.640007077518635,0.0,-116700.0,0.625,-60.0,1234.065908003143,0.0,2.5,2.963866884,4.625986105286003,-0.019531247999999835,72049.0,11.25,-1957.5,-1234.065908003143,0.0,0.0,3.4753414410000003,4.63065976269688,-0.006103515000000392,-91441.0,9.0,-1290.0,-1234.065908003143,0.0,0.25,3.752441022,2.1508340080627404,0.019531247999999835,4.079999923706055,-2.4100000858306885,52.66999816894531,-0.01458740234375,0.079345703125,1.42681884765625,34.63999938964844,0.0,9.0,-0.27496337890625,-0.7920379638671875,Waiting,0.0,0.0,-113.0,0.0,0.0,0.0,0.0,0.0,
1.988373999999996,0.0,0.0,false,4229555.227495909,,39323.0,6.5,-1387.5,-1314.8909829165011,0.0,0.125,1.726074042,4.716624914034143,0.0,-116700.0,1.5,0.0,1314.8909829165011,0.0,1.75,2.724609096,4.702372421344676,0.0,72049.0,4.5,-2017.5,-1314.8909829165011,0.0,0.0,3.4826656590000002,4.707123252241165,0.0,-91441.0,7.625,-1357.5,-1314.8909829165011,0.0,1.125,3.8916011640000003,2.2271971720757295,0.0,3.8399999141693115,-2.390000104904175,55.720001220703125,0.05194091796875,0.0052490234375,0.39630126953125,34.63999938964844,0.0,20.0,-0.27105712890625,-0.7783966064453125,Waiting,0.0,0.0,-113.0,0.0,0.0,0.0,0.0,0.0,
2.025517,0.0,0.0,false,4229421.915746422,,39323.0,5.375,-1395.0,-1423.7105885953658,0.0,0.125,1.726074042,4.79611937215526,0.0,-116700.0,2.5,0.0,1423.7105885953658,0.0,0.375,2.608642311,4.781626666558497,4.734156272,72049.0,0.875,-1980.0,-1423.7105885953658,0.0,0.375,3.513183234,4.786457568424085,0.0,-91441.0,7.875,-1380.0,-1423.7105885953658,0.0,2.875,4.144286685,2.306427395998821,0.0,3.8299999237060547,-2.619999885559082,58.689998626708984,-0.08135986328125,-0.04058837890625,1.3057861328125,34.63999938964844,0.0,-120.0,-0.2669830322265625,-0.7649078369140625,Waiting,0.0,0.0,-113.0,0.0,0.0,0.0,0.0,0.0,
2.060123999999996,0.0,0.0,false,4229276.209321341,,39323.0,5.25,-1425.0,-1439.113992942048,0.0,0.125,1.717529121,4.877115484023776,-0.003662109000000413,-116700.0,5.875,0.0,1439.113992942048,0.0,0.0,2.5317380220000003,4.862378027887522,-0.11352537900000037,72049.0,0.625,-1897.5,-1439.113992942048,0.0,0.125,3.61328088,4.867290513266273,0.04760741700000004,-91660.0,8.875,-1387.5,-1439.113992942048,0.0,3.25,4.37011674,2.387154282273897,0.23315427300000025,3.2300000190734863,-2.9700000286102295,62.849998474121094,-0.20318603515625,-0.141357421875,0.50347900390625,34.63999938964844,0.0,-231.0,-0.26202392578125,-0.744354248046875,Waiting,0.0,0.0,-113.0,0.0,0.0,0.0,0.0,0.0,
2.1005849999999993,0.0,0.0,false,4229105.624846751,,39087.0,5.125,-1470.0,-1439.113992942048,0.0,0.125,1.719970527,4.914621226033256,0.0,-116701.0,9.125,0.0,1439.113992942048,0.0,0.0,2.518310289,4.899770436671751,0.0,71749.0,0.625,-1867.5,-1439.113992942048,0.0,0.125,3.72314415,4.904720699792253,0.0,-91660.0,10.875,-1327.5,-1439.113992942048,0.0,1.375,4.6606440540000005,2.424535357735602,0.0,2.7899999618530273,-3.609999895095825,66.2699966430664,-0.19110107421875,-0.02716064453125,1.4444580078125,34.63999938964844,0.0,-129.0,-0.2598724365234375,-0.722900390625,Waiting,0.0,0.0,-113.0,0.0,0.0,0.0,0.0,0.0,
2.133563000000002,0.0,0.0,false,4228906.774509804,,39087.0,5.125,-1492.5,-1465.129554312202,0.0,0.125,1.718749824,0.00334152559386011,0.0,-116701.0,10.875,0.0,1465.129554312202,0.0,0.0,2.508544665,0.003331428316682853,0.0,71749.0,0.625,-1860.0,-1465.129554312202,0.0,0.125,3.8305660140000004,0.0033347940757419386,0.0,-91660.0,12.0,-1275.0,-1465.129554312202,0.0,0.5,4.792479978,2.4770804185889648,0.0,2.3499999046325684,-3.619999885559082,67.88999938964844,0.0462646484375,-0.21600341796875,0.50439453125,34.63999938964844,0.0,-189.0,-0.2598876953125,-0.7084503173828125,Waiting,0.0,0.0,-113.0,0.0,0.0,0.0,0.0,0.0,
2.170269999999997,0.0,0.0,false,4228683.109840752,,39087.0,5.375,-1485.0,-1483.1404147366902,0.0,0.125,1.72119123,0.021418633762119662,0.0,-116701.0,12.5,0.0,1483.1404147366902,0.0,0.0,2.413329831,0.021353911863160793,-0.037841793000000123,71749.0,1.0,-1800.0,-1483.1404147366902,0.0,0.0,3.9062496,0.021375485829480415,0.09033202200000012,-91660.0,14.125,-1185.0,-1483.1404147366902,0.0,0.25,4.871825673,2.495097439673265,0.1452636570000001,2.240000009536743,-3.9600000381469727,68.91999816894531,-0.11090087890625,-0.13189697265625,1.3675537109375,34.63999938964844,0.0,-178.0,-0.2606048583984375,-0.693939208984375,Waiting,0.0,0.0,-113.0,0.0,0.0,0.0,0.0,0.0,
2.2105479999999953,0.0,0.0,false,4228447.144489796,,38860.0,5.75,-1447.5,-1349.3039602613187,0.0,0.125,1.7163084180000001,0.08757943733455868,-0.004882811999999959,-116700.0,16.125,0.0,1349.3039602613187,0.0,0.0,2.470702872,0.08731479358757673,-0.04760741700000004,71483.0,1.875,-1650.0,-1349.3039602613187,0.0,0.125,3.981933186,0.08740300816990404,0.06958007099999985,-91847.0,15.125,-1162.5,-1349.3039602613187,0.0,0.25,4.94384715,2.5610383292128787,0.07202147699999983,1.9600000381469727,-3.990000009536743,69.45999908447266,0.02154541015625,0.026611328125,0.948974609375,34.63999938964844,0.0,25.0,-0.2624664306640625,-0.671630859375,Waiting,0.0,0.0,-113.0,0.0,0.0,0.0,0.0,0.0,
2.2429709999999976,0.0,0.0,false,4228186.415340677,,38860.0,5.375,-1380.0,-1177.5023576099022,0.0,0.125,1.7138670120000001,0.15102771248551233,0.0,-116700.0,17.875,82.5,1177.5023576099022,0.0,0.375,2.5366208340000003,0.15057134349129742,0.0,71483.0,2.625,-1552.5,-1177.5023576099022,0.0,0.125,4.042968336,0.15072346648936905,0.0,-91847.0,9.5,-1237.5,1177.5023576099022,0.0,0.25,0.058593744,0.15052570659187592,0.0,1.840000033378601,-4.0,69.27999877929688,-0.11688232421875,-0.05169677734375,1.10980224609375,34.63999938964844,0.0,-95.0,-0.2640380859375,-0.6568756103515625,Waiting,0.0,0.0,-113.0,0.0,0.0,0.0,0.0,0.0,
2.2837829999999957,0.0,0.0,false,4227900.95269168,,38860.0,4.5,-1312.5,-1144.1120010413658,0.0,0.25,1.744384587,0.1599924107814208,0.0,-116700.0,16.625,247.5,1144.1120010413658,0.0,0.5,2.6391598860000003,0.1595089526505341,0.0,71483.0,2.875,-1387.5,-1144.1120010413658,0.0,0.0,4.090575753,0.15967010536082965,0.0,-91847.0,3.125,-1155.0,-1144.1120010413658,0.0,2.0,0.206298807,2.6332106068374452,0.0,1.590000033378601,-3.609999895095825,68.62000274658203,0.2303466796875,-0.0533447265625,1.26910400390625,34.63999938964844,0.0,30.0,-0.2673187255859375,-0.6354217529296875,Waiting,0.0,0.0,-113.0,0.0,0.0,0.0,0.0,0.0,
2.320051999999996,0.0,0.0,false,4227587.375458622,,38657.0,4.375,-1290.0,-1144.1120010413658,0.0,0.25,1.8151853610000002,0.1536495345166367,0.05004882300000091,-116616.0,16.375,367.5,1144.1120010413658,0.0,0.25,2.708739957,0.15318524301426972,0.10375975499999956,71280.0,3.25,-1290.0,-1144.1120010413658,0.0,0.0,4.127196843,0.15334000684839205,0.05004882300000002,-92029.0,3.25,-1087.5,-1144.1120010413658,0.0,0.5,0.26855466,2.626888813864033,0.0,1.1699999570846558,-3.7100000381469727,67.94999694824219,0.02313232421875,-0.36346435546875,1.02117919921875,34.63999938964844,0.0,-322.0,-0.27435302734375,-0.6214141845703125,Waiting,0.0,0.0,-113.0,0.0,0.0,0.0,0.0,0.0,
2.359818999999996,0.0,0.0,false,4227249.12795436,,38657.0,4.625,-1252.5,-1144.1120010413656,0.0,0.25,1.882324026,0.1444108990084173,0.07934569499999977,-116616.0,16.375,487.5,1144.1120010413656,0.0,0.125,2.78320284,0.1439745244143145,-4.861109384,71280.0,3.75,-1245.0,-1144.1120010413656,0.0,0.125,4.163817933,0.14411998261234876,0.043945308000000516,-92029.0,4.5,-1117.5,-1144.1120010413656,0.0,0.0,0.261230442,2.617680886954904,0.06713866499999988,0.7799999713897705,-3.5199999809265137,67.45999908447266,-0.03961181640625,-0.3062744140625,1.22821044921875,34.63999938964844,0.0,-284.0,-0.28143310546875,-0.614471435546875,Waiting,0.0,0.0,-113.0,0.0,0.0,0.0,0.0,0.0,
2.390559000000001,0.0,0.0,false,4226886.240325865,,38657.0,4.875,-1215.0,-1154.9012820160713,0.0,0.125,1.958007612,0.14909993051441092,0.0,-116616.0,17.375,345.0,1154.9012820160713,0.0,0.125,2.824706742,0.14864938680818282,0.0,71280.0,3.75,-1237.5,-1154.9012820160713,0.0,0.125,4.1857905870000005,0.14879956804359218,0.0,-92029.0,4.625,-1297.5,-1154.9012820160713,0.0,0.0,0.26855466,2.6223543324375598,0.0,0.33000001311302185,-3.3299999237060547,66.98999786376953,-0.01422119140625,-0.26116943359375,0.754638671875,34.63999938964844,0.0,-232.0,-0.2899017333984375,-0.608612060546875,Waiting,0.0,0.0,-113.0,0.0,0.0,0.0,0.0,0.0,
2.427970000000001,0.0,0.0,false,4226498.74267101,,38657.0,4.75,-1200.0,-1154.9012820160713,0.0,0.25,1.978759563,0.1394477503725381,0.052490229,-116616.0,24.0,97.5,1154.9012820160713,0.0,0.0,2.8393551780000004,0.13902637320582006,0.0,71077.0,3.625,-1245.0,-1154.9012820160713,0.0,0.0,4.191894102,0.13916683226139273,0.0,-92247.0,3.875,-1357.5,-1154.9012820160713,0.0,0.0,0.26855466,2.6127342354891483,0.0,0.0,-3.25,66.37000274658203,0.08123779296875,-0.0159912109375,0.33099365234375,34.63999938964844,0.0,25.0,-0.304046630859375,-0.6009368896484375,Waiting,0.0,0.0,-113.0,0.0,0.0,0.0,0.0,0.0,
2.464826000000001,0.0,0.0,false,4226099.112739113,,38464.0,4.5,-1207.5,-1154.9012820160713,0.0,0.125,1.98974589,0.1340700921219413,0.019531247999999835,-116617.0,34.25,0.0,1154.9012820160713,0.0,0.0,2.8393551780000004,0.13366496492979196,0.004882811999999959,71077.0,3.0,-1260.0,-1154.9012820160713,0.0,0.0,4.1906733990000005,0.1338000073271751,0.004882811999999959,-92247.0,1.875,-1350.0,-1154.9012820160713,0.0,0.0,0.269775363,2.6073744522105766,-0.006103514999999948,0.1899999976158142,-3.5199999809265137,66.0199966430664,-0.17388916015625,0.12060546875,1.76763916015625,34.59000015258789,0.0,78.0,-0.3140106201171875,-0.5962066650390625,Waiting,0.0,0.0,-113.0,0.0,0.0,0.0,0.0,0.0,
2.5011990000000006,0.0,0.0,false,4225671.508543531,,38464.0,4.0,-1237.5,-1154.9012820160713,0.0,0.125,1.986083781,0.1292438968501314,0.0,-116617.0,38.875,7.5,1154.9012820160713,0.0,0.0,2.8393551780000004,0.12885335324562855,0.0,71077.0,1.875,-1260.0,-1154.9012820160713,0.0,0.0,4.1931148050000004,0.1289835344471295,0.0,-92247.0,1.125,-1380.0,-1154.9012820160713,0.0,0.0,0.263671848,2.602564298885178,0.0,0.10999999940395355,-3.4000000953674316,65.56999969482422,-0.06719970703125,0.10821533203125,0.49237060546875,34.59000015258789,0.0,81.0,-0.3285675048828125,-0.588714599609375,Waiting,0.0,0.0,-113.0,0.0,0.0,0.0,0.0,0.0,
2.5338889999999954,0.0,0.0,false,4225219.376982513,,38464.0,3.125,-1275.0,-1154.9012820160713,0.0,0.125,1.986083781,0.12303893893048079,0.0,-116617.0,45.75,37.5,1154.9012820160713,0.0,0.0,2.838134475,0.12266714519882138,0.0,71077.0,1.75,-1267.5,-1154.9012820160713,0.0,0.0,4.1931148050000004,0.12279107644270784,0.0,-92247.0,0.625,-1417.5,-1154.9012820160713,0.0,0.0,0.263671848,2.5963799658256552,0.0,0.33000001311302185,-3.549999952316284,65.30000305175781,-0.00213623046875,0.04620361328125,1.322021484375,34.59000015258789,0.0,68.0,-0.3382415771484375,-0.5836639404296875,Waiting,0.0,0.0,-113.0,0.0,0.0,0.0,0.0,0.0,
2.5704749999999987,0.0,0.0,false,4224742.74796748,,38252.0,2.75,-1297.5,-1154.9012820160713,0.0,0.125,1.983642375,0.11931598521886512,0.0,-116605.0,48.875,67.5,1154.9012820160713,0.0,0.0,2.8405758810000004,0.11895544134733348,0.0,70871.0,1.0,-1282.5,-1154.9012820160713,0.0,0.0,4.1931148050000004,0.11907562263784402,0.0012207029999995456,-92477.0,0.5,-1432.5,-1154.9012820160713,0.0,0.0,0.263671848,2.5926693869601802,-0.004882811999999959,0.27000001072883606,-3.5,65.04000091552734,-0.0152587890625,0.20361328125,0.96661376953125,34.59000015258789,0.0,198.0,-0.3478546142578125,-0.5787200927734375,Waiting,0.0,0.0,-113.0,0.0,0.0,0.0,0.0,0.0,
2.6109249999999955,0.0,0.0,false,4224254.078829744,,38252.0,2.0,-1335.0,-1154.9012820160713,0.0,0.125,1.98974589,0.11393832696826833,0.0,-116605.0,48.5,75.0,1154.9012820160713,0.0,0.0,2.838134475,0.11359403307130538,0.0,70871.0,0.625,-1320.0,-1154.9012820160713,0.0,0.0,4.191894102,0.11370879770362635,0.0,-92477.0,0.125,-1440.0,-1154.9012820160713,0.0,0.0,0.263671848,2.587309603681609,0.0,0.2800000011920929,-3.390000104904175,64.68000030517578,-0.063720703125,-0.13079833984375,1.1387939453125,34.59000015258789,0.0,-121.0,-0.362396240234375,-0.5716400146484375,Waiting,0.0,0.0,-113.0,0.0,0.0,0.0,0.0,0.0,
2.6418240000000006,0.0,0.0,false,4223740.961819659,,38252.0,1.375,-1357.5,-1154.9012820160713,0.0,0.125,1.9738767510000002,0.11076683623543955,0.0,-116605.0,47.75,217.5,1154.9012820160713,0.0,0.0,2.838134475,0.11043212581168216,0.0,70871.0,0.625,-1335.0,-1154.9012820160713,0.0,0.0,4.191894102,0.11054369595293463,0.0,-92477.0,0.0,-1447.5,-1154.9012820160713,0.0,0.0,0.263671848,2.584148654769306,0.0,0.2800000011920929,-3.4200000762939453,64.58000183105469,-0.00604248046875,0.17047119140625,1.35235595703125,34.59000015258789,0.0,180.0,-0.3672943115234375,-0.569427490234375,Waiting,0.0,0.0,-113.0,0.0,0.0,0.0,0.0,0.0,
2.6757999999999957,0.0,0.0,false,4223203.426715388,,38032.0,1.125,-1365.0,-1154.9012820160713,0.0,0.125,1.986083781,0.10938796838672536,0.0,-116483.0,48.375,607.5,1154.9012820160713,0.0,0.0,2.838134475,0.10905742456605635,0.0012207029999999897,70657.0,0.375,-1342.5,-1154.9012820160713,0.0,0.0,4.189452696,0.10916760583961269,0.0,-92708.0,0.0,-1447.5,-1154.9012820160713,0.0,0.0,0.252685521,2.582774370183989,0.0,0.3199999928474426,-3.2899999618530273,64.2699966430664,-0.00433349609375,-0.02276611328125,1.22381591796875,34.59000015258789,0.0,1.0,-0.381622314453125,-0.563140869140625,Waiting,0.0,0.0,-113.0,0.0,0.0,0.0,0.0,0.0,
2.712782999999996,0.0,0.0,false,4222638.107142857,,38032.0,0.875,-1372.5,-1130.2303640124371,0.0,0.125,1.986083781,0.29989394737404157,0.0012207030000004337,-116483.0,48.625,847.5,-433.86317410134075,0.0,0.0,2.838134475,3.9199375776813143,0.0,70657.0,0.125,-1350.0,-1190.6057143186395,0.0,0.0,4.196776914,4.566625955505411,0.0,-92708.0,1.125,-1432.5,573.0257804617539,0.0,0.0,0.24291989700000002,3.5538391924721138,-0.012207029999999897,0.2800000011920929,-3.190000057220459,64.08000183105469,0.09417724609375,-0.07867431640625,0.74310302734375,34.59000015258789,0.0,-14.0,-0.3911895751953125,-0.559722900390625,Waiting,0.0,0.0,-113.0,0.0,0.0,0.0,0.0,0.0,
2.751112000000001,0.0,0.0,false,4222060.838945233,,38032.0,0.875,-1380.0,-1422.0471918582916,0.0,0.125,2.022704871,0.5533560492066895,0.0,-116483.0,24.5,1102.5,-1422.0471918582916,0.0,0.0,2.8466793960000003,4.397316058113635,0.0,70657.0,0.125,-1365.0,-1422.0471918582916,0.0,0.0,4.1809077750000005,4.401758689006861,0.0,-92708.0,10.375,-1320.0,1422.0471918582916,0.0,1.125,0.21118161900000001,3.0252667311543324,0.0,0.41999998688697815,-2.940000057220459,63.91999816894531,0.40313720703125,0.14984130859375,1.28839111328125,34.59000015258789,0.0,332.0,-0.40032958984375,-0.55731201171875,Waiting,0.0,0.0,-113.0,0.0,0.0,0.0,0.0,0.0,
2.783489999999998,0.0,0.0,false,4221459.2343876725,,38032.0,1.125,-1380.0,-1058.2677125930786,0.0,0.125,2.0092771380000003,0.5533560492066895,0.0,-116483.0,2.25,832.5,-1058.2677125930786,0.0,4.875,2.777099325,4.397316058113635,0.0,70424.0,0.375,-1432.5,-1058.2677125930786,0.0,1.5,4.027099197,4.401758689006861,0.0,-92859.0,18.125,-1177.5,1058.2677125930786,0.0,8.125,0.397949178,3.0252667311543324,0.0,0.33000001311302185,-2.069999933242798,64.31999969482422,0.7908935546875,-0.0234375,0.88525390625,34.59000015258789,0.0,330.0,-0.411651611328125,-0.5587005615234375,Waiting,0.0,0.0,-113.0,0.0,0.0,0.0,0.0,0.0,
2.8270910000000002,0.0,0.0,false,4221628.105391163,,37811.0,1.0,-1365.0,0.0,0.0,0.875,2.091064239,0.5533560492066895,0.0,-116394.0,0.25,405.0,0.0,0.0,2.75,2.443847406,4.397316058113635,0.0,70424.0,0.0,-1440.0,0.0,0.0,0.625,3.823241796,4.401758689006861,4.774556659,-92859.0,24.25,-802.5,0.0,0.0,1.375,0.53710932,3.0252667311543324,0.22583005499999986,0.550000011920929,-1.0700000524520874,65.5,0.59320068359375,0.093994140625,1.55303955078125,34.59000015258789,0.0,329.0,-0.419921875,-0.5677947998046875,Waiting,0.0,0.0,-113.0,0.0,0.0,0.0,0.0,0.0,
2.861243999999999,0.0,0.0,false,4221778.995137763,,37811.0,0.125,-1327.5,0.0,0.0,0.875,2.200927509,0.5533560492066895,0.0402831990000001,-116394.0,0.25,255.0,0.0,0.0,0.0,2.2155759450000003,4.397316058113635,4.764673846999999,70424.0,0.0,-1320.0,0.0,0.0,0.375,3.658446891,4.401758689006861,4.774556659,-92859.0,8.625,-472.5,0.0,0.0,0.25,0.583496034,3.0252667311543324,0.22583005499999986,0.4000000059604645,-0.03999999910593033,66.5999984741211,0.5841064453125,0.208740234375,0.84637451171875,34.59000015258789,0.0,418.0,-0.423248291015625,-0.5783233642578125,Waiting,0.0,0.0,-113.0,0.0,0.0,0.0,0.0,0.0,
2.8935970000000015,0.0,0.0,false,4221902.373430539,,37811.0,0.0,-1230.0,0.0,0.0,0.375,2.3181149970000003,0.5533560492066895,0.20263669800000006,-116394.0,0.0,112.5,0.0,0.0,0.0,2.08740213,4.397316058113635,-0.48339838800000035,70424.0,0.0,-1200.0,0.0,0.0,0.125,3.55224573,4.401758689006861,-0.3466796519999997,-92859.0,0.0,-330.0,0.0,0.0,0.5,0.5810546280000001,3.0252667311543324,0.14282225100000012,0.25,0.5,67.81999969482422,0.61090087890625,0.2198486328125,0.65948486328125,34.59000015258789,0.0,429.0,-0.425445556640625,-0.5912933349609375,Waiting,0.0,0.0,-113.0,0.0,0.0,0.0,0.0,0.0,
2.9289680000000007,0.0,0.0,false,4222011.967611336,,37627.0,0.0,-1192.5,0.0,0.0,0.25,2.3779294440000003,0.5533560492066895,0.20263669800000006,-116388.0,0.0,22.5,0.0,0.0,0.0,1.956786909,4.397316058113635,-0.0988769429999996,70277.0,0.0,-930.0,0.0,0.0,0.125,3.5375972940000002,4.401758689006861,-0.09643553700000052,-92896.0,0.0,-277.5,0.0,0.0,0.25,0.576171816,3.0252667311543324,-0.003662108999999969,0.4000000059604645,1.4900000095367432,69.88999938964844,0.44140625,0.1988525390625,1.45489501953125,34.59000015258789,0.0,315.0,-0.4261932373046875,-0.61590576171875,Waiting,0.0,0.0,-113.0,0.0,0.0,0.0,0.0,0.0,
2.9661489999999975,0.0,0.0,false,4222091.749089438,,37627.0,0.0,-1117.5,0.0,0.0,0.25,2.420654049,0.5533560492066895,0.10986326999999996,-116388.0,0.0,7.5,0.0,0.0,0.0,1.860351372,4.397316058113635,-0.0988769429999996,70277.0,0.0,-675.0,0.0,0.0,0.0,3.538817997,4.401758689006861,-0.09643553700000052,-92896.0,0.0,-142.5,0.0,0.0,0.0,0.576171816,3.0252667311543324,-0.003662108999999969,0.4000000059604645,2.1500000953674316,71.30000305175781,0.2730712890625,0.20892333984375,0.66290283203125,34.5099983215332,0.0,272.0,-0.4248199462890625,-0.63482666015625,Waiting,0.0,0.0,-113.0,0.0,0.0,0.0,0.0,0.0,
2.993790000000001,0.0,0.0,false,4222144.1197411,,37627.0,0.0,-922.5,0.0,0.0,0.25,2.418212643,0.5533560492066895,0.07568358599999936,-116388.0,0.0,-52.5,0.0,0.0,0.25,1.85546856,4.397316058113635,-0.23071286700000027,70277.0,0.0,-457.5,0.0,0.0,0.0,3.5375972940000002,4.401758689006861,-0.004882811999999959,-92896.0,0.0,-22.5,0.0,0.0,0.0,0.58593744,3.0252667311543324,0.0,0.9100000262260437,2.3299999237060547,72.41000366210938,0.2686767578125,0.41583251953125,1.354248046875,34.5099983215332,0.0,433.0,-0.4196319580078125,-0.665191650390625,Waiting,0.0,0.0,-113.0,0.0,0.0,0.0,0.0,0.0,
3.0341719999999985,0.0,0.0,false,4222182.780428629,,37559.0,0.0,-577.5,0.0,0.0,0.125,2.419433346,0.5533560492066895,0.0012207030000004337,-116417.0,0.0,-165.0,0.0,0.0,0.375,1.878661917,4.397316058113635,0.019531247999999835,70231.0,0.0,-360.0,0.0,0.0,0.0,3.5339351850000003,4.401758689006861,0.0,-92896.0,0.0,0.0,0.0,0.0,0.0,0.590820252,3.0252667311543324,0.008544920999999928,1.2999999523162842,2.6700000762939453,73.43000030517578,0.0777587890625,0.1905517578125,0.56427001953125,34.5099983215332,0.0,184.0,-0.4143524169921875,-0.6860198974609375,Waiting,0.0,0.0,-113.0,0.0,0.0,0.0,0.0,0.0,
3.0710780000000013,0.0,0.0,false,4222194.085691188,,37559.0,0.0,-397.5,0.0,0.0,0.125,2.419433346,0.5533560492066895,0.0012207030000004337,-116417.0,0.0,-195.0,0.0,0.0,0.125,1.912841601,4.397316058113635,0.019531247999999835,70231.0,0.0,-202.5,0.0,0.0,0.0,3.5339351850000003,4.401758689006861,0.0,-92896.0,0.0,30.0,0.0,0.0,0.0,0.592040955,3.0252667311543324,0.008544920999999928,1.600000023841858,2.4200000762939453,73.7699966430664,-0.18304443359375,0.12335205078125,1.44305419921875,34.5099983215332,0.0,11.0,-0.40875244140625,-0.7066802978515625,Waiting,0.0,0.0,-113.0,0.0,0.0,0.0,0.0,0.0,
3.1098369999999997,0.0,0.0,false,4222189.362424242,,37559.0,0.0,-127.5,-649.6875,0.0,0.125,2.419433346,4.740206287044951,0.0,-116417.0,0.25,-142.5,649.6875,0.0,0.125,1.9750974540000001,4.725882537184822,0.0,70231.0,0.0,-142.5,-649.6875,0.0,0.0,3.5351558880000002,4.730657120471532,0.0,-92896.0,0.25,105.0,-649.6875,0.0,0.0,0.592040955,2.25070016219881,-0.0012207029999999897,1.409999966621399,2.240000009536743,73.88999938964844,-0.110595703125,-0.233642578125,0.69586181640625,34.5099983215332,0.0,-279.0,-0.403656005859375,-0.7264251708984375,Waiting,0.0,0.0,-113.0,0.0,0.0,0.0,0.0,0.0,
3.145116999999998,0.0,0.0,false,4222157.340872374,,37559.0,3.25,-30.0,-1745.7128480218246,0.0,0.125,2.419433346,4.895487155409901,0.0,-116414.0,4.625,-30.0,1745.7128480218246,0.0,0.25,2.030029089,4.880694184553504,0.0,70206.0,2.625,-67.5,-1745.7128480218246,0.0,0.0,3.538817997,4.88562517483897,0.0,-92894.0,7.375,67.5,-1745.7128480218246,0.0,0.0,0.589599549,2.4054648874678644,0.0,1.2699999809265137,1.8700000047683716,73.79000091552734,-0.0498046875,-0.0977783203125,1.133056640625,34.5099983215332,0.0,-142.0,-0.397735595703125,-0.7550048828125,Waiting,0.0,0.0,-113.0,0.0,0.0,0.0,0.0,0.0,
3.1814930000000023,0.0,0.0,false,4222111.699636657,,37534.0,5.75,-67.5,-2016.5663296303626,0.0,2.0,2.421874752,4.912871570960804,0.0,-116414.0,10.0,0.0,2016.5663296303626,0.0,2.0,2.133788844,4.898026068631148,0.05859374400000039,70206.0,9.75,-157.5,-2016.5663296303626,0.0,0.625,3.607177365,4.9029745694077,0.0,-92894.0,13.625,-7.5,-2016.5663296303626,0.0,2.25,0.53710932,2.4227915183981823,0.0,0.9800000190734863,1.149999976158142,73.3499984741211,-0.03753662109375,0.10308837890625,1.083251953125,34.5099983215332,0.0,63.0,-0.393096923828125,-0.7817840576171875,Waiting,0.0,0.0,-113.0,0.0,0.0,0.0,0.0,0.0,
3.214301999999996,0.0,0.0,false,4222038.815173527,,37534.0,17.0,-232.5,-2040.138361529633,0.0,2.5,2.293700937,4.912655902679439,-0.04394530799999963,-116414.0,26.25,52.5,2040.138361529633,0.0,1.75,2.263183362,4.897811052046845,0.13061522099999934,70206.0,18.625,-322.5,-2040.138361529633,0.0,0.125,3.6804195450000003,4.9027593355910435,0.06958007100000074,-92894.0,24.375,-210.0,-2040.138361529633,0.0,2.625,0.458984328,2.4225765669835857,-0.052490229,1.0199999809265137,0.9900000095367432,73.0999984741211,0.01239013671875,-0.07977294921875,0.81768798828125,34.5099983215332,0.0,-90.0,-0.3901824951171875,-0.798675537109375,Waiting,0.0,0.0,-113.0,0.0,0.0,0.0,0.0,0.0,
3.2504879999999976,0.0,0.0,false,4221936.3614360625,,37534.0,24.0,-300.0,-2040.1383615296331,0.0,0.875,2.187499776,4.909208680457216,0.0,-116414.0,34.75,150.0,2040.1383615296331,0.0,1.125,2.3718259290000003,4.89437424649129,0.0,70206.0,21.375,-367.5,-2040.1383615296331,0.0,0.375,3.75976524,4.8993190578132655,0.0,-92894.0,27.625,-277.5,-2040.1383615296331,0.0,1.125,0.384521445,2.4191408030946966,0.0,1.0700000524520874,0.7400000095367432,72.93000030517578,0.0458984375,-0.06781005859375,1.28021240234375,34.5099983215332,0.0,-79.0,-0.3876495361328125,-0.8148956298828125,Waiting,0.0,0.0,-113.0,0.0,0.0,0.0,0.0,0.0,
3.288843000000001,0.0,0.0,false,4221820.361290323,,37494.0,28.25,-262.5,-2040.138361529633,0.0,0.875,2.100829863,4.906864594594316,0.0,-116370.0,39.0,255.0,2040.138361529633,0.0,0.75,2.4279782670000003,4.892037243885428,0.0,70147.0,26.25,-367.5,-2040.138361529633,0.0,0.125,3.801269142,4.896979694121724,0.0,-92949.0,31.75,-337.5,-2040.138361529633,0.0,1.125,0.321044889,2.4168045088145385,0.0,0.9700000286102295,0.4099999964237213,72.76000213623047,-0.19720458984375,0.02435302734375,1.1708984375,34.5099983215332,0.0,-56.0,-0.3843994140625,-0.838134765625,Waiting,0.0,0.0,-113.0,0.0,0.0,0.0,0.0,0.0,
3.327070999999996,0.0,0.0,false,4221677.20757759,,37494.0,31.125,-262.5,-1382.7118535808254,0.0,0.625,2.0593259610000003,4.874535595690916,-0.07934569499999977,-116370.0,41.25,360.0,1382.7118535808254,0.0,0.625,2.452392327,4.8598059353493825,0.051269525999999566,70147.0,29.375,-412.5,-1382.7118535808254,0.0,0.125,3.822021093,4.864715822129893,0.0,-92949.0,35.625,-412.5,-1382.7118535808254,0.0,0.75,0.28442379900000003,2.3845829693152303,0.0,0.949999988079071,0.09000000357627869,72.63999938964844,-0.1044921875,6.103515625E-4,0.7537841796875,34.5099983215332,0.0,-42.0,-0.38262939453125,-0.8521270751953125,Waiting,0.0,0.0,-113.0,0.0,0.0,0.0,0.0,0.0,
3.3598220000000003,0.0,0.0,false,4221504.57695407,,37494.0,26.875,-360.0,-433.125,0.0,0.75,2.041015416,4.723935393948027,-0.05004882300000091,-116370.0,35.75,412.5,433.125,0.0,0.75,2.46582006,4.709660810767281,0.013427732999999442,70147.0,27.0,-487.5,-433.125,0.0,0.125,3.8366695290000004,4.714419005160863,0.02075195100000027,-92949.0,27.875,-525.0,-433.125,0.0,0.75,0.229492164,2.2344833524492063,-0.04394530800000007,1.059999942779541,-0.3100000023841858,72.47000122070312,-0.2559814453125,-0.0042724609375,0.9951171875,34.5099983215332,0.0,-97.0,-0.3802947998046875,-0.871002197265625,Waiting,0.0,0.0,-113.0,0.0,0.0,0.0,0.0,0.0,
3.392989999999998,0.0,0.0,false,4221304.860249698,,37412.0,12.375,-480.0,0.0,0.0,0.75,1.9140623040000002,4.723935393948027,-0.053710931999999545,-116285.0,17.125,495.0,0.0,0.0,0.25,2.4768063870000003,4.709660810767281,0.014648435999999876,70045.0,6.375,-637.5,0.0,0.0,0.0,3.8403316380000003,4.714419005160863,0.008544921000000372,-93046.0,9.5,-592.5,0.0,0.0,0.75,0.133056627,2.2344833524492063,-0.05004882300000002,1.2200000286102295,-0.23999999463558197,72.44000244140625,0.283935546875,0.32318115234375,0.88897705078125,34.5099983215332,0.0,376.0,-0.3774871826171875,-0.888397216796875,Waiting,0.0,0.0,-113.0,0.0,0.0,0.0,0.0,0.0,
3.434547999999995,0.0,0.0,false,4221091.69726248,,37412.0,1.125,-502.5,0.0,0.0,0.625,1.802978331,4.723935393948027,-0.09765624000000006,-116285.0,2.875,472.5,0.0,0.0,0.125,2.4780270900000003,4.709660810767281,0.01098632700000124,70045.0,2.5,-600.0,0.0,0.0,0.0,3.8452144500000003,4.714419005160863,0.006103514999999504,-93046.0,0.0,-480.0,0.0,0.0,0.375,0.026855466,2.2344833524492063,-0.09765624000000006,1.3700000047683716,-0.019999999552965164,72.41999816894531,0.340576171875,0.0902099609375,0.8946533203125,34.5099983215332,0.0,168.0,-0.3746337890625,-0.9007110595703125,Waiting,0.0,0.0,-113.0,0.0,0.0,0.0,0.0,0.0,
3.471529000000002,0.0,0.0,false,4220851.502615694,,37412.0,0.0,-450.0,0.0,0.0,0.375,1.730956854,4.723935393948027,-0.09765624000000006,-116285.0,0.0,405.0,0.0,0.0,0.0,2.4780270900000003,4.709660810767281,0.01098632700000124,70045.0,0.0,-412.5,0.0,0.0,0.0,3.8391109350000003,4.714419005160863,0.006103514999999504,-93046.0,0.0,-397.5,0.0,0.0,0.375,4.898681139000001,2.2344833524492063,-0.09765624000000006,1.4199999570846558,0.5400000214576721,72.41999816894531,0.0830078125,0.07415771484375,0.9598388671875,34.47999954223633,0.0,70.0,-0.3708648681640625,-0.9144744873046875,Waiting,0.0,0.0,-113.0,0.0,0.0,0.0,0.0,0.0,
3.507686999999998,0.0,0.0,false,4220595.552695093,,37412.0,0.0,-322.5,0.0,0.0,0.125,1.652831862,4.723935393948027,-0.17456052899999985,-116285.0,0.0,300.0,0.0,0.0,0.0,2.4780270900000003,4.709660810767281,0.0,69999.0,0.0,-345.0,0.0,0.0,0.0,3.8403316380000003,4.714419005160863,-0.0012207029999995456,-93105.0,0.0,-352.5,0.0,0.0,0.0,4.835204583,2.2344833524492063,-0.17943408199999933,1.5399999618530273,0.5899999737739563,72.38999938964844,0.1435546875,0.07421875,1.13018798828125,34.47999954223633,0.0,81.0,-0.3660430908203125,-0.92889404296875,Waiting,0.0,0.0,-113.0,0.0,0.0,0.0,0.0,0.0,
3.5391389999999956,0.0,0.0,false,4220312.627261762,,37361.0,0.0,-315.0,0.0,0.0,0.125,1.618652178,4.723935393948027,-0.06958007099999985,-116243.0,0.0,292.5,0.0,0.0,0.0,2.471923575,4.709660810767281,0.0,69999.0,0.0,-300.0,0.0,0.0,0.0,3.8391109350000003,4.714419005160863,0.0,-93105.0,0.0,-427.5,0.0,0.0,0.0,4.8156733350000005,2.2344833524492063,-0.06958007099999985,1.6200000047683716,0.9100000262260437,72.25,0.0111083984375,0.02777099609375,1.24432373046875,34.47999954223633,0.0,-9.0,-0.3577728271484375,-0.9517974853515625,Waiting,0.0,0.0,-113.0,0.0,0.0,0.0,0.0,0.0,
3.576366000000002,0.0,0.0,false,4220016.344051447,,37361.0,0.0,-345.0,0.0,0.0,0.125,1.613769366,4.723935393948027,-0.06958007099999985,-116243.0,0.0,292.5,0.0,0.0,0.0,2.4768063870000003,4.709660810767281,0.0,69999.0,0.0,-292.5,0.0,0.0,0.0,3.8391109350000003,4.714419005160863,0.0,-93105.0,0.0,-420.0,0.0,0.0,0.0,4.814452632,2.2344833524492063,-0.01342773300000033,1.5199999809265137,1.100000023841858,72.16000366210938,0.04998779296875,-0.028564453125,0.9749755859375,34.47999954223633,0.0,-42.0,-0.35205078125,-0.9676055908203125,Waiting,0.0,0.0,-113.0,0.0,0.0,0.0,0.0,0.0,
3.6119470000000002,0.0,0.0,false,4219693.139413419,,37361.0,0.0,-330.0,0.0,0.0,0.125,1.613769366,4.723935393948027,-0.026855465999999772,-116243.0,0.0,187.5,0.0,0.0,0.0,2.4768063870000003,4.709660810767281,0.0,69999.0,0.0,-262.5,0.0,0.0,0.0,3.8391109350000003,4.714419005160863,0.0,-93105.0,0.0,-247.5,0.0,0.0,0.0,4.80956982,2.2344833524492063,-0.01342773300000033,1.4800000190734863,1.1399999856948853,72.0999984741211,0.178955078125,-0.0985107421875,0.98040771484375,34.47999954223633,0.0,-68.0,-0.3465423583984375,-0.9838104248046875,Waiting,0.0,0.0,-113.0,0.0,0.0,0.0,0.0,0.0,
3.6453189999999958,0.0,0.0,false,4219340.697188755,,37334.0,0.0,-195.0,0.0,0.0,0.125,1.613769366,4.723935393948027,-0.004882811999999959,-116236.0,0.0,52.5,0.0,0.0,0.0,2.4780270900000003,4.709660810767281,0.0,69964.0,0.0,-217.5,0.0,0.0,0.0,3.8391109350000003,4.714419005160863,-0.0012207030000004337,-93133.0,0.0,-172.5,0.0,0.0,0.0,4.80956982,2.2344833524492063,-0.006103514999999504,1.440000057220459,1.3300000429153442,72.1500015258789,0.064453125,0.0115966796875,1.0736083984375,34.47999954223633,0.0,-2.0,-0.3438568115234375,-1.0093231201171875,Waiting,0.0,0.0,-113.0,0.0,0.0,0.0,0.0,0.0,
3.6819249999999957,0.0,0.0,false,4218974.969088719,,37334.0,0.0,-142.5,0.0,0.0,0.125,1.614990069,4.723935393948027,-0.004882811999999959,-116236.0,0.0,15.0,0.0,0.0,0.0,2.4780270900000003,4.709660810767281,0.0,69964.0,0.0,-187.5,0.0,0.0,0.0,3.8391109350000003,4.714419005160863,0.0012207030000004337,-93133.0,0.0,-142.5,0.0,0.0,0.0,4.8107905230000005,2.2344833524492063,0.0012207029999995456,1.409999966621399,1.4500000476837158,72.1500015258789,0.0533447265625,0.03839111328125,1.006103515625,34.47999954223633,0.0,21.0,-0.343780517578125,-1.0357818603515625,Waiting,0.0,0.0,-113.0,0.0,0.0,0.0,0.0,0.0,
3.715975999999995,0.0,0.0,false,4218582.407704655,,37334.0,0.0,-120.0,0.0,0.0,0.125,1.613769366,4.723935393948027,0.0,-116236.0,0.0,0.0,0.0,0.0,0.0,2.4780270900000003,4.709660810767281,0.0,69964.0,0.0,-165.0,0.0,0.0,0.0,3.8391109350000003,4.714419005160863,0.0012207030000004337,-93133.0,0.0,-142.5,0.0,0.0,0.0,4.80956982,2.2344833524492063,0.0012207029999995456,1.409999966621399,1.5199999809265137,72.13999938964844,0.0977783203125,0.01287841796875,0.889404296875,34.47999954223633,0.0,14.0,-0.343719482421875,-1.044769287109375,Waiting,0.0,0.0,-113.0,0.0,0.0,0.0,0.0,0.0,
3.7499619999999996,0.0,0.0,false,4218176.60328921,,37334.0,0.0,-127.5,0.0,0.0,0.125,1.614990069,4.723935393948027,0.0,-116237.0,0.0,0.0,0.0,0.0,0.0,2.4780270900000003,4.709660810767281,0.0,69948.0,0.0,-120.0,0.0,0.0,0.0,3.8403316380000003,4.714419005160863,0.0,-93148.0,0.0,-120.0,0.0,0.0,0.0,4.8107905230000005,2.2344833524492063,0.0,1.3700000047683716,1.600000023841858,72.08999633789062,0.06890869140625,-0.0137939453125,1.0751953125,34.47999954223633,0.0,-25.0,-0.3436279296875,-1.0723419189453125,Waiting,0.0,0.0,-113.0,0.0,0.0,0.0,0.0,0.0,
3.7808699999999953,0.0,0.0,false,4217741.674418605,,37316.0,0.125,-112.5,-413.4375,0.0,0.125,1.613769366,4.717040949503583,-0.0012207030000004337,-116237.0,0.125,0.0,413.4375,0.0,0.0,2.4780270900000003,4.70278719965617,0.0,69948.0,0.0,-75.0,-413.4375,0.0,0.0,3.822021093,4.707538449605307,0.0,-93148.0,0.0,-75.0,-413.4375,0.0,0.0,4.80956982,2.2276118246714285,0.0,1.2899999618530273,1.6699999570846558,72.05999755859375,0.05377197265625,0.0469970703125,1.04791259765625,34.47999954223633,0.0,29.0,-0.3439178466796875,-1.100616455078125,Waiting,0.0,0.0,-113.0,0.0,0.0,0.0,0.0,0.0,
3.826921999999999,0.0,0.0,false,4217293.547094189,,37316.0,3.125,-52.5,-1372.8528689768686,0.0,0.125,1.616210772,4.831217779584437,0.0,-116237.0,3.75,0.0,1372.8528689768686,0.0,0.0,2.4780270900000003,4.816619015141694,0.0,69948.0,2.125,-67.5,-1372.8528689768686,0.0,0.0,3.8342281230000004,4.821485269955942,0.0,-93148.0,3.0,-120.0,-1372.8528689768686,0.0,0.0,4.805907711000001,2.341409138697421,0.0,1.2899999618530273,1.7100000381469727,72.06999969482422,0.0462646484375,0.0743408203125,0.942626953125,34.47999954223633,0.0,55.0,-0.344085693359375,-1.1196746826171875,Waiting,0.0,0.0,-113.0,0.0,0.0,0.0,0.0,0.0,
3.8710970000000016,0.0,0.0,false,4216818.695512821,,37316.0,5.625,-120.0,-2608.744286120984,0.0,0.125,1.6088865540000001,4.923427038520568,-0.009765623999999917,-116228.0,7.875,15.0,2608.744286120984,0.0,0.0,2.4841306050000003,4.908549640136641,0.0,69912.0,12.25,-165.0,-2608.744286120984,0.0,0.0,3.8354488260000004,4.913508772931284,-0.003662108999999525,-93185.0,8.75,-180.0,-2608.744286120984,0.0,0.0,4.805907711000001,2.4333119002982486,-0.004882811999999959,1.3700000047683716,1.25,72.05999755859375,-0.40081787109375,-0.238525390625,1.35955810546875,34.47999954223633,0.0,-390.0,-0.34417724609375,-1.1376800537109375,Waiting,0.0,0.0,-113.0,0.0,0.0,0.0,0.0,0.0,
3.906370999999999,0.0,0.0,false,4216314.809771726,,37279.0,23.5,-262.5,-2613.946021232298,0.0,0.125,1.6064451480000002,4.929082404242767,0.0,-116228.0,28.125,75.0,2613.946021232298,0.0,0.0,2.4829099020000003,4.9141879167198725,0.0,69912.0,29.25,-322.5,-2613.946021232298,0.0,0.0,3.8415523410000003,4.919152745894171,0.0,-93185.0,28.25,-300.0,-2613.946021232298,0.0,0.0,4.805907711000001,2.4389484679675837,0.0,1.4299999475479126,0.6700000166893005,72.0999984741211,-0.7366943359375,0.0565185546875,0.70697021484375,34.47999954223633,0.0,-191.0,-0.3447723388671875,-1.1536102294921875,Waiting,0.0,0.0,-113.0,0.0,0.0,0.0,0.0,0.0,
