Time,ClimberA1,ClimberA2,CameraExists,HeapSpace,LoopTime,FRpos,FRCurrent,FRspeed,FRsetpoint,FRApos,FRACurrent,FREncpos,FREncSetpoint,FREncSpeed,FLpos,FLCurrent,FLspeed,FLsetpoint,FLApos,FLACurrent,FLEncpos,FLEncSetpoint,FLEncSpeed,BRpos,BRCurrent,BRspeed,BRsetpoint,BRApos,BRACurrent,BREncpos,BREncSetpoint,BREncSpeed,BLpos,BLCurrent,BLspeed,BLsetpoint,BLApos,BLACurrent,BLEncpos,BLEncSetpoint,BLEncSpeed,navx_Pitch,navx_Roll,navx_Yaw,navx_XAcc,navx_YAcc,navx_ZAcc,navx_Temp,navx_Bar,navx_Alt,navx_XDis,navx_YDis,GearPlacerState,ShootOutputV,ShootOutputCurrent,ShootEncPos,ShootEncVelocity,ShootSpeed,ShootSetpoint,CarouselSetpoint,CarouselCurrent,
0.4246480000000156,0.0,0.0,false,4393632.3668959765,,-5477.0,1.75,652.5,0.0,0.0,1.25,0.15869139000000002,0.0,2.999267271,-15228.0,2.25,-517.5,-0.0,0.0,5.375,1.3195799430000001,0.0,-1.7443845870000008,4354.0,1.25,652.5,0.0,0.0,0.75,2.493896229,0.0,-1.9726560479999993,-7649.0,1.75,-450.0,-0.0,0.0,2.625,0.806884683,0.0,-2.1557614979999995,0.07000000029802322,-1.2200000286102295,34.13999938964844,0.33514404296875,-0.28631591796875,1.14202880859375,26.25,0.0,136.0,-1.8865509033203125,-0.831695556640625,Waiting,0.0,0.0,-114.0,0.0,0.0,0.0,0.0,0.0,
0.4928729999999923,0.0,0.0,false,4393672.2984576905,,-5477.0,0.0,562.5,0.0,0.0,0.5,0.7629393750000001,0.0,0.0,-15228.0,0.125,-330.0,-0.0,0.0,0.625,1.92871074,0.0,0.0,4354.0,0.125,247.5,0.0,0.0,1.375,3.0493160940000004,0.0,0.0,-7649.0,0.125,-240.0,-0.0,0.0,1.375,1.3720701720000001,0.0,0.0,0.07999999821186066,0.3499999940395355,35.20000076293945,0.5018310546875,0.26519775390625,1.23748779296875,26.25,0.0,555.0,-1.899139404296875,-0.83746337890625,Waiting,0.0,0.0,-114.0,0.0,0.0,0.0,0.0,0.0,
0.5701110000000045,0.0,0.0,false,4393688.86684726,,-5423.0,0.125,322.5,0.0,0.0,1.0,1.324462755,0.0,0.629882748,-15263.0,0.75,-217.5,-0.0,0.0,0.375,2.462157951,0.0,0.6347655600000004,4385.0,0.5,210.0,0.0,0.0,1.0,3.559569948,0.0,0.5615233800000001,-7713.0,0.0,-427.5,-0.0,0.0,1.125,1.877441214,0.0,0.5737304100000005,0.7400000095367432,0.7400000095367432,34.81999969482422,0.02606201171875,0.05633544921875,1.08673095703125,26.25,0.0,33.0,-1.899200439453125,-0.8459625244140625,Waiting,0.0,0.0,-114.0,0.0,0.0,0.0,0.0,0.0,
0.6358859999999986,0.0,0.0,false,4393683.575,,-5423.0,0.125,247.5,0.0,0.0,0.625,1.778564271,0.0,0.5004882300000002,-15263.0,1.0,-127.5,-0.0,0.0,0.125,2.8039547910000002,0.0,0.48950190299999985,4385.0,0.5,300.0,0.0,0.0,0.125,3.9929195130000004,0.0,0.0,-7713.0,0.0,-307.5,-0.0,0.0,0.5,2.363281008,0.0,0.0,1.1699999570846558,0.7799999713897705,34.529998779296875,-0.01483154296875,0.1217041015625,1.07122802734375,26.219999313354492,0.0,32.0,-1.8952789306640625,-0.851043701171875,Waiting,0.0,0.0,-114.0,0.0,0.0,0.0,0.0,0.0,
0.7114109999999928,0.0,0.0,false,4393654.948552385,,-5394.0,0.375,157.5,0.0,0.0,0.5,2.023925574,0.0,0.4602050310000001,-15277.0,1.375,-82.5,-0.0,0.0,0.0,2.91748017,0.0,-4.609644566,4414.0,1.0,67.5,0.0,0.0,0.125,4.226073786000001,0.0,0.43701167399999985,-7736.0,0.0,-82.5,-0.0,0.0,0.5,2.708739957,0.0,0.49926752699999977,1.340000033378601,0.6800000071525574,34.5099983215332,-0.00897216796875,-0.03167724609375,1.07940673828125,26.219999313354492,0.0,-50.0,-1.889923095703125,-0.852386474609375,Waiting,0.0,0.0,-114.0,0.0,0.0,0.0,0.0,0.0,
0.7882510000000184,0.0,0.0,false,4393604.489795919,,-5387.0,0.625,37.5,0.0,0.0,0.0,2.0605466640000003,0.0,0.0,-15288.0,1.375,-67.5,-0.0,0.0,0.0,2.814941118,0.0,0.0,4421.0,1.375,30.0,0.0,0.0,0.0,4.19921832,0.0,0.0,-7763.0,0.0,-150.0,-0.0,0.0,0.0,2.6940915210000003,0.0,0.0,1.25,0.6899999976158142,34.40999984741211,-0.0302734375,0.0408935546875,1.0501708984375,26.219999313354492,0.0,-25.0,-1.88543701171875,-0.8535308837890625,Waiting,0.0,0.0,-114.0,0.0,0.0,0.0,0.0,0.0,
0.8639500000000117,0.0,0.0,false,4393530.724963564,,-5387.0,0.75,52.5,0.0,0.0,0.0,2.036132604,0.0,0.0024414059999999793,-15288.0,1.5,-37.5,-0.0,0.0,0.0,2.7954098700000003,0.0,-0.06713866499999988,4421.0,1.25,52.5,0.0,0.0,0.0,4.105224189,0.0,-0.04394530799999963,-7763.0,0.0,-112.5,-0.0,0.0,0.0,2.670898164,0.0,-0.014648435999999876,1.2899999618530273,0.6600000262260437,34.349998474121094,0.00604248046875,-0.0023193359375,0.9974365234375,26.219999313354492,0.0,-18.0,-1.88458251953125,-0.8540191650390625,Waiting,0.0,0.0,-114.0,0.0,0.0,0.0,0.0,0.0,
0.9386050000000105,0.0,0.0,false,4393435.15570358,,-5381.0,0.625,37.5,0.0,0.0,0.0,1.9702146420000002,0.0,-0.03295898099999928,-15293.0,1.375,-22.5,-0.0,0.0,0.0,2.752685265,0.0,-0.026855465999999772,4429.0,1.25,45.0,0.0,0.0,0.0,4.049071851,0.0,0.0,-7769.0,0.0,-30.0,-0.0,0.0,0.0,2.614745826,0.0,0.0,1.2699999809265137,0.6100000143051147,34.400001525878906,0.00836181640625,1.8310546875E-4,1.0205078125,26.219999313354492,0.0,-14.0,-1.884857177734375,-0.8540191650390625,Waiting,0.0,0.0,-114.0,0.0,0.0,0.0,0.0,0.0,
1.0108550000000105,0.0,0.0,false,4393317.795629553,,-5381.0,0.625,30.0,0.0,0.0,0.0,1.909179492,0.0,-0.07690428900000068,-15293.0,1.25,-30.0,-0.0,0.0,0.0,2.7404782350000003,0.0,-0.035400387000000144,4429.0,1.25,30.0,0.0,0.0,0.0,4.04052693,0.0,-0.056152337999999524,-7772.0,0.125,-22.5,-0.0,0.0,0.0,2.57568333,0.0,-0.05737304099999996,1.2899999618530273,0.5699999928474426,34.349998474121094,-0.0115966796875,0.02850341796875,1.05084228515625,26.219999313354492,0.0,-15.0,-1.8849945068359375,-0.8538665771484375,Waiting,0.0,0.0,-114.0,0.0,0.0,0.0,0.0,0.0,
1.086073000000004,0.0,0.0,false,4393177.1718684975,,-5375.0,0.875,22.5,0.0,0.0,0.0,1.903075977,0.0,-0.04150390199999965,-15295.0,1.25,-7.5,-0.0,0.0,0.0,2.720946987,0.0,-0.01953124800000028,4434.0,1.375,22.5,0.0,0.0,0.0,4.039306227,0.0,-0.009765623999999917,-7772.0,0.125,-15.0,-0.0,0.0,0.0,2.569579815,0.0,-0.03906249600000011,1.25,0.5600000023841858,34.349998474121094,-0.0147705078125,0.0155029296875,1.01080322265625,26.219999313354492,0.0,-24.0,-1.8851165771484375,-0.8538665771484375,Waiting,0.0,0.0,-114.0,0.0,0.0,0.0,0.0,0.0,
1.1547130000000179,0.0,0.0,false,4393014.785105055,,-5374.0,0.875,0.0,0.0,0.0,0.0,1.90429668,0.0,-0.0024414059999999793,-15302.0,1.0,-45.0,-0.0,0.0,0.0,2.731933314,0.0,-0.004882811999999959,4435.0,1.375,7.5,0.0,0.0,0.0,4.04052693,0.0,0.0,-7774.0,0.25,-7.5,-0.0,0.0,0.0,2.572021221,0.0,-0.004882811999999959,1.2599999904632568,0.5199999809265137,34.380001068115234,0.00384521484375,0.023193359375,0.998779296875,26.260000228881836,0.0,-3.0,-1.885284423828125,-0.8538665771484375,Waiting,0.0,0.0,-114.0,0.0,0.0,0.0,0.0,0.0,
1.2278699999999954,0.0,0.0,false,4392829.163061564,,-5374.0,0.875,7.5,0.0,0.0,0.0,1.900634571,0.0,-0.0012207030000004337,-15302.0,1.125,-15.0,-0.0,0.0,0.0,2.729491908,0.0,0.0,4435.0,1.375,0.0,0.0,0.0,0.0,4.024657791,0.0,0.0012207029999995456,-7774.0,0.25,0.0,-0.0,0.0,0.0,2.570800518,0.0,0.0,1.25,0.5099999904632568,34.36000061035156,0.01239013671875,0.02001953125,1.0086669921875,26.260000228881836,0.0,1.0,-1.88531494140625,-0.8538665771484375,Waiting,0.0,0.0,-114.0,0.0,0.0,0.0,0.0,0.0,
1.2972690000000002,0.0,0.0,false,4392621.805780828,,-5374.0,0.875,0.0,0.0,0.0,0.0,1.90429668,0.0,0.0,-15302.0,1.25,0.0,-0.0,0.0,0.0,2.728271205,0.0,0.0,4436.0,1.25,0.0,0.0,0.0,0.0,4.0356441180000004,0.0,0.0,-7774.0,0.375,0.0,-0.0,0.0,0.0,2.572021221,0.0,0.0,1.25,0.5099999904632568,34.369998931884766,0.01373291015625,0.01800537109375,0.9989013671875,26.260000228881836,0.0,1.0,-1.88531494140625,-0.8538665771484375,Waiting,0.0,0.0,-114.0,0.0,0.0,0.0,0.0,0.0,
1.3733980000000157,0.0,0.0,false,4392391.241580041,,-5374.0,0.25,0.0,-377.00788199901575,0.0,0.0,1.90429668,4.963999999999999,0.0,-15302.0,0.25,0.0,377.00788199901575,0.0,0.0,2.729491908,4.948999999999997,0.0,4435.0,0.25,0.0,-377.00788199901575,0.0,0.0,4.04052693,2.346685808637024E-15,0.0,-7774.0,0.0,-7.5,377.00788199901575,0.0,0.0,2.569579815,2.343606790115397E-15,0.0,1.25,0.4699999988079071,34.38999938964844,-0.014892578125,0.00726318359375,1.00653076171875,26.260000228881836,0.0,-27.0,-1.88543701171875,-0.8538055419921875,Waiting,0.0,0.0,-114.0,0.0,0.0,0.0,0.0,0.0,
1.4597920000000157,0.0,0.0,false,4392138.969860735,,-5374.0,0.0,-22.5,-694.4881582260131,0.0,0.0,1.90429668,4.963999999999999,0.0,-15302.0,0.75,0.0,694.4881582260131,0.0,0.0,2.729491908,4.948999999999997,0.0,4435.0,0.125,-30.0,-694.4881582260131,0.0,0.0,4.036864821,2.346685808637024E-15,0.0,-7774.0,0.5,37.5,694.4881582260131,0.0,0.0,2.567138409,2.343606790115397E-15,0.0,1.2699999809265137,0.4099999964237213,34.38999938964844,-0.02618408203125,-0.0263671875,1.00897216796875,26.260000228881836,0.0,-55.0,-1.8857574462890625,-0.8533477783203125,Waiting,0.0,0.0,-114.0,0.0,0.0,0.0,0.0,0.0,
1.5303490000000166,0.0,0.0,false,4391858.069825436,,-5401.0,0.375,-195.0,-694.4881582260131,0.0,0.0,1.8994138680000001,4.963999999999999,0.0,-15298.0,2.0,30.0,694.4881582260131,0.0,0.0,2.724609096,4.948999999999997,0.0,4406.0,0.625,-202.5,-694.4881582260131,0.0,0.0,4.0356441180000004,2.346685808637024E-15,0.0,-7746.0,1.875,202.5,694.4881582260131,0.0,0.0,2.561034894,2.343606790115397E-15,0.0,1.2400000095367432,0.1899999976158142,34.459999084472656,-0.1207275390625,-0.02838134765625,0.9407958984375,26.260000228881836,0.0,-129.0,-1.887420654296875,-0.8519744873046875,Waiting,0.0,0.0,-114.0,0.0,0.0,0.0,0.0,0.0,
1.6089020000000018,0.0,0.0,false,4391555.492208602,,-5401.0,1.0,-195.0,-714.3307435512543,0.0,0.0,1.8981931650000001,4.963999999999999,0.0,-15298.0,2.625,157.5,714.3307435512543,0.0,0.0,2.73437472,4.948999999999997,0.0,4377.0,3.0,-157.5,-714.3307435512543,0.0,0.0,4.038085524,2.346685808637024E-15,0.0,-7724.0,3.25,112.5,714.3307435512543,0.0,0.0,2.561034894,2.343606790115397E-15,0.0,1.2200000286102295,-0.1899999976158142,34.560001373291016,-0.17071533203125,0.04290771484375,0.91815185546875,26.260000228881836,0.0,-124.0,-1.8926849365234375,-0.847991943359375,Waiting,0.0,0.0,-114.0,0.0,0.0,0.0,0.0,0.0,
1.688793000000005,0.0,0.0,false,4391622.466140424,,-5430.0,2.875,-232.5,-892.9134106636047,0.0,0.0,1.881103323,4.963999999999999,0.0,-15264.0,4.5,247.5,892.9134106636047,0.0,0.0,2.719726284,4.948999999999997,0.0,4377.0,4.5,-255.0,-892.9134106636047,0.0,0.0,4.039306227,2.346685808637024E-15,0.0,-7724.0,6.0,210.0,892.9134106636047,0.0,0.0,2.561034894,2.343606790115397E-15,0.0,1.2300000190734863,-0.8100000023841858,34.66999816894531,-0.3017578125,0.0264892578125,0.985595703125,26.219999313354492,0.0,-233.0,-1.9007110595703125,-0.8419647216796875,Waiting,0.0,0.0,-114.0,0.0,0.0,0.0,0.0,0.0,
1.7649550000000163,0.0,0.0,false,4391668.118795431,,-5500.0,5.5,-382.5,-1289.7637653350828,0.0,0.0,1.8933103530000002,4.963999999999999,0.0,-15194.0,11.25,450.0,1289.7637653350828,0.0,0.0,2.716064175,4.948999999999997,0.0,4303.0,8.5,-487.5,-1289.7637653350828,0.0,0.0,4.039306227,2.346685808637024E-15,0.0,-7656.0,10.375,427.5,1289.7637653350828,0.0,0.0,2.559814191,2.343606790115397E-15,0.0,1.190000057220459,-1.6200000047683716,34.709999084472656,-0.3375244140625,0.0362548828125,1.1409912109375,26.219999313354492,0.0,-243.0,-1.9146881103515625,-0.8320770263671875,Waiting,0.0,0.0,-114.0,0.0,0.0,0.0,0.0,0.0,
1.832890000000014,0.0,0.0,false,4391687.710963455,,-5500.0,10.375,-660.0,-1706.4566302299497,0.0,0.0,1.8896482440000002,4.963999999999999,0.0,-15194.0,16.5,682.5,1706.4566302299497,0.0,0.0,2.680663788,4.948999999999997,0.0,4303.0,12.125,-772.5,-1706.4566302299497,0.0,0.0,4.05273396,2.346685808637024E-15,0.0,-7656.0,17.25,675.0,1706.4566302299497,0.0,0.0,2.561034894,2.343606790115397E-15,0.0,1.2100000381469727,-2.5899999141693115,34.7599983215332,-0.34765625,0.1324462890625,0.8660888671875,26.219999313354492,0.0,-188.0,-1.9374542236328125,-0.8168487548828125,Waiting,0.0,0.0,-114.0,0.0,0.0,0.0,0.0,0.0,
1.9112609999999985,0.0,0.0,false,4391687.503425368,,-5639.0,10.5,-930.0,-1567.5590586662292,0.0,0.0,1.8884275410000002,4.963999999999999,0.0,-15048.0,13.375,1072.5,1567.5590586662292,0.0,0.0,2.626952856,4.948999999999997,0.0,4133.0,9.25,-1200.0,-1567.5590586662292,0.0,0.0,4.04052693,2.346685808637024E-15,0.0,-7509.0,14.25,1065.0,1567.5590586662292,0.0,0.0,2.561034894,2.343606790115397E-15,0.0,1.2999999523162842,-3.240000009536743,34.720001220703125,-0.22149658203125,-0.0296630859375,1.15911865234375,26.219999313354492,0.0,-159.0,-1.961578369140625,-0.8004608154296875,Waiting,0.0,0.0,-114.0,0.0,0.0,0.0,0.0,0.0,
1.9863209999999962,0.0,0.0,false,4391662.322955583,,-5846.0,7.25,-1222.5,-1527.874038219452,0.0,0.0,1.8908689470000002,4.963999999999999,0.0,-14834.0,9.25,1275.0,1527.874038219452,0.0,0.0,2.629394262,4.948999999999997,0.0,3916.0,6.375,-1320.0,-1527.874038219452,0.0,0.0,4.04052693,2.346685808637024E-15,0.0,-7293.0,8.75,1335.0,1527.874038219452,0.0,0.0,2.572021221,2.343606790115397E-15,0.0,1.3600000143051147,-3.759999990463257,34.45000076293945,-0.05792236328125,0.2557373046875,1.6368408203125,26.219999313354492,0.0,163.0,-2.003173828125,-0.77166748046875,Waiting,0.0,0.0,-114.0,0.0,0.0,0.0,0.0,0.0,
2.066429999999993,0.0,0.0,false,4391611.127619838,,-5846.0,5.5,-1387.5,-1527.874038219452,0.0,0.0,1.887206838,4.963999999999999,0.0,-14834.0,6.625,1440.0,1527.874038219452,0.0,0.0,2.6391598860000003,4.948999999999997,0.0,3916.0,5.125,-1440.0,-1527.874038219452,0.0,0.0,4.04052693,2.346685808637024E-15,0.0,-7293.0,6.625,1462.5,1527.874038219452,0.0,0.0,2.561034894,2.343606790115397E-15,0.0,1.409999966621399,-3.880000114440918,34.119998931884766,-0.10931396484375,0.19671630859375,1.16143798828125,26.219999313354492,0.0,69.0,-2.0393524169921875,-0.7453460693359375,Waiting,0.0,0.0,-114.0,0.0,0.0,0.0,0.0,0.0,
2.145244999999995,0.0,0.0,false,4391540.174273859,,-6076.0,4.375,-1477.5,-1527.874038219452,0.0,0.0,1.878661917,4.963999999999999,0.0,-14591.0,4.75,1530.0,1527.874038219452,0.0,0.0,2.651366916,4.948999999999997,0.0,3676.0,4.125,-1500.0,-1527.874038219452,0.0,0.0,4.036864821,2.346685808637024E-15,0.0,-7048.0,5.125,1537.5,1527.874038219452,0.0,0.0,2.562255597,2.343606790115397E-15,0.0,1.3300000429153442,-3.380000114440918,33.65999984741211,-0.06671142578125,-0.4984130859375,-0.36688232421875,26.219999313354492,0.0,-344.0,-2.0753021240234375,-0.7193145751953125,Waiting,0.0,0.0,-114.0,0.0,0.0,0.0,0.0,0.0,
2.2236199999999955,0.0,0.0,false,4391444.292885293,,-6327.0,3.875,-1545.0,-1527.874038219452,0.0,0.0,1.878661917,4.963999999999999,0.0,-14334.0,3.625,1612.5,1527.874038219452,0.0,0.0,2.672118867,4.948999999999997,0.0,3428.0,3.875,-1530.0,-1527.874038219452,0.0,0.0,4.036864821,2.346685808637024E-15,0.0,-6796.0,4.375,1567.5,1527.874038219452,0.0,0.0,2.559814191,2.343606790115397E-15,0.0,1.2799999713897705,-3.6600000858306885,33.279998779296875,-0.10137939453125,0.11260986328125,0.77825927734375,26.219999313354492,0.0,9.0,-2.1181640625,-0.6897125244140625,Waiting,0.0,0.0,-114.0,0.0,0.0,0.0,0.0,0.0,
2.3082060000000055,0.0,0.0,false,4391328.680215678,,-6327.0,3.5,-1567.5,-1527.874038219452,0.0,0.0,1.87988262,4.963999999999999,0.0,-14334.0,2.625,1590.0,1527.874038219452,0.0,0.0,2.677001679,4.948999999999997,0.0,3428.0,2.875,-1582.5,-1527.874038219452,0.0,0.0,4.038085524,2.346685808637024E-15,0.0,-6796.0,3.5,1605.0,1527.874038219452,0.0,0.0,2.559814191,2.343606790115397E-15,0.0,1.3300000429153442,-3.450000047683716,33.099998474121094,-0.00933837890625,-0.142333984375,0.77239990234375,26.219999313354492,0.0,-56.0,-2.153778076171875,-0.66680908203125,Waiting,0.0,0.0,-114.0,0.0,0.0,0.0,0.0,0.0,
2.382301999999996,0.0,0.0,false,4391187.111756168,,-6586.0,3.0,-1605.0,-1527.874038219452,0.0,0.0,1.87988262,4.963999999999999,0.0,-14075.0,2.5,1620.0,1527.874038219452,0.0,0.0,2.677001679,4.948999999999997,0.0,3171.0,1.75,-1605.0,-1527.874038219452,0.0,0.0,4.0283199000000005,2.346685808637024E-15,0.0,-6537.0,3.25,1612.5,1527.874038219452,0.0,0.0,2.561034894,2.343606790115397E-15,0.0,1.3700000047683716,-3.4000000953674316,32.91999816894531,-0.089111328125,-0.029296875,1.290771484375,26.219999313354492,0.0,-43.0,-2.18798828125,-0.64556884765625,Waiting,0.0,0.0,-114.0,0.0,0.0,0.0,0.0,0.0,
2.467508999999991,0.0,0.0,false,4391026.895522388,,-6842.0,2.25,-1612.5,-1527.874038219452,0.0,0.0,1.87988262,4.963999999999999,0.0,-13813.0,1.5,1635.0,1527.874038219452,0.0,0.0,2.677001679,4.948999999999997,0.0,2915.0,1.5,-1612.5,-1527.874038219452,0.0,0.0,4.039306227,2.346685808637024E-15,0.0,-6279.0,2.875,1612.5,1527.874038219452,0.0,0.0,2.561034894,2.343606790115397E-15,0.0,1.1299999952316284,-3.0,32.70000076293945,-0.02069091796875,0.150390625,0.28558349609375,26.219999313354492,0.0,73.0,-2.22698974609375,-0.6229705810546875,Waiting,0.0,0.0,-114.0,0.0,0.0,0.0,0.0,0.0,
2.5449550000000163,0.0,0.0,false,4390834.5185492225,,-6842.0,1.75,-1612.5,-1527.874038219452,0.0,0.0,1.8432615300000001,4.963999999999999,0.0,-13813.0,1.25,1627.5,1527.874038219452,0.0,0.0,2.675780976,4.948999999999997,0.0,2915.0,1.5,-1582.5,-1527.874038219452,0.0,0.0,4.039306227,2.346685808637024E-15,0.0,-6279.0,2.75,1605.0,1527.874038219452,0.0,0.0,2.554931379,2.343606790115397E-15,0.0,1.2400000095367432,-2.8299999237060547,32.59000015258789,0.144287109375,-7.32421875E-4,0.8428955078125,26.219999313354492,0.0,146.0,-2.2576141357421875,-0.6063995361328125,Waiting,0.0,0.0,-114.0,0.0,0.0,0.0,0.0,0.0,
2.6265169999999927,0.0,0.0,false,4390622.466639038,,-7100.0,1.75,-1605.0,-1527.874038219452,0.0,0.0,1.878661917,4.963999999999999,0.0,-13557.0,1.25,1582.5,1527.874038219452,0.0,0.0,2.675780976,4.948999999999997,0.0,2660.0,0.875,-1590.0,-1527.874038219452,0.0,0.0,4.039306227,2.346685808637024E-15,0.0,-6023.0,2.375,1597.5,1527.874038219452,0.0,0.0,2.561034894,2.343606790115397E-15,0.0,1.1699999570846558,-2.5299999713897705,32.400001525878906,0.03204345703125,-0.06024169921875,0.41748046875,26.219999313354492,0.0,5.0,-2.2925262451171875,-0.5945587158203125,Waiting,0.0,0.0,-114.0,0.0,0.0,0.0,0.0,0.0,
2.7110370000000112,0.0,0.0,false,4390385.576134245,,-7351.0,3.5,-1560.0,-1657.7297061801482,0.0,0.0,1.87988262,0.050827376316301,0.0,-13311.0,1.0,1545.0,1405.4943911445182,0.0,0.0,2.675780976,0.05978406204470475,0.0,2405.0,2.625,-1582.5,-1657.7297061801482,0.0,0.0,4.038085524,4.903275015658551,0.0,-5766.0,1.5,1605.0,1405.4943911445182,0.0,0.0,2.556152082,4.8877340579983475,0.0,1.2899999618530273,-2.5299999713897705,32.040000915527344,-0.20233154296875,0.1129150390625,1.2052001953125,26.18000030517578,0.0,-80.0,-2.324920654296875,-0.5956878662109375,Waiting,0.0,0.0,-114.0,0.0,0.0,0.0,0.0,0.0,
2.7905570000000006,0.0,0.0,false,4390122.806959404,,-7351.0,5.0,-1567.5,-1835.0994138165386,0.0,0.0,1.877441214,0.10584736459296686,0.0,-13311.0,0.375,1462.5,1261.1452109268744,0.0,0.0,2.719726284,0.15407543537704954,0.0,2405.0,5.0,-1612.5,-1835.0994138165386,0.0,0.0,4.018554276000001,4.848365865392112,0.0,-5766.0,1.125,1477.5,1261.1452109268744,0.0,0.0,2.517089586,4.793471263582956,0.0,1.159999966621399,-2.2899999618530273,32.0099983215332,0.22821044921875,-0.09759521484375,0.57928466796875,26.18000030517578,0.0,155.0,-2.3509368896484375,-0.59710693359375,Waiting,0.0,0.0,-114.0,0.0,0.0,0.0,0.0,0.0,
2.869890000000014,0.0,0.0,false,4389840.404224477,,-7612.0,6.625,-1650.0,-1919.5554191333558,0.0,0.0,1.884765432,0.12776259098933263,0.0,-13075.0,0.125,1477.5,1201.6648815541118,0.0,0.0,2.821044633,0.2048900961597351,0.0,2142.0,6.125,-1687.5,-1919.5554191333558,0.0,0.0,3.9880367010000004,4.826494787316448,0.0,-5543.0,0.875,1357.5,1201.6648815541118,0.0,0.0,2.4291989700000003,4.7426720042937385,0.0,1.2200000286102295,-2.059999942779541,32.75,0.07489013671875,0.137939453125,0.39263916015625,26.18000030517578,0.0,144.0,-2.3744049072265625,-0.60015869140625,Waiting,0.0,0.0,-114.0,0.0,0.0,0.0,0.0,0.0,
2.9477360000000044,0.0,0.0,false,4389532.152380953,,-7887.0,7.625,-1702.5,-1942.7639779797355,0.0,0.0,1.881103323,0.13941127947863244,0.0,-12858.0,0.125,1380.0,1154.9682162220438,0.0,0.0,2.8930661100000004,0.23610255190252644,0.0,1857.0,6.25,-1755.0,-1942.7639779797355,0.0,0.0,3.9550777200000002,4.814869565161736,0.0,-5326.0,0.75,1365.0,1154.9682162220438,0.0,0.0,2.3718259290000003,4.711469008782027,0.0,1.4500000476837158,-1.8799999952316284,34.47999954223633,-0.05914306640625,0.0377197265625,0.9390869140625,26.18000030517578,0.0,-15.0,-2.3947296142578125,-0.6041107177734375,Waiting,0.0,0.0,-114.0,0.0,0.0,0.0,0.0,0.0,
3.025646000000008,0.0,0.0,false,4389205.8621403435,,-7887.0,8.0,-1770.0,-1971.4677822762537,0.0,0.0,1.8908689470000002,0.1460417960674453,0.0,-12858.0,0.125,1252.5,1137.4450433793518,0.0,0.0,2.924804388,0.2553769384094005,0.0,1857.0,6.0,-1815.0,-1971.4677822762537,0.0,0.0,3.9404292840000004,4.808252405777977,0.0,-5326.0,0.375,1350.0,1137.4450433793518,0.0,0.0,2.3278806210000003,4.692200464178519,0.0,1.6299999952316284,-1.6399999856948853,37.029998779296875,0.16455078125,0.03564453125,0.586669921875,26.18000030517578,0.0,-38.0,-2.4150238037109375,-0.606597900390625,Waiting,0.0,0.0,-114.0,0.0,0.0,0.0,0.0,0.0,
3.110015000000014,0.0,0.0,false,4389264.309602649,,-8183.0,7.375,-1867.5,-1971.4677822762537,0.0,0.0,1.8945310560000002,0.1460417960674453,0.0,-12667.0,0.125,1177.5,1137.4450433793518,0.0,0.0,2.928466497,0.2553769384094005,0.0,1560.0,5.625,-1882.5,-1971.4677822762537,0.0,0.0,3.9404292840000004,4.808252405777977,0.0,-5122.0,0.625,1200.0,1137.4450433793518,0.0,0.0,2.3229978090000003,4.692200464178519,0.0,1.8700000047683716,-1.649999976158142,40.939998626708984,-0.107177734375,0.22125244140625,1.2025146484375,26.18000030517578,0.0,64.0,-2.4283599853515625,-0.6067962646484375,Waiting,0.0,0.0,-114.0,0.0,0.0,0.0,0.0,0.0,
3.186831999999995,0.0,0.0,false,4389294.447341196,,-8481.0,7.5,-1875.0,-1985.8706273622943,0.0,0.125,1.8969724620000001,0.14928506216150414,0.0,-12479.0,0.125,1170.0,1128.9447775153046,0.0,0.0,2.9296872,0.2652355532000886,0.0,1253.0,5.75,-1912.5,-1985.8706273622943,0.0,0.0,3.9404292840000004,4.805015673257838,0.0,-4933.0,0.75,1170.0,1128.9447775153046,0.0,0.0,2.3193357000000003,4.682344837450508,0.0,1.9800000190734863,-1.4299999475479126,44.34000015258789,0.12689208984375,0.085205078125,0.44940185546875,26.219999313354492,0.0,147.0,-2.4383697509765625,-0.6036529541015625,Waiting,0.0,0.0,-114.0,0.0,0.0,0.0,0.0,0.0,
3.2664610000000103,0.0,0.0,false,4389303.169218039,,-8481.0,8.375,-1867.5,-2000.3065115355844,0.0,0.125,1.907958789,0.15248158142669727,0.0,-12479.0,0.25,1155.0,1120.6240071544814,0.0,0.0,2.930907903,0.2752421957114681,0.0,1253.0,5.5,-1927.5,-2000.3065115355844,0.0,0.0,3.9404292840000004,4.801825593394871,0.0,-4933.0,0.625,1200.0,1120.6240071544814,0.0,0.0,2.3242185120000003,4.672341227867753,0.0,2.180000066757202,-1.6799999475479126,47.72999954223633,0.0606689453125,0.113525390625,1.47088623046875,26.219999313354492,0.0,112.0,-2.4451446533203125,-0.5999908447265625,Waiting,0.0,0.0,-114.0,0.0,0.0,0.0,0.0,0.0,
3.3441059999999996,0.0,0.0,false,4389290.463702172,,-8784.0,9.125,-1875.0,-2000.3065115355844,0.0,0.0,1.907958789,0.15248158142669727,0.0,-12295.0,0.125,1155.0,1120.6240071544814,0.0,0.0,2.9296872,0.2752421957114681,0.0,939.0,5.25,-1965.0,-2000.3065115355844,0.0,0.0,3.9355464720000004,4.801825593394871,0.0,-4745.0,0.625,1147.5,1120.6240071544814,0.0,0.0,2.3181149970000003,4.672341227867753,0.0,2.190000057220459,-1.5399999618530273,51.86000061035156,-0.0035400390625,0.03436279296875,0.41162109375,26.219999313354492,0.0,19.0,-2.44915771484375,-0.595245361328125,Waiting,0.0,0.0,-114.0,0.0,0.0,0.0,0.0,0.0,
3.4165290000000095,0.0,0.0,false,4389256.368899917,,-9084.0,10.25,-1882.5,-2000.3065115355844,0.0,0.0,1.9140623040000002,0.15248158142669727,0.0,-12111.0,0.125,1147.5,1120.6240071544814,0.0,0.0,2.9296872,0.2752421957114681,0.0,628.0,5.75,-1942.5,-2000.3065115355844,0.0,0.0,3.9501949080000003,4.801825593394871,0.0,-4559.0,0.625,1155.0,1120.6240071544814,0.0,0.0,2.314452888,4.672341227867753,0.0,2.4100000858306885,-1.7599999904632568,55.43000030517578,-0.06695556640625,0.11566162109375,1.32342529296875,26.219999313354492,0.0,34.0,-2.447662353515625,-0.59027099609375,Waiting,0.0,0.0,-114.0,0.0,0.0,0.0,0.0,0.0,
3.5149219999999914,0.0,0.0,false,4389200.89807732,,-9084.0,10.25,-1905.0,-2000.3065115355844,0.0,0.0,1.9226072250000001,0.15248158142669727,0.0,-12111.0,0.125,1162.5,1120.6240071544814,0.0,0.0,2.935790715,0.2752421957114681,0.0,628.0,5.5,-1972.5,-2000.3065115355844,0.0,0.0,3.93066366,4.801825593394871,0.0,-4559.0,0.5,1155.0,1120.6240071544814,0.0,0.0,2.3181149970000003,4.672341227867753,0.0,2.559999942779541,-1.8300000429153442,59.86000061035156,-0.00250244140625,0.1510009765625,1.1368408203125,26.219999313354492,0.0,103.0,-2.4429473876953125,-0.581939697265625,Waiting,0.0,0.0,-114.0,0.0,0.0,0.0,0.0,0.0,
3.592008999999991,0.0,0.0,false,4389117.19388177,,-9393.0,10.0,-1942.5,-2000.3065115355844,0.0,0.0,1.9238279280000001,0.15248158142669727,0.0,-11922.0,0.125,1177.5,1120.6240071544814,0.0,0.0,2.932128606,0.2752421957114681,0.0,306.0,4.75,-2017.5,-2000.3065115355844,0.0,0.0,3.931884363,4.801825593394871,0.0,-4373.0,0.5,1155.0,1120.6240071544814,0.0,0.0,2.3181149970000003,4.672341227867753,0.0,2.619999885559082,-1.8300000429153442,63.56999969482422,0.21160888671875,0.2596435546875,0.89410400390625,26.219999313354492,0.0,301.0,-2.43292236328125,-0.571533203125,Waiting,0.0,0.0,-114.0,0.0,0.0,0.0,0.0,0.0,
3.668396000000008,0.0,0.0,false,4389012.118206241,,-9714.0,9.625,-1972.5,-2000.3065115355844,0.0,0.0,1.926269334,0.15248158142669727,0.0,-11734.0,0.125,1170.0,1120.6240071544814,0.0,0.0,2.935790715,0.2752421957114681,0.0,-17.0,4.5,-2017.5,-2000.3065115355844,0.0,0.0,3.931884363,4.801825593394871,0.0,-4188.0,0.375,1155.0,1120.6240071544814,0.0,0.0,2.316894294,4.672341227867753,0.0,2.75,-1.8300000429153442,67.29000091552734,0.033447265625,0.24896240234375,1.1361083984375,26.219999313354492,0.0,206.0,-2.423431396484375,-0.5651702880859375,Waiting,0.0,0.0,-114.0,0.0,0.0,0.0,0.0,0.0,
3.7433179999999995,0.0,0.0,false,4388878.841322314,,-9714.0,9.125,-2002.5,-2000.3065115355844,0.0,0.0,1.9201658190000002,0.15248158142669727,0.0,-11734.0,0.125,1147.5,1120.6240071544814,0.0,0.0,2.935790715,0.2752421957114681,0.0,-17.0,4.625,-2010.0,-2000.3065115355844,0.0,0.0,3.93066366,4.801825593394871,0.0,-4188.0,0.375,1147.5,1120.6240071544814,0.0,0.0,2.308349373,4.672341227867753,0.0,2.8399999141693115,-1.8200000524520874,71.11000061035156,0.0997314453125,0.1031494140625,0.52996826171875,26.239999771118164,0.0,110.0,-2.4091796875,-0.5579833984375,Waiting,0.0,0.0,-114.0,0.0,0.0,0.0,0.0,0.0,
3.8131270000000077,0.0,0.0,false,4388724.247056393,,-10029.0,9.75,-1972.5,-2000.3065115355844,0.0,0.0,1.927490037,0.15248158142669727,0.0,-11550.0,0.125,1147.5,1120.6240071544814,0.0,0.0,2.935790715,0.2752421957114681,0.0,-335.0,5.125,-1987.5,-2000.3065115355844,0.0,0.0,3.929442957,4.801825593394871,0.0,-4003.0,0.375,1155.0,1120.6240071544814,0.0,0.0,2.308349373,4.672341227867753,0.0,2.9700000286102295,-2.049999952316284,74.87999725341797,0.0345458984375,0.22161865234375,1.353271484375,26.239999771118164,0.0,167.0,-2.3926849365234375,-0.5515594482421875,Waiting,0.0,0.0,-114.0,0.0,0.0,0.0,0.0,0.0,
3.888872000000003,0.0,0.0,false,4388548.348616274,,-10029.0,9.5,-1965.0,-2000.3065115355844,0.0,0.0,1.929931443,0.15248158142669727,0.0,-11550.0,0.125,1177.5,1120.6240071544814,0.0,0.0,2.934570012,0.2752421957114681,0.0,-335.0,5.125,-1987.5,-2000.3065115355844,0.0,0.0,3.931884363,4.801825593394871,0.0,-4003.0,0.375,1177.5,1120.6240071544814,0.0,0.0,2.314452888,4.672341227867753,0.0,3.0899999141693115,-2.180000066757202,77.83999633789062,-0.04547119140625,0.1165771484375,1.3514404296875,26.239999771118164,0.0,43.0,-2.377105712890625,-0.54638671875,Waiting,0.0,0.0,-114.0,0.0,0.0,0.0,0.0,0.0,
3.9637909999999974,0.0,0.0,false,4388351.932273384,,-10349.0,5.25,-2010.0,-1508.031527996063,0.0,0.0,1.933593552,4.963999999999999,0.0,-11360.0,0.75,1222.5,1508.031527996063,0.0,0.0,2.933349309,4.948999999999997,0.0,-655.0,0.125,-1927.5,-1508.031527996063,0.0,0.0,3.929442957,2.346685808637024E-15,0.0,-3816.0,1.75,1200.0,1508.031527996063,0.0,0.0,2.3193357000000003,2.343606790115397E-15,0.0,3.1700000762939453,-2.2200000286102295,81.66999816894531,-0.0928955078125,0.150146484375,1.18536376953125,26.239999771118164,0.0,76.0,-2.3545074462890625,-0.5403900146484375,Waiting,0.0,0.0,-114.0,0.0,0.0,0.0,0.0,0.0,
4.036619999999996,0.0,0.0,false,4388134.213047069,,-10639.0,3.0,-1815.0,-1508.031527996063,0.0,0.0,1.932372849,4.963999999999999,0.0,-11147.0,1.25,1327.5,1508.031527996063,0.0,0.0,2.916259467,4.948999999999997,0.0,-933.0,0.125,-1732.5,-1508.031527996063,0.0,0.0,3.9355464720000004,2.346685808637024E-15,0.0,-3608.0,2.375,1312.5,1508.031527996063,0.0,0.0,2.359618899,2.343606790115397E-15,0.0,3.2300000190734863,-2.180000066757202,85.13999938964844,0.015380859375,0.1129150390625,1.12640380859375,26.239999771118164,0.0,53.0,-2.3287353515625,-0.5363616943359375,Waiting,0.0,0.0,-114.0,0.0,0.0,0.0,0.0,0.0,
4.1123660000000095,0.0,0.0,false,4387888.368214655,,-10639.0,1.625,-1785.0,-1210.3937244415283,0.0,0.0,1.92871074,4.963999999999999,0.0,-11147.0,1.375,1297.5,1210.3937244415283,0.0,0.0,2.772216513,4.948999999999997,0.0,-933.0,0.0,-1747.5,-1210.3937244415283,0.0,0.0,3.975829671,2.346685808637024E-15,0.0,-3608.0,2.0,1155.0,1210.3937244415283,0.0,0.0,2.452392327,2.343606790115397E-15,0.0,3.299999952316284,-1.899999976158142,88.29000091552734,0.0999755859375,0.031005859375,0.57098388671875,26.239999771118164,0.0,1.0,-2.2997894287109375,-0.534698486328125,Waiting,0.0,0.0,-114.0,0.0,0.0,0.0,0.0,0.0,
4.186046999999991,0.0,0.0,false,4387621.274453158,,-10910.0,0.0,-1620.0,0.0,0.0,0.0,1.932372849,4.963999999999999,0.0012207030000004337,-10968.0,0.125,1057.5,0.0,0.0,0.0,2.6904294120000003,4.948999999999997,-0.1281738149999998,-1199.0,0.0,-1590.0,0.0,0.0,0.0,4.000243731,2.346685808637024E-15,0.035400386999999256,-3439.0,0.875,982.5,0.0,0.0,0.0,2.50244115,2.343606790115397E-15,0.09155272500000056,3.2799999713897705,-1.7699999809265137,90.47000122070312,0.29254150390625,0.18621826171875,1.46392822265625,26.239999771118164,0.0,99.0,-2.27081298828125,-0.537200927734375,Waiting,0.0,0.0,-114.0,0.0,0.0,0.0,0.0,0.0,
4.2603809999999935,0.0,0.0,false,4387332.94491438,,-10910.0,0.0,-1417.5,0.0,0.0,0.0,1.9226072250000001,4.963999999999999,0.0,-10818.0,0.0,937.5,0.0,0.0,0.0,2.6867673030000003,4.948999999999997,0.0,-1414.0,0.0,-1432.5,0.0,0.0,0.0,4.00390584,2.346685808637024E-15,0.0,-3287.0,0.0,937.5,0.0,0.0,0.0,2.50244115,2.343606790115397E-15,0.0,3.299999952316284,-1.149999976158142,91.69000244140625,0.07208251953125,0.15771484375,1.58428955078125,26.200000762939453,0.0,62.0,-2.2415618896484375,-0.547027587890625,Waiting,0.0,0.0,-114.0,0.0,0.0,0.0,0.0,0.0,
4.328038,0.0,0.0,false,4387023.392739274,,-11121.0,0.0,-1185.0,0.0,0.0,0.0,1.8933103530000002,4.963999999999999,-0.014648435999999876,-10818.0,0.0,945.0,0.0,0.0,0.0,2.681884491,4.948999999999997,-0.004882811999999959,-1414.0,0.0,-1177.5,0.0,0.0,0.0,4.020995682000001,2.346685808637024E-15,0.004882811999999959,-3287.0,0.0,960.0,0.0,0.0,0.0,2.508544665,2.343606790115397E-15,0.0012207029999995456,3.2200000286102295,-0.5699999928474426,92.31999969482422,0.15557861328125,0.05291748046875,1.398193359375,26.200000762939453,0.0,-32.0,-2.212738037109375,-0.562957763671875,Waiting,0.0,0.0,-114.0,0.0,0.0,0.0,0.0,0.0,
4.408483999999997,0.0,0.0,false,4387090.0342338625,,-11278.0,0.0,-997.5,0.0,0.0,0.0,1.8701169960000001,4.963999999999999,-0.028076169000000206,-10678.0,0.0,877.5,0.0,0.0,0.0,2.679443085,4.948999999999997,-0.004882812000000847,-1573.0,0.0,-967.5,0.0,0.0,0.0,4.005126543,2.346685808637024E-15,0.0,-3151.0,0.0,825.0,0.0,0.0,0.0,2.508544665,2.343606790115397E-15,0.004882811999999959,3.0799999237060547,0.029999999329447746,92.63999938964844,0.09423828125,-0.1318359375,1.1553955078125,26.200000762939453,0.0,-197.0,-2.1850128173828125,-0.5849761962890625,Waiting,0.0,0.0,-114.0,0.0,0.0,0.0,0.0,0.0,
4.47996100000001,0.0,0.0,false,4387132.5146391755,,-11278.0,5.625,-727.5,164.0625,0.0,1.0,1.8652341840000002,0.5533560492066917,0.0,-10678.0,2.875,690.0,164.0625,0.0,1.125,2.609863014,4.397316058113637,0.0,-1573.0,6.0,-735.0,164.0625,0.0,1.125,3.984374592,4.40175868900686,0.0,-3151.0,1.75,705.0,164.0625,0.0,1.75,2.5793454390000004,0.5515167311543303,0.0,2.930000066757202,1.309999942779541,92.80999755859375,0.55499267578125,-0.0711669921875,0.5814208984375,26.200000762939453,0.0,-127.0,-2.15936279296875,-0.614593505859375,Waiting,0.0,0.0,-114.0,0.0,0.0,0.0,0.0,0.0,
4.560857000000018,0.0,0.0,false,4387152.537621109,,-11344.0,17.75,-82.5,1246.875,0.0,0.375,2.0703122880000002,0.5533560492066917,0.0,-10624.0,1.25,210.0,1246.875,0.0,0.0,2.3315427300000002,4.397316058113637,0.0,-1623.0,23.75,0.0,1246.875,0.0,0.125,3.6914058720000003,4.40175868900686,0.0,-3065.0,0.625,450.0,1246.875,0.0,0.25,2.883300486,0.5515167311543303,0.0,2.880000114440918,2.9000000953674316,91.87000274658203,0.2117919921875,0.0494384765625,1.46563720703125,26.200000762939453,0.0,-28.0,-2.1309051513671875,-0.6721343994140625,Waiting,0.0,0.0,-114.0,0.0,0.0,0.0,0.0,0.0,
4.6349230000000095,0.0,0.0,false,4387150.117065128,,-11285.0,7.25,360.0,0.0,0.0,0.5,2.348632572,0.5533560492066917,0.24169919400000062,-10564.0,1.875,405.0,0.0,0.0,0.375,2.188720479,4.397316058113637,-0.28930661099999977,-1596.0,10.0,180.0,0.0,0.0,0.0,3.4790035500000003,4.40175868900686,-0.274658174999999,-3008.0,0.5,352.5,0.0,0.0,0.0,3.089599293,0.5515167311543303,0.3100585619999996,2.309999942779541,2.9800000190734863,89.08999633789062,-0.1199951171875,-0.1346435546875,1.10723876953125,26.200000762939453,0.0,-182.0,-2.1085968017578125,-0.7273406982421875,Waiting,0.0,0.0,-114.0,0.0,0.0,0.0,0.0,0.0,
4.71097099999999,0.0,0.0,false,4387124.6799917575,,-11285.0,0.0,142.5,0.0,0.0,0.125,2.504882556,0.5533560492066917,0.2722167689999999,-10564.0,0.0,82.5,0.0,0.0,0.0,2.143554468,4.397316058113637,-0.12451170599999983,-1596.0,0.0,240.0,0.0,0.0,0.0,3.38134731,4.40175868900686,-0.2160644310000004,-3008.0,0.0,105.0,0.0,0.0,0.0,3.1628414730000003,0.5515167311543303,0.20507810400000004,2.1700000762939453,2.5199999809265137,87.48999786376953,0.02825927734375,0.16534423828125,1.27288818359375,26.190000534057617,0.0,115.0,-2.1007080078125,-0.7781829833984375,Waiting,0.0,0.0,-114.0,0.0,0.0,0.0,0.0,0.0,
4.787584999999992,0.0,0.0,false,4387076.827358879,,-11278.0,0.625,67.5,738.28125,0.0,0.0,2.542724349,0.5533560492066917,0.0,-10553.0,1.0,97.5,738.28125,0.0,0.0,2.125243923,4.397316058113637,0.0,-1562.0,0.75,187.5,738.28125,0.0,0.0,3.385009419,4.40175868900686,0.0,-2983.0,0.5,210.0,738.28125,0.0,0.0,3.1665035820000003,0.5515167311543303,0.0,2.380000114440918,2.5999999046325684,86.87999725341797,0.05816650390625,0.00732421875,0.968505859375,26.190000534057617,0.0,-32.0,-2.0989837646484375,-0.818023681640625,Waiting,0.0,0.0,-114.0,0.0,0.0,0.0,0.0,0.0,
4.8568319999999945,0.0,0.0,false,4387006.573017508,,-11224.0,2.25,315.0,869.53125,0.0,0.0,2.542724349,0.5533560492066917,0.0,-10501.0,4.0,300.0,869.53125,0.0,0.0,2.125243923,4.397316058113637,0.0,-1520.0,3.75,217.5,869.53125,0.0,0.0,3.399657855,4.40175868900686,0.0,-2940.0,2.875,270.0,869.53125,0.0,0.0,3.1701656910000002,0.5515167311543303,0.0,2.059999942779541,2.5,85.44000244140625,-6.103515625E-5,-0.13323974609375,1.12701416015625,26.190000534057617,0.0,-177.0,-2.097015380859375,-0.8171844482421875,Waiting,0.0,0.0,-114.0,0.0,0.0,0.0,0.0,0.0,
4.938592000000004,0.0,0.0,false,4386913.930807249,,-11224.0,0.375,232.5,0.0,0.0,0.0,2.512206774,0.5533560492066917,-0.0012207030000004337,-10501.0,0.75,210.0,0.0,0.0,0.0,2.102050566,4.397316058113637,-0.0012207029999995456,-1520.0,0.625,262.5,0.0,0.0,0.0,3.433837539,4.40175868900686,0.01586913900000031,-2940.0,0.5,262.5,0.0,0.0,0.0,3.1677242850000003,0.5515167311543303,0.0,1.7799999713897705,2.390000104904175,82.95999908447266,0.00933837890625,0.0888671875,0.95208740234375,26.190000534057617,0.0,54.0,-2.0997772216796875,-0.8142852783203125,Waiting,0.0,0.0,-114.0,0.0,0.0,0.0,0.0,0.0,
5.011644,0.0,0.0,false,4386798.9145563105,,-11209.0,0.0,82.5,0.0,0.0,0.0,2.45361303,0.5533560492066917,-0.0341796840000006,-10482.0,0.0,97.5,0.0,0.0,0.0,2.086181427,4.397316058113637,0.0,-1495.0,0.0,142.5,0.0,0.0,0.0,3.446044569,4.40175868900686,0.0,-2913.0,0.0,127.5,0.0,0.0,0.0,3.1555172550000004,0.5515167311543303,0.0,1.8799999952316284,2.369999885559082,81.27999877929688,0.097900390625,0.16522216796875,0.978271484375,26.190000534057617,0.0,140.0,-2.1000518798828125,-0.8100128173828125,Waiting,0.0,0.0,-114.0,0.0,0.0,0.0,0.0,0.0,
5.086107000000018,0.0,0.0,false,4386661.538081515,,-11209.0,0.0,60.0,0.0,0.0,0.0,2.4255368610000003,0.5533560492066917,-0.06469725899999901,-10482.0,0.0,97.5,0.0,0.0,0.0,2.086181427,4.397316058113637,-0.014648435999999876,-1495.0,0.0,172.5,0.0,0.0,0.0,3.448485975,4.40175868900686,0.009765623999999917,-2913.0,0.0,60.0,0.0,0.0,0.0,3.143310225,0.5515167311543303,-0.014648435999999876,1.899999976158142,2.319999933242798,81.2300033569336,-0.05377197265625,0.063232421875,1.05523681640625,26.190000534057617,0.0,13.0,-2.09912109375,-0.805511474609375,Waiting,0.0,0.0,-114.0,0.0,0.0,0.0,0.0,0.0,
5.151561000000016,0.0,0.0,false,4386501.81518831,,-11200.0,0.0,15.0,0.0,0.0,0.0,2.4255368610000003,0.5533560492066917,0.0,-10473.0,0.0,7.5,0.0,0.0,0.0,2.091064239,4.397316058113637,0.0,-1475.0,0.0,52.5,0.0,0.0,0.0,3.449706678,4.40175868900686,0.0,-2906.0,0.0,0.0,0.0,0.0,0.0,3.13720671,0.5515167311543303,0.0,1.8200000524520874,2.109999895095825,81.69999694824219,-0.0166015625,0.0013427734375,1.06329345703125,26.190000534057617,0.0,-40.0,-2.099090576171875,-0.7992401123046875,Waiting,0.0,0.0,-114.0,0.0,0.0,0.0,0.0,0.0,
5.2311630000000005,0.0,0.0,false,4386319.173662552,,-11200.0,0.0,0.0,147.65625,0.0,0.0,2.4255368610000003,0.5533560492066917,0.0,-10473.0,0.0,0.0,147.65625,0.0,0.0,2.102050566,4.397316058113637,0.0,-1476.0,0.0,0.0,147.65625,0.0,0.0,3.448485975,4.40175868900686,0.0,-2906.0,0.0,0.0,147.65625,0.0,0.0,3.138427413,0.5515167311543303,0.0,1.7300000190734863,2.049999952316284,81.91000366210938,0.0147705078125,0.01611328125,0.94427490234375,26.219999313354492,0.0,-15.0,-2.100128173828125,-0.7933502197265625,Waiting,0.0,0.0,-114.0,0.0,0.0,0.0,0.0,0.0,
5.310440999999992,0.0,0.0,false,4386114.213536309,,-11200.0,1.0,15.0,574.21875,0.0,0.0,2.4267575640000003,0.5533560492066917,0.0,-10473.0,0.875,7.5,574.21875,0.0,0.0,2.1105954870000003,4.397316058113637,0.0,-1476.0,1.75,0.0,574.21875,0.0,0.0,3.447265272,4.40175868900686,0.0,-2906.0,1.125,67.5,574.21875,0.0,0.0,3.134765304,0.5515167311543303,0.0,1.7400000095367432,1.8700000047683716,81.7699966430664,-0.04315185546875,-0.02435302734375,1.05224609375,26.219999313354492,0.0,-66.0,-2.100250244140625,-0.7832183837890625,Waiting,0.0,0.0,-114.0,0.0,0.0,0.0,0.0,0.0,
5.385358000000007,0.0,0.0,false,4385886.948580831,,-11179.0,0.25,142.5,0.0,0.0,0.0,2.419433346,0.5533560492066917,0.0,-10452.0,0.875,150.0,0.0,0.0,0.0,2.1105954870000003,4.397316058113637,0.004882811999999959,-1469.0,0.875,45.0,0.0,0.0,0.0,3.449706678,4.40175868900686,0.0012207029999995456,-2887.0,0.625,135.0,0.0,0.0,0.0,3.133544601,0.5515167311543303,-0.003662108999999969,1.7000000476837158,1.7899999618530273,80.86000061035156,-7.32421875E-4,-0.0736083984375,1.0496826171875,26.219999313354492,0.0,-108.0,-2.1013946533203125,-0.7755126953125,Waiting,0.0,0.0,-114.0,0.0,0.0,0.0,0.0,0.0,
5.462907000000007,0.0,0.0,false,4385637.392556035,,-11180.0,0.0,37.5,0.0,0.0,0.0,2.419433346,0.5533560492066917,0.0,-10452.0,0.0,15.0,0.0,0.0,0.0,2.1105954870000003,4.397316058113637,0.0,-1468.0,0.0,15.0,0.0,0.0,0.0,3.449706678,4.40175868900686,0.0,-2886.0,0.0,0.0,0.0,0.0,0.0,3.132323898,0.5515167311543303,0.0,1.6100000143051147,1.6799999475479126,80.26000213623047,-0.01629638671875,0.057373046875,1.2425537109375,26.219999313354492,0.0,12.0,-2.1032257080078125,-0.7752227783203125,Waiting,0.0,0.0,-114.0,0.0,0.0,0.0,0.0,0.0,
5.532331000000005,0.0,0.0,false,4385365.559210527,,-11180.0,0.0,0.0,0.0,0.0,0.0,2.419433346,0.5533560492066917,0.0,-10452.0,0.0,0.0,0.0,0.0,0.0,2.1105954870000003,4.397316058113637,0.0,-1468.0,0.0,0.0,0.0,0.0,0.0,3.449706678,4.40175868900686,0.0,-2886.0,0.0,0.0,0.0,0.0,0.0,3.133544601,0.5515167311543303,0.0,1.6200000047683716,1.600000023841858,80.26000213623047,-0.01971435546875,0.0311279296875,1.0283203125,26.219999313354492,0.0,-6.0,-2.1032257080078125,-0.7738494873046875,Waiting,0.0,0.0,-114.0,0.0,0.0,0.0,0.0,0.0,
5.608554999999993,0.0,0.0,false,4385071.462281603,,-11180.0,0.0,0.0,0.0,0.0,0.0,2.419433346,0.5533560492066917,0.0,-10452.0,0.0,0.0,0.0,0.0,0.0,2.1105954870000003,4.397316058113637,0.0,-1468.0,0.0,0.0,0.0,0.0,0.0,3.449706678,4.40175868900686,0.0,-2886.0,0.0,0.0,0.0,0.0,0.0,3.133544601,0.5515167311543303,0.0,1.590000033378601,1.5,80.55000305175781,0.013916015625,0.00335693359375,1.0059814453125,26.219999313354492,0.0,-26.0,-2.1034393310546875,-0.7712249755859375,Waiting,0.0,0.0,-114.0,0.0,0.0,0.0,0.0,0.0,
5.684488000000012,0.0,0.0,false,4384754.530209618,,-11180.0,0.0,0.0,0.0,0.0,0.0,2.419433346,0.5533560492066917,0.0,-10452.0,0.0,0.0,0.0,0.0,0.0,2.122802517,4.397316058113637,0.0012207030000004337,-1468.0,0.0,0.0,0.0,0.0,0.0,3.449706678,4.40175868900686,0.0,-2886.0,0.0,0.0,0.0,0.0,0.0,3.133544601,0.5515167311543303,0.0012207029999999897,1.5499999523162842,1.440000057220459,80.80000305175781,5.4931640625E-4,0.02142333984375,0.95782470703125,26.219999313354492,0.0,-8.0,-2.10369873046875,-0.77105712890625,Waiting,0.0,0.0,-114.0,0.0,0.0,0.0,0.0,0.0,
5.767640000000014,0.0,0.0,false,4384811.422231354,,-11180.0,0.0,0.0,0.0,0.0,0.0,2.420654049,0.5533560492066917,0.0,-10452.0,0.0,0.0,0.0,0.0,0.0,2.1105954870000003,4.397316058113637,0.0,-1468.0,0.0,0.0,0.0,0.0,0.0,3.449706678,4.40175868900686,0.0,-2886.0,0.0,0.0,0.0,0.0,0.0,3.133544601,0.5515167311543303,-0.0012207029999999897,1.5299999713897705,1.3600000143051147,80.88999938964844,-0.00408935546875,0.005859375,0.97515869140625,26.229999542236328,0.0,-24.0,-2.103729248046875,-0.77008056640625,Waiting,0.0,0.0,-114.0,0.0,0.0,0.0,0.0,0.0,
5.832736999999994,0.0,0.0,false,4384845.135579294,,-11180.0,0.0,0.0,0.0,0.0,0.0,2.420654049,0.5533560492066917,0.0,-10452.0,0.0,0.0,0.0,0.0,0.0,2.1105954870000003,4.397316058113637,0.0,-1468.0,0.0,0.0,0.0,0.0,0.0,3.449706678,4.40175868900686,0.0,-2886.0,0.0,0.0,0.0,0.0,0.0,3.132323898,0.5515167311543303,0.0,1.4900000095367432,1.2799999713897705,80.83000183105469,0.00347900390625,0.01800537109375,0.97979736328125,26.229999542236328,0.0,-10.0,-2.104095458984375,-0.76824951171875,Waiting,0.0,0.0,-114.0,0.0,0.0,0.0,0.0,0.0,
5.909853999999992,0.0,0.0,false,4384862.767714109,,-11180.0,0.0,0.0,-198.42519611120224,0.0,0.0,2.415771237,1.2409999999999985,0.0,-10452.0,0.0,0.0,-198.42519611120224,0.0,2.5,2.0117185440000003,3.711749999999998,0.0,-1468.0,0.0,0.0,198.42519611120224,0.0,3.125,3.242187168,3.7154999999999982,0.0,-2886.0,0.0,0.0,198.42519611120224,0.0,0.0,3.133544601,1.2368749999999984,0.0,1.4700000286102295,1.2200000286102295,80.80999755859375,-0.03009033203125,0.07135009765625,0.99810791015625,26.229999542236328,0.0,36.0,-2.10406494140625,-0.7682037353515625,Waiting,0.0,0.0,-114.0,0.0,0.0,0.0,0.0,0.0,
5.983945000000007,0.0,0.0,false,4384857.246817249,,-11187.0,0.0,-45.0,-317.4803137779236,0.0,1.375,2.6342770740000003,1.2409999999999985,0.0,-10452.0,0.25,-15.0,-317.4803137779236,0.0,0.375,1.6284178020000002,3.711749999999998,0.0,-1462.0,0.5,67.5,317.4803137779236,0.0,0.0,2.871093456,3.7154999999999982,0.0,-2886.0,0.375,7.5,317.4803137779236,0.0,1.125,3.395995746,1.2368749999999984,0.0,1.4700000286102295,1.1799999475479126,80.80999755859375,-0.0062255859375,0.03033447265625,0.98138427734375,26.229999542236328,0.0,0.0,-2.1039276123046875,-0.7678680419921875,Waiting,0.0,0.0,-114.0,0.0,0.0,0.0,0.0,0.0,
6.053214999999996,0.0,0.0,false,4384828.58714843,,-11187.0,0.25,-105.0,-337.32282400131226,0.0,0.375,2.9455563390000004,1.2409999999999985,0.0,-10470.0,0.5,-112.5,-337.32282400131226,0.0,0.0,1.458740085,3.711749999999998,0.0,-1450.0,1.0,82.5,337.32282400131226,0.0,0.0,2.761230186,3.7154999999999982,0.0,-2883.0,0.75,22.5,337.32282400131226,0.0,0.25,3.6755367330000004,1.2368749999999984,0.0,1.2799999713897705,1.0499999523162842,80.87000274658203,-0.023193359375,-0.01654052734375,0.93536376953125,26.229999542236328,0.0,-43.0,-2.1046905517578125,-0.76678466796875,Waiting,0.0,0.0,-114.0,0.0,0.0,0.0,0.0,0.0,
6.130849000000016,0.0,0.0,false,4384776.311986864,,-11205.0,0.5,-105.0,-357.16537177562714,0.0,0.5,3.1115719470000003,1.2409999999999985,0.0,-10470.0,1.0,-90.0,-357.16537177562714,0.0,0.0,1.406249856,3.711749999999998,0.0,-1450.0,1.75,45.0,357.16537177562714,0.0,0.0,2.75878878,3.7154999999999982,0.0,-2883.0,1.75,15.0,357.16537177562714,0.0,0.25,3.813476172,1.2368749999999984,0.0,1.0399999618530273,1.0199999809265137,81.05000305175781,0.0521240234375,-0.12200927734375,0.8560791015625,26.229999542236328,0.0,-130.0,-2.1074676513671875,-0.7650909423828125,Waiting,0.0,0.0,-114.0,0.0,0.0,0.0,0.0,0.0,
6.195732000000018,0.0,0.0,false,4384700.926739175,,-11230.0,0.75,-150.0,-377.00788199901575,0.0,0.0,3.127441086,1.2409999999999985,0.0,-10493.0,2.0,-135.0,-377.00788199901575,0.0,0.0,1.406249856,3.711749999999998,0.0,-1432.0,2.0,105.0,377.00788199901575,0.0,0.0,2.755126671,3.7154999999999982,0.0,-2866.0,2.375,97.5,377.00788199901575,0.0,0.0,3.815917578,1.2368749999999984,0.0,0.7200000286102295,0.9700000286102295,81.11000061035156,0.0269775390625,-0.091796875,0.92864990234375,26.229999542236328,0.0,-100.0,-2.1130218505859375,-0.7645721435546875,Waiting,0.0,0.0,-114.0,0.0,0.0,0.0,0.0,0.0,
6.278410999999993,0.0,0.0,false,4384601.979482971,,-11230.0,0.875,-210.0,-377.00788199901575,0.0,0.0,3.127441086,1.2409999999999985,0.0,-10493.0,1.75,-202.5,-377.00788199901575,0.0,0.0,1.417236183,3.711749999999998,0.0,-1432.0,2.125,195.0,377.00788199901575,0.0,0.0,2.755126671,3.7154999999999982,0.0,-2866.0,1.5,195.0,377.00788199901575,0.0,0.0,3.809814063,1.2368749999999984,0.0,0.44999998807907104,0.9200000166893005,81.1500015258789,0.01885986328125,-0.08135986328125,0.8931884765625,26.200000762939453,0.0,-86.0,-2.1213226318359375,-0.764556884765625,Waiting,0.0,0.0,-114.0,0.0,0.0,0.0,0.0,0.0,
6.347738000000012,0.0,0.0,false,4384479.926153846,,-11276.0,0.5,-300.0,-377.00788199901575,0.0,0.0,3.127441086,1.2409999999999985,0.0,-10536.0,1.25,-292.5,-377.00788199901575,0.0,0.0,1.418456886,3.711749999999998,0.0,-1391.0,1.625,270.0,377.00788199901575,0.0,0.0,2.760009483,3.7154999999999982,0.0,-2826.0,1.625,270.0,377.00788199901575,0.0,0.0,3.811034766,1.2368749999999984,0.0,0.28999999165534973,0.8899999856948853,81.30000305175781,0.03204345703125,-0.037109375,0.88629150390625,26.200000762939453,0.0,-38.0,-2.1312103271484375,-0.76409912109375,Waiting,0.0,0.0,-114.0,0.0,0.0,0.0,0.0,0.0,
6.426421000000002,0.0,0.0,false,4384334.805578343,,-11332.0,0.25,-345.0,-377.00788199901575,0.0,0.0,3.127441086,1.2409999999999985,0.0,-10590.0,1.0,-337.5,-377.00788199901575,0.0,0.0,1.4270018070000001,3.711749999999998,0.0,-1337.0,1.25,322.5,377.00788199901575,0.0,0.0,2.755126671,3.7154999999999982,0.0,-2775.0,1.25,315.0,377.00788199901575,0.0,0.0,3.815917578,1.2368749999999984,0.0,0.25999999046325684,0.8100000023841858,81.43000030517578,-0.0625,0.10894775390625,1.02008056640625,26.200000762939453,0.0,91.0,-2.1423492431640625,-0.7633056640625,Waiting,0.0,0.0,-114.0,0.0,0.0,0.0,0.0,0.0,
6.49698000000001,0.0,0.0,false,4384173.7149887225,,-11332.0,0.25,-360.0,-377.00788199901575,0.0,0.0,3.126220383,1.2409999999999985,0.0,-10590.0,1.0,-345.0,-377.00788199901575,0.0,0.0,1.4257811040000001,3.711749999999998,0.0,-1337.0,1.375,345.0,377.00788199901575,0.0,0.0,2.760009483,3.7154999999999982,0.0,-2775.0,1.5,330.0,377.00788199901575,0.0,0.0,3.811034766,1.2368749999999984,0.0,0.3199999928474426,0.7599999904632568,81.52999877929688,0.01141357421875,0.07208251953125,0.93145751953125,26.200000762939453,0.0,65.0,-2.153289794921875,-0.761444091796875,Waiting,0.0,0.0,-114.0,0.0,0.0,0.0,0.0,0.0,
6.576918999999995,0.0,0.0,false,4383989.092250923,,-11391.0,0.125,-360.0,-309.0335377915584,0.0,0.375,3.127441086,0.8722235930500164,0.0,-10649.0,0.625,-367.5,-309.0335377915584,0.0,0.25,1.418456886,4.079412054390704,0.0,-1280.0,0.5,330.0,145.13071650284297,0.0,2.875,2.7404782350000003,2.7056854204284444,0.0,-2722.0,0.625,315.0,145.13071650284297,0.0,6.75,3.905028897,2.2453646310921003,0.0,0.38999998569488525,0.7099999785423279,81.66000366210938,0.00433349609375,0.08111572265625,0.86712646484375,26.200000762939453,0.0,73.0,-2.1635589599609375,-0.761199951171875,Waiting,0.0,0.0,-114.0,0.0,0.0,0.0,0.0,0.0,
6.661012000000017,0.0,0.0,false,4383781.442098791,,-11431.0,0.0,-292.5,0.0,0.0,0.25,2.8979489220000003,0.8722235930500164,0.0,-10677.0,0.0,-232.5,0.0,0.0,0.125,1.652831862,4.079412054390704,0.0,-1251.0,0.0,172.5,0.0,0.0,0.875,2.084960724,2.7056854204284444,0.0,-2698.0,0.0,217.5,0.0,0.0,0.875,4.5166011,2.2453646310921003,0.0,0.7699999809265137,0.6299999952316284,81.86000061035156,-0.00885009765625,0.14617919921875,1.0318603515625,26.200000762939453,0.0,127.0,-2.172332763671875,-0.759796142578125,Waiting,0.0,0.0,-114.0,0.0,0.0,0.0,0.0,0.0,
6.735257000000012,0.0,0.0,false,4383543.234426229,,-11431.0,0.0,-142.5,0.0,0.0,0.125,2.719726284,0.8722235930500164,-0.24536130300000014,-10677.0,0.0,-142.5,0.0,0.0,0.125,1.860351372,4.079412054390704,0.23681638200000021,-1251.0,0.0,195.0,0.0,0.0,0.625,1.6308592080000002,2.7056854204284444,-0.6066893909999997,-2698.0,0.0,0.0,0.0,0.0,0.25,4.93164012,2.2453646310921003,0.5712890039999996,1.440000057220459,0.6299999952316284,82.47000122070312,0.08135986328125,0.0552978515625,0.773193359375,26.219999313354492,0.0,45.0,-2.1721649169921875,-0.756500244140625,Waiting,0.0,0.0,-114.0,0.0,0.0,0.0,0.0,0.0,
6.813130000000005,0.0,0.0,false,4383281.540667896,,-11437.0,0.0,-30.0,0.0,0.0,0.0,2.701415739,0.8722235930500164,0.0,-10704.0,0.0,-172.5,0.0,0.0,0.0,1.884765432,4.079412054390704,0.0,-1234.0,0.0,97.5,0.0,0.0,0.0,1.613769366,2.7056854204284444,0.0,-2698.0,0.0,7.5,0.0,0.0,0.0,0.111083973,2.2453646310921003,0.42114253500000043,1.4500000476837158,0.6100000143051147,82.87000274658203,-0.0084228515625,0.02813720703125,0.85565185546875,26.219999313354492,0.0,4.0,-2.1702728271484375,-0.7553253173828125,Waiting,0.0,0.0,-114.0,0.0,0.0,0.0,0.0,0.0,
6.885633000000001,0.0,0.0,false,4383004.406390823,,-11437.0,0.0,-30.0,0.0,0.0,0.0,2.701415739,0.8722235930500164,-0.012207029999999897,-10704.0,0.0,-45.0,0.0,0.0,0.0,1.87988262,4.079412054390704,0.014648435999999876,-1234.0,0.0,0.0,0.0,0.0,0.0,1.674804516,2.7056854204284444,0.006103514999999948,-2698.0,0.0,15.0,0.0,0.0,0.0,0.017089842,2.2453646310921003,0.12328174399999936,1.590000033378601,0.4699999988079071,82.79000091552734,-0.00244140625,0.0499267578125,0.91583251953125,26.219999313354492,0.0,22.0,-2.169677734375,-0.7544097900390625,Waiting,0.0,0.0,-114.0,0.0,0.0,0.0,0.0,0.0,
6.952073999999993,0.0,0.0,false,4382703.8361662915,,-11438.0,0.0,0.0,0.0,0.0,0.0,2.6965329270000002,0.8722235930500164,0.0,-10706.0,0.0,0.0,0.0,0.0,0.0,1.8701169960000001,4.079412054390704,-0.004882811999999959,-1234.0,0.0,0.0,0.0,0.0,0.0,1.746825993,2.7056854204284444,0.0,-2697.0,0.0,0.0,0.0,0.0,0.0,4.898681139000001,2.2453646310921003,0.0,1.4800000190734863,0.5,82.7300033569336,0.0238037109375,-0.00994873046875,0.9525146484375,26.219999313354492,0.0,-32.0,-2.1689910888671875,-0.7545623779296875,Waiting,0.0,0.0,-114.0,0.0,0.0,0.0,0.0,0.0,
7.033540000000008,0.0,0.0,false,4382779.176085176,,-11438.0,0.0,0.0,0.0,0.0,0.0,2.701415739,0.8722235930500164,0.0012207029999995456,-10706.0,0.0,0.0,0.0,0.0,0.0,1.8701169960000001,4.079412054390704,-0.009765623999999917,-1234.0,0.0,0.0,0.0,0.0,0.0,1.781005677,2.7056854204284444,0.07812499199999978,-2696.0,0.0,0.0,0.0,0.0,0.0,4.8156733350000005,2.2453646310921003,-0.06346729699999942,1.4800000190734863,0.47999998927116394,82.69000244140625,-0.0240478515625,0.02947998046875,0.99114990234375,26.219999313354492,0.0,0.0,-2.1690216064453125,-0.7544708251953125,Waiting,0.0,0.0,-114.0,0.0,0.0,0.0,0.0,0.0,
7.1092900000000085,0.0,0.0,false,4382835.611054247,,-11438.0,0.0,-7.5,-317.4803137779236,0.0,6.5,2.4353024850000002,4.963999999999999,0.0,-10706.0,0.25,0.0,317.4803137779236,0.0,4.5,2.076415803,4.948999999999997,0.0,-1234.0,0.0,0.0,317.4803137779236,0.0,0.0,1.7614744290000002,2.4770000000000025,0.0,-2696.0,0.0,0.0,-317.4803137779236,0.0,0.0,4.79736279,2.473750000000002,0.0,1.4199999570846558,0.3799999952316284,82.69000244140625,8.544921875E-4,0.01025390625,1.05377197265625,26.219999313354492,0.0,-16.0,-2.169342041015625,-0.753509521484375,Waiting,0.0,0.0,-114.0,0.0,0.0,0.0,0.0,0.0,
7.1856510000000124,0.0,0.0,false,4382867.9197707735,,-11456.0,2.125,-135.0,-694.4881582260131,0.0,0.875,1.959228315,4.963999999999999,0.0,-10704.0,4.5,15.0,694.4881582260131,0.0,1.25,2.564697003,4.948999999999997,0.0,-1215.0,2.25,157.5,694.4881582260131,0.0,0.0,1.640624832,2.4770000000000025,0.0,-2700.0,2.375,-52.5,-694.4881582260131,0.0,0.0,4.881591297,2.473750000000002,0.0,1.409999966621399,-0.009999999776482582,82.77999877929688,-0.15582275390625,-0.0382080078125,1.032958984375,26.219999313354492,0.0,-82.0,-2.1703033447265625,-0.7508544921875,Waiting,0.0,0.0,-114.0,0.0,0.0,0.0,0.0,0.0,
7.257614999999991,0.0,0.0,false,4382876.562308164,,-11482.0,3.125,-150.0,-714.3307435512543,0.0,0.0,1.8188474700000001,4.963999999999999,0.0,-10688.0,8.875,67.5,714.3307435512543,0.0,0.375,2.7929684640000003,4.948999999999997,0.0,-1181.0,3.25,202.5,714.3307435512543,0.0,0.0,1.5588377310000001,2.4770000000000025,0.0,-2726.0,5.0,-135.0,-714.3307435512543,0.0,0.0,0.017089842,2.473750000000002,0.0,1.399999976158142,-0.5400000214576721,83.02999877929688,-0.26751708984375,0.14947509765625,1.0753173828125,26.219999313354492,0.0,90.0,-2.1727752685546875,-0.7432861328125,Waiting,0.0,0.0,-114.0,0.0,0.0,0.0,0.0,0.0,
7.335926999999996,0.0,0.0,false,4382861.13420622,,-11482.0,2.75,-262.5,-476.2204706668854,0.0,0.0,1.7919920040000001,4.963999999999999,0.0,-10688.0,5.125,232.5,476.2204706668854,0.0,0.0,2.825927445,4.948999999999997,0.0,-1181.0,2.625,285.0,476.2204706668854,0.0,0.0,1.534423671,2.4770000000000025,0.0,-2726.0,3.375,-262.5,-476.2204706668854,0.0,0.0,0.054931635000000006,2.473750000000002,0.0,1.4500000476837158,-0.8999999761581421,83.05000305175781,-0.03045654296875,-0.09893798828125,0.86907958984375,26.219999313354492,0.0,-121.0,-2.1748504638671875,-0.7295074462890625,Waiting,0.0,0.0,-114.0,0.0,0.0,0.0,0.0,0.0,
7.4139029999999915,0.0,0.0,false,4382821.625690325,,-11541.0,0.0,-360.0,0.0,0.0,0.0,1.7919920040000001,4.963999999999999,0.0,-10631.0,0.375,322.5,0.0,0.0,0.0,2.811279009,4.948999999999997,0.0,-1122.0,0.0,345.0,0.0,0.0,0.0,1.520995938,2.4770000000000025,0.0,-2783.0,0.25,-337.5,0.0,0.0,0.0,0.05981444700000001,2.473750000000002,0.0,1.3700000047683716,-0.8899999856948853,83.23999786376953,0.09564208984375,-0.0281982421875,1.03448486328125,26.219999313354492,0.0,-39.0,-2.1760406494140625,-0.7141265869140625,Waiting,0.0,0.0,-114.0,0.0,0.0,0.0,0.0,0.0,
7.491145000000019,0.0,0.0,false,4382766.208588957,,-11541.0,0.0,-225.0,0.0,0.0,0.0,1.7932127070000001,4.963999999999999,-0.0012207030000004337,-10631.0,0.0,165.0,0.0,0.0,0.0,2.806396197,4.948999999999997,-0.009765623999999917,-1122.0,0.0,240.0,0.0,0.0,0.0,1.523437344,2.4770000000000025,-0.009765624000000361,-2783.0,0.0,-195.0,0.0,0.0,0.0,0.058593744,2.473750000000002,0.004882811999999959,1.440000057220459,-0.3700000047683716,83.41999816894531,0.05950927734375,-0.03973388671875,1.22015380859375,26.219999313354492,0.0,-62.0,-2.17498779296875,-0.70263671875,Waiting,0.0,0.0,-114.0,0.0,0.0,0.0,0.0,0.0,
7.567339999999996,0.0,0.0,false,4382686.761807402,,-11577.0,0.0,-247.5,0.0,0.0,0.0,1.7919920040000001,4.963999999999999,0.0,-10604.0,0.0,225.0,0.0,0.0,0.0,2.7941891670000003,4.948999999999997,0.0,-1079.0,0.0,285.0,0.0,0.0,0.0,1.522216641,2.4770000000000025,0.0,-2816.0,0.0,-217.5,0.0,0.0,0.0,0.058593744,2.473750000000002,0.0,1.3300000429153442,0.10999999940395355,83.52999877929688,0.20147705078125,0.00408935546875,0.9090576171875,26.219999313354492,0.0,5.0,-2.1740264892578125,-0.6954803466796875,Waiting,0.0,0.0,-114.0,0.0,0.0,0.0,0.0,0.0,
7.643127999999997,0.0,0.0,false,4382583.718724448,,-11596.0,0.0,-157.5,0.0,0.0,0.0,1.7932127070000001,4.963999999999999,0.0012207030000004337,-10583.0,0.0,142.5,0.0,0.0,0.0,2.767333701,4.948999999999997,-0.009765623999999917,-1063.0,0.0,90.0,0.0,0.0,0.0,1.517333829,2.4770000000000025,0.0,-2835.0,0.0,-120.0,0.0,0.0,0.0,0.058593744,2.473750000000002,0.0,1.3700000047683716,0.5,83.4800033569336,0.10888671875,0.01947021484375,1.0833740234375,26.219999313354492,0.0,4.0,-2.1736602783203125,-0.692901611328125,Waiting,0.0,0.0,-114.0,0.0,0.0,0.0,0.0,0.0,
7.717352000000013,0.0,0.0,false,4382456.675250358,,-11596.0,0.0,-22.5,0.0,0.0,0.0,1.7907713010000001,4.963999999999999,0.0,-10583.0,0.0,37.5,0.0,0.0,0.0,2.762450889,4.948999999999997,0.0,-1063.0,0.0,45.0,0.0,0.0,0.0,1.522216641,2.4770000000000025,0.0,-2835.0,0.0,-15.0,0.0,0.0,0.0,0.058593744,2.473750000000002,0.0,1.3200000524520874,0.7400000095367432,83.5199966430664,0.035400390625,0.00958251953125,0.971923828125,26.219999313354492,0.0,-10.0,-2.173736572265625,-0.6935882568359375,Waiting,0.0,0.0,-114.0,0.0,0.0,0.0,0.0,0.0,
7.79295199999999,0.0,0.0,false,4382305.646097262,,-11597.0,2.5,30.0,892.9134106636047,0.0,5.75,1.644286941,3.722999999999999,0.0,-10582.0,2.875,52.5,892.9134106636047,0.0,3.875,2.773437216,1.2372499999999984,0.0,-1063.0,3.25,-52.5,-892.9134106636047,0.0,7.0,1.384277202,1.2384999999999984,0.0,-2835.0,3.75,45.0,892.9134106636047,0.0,8.625,4.837645989,1.2368749999999984,0.0,1.309999942779541,0.9900000095367432,83.44000244140625,0.1058349609375,-0.26129150390625,0.902099609375,26.25,0.0,-269.0,-2.1739654541015625,-0.6961822509765625,Waiting,0.0,0.0,-114.0,0.0,0.0,0.0,0.0,0.0,
7.872524000000005,0.0,0.0,false,4382130.645965271,,-11554.0,4.375,195.0,992.1259617805481,0.0,1.125,1.114501839,3.722999999999999,0.0,-10565.0,10.625,150.0,992.1259617805481,0.0,2.5,3.2141109990000003,1.2372499999999984,0.0,-1104.0,7.125,-247.5,-992.1259617805481,0.0,1.125,0.8691405360000001,1.2384999999999984,0.0,-2809.0,8.25,142.5,992.1259617805481,0.0,1.125,4.335937056000001,1.2368749999999984,0.0,1.0700000524520874,1.1299999952316284,82.5999984741211,0.015869140625,-0.1429443359375,1.02154541015625,26.25,0.0,-159.0,-2.1768646240234375,-0.7016143798828125,Waiting,0.0,0.0,-114.0,0.0,0.0,0.0,0.0,0.0,
7.945489000000001,0.0,0.0,false,4381932.107843137,,-11554.0,3.0,307.5,456.37796044349665,0.0,0.375,0.654296808,3.722999999999999,0.0,-10565.0,12.0,-52.5,456.37796044349665,0.0,2.75,3.6901851690000003,1.2372499999999984,0.0,-1104.0,2.875,-412.5,-456.37796044349665,0.0,0.375,0.358886682,1.2384999999999984,0.0,-2809.0,6.0,195.0,456.37796044349665,0.0,0.375,3.905028897,1.2368749999999984,0.0,0.7099999785423279,0.6600000262260437,82.36000061035156,-0.17303466796875,0.04779052734375,0.9873046875,26.25,0.0,10.0,-2.184295654296875,-0.706390380859375,Waiting,0.0,0.0,-114.0,0.0,0.0,0.0,0.0,0.0,
8.027450000000012,0.0,0.0,false,4381717.35674903,,-11516.0,0.25,180.0,0.0,0.0,0.25,0.432128862,3.722999999999999,-0.4052733960000001,-10558.0,2.25,52.5,0.0,0.0,2.0,4.071044505000001,1.2372499999999984,0.472412061,-1161.0,0.25,-225.0,0.0,0.0,0.0,0.04882812,1.2384999999999984,-0.49316401200000026,-2767.0,1.125,232.5,0.0,0.0,0.0,3.6364742370000003,1.2368749999999984,-0.4296874559999999,0.6800000071525574,0.3199999928474426,82.38999938964844,0.0340576171875,0.06915283203125,1.02587890625,26.25,0.0,60.0,-2.19366455078125,-0.707000732421875,Waiting,0.0,0.0,-114.0,0.0,0.0,0.0,0.0,0.0,
8.095431000000012,0.0,0.0,false,4381478.675377705,,-11516.0,0.0,67.5,0.0,0.0,0.125,0.372314415,3.722999999999999,-0.20263669800000006,-10558.0,0.0,15.0,0.0,0.0,0.0,4.1809077750000005,1.2372499999999984,0.3393554339999998,-1163.0,0.0,-52.5,0.0,0.0,0.375,4.9255366050000005,1.2384999999999984,-0.2832030959999998,-2758.0,0.0,52.5,0.0,0.0,0.0,3.6279293160000003,1.2368749999999984,0.0,0.8799999952316284,0.30000001192092896,82.72000122070312,-0.10931396484375,0.17352294921875,1.10784912109375,26.25,0.0,140.0,-2.2011871337890625,-0.7071533203125,Waiting,0.0,0.0,-114.0,0.0,0.0,0.0,0.0,0.0,
