Time,ClimberA1,ClimberA2,CameraExists,HeapSpace,LoopTime,FRpos,FRCurrent,FRspeed,FRsetpoint,FRApos,FRACurrent,FREncpos,FREncSetpoint,FREncSpeed,FLpos,FLCurrent,FLspeed,FLsetpoint,FLApos,FLACurrent,FLEncpos,FLEncSetpoint,FLEncSpeed,BRpos,BRCurrent,BRspeed,BRsetpoint,BRApos,BRACurrent,BREncpos,BREncSetpoint,BREncSpeed,BLpos,BLCurrent,BLspeed,BLsetpoint,BLApos,BLACurrent,BLEncpos,BLEncSetpoint,BLEncSpeed,navx_Pitch,navx_Roll,navx_Yaw,navx_XAcc,navx_YAcc,navx_ZAcc,navx_Temp,navx_Bar,navx_Alt,navx_XDis,navx_YDis,GearPlacerState,ShootOutputV,ShootOutputCurrent,ShootEncPos,ShootEncVelocity,ShootSpeed,ShootSetpoint,CarouselSetpoint,CarouselCurrent,
0.5145910000000004,0.0,0.0,false,4576177.968397291,,-4669.0,0.0,0.0,0.0,0.0,0.125,1.8969724620000001,0.0,0.0,472.0,0.0,0.0,0.0,0.0,0.0,2.670898164,0.0,0.0,-6881.0,0.0,0.0,0.0,0.0,0.0,4.0356441180000004,0.0,0.0,2519.0,0.0,0.0,0.0,0.0,0.25,2.447509515,0.0,0.0,1.2999999523162842,0.10999999940395355,41.2400016784668,0.003662109375,0.024169921875,0.99835205078125,35.439998626708984,0.0,2.0,-2.1602020263671875,2.13348388671875,Waiting,0.0,0.0,17.0,0.0,0.0,0.0,0.0,0.0,
0.5912530000000006,0.0,0.0,false,4576404.0,,-4669.0,0.0,0.0,1260.0,0.0,0.125,1.909179492,0.0,0.0,472.0,0.0,0.0,-1260.0,0.0,0.0,2.672118867,0.0,0.0,-6881.0,0.0,0.0,1260.0,0.0,0.0,4.034423415,-0.0,0.0,2519.0,0.0,0.0,-1260.0,0.0,0.25,2.448730218,-0.0,0.0,1.2999999523162842,0.10999999940395355,41.2400016784668,0.00323486328125,0.025634765625,0.993896484375,35.439998626708984,0.0,2.0,-2.1602020263671875,2.13348388671875,Waiting,0.0,0.0,17.0,0.0,0.0,0.0,0.0,0.0,
0.6304560000000001,0.0,0.0,false,4576564.296629214,,-4669.0,2.25,0.0,1260.0,0.0,0.125,1.909179492,1.3791834513346356E-4,0.0,472.0,4.75,0.0,-1260.0,0.0,0.0,2.670898164,1.37501589457194E-4,0.0,-6881.0,3.125,15.0,1260.0,0.0,0.0,4.031982009,1.3764050801595053E-4,0.0,2519.0,3.625,-37.5,-1260.0,0.0,0.25,2.457275139,1.3745991388956706E-4,0.003662108999999525,1.2899999618530273,0.10999999940395355,41.2400016784668,0.0347900390625,0.00927734375,1.00469970703125,35.439998626708984,0.0,15.0,-2.1602020263671875,2.1334686279296875,Waiting,0.0,0.0,17.0,0.0,0.0,0.0,0.0,0.0,
0.6613870000000006,0.0,0.0,false,4576645.506726458,,-4669.0,6.5,120.0,1260.0,0.0,0.125,1.909179492,2.7578408983018664E-4,0.0,472.0,8.0,-7.5,-1260.0,0.0,0.0,2.67333957,2.7495073742336693E-4,0.0,-6881.0,5.0,75.0,1260.0,0.0,0.0,4.0283199000000005,2.752285215589735E-4,4.943013672999999,2519.0,9.0,-187.5,-1260.0,0.0,0.0,2.457275139,2.74867402182685E-4,0.010986327000000351,1.350000023841858,0.7799999713897705,41.279998779296875,0.0430908203125,-0.3868408203125,1.1446533203125,35.439998626708984,0.0,-252.0,-2.1594085693359375,2.132568359375,Waiting,0.0,0.0,17.0,0.0,0.0,0.0,0.0,0.0,
0.6906880000000001,0.0,0.0,false,4576661.92393736,,-4669.0,8.375,202.5,1260.0,0.0,0.125,1.909179492,0.0011031363593207466,0.0,472.0,13.625,-22.5,-1260.0,0.0,0.0,2.672118867,0.0010998029496934677,0.0,-6881.0,6.625,262.5,1260.0,0.0,0.0,4.022216385,0.001100914086235894,4.943013672999999,2519.0,10.625,-247.5,-1260.0,0.0,0.0,2.456054436,0.00109946960873074,0.010986327000000351,1.2699999809265137,1.0299999713897705,41.29999923706055,0.24395751953125,-0.29937744140625,1.01678466796875,35.439998626708984,0.0,-43.0,-2.1575927734375,2.130462646484375,Waiting,0.0,0.0,17.0,0.0,0.0,0.0,0.0,0.0,
0.7458560000000016,0.0,0.0,false,4576613.982142857,,-4615.0,9.625,292.5,1260.0,0.0,0.125,1.9152830070000002,0.0016546519385443796,0.0,468.0,18.125,-15.0,-1260.0,0.0,0.0,2.672118867,0.001649651983049181,0.0,-6820.0,7.5,405.0,1260.0,0.0,0.0,4.019774979,0.0016513186348809138,0.0,2466.0,11.125,-307.5,-1260.0,0.0,0.0,2.4768063870000003,0.001649151987499661,0.004882811999999959,1.3200000524520874,1.9600000381469727,41.34000015258789,0.32073974609375,-0.13238525390625,0.6143798828125,35.43000030517578,0.0,128.0,-2.14776611328125,2.12164306640625,Waiting,0.0,0.0,17.0,0.0,0.0,0.0,0.0,0.0,
0.7879930000000004,0.0,0.0,false,4576437.933184856,,-4615.0,10.5,322.5,1260.0,0.0,0.125,1.90429668,0.001516786193847657,-0.0012207030000004337,468.0,19.5,-7.5,-1260.0,0.0,0.0,2.669677461,0.0015122028350830082,0.0,-6820.0,8.0,420.0,1260.0,0.0,0.0,4.020995682000001,0.001513730621337891,0.0,2466.0,12.625,-397.5,-1260.0,0.0,0.0,2.491454823,0.0015117444992065433,0.004882811999999959,1.3300000429153442,2.140000104904175,41.349998474121094,0.292236328125,0.0601806640625,1.2109375,35.43000030517578,0.0,206.0,-2.1419677734375,2.1166534423828125,Waiting,0.0,0.0,17.0,0.0,0.0,0.0,0.0,0.0,
0.8239850000000006,0.0,0.0,false,4576185.28,,-4615.0,10.875,480.0,1260.0,0.0,0.125,1.9140623040000002,0.0016546519385443796,0.0,468.0,23.5,0.0,-1260.0,0.0,0.0,2.672118867,0.001649651983049181,0.0,-6820.0,8.5,465.0,1260.0,0.0,0.0,4.019774979,0.0016513186348809138,0.0,2370.0,12.875,-472.5,-1260.0,0.0,0.0,2.503661853,0.001649151987499661,0.030517575000001074,1.2799999713897705,2.4800000190734863,41.349998474121094,0.1903076171875,0.1966552734375,1.03704833984375,35.43000030517578,0.0,223.0,-2.135223388671875,2.1108856201171875,Waiting,0.0,0.0,17.0,0.0,0.0,0.0,0.0,0.0,
0.8504290000000001,0.0,0.0,false,4575869.889135255,,-4518.0,11.0,562.5,1260.0,0.0,0.125,1.906738086,0.0016546519385443796,0.0,468.0,25.125,0.0,-1260.0,0.0,0.0,2.672118867,0.001649651983049181,0.0,-6725.0,8.5,615.0,1260.0,0.0,0.0,4.024657791,0.0016513186348809138,-0.0012207030000004337,2370.0,11.75,-622.5,-1260.0,0.0,0.0,2.507323962,0.001649151987499661,0.009765623999999917,1.2699999809265137,2.7300000190734863,41.33000183105469,0.34454345703125,0.0406494140625,1.08984375,35.43000030517578,0.0,229.0,-2.1276397705078125,2.104400634765625,Waiting,0.0,0.0,17.0,0.0,0.0,0.0,0.0,0.0,
0.8852900000000009,0.0,0.0,false,4575492.176991151,,-4518.0,9.625,712.5,1259.9999999999998,0.0,0.125,1.907958789,0.0012410021040174697,0.0012207030000004337,468.0,28.25,0.0,-1259.9999999999998,0.0,0.0,2.672118867,0.0012372520976596407,0.0,-6725.0,7.875,682.5,1259.9999999999998,0.0,0.0,4.016112870000001,0.0012385020997789172,-0.0012207030000004337,2370.0,11.25,-690.0,-1259.9999999999998,0.0,0.0,2.507323962,0.0012368770970238579,0.009765623999999917,1.2599999904632568,3.059999942779541,41.34000015258789,0.306884765625,-0.09686279296875,0.8272705078125,35.43000030517578,0.0,120.0,-2.119171142578125,2.0970611572265625,Waiting,0.0,0.0,17.0,0.0,0.0,0.0,0.0,0.0,
0.9110260000000017,0.0,0.0,false,4575052.520971303,,-4518.0,9.0,787.5,1260.0,0.0,0.125,1.907958789,0.001516786193847657,0.0012207030000004337,468.0,30.25,0.0,-1260.0,0.0,0.0,2.670898164,0.0015122028350830082,0.0,-6725.0,7.5,750.0,1260.0,0.0,0.0,4.0356441180000004,0.001513730621337891,0.0,2370.0,10.0,-832.5,-1260.0,0.0,0.0,2.507323962,0.0015117444992065433,0.004882811999999959,1.3200000524520874,3.2699999809265137,41.349998474121094,0.11016845703125,0.0599365234375,1.28607177734375,35.43000030517578,0.0,47.0,-2.1099853515625,2.0889129638671875,Waiting,0.0,0.0,17.0,0.0,0.0,0.0,0.0,0.0,
0.9456280000000006,0.0,0.0,false,4574537.832599119,,-4518.0,8.375,847.5,1260.0,0.0,0.125,1.911620898,0.0016546519385443796,-0.0024414059999999793,468.0,32.125,0.0,-1260.0,0.0,0.0,2.670898164,0.001649651983049181,0.0,-6725.0,6.5,877.5,1260.0,0.0,0.0,4.0258784940000005,0.0016513186348809138,0.0,2370.0,9.125,-907.5,-1260.0,0.0,0.0,2.512206774,0.001649151987499661,0.004882811999999959,1.2899999618530273,3.559999942779541,41.43000030517578,0.194091796875,0.11767578125,0.74798583984375,35.43000030517578,0.0,176.0,-2.100067138671875,2.0803070068359375,Waiting,0.0,0.0,17.0,0.0,0.0,0.0,0.0,0.0,
0.9755740000000005,0.0,0.0,false,4573898.813186813,,-4356.0,7.375,975.0,1260.0,0.0,0.125,1.903075977,0.003171438132392036,-0.0024414059999999793,468.0,36.125,0.0,-1260.0,0.0,0.0,2.670898164,0.0031618548181321883,0.0,-6569.0,5.75,945.0,1260.0,0.0,0.0,4.024657791,0.003165049256218804,0.006103515000000392,2208.0,8.25,-975.0,-1260.0,0.0,0.0,2.504882556,0.003160896486706204,0.0,1.2300000190734863,3.7699999809265137,41.5,0.18359375,-0.05816650390625,1.246826171875,35.43000030517578,0.0,19.0,-2.0895233154296875,2.0710601806640625,Waiting,0.0,0.0,17.0,0.0,0.0,0.0,0.0,0.0,
1.008023000000001,0.0,0.0,false,4573199.438596491,,-4356.0,6.875,1027.5,1260.0,0.0,0.125,1.8994138680000001,0.004412440236409506,-0.0024414059999999793,468.0,40.625,0.0,-1260.0,0.0,0.0,2.670898164,0.004399106915791829,0.0,-6569.0,4.625,1065.0,1260.0,0.0,0.0,4.024657791,0.004403551355997721,-0.0012207030000004337,2208.0,6.25,-1095.0,-1260.0,0.0,0.0,2.512206774,0.0043977735837300615,0.004882811999999959,1.2799999713897705,3.9800000190734863,41.61000061035156,0.07135009765625,-0.004638671875,0.7342529296875,35.43000030517578,0.0,1.0,-2.078643798828125,2.0613861083984375,Waiting,0.0,0.0,17.0,0.0,0.0,0.0,0.0,0.0,
1.0408520000000008,0.0,0.0,false,4572440.0,,-4356.0,5.75,1125.0,1260.0,0.0,0.125,1.8994138680000001,0.0059292264302571625,-0.003662109000000413,468.0,43.0,0.0,-1260.0,0.0,0.0,2.675780976,0.005911309750874837,0.0,-6569.0,4.0,1117.5,1260.0,0.0,0.0,4.024657791,0.005917281977335612,-0.0012207030000004337,2208.0,5.5,-1155.0,-1260.0,0.0,0.0,2.517089586,0.0059095180829366045,0.004882811999999959,1.2200000286102295,3.950000047683716,41.72999954223633,0.2049560546875,0.15057373046875,1.28033447265625,35.43000030517578,0.0,168.0,-2.06756591796875,2.051300048828125,Waiting,0.0,0.0,17.0,0.0,0.0,0.0,0.0,0.0,
1.0617290000000013,0.0,0.0,false,4571620.96069869,,-4356.0,5.25,1170.0,1260.0000000000002,0.0,0.125,1.8981931650000001,0.006894444444444445,-0.003662109000000413,468.0,44.25,0.0,-1260.0000000000002,0.0,0.0,2.675780976,0.006873611111111111,0.004882811999999959,-6569.0,3.375,1207.5,1260.0000000000002,0.0,0.0,4.0307613060000005,0.0068805555555555556,0.003662109000000413,1997.0,3.875,-1252.5,-1260.0000000000002,0.0,0.0,2.515868883,0.006871527777777778,0.004882811999999959,1.2400000095367432,4.320000171661377,41.91999816894531,0.03741455078125,0.10040283203125,0.65618896484375,35.43000030517578,0.0,48.0,-2.055877685546875,2.0409698486328125,Waiting,0.0,0.0,17.0,0.0,0.0,0.0,0.0,0.0,
1.0900690000000013,0.0,0.0,false,4570729.342047931,,-4156.0,4.5,1207.5,1260.0,0.0,0.125,1.92871074,0.009514314397176109,-0.0012207029999995456,468.0,44.625,0.0,-1260.0,0.0,0.0,2.675780976,0.009485564454396567,0.004882811999999959,-6369.0,3.0,1245.0,1260.0,0.0,0.0,4.029540603,0.009495147768656413,0.003662109000000413,1997.0,3.25,-1305.0,-1260.0,0.0,0.0,2.517089586,0.009482689460118612,0.004882811999999959,1.3899999856948853,4.159999847412109,42.099998474121094,-0.06097412109375,0.05096435546875,1.28106689453125,35.43000030517578,0.0,-100.0,-2.04388427734375,2.030731201171875,Waiting,0.0,0.0,17.0,0.0,0.0,0.0,0.0,0.0,
1.1153590000000004,0.0,0.0,false,4569778.956521739,,-4156.0,3.625,1282.5,1260.0,0.0,0.125,1.8981931650000001,0.011996318605211045,-0.0012207030000004337,468.0,43.625,0.0,-1260.0,0.0,0.0,2.675780976,0.011960068649715844,0.0,-6369.0,2.0,1305.0,1260.0,0.0,0.0,4.034423415,0.011972151968214245,-4.951558594,1997.0,2.125,-1395.0,-1260.0,0.0,0.0,2.515868883,0.011956443654166326,0.0,1.3200000524520874,4.420000076293945,42.33000183105469,0.18414306640625,-0.0418701171875,0.88092041015625,35.43000030517578,0.0,43.0,-2.031707763671875,2.0204620361328125,Waiting,0.0,0.0,17.0,0.0,0.0,0.0,0.0,0.0,
1.1784460000000017,0.0,0.0,false,4568770.221258135,,-4156.0,2.625,1372.5,1260.0000000000002,0.0,0.125,1.8627927780000002,0.016546677186754018,0.0012207030000004337,468.0,43.125,0.0,-1260.0000000000002,0.0,0.0,2.679443085,0.01649667715496487,-0.0012207029999995456,-6369.0,1.375,1350.0,1260.0000000000002,0.0,0.0,4.0307613060000005,0.01651334383222792,4.952779296999999,1997.0,1.125,-1462.5,-1260.0000000000002,0.0,0.0,2.515868883,0.016491677151785955,0.0,1.309999942779541,4.5,42.709999084472656,0.04815673828125,0.05743408203125,0.65948486328125,35.43000030517578,0.0,25.0,-2.013641357421875,2.0044097900390625,Waiting,0.0,0.0,17.0,0.0,0.0,0.0,0.0,0.0,
1.2114300000000002,0.0,0.0,false,4567690.476190476,,-3928.0,2.0,1395.0,1259.9999999999998,0.0,0.125,1.8981931650000001,0.02233798527187772,0.0012207030000004337,468.0,42.375,0.0,-1259.9999999999998,0.0,0.0,2.681884491,0.022270485316382517,0.0012207029999995456,-6149.0,1.125,1372.5,1259.9999999999998,0.0,0.0,4.031982009,0.022292985301547583,-4.952779296999999,1758.0,0.75,-1492.5,-1259.9999999999998,0.0,0.0,2.520751695,0.022263735320832995,0.0,1.440000057220459,4.489999771118164,43.099998474121094,0.164306640625,0.11444091796875,0.914794921875,35.43000030517578,0.0,129.0,-1.9952392578125,1.9882965087890625,Waiting,0.0,0.0,17.0,0.0,0.0,0.0,0.0,0.0,
1.2439360000000015,0.0,0.0,false,4566490.885529158,,-3928.0,1.375,1440.0,1260.0,0.0,0.125,1.885986135,0.025785207494099936,-0.0012207030000004337,468.0,41.375,0.0,-1260.0,0.0,0.0,2.680663788,0.025707290871938064,0.0012207029999995456,-6149.0,1.125,1365.0,1260.0,0.0,0.0,4.042968336,0.025733263079325355,-4.952779296999999,1758.0,0.5,-1500.0,-1260.0,0.0,0.0,2.520751695,0.02569949920972188,0.0,1.4299999475479126,4.380000114440918,43.209999084472656,0.13751220703125,0.12969970703125,0.9517822265625,35.43000030517578,0.0,82.0,-1.9828338623046875,1.9773406982421875,Waiting,0.0,0.0,17.0,0.0,0.0,0.0,0.0,0.0,
1.2729210000000002,0.0,0.0,false,4565234.327586207,,-3928.0,1.25,1455.0,1260.0,0.0,0.125,1.907958789,0.029094563971625437,0.0012207030000004337,468.0,41.125,0.0,-1260.0,0.0,0.0,2.680663788,0.02900664727952745,0.004882811999999959,-6149.0,0.5,1380.0,1260.0,0.0,0.0,4.0307613060000005,0.029035952843560114,0.0,1758.0,0.0,-1522.5,-1260.0,0.0,0.0,2.513427477,0.028997855610317654,0.004882811999999959,1.399999976158142,4.429999828338623,43.59000015258789,0.044677734375,-0.0262451171875,0.86767578125,35.459999084472656,0.0,-49.0,-1.970428466796875,1.9665679931640625,Waiting,0.0,0.0,17.0,0.0,0.0,0.0,0.0,0.0,
1.2980740000000006,0.0,0.0,false,4563921.238709677,,-3928.0,1.125,1455.0,1260.0,0.0,0.125,1.8969724620000001,0.03254178619384766,0.0012207030000004337,468.0,41.875,0.0,-1260.0,0.0,0.0,2.680663788,0.03244345283508301,0.004882811999999959,-6149.0,0.375,1417.5,1260.0,0.0,0.0,4.0307613060000005,0.03247623062133789,0.0,1758.0,0.0,-1560.0,-1260.0,0.0,0.0,2.520751695,0.03243361949920654,0.004882811999999959,1.309999942779541,4.510000228881836,43.70000076293945,0.03656005859375,0.18865966796875,0.90289306640625,35.459999084472656,0.0,90.0,-1.9642333984375,1.9612884521484375,Waiting,0.0,0.0,17.0,0.0,0.0,0.0,0.0,0.0,
1.3457520000000005,0.0,0.0,false,4562551.982832618,,-3696.0,0.625,1447.5,1260.0000000000002,0.0,0.125,1.8945310560000002,0.037643660354614264,0.0,468.0,41.625,0.0,-1260.0000000000002,0.0,0.0,2.680663788,0.03752991037368774,-0.0012207029999995456,-5912.0,0.375,1507.5,1260.0000000000002,0.0,0.0,4.0307613060000005,0.03756782703399658,0.0,1498.0,0.0,-1650.0,-1260.0000000000002,0.0,0.0,2.520751695,0.03751853537559509,0.0,1.350000023841858,4.440000057220459,44.2400016784668,0.07080078125,-0.1265869140625,0.81451416015625,35.459999084472656,0.0,-96.0,-1.9401702880859375,1.9401092529296875,Waiting,0.0,0.0,17.0,0.0,0.0,0.0,0.0,0.0,
1.3788950000000004,0.0,0.0,false,4561113.7644539615,,-3696.0,0.5,1470.0,1260.0,0.0,0.125,1.8945310560000002,0.041504585011800134,-0.004882811999999959,468.0,41.125,0.0,-1260.0,0.0,0.0,2.6855466000000003,0.04137916825612386,0.0012207029999995456,-5912.0,0.125,1560.0,1260.0,0.0,0.0,4.0307613060000005,0.04142097384134928,0.0,1498.0,0.0,-1710.0,-1260.0,0.0,0.0,2.521972398,0.04136662658055623,0.0,1.4700000286102295,4.409999847412109,44.540000915527344,0.015380859375,0.06060791015625,1.01153564453125,35.459999084472656,0.0,-20.0,-1.9283905029296875,1.9290008544921875,Waiting,0.0,0.0,17.0,0.0,0.0,0.0,0.0,0.0,
1.4210700000000016,0.0,0.0,false,4559620.153846154,,-3696.0,0.375,1537.5,1259.9999999999998,0.0,0.125,1.8933103530000002,0.04757167718675403,0.0,468.0,41.0,0.0,-1259.9999999999998,0.0,0.0,2.6867673030000003,0.047427927154964876,0.003662109000000413,-5912.0,0.0,1567.5,1259.9999999999998,0.0,0.0,4.0307613060000005,0.04747584383222792,4.952779296999999,1498.0,0.0,-1732.5,-1259.9999999999998,0.0,0.0,2.525634507,0.04741355215178596,0.0,1.4199999570846558,4.269999980926514,44.9900016784668,-0.0181884765625,0.16778564453125,1.0230712890625,35.459999084472656,0.0,33.0,-1.9113006591796875,1.91278076171875,Waiting,0.0,0.0,17.0,0.0,0.0,0.0,0.0,0.0,
1.4481710000000003,0.0,0.0,false,4558010.098081023,,-3442.0,0.25,1567.5,1260.0,0.0,0.125,1.8896482440000002,0.0518462516784668,0.0,468.0,40.5,0.0,-1260.0,0.0,0.0,2.6904294120000003,0.05168958492279052,0.003662109000000413,-5667.0,0.125,1545.0,1260.0,0.0,0.0,4.0356441180000004,0.051741807174682616,4.952779296999999,1218.0,0.0,-1747.5,-1260.0,0.0,0.0,2.525634507,0.0516739182472229,0.0,1.340000033378601,4.380000114440918,45.15999984741211,0.05657958984375,-0.03509521484375,0.6085205078125,35.459999084472656,0.0,-28.0,-1.9056854248046875,1.9075775146484375,Waiting,0.0,0.0,17.0,0.0,0.0,0.0,0.0,0.0,
1.4743950000000003,0.0,0.0,false,4556345.617021277,,-3442.0,0.125,1590.0,1260.0000000000002,0.0,0.125,1.8933103530000002,0.05612077356974284,-0.004882811999999959,468.0,42.0,0.0,-1260.0000000000002,0.0,0.0,2.6831051940000004,0.05595119024912516,0.0024414060000008675,-5667.0,0.125,1515.0,1260.0000000000002,0.0,0.0,4.031982009,0.05600771802266439,-4.949117188,1218.0,0.0,-1755.0,-1260.0000000000002,0.0,0.0,2.5280759130000003,0.05593423191706339,0.004882811999999959,1.600000023841858,4.090000152587891,45.45000076293945,0.11669921875,-0.22283935546875,1.49090576171875,35.459999084472656,0.0,-181.0,-1.894683837890625,1.897186279296875,Waiting,0.0,0.0,17.0,0.0,0.0,0.0,0.0,0.0,
1.4988540000000012,0.0,0.0,false,4554613.995753716,,-3442.0,0.125,1590.0,1260.0,0.0,0.0,1.8884275410000002,0.05818912794325087,-0.004882811999999959,468.0,42.125,0.0,-1260.0,0.0,0.0,2.6892087090000003,0.0580132945590549,0.0024414060000008675,-5667.0,0.125,1470.0,1260.0,0.0,0.0,4.036864821,0.05807190568712023,-4.949117188,1218.0,0.0,-1755.0,-1260.0,0.0,0.0,2.5305173190000003,0.05799571122063531,0.004882811999999959,1.2899999618530273,4.119999885559082,45.77000045776367,0.03106689453125,0.0123291015625,0.27410888671875,35.459999084472656,0.0,12.0,-1.8841094970703125,1.886749267578125,Waiting,0.0,0.0,17.0,0.0,0.0,0.0,0.0,0.0,
1.524947,0.0,0.0,false,4552828.694915255,,-3442.0,0.125,1582.5,1259.9999999999998,0.0,0.0,1.8896482440000002,0.0626015681796604,0.0,468.0,41.5,0.0,-1259.9999999999998,0.0,0.0,2.6867673030000003,0.062412401474846745,0.002441405999999091,-5667.0,0.0,1425.0,1259.9999999999998,0.0,0.0,4.042968336,0.06247545704311796,0.0012207030000004337,1218.0,0.0,-1755.0,-1259.9999999999998,0.0,0.0,2.5305173190000003,0.06239348480436538,0.004882811999999959,1.5399999618530273,3.950000047683716,46.09000015258789,2.44140625E-4,-0.196044921875,1.61407470703125,35.459999084472656,0.0,-249.0,-1.88427734375,1.876251220703125,Waiting,0.0,0.0,17.0,0.0,0.0,0.0,0.0,0.0,
1.554254000000001,0.0,0.0,false,4550990.054968287,,-3442.0,0.0,1575.0,1260.0,0.0,0.0,1.8884275410000002,0.06701400841606989,0.0,468.0,41.75,0.0,-1260.0,0.0,0.0,2.6953122240000003,0.06681150839063855,0.002441405999999091,-5429.0,0.0,1447.5,1260.0,0.0,0.0,4.05273396,0.06687900839911567,0.0012207030000004337,939.0,0.0,-1747.5,-1260.0,0.0,0.0,2.521972398,0.06679125838809544,0.0,1.4600000381469727,3.8499999046325684,46.43000030517578,0.0709228515625,-0.04571533203125,0.67108154296875,35.459999084472656,0.0,-27.0,-1.8850250244140625,1.866119384765625,Waiting,0.0,0.0,17.0,0.0,0.0,0.0,0.0,0.0,
1.5855480000000006,0.0,0.0,false,4549098.41350211,,-3190.0,0.0,1567.5,1260.0,0.0,0.125,1.8896482440000002,0.07170223274230957,-0.0012207030000004337,468.0,41.375,0.0,-1260.0,0.0,0.0,2.6916501150000003,0.07148556604385374,0.004882811999999959,-5429.0,0.0,1485.0,1260.0,0.0,0.0,4.038085524,0.07155778827667235,0.0012207029999995456,939.0,0.125,-1740.0,-1260.0,0.0,0.0,2.5354001310000003,0.07146389937400817,0.0,1.399999976158142,3.75,46.599998474121094,0.0196533203125,-0.11260986328125,0.6810302734375,35.459999084472656,0.0,-111.0,-1.885528564453125,1.8610382080078125,Waiting,0.0,0.0,17.0,0.0,0.0,0.0,0.0,0.0,
1.6086000000000005,0.0,0.0,false,4547154.105263158,,-3190.0,0.0,1567.5,1260.0,0.0,0.125,1.8884275410000002,0.0761146729787191,-0.0012207030000004337,468.0,41.125,-7.5,-1260.0,0.0,0.0,2.6953122240000003,0.0758846729596456,0.004882811999999959,-5429.0,0.0,1515.0,1260.0,0.0,0.0,4.04052693,0.0759613396326701,0.0012207029999995456,939.0,0.25,-1702.5,-1260.0,0.0,0.0,2.5366208340000003,0.07586167295773825,0.004882811999999959,1.5099999904632568,3.7100000381469727,46.880001068115234,-0.0877685546875,0.184814453125,1.40093994140625,35.459999084472656,0.0,-14.0,-1.88690185546875,1.8506927490234375,Waiting,0.0,0.0,17.0,0.0,0.0,0.0,0.0,0.0,
1.6337390000000014,0.0,0.0,false,4545084.302521008,,-3190.0,0.0,1567.5,1260.0,0.0,0.125,1.8896482440000002,0.07790724326239692,0.0012207030000004337,468.0,41.75,-60.0,-1260.0,0.0,0.0,2.6989743330000002,0.07767182653215196,0.0,-5429.0,0.125,1477.5,1260.0,0.0,0.0,4.045409742,0.07775029877556695,0.003662109000000413,939.0,0.375,-1687.5,-1260.0,0.0,0.0,2.5354001310000003,0.07764828485912746,0.004882811999999959,1.5299999713897705,3.5199999809265137,47.189998626708984,0.02447509765625,-0.10003662109375,1.020263671875,35.459999084472656,0.0,-119.0,-1.8887176513671875,1.8409271240234375,Waiting,0.0,0.0,17.0,0.0,0.0,0.0,0.0,0.0,
1.6669120000000002,0.0,0.0,false,4542962.800838575,,-3190.0,0.0,1567.5,1260.0,0.0,0.125,1.8933103530000002,0.08218176515367298,0.0,468.0,42.125,-105.0,-1260.0,0.0,0.0,2.6953122240000003,0.0819334318584866,0.004882811999999959,-5209.0,0.0,1425.0,1260.0,0.0,0.0,4.049071851,0.08201620962354873,0.007324217999999938,674.0,0.375,-1665.0,-1260.0,0.0,0.0,2.5415036460000002,0.08190859852896798,0.0,1.3700000047683716,3.4000000953674316,47.52000045776367,-0.08428955078125,-0.00146484375,0.67572021484375,35.459999084472656,0.0,-96.0,-1.89111328125,1.83123779296875,Waiting,0.0,0.0,17.0,0.0,0.0,0.0,0.0,0.0,
1.6935010000000001,0.0,0.0,false,4540789.924686193,,-2941.0,0.0,1567.5,1260.0,0.0,0.125,1.850585748,0.08673212373521592,0.0,420.0,42.125,-202.5,-1260.0,0.0,0.0,2.6989743330000002,0.08647004036373561,0.004882811999999959,-5209.0,0.0,1387.5,1260.0,0.0,0.0,4.053954663,0.08655740148756239,0.007324217999999938,674.0,0.375,-1665.0,-1260.0,0.0,0.0,2.5415036460000002,0.08644383202658758,0.0,1.5,3.3499999046325684,47.65999984741211,-0.087890625,-0.0318603515625,1.172119140625,35.459999084472656,0.0,-151.0,-1.8925323486328125,1.8265380859375,Waiting,0.0,0.0,17.0,0.0,0.0,0.0,0.0,0.0,
1.7169840000000003,0.0,0.0,false,4538565.995824635,,-2941.0,0.0,1545.0,1260.0,0.0,0.125,1.883544729,0.09059299579196509,-0.004882812000000847,420.0,42.75,-285.0,-1260.0,0.0,0.0,2.705077848,0.09031924580468073,-4.944117188,-5209.0,0.0,1342.5,1260.0,0.0,0.0,4.060058178,0.09041049580044218,0.007324217999999938,674.0,0.5,-1635.0,-1260.0,0.0,0.0,2.5415036460000002,0.09029187080595229,-4.942617188,1.2699999809265137,3.2300000190734863,47.970001220703125,-0.08087158203125,-0.07421875,1.20941162109375,35.459999084472656,0.0,-174.0,-1.895965576171875,1.8174285888671875,Waiting,0.0,0.0,17.0,0.0,0.0,0.0,0.0,0.0,
1.7398270000000011,0.0,0.0,false,4536291.333333333,,-2941.0,0.125,1485.0,1260.0,0.0,0.125,1.884765432,0.09293713425530328,-0.004882812000000847,420.0,42.375,-345.0,-1260.0,0.0,0.0,2.70996066,0.09265630085203382,-4.944117188,-5209.0,0.125,1327.5,1260.0,0.0,0.0,4.061278881,0.09274991198645698,0.007324217999999938,674.0,0.5,-1620.0,-1260.0,0.0,0.0,2.5402829430000002,0.09262821751170688,-4.942617188,1.149999976158142,3.299999952316284,48.150001525878906,-0.050537109375,0.0050048828125,0.04498291015625,35.459999084472656,0.0,-32.0,-1.8979339599609375,1.81298828125,Waiting,0.0,0.0,17.0,0.0,0.0,0.0,0.0,0.0,
1.760916000000001,0.0,0.0,false,4533966.253638254,,-2941.0,0.125,1402.5,1260.0,0.0,0.125,1.884765432,0.09541913846333823,-0.004882812000000847,420.0,41.5,-330.0,-1260.0,0.0,0.0,2.708739957,0.0951308050473531,-4.944117188,-5209.0,0.125,1327.5,1260.0,0.0,0.0,4.06494099,0.09522691618601481,0.007324217999999938,674.0,0.5,-1605.0,-1260.0,0.0,0.0,2.5366208340000003,0.0951019717057546,0.0,1.5299999713897705,2.7300000190734863,48.45000076293945,0.07928466796875,0.01251220703125,1.42864990234375,35.459999084472656,0.0,-11.0,-1.902130126953125,1.804351806640625,Waiting,0.0,0.0,17.0,0.0,0.0,0.0,0.0,0.0,
1.7857830000000012,0.0,0.0,false,4531578.323651453,,-2941.0,0.125,1342.5,1260.0,0.0,0.125,1.884765432,0.09955579460991756,0.0,420.0,44.0,-375.0,-1260.0,0.0,0.0,2.714843472,0.09925496122572158,0.004882811999999959,-5209.0,0.0,1342.5,1260.0,0.0,0.0,4.069823802,0.09935523902045357,0.004882811999999959,674.0,0.5,-1582.5,-1260.0,0.0,0.0,2.5354001310000003,0.09922487788730198,0.0,1.350000023841858,2.5999999046325684,48.619998931884766,0.09539794921875,0.04571533203125,1.99993896484375,35.459999084472656,0.0,1.0,-1.904296875,1.800048828125,Waiting,0.0,0.0,17.0,0.0,0.0,0.0,0.0,0.0,
1.8102080000000005,0.0,0.0,false,4529140.6542443065,,-2728.0,0.0,1327.5,1260.0,0.0,0.125,1.8908689470000002,0.10438188468085399,0.0,360.0,44.125,-397.5,-1260.0,0.0,0.0,2.714843472,0.10406646802690296,0.004882811999999959,-4988.0,0.0,1372.5,1260.0,0.0,0.0,4.074706614,0.1041716069115533,0.004882811999999959,424.0,0.5,-1567.5,-1260.0,0.0,0.0,2.5415036460000002,0.10403492636150787,4.946279297,1.399999976158142,2.940000057220459,48.95000076293945,-0.0765380859375,-0.552734375,-0.23577880859375,35.439998626708984,0.0,-454.0,-1.9083099365234375,1.7924346923828125,Waiting,0.0,0.0,17.0,0.0,0.0,0.0,0.0,0.0,
1.8330250000000015,0.0,0.0,false,4526594.049586777,,-2728.0,0.0,1365.0,1260.0,0.0,0.125,1.883544729,0.10989746127658426,0.0,360.0,43.375,-435.0,-1260.0,0.0,0.0,2.720946987,0.10956537789238827,0.004882811999999959,-4988.0,0.0,1395.0,1260.0,0.0,0.0,4.0759273170000005,0.10967607235378693,0.008544921000000372,424.0,0.5,-1545.0,-1260.0,0.0,0.0,2.546386458,0.10953216955396868,4.946279297,1.4700000286102295,2.680000066757202,49.34000015258789,0.10931396484375,-0.08319091796875,0.7244873046875,35.439998626708984,0.0,-28.0,-1.914794921875,1.7816314697265625,Waiting,0.0,0.0,17.0,0.0,0.0,0.0,0.0,0.0,
1.8528520000000008,0.0,0.0,false,4523998.564948454,,-2728.0,0.0,1425.0,1260.0,0.0,0.125,1.878661917,0.1118278973049588,0.0,360.0,43.25,-495.0,-1260.0,0.0,0.0,2.719726284,0.1114899806128608,0.004882811999999959,-4988.0,0.0,1425.0,1260.0,0.0,0.0,4.084472238,0.1116026195102268,0.008544921000000372,424.0,0.5,-1530.0,-1260.0,0.0,0.0,2.545165755,0.11145618894365102,-4.941396485,1.4700000286102295,2.680000066757202,49.34000015258789,0.10931396484375,-0.08319091796875,0.7244873046875,35.439998626708984,0.0,-28.0,-1.914794921875,1.7816314697265625,Waiting,0.0,0.0,17.0,0.0,0.0,0.0,0.0,0.0,
1.8824820000000018,0.0,0.0,false,4521354.502057613,,-2728.0,0.0,1455.0,1260.0000000000002,0.0,0.125,1.885986135,0.11375833333333335,0.0,360.0,44.5,-540.0,-1260.0000000000002,0.0,0.0,2.719726284,0.11341458333333333,0.004882811999999959,-4988.0,0.0,1440.0,1260.0000000000002,0.0,0.0,4.08935505,0.11352916666666667,0.009765623999999917,424.0,0.5,-1515.0,-1260.0000000000002,0.0,0.0,2.543945052,0.11338020833333333,-4.941396485,1.5099999904632568,2.319999933242798,49.619998931884766,0.02801513671875,-0.13934326171875,1.28173828125,35.439998626708984,0.0,-147.0,-1.9192657470703125,1.774749755859375,Waiting,0.0,0.0,17.0,0.0,0.0,0.0,0.0,0.0,
1.9036440000000003,0.0,0.0,false,4518662.1601642715,,-2728.0,0.0,1462.5,1260.0,0.0,0.125,1.883544729,0.11568876936170794,0.0,360.0,45.125,-577.5,-1260.0,0.0,0.0,2.718505581,0.1153391860538059,0.004882811999999959,-4988.0,0.0,1440.0,1260.0,0.0,0.0,4.091796456,0.11545571382310658,0.009765623999999917,424.0,0.5,-1507.5,-1260.0,0.0,0.0,2.550048567,0.1153042277230157,-4.941396485,1.3700000047683716,2.4700000286102295,49.779998779296875,0.02490234375,-0.06170654296875,0.5478515625,35.439998626708984,0.0,-56.0,-1.92169189453125,1.7712249755859375,Waiting,0.0,0.0,17.0,0.0,0.0,0.0,0.0,0.0,
1.926879000000001,0.0,0.0,false,4515909.229508197,,-2496.0,0.0,1447.5,1259.9999999999998,0.0,0.125,1.8896482440000002,0.11789498947991267,0.0,233.0,44.875,-637.5,-1259.9999999999998,0.0,0.0,2.723388393,0.1175387395117018,0.004882811999999959,-4760.0,0.0,1432.5,1259.9999999999998,0.0,0.0,4.093017159,0.11765748950110541,0.013427732999999442,185.0,0.5,-1500.0,-1259.9999999999998,0.0,0.0,2.550048567,0.11750311451488071,0.004882811999999959,1.4600000381469727,2.309999942779541,50.06999969482422,-0.04864501953125,0.05718994140625,1.0980224609375,35.439998626708984,0.0,-37.0,-1.9268646240234375,1.764190673828125,Waiting,0.0,0.0,17.0,0.0,0.0,0.0,0.0,0.0,
1.9486600000000016,0.0,0.0,false,4513108.6625766875,,-2496.0,0.0,1440.0,1260.0000000000002,0.0,0.125,1.883544729,0.12189377988179526,0.0,233.0,44.75,-750.0,-1260.0000000000002,0.0,0.0,2.725829799,0.12152544654210408,0.004882811999999959,-4760.0,0.0,1425.0,1260.0000000000002,0.0,0.0,4.093017159,0.12164822432200113,0.013427732999999442,185.0,0.5,-1492.5,-1260.0000000000002,0.0,0.0,2.559814191,0.12148861320813496,0.004882811999999959,1.5399999618530273,2.2100000381469727,50.220001220703125,-0.0384521484375,-0.06561279296875,1.44561767578125,35.439998626708984,0.0,-140.0,-1.9296112060546875,1.7607574462890625,Waiting,0.0,0.0,17.0,0.0,0.0,0.0,0.0,0.0,
1.9678550000000015,0.0,0.0,false,4510260.751020408,,-2496.0,0.0,1432.5,1260.0,0.0,0.125,1.8908689470000002,0.12630622011820478,0.0,233.0,45.25,-907.5,-1260.0,0.0,0.0,2.723388393,0.1259245534578959,0.0,-4760.0,0.0,1402.5,1260.0,0.0,0.0,4.112548407,0.12605177567799886,0.0012207030000004337,185.0,0.5,-1492.5,-1260.0,0.0,0.0,2.559814191,0.12588638679186503,0.008544920999999928,1.340000033378601,2.1500000953674316,50.560001373291016,0.0145263671875,0.05535888671875,0.4571533203125,35.439998626708984,0.0,32.0,-1.9355316162109375,1.7542877197265625,Waiting,0.0,0.0,17.0,0.0,0.0,0.0,0.0,0.0,
1.990353000000001,0.0,0.0,false,4507365.751527495,,-2496.0,0.0,1425.0,1260.0,0.0,0.125,1.884765432,0.12865035858154297,0.0,233.0,45.75,-1012.5,-1260.0,0.0,0.0,2.728271205,0.128261608505249,0.0,-4760.0,0.0,1387.5,1260.0,0.0,0.0,4.094237862,0.12839119186401368,0.0012207030000004337,185.0,0.5,-1485.0,-1260.0,0.0,0.0,2.557372785,0.12822273349761962,0.008544920999999928,1.3200000524520874,2.1500000953674316,50.709999084472656,0.06109619140625,-0.04840087890625,0.537109375,35.439998626708984,0.0,-21.0,-1.9385223388671875,1.7510986328125,Waiting,0.0,0.0,17.0,0.0,0.0,0.0,0.0,0.0,
2.010116,0.0,0.0,false,4504365.447154472,,-2496.0,0.0,1410.0,1260.0000000000002,0.0,0.125,1.883544729,0.13071866035461427,0.0,233.0,46.125,-1095.0,-1260.0000000000002,0.0,0.0,2.729491908,0.13032366037368773,0.0,-4760.0,0.0,1387.5,1260.0000000000002,0.0,0.0,4.095458565,0.1304553270339966,0.0012207030000004337,185.0,0.5,-1470.0,-1260.0000000000002,0.0,0.0,2.559814191,0.1302841603755951,0.0012207029999999897,1.3700000047683716,2.0399999618530273,51.02000045776367,-0.05859375,0.0726318359375,1.07696533203125,35.439998626708984,0.0,-24.0,-1.944549560546875,1.744659423828125,Waiting,0.0,0.0,17.0,0.0,0.0,0.0,0.0,0.0,
2.0324940000000007,0.0,0.0,false,4501318.8965517245,,-2496.0,0.0,1402.5,1260.0,0.0,0.125,1.884765432,0.1349932348463271,-0.0012207029999995456,28.0,45.875,-1162.5,-1260.0,0.0,0.0,2.733154017,0.13458531814151345,0.004882811999999959,-4541.0,0.0,1365.0,1260.0,0.0,0.0,4.106444892,0.13472129037645134,0.004882811999999959,-50.0,0.5,-1462.5,-1260.0,0.0,0.0,2.567138409,0.13454452647103207,0.0012207029999999897,1.409999966621399,1.9900000095367432,51.189998626708984,0.08917236328125,2.44140625E-4,1.1845703125,35.439998626708984,0.0,7.0,-1.947601318359375,1.74151611328125,Waiting,0.0,0.0,17.0,0.0,0.0,0.0,0.0,0.0,
2.054255000000001,0.0,0.0,false,4498214.186234818,,-2274.0,0.0,1387.5,0.0,0.0,0.125,1.885986135,0.0,-0.0012207029999995456,28.0,47.125,-1252.5,-0.0,0.0,0.0,2.73437472,0.0,0.004882811999999959,-4541.0,0.0,1357.5,0.0,0.0,0.0,4.116210516000001,0.0,0.004882811999999959,-50.0,0.625,-1455.0,-0.0,0.0,0.0,2.565917706,0.0,0.004882811999999959,1.2000000476837158,1.8200000524520874,51.70000076293945,-0.06109619140625,-0.1884765625,0.59686279296875,35.439998626708984,0.0,-207.0,-1.9572296142578125,1.732879638671875,Waiting,0.0,0.0,17.0,0.0,0.0,0.0,0.0,0.0,
2.086335000000001,0.0,0.0,false,4495063.838383839,,-2274.0,2.25,1350.0,0.0,0.0,0.125,1.884765432,0.0,0.0012207029999995456,28.0,46.0,-1192.5,-0.0,0.0,0.0,2.7392575320000003,0.0,0.004882811999999959,-4541.0,1.0,1350.0,0.0,0.0,0.0,4.107665595,0.0,0.003662108999999525,-50.0,5.25,-1432.5,-0.0,0.0,0.0,2.564697003,0.0,0.004882811999999959,1.2000000476837158,1.8200000524520874,51.70000076293945,-0.06109619140625,-0.1884765625,0.59686279296875,35.439998626708984,0.0,-207.0,-1.9572296142578125,1.732879638671875,Waiting,0.0,0.0,17.0,0.0,0.0,0.0,0.0,0.0,
2.1070010000000003,0.0,0.0,false,4491868.129032258,,-2274.0,4.25,1305.0,0.0,0.0,0.125,1.884765432,0.0,0.0012207029999995456,28.0,44.875,-1140.0,-0.0,0.0,0.0,2.7392575320000003,0.0,0.004882811999999959,-4541.0,2.0,1312.5,0.0,0.0,0.0,4.11376911,0.0,0.003662108999999525,-50.0,11.875,-1395.0,-0.0,0.0,0.0,2.564697003,0.0,0.004882811999999959,1.1699999570846558,1.2300000190734863,52.060001373291016,-0.21099853515625,0.25494384765625,1.30157470703125,35.439998626708984,0.0,31.0,-1.9642791748046875,1.7279052734375,Waiting,0.0,0.0,17.0,0.0,0.0,0.0,0.0,0.0,
2.1299930000000002,0.0,0.0,false,4488627.331991952,,-2274.0,6.0,1245.0,0.0,0.0,0.125,1.883544729,0.0,0.0,28.0,45.375,-1155.0,-0.0,0.0,0.0,2.7380368290000003,0.0,0.004882812000000403,-4541.0,2.75,1207.5,0.0,0.0,0.0,4.123534734000001,0.0,0.006103515000000392,-50.0,19.0,-1335.0,-0.0,0.0,0.0,2.564697003,0.0,-0.0012207029999999897,1.2999999523162842,1.0399999618530273,52.25,-0.2579345703125,0.06671142578125,1.39544677734375,35.439998626708984,0.0,-145.0,-1.9679107666015625,1.72601318359375,Waiting,0.0,0.0,17.0,0.0,0.0,0.0,0.0,0.0,
2.149054,0.0,0.0,false,4485341.718875502,,-2274.0,7.0,1170.0,0.0,0.0,0.125,1.884765432,0.0,0.0,28.0,46.5,-1200.0,-0.0,0.0,0.0,2.7392575320000003,0.0,0.004882812000000403,-4541.0,2.875,1057.5,0.0,0.0,0.0,4.11376911,0.0,0.006103515000000392,-228.0,22.5,-1260.0,-0.0,0.0,0.0,2.564697003,0.0,-0.0012207029999999897,1.100000023841858,0.7799999713897705,52.689998626708984,-0.30963134765625,-0.3170166015625,0.188232421875,35.439998626708984,0.0,-444.0,-1.975860595703125,1.7234954833984375,Waiting,0.0,0.0,17.0,0.0,0.0,0.0,0.0,0.0,
2.185861000000001,0.0,0.0,false,4485748.472945891,,-2104.0,7.5,1027.5,0.0,0.0,0.125,1.884765432,0.0,0.0012207030000004337,-173.0,48.0,-1357.5,-0.0,0.0,0.0,2.7392575320000003,0.0,0.0,-4412.0,2.375,720.0,0.0,0.0,0.0,4.112548407,0.0,0.004882811999999959,-228.0,24.5,-1080.0,-0.0,0.0,0.0,2.572021221,0.0,0.0,1.2200000286102295,-0.029999999329447746,53.380001068115234,-0.22601318359375,-0.027587890625,1.3671875,35.439998626708984,0.0,-179.0,-1.990875244140625,1.7217864990234375,Waiting,0.0,0.0,17.0,0.0,0.0,0.0,0.0,0.0,
2.210545,0.0,0.0,false,4486089.152,,-2104.0,8.0,960.0,0.0,0.0,0.125,1.884765432,0.0,0.0012207030000004337,-173.0,49.875,-1447.5,-0.0,0.0,0.0,2.7380368290000003,0.0,0.0,-4412.0,2.0,607.5,0.0,0.0,0.0,4.106444892,0.0,0.004882811999999959,-228.0,24.875,-1005.0,-0.0,0.0,0.0,2.564697003,0.0,0.0012207029999999897,1.0399999618530273,-0.1599999964237213,53.630001068115234,-0.2431640625,0.04229736328125,0.55120849609375,35.439998626708984,0.0,-117.0,-1.9963531494140625,1.7217559814453125,Waiting,0.0,0.0,17.0,0.0,0.0,0.0,0.0,0.0,
2.234478000000001,0.0,0.0,false,4486364.151696607,,-2104.0,8.125,900.0,0.0,0.0,0.125,1.884765432,0.0,-0.0012207030000004337,-173.0,51.0,-1447.5,-0.0,0.0,0.0,2.7392575320000003,0.0,0.0,-4412.0,1.625,540.0,0.0,0.0,0.0,4.094237862,0.0,-0.004882811999999959,-228.0,25.125,-937.5,-0.0,0.0,0.0,2.564697003,0.0,0.0012207029999999897,1.0499999523162842,-0.5400000214576721,54.0099983215332,-0.31903076171875,0.22808837890625,1.3536376953125,35.439998626708984,0.0,-15.0,-2.0082244873046875,1.7223663330078125,Waiting,0.0,0.0,17.0,0.0,0.0,0.0,0.0,0.0,
2.2543780000000004,0.0,0.0,false,4486573.864541832,,-2104.0,8.25,825.0,0.0,0.0,0.125,1.878661917,0.0,-0.0012207030000004337,-173.0,52.75,-1417.5,-0.0,0.0,0.0,2.7355954230000004,0.0,0.0,-4412.0,1.375,487.5,0.0,0.0,0.0,4.090575753,0.0,-0.004882811999999959,-228.0,25.375,-877.5,-0.0,0.0,0.0,2.5634763,0.0,0.0012207029999999897,1.0399999618530273,-0.7699999809265137,54.209999084472656,-0.438232421875,-0.08526611328125,1.66094970703125,35.439998626708984,0.0,-337.0,-2.0145263671875,1.7232513427734375,Waiting,0.0,0.0,17.0,0.0,0.0,0.0,0.0,0.0,
2.2812870000000003,0.0,0.0,false,4486709.884691849,,-1997.0,8.25,750.0,0.0,0.0,0.125,1.884765432,0.0,0.0,-390.0,54.625,-1395.0,-0.0,0.0,0.0,2.7380368290000003,0.0,0.0,-4350.0,1.25,450.0,0.0,0.0,0.0,4.079589426,0.0,-0.023193357000000248,-350.0,25.625,-817.5,-0.0,0.0,0.0,2.565917706,0.0,0.0,1.0399999618530273,-0.8799999952316284,54.38999938964844,-0.1680908203125,0.09881591796875,0.763916015625,35.439998626708984,0.0,-21.0,-2.02105712890625,1.7244415283203125,Waiting,0.0,0.0,17.0,0.0,0.0,0.0,0.0,0.0,
2.3018680000000002,0.0,0.0,false,4486781.428571428,,-1997.0,8.25,682.5,0.0,0.0,0.125,1.884765432,0.0,0.0,-390.0,56.375,-1380.0,-0.0,0.0,0.0,2.7380368290000003,0.0,0.0,-4350.0,1.375,390.0,0.0,0.0,0.0,4.073485911000001,0.0,-0.023193357000000248,-350.0,25.875,-765.0,-0.0,0.0,0.0,2.567138409,0.0,0.0,0.9300000071525574,-1.2200000286102295,54.7400016784668,-0.432373046875,0.2520751953125,1.11029052734375,35.41999816894531,0.0,-44.0,-2.0350799560546875,1.7275238037109375,Waiting,0.0,0.0,17.0,0.0,0.0,0.0,0.0,0.0,
2.3321500000000013,0.0,0.0,false,4486788.879207921,,-1997.0,8.0,622.5,0.0,0.0,0.125,1.884765432,0.0,0.0,-390.0,57.5,-1260.0,-0.0,0.0,0.0,2.730712611,0.0,0.0,-4350.0,1.125,292.5,0.0,0.0,0.0,4.074706614,0.0,-0.010986326999999463,-350.0,25.75,-652.5,-0.0,0.0,0.0,2.564697003,0.0,0.0,0.8799999952316284,-1.4800000190734863,55.060001373291016,-0.53887939453125,0.07623291015625,0.97357177734375,35.41999816894531,0.0,-243.0,-2.0499267578125,1.73162841796875,Waiting,0.0,0.0,17.0,0.0,0.0,0.0,0.0,0.0,
2.350849,0.0,0.0,false,4486732.61660079,,-1997.0,8.0,570.0,588.0,0.0,0.125,1.884765432,0.5533560492066917,0.0,-390.0,59.625,-1192.5,-588.0,0.0,0.0,2.7380368290000003,1.9228160581136373,0.0,-4350.0,0.375,262.5,588.0,0.0,0.0,4.069823802,4.40175868900686,-0.010986326999999463,-350.0,25.75,-600.0,-588.0,0.0,0.0,2.564697003,3.0252667311543298,0.0,0.8999999761581421,-1.7100000381469727,55.220001220703125,-0.22869873046875,0.03021240234375,0.90948486328125,35.41999816894531,0.0,-101.0,-2.0577239990234375,1.734222412109375,Waiting,0.0,0.0,17.0,0.0,0.0,0.0,0.0,0.0,
2.3705420000000013,0.0,0.0,false,4486604.291913215,,-1997.0,7.25,517.5,588.0,0.0,0.125,1.885986135,0.5533560492066917,0.0,-390.0,60.875,-1125.0,-588.0,0.0,0.0,2.7368161260000003,1.9228160581136373,0.0,-4350.0,0.25,255.0,588.0,0.0,0.0,4.051513257,4.40175868900686,-0.003662109000000413,-350.0,21.875,-547.5,-588.0,0.0,0.0,2.565917706,3.0252667311543298,0.0,0.9700000286102295,-2.059999942779541,55.529998779296875,-0.1805419921875,0.0706787109375,0.90911865234375,35.41999816894531,0.0,-38.0,-2.0736541748046875,1.74041748046875,Waiting,0.0,0.0,17.0,0.0,0.0,0.0,0.0,0.0,
2.391809000000001,0.0,0.0,false,4486413.039370079,,-1997.0,5.5,465.0,588.0,0.0,0.125,1.884765432,0.5533560492066917,0.0,-390.0,59.5,-1057.5,-588.0,0.0,3.375,2.7868649490000004,1.9228160581136373,0.0,-4299.0,0.125,270.0,588.0,0.0,1.25,4.031982009,4.40175868900686,-0.003662109000000413,-424.0,17.875,-502.5,-588.0,0.0,5.625,2.564697003,3.0252667311543298,0.0,0.9599999785423279,-1.9800000190734863,55.66999816894531,0.08758544921875,-0.0455322265625,0.612548828125,35.41999816894531,0.0,15.0,-2.0816802978515625,1.7436981201171875,Waiting,0.0,0.0,17.0,0.0,0.0,0.0,0.0,0.0,
2.4118870000000006,0.0,0.0,false,4486159.229862476,,-1935.0,3.875,427.5,588.0,0.0,1.0,1.883544729,0.5533560492066917,0.0,-541.0,59.5,-1057.5,-588.0,0.0,5.125,2.8918454070000004,1.9228160581136373,0.0,-4299.0,0.0,300.0,588.0,0.0,1.5,3.9379878780000004,4.40175868900686,4.90517188,-424.0,13.125,-465.0,-588.0,0.0,7.125,2.460937248,3.0252667311543298,-0.0012207029999999897,0.949999988079071,-2.059999942779541,55.88999938964844,-0.1318359375,0.079345703125,1.065185546875,35.41999816894531,0.0,-1.0,-2.0979156494140625,1.7502899169921875,Waiting,0.0,0.0,17.0,0.0,0.0,0.0,0.0,0.0,
2.436885,0.0,0.0,false,4485843.231372549,,-1935.0,1.375,352.5,588.0,0.0,1.375,1.981200969,0.5533560492066917,0.0,-541.0,54.75,-892.5,-588.0,0.0,6.0,3.0590817180000003,1.9228160581136373,0.08544920999999972,-4299.0,0.0,330.0,588.0,0.0,1.75,3.878173431,4.40175868900686,4.90517188,-424.0,11.25,-435.0,-588.0,0.0,7.875,2.353515384,3.0252667311543298,-0.0012207029999999897,0.9900000095367432,-2.109999895095825,55.959999084472656,-0.03173828125,-0.092529296875,1.52734375,35.41999816894531,0.0,-84.0,-2.10614013671875,1.7536773681640625,Waiting,0.0,0.0,17.0,0.0,0.0,0.0,0.0,0.0,
2.4542900000000007,0.0,0.0,false,4485465.409001957,,-1935.0,1.375,352.5,588.0,0.0,0.625,2.033691198,0.5533560492066917,0.0,-541.0,55.375,-817.5,-588.0,0.0,3.0,3.194579751,1.9228160581136373,0.08544920999999972,-4299.0,0.0,345.0,588.0,0.0,0.625,3.7988277360000002,4.40175868900686,4.90517188,-424.0,9.875,-397.5,-588.0,0.0,3.0,2.243652114,3.0252667311543298,-0.0012207029999999897,0.949999988079071,-2.180000066757202,56.0,-0.1107177734375,0.40936279296875,1.3233642578125,35.41999816894531,0.0,287.0,-2.1142120361328125,1.757171630859375,Waiting,0.0,0.0,17.0,0.0,0.0,0.0,0.0,0.0,
2.485965,0.0,0.0,false,4485017.234375,,-1935.0,1.0,300.0,588.0,0.0,0.625,2.1203611110000002,0.5533560492066917,0.1147460820000008,-541.0,54.625,-750.0,-588.0,0.0,1.625,3.358153953,1.9228160581136373,0.262451145,-4299.0,0.0,337.5,588.0,0.0,0.125,3.707275011,4.40175868900686,-0.1611327960000004,-424.0,8.875,-345.0,-588.0,0.0,1.875,2.103271269,3.0252667311543298,4.736318381,0.9700000286102295,-2.069999933242798,56.0,-0.27587890625,-0.1893310546875,0.6055908203125,35.41999816894531,0.0,-307.0,-2.1300506591796875,1.7647857666015625,Waiting,0.0,0.0,17.0,0.0,0.0,0.0,0.0,0.0,
2.5062980000000006,0.0,0.0,false,4484507.992202729,,-1935.0,0.75,277.5,588.0,0.0,0.5,2.145995874,0.5533560492066917,0.1147460820000008,-541.0,56.125,-705.0,-588.0,0.0,1.25,3.494872689,1.9228160581136373,0.262451145,-4299.0,0.0,322.5,588.0,0.0,0.125,3.646239861,4.40175868900686,-0.1611327960000004,-424.0,7.875,-285.0,-588.0,0.0,1.875,1.9946287020000002,3.0252667311543298,4.736318381,1.0800000429153442,-2.359999895095825,55.939998626708984,-0.263916015625,0.12420654296875,1.5313720703125,35.41999816894531,0.0,-33.0,-2.138275146484375,1.76885986328125,Waiting,0.0,0.0,17.0,0.0,0.0,0.0,0.0,0.0,
2.528978000000001,0.0,0.0,false,4483938.038910506,,-1892.0,0.5,262.5,588.0,0.0,0.5,2.200927509,0.5533560492066917,0.14892576599999963,-669.0,58.0,-727.5,-588.0,0.0,1.0,3.652343376,1.9228160581136373,0.47851557599999994,-4254.0,0.125,292.5,588.0,0.0,0.0,3.5864254140000003,4.40175868900686,-0.16723631099999992,-453.0,7.125,-217.5,-588.0,0.0,1.875,1.8432615300000001,3.0252667311543298,-0.26733395699999996,1.1100000143051147,-2.430000066757202,55.63999938964844,-0.22076416015625,0.0595703125,0.7156982421875,35.41999816894531,0.0,-69.0,-2.154754638671875,1.77801513671875,Waiting,0.0,0.0,17.0,0.0,0.0,0.0,0.0,0.0,
2.548474,0.0,0.0,false,4483307.72815534,,-1892.0,0.375,262.5,588.0,0.0,0.375,2.2705075800000003,0.5533560492066917,0.14892576599999963,-669.0,61.5,-742.5,-588.0,0.0,0.875,3.775634379,1.9228160581136373,0.47851557599999994,-4254.0,0.125,285.0,588.0,0.0,0.0,3.554687136,4.40175868900686,-0.16723631099999992,-453.0,6.0,-157.5,-588.0,0.0,2.25,1.750488102,3.0252667311543298,-0.26733395699999996,1.0800000429153442,-2.559999942779541,55.40999984741211,-0.36004638671875,0.1258544921875,0.86578369140625,35.41999816894531,0.0,-92.0,-2.1631011962890625,1.7830963134765625,Waiting,0.0,0.0,17.0,0.0,0.0,0.0,0.0,0.0,
2.567452000000001,0.0,0.0,false,4482617.4108527135,,-1892.0,0.25,270.0,588.0,0.0,0.25,2.298583749,0.5533560492066917,0.14892576599999963,-669.0,64.125,-735.0,-588.0,0.0,0.875,3.916015224,1.9228160581136373,0.47851557599999994,-4254.0,0.125,277.5,588.0,0.0,0.0,3.5302730760000003,4.40175868900686,-0.14282225100000012,-453.0,4.875,-97.5,-588.0,0.0,2.25,1.6015623360000002,3.0252667311543298,-0.3613280879999996,1.2300000190734863,-2.6500000953674316,54.81999969482422,-0.3211669921875,0.0125732421875,1.046142578125,35.41999816894531,0.0,-165.0,-2.179840087890625,1.79425048828125,Waiting,0.0,0.0,17.0,0.0,0.0,0.0,0.0,0.0,
2.588992,0.0,0.0,false,4481858.630560928,,-1892.0,0.25,277.5,588.0,0.0,0.25,2.3242185120000003,0.5533560492066917,0.13793943900000016,-669.0,66.125,-667.5,-588.0,0.0,0.75,4.050292554,1.9228160581136373,0.261230442,-4254.0,0.125,270.0,588.0,0.0,0.0,3.5192867490000004,4.40175868900686,-0.14282225100000012,-453.0,3.5,-45.0,-588.0,0.0,2.625,1.496581878,3.0252667311543298,-0.3613280879999996,1.2799999713897705,-2.75,54.470001220703125,-0.2073974609375,0.1961669921875,1.11956787109375,35.41999816894531,0.0,50.0,-2.188323974609375,1.8002777099609375,Waiting,0.0,0.0,17.0,0.0,0.0,0.0,0.0,0.0,
2.610706,0.0,0.0,false,4481040.571428572,,-1892.0,0.125,277.5,588.0,0.0,0.25,2.3303220270000002,0.5533560492066917,0.13793943900000016,-669.0,67.625,-592.5,-588.0,0.0,0.5,4.17480426,1.9228160581136373,0.261230442,-4254.0,0.0,262.5,588.0,0.0,0.0,3.5168453430000004,4.40175868900686,-0.14282225100000012,-453.0,2.25,-7.5,-588.0,0.0,2.625,1.376952984,3.0252667311543298,-0.25146481800000053,1.340000033378601,-2.740000009536743,53.77000045776367,-0.018310546875,0.15728759765625,0.89599609375,35.41999816894531,0.0,124.0,-2.2052001953125,1.8127593994140625,Waiting,0.0,0.0,17.0,0.0,0.0,0.0,0.0,0.0,
2.6326540000000005,0.0,0.0,false,4480163.5761079,,-1892.0,0.125,285.0,588.0,0.0,0.25,2.3315427300000002,0.5533560492066917,0.04516601100000006,-669.0,68.25,-480.0,-588.0,0.0,0.375,4.318847214,1.9228160581136373,0.2954101260000006,-4218.0,0.125,247.5,588.0,0.0,0.0,3.5180660460000004,4.40175868900686,-0.030517574999999297,-445.0,1.625,22.5,-588.0,0.0,2.625,1.248779169,3.0252667311543298,-0.25146481800000053,1.350000023841858,-2.7200000286102295,53.41999816894531,-0.0479736328125,0.0147705078125,0.9774169921875,35.41999816894531,0.0,-7.0,-2.2135162353515625,1.819061279296875,Waiting,0.0,0.0,17.0,0.0,0.0,0.0,0.0,0.0,
2.6528960000000006,0.0,0.0,false,4479227.984615385,,-1844.0,0.125,292.5,588.0,0.0,0.25,2.3315427300000002,0.5533560492066917,0.04516601100000006,-715.0,69.875,-360.0,-588.0,0.0,0.0,4.410399939,1.9228160581136373,0.2954101260000006,-4218.0,0.125,225.0,588.0,0.0,0.0,3.5156246400000004,4.40175868900686,-0.030517574999999297,-445.0,1.0,45.0,-588.0,0.0,2.25,1.146240117,3.0252667311543298,-0.25146481800000053,1.399999976158142,-2.7200000286102295,53.09000015258789,0.08538818359375,0.0133056640625,0.93585205078125,35.41999816894531,0.0,70.0,-2.2218017578125,1.8253021240234375,Waiting,0.0,0.0,17.0,0.0,0.0,0.0,0.0,0.0,
2.675855000000001,0.0,0.0,false,4478234.134357005,,-1844.0,0.125,300.0,588.0,0.0,0.125,2.332763433,0.5533560492066917,0.0,-715.0,69.0,-285.0,-588.0,0.0,0.0,4.536132348000001,1.9228160581136373,0.3271484039999999,-4218.0,0.375,210.0,588.0,0.0,0.0,3.5192867490000004,4.40175868900686,-0.0024414060000008675,-445.0,0.625,52.5,-588.0,0.0,2.25,1.044921768,3.0252667311543298,-0.3369140279999998,1.3899999856948853,-2.559999942779541,52.470001220703125,0.06103515625,0.09490966796875,1.0294189453125,35.41999816894531,0.0,120.0,-2.2382354736328125,1.8375396728515625,Waiting,0.0,0.0,17.0,0.0,0.0,0.0,0.0,0.0,
2.6941640000000007,0.0,0.0,false,4477173.639846743,,-1844.0,0.125,307.5,588.0,0.0,0.125,2.3315427300000002,0.5533560492066917,0.0,-715.0,68.5,-292.5,-588.0,0.0,0.0,4.5507807840000005,1.9228160581136373,0.3271484039999999,-4218.0,0.5,195.0,588.0,0.0,0.0,3.5168453430000004,4.40175868900686,-0.0024414060000008675,-445.0,0.375,52.5,-588.0,0.0,1.5,0.991210836,3.0252667311543298,-0.3369140279999998,1.3300000429153442,-2.490000009536743,52.189998626708984,-0.056640625,0.07183837890625,0.9320068359375,35.41999816894531,0.0,29.0,-2.2463226318359375,1.8436431884765625,Waiting,0.0,0.0,17.0,0.0,0.0,0.0,0.0,0.0,
2.7125650000000006,0.0,0.0,false,4476055.586998088,,-1844.0,0.0,307.5,588.0,0.0,0.125,2.3315427300000002,0.5533560492066917,0.0,-715.0,65.75,-360.0,-588.0,0.0,0.0,4.559325705,1.9228160581136373,0.3271484039999999,-4218.0,0.5,180.0,588.0,0.0,0.0,3.5229488580000003,4.40175868900686,0.0012207030000004337,-445.0,0.375,37.5,-588.0,0.0,1.125,0.928954983,3.0252667311543298,-0.1464843600000001,1.350000023841858,-2.430000066757202,51.900001525878906,0.04327392578125,-0.4415283203125,0.826171875,35.41999816894531,0.0,-314.0,-2.2545928955078125,1.855194091796875,Waiting,0.0,0.0,17.0,0.0,0.0,0.0,0.0,0.0,
2.747323,0.0,0.0,false,4474863.740458015,,-1844.0,0.0,300.0,588.0,0.0,0.125,2.3315427300000002,0.5533560492066917,0.0,-715.0,63.875,-450.0,-588.0,0.0,0.0,4.570312032,1.9228160581136373,0.10620116099999954,-4218.0,0.75,180.0,588.0,0.0,0.0,3.5180660460000004,4.40175868900686,0.0012207030000004337,-445.0,0.0,15.0,-588.0,0.0,0.75,0.876464754,3.0252667311543298,-0.1464843600000001,1.159999966621399,-2.25,51.220001220703125,-0.1436767578125,0.09942626953125,0.94976806640625,35.41999816894531,0.0,-4.0,-2.2793426513671875,1.86614990234375,Waiting,0.0,0.0,17.0,0.0,0.0,0.0,0.0,0.0,
2.766835000000001,0.0,0.0,false,4473615.055238095,,-1804.0,0.125,277.5,588.0,0.0,0.125,2.337646245,0.5533560492066917,0.0,-804.0,61.0,-555.0,-588.0,0.0,0.0,4.570312032,1.9228160581136373,0.10620116099999954,-4187.0,1.0,187.5,588.0,0.0,0.0,3.505859016,4.40175868900686,-0.0012207030000004337,-446.0,0.0,0.0,-588.0,0.0,0.375,0.825195228,3.0252667311543298,-0.12207029999999985,1.1399999856948853,-2.2799999713897705,50.849998474121094,0.16351318359375,-0.02978515625,0.94482421875,35.41999816894531,0.0,89.0,-2.2957000732421875,1.8773345947265625,Waiting,0.0,0.0,17.0,0.0,0.0,0.0,0.0,0.0,
2.793273000000001,0.0,0.0,false,4472301.201520912,,-1804.0,0.125,255.0,588.0,0.0,0.125,2.336425542,0.5533560492066917,0.0012207029999995456,-804.0,58.875,-592.5,-588.0,0.0,0.0,4.567870626,1.9228160581136373,0.014648435999999876,-4187.0,1.375,195.0,588.0,0.0,0.0,3.5217281550000004,4.40175868900686,-0.0012207030000004337,-446.0,0.0,-15.0,-588.0,0.0,0.375,0.797119059,3.0252667311543298,-0.12207029999999985,1.2899999618530273,-2.2699999809265137,50.47999954223633,0.0037841796875,0.015625,1.11126708984375,35.349998474121094,0.0,23.0,-2.3119964599609375,1.88824462890625,Waiting,0.0,0.0,17.0,0.0,0.0,0.0,0.0,0.0,
2.811919000000002,0.0,0.0,false,4470931.187855788,,-1804.0,0.125,217.5,588.0,0.0,0.125,2.337646245,0.5533560492066917,0.0012207029999995456,-804.0,57.125,-412.5,-588.0,0.0,0.0,4.569091329,1.9228160581136373,0.014648435999999876,-4187.0,1.5,195.0,588.0,0.0,0.0,3.5168453430000004,4.40175868900686,0.0,-446.0,0.0,-30.0,-588.0,0.0,0.375,0.76904289,3.0252667311543298,-0.07202147700000028,1.2899999618530273,-2.2699999809265137,50.47999954223633,0.0037841796875,0.015625,1.11126708984375,35.349998474121094,0.0,23.0,-2.3119964599609375,1.88824462890625,Waiting,0.0,0.0,17.0,0.0,0.0,0.0,0.0,0.0,
2.835576000000001,0.0,0.0,false,4469505.333333333,,-1804.0,0.125,180.0,588.0,0.0,0.125,2.3205564030000003,0.5533560492066917,0.003662109000000413,-804.0,53.625,-255.0,-588.0,0.0,0.0,4.571532735,1.9228160581136373,0.0,-4187.0,1.875,187.5,588.0,0.0,0.0,3.5156246400000004,4.40175868900686,0.0,-446.0,0.0,-52.5,-588.0,0.0,0.0,0.7507323450000001,3.0252667311543298,-0.07202147700000028,1.2899999618530273,-2.309999942779541,50.099998474121094,-0.1820068359375,0.0609130859375,0.872802734375,35.349998474121094,0.0,-62.0,-2.328338623046875,1.899261474609375,Waiting,0.0,0.0,17.0,0.0,0.0,0.0,0.0,0.0,
2.8541730000000007,0.0,0.0,false,4468023.95463138,,-1804.0,0.125,180.0,588.0,0.0,0.125,2.336425542,0.5533560492066917,0.003662109000000413,-804.0,53.0,-142.5,-588.0,0.0,0.0,4.570312032,1.9228160581136373,0.0,-4187.0,2.0,187.5,588.0,0.0,0.0,3.5168453430000004,4.40175868900686,0.0,-446.0,0.0,-67.5,-588.0,0.0,0.0,0.7373046120000001,3.0252667311543298,-0.07202147700000028,1.3700000047683716,-2.359999895095825,49.88999938964844,-0.05938720703125,0.2308349609375,1.1339111328125,35.349998474121094,0.0,147.0,-2.3364715576171875,1.905029296875,Waiting,0.0,0.0,17.0,0.0,0.0,0.0,0.0,0.0,
2.885492,0.0,0.0,false,4466487.366037736,,-1776.0,0.25,165.0,588.0,0.0,0.125,2.337646245,0.5533560492066917,0.0012207029999995456,-814.0,52.0,-67.5,-588.0,0.0,0.0,4.570312032,1.9228160581136373,0.0,-4151.0,2.125,195.0,588.0,0.0,0.0,3.5168453430000004,4.40175868900686,0.0012207030000004337,-459.0,0.0,-75.0,-588.0,0.0,0.0,0.72021477,3.0252667311543298,-0.04760741700000004,1.350000023841858,-2.0999999046325684,49.25,0.10504150390625,-0.119140625,0.93133544921875,35.349998474121094,0.0,-16.0,-2.360382080078125,1.921600341796875,Waiting,0.0,0.0,17.0,0.0,0.0,0.0,0.0,0.0,
2.9055340000000016,0.0,0.0,false,4464887.306967985,,-1776.0,0.25,172.5,588.0,0.0,0.125,2.333984136,0.5533560492066917,0.0012207029999995456,-814.0,50.25,-45.0,-588.0,0.0,0.0,4.571532735,1.9228160581136373,0.0,-4151.0,2.125,225.0,588.0,0.0,0.0,3.5168453430000004,4.40175868900686,0.0012207030000004337,-459.0,0.0,-82.5,-588.0,0.0,0.0,0.7104491460000001,3.0252667311543298,-0.04760741700000004,1.350000023841858,-2.0999999046325684,49.25,0.10504150390625,-0.119140625,0.93133544921875,35.349998474121094,0.0,-16.0,-2.360382080078125,1.921600341796875,Waiting,0.0,0.0,17.0,0.0,0.0,0.0,0.0,0.0,
2.9285610000000015,0.0,0.0,false,4463232.691729323,,-1776.0,0.375,180.0,588.0,0.0,0.125,2.332763433,0.5533560492066917,-0.0012207029999995456,-814.0,48.625,-60.0,-588.0,0.0,0.0,4.57763625,1.9228160581136373,0.004882811999999959,-4151.0,2.125,262.5,588.0,0.0,0.0,3.5205074520000004,4.40175868900686,-0.0024414059999999793,-459.0,0.0,-90.0,-588.0,0.0,0.0,0.7006835220000001,3.0252667311543298,-0.03662108999999969,1.2599999904632568,-2.059999942779541,49.060001373291016,0.078369140625,0.01165771484375,1.06292724609375,35.349998474121094,0.0,67.0,-2.36834716796875,1.9267120361328125,Waiting,0.0,0.0,17.0,0.0,0.0,0.0,0.0,0.0,
2.9474220000000004,0.0,0.0,false,4461523.82739212,,-1776.0,0.375,202.5,588.0,0.0,0.125,2.336425542,0.5533560492066917,-0.0012207029999995456,-814.0,48.625,-75.0,-588.0,0.0,0.0,4.569091329,1.9228160581136373,0.004882811999999959,-4151.0,2.375,292.5,588.0,0.0,0.0,3.511962531,4.40175868900686,-0.0024414059999999793,-459.0,0.0,-97.5,-588.0,0.0,0.0,0.701904225,3.0252667311543298,-0.03662108999999969,1.1799999475479126,-1.909999966621399,48.56999969482422,0.01171875,0.02056884765625,0.99871826171875,35.349998474121094,0.0,29.0,-2.38433837890625,1.9362945556640625,Waiting,0.0,0.0,17.0,0.0,0.0,0.0,0.0,0.0,
2.9656960000000017,0.0,0.0,false,4459761.018726592,,-1776.0,0.375,232.5,588.0,0.0,0.125,2.341308354,0.5533560492066917,-0.0012207029999995456,-814.0,48.875,-75.0,-588.0,0.0,0.0,4.570312032,1.9228160581136373,0.004882811999999959,-4151.0,2.5,307.5,588.0,0.0,0.0,3.514403937,4.40175868900686,-0.003662109000000413,-459.0,0.0,-112.5,-588.0,0.0,0.0,0.692138601,3.0252667311543298,-0.0170898420000003,1.1399999856948853,-1.8600000143051147,48.290000915527344,0.1048583984375,-0.113525390625,0.95465087890625,35.349998474121094,0.0,-8.0,-2.3923492431640625,1.9408416748046875,Waiting,0.0,0.0,17.0,0.0,0.0,0.0,0.0,0.0,
2.990054,0.0,0.0,false,4457944.568224299,,-1776.0,0.375,262.5,588.0,0.0,0.125,2.337646245,0.5533560492066917,0.0012207029999995456,-814.0,48.875,-75.0,-588.0,0.0,0.0,4.5581050020000005,1.9228160581136373,-0.003662108999999525,-4151.0,2.5,285.0,588.0,0.0,0.0,3.511962531,4.40175868900686,-0.003662109000000413,-486.0,0.125,-127.5,-588.0,0.0,0.0,0.677490165,3.0252667311543298,-0.0170898420000003,1.0499999523162842,-1.7999999523162842,47.68000030517578,0.00750732421875,-0.015869140625,0.8363037109375,35.349998474121094,0.0,0.0,-2.4084320068359375,1.9495697021484375,Waiting,0.0,0.0,17.0,0.0,0.0,0.0,0.0,0.0,
3.0127750000000013,0.0,0.0,false,4456066.2835820895,,-1726.0,0.375,300.0,588.0,0.0,0.125,2.336425542,0.5533560492066917,0.0012207029999995456,-827.0,50.0,-67.5,-588.0,0.0,0.0,4.569091329,1.9228160581136373,-0.003662108999999525,-4108.0,2.5,262.5,588.0,0.0,0.0,3.513183234,4.40175868900686,0.0,-486.0,0.25,-165.0,-588.0,0.0,0.0,0.675048759,3.0252667311543298,-0.015869138999999866,1.1200000047683716,-1.8300000429153442,46.93000030517578,0.06939697265625,0.0010986328125,1.27392578125,35.349998474121094,0.0,57.0,-2.4245147705078125,1.958343505859375,Waiting,0.0,0.0,17.0,0.0,0.0,0.0,0.0,0.0,
3.0351320000000013,0.0,0.0,false,4454134.986964618,,-1726.0,0.375,315.0,588.0,0.0,0.125,2.336425542,0.5533560492066917,-0.0012207029999995456,-827.0,51.375,-67.5,-588.0,0.0,0.0,4.57763625,1.9228160581136373,0.0024414059999999793,-4108.0,2.75,240.0,588.0,0.0,0.0,3.511962531,4.40175868900686,0.0,-486.0,0.25,-180.0,-588.0,0.0,0.0,0.6738280560000001,3.0252667311543298,-0.015869138999999866,1.1799999475479126,-1.75,46.4900016784668,0.04010009765625,-0.0931396484375,0.8751220703125,35.349998474121094,0.0,-34.0,-2.432525634765625,1.9625701904296875,Waiting,0.0,0.0,17.0,0.0,0.0,0.0,0.0,0.0,
3.053884,0.0,0.0,false,4452150.973977695,,-1726.0,0.5,330.0,588.0,0.0,0.125,2.336425542,0.5533560492066917,-0.0012207029999995456,-827.0,53.0,-67.5,-588.0,0.0,0.0,4.570312032,1.9228160581136373,0.0024414059999999793,-4108.0,3.0,232.5,588.0,0.0,0.0,3.511962531,4.40175868900686,0.0,-486.0,0.25,-180.0,-588.0,0.0,0.0,0.6726073530000001,3.0252667311543298,-0.015869138999999866,1.149999976158142,-1.7200000286102295,46.029998779296875,-0.0213623046875,0.07904052734375,0.83551025390625,35.349998474121094,0.0,47.0,-2.440521240234375,1.966766357421875,Waiting,0.0,0.0,17.0,0.0,0.0,0.0,0.0,0.0,
3.0758740000000016,0.0,0.0,false,4450114.538033395,,-1726.0,0.5,322.5,588.0,0.0,0.125,2.336425542,0.5533560492066917,0.0012207029999995456,-827.0,54.25,-75.0,-588.0,0.0,0.0,4.582519062,1.9228160581136373,0.0012207029999995456,-4108.0,3.25,247.5,588.0,0.0,0.0,3.511962531,4.40175868900686,0.0,-486.0,0.25,-202.5,-588.0,0.0,0.0,0.6738280560000001,3.0252667311543298,-0.004882811999999959,1.2400000095367432,-1.6799999475479126,45.0,-0.0899658203125,0.15716552734375,1.01922607421875,35.349998474121094,0.0,52.0,-2.4564056396484375,1.9752044677734375,Waiting,0.0,0.0,17.0,0.0,0.0,0.0,0.0,0.0,
3.0947610000000005,0.0,0.0,false,4448025.97037037,,-1726.0,0.5,322.5,588.0,0.0,0.125,2.336425542,0.5533560492066917,0.0012207029999995456,-827.0,56.0,-112.5,-588.0,0.0,0.0,4.564208517,1.9228160581136373,0.0012207029999995456,-4108.0,3.25,285.0,588.0,0.0,0.0,3.511962531,4.40175868900686,0.0,-486.0,0.25,-232.5,-588.0,0.0,0.0,0.668945244,3.0252667311543298,-0.004882811999999959,1.2400000095367432,-1.6200000047683716,44.40999984741211,-0.15478515625,0.21868896484375,1.1199951171875,35.349998474121094,0.0,48.0,-2.4642486572265625,1.979705810546875,Waiting,0.0,0.0,17.0,0.0,0.0,0.0,0.0,0.0,
3.113625,0.0,0.0,false,4445877.146025878,,-1726.0,0.5,322.5,588.0,0.0,0.125,2.3266599180000003,0.5533560492066917,0.0012207029999995456,-866.0,58.25,-150.0,-588.0,0.0,0.0,4.57763625,1.9228160581136373,0.0012207029999995456,-4050.0,3.25,315.0,588.0,0.0,0.0,3.511962531,4.40175868900686,0.0,-534.0,0.25,-292.5,-588.0,0.0,0.0,0.668945244,3.0252667311543298,-0.003662108999999969,1.3700000047683716,-1.649999976158142,43.130001068115234,0.05255126953125,-0.09063720703125,0.87176513671875,35.349998474121094,0.0,-19.0,-2.479827880859375,1.9891815185546875,Waiting,0.0,0.0,17.0,0.0,0.0,0.0,0.0,0.0,
3.1454140000000006,0.0,0.0,false,4443676.797047971,,-1670.0,0.5,337.5,588.0,0.0,0.125,2.336425542,0.5533560492066917,0.0,-866.0,61.125,-225.0,-588.0,0.0,0.0,4.575194844,1.9228160581136373,0.0,-4050.0,3.125,345.0,588.0,0.0,0.0,3.513183234,4.40175868900686,0.0,-534.0,0.125,-322.5,-588.0,0.0,0.0,0.667724541,3.0252667311543298,-0.003662108999999969,1.3300000429153442,-1.5700000524520874,42.40999984741211,-0.08868408203125,0.2208251953125,1.07220458984375,35.349998474121094,0.0,88.0,-2.487548828125,1.99395751953125,Waiting,0.0,0.0,17.0,0.0,0.0,0.0,0.0,0.0,
