Time,ClimberA1,ClimberA2,CameraExists,HeapSpace,LoopTime,FRpos,FRCurrent,FRspeed,FRsetpoint,FRApos,FRACurrent,FREncpos,FREncSetpoint,FREncSpeed,FLpos,FLCurrent,FLspeed,FLsetpoint,FLApos,FLACurrent,FLEncpos,FLEncSetpoint,FLEncSpeed,BRpos,BRCurrent,BRspeed,BRsetpoint,BRApos,BRACurrent,BREncpos,BREncSetpoint,BREncSpeed,BLpos,BLCurrent,BLspeed,BLsetpoint,BLApos,BLACurrent,BLEncpos,BLEncSetpoint,BLEncSpeed,navx_Pitch,navx_Roll,navx_Yaw,navx_XAcc,navx_YAcc,navx_ZAcc,navx_Temp,navx_Bar,navx_Alt,navx_XDis,navx_YDis,GearPlacerState,ShootOutputV,ShootOutputCurrent,ShootEncPos,ShootEncVelocity,ShootSpeed,ShootSetpoint,CarouselSetpoint,CarouselCurrent,
0.1903769999999786,0.0,0.0,false,3886421.207393787,,-3935.0,0.0,0.0,0.0,0.0,0.0,1.7871091920000002,0.0,0.0,-58161.0,0.0,0.0,0.0,0.0,0.0,2.7465817500000003,0.0,0.0,19875.0,0.0,0.0,0.0,0.0,0.0,4.058837475,0.0,0.0,-36072.0,0.0,0.0,0.0,0.0,0.0,2.521972398,0.0,0.0,1.2400000095367432,0.10000000149011612,79.18000030517578,8.544921875E-4,0.0218505859375,1.00146484375,32.11000061035156,0.0,0.0,0.1242523193359375,-1.578338623046875,Waiting,0.0,0.0,-114.0,0.0,0.0,0.0,0.0,0.0,
0.3306969999999856,0.0,0.0,false,3886527.7801432167,,-3915.0,9.75,232.5,1260.0,0.0,0.0,1.7932127070000001,0.0,0.0,-58193.0,9.875,-330.0,-1260.0,0.0,0.0,2.73437472,0.0,0.0,19907.0,8.0,367.5,1260.0,0.0,0.0,4.0332027120000005,-0.0,0.0,-36090.0,10.25,-202.5,-1260.0,0.0,0.0,2.5366208340000003,-0.0,0.0,1.190000057220459,1.3799999952316284,79.16999816894531,0.2166748046875,-0.1885986328125,0.76348876953125,32.11000061035156,0.0,-163.0,0.1237335205078125,-1.589752197265625,Waiting,0.0,0.0,-114.0,0.0,0.0,0.0,0.0,0.0,
0.4799519999999902,0.0,0.0,false,3886614.9743589745,,-3852.0,10.375,600.0,1260.0,0.0,0.0,1.7883298950000002,4.9638620816548675,0.0,-58261.0,10.75,-652.5,-1260.0,0.0,0.0,2.73437472,4.948862498410542,0.0,19969.0,10.0,652.5,1260.0,0.0,0.0,4.027099197,4.953862359491984,0.0,-36146.0,11.875,-637.5,-1260.0,0.0,0.0,2.5415036460000002,4.94736254008611,0.0,1.2300000190734863,2.809999942779541,79.38999938964844,0.059326171875,-0.0347900390625,1.0216064453125,32.11000061035156,0.0,-54.0,0.1261749267578125,-1.63665771484375,Waiting,0.0,0.0,-114.0,0.0,0.0,0.0,0.0,0.0,
0.6238040000000037,0.0,0.0,false,3886682.7716718265,,-3552.0,7.875,1005.0,1260.0,0.0,0.0,1.7871091920000002,0.0028956540425618496,0.0,-58567.0,7.875,-1005.0,-1260.0,0.0,0.0,2.7392575320000003,0.002886904080708822,0.0,20290.0,5.25,1110.0,1260.0,0.0,0.0,4.029540603,0.002889820734659831,0.0,-36438.0,8.875,-1012.5,-1260.0,0.0,0.0,2.5402829430000002,0.0028860290845235193,0.0,1.2699999809265137,3.200000047683716,79.55999755859375,0.0556640625,0.1475830078125,1.615966796875,32.11000061035156,0.0,103.0,0.1348724365234375,-1.69573974609375,Waiting,0.0,0.0,-114.0,0.0,0.0,0.0,0.0,0.0,
0.7664729999999982,0.0,0.0,false,3886731.2017026218,,-3356.0,5.875,1207.5,1260.0,0.0,0.0,1.7883298950000002,0.005515576595730253,0.0,-58761.0,6.0,-1200.0,-1260.0,0.0,0.0,2.7392575320000003,0.005498909865485297,0.0,20478.0,5.125,1162.5,1260.0,0.0,0.0,4.027099197,0.005504465442233615,0.0,-36632.0,6.25,-1222.5,-1260.0,0.0,0.0,2.5402829430000002,0.005497243192460801,0.0,1.2899999618530273,3.490000009536743,79.73999786376953,0.0191650390625,0.068603515625,0.7457275390625,32.11000061035156,0.0,46.0,0.1489410400390625,-1.71044921875,Waiting,0.0,0.0,-114.0,0.0,0.0,0.0,0.0,0.0,
0.9081309999999939,0.0,0.0,false,3886760.2700715805,,-3148.0,4.375,1305.0,1260.0,0.0,0.0,1.7871091920000002,0.007721744113498265,0.0,-58953.0,5.75,-1200.0,-1260.0,0.0,0.0,2.7392575320000003,0.00769841088189019,0.0,20681.0,3.875,1267.5,1260.0,0.0,0.0,4.0283199000000005,0.0077061886257595484,0.0,-36841.0,4.875,-1305.0,-1260.0,0.0,0.0,2.5402829430000002,0.007696077558729384,0.0,1.3799999952316284,3.1600000858306885,79.8499984741211,0.00958251953125,-0.0672607421875,1.10198974609375,32.11000061035156,0.0,-101.0,0.163787841796875,-1.7097015380859375,Waiting,0.0,0.0,-114.0,0.0,0.0,0.0,0.0,0.0,
1.0516570000000065,0.0,0.0,false,3886769.9823967502,,-2938.0,4.0,1305.0,1260.0,0.0,0.0,1.7883298950000002,0.009238530307345925,0.0,-59157.0,5.5,-1260.0,-1260.0,0.0,0.0,2.7453610470000003,0.0092106137169732,0.0,20887.0,3.5,1297.5,1260.0,0.0,0.0,4.0258784940000005,0.009219919247097441,0.0,-37052.0,4.125,-1327.5,-1260.0,0.0,0.0,2.545165755,0.00920782205793593,0.0,1.340000033378601,3.0299999713897705,80.12000274658203,0.0802001953125,-0.02587890625,0.87518310546875,32.11000061035156,0.0,-39.0,0.175048828125,-1.7064056396484375,Waiting,0.0,0.0,-114.0,0.0,0.0,0.0,0.0,0.0,
1.188261999999988,0.0,0.0,false,3886760.3442940037,,-2727.0,3.75,1312.5,1260.0,0.0,0.0,1.7883298950000002,0.01296158921983507,0.0,-59358.0,5.375,-1267.5,-1260.0,0.0,0.0,2.7441403440000003,0.012922422451443141,0.0,21095.0,3.25,1297.5,1260.0,0.0,0.0,4.0283199000000005,0.012935478040907116,0.0,-37267.0,3.375,-1342.5,-1260.0,0.0,0.0,2.545165755,0.012918505774603947,0.0,1.3899999856948853,2.9000000953674316,80.33000183105469,0.243408203125,-0.11492919921875,0.66351318359375,32.09000015258789,0.0,-93.0,0.1831512451171875,-1.7015838623046875,Waiting,0.0,0.0,-114.0,0.0,0.0,0.0,0.0,0.0,
1.3302609999999986,0.0,0.0,false,3886735.111884731,,-2517.0,3.75,1297.5,1260.0,0.0,0.125,1.7858884890000002,0.01585724326239692,0.0,-59561.0,5.0,-1267.5,-1260.0,0.0,0.0,2.7429196410000003,0.015809326532151963,0.0,21302.0,3.375,1282.5,1260.0,0.0,0.0,4.045409742,0.01582529877556695,0.0,-37694.0,3.0,-1312.5,-1260.0,0.0,0.0,2.547607161,0.01580453485912747,0.0,1.409999966621399,2.309999942779541,80.37999725341797,-0.09649658203125,-0.22113037109375,1.3768310546875,32.09000015258789,0.0,-276.0,0.195037841796875,-1.69500732421875,Waiting,0.0,0.0,-114.0,0.0,0.0,0.0,0.0,0.0,
1.4787039999999687,0.0,0.0,false,3886690.3415200156,,-2107.0,3.875,1282.5,1260.0,0.0,0.125,1.7883298950000002,0.01654662458631728,0.0,-59962.0,5.75,-1245.0,-1260.0,0.0,0.0,2.7404782350000003,0.01649662471347385,0.0,21715.0,3.125,1297.5,1260.0,0.0,0.0,4.0332027120000005,0.016513291337754993,0.0,-37902.0,3.0,-1305.0,-1260.0,0.0,0.0,2.545165755,0.01649162472618951,0.0,1.2799999713897705,2.2799999713897705,80.5199966430664,-0.30267333984375,0.12860107421875,1.07684326171875,32.09000015258789,0.0,46.0,0.20111083984375,-1.683990478515625,Waiting,0.0,0.0,-114.0,0.0,0.0,0.0,0.0,0.0,
1.6322349999999861,0.0,0.0,false,3886809.8501401916,,-1906.0,4.0,1267.5,1260.0,0.0,0.125,1.7932127070000001,0.01902862879435221,0.0,-60160.0,6.125,-1237.5,-1260.0,0.0,0.0,2.7429196410000003,0.018971128908793128,0.0,21911.0,3.875,1230.0,1260.0,0.0,0.0,4.034423415,0.018990295537312823,0.0,-38106.0,3.125,-1260.0,-1260.0,0.0,0.0,2.546386458,0.01896537892023722,0.0,1.5700000524520874,1.8799999952316284,80.88999938964844,0.132080078125,-0.12396240234375,1.04888916015625,32.09000015258789,0.0,-135.0,0.2087249755859375,-1.659088134765625,Waiting,0.0,0.0,-114.0,0.0,0.0,0.0,0.0,0.0,
1.7785329999999957,0.0,0.0,false,3886912.228924981,,-1697.0,3.625,1290.0,1260.0,0.0,0.125,1.7932127070000001,0.02357898737589519,0.0,-60360.0,6.5,-1237.5,-1260.0,0.0,0.0,2.7429196410000003,0.023507737414042155,0.0,22111.0,3.75,1245.0,1260.0,0.0,0.0,4.0332027120000005,0.0235314874013265,0.0,-38306.0,3.375,-1252.5,-1260.0,0.0,0.0,2.561034894,0.023500612417856854,0.0,1.6299999952316284,1.7400000095367432,80.88999938964844,0.1038818359375,-0.02667236328125,1.1988525390625,32.09000015258789,0.0,-49.0,0.21563720703125,-1.633514404296875,Waiting,0.0,0.0,-114.0,0.0,0.0,0.0,0.0,0.0,
1.9219120000000112,0.0,0.0,false,3886995.1172547126,,-1493.0,3.375,1282.5,1260.0,0.0,0.125,1.7932127070000001,0.02371690572102865,0.0,-60557.0,6.0,-1275.0,-1260.0,0.0,0.0,2.7465817500000003,0.023645239003499352,0.0,22309.0,3.875,1237.5,1260.0,0.0,0.0,4.0332027120000005,0.02366912790934245,0.0,-38513.0,2.875,-1290.0,-1260.0,0.0,0.0,2.546386458,0.02363807233174642,0.0,1.5499999523162842,1.5099999904632568,81.05000305175781,-0.086181640625,0.10906982421875,1.15155029296875,32.09000015258789,0.0,58.0,0.2204437255859375,-1.604522705078125,Waiting,0.0,0.0,-114.0,0.0,0.0,0.0,0.0,0.0,
2.0648630000000123,0.0,0.0,false,3887058.4968103613,,-1287.0,0.0,900.0,0.0,0.0,0.0,1.8127439550000002,0.0,0.0,-60911.0,0.0,-1012.5,-0.0,0.0,0.0,2.7429196410000003,0.0,0.0,22626.0,0.0,795.0,0.0,0.0,0.0,4.062499584,0.0,0.0,-38855.0,0.125,-922.5,-0.0,0.0,0.0,2.553710676,0.0,0.0,1.5199999809265137,0.10999999940395355,81.05999755859375,-0.32989501953125,-0.2158203125,0.77532958984375,32.09000015258789,0.0,-284.0,0.2215728759765625,-1.5671539306640625,Waiting,0.0,0.0,-114.0,0.0,0.0,0.0,0.0,0.0,
2.2081879999999656,0.0,0.0,false,3887102.3972165845,,-1066.0,0.375,615.0,0.0,0.0,0.0,1.8115232520000002,0.0,0.0,-60994.0,0.0,-600.0,-0.0,0.0,0.0,2.7368161260000003,0.0,0.0,22712.0,0.0,540.0,0.0,0.0,0.0,4.062499584,0.0,0.0,-38948.0,0.375,-577.5,-0.0,0.0,0.0,2.545165755,0.0,0.0,1.5,-1.7300000190734863,81.3499984741211,-0.305419921875,-0.041259765625,1.16973876953125,32.04999923706055,0.0,-111.0,0.217559814453125,-1.4858245849609375,Waiting,0.0,0.0,-114.0,0.0,0.0,0.0,0.0,0.0,
2.3483219999999854,0.0,0.0,false,3887126.824120603,,-1030.0,0.0,210.0,0.0,0.0,0.0,1.8115232520000002,0.0,0.0,-61026.0,0.0,-187.5,-0.0,0.0,0.0,2.7429196410000003,0.0,0.0,22749.0,0.0,217.5,0.0,0.0,0.0,4.063720287000001,0.0,0.0,-38986.0,0.0,-172.5,-0.0,0.0,0.0,2.554931379,0.0,0.0,1.4600000381469727,-2.5899999141693115,81.33999633789062,-0.130615234375,0.005615234375,0.89501953125,32.04999923706055,0.0,-30.0,0.208892822265625,-1.38983154296875,Waiting,0.0,0.0,-114.0,0.0,0.0,0.0,0.0,0.0,
2.485173999999999,0.0,0.0,false,3887131.783167456,,-1017.0,0.875,120.0,420.0,0.0,1.0,2.187499776,0.5533560492066917,0.0,-61032.0,1.75,-45.0,-420.0,0.0,1.75,3.3081051300000004,1.9228160581136373,0.0,22769.0,1.625,165.0,420.0,0.0,0.375,3.608398068,4.40175868900686,0.0,-38997.0,0.625,-90.0,-420.0,0.0,1.5,1.927490037,3.0252667311543298,0.0,1.4600000381469727,-2.4100000858306885,81.37999725341797,0.1424560546875,0.0069580078125,0.95660400390625,32.04999923706055,0.0,10.0,0.1983489990234375,-1.2860260009765625,Waiting,0.0,0.0,-114.0,0.0,0.0,0.0,0.0,0.0,
2.6259809999999706,0.0,0.0,false,3887121.05352657,,-1001.0,1.875,135.0,420.0,0.0,0.125,2.51464818,0.5533560492066917,0.0,-61069.0,1.875,-172.5,-420.0,0.0,1.5,4.459228059,1.9228160581136373,0.0,22787.0,2.125,142.5,420.0,0.0,0.0,3.331298487,4.40175868900686,0.0,-39002.0,2.125,0.0,-420.0,0.0,1.875,0.864257724,3.0252667311543298,0.0,1.409999966621399,-1.840000033378601,80.51000213623047,-0.127197265625,-0.01776123046875,0.90771484375,32.040000915527344,0.0,-55.0,0.1879425048828125,-1.186004638671875,Waiting,0.0,0.0,-114.0,0.0,0.0,0.0,0.0,0.0,
2.771021999999997,0.0,0.0,false,3887090.866582939,,-974.0,3.0,112.5,420.0,0.0,0.125,2.5329587250000003,0.5533560492066917,0.0,-61088.0,4.5,-120.0,-420.0,0.0,0.125,4.753417482000001,1.9228160581136373,0.0,22813.0,3.0,225.0,420.0,0.0,0.0,3.347167626,4.40175868900686,0.0,-39033.0,5.875,-45.0,-420.0,0.0,0.0,0.384521445,3.0252667311543298,0.0,1.5800000429153442,-1.9900000095367432,78.12999725341797,-0.0390625,0.0684814453125,0.86700439453125,32.040000915527344,0.0,41.0,0.1733551025390625,-1.08502197265625,Waiting,0.0,0.0,-114.0,0.0,0.0,0.0,0.0,0.0,
2.9136630000000006,0.0,0.0,false,3887041.0301391035,,-910.0,3.625,240.0,420.0,0.0,0.125,2.458495842,0.5533560492066917,0.0,-61180.0,3.0,-397.5,-420.0,0.0,0.0,4.725341313,1.9228160581136373,0.0,22884.0,3.75,225.0,420.0,0.0,0.0,3.449706678,4.40175868900686,0.0,-39098.0,2.375,-382.5,-420.0,0.0,0.0,0.351562464,3.0252667311543298,0.0,1.7699999809265137,-1.8300000429153442,74.05999755859375,0.04119873046875,0.06927490234375,0.80767822265625,32.040000915527344,0.0,60.0,0.1624298095703125,-0.99334716796875,Waiting,0.0,0.0,-114.0,0.0,0.0,0.0,0.0,0.0,
3.0680719999999857,0.0,0.0,false,3887160.5694967643,,-846.0,2.625,397.5,420.0,0.0,0.0,2.402343504,0.5533560492066917,0.0,-61258.0,2.0,-465.0,-420.0,0.0,0.0,4.714354986,1.9228160581136373,0.0,22946.0,3.5,390.0,420.0,0.0,0.0,3.498534798,4.40175868900686,0.0,-39152.0,2.875,-307.5,-420.0,0.0,0.25,0.600585876,3.0252667311543298,0.0,1.8799999952316284,-1.1200000047683716,67.0999984741211,-0.03021240234375,0.00958251953125,1.1180419921875,32.040000915527344,0.0,-28.0,0.148956298828125,-0.8881988525390625,Waiting,0.0,0.0,-114.0,0.0,0.0,0.0,0.0,0.0,
3.2180229999999863,0.0,0.0,false,3887262.692679158,,-787.0,2.75,382.5,420.0,0.0,0.125,2.403564207,0.5533560492066917,0.0,-61316.0,3.0,-390.0,-420.0,0.0,0.0,4.7131342830000005,1.9228160581136373,0.0,23009.0,2.25,465.0,420.0,0.0,0.0,3.497314095,4.40175868900686,0.0,-39236.0,1.125,-540.0,-420.0,0.0,0.0,0.754394454,3.0252667311543298,0.0,1.7899999618530273,-0.75,60.72999954223633,0.0047607421875,0.0706787109375,1.0787353515625,31.979999542236328,0.0,41.0,0.1354217529296875,-0.80096435546875,Waiting,0.0,0.0,-114.0,0.0,0.0,0.0,0.0,0.0,
3.371905999999959,0.0,0.0,false,3887345.2129406086,,-639.0,2.0,472.5,420.0,0.0,0.0,2.40478491,0.5533560492066917,0.0,-61446.0,2.875,-397.5,-420.0,0.0,0.0,4.7106928770000005,1.9228160581136373,0.0,23185.0,1.125,570.0,420.0,0.0,0.0,3.497314095,4.40175868900686,0.0,-39394.0,1.375,-480.0,-420.0,0.0,0.0,0.7507323450000001,3.0252667311543298,0.0,1.8899999856948853,-0.3700000047683716,52.599998474121094,0.0567626953125,-0.0382080078125,1.04669189453125,31.979999542236328,0.0,-19.0,0.12109375,-0.73614501953125,Waiting,0.0,0.0,-114.0,0.0,0.0,0.0,0.0,0.0,
3.5295139999999665,0.0,0.0,false,3887407.914252607,,-569.0,2.125,427.5,420.0,0.0,0.0,2.409667722,0.5533560492066917,0.0,-61510.0,3.25,-375.0,-420.0,0.0,0.0,4.714354986,1.9228160581136373,0.0,23266.0,1.0,487.5,420.0,0.0,0.0,3.497314095,4.40175868900686,0.0,-39446.0,2.5,-315.0,-420.0,0.0,0.0,0.6591796200000001,3.0252667311543298,0.0,1.9900000095367432,-0.009999999776482582,45.349998474121094,-0.00213623046875,0.041015625,0.89215087890625,31.979999542236328,0.0,5.0,0.10809326171875,-0.7370147705078125,Waiting,0.0,0.0,-114.0,0.0,0.0,0.0,0.0,0.0,
3.6904010000000125,0.0,0.0,false,3887451.024041711,,-510.0,2.875,360.0,420.0,0.0,0.0,2.398681395,0.5533560492066917,0.0,-61564.0,4.125,-352.5,-420.0,0.0,0.0,4.709472174,1.9228160581136373,0.0,23332.0,1.625,397.5,420.0,0.0,0.0,3.497314095,4.40175868900686,0.0,-39505.0,2.875,-375.0,-420.0,0.0,0.0,0.6445311840000001,3.0252667311543298,0.0,1.9800000190734863,0.12999999523162842,39.630001068115234,0.00152587890625,0.0372314453125,0.8282470703125,31.959999084472656,0.0,5.0,0.0966339111328125,-0.736968994140625,Waiting,0.0,0.0,-114.0,0.0,0.0,0.0,0.0,0.0,
3.8470569999999715,0.0,0.0,false,3887474.547982236,,-450.0,0.375,315.0,0.0,0.0,0.625,1.87988262,0.0,0.0,-61621.0,1.0,-187.5,-0.0,0.0,2.125,3.964843344,0.0,0.0,23420.0,0.125,172.5,0.0,0.0,0.375,3.9990230280000003,0.0,0.0,-39619.0,0.0,-397.5,-0.0,0.0,1.125,1.483154145,0.0,0.0,1.9199999570846558,0.2199999988079071,34.97999954223633,0.0899658203125,0.20074462890625,0.92242431640625,31.959999084472656,0.0,167.0,0.0876312255859375,-0.7395782470703125,Waiting,0.0,0.0,-114.0,0.0,0.0,0.0,0.0,0.0,
3.9995669999999808,0.0,0.0,false,3887482.090549281,,-395.0,0.625,97.5,0.0,0.0,0.0,1.6333006140000002,0.0,0.0,-61652.0,2.625,0.0,-0.0,0.0,2.0,2.8076169,0.0,0.0,23443.0,0.125,135.0,0.0,0.0,0.0,4.255370658,0.0,0.0,-39636.0,0.125,-105.0,-0.0,0.0,1.375,2.666015352,0.0,0.0,1.9600000381469727,0.23999999463558197,34.380001068115234,-0.02166748046875,-0.117919921875,0.93804931640625,31.959999084472656,0.0,-105.0,0.081329345703125,-0.7409515380859375,Waiting,0.0,0.0,-114.0,0.0,0.0,0.0,0.0,0.0,
4.168474999999977,0.0,0.0,false,3887469.8602316603,,-392.0,1.125,15.0,0.0,0.0,0.125,1.704101388,0.0,0.0,-61652.0,2.75,0.0,-0.0,0.0,0.0,2.497558338,0.0,0.0,23443.0,0.375,0.0,0.0,0.0,0.0,4.068603099000001,0.0,0.0,-39650.0,0.375,-60.0,-0.0,0.0,0.0,2.7893063550000003,0.0,0.0,1.9700000286102295,0.33000001311302185,34.650001525878906,-0.01739501953125,-0.02630615234375,1.07586669921875,31.969999313354492,0.0,-55.0,0.071685791015625,-0.7438201904296875,Waiting,0.0,0.0,-114.0,0.0,0.0,0.0,0.0,0.0,
4.315941999999981,0.0,0.0,false,3887438.0604188787,,-389.0,1.0,30.0,8.4,0.0,0.125,1.8164060640000002,0.0037230063120524087,0.0,-61657.0,2.0,-52.5,-8.4,0.0,0.0,2.5341794280000003,0.0037117562929789216,0.0,23443.0,0.375,0.0,8.4,0.0,0.0,3.968505453,0.0037155062993367506,0.0,-39661.0,0.25,-15.0,-8.4,0.0,0.0,2.547607161,0.003710631291071573,0.0,1.8799999952316284,0.28999999165534973,34.810001373291016,-0.00262451171875,-0.0013427734375,0.9625244140625,31.969999313354492,0.0,-25.0,0.0697784423828125,-0.7446441650390625,Waiting,0.0,0.0,-114.0,0.0,0.0,0.0,0.0,0.0,
4.473652000000002,0.0,0.0,false,3887386.696776684,,-380.0,1.0,15.0,0.0,0.0,0.125,1.8176267670000001,0.0,0.0,-61676.0,1.5,-30.0,-0.0,0.0,0.0,2.705077848,0.0,0.0,23443.0,0.375,0.0,0.0,0.0,0.0,3.97949178,0.0,0.0,-39667.0,0.375,-30.0,-0.0,0.0,0.0,2.447509515,0.0,0.0,1.850000023841858,0.25,34.959999084472656,-0.0067138671875,0.00439453125,0.95220947265625,31.969999313354492,0.0,-24.0,0.0690765380859375,-0.7449951171875,Waiting,0.0,0.0,-114.0,0.0,0.0,0.0,0.0,0.0,
4.632595999999961,0.0,0.0,false,3887505.6643829006,,-377.0,1.0,15.0,0.0,0.0,0.0,1.8164060640000002,0.0,0.0,-61681.0,1.625,-15.0,-0.0,0.0,0.0,2.757568077,0.0,0.0,23445.0,0.375,15.0,0.0,0.0,0.0,4.022216385,0.0,0.0,-39672.0,0.375,-22.5,-0.0,0.0,0.0,2.4768063870000003,0.0,0.0,1.8200000524520874,0.20999999344348907,34.9900016784668,1.220703125E-4,0.0303955078125,1.05084228515625,31.989999771118164,0.0,-4.0,0.068756103515625,-0.745086669921875,Waiting,0.0,0.0,-114.0,0.0,0.0,0.0,0.0,0.0,
4.794385000000009,0.0,0.0,false,3887603.355461212,,-345.0,3.0,255.0,378.0,0.0,0.0,1.8164060640000002,0.0,0.0,-61713.0,5.125,-232.5,-378.0,0.0,0.0,2.828368851,0.0,0.0,23493.0,1.875,247.5,378.0,0.0,0.0,4.005126543,0.0,0.0,-39703.0,2.0,-225.0,-378.0,0.0,0.0,2.510986071,0.0,0.0,1.7899999618530273,1.149999976158142,34.7599983215332,0.09600830078125,0.04119873046875,0.99664306640625,31.989999771118164,0.0,67.0,0.08367919921875,-0.7568817138671875,Waiting,0.0,0.0,-114.0,0.0,0.0,0.0,0.0,0.0,
5.079999000000011,0.0,0.0,false,3887674.4397491557,,-214.0,0.125,225.0,NaN,0.0,0.0,1.8212888760000001,NaN,0.0,-61808.0,1.5,-150.0,NaN,0.0,0.0,2.824706742,NaN,0.0,23607.0,0.0,195.0,NaN,0.0,0.0,4.007567949,NaN,0.0,-39812.0,0.0,-165.0,NaN,0.0,0.0,2.521972398,NaN,0.0,1.7100000381469727,0.3199999928474426,34.27000045776367,-0.15106201171875,0.040771484375,0.98504638671875,32.0,0.0,-123.0,0.1064300537109375,-0.775482177734375,Waiting,0.0,0.0,-114.0,0.0,0.0,0.0,0.0,0.0,
5.333724999999976,0.0,0.0,false,3887721.0040517077,,-191.0,6.0,292.5,681.449191062694,0.0,1.125,2.622070044,0.7764514022251019,0.0,-61860.0,7.375,-300.0,-681.449191062694,0.0,0.375,3.3105465360000004,0.7741051550386843,0.0,23693.0,4.75,247.5,681.449191062694,0.0,0.75,4.804687008,0.7748872374341569,0.0,-39902.0,4.5,-300.0,-681.449191062694,0.0,0.875,3.388671528,0.7738705303200426,0.0,2.450000047683716,1.0800000429153442,33.880001068115234,-0.1182861328125,0.35565185546875,1.11285400390625,32.0,0.0,55.0,0.1195831298828125,-0.7860565185546875,Waiting,0.0,0.0,-114.0,0.0,0.0,0.0,0.0,0.0,
5.614360999999976,0.0,0.0,false,3887743.7399440533,,39.0,4.25,690.0,681.449191062694,0.0,0.25,2.9516598540000003,0.7764514022251019,0.0,-62107.0,6.125,-645.0,-681.449191062694,0.0,0.0,3.983153889,0.7741051550386843,0.0,23874.0,3.875,645.0,681.449191062694,0.0,0.0,0.2441406,0.7748872374341569,0.0,-40087.0,3.0,-622.5,-681.449191062694,0.0,0.0,3.7365718830000003,0.7738705303200426,0.0,3.799999952316284,-0.14000000059604645,33.61000061035156,0.15972900390625,0.15496826171875,1.16595458984375,31.989999771118164,0.0,169.0,0.1449737548828125,-0.7263336181640625,Waiting,0.0,0.0,-114.0,0.0,0.0,0.0,0.0,0.0,
5.887752999999968,0.0,0.0,false,3887742.6481481483,,306.0,0.875,892.5,681.449191062694,0.0,0.125,2.4255368610000003,0.7764514022251019,0.0,-62360.0,3.125,-757.5,-681.449191062694,0.0,0.125,3.1066891350000003,0.7741051550386843,0.0,24102.0,2.0,787.5,681.449191062694,0.0,0.0,4.414062048,0.7748872374341569,0.0,-40269.0,4.0,-652.5,-681.449191062694,0.0,0.0,3.018798519,0.7738705303200426,0.0,2.7899999618530273,2.0,29.899999618530273,0.1636962890625,0.0052490234375,1.13494873046875,31.989999771118164,0.0,82.0,0.2009124755859375,-0.6871337890625,Waiting,0.0,0.0,-114.0,0.0,0.0,0.0,0.0,0.0,
6.18279800000001,0.0,0.0,false,3887714.193461279,,558.0,2.375,532.5,671.0017585669951,0.0,0.25,2.508544665,0.768222063014264,0.0,-62598.0,2.25,-802.5,-671.0017585669951,0.0,0.125,3.435058242,0.7659006828883143,0.0,24336.0,1.875,802.5,671.0017585669951,0.0,0.125,4.91943309,0.7666744762636308,0.0,-40639.0,1.5,-810.0,-671.0017585669951,0.0,0.0,3.304443021,0.7656685448757192,0.0,2.7100000381469727,1.2000000476837158,30.729999542236328,-0.10345458984375,-0.00738525390625,0.825927734375,32.029998779296875,0.0,-127.0,0.2542266845703125,-0.69818115234375,Waiting,0.0,0.0,-114.0,0.0,0.0,0.0,0.0,0.0,
6.428899999999965,0.0,0.0,false,3887662.450144648,,862.0,0.5,577.5,492.04572958211924,0.0,0.125,2.561034894,0.548874596950013,0.0,-62925.0,1.5,-577.5,-492.04572958211924,0.0,0.0,3.403319964,0.5472160314878352,0.0,24661.0,0.75,585.0,492.04572958211924,0.0,0.125,4.49218704,0.5477688866418944,0.0,-40831.0,1.75,-465.0,-492.04572958211924,0.0,0.0,3.1567379580000003,0.5470501749416175,0.0,2.0199999809265137,0.6100000143051147,30.34000015258789,0.17236328125,-0.11761474609375,0.97357177734375,32.029998779296875,0.0,62.0,0.2674407958984375,-0.6740264892578125,Waiting,0.0,0.0,-114.0,0.0,0.0,0.0,0.0,0.0,
6.729871999999974,0.0,0.0,false,3887770.2262076945,,1033.0,0.25,465.0,388.1536293788839,0.0,0.25,1.857909966,0.18110357424708734,0.0,-63070.0,1.875,-382.5,-388.1536293788839,0.0,0.25,2.6342770740000003,0.18055632331765414,0.0,24810.0,1.375,427.5,388.1536293788839,0.0,0.0,3.9355464720000004,0.18073874029413187,0.0,-40965.0,2.0,-352.5,-388.1536293788839,0.0,0.0,2.523193101,0.18050159822471082,0.0,0.7200000286102295,0.8700000047683716,28.530000686645508,-0.033935546875,-0.0880126953125,0.92840576171875,31.969999313354492,0.0,-89.0,0.2624359130859375,-0.6911773681640625,Waiting,0.0,0.0,-114.0,0.0,0.0,0.0,0.0,0.0,
6.9504899999999905,0.0,0.0,false,3887857.5518704206,,1169.0,0.5,337.5,379.88529847836963,0.0,0.125,1.748046696,0.078742734262634,0.0,-63201.0,1.5,-405.0,-379.88529847836963,0.0,0.0,2.6428219950000003,0.07850479288190484,0.0,24943.0,1.0,412.5,379.88529847836963,0.0,0.0,4.1308589520000005,0.07858410667548124,0.0,-41094.0,1.625,-420.0,-379.88529847836963,0.0,0.0,2.4865720110000002,0.07848099874383194,0.0,0.6399999856948853,0.6600000262260437,29.700000762939453,-0.02069091796875,0.126953125,1.12677001953125,31.969999313354492,0.0,27.0,0.2353057861328125,-0.736968994140625,Waiting,0.0,0.0,-114.0,0.0,0.0,0.0,0.0,0.0,
7.2106589999999855,0.0,0.0,false,3887921.9913236285,,1290.0,0.5,412.5,402.60894177849553,0.0,0.125,1.704101388,4.686342749394934,0.0,-63323.0,1.5,-450.0,-402.60894177849553,0.0,0.0,2.3803708500000003,4.672181762037777,0.0,25067.0,0.75,450.0,402.60894177849553,0.0,0.0,3.4741207380000003,4.67690209115683,0.0,-41290.0,2.0,-382.5,-402.60894177849553,0.0,0.0,2.242431411,4.6707656633020616,0.0,0.4300000071525574,0.6200000047683716,30.020000457763672,-0.037109375,0.02667236328125,0.83026123046875,31.979999542236328,0.0,-29.0,0.224639892578125,-0.7399444580078125,Waiting,0.0,0.0,-114.0,0.0,0.0,0.0,0.0,0.0,
7.476983000000008,0.0,0.0,false,3887966.6119144014,,1413.0,1.25,330.0,434.47167916908,0.0,0.125,1.324462755,4.5566930135098715,0.0,-63515.0,2.625,-345.0,-434.47167916908,0.0,0.0,2.186279073,4.542923796104019,0.0,25237.0,2.75,300.0,434.47167916908,0.0,0.125,3.35693325,4.547513535239303,0.0,-41401.0,2.875,-322.5,-434.47167916908,0.0,0.0,2.072753694,4.541546874363434,0.0,0.3700000047683716,0.12999999523162842,30.290000915527344,-0.0579833984375,0.10546875,0.9652099609375,31.979999542236328,0.0,-2.0,0.208587646484375,-0.739471435546875,Waiting,0.0,0.0,-114.0,0.0,0.0,0.0,0.0,0.0,
7.73425,0.0,0.0,false,3887991.416289157,,1524.0,1.25,382.5,407.1184594193685,0.0,0.125,1.378173687,4.663382786971527,0.0,-63572.0,2.75,-360.0,-407.1184594193685,0.0,0.0,2.341308354,4.649291179033458,0.0,25283.0,3.0,360.0,407.1184594193685,0.0,0.125,3.8439937470000003,4.653988381679481,0.0,-41522.0,3.25,-375.0,-407.1184594193685,0.0,0.0,2.159423607,4.647882018239651,0.0,0.47999998927116394,0.44999998807907104,30.90999984741211,0.03070068359375,0.1630859375,1.1337890625,31.969999313354492,0.0,97.0,0.203369140625,-0.737060546875,Waiting,0.0,0.0,-114.0,0.0,0.0,0.0,0.0,0.0,
7.99004800000001,0.0,0.0,false,3887993.0840400923,,1710.0,1.25,367.5,398.4469851812158,0.0,0.125,1.6027830390000002,4.7098025390083755,0.0,-63742.0,3.125,-360.0,-398.4469851812158,0.0,0.0,2.6855466000000003,4.695570661875997,0.0,25463.0,2.625,390.0,398.4469851812158,0.0,0.0,3.931884363,4.700314620920123,0.0,-41656.0,2.625,-390.0,-398.4469851812158,0.0,0.0,2.3181149970000003,4.694147474162759,0.0,1.0399999618530273,0.3499999940395355,31.459999084472656,0.0252685546875,0.07745361328125,1.0107421875,31.969999313354492,0.0,46.0,0.2259368896484375,-0.722442626953125,Waiting,0.0,0.0,-114.0,0.0,0.0,0.0,0.0,0.0,
8.248573999999964,0.0,0.0,false,3887975.440300665,,1819.0,1.75,337.5,381.3451979506232,0.0,0.25,1.614990069,4.859278306439756,0.0,-63844.0,4.5,-330.0,-381.3451979506232,0.0,0.0,2.6892087090000003,4.844594749913447,0.0,25576.0,3.125,337.5,381.3451979506232,0.0,0.0,3.823241796,4.8494892687555495,0.0,-41763.0,3.25,-322.5,-381.3451979506232,0.0,0.0,2.467040763,4.843126394260816,0.0,1.149999976158142,0.36000001430511475,31.270000457763672,0.005126953125,0.0703125,0.9317626953125,31.969999313354492,0.0,26.0,0.2475128173828125,-0.710174560546875,Waiting,0.0,0.0,-114.0,0.0,0.0,0.0,0.0,0.0,
8.510811999999977,0.0,0.0,false,3887938.490653305,,1920.0,2.125,315.0,378.8390687349973,0.0,0.375,1.8933103530000002,0.052591854103937116,0.0,-63960.0,4.5,-345.0,-378.8390687349973,0.0,0.0,2.7453610470000003,0.052432934319175006,0.0,25675.0,4.0,330.0,378.8390687349973,0.0,0.0,4.184569884,0.052485907580762374,0.0,-41878.0,3.625,-375.0,-378.8390687349973,0.0,0.0,2.617187232,0.0524170423406988,0.0,1.5,0.5400000214576721,32.0,0.07843017578125,0.17327880859375,1.15228271484375,31.969999313354492,0.0,132.0,0.2751312255859375,-0.7096099853515625,Waiting,0.0,0.0,-114.0,0.0,0.0,0.0,0.0,0.0,
8.784251999999979,0.0,0.0,false,3887881.751228442,,2050.0,1.25,450.0,381.3451979506232,0.0,0.125,2.076415803,0.10472169356024448,0.0,-64113.0,1.5,-517.5,-381.3451979506232,0.0,0.0,2.8393551780000004,0.10440525008655314,0.0,25809.0,2.0,487.5,381.3451979506232,0.0,0.0,4.294433154,0.10451073124445026,0.0,-42025.0,1.125,-547.5,-381.3451979506232,0.0,0.0,2.674560273,0.10437360573918403,0.0,1.8200000524520874,0.9700000286102295,32.9900016784668,0.11810302734375,0.05267333984375,0.979248046875,32.029998779296875,0.0,96.0,0.322021484375,-0.706146240234375,Waiting,0.0,0.0,-114.0,0.0,0.0,0.0,0.0,0.0,
9.054005999999994,0.0,0.0,false,3887990.9225433525,,2289.0,0.375,502.5,385.4858752276145,0.0,0.0,2.1166990020000003,0.15595140222510104,0.0,-64357.0,0.625,-465.0,-385.4858752276145,0.0,0.0,2.8540036140000002,0.15548015503868348,0.0,26059.0,0.75,510.0,385.4858752276145,0.0,0.0,4.1406245760000004,0.155637237434156,0.0,-42286.0,0.25,-510.0,-385.4858752276145,0.0,0.0,2.674560273,0.15543303032004174,0.0,1.6200000047683716,0.7900000214576721,33.290000915527344,-0.04534912109375,-0.01641845703125,0.83917236328125,32.029998779296875,0.0,-69.0,0.377227783203125,-0.704498291015625,Waiting,0.0,0.0,-114.0,0.0,0.0,0.0,0.0,0.0,
9.317796999999961,0.0,0.0,false,3888080.5579423946,,2364.0,0.25,457.5,398.4469851812158,0.0,0.125,2.044677525,0.2541974609916249,0.0,-64432.0,0.625,-442.5,-398.4469851812158,0.0,0.0,2.926025091,0.2534293381240031,0.0,26138.0,0.75,465.0,398.4469851812158,0.0,0.0,4.232177301,0.25368537907987704,0.0,-42359.0,0.5,-435.0,-398.4469851812158,0.0,0.0,2.773437216,0.25335252583724094,0.0,1.6100000143051147,0.4000000059604645,32.84000015258789,-0.04803466796875,0.083740234375,1.14544677734375,32.0,0.0,-19.0,0.4041290283203125,-0.704071044921875,Waiting,0.0,0.0,-114.0,0.0,0.0,0.0,0.0,0.0,
9.510758999999961,0.0,0.0,false,3888151.247929108,,2500.0,0.375,390.0,402.60894177849553,0.0,0.125,2.048339634,0.2776572506050662,0.0,-64569.0,0.625,-435.0,-402.60894177849553,0.0,0.0,2.972411805,0.2768182379622225,0.0,26271.0,1.125,375.0,402.60894177849553,0.0,0.0,4.316405808,0.27709790884317037,0.0,-42489.0,0.5,-390.0,-402.60894177849553,0.0,0.0,2.806396197,0.2767343366979381,0.0,1.6100000143051147,0.23000000417232513,32.88999938964844,-0.00653076171875,-0.027099609375,0.84857177734375,32.0,0.0,-36.0,0.407867431640625,-0.7020416259765625,Waiting,0.0,0.0,-114.0,0.0,0.0,0.0,0.0,0.0,
9.683831999999995,0.0,0.0,false,3888199.4614273333,,2558.0,0.875,345.0,398.4469851812158,0.0,0.0,2.049560337,0.2541974609916249,0.0,-64618.0,1.625,-352.5,-398.4469851812158,0.0,0.0,3.03955047,0.2534293381240031,0.0,26327.0,1.625,345.0,398.4469851812158,0.0,0.0,4.322509323,0.25368537907987704,0.0,-42548.0,1.0,-337.5,-398.4469851812158,0.0,0.0,2.8002926820000003,0.25335252583724094,0.0,1.590000033378601,0.12999999523162842,32.79999923706055,-0.0123291015625,0.049072265625,1.048095703125,32.02000045776367,0.0,-1.0,0.4067535400390625,-0.7012786865234375,Waiting,0.0,0.0,-114.0,0.0,0.0,0.0,0.0,0.0,
9.882109999999987,0.0,0.0,false,3888228.7557781204,,2721.0,1.25,330.0,391.2092023457526,0.0,0.0,2.055663852,0.2058876524229858,0.0,-64772.0,2.25,-367.5,-391.2092023457526,0.0,0.0,2.869872753,0.20526551004056337,0.0,26489.0,2.0,330.0,391.2092023457526,0.0,0.0,4.2431636280000005,0.20547289083470419,0.0,-42709.0,1.75,-337.5,-391.2092023457526,0.0,0.0,2.7929684640000003,0.20520329580232113,0.0,1.5099999904632568,0.25,32.81999969482422,0.09027099609375,-0.03997802734375,1.0682373046875,32.02000045776367,0.0,34.0,0.4063262939453125,-0.7012786865234375,Waiting,0.0,0.0,-114.0,0.0,0.0,0.0,0.0,0.0,
10.149305999999982,0.0,0.0,false,3888237.983245065,,2835.0,1.125,360.0,381.3451979506232,0.0,0.125,1.9995115140000002,0.10472169356024448,0.0,-64910.0,1.625,-390.0,-381.3451979506232,0.0,0.0,2.762450889,0.10440525008655314,0.0,26605.0,2.0,360.0,381.3451979506232,0.0,0.0,4.095458565,0.10451073124445026,0.0,-42835.0,1.0,-390.0,-381.3451979506232,0.0,0.0,2.6318356680000004,0.10437360573918403,0.0,1.340000033378601,0.49000000953674316,33.5,-0.00128173828125,-5.4931640625E-4,0.97064208984375,32.029998779296875,0.0,-20.0,0.40667724609375,-0.7120819091796875,Waiting,0.0,0.0,-114.0,0.0,0.0,0.0,0.0,0.0,
10.409060999999987,0.0,0.0,false,3888227.14115155,,2967.0,0.625,427.5,378.2099416990516,0.0,0.125,1.7163084180000001,4.937674909229462,0.0,-65038.0,1.25,-405.0,-378.2099416990516,0.0,0.0,2.672118867,4.922754457247502,0.0,26740.0,1.5,435.0,378.2099416990516,0.0,0.0,3.968505453,4.927727941241488,0.0,-42963.0,0.75,-412.5,-378.2099416990516,0.0,0.0,2.471923575,4.921262412049306,0.0,1.0299999713897705,0.6200000047683716,33.529998779296875,-0.03533935546875,0.117919921875,1.00616455078125,32.029998779296875,0.0,16.0,0.403717041015625,-0.720703125,Waiting,0.0,0.0,-114.0,0.0,0.0,0.0,0.0,0.0,
10.689075000000011,0.0,0.0,false,3888193.0767305284,,3097.0,0.875,352.5,381.3451979506232,0.0,0.0,1.619872881,4.859278306439756,0.0,-65148.0,2.375,-322.5,-381.3451979506232,0.0,0.0,2.5939938750000002,4.844594749913447,0.0,26866.0,1.875,330.0,381.3451979506232,0.0,0.0,3.9343257690000004,4.8494892687555495,0.0,-43095.0,1.0,-337.5,-381.3451979506232,0.0,0.0,2.4243161580000003,4.843126394260816,0.0,1.0199999809265137,0.17000000178813934,34.09000015258789,-0.06866455078125,0.05511474609375,0.941650390625,32.040000915527344,0.0,-37.0,0.396942138671875,-0.71820068359375,Waiting,0.0,0.0,-114.0,0.0,0.0,0.0,0.0,0.0,
10.969294999999983,0.0,0.0,false,3888138.7685791296,,3244.0,1.875,315.0,383.2140394087878,0.0,0.125,1.641845535,4.833525090442669,0.0,-65305.0,3.125,-367.5,-383.2140394087878,0.0,0.0,2.57568333,4.818919353868003,0.0,27008.0,3.375,315.0,383.2140394087878,0.0,0.0,3.9355464720000004,4.823787932726225,0.0,-43255.0,1.625,-360.0,-383.2140394087878,0.0,0.0,2.4243161580000003,4.817458780210536,0.0,1.100000023841858,0.33000001311302185,35.02000045776367,0.0047607421875,0.03094482421875,1.06292724609375,32.040000915527344,0.0,4.0,0.3846893310546875,-0.7079925537109375,Waiting,0.0,0.0,-114.0,0.0,0.0,0.0,0.0,0.0,
11.308228000000003,0.0,0.0,false,3888252.816632977,,3408.0,2.0,352.5,378.8390687349973,0.0,0.25,1.802978331,4.911408145896064,0.0,-65486.0,2.375,-465.0,-378.8390687349973,0.0,0.0,2.6855466000000003,4.8965670656808244,0.0,27173.0,3.5,352.5,378.8390687349973,0.0,0.0,3.9355464720000004,4.901514092419238,0.0,-43431.0,1.625,-360.0,-378.8390687349973,0.0,0.0,2.4267575640000003,4.895082957659302,0.0,1.1699999570846558,0.4300000071525574,35.599998474121094,-0.01837158203125,-0.150390625,0.9757080078125,32.029998779296875,0.0,-120.0,0.379364013671875,-0.7028045654296875,Waiting,0.0,0.0,-114.0,0.0,0.0,0.0,0.0,0.0,
11.599571999999986,0.0,0.0,false,3888342.636381136,,3503.0,3.5,255.0,381.3451979506232,0.0,0.125,1.958007612,0.10472169356024448,0.0,-65591.0,3.5,-322.5,-381.3451979506232,0.0,0.0,2.824706742,0.10440525008655314,0.0,27272.0,5.0,270.0,381.3451979506232,0.0,0.0,4.178466369000001,0.10451073124445026,0.0,-43539.0,2.25,-300.0,-381.3451979506232,0.0,0.0,2.769775107,0.10437360573918403,0.0,1.6200000047683716,0.03999999910593033,35.970001220703125,0.03216552734375,-0.02734375,0.9798583984375,32.029998779296875,0.0,-6.0,0.374786376953125,-0.6934661865234375,Waiting,0.0,0.0,-114.0,0.0,0.0,0.0,0.0,0.0,
11.872097000000009,0.0,0.0,false,3888410.081801559,,3543.0,2.875,22.5,NaN,0.0,0.0,1.964111127,NaN,0.0,-65640.0,2.875,-67.5,NaN,0.0,0.0,2.872314159,NaN,0.0,27340.0,3.875,30.0,NaN,0.0,0.0,4.232177301,NaN,0.0,-43589.0,2.125,0.0,NaN,0.0,0.0,2.834472366,NaN,0.0,1.4900000095367432,-0.5299999713897705,36.130001068115234,0.07977294921875,0.05926513671875,0.98382568359375,32.04999923706055,0.0,91.0,0.351348876953125,-0.6682891845703125,Waiting,0.0,0.0,-114.0,0.0,0.0,0.0,0.0,0.0,
12.108689000000012,0.0,0.0,false,3888448.8883756734,,3555.0,12.75,52.5,517.0607701228164,0.0,1.0,2.257079847,0.5932678543610616,0.0,-65672.0,10.75,-157.5,-517.0607701228164,0.0,0.25,3.126220383,0.5914751432781815,0.0,27395.0,7.125,390.0,517.0607701228164,0.0,0.375,4.478759307,0.5920727136391415,0.0,-43614.0,9.0,-150.0,-517.0607701228164,0.0,0.0,3.037109064,0.5912958721698935,0.0,1.5499999523162842,-0.20000000298023224,36.709999084472656,-0.04827880859375,-0.06500244140625,1.06011962890625,32.04999923706055,0.0,-91.0,0.330902099609375,-0.666900634765625,Waiting,0.0,0.0,-114.0,0.0,0.0,0.0,0.0,0.0,
12.365469999999972,0.0,0.0,false,3888459.0574425096,,3568.0,27.0,15.0,561.9373986486395,0.0,0.125,2.5341794280000003,0.6580927993715305,0.0,-65710.0,22.5,-187.5,-561.9373986486395,0.0,0.0,3.4753414410000003,0.6561042030801176,0.0,27563.0,4.0,630.0,561.9373986486395,0.0,0.0,4.680175302,0.6567670685105886,0.0,-43625.0,28.0,-7.5,-561.9373986486395,0.0,0.0,3.18603483,0.6559053434509764,0.0,1.4199999570846558,-0.20000000298023224,36.47999954223633,-0.17242431640625,-0.06890869140625,0.90966796875,32.040000915527344,0.0,-190.0,0.2988739013671875,-0.66900634765625,Waiting,0.0,0.0,-114.0,0.0,0.0,0.0,0.0,0.0,
12.640966000000015,0.0,0.0,false,3888449.710217433,,3571.0,45.875,37.5,561.9373986486395,0.0,0.125,2.503661853,0.6580927993715305,0.0,-65838.0,11.625,-600.0,-561.9373986486395,0.0,0.0,3.4851070650000002,0.6561042030801176,0.0,27641.0,23.125,0.0,561.9373986486395,0.0,0.0,4.680175302,0.6567670685105886,0.0,-43630.0,47.5,0.0,-561.9373986486395,0.0,0.0,3.188476236,0.6559053434509764,0.0,1.4800000190734863,-0.07999999821186066,36.439998626708984,0.05120849609375,-0.00360107421875,1.07763671875,32.040000915527344,0.0,23.0,0.282318115234375,-0.6892547607421875,Waiting,0.0,0.0,-114.0,0.0,0.0,0.0,0.0,0.0,
12.908712999999988,0.0,0.0,false,3888421.458778259,,3589.0,65.125,37.5,619.9660958471843,0.0,0.0,2.519530992,0.7229708588025018,0.0,-66028.0,13.625,-525.0,-619.9660958471843,0.0,0.0,3.4680172230000004,0.7207862168037028,0.0,27727.0,6.75,1020.0,619.9660958471843,0.0,0.0,4.682616708,0.7215144308033025,0.0,-43630.0,66.5,0.0,-619.9660958471843,0.0,0.0,3.184814127,0.720567752603823,0.0,1.590000033378601,0.09000000357627869,36.290000915527344,0.0015869140625,-0.0032958984375,0.760498046875,31.989999771118164,0.0,-14.0,0.2843780517578125,-0.7047119140625,Waiting,0.0,0.0,-114.0,0.0,0.0,0.0,0.0,0.0,
13.097483999999996,0.0,0.0,false,3888374.7025779146,,3590.0,55.25,0.0,NaN,0.0,0.0,2.499999744,NaN,0.0,-66113.0,13.0,-15.0,NaN,0.0,0.0,3.4680172230000004,NaN,0.0,27871.0,14.5,0.0,NaN,0.0,0.0,4.681396005,NaN,0.0,-43631.0,54.0,0.0,NaN,0.0,0.0,3.18603483,NaN,0.0,1.6299999952316284,0.07999999821186066,36.279998779296875,-0.02740478515625,9.1552734375E-4,1.1497802734375,31.989999771118164,0.0,-42.0,0.2863616943359375,-0.712982177734375,Waiting,0.0,0.0,-114.0,0.0,0.0,0.0,0.0,0.0,
13.348472000000008,0.0,0.0,false,3888308.751370588,,3590.0,54.75,0.0,NaN,0.0,0.0,2.503661853,NaN,0.0,-66132.0,11.25,-82.5,NaN,0.0,0.0,3.4680172230000004,NaN,0.0,27872.0,14.875,0.0,NaN,0.0,0.0,4.680175302,NaN,0.0,-43631.0,54.125,0.0,NaN,0.0,0.0,3.184814127,NaN,0.0,1.600000023841858,0.1599999964237213,36.279998779296875,0.02276611328125,0.04815673828125,0.974365234375,31.979999542236328,0.0,28.0,0.2899932861328125,-0.7131500244140625,Waiting,0.0,0.0,-114.0,0.0,0.0,0.0,0.0,0.0,
13.538255999999993,0.0,0.0,false,3888407.442200423,,3590.0,54.375,0.0,NaN,0.0,0.0,2.50244115,NaN,0.0,-66153.0,8.875,-142.5,NaN,0.0,0.0,3.4680172230000004,NaN,0.0,27872.0,15.0,0.0,NaN,0.0,0.0,4.680175302,NaN,0.0,-43631.0,53.75,0.0,NaN,0.0,0.0,3.18603483,NaN,0.0,1.5800000429153442,0.23000000417232513,36.279998779296875,0.0347900390625,0.034423828125,0.93426513671875,31.979999542236328,0.0,29.0,0.294647216796875,-0.713226318359375,Waiting,0.0,0.0,-114.0,0.0,0.0,0.0,0.0,0.0,
13.730581999999995,0.0,0.0,false,3888488.216943937,,3590.0,54.75,0.0,NaN,0.0,0.0,2.503661853,NaN,0.0,-66176.0,9.25,-15.0,NaN,0.0,0.0,3.4802242530000003,NaN,0.0,27872.0,14.875,0.0,NaN,0.0,0.0,4.682616708,NaN,0.0,-43631.0,53.5,0.0,NaN,0.0,0.0,3.18603483,NaN,0.0,1.600000023841858,0.3100000023841858,36.279998779296875,0.00927734375,0.0255126953125,0.97998046875,32.0099983215332,0.0,2.0,0.2953338623046875,-0.713226318359375,Waiting,0.0,0.0,-114.0,0.0,0.0,0.0,0.0,0.0,
13.98836599999998,0.0,0.0,false,3888550.883076923,,3595.0,54.75,15.0,NaN,0.0,0.0,2.501220447,NaN,0.0,-66184.0,10.125,-22.5,NaN,0.0,0.0,3.4680172230000004,NaN,0.0,27872.0,15.0,0.0,NaN,0.0,0.0,4.680175302,NaN,0.0,-43631.0,53.625,0.0,NaN,0.0,0.0,3.18603483,NaN,0.0,1.590000033378601,0.33000001311302185,36.27000045776367,0.02032470703125,0.03240966796875,0.95770263671875,32.0099983215332,0.0,15.0,0.2965087890625,-0.71337890625,Waiting,0.0,0.0,-114.0,0.0,0.0,0.0,0.0,0.0,
14.261505999999994,0.0,0.0,false,3888595.24968753,,3597.0,56.5,0.0,NaN,0.0,0.0,2.513427477,NaN,0.0,-66187.0,10.0,-7.5,NaN,0.0,0.0,3.4680172230000004,NaN,0.0,27872.0,15.0,0.0,NaN,0.0,0.0,4.666747569,NaN,0.0,-43631.0,53.75,0.0,NaN,0.0,0.0,3.187255533,NaN,0.0,1.590000033378601,0.3700000047683716,36.27000045776367,0.01422119140625,0.03106689453125,1.0235595703125,32.0099983215332,0.0,7.0,0.2965087890625,-0.71337890625,Waiting,0.0,0.0,-114.0,0.0,0.0,0.0,0.0,0.0,
14.406543999999995,0.0,0.0,false,3888618.5056719864,,3597.0,54.75,0.0,0.0,0.0,1.5,2.503661853,0.0,0.0,-66187.0,9.625,0.0,-0.0,0.0,3.0,3.352050438,0.0,0.0,27872.0,14.5,0.0,0.0,0.0,1.5,4.6081538250000005,0.0,0.0,-43631.0,53.0,0.0,-0.0,0.0,1.875,3.143310225,0.0,0.0,1.5800000429153442,0.4000000059604645,36.2599983215332,0.00567626953125,0.018310546875,1.00726318359375,32.0099983215332,0.0,-6.0,0.2965087890625,-0.71337890625,Waiting,0.0,0.0,-114.0,0.0,0.0,0.0,0.0,0.0,
14.54851000000001,0.0,0.0,false,3888623.8784965877,,3598.0,45.125,75.0,0.0,0.0,1.125,2.043456822,0.0,0.0,-66199.0,8.75,-60.0,-0.0,0.0,0.25,2.77099581,0.0,0.0,27880.0,13.25,37.5,0.0,0.0,0.375,4.156493715,0.0,0.0,-43631.0,53.75,0.0,-0.0,0.0,2.625,2.812499712,0.0,0.0,1.590000033378601,0.3799999952316284,36.20000076293945,-0.02947998046875,0.03948974609375,1.04620361328125,32.0099983215332,0.0,-23.0,0.296905517578125,-0.7137451171875,Waiting,0.0,0.0,-114.0,0.0,0.0,0.0,0.0,0.0,
14.68799199999997,0.0,0.0,false,3888611.570165321,,3648.0,49.75,255.0,420.0,0.0,6.75,1.8652341840000002,2.4820000000000024,0.0,-66213.0,15.5,-82.5,-420.0,0.0,3.875,2.7905270580000003,2.474500000000002,0.0,27883.0,19.875,15.0,420.0,0.0,6.0,4.241942925,2.4769999999999976,0.0,-43632.0,66.25,0.0,-420.0,0.0,2.625,2.9492184480000003,2.4737499999999977,0.0,1.559999942779541,0.41999998688697815,36.150001525878906,-0.04351806640625,0.091796875,0.99017333984375,32.0099983215332,0.0,-2.0,0.296142578125,-0.7126922607421875,Waiting,0.0,0.0,-114.0,0.0,0.0,0.0,0.0,0.0,
14.827580000000017,0.0,0.0,false,3888581.585776069,,3666.0,54.625,180.0,420.0,0.0,3.0,2.508544665,2.4820000000000024,0.0,-66238.0,16.875,-165.0,-420.0,0.0,0.75,3.5754390870000003,2.474500000000002,0.0,27956.0,10.875,547.5,420.0,0.0,1.625,0.026855466,2.4769999999999976,0.0,-43643.0,69.75,-67.5,-420.0,0.0,1.75,3.6791988420000004,2.4737499999999977,0.0,1.5800000429153442,0.4000000059604645,36.36000061035156,-0.0531005859375,-0.17852783203125,1.0174560546875,31.979999542236328,0.0,-171.0,0.294891357421875,-0.7004852294921875,Waiting,0.0,0.0,-114.0,0.0,0.0,0.0,0.0,0.0,
14.969440999999991,0.0,0.0,false,3888530.5131654814,,3704.0,58.0,157.5,420.0,0.0,3.5,3.126220383,2.4820000000000024,0.0,-66274.0,16.875,-255.0,-420.0,0.0,0.5,4.429931187,2.474500000000002,0.0,28048.0,6.125,592.5,420.0,0.0,3.75,0.637206966,2.4769999999999976,0.0,-43668.0,63.625,-210.0,-420.0,0.0,1.125,4.392089394,2.4737499999999977,0.0,2.559999942779541,0.4300000071525574,35.97999954223633,-0.1397705078125,0.388671875,0.86932373046875,31.979999542236328,0.0,86.0,0.2993927001953125,-0.67498779296875,Waiting,0.0,0.0,-114.0,0.0,0.0,0.0,0.0,0.0,
15.113181999999972,0.0,0.0,false,3888461.7753435187,,3773.0,43.0,757.5,420.0,0.0,3.375,3.856200777,2.4820000000000024,0.0,-66349.0,5.75,-810.0,-420.0,0.0,8.0,4.874267079,2.474500000000002,0.0,28145.0,6.75,487.5,420.0,0.0,0.625,1.4733885210000002,2.4769999999999976,0.0,-43758.0,37.375,-1087.5,-420.0,0.0,0.25,0.133056627,2.4737499999999977,0.0,3.069999933242798,-1.9800000190734863,33.41999816894531,-0.49798583984375,0.10272216796875,0.7591552734375,31.979999542236328,0.0,-359.0,0.300750732421875,-0.6225738525390625,Waiting,0.0,0.0,-114.0,0.0,0.0,0.0,0.0,0.0,
15.262948999999963,0.0,0.0,false,3888563.381245196,,3922.0,27.0,1065.0,420.0,0.0,0.375,4.442138217,2.4820000000000024,0.0,-66639.0,0.75,-870.0,-420.0,0.0,0.0,0.410156208,2.474500000000002,0.0,28402.0,0.5,1020.0,420.0,0.0,0.0,1.8981931650000001,2.4769999999999976,0.0,-44150.0,18.625,-1252.5,-420.0,0.0,0.0,0.32958981000000004,2.4737499999999977,0.0,0.7699999809265137,-2.5,29.34000015258789,-0.3212890625,-0.2606201171875,0.7816162109375,31.979999542236328,0.0,-382.0,0.257568359375,-0.5659332275390625,Waiting,0.0,0.0,-114.0,0.0,0.0,0.0,0.0,0.0,
15.404980999999971,0.0,0.0,false,3888646.688058411,,4286.0,15.125,1177.5,420.0,0.0,0.125,4.60205031,2.4820000000000024,0.0,-66772.0,0.125,-937.5,-420.0,0.0,0.125,0.471191358,2.474500000000002,0.0,28559.0,0.0,930.0,420.0,0.0,0.0,1.748046696,2.4769999999999976,0.0,-44355.0,9.625,-1282.5,-420.0,0.0,0.0,0.22338864900000002,2.4737499999999977,0.0,-0.009999999776482582,-2.440000057220459,28.399999618530273,0.01849365234375,0.04559326171875,0.755615234375,31.959999084472656,0.0,66.0,0.1974639892578125,-0.5406341552734375,Waiting,0.0,0.0,-114.0,0.0,0.0,0.0,0.0,0.0,
15.54890399999998,0.0,0.0,false,3888711.701825168,,4496.0,4.25,1320.0,420.0,0.0,0.125,4.412841345,2.4820000000000024,0.0,-66888.0,1.0,-802.5,-420.0,0.0,0.0,0.345458949,2.474500000000002,0.0,28704.0,0.125,810.0,420.0,0.0,0.0,1.4733885210000002,2.4769999999999976,0.0,-44538.0,5.0,-1102.5,-420.0,0.0,0.0,0.041503902,2.4737499999999977,0.0,1.0299999713897705,-2.1700000762939453,29.920000076293945,0.285400390625,0.14776611328125,0.53338623046875,31.959999084472656,0.0,333.0,0.1509246826171875,-0.5142974853515625,Waiting,0.0,0.0,-114.0,0.0,0.0,0.0,0.0,0.0,
15.690244999999996,0.0,0.0,false,3888758.4270483144,,4694.0,1.25,1132.5,420.0,0.0,0.0,4.265136282,2.4820000000000024,0.0,-66992.0,0.125,-540.0,-420.0,0.0,0.0,0.175781232,2.474500000000002,0.0,28819.0,0.125,697.5,420.0,0.0,0.0,1.4270018070000001,2.4769999999999976,0.0,-44691.0,3.375,-915.0,-420.0,0.0,0.0,4.902343248,2.4737499999999977,0.0,1.9600000381469727,-1.5499999523162842,31.860000610351562,0.38311767578125,0.228759765625,1.61932373046875,31.959999084472656,0.0,454.0,0.1214447021484375,-0.47308349609375,Waiting,0.0,0.0,-114.0,0.0,0.0,0.0,0.0,0.0,
15.829212,0.0,0.0,false,3888786.881290818,,4841.0,0.375,712.5,0.0,0.0,1.375,3.553466433,0.0,0.0,-67110.0,0.0,-675.0,-0.0,0.0,4.375,4.447021029,0.0,0.0,28900.0,0.0,300.0,0.0,0.0,1.5,0.6970214130000001,0.0,0.0,-44823.0,0.625,-570.0,-0.0,0.0,1.125,4.149169497,0.0,0.0,2.2699999809265137,0.25999999046325684,31.84000015258789,0.5487060546875,0.16357421875,0.84417724609375,31.959999084472656,0.0,531.0,0.1151123046875,-0.4412689208984375,Waiting,0.0,0.0,-114.0,0.0,0.0,0.0,0.0,0.0,
15.968233999999997,0.0,0.0,false,3888797.0698165754,,4931.0,0.25,450.0,0.0,0.0,0.875,2.497558338,0.0,0.0,-67179.0,0.0,-232.5,-0.0,0.0,1.0,3.391112934,0.0,0.0,28923.0,0.0,135.0,0.0,0.0,1.125,4.622802261,0.0,0.0,-44881.0,1.0,-307.5,-0.0,0.0,1.5,3.1616207700000003,0.0,0.0,1.8899999856948853,1.9500000476837158,31.3799991607666,0.0570068359375,-0.02764892578125,0.942626953125,31.90999984741211,0.0,-9.0,0.1444091796875,-0.42718505859375,Waiting,0.0,0.0,-114.0,0.0,0.0,0.0,0.0,0.0,
16.10681,0.0,0.0,false,3888788.997887459,,4981.0,0.375,217.5,0.0,0.0,0.25,1.676025219,0.0,0.0,-67208.0,0.0,-82.5,-0.0,0.0,0.125,2.517089586,0.0,0.0,28973.0,0.0,165.0,0.0,0.0,0.0,3.817138281,0.0,0.0,-44939.0,1.625,-67.5,-0.0,0.0,0.375,2.395019286,0.0,0.0,1.090000033378601,1.809999942779541,31.239999771118164,-0.09619140625,0.00787353515625,1.02752685546875,31.90999984741211,0.0,-116.0,0.180877685546875,-0.4293212890625,Waiting,0.0,0.0,-114.0,0.0,0.0,0.0,0.0,0.0,
16.24675799999997,0.0,0.0,false,3888762.47412386,,5024.0,0.5,60.0,0.0,0.0,0.625,1.431884619,0.0,0.0,-67217.0,0.0,0.0,-0.0,0.0,1.0,2.205810321,0.0,0.0,28979.0,0.0,37.5,0.0,0.0,1.0,3.654784782,0.0,0.0,-44942.0,2.25,-15.0,-0.0,0.0,0.5,2.18505837,0.0,0.0,1.1399999856948853,1.5,31.31999969482422,-0.04217529296875,-0.0155029296875,1.02252197265625,31.90999984741211,0.0,-77.0,0.188873291015625,-0.4327239990234375,Waiting,0.0,0.0,-114.0,0.0,0.0,0.0,0.0,0.0,
16.38500299999997,0.0,0.0,false,3888717.7004608293,,5025.0,0.625,0.0,0.0,0.0,0.125,1.7114256060000002,0.0,0.0,-67222.0,0.0,-22.5,-0.0,0.0,0.25,2.565917706,0.0,0.0,28979.0,0.0,0.0,0.0,0.0,0.0,4.008788652,0.0,0.0,-44946.0,2.125,-22.5,-0.0,0.0,0.0,2.447509515,0.0,0.0,1.1699999570846558,1.440000057220459,31.3700008392334,0.03826904296875,-0.013671875,1.04095458984375,31.959999084472656,0.0,-8.0,0.1884918212890625,-0.435546875,Waiting,0.0,0.0,-114.0,0.0,0.0,0.0,0.0,0.0,
