Time,ClimberA1,ClimberA2,CameraExists,HeapSpace,LoopTime,FRpos,FRCurrent,FRspeed,FRsetpoint,FRApos,FRACurrent,FREncpos,FREncSetpoint,FREncSpeed,FLpos,FLCurrent,FLspeed,FLsetpoint,FLApos,FLACurrent,FLEncpos,FLEncSetpoint,FLEncSpeed,BRpos,BRCurrent,BRspeed,BRsetpoint,BRApos,BRACurrent,BREncpos,BREncSetpoint,BREncSpeed,BLpos,BLCurrent,BLspeed,BLsetpoint,BLApos,BLACurrent,BLEncpos,BLEncSetpoint,BLEncSpeed,navx_Pitch,navx_Roll,navx_Yaw,navx_XAcc,navx_YAcc,navx_ZAcc,navx_Temp,navx_Bar,navx_Alt,navx_XDis,navx_YDis,GearPlacerState,ShootOutputV,ShootOutputCurrent,ShootEncPos,ShootEncVelocity,ShootSpeed,ShootSetpoint,CarouselSetpoint,CarouselCurrent,
0.3322799999999697,0.0,0.0,false,4179805.3458027164,,410.0,0.0,0.0,0.0,0.0,3.625,2.341308354,0.0,0.0,-24562.0,0.0,0.0,-0.0,0.0,1.875,3.199462563,0.0,0.0,11025.0,0.0,0.0,0.0,0.0,1.25,4.3432612740000005,0.0,0.0,-15262.0,0.0,7.5,-0.0,0.0,1.875,2.968749696,0.0,0.0,1.2899999618530273,0.4699999988079071,27.229999542236328,0.11669921875,0.03631591796875,0.95782470703125,27.729999542236328,0.0,103.0,-2.1099853515625,-0.3061981201171875,Waiting,0.0,0.0,-114.0,0.0,0.0,0.0,0.0,0.0,
0.5050499999999883,0.0,0.0,false,4179783.601024157,,412.0,0.0,7.5,0.0,0.0,0.375,1.512451017,0.0,0.0,-24562.0,0.0,0.0,-0.0,0.0,0.25,2.302245858,0.0,0.0,11029.0,0.0,22.5,0.0,0.0,0.0,3.614501583,0.0,0.0,-15250.0,0.0,30.0,-0.0,0.0,0.375,2.227782975,0.0,0.0,1.2200000286102295,0.5299999713897705,27.149999618530273,0.00494384765625,0.00457763671875,0.78680419921875,27.719999313354492,0.0,-7.0,-2.1093292236328125,-0.307952880859375,Waiting,0.0,0.0,-114.0,0.0,0.0,0.0,0.0,0.0,
0.6679809999999706,0.0,0.0,false,4179737.662511131,,413.0,0.0,0.0,0.0,0.0,0.125,1.617431475,0.0,0.0,-24562.0,0.0,0.0,-0.0,0.0,0.125,2.4267575640000003,0.0,0.0,11030.0,0.0,0.0,0.0,0.0,0.0,3.9062496,0.0,0.0,-15250.0,0.0,0.0,-0.0,0.0,0.0,2.366943117,0.0,0.0,1.2799999713897705,0.4699999988079071,27.260000228881836,-0.0423583984375,-0.026123046875,1.1297607421875,27.719999313354492,0.0,-69.0,-2.1098480224609375,-0.30645751953125,Waiting,0.0,0.0,-114.0,0.0,0.0,0.0,0.0,0.0,
0.8377519999999786,0.0,0.0,false,4179668.6023372286,,413.0,0.0,0.0,0.0,0.0,0.125,1.861572075,0.0,0.0,-24562.0,0.0,0.0,-0.0,0.0,0.125,2.7880856520000004,0.0,0.0,11030.0,0.0,0.0,0.0,0.0,0.0,4.096679268,0.0,0.0,-15250.0,0.0,0.0,-0.0,0.0,0.0,2.5366208340000003,0.0,0.0,1.2599999904632568,0.4300000071525574,27.290000915527344,-0.0030517578125,0.0382080078125,1.0145263671875,27.719999313354492,0.0,-2.0,-2.109466552734375,-0.3058319091796875,Waiting,0.0,0.0,-114.0,0.0,0.0,0.0,0.0,0.0,
1.0053889999999666,0.0,0.0,false,4179575.364344536,,413.0,0.0,0.0,0.0,0.0,0.0,1.907958789,0.0,0.0,-24562.0,0.0,0.0,-0.0,0.0,0.0,2.8015133850000002,0.0,0.0,11030.0,0.0,0.0,0.0,0.0,0.0,4.062499584,0.0,0.0,-15250.0,0.0,0.0,-0.0,0.0,0.0,2.5805661420000003,0.0,0.0,1.2599999904632568,0.4300000071525574,27.290000915527344,0.008056640625,0.0234375,1.01177978515625,27.739999771118164,0.0,0.0,-2.109466552734375,-0.30596923828125,Waiting,0.0,0.0,-114.0,0.0,0.0,0.0,0.0,0.0,
1.1680659999999916,0.0,0.0,false,4179457.9566039834,,413.0,0.0,0.0,0.0,0.0,0.0,1.8701169960000001,0.0,0.0,-24562.0,0.0,0.0,-0.0,0.0,0.0,2.777099325,0.0,0.0,11030.0,0.0,0.0,0.0,0.0,0.0,4.038085524,0.0,0.0,-15250.0,0.0,0.0,-0.0,0.0,0.0,2.57568333,0.0,0.0,1.2699999809265137,0.44999998807907104,27.280000686645508,0.01031494140625,0.03350830078125,0.99822998046875,27.739999771118164,0.0,7.0,-2.109466552734375,-0.30596923828125,Waiting,0.0,0.0,-114.0,0.0,0.0,0.0,0.0,0.0,
1.3423040000000037,0.0,0.0,false,4179316.3871829105,,413.0,0.0,0.0,0.0,0.0,0.0,1.8688962930000002,0.0,0.0,-24562.0,0.0,0.0,-0.0,0.0,0.0,2.724609096,0.0,0.0,11030.0,0.0,0.0,0.0,0.0,0.0,4.038085524,0.0,0.0,-15250.0,0.0,0.0,-0.0,0.0,0.0,2.569579815,0.0,0.0,1.2799999713897705,0.4399999976158142,27.280000686645508,0.00848388671875,0.02398681640625,1.00152587890625,27.739999771118164,0.0,1.0,-2.109466552734375,-0.30596923828125,Waiting,0.0,0.0,-114.0,0.0,0.0,0.0,0.0,0.0,
1.509119000000006,0.0,0.0,false,4179149.2081432864,,399.0,4.625,-172.5,-853.2283151149749,0.0,0.0,1.8701169960000001,4.963999999999999,0.0,-24543.0,5.125,210.0,853.2283151149749,0.0,0.0,2.6904294120000003,4.948999999999997,0.0,11006.0,6.0,-232.5,-853.2283151149749,0.0,0.0,4.04052693,2.346685808637024E-15,0.0,-15233.0,3.5,187.5,853.2283151149749,0.0,0.0,2.564697003,2.343606790115397E-15,0.0,1.1399999856948853,-0.5299999713897705,27.450000762939453,-0.1900634765625,0.035400390625,0.6561279296875,27.75,0.0,-152.0,-2.119842529296875,-0.3009796142578125,Waiting,0.0,0.0,-114.0,0.0,0.0,0.0,0.0,0.0,
1.6784560000000055,0.0,0.0,false,4178957.1132369298,,197.0,26.875,-922.5,-2123.1496453285217,0.0,0.0,1.8701169960000001,4.963999999999999,0.0,-24319.0,30.5,1050.0,2123.1496453285217,0.0,0.0,2.6330563710000003,4.948999999999997,0.0,10681.0,11.875,-1612.5,-2123.1496453285217,0.0,0.0,4.047851148,2.346685808637024E-15,0.0,-15010.0,23.875,1072.5,2123.1496453285217,0.0,0.0,2.550048567,2.343606790115397E-15,0.0,1.2300000190734863,-3.809999942779541,26.739999771118164,-0.50762939453125,-0.343994140625,1.59173583984375,27.75,0.0,-528.0,-2.184295654296875,-0.2713165283203125,Waiting,0.0,0.0,-114.0,0.0,0.0,0.0,0.0,0.0,
1.8652110000000102,0.0,0.0,false,4178950.306751196,,-52.0,22.25,-1657.5,-2242.2047066688538,0.0,0.0,1.8945310560000002,4.963999999999999,0.0,-24057.0,21.875,1747.5,2242.2047066688538,0.0,0.0,2.604980202,4.948999999999997,0.0,10414.0,13.625,-1807.5,-2242.2047066688538,0.0,0.0,4.050292554,2.346685808637024E-15,0.0,-14753.0,17.0,1800.0,2242.2047066688538,0.0,0.0,2.561034894,2.343606790115397E-15,0.0,1.3700000047683716,-4.960000038146973,25.829999923706055,-0.0576171875,0.01055908203125,0.73583984375,27.75,0.0,-230.0,-2.2750091552734375,-0.2293548583984375,Waiting,0.0,0.0,-114.0,0.0,0.0,0.0,0.0,0.0,
2.024551999999967,0.0,0.0,false,4178917.4457295374,,-369.0,26.375,-2295.0,-2724.4896596285116,0.0,0.0,1.909179492,0.11162851417621722,0.0,-23742.0,5.375,2070.0,1827.7926891295917,0.0,0.0,2.829589554,0.1665770750078931,0.0,10079.0,14.0,-2445.0,-2724.4896596285116,0.0,0.0,4.001464434,4.842596361960318,0.0,-14432.0,4.625,2040.0,1827.7926891295917,0.0,0.0,2.491454823,4.780973413093241,0.0,1.1200000047683716,-5.650000095367432,26.25,-0.18353271484375,0.14068603515625,1.2977294921875,27.729999542236328,0.0,1.0,-2.390960693359375,-0.1775665283203125,Waiting,0.0,0.0,-114.0,0.0,0.0,0.0,0.0,0.0,
2.1913549999999815,0.0,0.0,false,4178860.485266318,,-1208.0,15.75,-2812.5,-2723.5790301069715,0.0,0.0,1.9238279280000001,0.17137428794597198,0.0,-23111.0,0.875,1770.0,1397.8985219621425,0.0,0.0,3.093261402,0.34081763982928126,0.0,9229.0,7.5,-2760.0,-2723.5790301069715,0.0,0.0,3.907470303,4.782970946316611,0.0,-13807.0,1.125,1837.5,1397.8985219621425,0.0,0.0,2.227782975,4.606785659111867,0.0,1.2599999904632568,-5.010000228881836,33.54999923706055,0.1112060546875,0.37237548828125,1.0316162109375,27.729999542236328,0.0,360.0,-2.505279541015625,-0.1229400634765625,Waiting,0.0,0.0,-114.0,0.0,0.0,0.0,0.0,0.0,
2.351559999999998,0.0,0.0,false,4178779.4334000447,,-1673.0,10.75,-2895.0,-2680.1649535211777,0.0,0.125,1.927490037,0.17741676556885994,0.0,-22847.0,1.875,1537.5,1337.4451214002322,0.0,0.0,3.2043453750000004,0.3643416279306737,0.0,8771.0,3.0,-2812.5,-2680.1649535211777,0.0,0.0,3.874511322,4.776940641291674,0.0,-13561.0,3.5,1402.5,1337.4451214002322,0.0,0.0,2.1130368930000003,4.583268800932106,0.0,2.009999990463257,-3.890000104904175,49.060001373291016,-0.01385498046875,0.08331298828125,0.63983154296875,27.729999542236328,0.0,65.0,-2.5695343017578125,-0.054962158203125,Waiting,0.0,0.0,-114.0,0.0,0.0,0.0,0.0,0.0,
2.518156000000017,0.0,0.0,false,4178672.265925514,,-2566.0,11.875,-2782.5,-2694.874034429958,0.0,0.125,1.937255661,0.17963741604113354,0.0,-22380.0,2.25,1447.5,1330.9735470803373,0.0,0.0,3.131103195,0.37332479195409407,0.0,7887.0,4.125,-2730.0,-2694.874034429958,0.0,0.0,3.873290619,4.774724464329618,0.0,-13137.0,5.125,1260.0,1330.9735470803373,0.0,0.0,2.1215818140000002,4.574288359629646,0.0,2.7300000190734863,-3.8299999237060547,66.37999725341797,0.04815673828125,0.22979736328125,0.864990234375,27.65999984741211,0.0,215.0,-2.581817626953125,-0.0039215087890625,Waiting,0.0,0.0,-114.0,0.0,0.0,0.0,0.0,0.0,
2.686152999999991,0.0,0.0,false,4178541.0235660295,,-2945.0,2.375,-2317.5,-1904.8818826675415,0.0,0.0,1.938476364,4.963999999999999,0.0,-22141.0,12.0,1500.0,1904.8818826675415,0.0,0.0,2.733154017,4.948999999999997,0.0,7519.0,0.0,-2235.0,-1904.8818826675415,0.0,0.0,3.9477535020000003,2.346685808637024E-15,0.0,-12915.0,17.25,1440.0,1904.8818826675415,0.0,0.25,2.4877927140000002,2.343606790115397E-15,0.0,3.319999933242798,-4.269999980926514,80.05999755859375,0.1129150390625,0.15179443359375,0.806884765625,27.65999984741211,0.0,133.0,-2.54400634765625,0.0018768310546875,Waiting,0.0,0.0,-114.0,0.0,0.0,0.0,0.0,0.0,
2.848761999999988,0.0,0.0,false,4178385.7143492275,,-3311.0,4.125,-2145.0,-1904.8818826675415,0.0,0.0,1.903075977,4.963999999999999,0.0,-21879.0,11.625,1702.5,1904.8818826675415,0.0,0.0,2.2680661740000003,4.948999999999997,0.0,7175.0,0.375,-2062.5,-1904.8818826675415,0.0,0.0,4.062499584,2.346685808637024E-15,0.0,-12647.0,10.875,1837.5,1904.8818826675415,0.0,0.0,2.667236055,2.343606790115397E-15,0.0,2.930000066757202,-3.700000047683716,82.66000366210938,0.15399169921875,0.08056640625,0.86761474609375,27.65999984741211,0.0,62.0,-2.4879913330078125,0.0036773681640625,Waiting,0.0,0.0,-114.0,0.0,0.0,0.0,0.0,0.0,
3.0068850000000094,0.0,0.0,false,4178204.4009779952,,-3894.0,10.625,-1747.5,-1904.8818826675415,0.0,0.0,1.87988262,4.963999999999999,0.0,-21331.0,14.375,1687.5,1904.8818826675415,0.0,0.5,2.397460692,4.948999999999997,0.0,6588.0,5.375,-1777.5,-1904.8818826675415,0.0,0.0,4.06494099,2.346685808637024E-15,0.0,-12028.0,7.25,1927.5,1904.8818826675415,0.0,0.0,2.677001679,2.343606790115397E-15,0.0,2.950000047683716,-2.950000047683716,80.47000122070312,-0.0350341796875,0.300048828125,1.07489013671875,27.65999984741211,0.0,244.0,-2.4412994384765625,-0.014739990234375,Waiting,0.0,0.0,-114.0,0.0,0.0,0.0,0.0,0.0,
3.170701000000001,0.0,0.0,false,4177999.0372263584,,-4180.0,11.375,-1837.5,-1904.8818826675415,0.0,0.0,1.8896482440000002,4.963999999999999,0.0,-21023.0,8.5,1972.5,1904.8818826675415,0.0,0.0,2.7990719790000003,4.948999999999997,0.0,6300.0,5.875,-1830.0,-1904.8818826675415,0.0,0.0,4.067382396,2.346685808637024E-15,0.0,-11714.0,5.875,1980.0,1904.8818826675415,0.0,0.0,2.603759499,2.343606790115397E-15,0.0,2.359999895095825,-2.880000114440918,77.79000091552734,-0.09027099609375,-0.03472900390625,0.6458740234375,27.6200008392334,0.0,-72.0,-2.3975982666015625,-0.0421142578125,Waiting,0.0,0.0,-114.0,0.0,0.0,0.0,0.0,0.0,
3.3458169999999807,0.0,0.0,false,4177982.9875555555,,-4488.0,1.375,-1747.5,-1250.0787448883057,0.0,0.0,1.8957517590000001,4.963999999999999,0.0,-20713.0,1.625,1597.5,1250.0787448883057,0.0,0.0,2.924804388,4.948999999999997,0.0,5994.0,0.0,-1687.5,-1250.0787448883057,0.0,0.0,4.067382396,2.346685808637024E-15,0.0,-11392.0,0.625,1725.0,1250.0787448883057,0.0,0.0,2.5415036460000002,2.343606790115397E-15,0.0,2.0399999618530273,-2.069999933242798,77.9000015258789,0.17431640625,0.15924072265625,1.03125,27.6200008392334,0.0,163.0,-2.3625640869140625,-0.07550048828125,Waiting,0.0,0.0,-114.0,0.0,0.0,0.0,0.0,0.0,
3.5088989999999756,0.0,0.0,false,4177944.310187757,,-5004.0,0.0,-1485.0,-932.5984311103821,0.0,0.875,2.4816891990000003,1.2409999999999985,0.0,-20258.0,1.25,1207.5,932.5984311103821,0.0,0.625,3.614501583,1.2372499999999984,0.0,5528.0,0.125,-1155.0,-932.5984311103821,0.0,0.625,4.737548343,1.2384999999999984,0.0,-10979.0,17.5,900.0,-932.5984311103821,0.0,4.125,1.8713376990000001,3.7106249999999985,0.0,2.0799999237060547,1.2200000286102295,81.66999816894531,0.779296875,-0.563720703125,0.83831787109375,27.6200008392334,0.0,-477.0,-2.3170928955078125,-0.15435791015625,Waiting,0.0,0.0,-114.0,0.0,0.0,0.0,0.0,0.0,
3.6692419999999695,0.0,0.0,false,4177876.9508998,,-5205.0,3.5,-1110.0,-1230.236234664917,0.0,0.125,3.3715816860000003,1.2409999999999985,0.0,-20105.0,11.25,937.5,1230.236234664917,0.0,0.125,4.200439023,1.2372499999999984,0.0,5428.0,9.75,-810.0,-1230.236234664917,0.0,0.125,0.5932616580000001,1.2384999999999984,0.0,-10966.0,18.125,-165.0,-1230.236234664917,0.0,1.125,1.2683104170000001,3.7106249999999985,0.0,0.800000011920929,3.9600000381469727,87.31999969482422,0.07513427734375,-0.21331787109375,0.92523193359375,27.600000381469727,0.0,-225.0,-2.2786407470703125,-0.312408447265625,Waiting,0.0,0.0,-114.0,0.0,0.0,0.0,0.0,0.0,
3.8270810000000055,0.0,0.0,false,4177786.9803398866,,-5334.0,4.875,-787.5,-833.3858048915863,0.0,0.125,3.4167476970000004,1.2409999999999985,0.0,-19983.0,14.375,660.0,833.3858048915863,0.0,0.0,3.9855952950000004,1.2372499999999984,0.0,5268.0,3.25,-892.5,-833.3858048915863,0.0,0.0,0.56152338,1.2384999999999984,0.0,-11068.0,3.0,-832.5,-833.3858048915863,0.0,0.0,1.127929572,3.7106249999999985,0.0,0.09000000357627869,3.809999942779541,84.7300033569336,-0.0909423828125,-0.02117919921875,0.6201171875,27.600000381469727,0.0,-34.0,-2.2649383544921875,-0.5064544677734375,Waiting,0.0,0.0,-114.0,0.0,0.0,0.0,0.0,0.0,
3.989594999999972,0.0,0.0,false,4177671.645490893,,-5524.0,0.0,-420.0,0.0,0.0,0.125,3.044433282,1.2409999999999985,0.0,-19805.0,0.0,382.5,0.0,0.0,0.0,3.923339442,1.2372499999999984,0.0,5011.0,0.0,-615.0,0.0,0.0,0.0,0.25756833300000004,1.2384999999999984,0.0,-11322.0,0.0,-690.0,0.0,0.0,0.0,1.236572139,3.7106249999999985,0.0,0.7900000214576721,2.890000104904175,82.20999908447266,-0.0550537109375,0.21356201171875,0.503173828125,27.600000381469727,0.0,193.0,-2.249359130859375,-0.6820526123046875,Waiting,0.0,0.0,-114.0,0.0,0.0,0.0,0.0,0.0,
4.149594999999972,0.0,0.0,false,4177533.1757912273,,-5601.0,0.0,-435.0,0.0,0.0,0.0,2.869872753,1.2409999999999985,0.0,-19730.0,0.0,457.5,0.0,0.0,0.0,3.911132412,1.2372499999999984,0.0,4953.0,0.0,-300.0,0.0,0.0,0.0,0.117187488,1.2384999999999984,0.0,-11395.0,0.0,-360.0,0.0,0.0,0.0,1.3415525970000002,3.7106249999999985,0.0,1.8600000143051147,2.2799999713897705,83.29000091552734,0.034423828125,0.1224365234375,0.9415283203125,27.59000015258789,0.0,90.0,-2.20782470703125,-0.8246612548828125,Waiting,0.0,0.0,-114.0,0.0,0.0,0.0,0.0,0.0,
4.309883999999962,0.0,0.0,false,4177372.11814346,,-5656.0,0.0,-195.0,-337.32282400131226,0.0,0.125,2.932128606,1.2409999999999985,0.0,-19680.0,0.0,150.0,337.32282400131226,0.0,0.0,3.909911709,1.2372499999999984,0.0,4921.0,0.0,-135.0,-337.32282400131226,0.0,0.0,0.247802709,1.2384999999999984,0.0,-11429.0,0.0,-135.0,-337.32282400131226,0.0,0.0,1.352538924,3.7106249999999985,0.0,2.4600000381469727,2.140000104904175,83.80999755859375,0.02655029296875,0.0970458984375,0.87542724609375,27.59000015258789,0.0,58.0,-2.15386962890625,-0.8235015869140625,Waiting,0.0,0.0,-114.0,0.0,0.0,0.0,0.0,0.0,
4.466081000000005,0.0,0.0,false,4177185.181303431,,-5696.0,0.125,-127.5,-357.16537177562714,0.0,0.125,3.018798519,1.2409999999999985,0.0,-19640.0,0.375,135.0,357.16537177562714,0.0,0.0,3.905028897,1.2372499999999984,0.0,4886.0,0.375,-105.0,-357.16537177562714,0.0,0.0,0.324706998,1.2384999999999984,0.0,-11466.0,0.875,-127.5,-357.16537177562714,0.0,0.0,1.357421736,3.7106249999999985,0.0,2.440000057220459,1.8799999952316284,83.8499984741211,-0.04290771484375,-0.01446533203125,1.06573486328125,27.59000015258789,0.0,-67.0,-2.1303253173828125,-0.8209075927734375,Waiting,0.0,0.0,-114.0,0.0,0.0,0.0,0.0,0.0,
4.628292000000016,0.0,0.0,false,4176975.6722912965,,-5704.0,1.5,-60.0,-357.16537177562714,0.0,0.0,3.073730154,1.2409999999999985,0.0,-19636.0,1.75,67.5,357.16537177562714,0.0,0.0,3.912353115,1.2372499999999984,0.0,4886.0,2.875,-90.0,-357.16537177562714,0.0,0.0,0.325927701,1.2384999999999984,0.0,-11471.0,2.5,-52.5,-357.16537177562714,0.0,0.0,1.357421736,3.7106249999999985,0.0,2.0,1.6699999570846558,83.91999816894531,-0.018798828125,-0.04705810546875,0.9730224609375,27.649999618530273,0.0,-85.0,-2.13970947265625,-0.8181610107421875,Waiting,0.0,0.0,-114.0,0.0,0.0,0.0,0.0,0.0,
4.806934000000008,0.0,0.0,false,4176955.891219891,,-5765.0,1.375,-240.0,-357.16537177562714,0.0,0.0,3.078612966,1.2409999999999985,0.0,-19572.0,2.0,225.0,357.16537177562714,0.0,0.0,3.9062496,1.2372499999999984,0.0,4813.0,3.0,-195.0,-357.16537177562714,0.0,0.0,0.32958981000000004,1.2384999999999984,0.0,-11522.0,2.375,-217.5,-357.16537177562714,0.0,0.0,1.357421736,3.7106249999999985,0.0,1.2300000190734863,1.5,84.16000366210938,0.01788330078125,-0.07794189453125,0.96746826171875,27.649999618530273,0.0,-99.0,-2.166015625,-0.81341552734375,Waiting,0.0,0.0,-114.0,0.0,0.0,0.0,0.0,0.0,
4.965424999999988,0.0,0.0,false,4176909.3194228634,,-5820.0,0.75,-352.5,-357.16537177562714,0.0,0.0,3.078612966,1.2409999999999985,0.0,-19517.0,1.25,352.5,357.16537177562714,0.0,0.0,3.9062496,1.2372499999999984,0.0,4762.0,1.875,-330.0,-357.16537177562714,0.0,0.0,0.344238246,1.2384999999999984,0.0,-11569.0,2.125,-307.5,-357.16537177562714,0.0,0.0,1.361083845,3.7106249999999985,0.0,1.0099999904632568,1.309999942779541,84.44999694824219,-0.08428955078125,-0.00433349609375,0.968505859375,27.649999618530273,0.0,-31.0,-2.193359375,-0.8069915771484375,Waiting,0.0,0.0,-114.0,0.0,0.0,0.0,0.0,0.0,
5.1195430000000055,0.0,0.0,false,4176838.8653867496,,-5879.0,0.375,-382.5,-357.16537177562714,0.0,0.0,3.083495778,1.2409999999999985,0.0,-19456.0,0.875,382.5,357.16537177562714,0.0,0.0,3.9062496,1.2372499999999984,0.0,4702.0,1.75,-367.5,-357.16537177562714,0.0,0.0,0.34912105800000004,1.2384999999999984,0.0,-11622.0,2.5,-262.5,-357.16537177562714,0.0,0.0,1.357421736,3.7106249999999985,0.0,0.9700000286102295,1.1200000047683716,84.80999755859375,0.00146484375,-0.02191162109375,1.07952880859375,27.6200008392334,0.0,-41.0,-2.1938934326171875,-0.795013427734375,Waiting,0.0,0.0,-114.0,0.0,0.0,0.0,0.0,0.0,
5.282068999999959,0.0,0.0,false,4176744.5370616955,,-5939.0,0.0,-135.0,0.0,0.0,0.0,3.085937184,1.2409999999999985,0.0,-19368.0,0.0,165.0,0.0,0.0,0.0,3.9062496,1.2372499999999984,0.0,4633.0,0.0,-97.5,0.0,0.0,0.0,0.35522457300000004,1.2384999999999984,0.0,-11701.0,0.0,-172.5,0.0,0.0,0.0,1.357421736,3.7106249999999985,0.0,1.590000033378601,1.0700000524520874,85.13999938964844,0.0111083984375,0.1492919921875,0.66534423828125,27.6200008392334,0.0,130.0,-2.186431884765625,-0.792236328125,Waiting,0.0,0.0,-114.0,0.0,0.0,0.0,0.0,0.0,
5.442271000000008,0.0,0.0,false,4176626.3423943194,,-5940.0,11.875,150.0,1115.625,0.0,0.875,2.562255597,0.5533560492066917,0.0,-19400.0,12.5,-195.0,-1115.625,0.0,0.375,4.575194844,1.9228160581136373,0.0,4570.0,6.75,-405.0,-1115.625,0.0,0.125,0.968017479,1.9247586890068593,0.0,-11739.0,7.75,-225.0,-1115.625,0.0,2.25,0.692138601,3.0252667311543298,0.0,2.359999895095825,0.9300000071525574,83.47000122070312,-0.01348876953125,0.10009765625,0.98602294921875,27.6200008392334,0.0,55.0,-2.1557769775390625,-0.788299560546875,Waiting,0.0,0.0,-114.0,0.0,0.0,0.0,0.0,0.0,
5.605643999999971,0.0,0.0,false,4176484.2893277123,,-5907.0,0.0,180.0,0.0,0.0,0.0,2.1179197050000003,0.5533560492066917,0.0,-19437.0,0.0,-52.5,0.0,0.0,0.0,4.671630381,1.9228160581136373,0.0,4534.0,0.0,-180.0,0.0,0.0,0.0,1.646728347,1.9247586890068593,0.0,-11740.0,0.0,-105.0,0.0,0.0,0.0,0.36987300900000003,3.0252667311543298,0.0,1.9199999570846558,1.1200000047683716,79.33999633789062,0.02398681640625,0.18658447265625,0.92596435546875,27.649999618530273,0.0,153.0,-2.12969970703125,-0.7853546142578125,Waiting,0.0,0.0,-114.0,0.0,0.0,0.0,0.0,0.0,
5.764293000000005,0.0,0.0,false,4176318.385801442,,-5880.0,0.0,0.0,131.25,0.0,0.125,2.1679685280000003,0.5533560492066917,0.0,-19442.0,0.0,0.0,-131.25,0.0,0.0,4.666747569,1.9228160581136373,0.0,4509.0,0.0,0.0,-131.25,0.0,0.125,1.209716673,1.9247586890068593,0.0,-11761.0,0.0,0.0,-131.25,0.0,0.0,0.456542922,3.0252667311543298,0.0,1.7899999618530273,0.7200000286102295,79.80999755859375,0.02880859375,0.0716552734375,1.01715087890625,27.649999618530273,0.0,41.0,-2.1042022705078125,-0.7784271240234375,Waiting,0.0,0.0,-114.0,0.0,0.0,0.0,0.0,0.0,
5.924114000000001,0.0,0.0,false,4176125.342502218,,-5881.0,0.0,0.0,0.0,0.0,0.25,2.396239989,0.5533560492066917,0.0,-19442.0,0.0,0.0,0.0,0.0,0.0,4.667968272,1.9228160581136373,0.0,4509.0,0.0,0.0,0.0,0.0,0.0,0.795898356,1.9247586890068593,0.0,-11763.0,0.0,-7.5,0.0,0.0,0.0,0.577392519,3.0252667311543298,0.0,1.659999966621399,0.7300000190734863,79.75,-0.0147705078125,0.0570068359375,1.03436279296875,27.649999618530273,0.0,21.0,-2.0832977294921875,-0.778533935546875,Waiting,0.0,0.0,-114.0,0.0,0.0,0.0,0.0,0.0,
6.090507999999972,0.0,0.0,false,4176127.941443939,,-5881.0,0.0,0.0,0.0,0.0,0.0,2.4255368610000003,0.5533560492066917,0.0,-19442.0,0.0,0.0,0.0,0.0,0.0,4.667968272,1.9228160581136373,0.0,4509.0,0.0,0.0,0.0,0.0,0.0,0.950927637,1.9247586890068593,0.0,-11763.0,0.0,0.0,0.0,0.0,0.0,0.587158143,3.0252667311543298,0.0,1.6100000143051147,0.6499999761581421,79.80000305175781,-0.004150390625,0.02886962890625,1.02691650390625,27.6200008392334,0.0,-2.0,-2.083984375,-0.7780914306640625,Waiting,0.0,0.0,-114.0,0.0,0.0,0.0,0.0,0.0,
6.253377999999968,0.0,0.0,false,4176105.8771346197,,-5881.0,0.0,0.0,0.0,0.0,0.0,2.4255368610000003,0.5533560492066917,0.0,-19442.0,0.0,0.0,0.0,0.0,0.0,4.667968272,1.9228160581136373,0.0,4509.0,0.0,0.0,0.0,0.0,0.0,1.0815428580000002,1.9247586890068593,0.0,-11763.0,0.0,0.0,0.0,0.0,0.0,0.587158143,3.0252667311543298,0.0,1.559999942779541,0.5799999833106995,79.80999755859375,0.001953125,0.01385498046875,0.987060546875,27.6200008392334,0.0,0.0,-2.0844268798828125,-0.7780914306640625,Waiting,0.0,0.0,-114.0,0.0,0.0,0.0,0.0,0.0,
6.411816999999981,0.0,0.0,false,4176057.219647411,,-5881.0,0.0,0.0,0.0,0.0,0.0,2.4255368610000003,0.5533560492066917,0.0,-19442.0,0.0,0.0,0.0,0.0,0.0,4.666747569,1.9228160581136373,0.0,4509.0,0.0,0.0,0.0,0.0,0.0,1.041259659,1.9247586890068593,0.0,-11763.0,0.0,0.0,0.0,0.0,0.0,0.588378846,3.0252667311543298,0.0,1.5,0.5,79.81999969482422,-0.00274658203125,0.02801513671875,1.01025390625,27.6200008392334,0.0,0.0,-2.084564208984375,-0.7780914306640625,Waiting,0.0,0.0,-114.0,0.0,0.0,0.0,0.0,0.0,
6.583196999999986,0.0,0.0,false,4175985.95210643,,-5881.0,0.125,0.0,-218.26772511005402,0.0,0.25,2.0104978410000003,4.963999999999999,0.0,-19442.0,0.125,0.0,-218.26772511005402,0.0,5.125,4.743651858000001,2.4744999999999977,0.0,4509.0,0.5,0.0,218.26772511005402,0.0,0.375,1.488036957,2.4770000000000025,0.0,-11763.0,0.125,0.0,-218.26772511005402,0.0,0.375,0.18066404400000002,2.473750000000002,0.0,1.3600000143051147,0.4399999976158142,79.7699966430664,-0.0146484375,0.0350341796875,0.99896240234375,27.649999618530273,0.0,7.0,-2.0849151611328125,-0.7774200439453125,Waiting,0.0,0.0,-114.0,0.0,0.0,0.0,0.0,0.0,
6.74519299999997,0.0,0.0,false,4175891.7725307615,,-5892.0,0.375,-15.0,-238.1102353334427,0.0,0.125,1.776122865,4.963999999999999,0.0,-19443.0,1.25,0.0,-238.1102353334427,0.0,4.875,4.754638185,2.4744999999999977,0.0,4518.0,1.0,7.5,238.1102353334427,0.0,0.0,1.6015623360000002,2.4770000000000025,0.0,-11775.0,0.625,-30.0,-238.1102353334427,0.0,0.0,0.043945308,2.473750000000002,0.0,1.3899999856948853,0.3400000035762787,79.66000366210938,-0.00616455078125,-0.0074462890625,1.00067138671875,27.649999618530273,0.0,-33.0,-2.0848388671875,-0.77410888671875,Waiting,0.0,0.0,-114.0,0.0,0.0,0.0,0.0,0.0,
6.910228000000003,0.0,0.0,false,4175771.347373088,,-5895.0,1.75,-15.0,-257.95276433229446,0.0,0.0,1.771240053,4.963999999999999,0.0,-19468.0,1.25,-135.0,-257.95276433229446,0.0,4.75,4.753417482000001,2.4744999999999977,0.0,4521.0,1.5,7.5,257.95276433229446,0.0,0.0,1.566161949,2.4770000000000025,0.0,-11778.0,1.25,-45.0,-257.95276433229446,0.0,0.0,0.057373041,2.473750000000002,0.0,1.3799999952316284,0.1899999976158142,79.51000213623047,-0.06719970703125,-0.02587890625,0.8817138671875,27.649999618530273,0.0,-59.0,-2.08746337890625,-0.7733154296875,Waiting,0.0,0.0,-114.0,0.0,0.0,0.0,0.0,0.0,
7.066545999999973,0.0,0.0,false,4175624.3626288376,,-5904.0,2.0,-120.0,-257.95276433229446,0.0,0.0,1.7932127070000001,4.963999999999999,0.0,-19477.0,2.5,-67.5,-257.95276433229446,0.0,4.5,4.750976076000001,2.4744999999999977,0.0,4534.0,2.75,120.0,257.95276433229446,0.0,0.0,1.540527186,2.4770000000000025,0.0,-11793.0,1.625,-105.0,-257.95276433229446,0.0,0.0,0.06103515,2.473750000000002,0.0,1.350000023841858,-0.1599999964237213,79.45999908447266,-0.01214599609375,0.0447998046875,1.04315185546875,27.649999618530273,0.0,18.0,-2.091461181640625,-0.7680206298828125,Waiting,0.0,0.0,-114.0,0.0,0.0,0.0,0.0,0.0,
7.22424099999998,0.0,0.0,false,4175454.8129432625,,-5949.0,2.25,-135.0,-257.95276433229446,0.0,0.0,1.7895505980000002,4.963999999999999,0.0,-19507.0,3.375,-142.5,-257.95276433229446,0.0,4.375,4.754638185,2.4744999999999977,0.0,4581.0,3.5,150.0,257.95276433229446,0.0,0.0,1.536865077,2.4770000000000025,0.0,-11841.0,1.75,-150.0,-257.95276433229446,0.0,0.0,0.057373041,2.473750000000002,0.0,1.2799999713897705,-0.18000000715255737,79.26000213623047,-9.1552734375E-4,0.00250244140625,1.0133056640625,27.639999389648438,0.0,-19.0,-2.0925140380859375,-0.76837158203125,Waiting,0.0,0.0,-114.0,0.0,0.0,0.0,0.0,0.0,
7.37969299999997,0.0,0.0,false,4175258.733739612,,-5975.0,3.25,-157.5,-277.79527455568314,0.0,0.0,1.7932127070000001,4.963999999999999,0.0,-19527.0,5.0,-187.5,-277.79527455568314,0.0,4.5,4.753417482000001,2.4744999999999977,0.0,4607.0,4.125,165.0,277.79527455568314,0.0,0.0,1.545409998,2.4770000000000025,0.0,-11864.0,2.75,-165.0,-277.79527455568314,0.0,0.0,0.057373041,2.473750000000002,0.0,1.3300000429153442,-0.30000001192092896,79.06999969482422,-0.05389404296875,-0.0423583984375,1.09588623046875,27.639999389648438,0.0,-75.0,-2.0924224853515625,-0.7679290771484375,Waiting,0.0,0.0,-114.0,0.0,0.0,0.0,0.0,0.0,
7.559467000000004,0.0,0.0,false,4175255.299800576,,-6058.0,10.25,-307.5,-730.7341165851486,0.0,0.25,2.076415803,0.357784233613321,0.0,-19556.0,0.0,-45.0,335.4475990115481,0.0,3.75,4.578856953,1.4793344164321385,0.0,4719.0,8.625,502.5,730.7341165851486,0.0,0.0,1.303710804,2.1199365243109605,0.0,-11903.0,0.0,-45.0,335.4475990115481,0.0,2.875,0.7263182850000001,3.468613957304909,0.0,1.2000000476837158,-0.07000000029802322,80.54000091552734,0.1280517578125,-0.0609130859375,0.63482666015625,27.639999389648438,0.0,-52.0,-2.092864990234375,-0.763671875,Waiting,0.0,0.0,-114.0,0.0,0.0,0.0,0.0,0.0,
7.744391000000003,0.0,0.0,false,4175227.495291902,,-6109.0,5.75,-307.5,-277.79527455568314,0.0,0.125,2.080077912,4.963999999999999,0.0,-19567.0,3.25,-52.5,-277.79527455568314,0.0,6.375,4.639892103,2.4744999999999977,0.0,4777.0,4.125,352.5,277.79527455568314,0.0,0.0,1.380615093,2.4770000000000025,0.0,-11905.0,3.25,82.5,-277.79527455568314,0.0,2.25,0.405273396,2.473750000000002,0.0,1.1200000047683716,-0.07000000029802322,83.83000183105469,0.14227294921875,-0.1968994140625,0.70904541015625,27.649999618530273,0.0,-194.0,-2.0878753662109375,-0.7637481689453125,Waiting,0.0,0.0,-114.0,0.0,0.0,0.0,0.0,0.0,
7.925372999999963,0.0,0.0,false,4175175.5932653965,,-6128.0,0.0,60.0,0.0,0.0,0.125,1.8164060640000002,4.963999999999999,0.0,-19567.0,0.0,0.0,0.0,0.0,8.25,4.644774915,2.4744999999999977,0.0,4809.0,0.0,-30.0,0.0,0.0,0.0,1.6027830390000002,2.4770000000000025,0.0,-11896.0,0.0,7.5,0.0,0.0,0.75,4.904784654,2.473750000000002,0.0,1.100000023841858,0.5400000214576721,83.36000061035156,-0.04058837890625,-0.0823974609375,1.01007080078125,27.649999618530273,0.0,-107.0,-2.086334228515625,-0.77032470703125,Waiting,0.0,0.0,-114.0,0.0,0.0,0.0,0.0,0.0,
8.110162000000011,0.0,0.0,false,4175095.3558533615,,-6117.0,0.0,22.5,0.0,0.0,0.0,1.724853339,4.963999999999999,0.0,-19567.0,0.0,0.0,0.0,0.0,8.125,4.652099133,2.4744999999999977,0.0,4808.0,0.0,0.0,0.0,0.0,0.0,1.645507644,2.4770000000000025,0.0,-11892.0,0.0,7.5,0.0,0.0,0.0,4.80956982,2.473750000000002,0.0,1.1200000047683716,0.25,83.27999877929688,0.00604248046875,7.32421875E-4,1.0543212890625,27.700000762939453,0.0,-19.0,-2.0843658447265625,-0.7655792236328125,Waiting,0.0,0.0,-114.0,0.0,0.0,0.0,0.0,0.0,
8.278812999999966,0.0,0.0,false,4174994.9289036547,,-6117.0,0.0,0.0,0.0,0.0,0.0,1.778564271,4.963999999999999,0.0,-19567.0,0.0,0.0,0.0,0.0,7.875,4.650878430000001,2.4744999999999977,0.0,4808.0,0.0,0.0,0.0,0.0,0.0,1.6076658510000001,2.4770000000000025,0.0,-11893.0,0.0,0.0,0.0,0.0,0.0,0.039062496,2.473750000000002,0.0,1.059999942779541,0.3400000035762787,83.27999877929688,-0.00860595703125,0.02752685546875,1.003662109375,27.700000762939453,0.0,7.0,-2.0838165283203125,-0.766021728515625,Waiting,0.0,0.0,-114.0,0.0,0.0,0.0,0.0,0.0,
8.452344999999973,0.0,0.0,false,4174870.1778319124,,-6117.0,0.0,0.0,0.0,0.0,0.0,1.796874816,4.963999999999999,0.0,-19567.0,0.0,0.0,0.0,0.0,7.5,4.654540539,2.4744999999999977,0.0,4808.0,0.0,0.0,0.0,0.0,0.0,1.6040037420000002,2.4770000000000025,0.0,-11893.0,0.0,0.0,0.0,0.0,0.0,0.063476556,2.473750000000002,0.0,1.059999942779541,0.27000001072883606,83.31999969482422,0.002197265625,0.01214599609375,0.9986572265625,27.700000762939453,0.0,-6.0,-2.0838165283203125,-0.765869140625,Waiting,0.0,0.0,-114.0,0.0,0.0,0.0,0.0,0.0,
8.62879800000001,0.0,0.0,false,4174721.361381754,,-6106.0,0.125,37.5,180.46875,0.0,0.625,2.3718259290000003,0.5533560492066917,0.0,-19567.0,0.0,0.0,-180.46875,0.0,0.0,4.638671400000001,1.9228160581136369,0.0,4808.0,0.125,0.0,-180.46875,0.0,0.375,1.0559080950000002,1.9247586890068593,0.0,-11899.0,0.0,-30.0,-180.46875,0.0,1.125,0.5554198650000001,3.02526673115433,0.0,1.0199999809265137,0.3499999940395355,83.22000122070312,0.03369140625,0.02752685546875,1.01123046875,27.690000534057617,0.0,12.0,-2.0838775634765625,-0.7660980224609375,Waiting,0.0,0.0,-114.0,0.0,0.0,0.0,0.0,0.0,
8.810420999999973,0.0,0.0,false,4174548.236909111,,-6101.0,0.0,7.5,0.0,0.0,0.0,2.6965329270000002,0.5533560492066917,0.0,-19567.0,0.0,0.0,0.0,0.0,0.0,4.628905776,1.9228160581136369,0.0,4808.0,0.0,0.0,0.0,0.0,0.0,0.5407714290000001,1.9247586890068593,0.0,-11901.0,0.0,0.0,0.0,0.0,0.0,0.8569335060000001,3.02526673115433,0.0,1.059999942779541,0.17000000178813934,83.0199966430664,-0.0166015625,0.00860595703125,1.0194091796875,27.690000534057617,0.0,-12.0,-2.0836334228515625,-0.765411376953125,Waiting,0.0,0.0,-114.0,0.0,0.0,0.0,0.0,0.0,
8.984180999999982,0.0,0.0,false,4174351.0630949745,,-6101.0,0.0,0.0,0.0,0.0,0.0,2.496337635,0.5533560492066917,0.0,-19567.0,0.0,0.0,0.0,0.0,0.0,4.62646437,1.9228160581136369,0.0,4804.0,0.0,-15.0,0.0,0.0,0.125,0.9887694300000001,1.9247586890068593,0.0,-11899.0,0.0,7.5,0.0,0.0,0.0,0.6738280560000001,3.02526673115433,0.0,1.0800000429153442,0.18000000715255737,83.0,0.02313232421875,0.0244140625,1.06646728515625,27.690000534057617,0.0,6.0,-2.083587646484375,-0.7652587890625,Waiting,0.0,0.0,-114.0,0.0,0.0,0.0,0.0,0.0,
9.166331000000005,0.0,0.0,false,4174342.8329828447,,-6101.0,0.0,0.0,0.0,0.0,0.0,2.3278806210000003,0.5533560492066917,0.0,-19567.0,0.0,0.0,0.0,0.0,0.0,4.628905776,1.9228160581136369,0.0,4800.0,0.0,-22.5,0.0,0.0,0.0,1.328124864,1.9247586890068593,0.0,-11897.0,0.0,7.5,0.0,0.0,0.0,0.589599549,3.02526673115433,0.0,1.0399999618530273,0.18000000715255737,83.01000213623047,-0.00506591796875,0.0145263671875,1.01019287109375,27.709999084472656,0.0,-4.0,-2.083587646484375,-0.764984130859375,Waiting,0.0,0.0,-114.0,0.0,0.0,0.0,0.0,0.0,
9.322516000000004,0.0,0.0,false,4174309.371403276,,-6101.0,0.0,0.0,0.0,0.0,0.0,2.352294681,0.5533560492066917,0.0,-19567.0,0.0,0.0,0.0,0.0,0.0,4.628905776,1.9228160581136369,0.0,4800.0,0.0,0.0,0.0,0.0,0.0,1.105956918,1.9247586890068593,0.0,-11897.0,0.0,0.0,0.0,0.0,0.0,0.587158143,3.02526673115433,0.0,1.0399999618530273,0.1899999976158142,82.9800033569336,-0.010009765625,0.01129150390625,0.96258544921875,27.709999084472656,0.0,-7.0,-2.083587646484375,-0.764984130859375,Waiting,0.0,0.0,-114.0,0.0,0.0,0.0,0.0,0.0,
9.471696999999985,0.0,0.0,false,4174250.9124709526,,-6101.0,0.0,0.0,0.0,0.0,0.0,2.357177493,0.5533560492066917,0.0,-19567.0,0.0,0.0,0.0,0.0,0.0,4.628905776,1.9228160581136369,0.0,4800.0,0.0,0.0,0.0,0.0,0.0,0.96435537,1.9247586890068593,0.0,-11897.0,0.0,0.0,0.0,0.0,0.0,0.587158143,3.02526673115433,0.0,1.0399999618530273,0.17000000178813934,82.94999694824219,3.0517578125E-4,0.0133056640625,1.0029296875,27.709999084472656,0.0,-5.0,-2.083587646484375,-0.764984130859375,Waiting,0.0,0.0,-114.0,0.0,0.0,0.0,0.0,0.0,
9.631130000000004,0.0,0.0,false,4174171.516707236,,-6099.0,0.125,7.5,164.0625,0.0,0.0,2.357177493,0.5533560492066917,0.0,-19567.0,0.0,0.0,-164.0625,0.0,0.0,4.628905776,1.9228160581136373,0.0,4800.0,0.0,0.0,-164.0625,0.0,0.0,0.9875487270000001,1.9247586890068593,0.0,-11897.0,0.0,0.0,-164.0625,0.0,0.0,0.587158143,3.0252667311543298,0.0,1.0499999523162842,0.15000000596046448,82.94999694824219,0.00146484375,0.0198974609375,1.009521484375,27.709999084472656,0.0,1.0,-2.083587646484375,-0.764984130859375,Waiting,0.0,0.0,-114.0,0.0,0.0,0.0,0.0,0.0,
9.795667000000016,0.0,0.0,false,4174066.9268724415,,-6096.0,0.0,0.0,0.0,0.0,0.0,2.357177493,0.5533560492066917,0.0,-19567.0,0.0,0.0,0.0,0.0,0.0,4.628905776,1.9228160581136373,0.0,4800.0,0.0,0.0,0.0,0.0,0.0,0.993652242,1.9247586890068593,0.0,-11897.0,0.0,0.0,0.0,0.0,0.0,0.587158143,3.0252667311543298,0.0,1.059999942779541,0.15000000596046448,82.94000244140625,0.0059814453125,0.01763916015625,1.00494384765625,27.690000534057617,0.0,0.0,-2.083587646484375,-0.764984130859375,Waiting,0.0,0.0,-114.0,0.0,0.0,0.0,0.0,0.0,
9.959441999999981,0.0,0.0,false,4173937.377876106,,-6096.0,0.0,0.0,0.0,0.0,0.0,2.357177493,0.5533560492066917,0.0,-19567.0,0.0,0.0,0.0,0.0,0.0,4.628905776,1.9228160581136373,0.0,4800.0,0.0,0.0,0.0,0.0,0.0,0.993652242,1.9247586890068593,0.0,-11897.0,0.0,0.0,0.0,0.0,0.0,0.587158143,3.0252667311543298,0.0,1.0499999523162842,0.15000000596046448,82.93000030517578,0.0042724609375,0.013916015625,1.00408935546875,27.690000534057617,0.0,-4.0,-2.083587646484375,-0.764984130859375,Waiting,0.0,0.0,-114.0,0.0,0.0,0.0,0.0,0.0,
10.129488000000013,0.0,0.0,false,4173782.6514766067,,-6096.0,0.0,0.0,0.0,0.0,0.0,2.357177493,0.5533560492066917,0.0,-19567.0,0.0,0.0,0.0,0.0,0.0,4.628905776,1.9228160581136373,0.0,4800.0,0.0,0.0,0.0,0.0,0.0,0.992431539,1.9247586890068593,0.0,-11897.0,0.0,0.0,0.0,0.0,0.0,0.587158143,3.0252667311543298,0.0,1.0399999618530273,0.12999999523162842,82.91999816894531,-5.4931640625E-4,0.017822265625,1.00738525390625,27.690000534057617,0.0,0.0,-2.083587646484375,-0.764984130859375,Waiting,0.0,0.0,-114.0,0.0,0.0,0.0,0.0,0.0,
10.291092999999993,0.0,0.0,false,4173602.7560274275,,-6085.0,5.75,240.0,967.9687500000001,0.0,0.0,2.359618899,0.5533560492066917,0.0,-19576.0,7.5,-225.0,-967.9687500000001,0.0,0.0,4.628905776,1.9228160581136373,0.0,4769.0,5.625,-345.0,-967.9687500000001,0.0,0.0,0.9973143510000001,1.9247586890068593,0.0,-11902.0,6.375,-195.0,-967.9687500000001,0.0,0.0,0.587158143,3.0252667311543298,0.0,0.9399999976158142,0.18000000715255737,79.83000183105469,0.0372314453125,-0.10174560546875,0.5736083984375,27.700000762939453,0.0,-103.0,-2.082550048828125,-0.76507568359375,Waiting,0.0,0.0,-114.0,0.0,0.0,0.0,0.0,0.0,
10.467148999999976,0.0,0.0,false,4173397.6998783587,,-5970.0,0.0,300.0,0.0,0.0,0.0,2.362060305,0.5533560492066917,0.0,-19678.0,0.0,-232.5,0.0,0.0,0.0,4.628905776,1.9228160581136373,0.0,4647.0,0.0,-330.0,0.0,0.0,0.0,0.9973143510000001,1.9247586890068593,0.0,-12010.0,0.0,-232.5,0.0,0.0,0.0,0.587158143,3.0252667311543298,0.0,1.2200000286102295,0.3499999940395355,71.58999633789062,-0.03900146484375,0.09344482421875,1.1085205078125,27.700000762939453,0.0,51.0,-2.0839996337890625,-0.7629241943359375,Waiting,0.0,0.0,-114.0,0.0,0.0,0.0,0.0,0.0,
10.642419999999984,0.0,0.0,false,4173385.2268907563,,-5948.0,0.0,22.5,0.0,0.0,0.0,2.362060305,0.5533560492066917,0.0,-19686.0,0.0,-7.5,0.0,0.0,0.0,4.627685073,1.9228160581136373,0.0,4639.0,0.0,0.0,0.0,0.0,0.0,0.9973143510000001,1.9247586890068593,0.0,-12017.0,0.0,0.0,0.0,0.0,0.0,0.587158143,3.0252667311543298,0.0,1.1399999856948853,0.1599999964237213,72.25,0.05120849609375,0.03582763671875,0.92523193359375,27.700000762939453,0.0,31.0,-2.0833587646484375,-0.7577056884765625,Waiting,0.0,0.0,-114.0,0.0,0.0,0.0,0.0,0.0,
10.803833999999974,0.0,0.0,false,4173347.265450525,,-6066.0,11.25,-502.5,-1570.8661437034607,0.0,0.0,2.3828122560000002,0.5533560492066895,0.0,-19584.0,17.0,442.5,1570.8661437034607,0.0,0.0,4.628905776,1.9228160581136347,0.0,4782.0,10.75,735.0,1570.8661437034607,0.0,0.0,0.993652242,1.924758689006862,0.0,-11930.0,16.375,375.0,1570.8661437034607,0.0,0.0,0.587158143,3.0252667311543324,0.0,1.350000023841858,0.10000000149011612,76.93000030517578,-0.09222412109375,0.0340576171875,1.111328125,27.729999542236328,0.0,-13.0,-2.07806396484375,-0.751556396484375,Waiting,0.0,0.0,-114.0,0.0,0.0,0.0,0.0,0.0,
10.967528999999981,0.0,0.0,false,4173287.955781561,,-6163.0,0.0,-555.0,0.0,0.0,0.0,2.386474365,0.5533560492066895,0.0,-19484.0,0.0,570.0,0.0,0.0,0.0,4.628905776,1.9228160581136347,0.0,4890.0,0.0,615.0,0.0,0.0,0.0,1.002197163,1.924758689006862,0.0,-11817.0,0.0,630.0,0.0,0.0,0.0,0.587158143,3.0252667311543324,0.0,1.2599999904632568,-0.09000000357627869,90.87999725341797,0.0963134765625,0.07049560546875,1.06536865234375,27.729999542236328,0.0,45.0,-2.06829833984375,-0.7479248046875,Waiting,0.0,0.0,-114.0,0.0,0.0,0.0,0.0,0.0,
11.130538,0.0,0.0,false,4173202.94727534,,-6246.0,0.0,-382.5,0.0,0.0,0.0,2.391357177,0.5533560492066895,0.0,-19406.0,0.0,352.5,0.0,0.0,0.0,4.627685073,1.9228160581136347,0.0,4960.0,0.0,322.5,0.0,0.0,0.0,1.002197163,1.924758689006862,0.0,-11736.0,0.0,360.0,0.0,0.0,0.0,0.592040955,3.0252667311543324,0.0,0.9599999785423279,0.03999999910593033,96.58000183105469,-0.28497314453125,-0.1142578125,1.1715087890625,27.729999542236328,0.0,-100.0,-2.064208984375,-0.749786376953125,Waiting,0.0,0.0,-114.0,0.0,0.0,0.0,0.0,0.0,
11.29156799999997,0.0,0.0,false,4173091.9398762155,,-6175.0,10.375,457.5,1427.34375,0.0,0.0,2.387695068,0.5533560492066917,0.0,-19481.0,12.5,-495.0,-1427.34375,0.0,0.0,4.627685073,1.9228160581136369,0.0,4883.0,13.125,-562.5,-1427.34375,0.0,0.0,1.002197163,1.9247586890068593,0.0,-11799.0,10.25,-577.5,-1427.34375,0.0,0.0,0.587158143,3.02526673115433,0.0,0.8199999928474426,-0.3100000023841858,89.36000061035156,-0.1170654296875,-0.1099853515625,1.22564697265625,27.760000228881836,0.0,-128.0,-2.064300537109375,-0.7415008544921875,Waiting,0.0,0.0,-114.0,0.0,0.0,0.0,0.0,0.0,
11.452670999999974,0.0,0.0,false,4172955.490330423,,-6047.0,0.0,735.0,0.0,0.0,0.0,2.395019286,0.5533560492066917,0.0,-19600.0,0.0,-660.0,0.0,0.0,0.0,4.628905776,1.9228160581136369,0.0,4747.0,0.0,-787.5,0.0,0.0,0.0,1.0034178660000002,1.9247586890068593,0.0,-11930.0,0.0,-697.5,0.0,0.0,0.0,0.587158143,3.02526673115433,0.0,0.8799999952316284,0.4399999976158142,75.13999938964844,-5.4931640625E-4,-0.17767333984375,0.55670166015625,27.760000228881836,0.0,-181.0,-2.069061279296875,-0.73748779296875,Waiting,0.0,0.0,-114.0,0.0,0.0,0.0,0.0,0.0,
11.615182999999961,0.0,0.0,false,4172797.51160221,,-5947.0,0.0,382.5,0.0,0.0,0.0,2.396239989,0.5533560492066917,0.0,-19683.0,0.0,-330.0,0.0,0.0,0.0,4.628905776,1.9228160581136369,0.0,4653.0,0.0,-367.5,0.0,0.0,0.0,1.0034178660000002,1.9247586890068593,0.0,-12009.0,0.0,-292.5,0.0,0.0,0.0,0.587158143,3.02526673115433,0.0,1.1100000143051147,0.5,69.72000122070312,0.01580810546875,-0.0108642578125,0.586669921875,27.760000228881836,0.0,-17.0,-2.0687103271484375,-0.7367401123046875,Waiting,0.0,0.0,-114.0,0.0,0.0,0.0,0.0,0.0,
11.770021999999997,0.0,0.0,false,4172614.1067285384,,-6007.0,5.5,-397.5,-1091.338562965393,0.0,0.0,2.396239989,0.5533560492066895,0.0,-19642.0,8.0,292.5,1091.338562965393,0.0,0.0,4.630126479,1.9228160581136347,0.0,4709.0,6.5,390.0,1091.338562965393,0.0,0.0,0.9973143510000001,1.924758689006862,0.0,-11978.0,9.625,202.5,1091.338562965393,0.0,0.0,0.587158143,3.0252667311543324,0.0,1.2100000381469727,0.23000000417232513,73.94000244140625,0.0164794921875,0.08447265625,0.9752197265625,27.739999771118164,0.0,64.0,-2.0669097900390625,-0.73272705078125,Waiting,0.0,0.0,-114.0,0.0,0.0,0.0,0.0,0.0,
11.928822999999975,0.0,0.0,false,4172409.1878038,,-6058.0,0.0,-270.0,0.0,0.0,0.0,2.391357177,0.5533560492066895,0.0,-19580.0,0.0,345.0,0.0,0.0,0.0,4.628905776,1.9228160581136347,0.0,4772.0,0.0,367.5,0.0,0.0,0.0,1.0034178660000002,1.924758689006862,0.0,-11904.0,0.0,412.5,0.0,0.0,0.0,0.587158143,3.0252667311543324,0.0,1.1299999952316284,0.15000000596046448,82.48999786376953,-0.19659423828125,-0.0634765625,0.966796875,27.739999771118164,0.0,-108.0,-2.0608978271484375,-0.7366943359375,Waiting,0.0,0.0,-114.0,0.0,0.0,0.0,0.0,0.0,
12.098658999999985,0.0,0.0,false,4172392.338451342,,-6106.0,0.0,-142.5,0.0,0.0,0.0,2.391357177,0.5533560492066895,0.0,-19534.0,0.0,127.5,0.0,0.0,0.0,4.630126479,1.9228160581136347,0.0,4818.0,0.0,150.0,0.0,0.0,0.0,1.002197163,1.924758689006862,0.0,-11857.0,0.0,142.5,0.0,0.0,0.0,0.590820252,3.0252667311543324,0.0,0.949999988079071,0.0,85.48999786376953,-0.02227783203125,-0.0179443359375,0.95208740234375,27.739999771118164,0.0,-35.0,-2.0584869384765625,-0.7389373779296875,Waiting,0.0,0.0,-114.0,0.0,0.0,0.0,0.0,0.0,
12.264235999999975,0.0,0.0,false,4172353.7221117737,,-6117.0,0.0,0.0,0.0,0.0,0.0,2.396239989,0.5533560492066895,0.0,-19524.0,0.0,0.0,0.0,0.0,0.0,4.630126479,1.9228160581136347,0.0,4829.0,0.0,0.0,0.0,0.0,0.0,1.0034178660000002,1.924758689006862,0.0,-11846.0,0.0,0.0,0.0,0.0,0.0,0.587158143,3.0252667311543324,0.0,0.949999988079071,-0.019999999552965164,84.88999938964844,0.0191650390625,0.02850341796875,0.974609375,27.760000228881836,0.0,13.0,-2.05865478515625,-0.73895263671875,Waiting,0.0,0.0,-114.0,0.0,0.0,0.0,0.0,0.0,
12.425124000000011,0.0,0.0,false,4172288.891441193,,-6117.0,0.0,0.0,0.0,0.0,0.0,2.395019286,0.5533560492066895,0.0,-19524.0,0.0,0.0,0.0,0.0,0.0,4.627685073,1.9228160581136347,0.0,4829.0,0.0,0.0,0.0,0.0,0.0,1.002197163,1.924758689006862,0.0,-11846.0,0.0,0.0,0.0,0.0,0.0,0.587158143,3.0252667311543324,0.0,0.9700000286102295,0.0,84.76000213623047,-0.0146484375,0.02972412109375,1.0194091796875,27.760000228881836,0.0,11.0,-2.05865478515625,-0.73895263671875,Waiting,0.0,0.0,-114.0,0.0,0.0,0.0,0.0,0.0,
12.58067300000001,0.0,0.0,false,4172198.1086572437,,-6117.0,0.0,0.0,0.0,0.0,0.0,2.396239989,0.5533560492066895,0.0,-19524.0,0.0,0.0,0.0,0.0,0.0,4.627685073,1.9228160581136347,0.0,4829.0,0.0,0.0,0.0,0.0,0.0,1.0034178660000002,1.924758689006862,0.0,-11846.0,0.0,0.0,0.0,0.0,0.0,0.587158143,3.0252667311543324,0.0,0.9599999785423279,0.009999999776482582,84.80999755859375,-0.00421142578125,0.02178955078125,0.999755859375,27.760000228881836,0.0,4.0,-2.05865478515625,-0.73895263671875,Waiting,0.0,0.0,-114.0,0.0,0.0,0.0,0.0,0.0,
12.743877999999969,0.0,0.0,false,4172085.3704317105,,-6117.0,0.0,0.0,0.0,0.0,0.0,2.391357177,0.5533560492066895,0.0,-19524.0,0.0,0.0,0.0,0.0,0.0,4.628905776,1.9228160581136347,0.0,4829.0,0.0,0.0,0.0,0.0,0.0,1.002197163,1.924758689006862,0.0,-11846.0,0.0,0.0,0.0,0.0,0.0,0.587158143,3.0252667311543324,0.0,0.9700000286102295,0.009999999776482582,84.79000091552734,0.00469970703125,0.01751708984375,1.00146484375,27.770000457763672,0.0,0.0,-2.05865478515625,-0.73895263671875,Waiting,0.0,0.0,-114.0,0.0,0.0,0.0,0.0,0.0,
12.905890000000014,0.0,0.0,false,4171946.6964009716,,-6096.0,3.5,202.5,787.5,0.0,0.0,2.391357177,0.5533560492066917,0.0,-19543.0,4.625,-202.5,-787.5,0.0,0.0,4.622802261,1.9228160581136373,0.0,4807.0,3.625,-202.5,-787.5,0.0,0.0,1.0034178660000002,1.9247586890068593,0.0,-11859.0,3.5,-105.0,-787.5,0.0,0.0,0.587158143,3.0252667311543298,0.0,0.9300000071525574,-0.05000000074505806,82.69000244140625,0.06756591796875,-0.046875,1.05279541015625,27.770000457763672,0.0,-54.0,-2.0591583251953125,-0.7392578125,Waiting,0.0,0.0,-114.0,0.0,0.0,0.0,0.0,0.0,
13.070247999999964,0.0,0.0,false,4171786.082349045,,-6051.0,0.0,67.5,0.0,0.0,0.0,2.391357177,0.5533560492066917,0.0,-19587.0,0.0,-45.0,0.0,0.0,0.0,4.624022964,1.9228160581136373,0.0,4765.0,0.0,-112.5,0.0,0.0,0.0,1.002197163,1.9247586890068593,0.0,-11881.0,0.0,-187.5,0.0,0.0,0.0,0.587158143,3.0252667311543298,0.0,1.0499999523162842,0.15000000596046448,78.6500015258789,0.00164794921875,0.03741455078125,1.18768310546875,27.770000457763672,0.0,14.0,-2.05926513671875,-0.741546630859375,Waiting,0.0,0.0,-114.0,0.0,0.0,0.0,0.0,0.0,
13.227812999999966,0.0,0.0,false,4171599.322737307,,-6045.0,0.0,0.0,0.0,0.0,0.0,2.390136474,0.5533560492066917,0.0,-19588.0,0.0,0.0,0.0,0.0,0.0,4.624022964,1.9228160581136373,0.0,4752.0,0.0,0.0,0.0,0.0,0.0,1.002197163,1.9247586890068593,0.0,-11898.0,0.0,0.0,0.0,0.0,0.0,0.587158143,3.0252667311543298,0.0,1.0399999618530273,0.10999999940395355,79.97000122070312,0.06597900390625,0.0289306640625,0.9998779296875,27.760000228881836,0.0,21.0,-2.058685302734375,-0.7428741455078125,Waiting,0.0,0.0,-114.0,0.0,0.0,0.0,0.0,0.0,
13.386245999999984,0.0,0.0,false,4171390.8645844827,,-6045.0,0.0,0.0,0.0,0.0,0.0,2.391357177,0.5533560492066917,0.0,-19588.0,0.0,0.0,0.0,0.0,0.0,4.624022964,1.9228160581136373,0.0,4754.0,0.0,0.0,0.0,0.0,0.0,1.0034178660000002,1.9247586890068593,0.0,-11898.0,0.0,0.0,0.0,0.0,0.0,0.587158143,3.0252667311543298,0.0,1.0099999904632568,0.05999999865889549,79.98999786376953,-3.0517578125E-4,0.02911376953125,1.04339599609375,27.760000228881836,0.0,10.0,-2.05908203125,-0.7441864013671875,Waiting,0.0,0.0,-114.0,0.0,0.0,0.0,0.0,0.0,
13.548741999999969,0.0,0.0,false,4171369.6084749503,,-6045.0,0.0,0.0,0.0,0.0,0.0,2.391357177,0.5533560492066917,0.0,-19588.0,0.0,0.0,0.0,0.0,0.0,4.628905776,1.9228160581136373,0.0,4754.0,0.0,0.0,0.0,0.0,0.0,1.0034178660000002,1.9247586890068593,0.0,-11898.0,0.0,0.0,0.0,0.0,0.0,0.587158143,3.0252667311543298,0.0,1.0099999904632568,0.10000000149011612,80.0199966430664,-0.0186767578125,0.01727294921875,0.99346923828125,27.760000228881836,0.0,-3.0,-2.0589599609375,-0.744476318359375,Waiting,0.0,0.0,-114.0,0.0,0.0,0.0,0.0,0.0,
13.71753899999999,0.0,0.0,false,4171326.476442679,,-6045.0,0.0,0.0,0.0,0.0,0.0,2.396239989,0.5533560492066917,0.0,-19588.0,0.0,0.0,0.0,0.0,0.0,4.628905776,1.9228160581136373,0.0,4754.0,0.0,0.0,0.0,0.0,0.0,1.0034178660000002,1.9247586890068593,0.0,-11898.0,0.0,0.0,0.0,0.0,0.0,0.587158143,3.0252667311543298,0.0,1.0199999809265137,0.10000000149011612,79.98999786376953,-0.00506591796875,0.0247802734375,1.01849365234375,27.760000228881836,0.0,5.0,-2.0589599609375,-0.744415283203125,Waiting,0.0,0.0,-114.0,0.0,0.0,0.0,0.0,0.0,
13.880136999999987,0.0,0.0,false,4171256.982347749,,-6045.0,0.0,0.0,0.0,0.0,0.0,2.391357177,0.5533560492066917,0.0,-19588.0,0.0,0.0,0.0,0.0,0.0,4.624022964,1.9228160581136373,0.0,4754.0,0.0,0.0,0.0,0.0,0.0,1.0034178660000002,1.9247586890068593,0.0,-11898.0,0.0,0.0,0.0,0.0,0.0,0.587158143,3.0252667311543298,0.0,1.0199999809265137,0.10000000149011612,79.98999786376953,-0.0030517578125,0.01934814453125,0.99774169921875,27.760000228881836,0.0,0.0,-2.0589599609375,-0.744415283203125,Waiting,0.0,0.0,-114.0,0.0,0.0,0.0,0.0,0.0,
14.035517999999982,0.0,0.0,false,4171165.6145615005,,-6045.0,0.0,0.0,0.0,0.0,0.0,2.396239989,0.5533560492066917,0.0,-19588.0,0.0,0.0,0.0,0.0,0.0,4.628905776,1.9228160581136373,0.0,4754.0,0.0,0.0,0.0,0.0,0.0,1.0034178660000002,1.9247586890068593,0.0,-11898.0,0.0,0.0,0.0,0.0,0.0,0.587158143,3.0252667311543298,0.0,1.0199999809265137,0.09000000357627869,79.98999786376953,-0.0013427734375,0.01934814453125,1.0067138671875,27.760000228881836,0.0,0.0,-2.0589599609375,-0.744415283203125,Waiting,0.0,0.0,-114.0,0.0,0.0,0.0,0.0,0.0,
14.196945999999997,0.0,0.0,false,4171047.928524156,,-6045.0,0.0,0.0,0.0,0.0,0.0,2.391357177,0.5533560492066917,0.0,-19588.0,0.0,0.0,0.0,0.0,0.0,4.625243667,1.9228160581136373,0.0,4754.0,0.0,0.0,0.0,0.0,0.0,1.0034178660000002,1.9247586890068593,0.0,-11898.0,0.0,0.0,0.0,0.0,0.0,0.587158143,3.0252667311543298,0.0,1.0199999809265137,0.09000000357627869,79.98999786376953,-0.003173828125,0.01788330078125,1.00360107421875,27.760000228881836,0.0,0.0,-2.0589599609375,-0.744415283203125,Waiting,0.0,0.0,-114.0,0.0,0.0,0.0,0.0,0.0,
14.350708999999974,0.0,0.0,false,4170908.3974853866,,-6045.0,0.0,0.0,0.0,0.0,0.0,2.390136474,0.5533560492066917,0.0,-19588.0,0.0,0.0,0.0,0.0,0.0,4.624022964,1.9228160581136373,0.0,4754.0,0.0,0.0,0.0,0.0,0.0,1.0034178660000002,1.9247586890068593,0.0,-11898.0,0.0,0.0,0.0,0.0,0.0,0.587158143,3.0252667311543298,0.0,1.0299999713897705,0.07999999821186066,79.98999786376953,-1.8310546875E-4,0.0169677734375,1.0028076171875,27.760000228881836,0.0,-1.0,-2.0589599609375,-0.744415283203125,Waiting,0.0,0.0,-114.0,0.0,0.0,0.0,0.0,0.0,
14.53039499999996,0.0,0.0,false,4170742.5646228497,,-6045.0,0.0,0.0,0.0,0.0,0.0,2.395019286,0.5533560492066917,0.0,-19588.0,0.0,0.0,0.0,0.0,0.0,4.622802261,1.9228160581136373,0.0,4754.0,0.0,0.0,0.0,0.0,0.0,1.002197163,1.9247586890068593,0.0,-11898.0,0.0,0.0,0.0,0.0,0.0,0.587158143,3.0252667311543298,0.0,1.0199999809265137,0.07000000029802322,79.9800033569336,0.00341796875,0.01678466796875,1.003662109375,27.760000228881836,0.0,0.0,-2.0589599609375,-0.744415283203125,Waiting,0.0,0.0,-114.0,0.0,0.0,0.0,0.0,0.0,
14.6905,0.0,0.0,false,4170550.4386371155,,-6045.0,0.0,0.0,0.0,0.0,0.0,2.395019286,0.5533560492066917,0.0,-19588.0,0.0,0.0,0.0,0.0,0.0,4.624022964,1.9228160581136373,0.0,4754.0,0.0,0.0,0.0,0.0,0.0,1.002197163,1.9247586890068593,0.0,-11898.0,0.0,0.0,0.0,0.0,0.0,0.587158143,3.0252667311543298,0.0,1.0299999713897705,0.07000000029802322,79.9800033569336,1.8310546875E-4,0.01361083984375,1.00164794921875,27.760000228881836,0.0,-4.0,-2.0589599609375,-0.744415283203125,Waiting,0.0,0.0,-114.0,0.0,0.0,0.0,0.0,0.0,
14.863807999999961,0.0,0.0,false,4170553.061080485,,-6045.0,0.0,0.0,0.0,0.0,0.0,2.390136474,0.5533560492066917,0.0,-19588.0,0.0,0.0,0.0,0.0,0.0,4.624022964,1.9228160581136373,0.0,4754.0,0.0,0.0,0.0,0.0,0.0,1.002197163,1.9247586890068593,0.0,-11898.0,0.0,0.0,0.0,0.0,0.0,0.587158143,3.0252667311543298,0.0,1.0199999809265137,0.07000000029802322,79.9800033569336,-7.9345703125E-4,0.0206298828125,1.001220703125,27.799999237060547,0.0,2.0,-2.0589599609375,-0.744415283203125,Waiting,0.0,0.0,-114.0,0.0,0.0,0.0,0.0,0.0,
15.040176999999966,0.0,0.0,false,4170527.119832433,,-6045.0,0.0,0.0,0.0,0.0,0.0,2.390136474,0.5533560492066917,0.0,-19588.0,0.0,0.0,0.0,0.0,0.0,4.624022964,1.9228160581136373,0.0,4754.0,0.0,0.0,0.0,0.0,0.0,1.0034178660000002,1.9247586890068593,0.0,-11898.0,0.0,0.0,0.0,0.0,0.0,0.587158143,3.0252667311543298,0.0,1.0199999809265137,0.07000000029802322,79.9800033569336,-6.103515625E-5,0.01690673828125,1.00372314453125,27.799999237060547,0.0,-1.0,-2.0589599609375,-0.744415283203125,Waiting,0.0,0.0,-114.0,0.0,0.0,0.0,0.0,0.0,
15.219386999999989,0.0,0.0,false,4170479.162257496,,-6045.0,0.0,0.0,0.0,0.0,0.0,2.391357177,0.5533560492066917,0.0,-19588.0,0.0,0.0,0.0,0.0,0.0,4.625243667,1.9228160581136373,0.0,4754.0,0.0,0.0,0.0,0.0,0.0,1.002197163,1.9247586890068593,0.0,-11898.0,0.0,0.0,0.0,0.0,0.0,0.587158143,3.0252667311543298,0.0,1.0199999809265137,0.07000000029802322,79.97000122070312,0.00225830078125,0.0205078125,1.006591796875,27.799999237060547,0.0,2.0,-2.0589599609375,-0.744415283203125,Waiting,0.0,0.0,-114.0,0.0,0.0,0.0,0.0,0.0,
15.391219999999972,0.0,0.0,false,4170408.969028987,,-6045.0,0.0,0.0,0.0,0.0,0.0,2.391357177,0.5533560492066917,0.0,-19588.0,0.0,0.0,0.0,0.0,0.0,4.624022964,1.9228160581136373,0.0,4754.0,0.0,0.0,0.0,0.0,0.0,1.002197163,1.9247586890068593,0.0,-11898.0,0.0,0.0,0.0,0.0,0.0,0.587158143,3.0252667311543298,0.0,1.0199999809265137,0.07000000029802322,79.97000122070312,0.00115966796875,0.0166015625,1.00311279296875,27.799999237060547,0.0,-1.0,-2.0589599609375,-0.744415283203125,Waiting,0.0,0.0,-114.0,0.0,0.0,0.0,0.0,0.0,
15.577849999999977,0.0,0.0,false,4170312.2962309895,,-6045.0,0.0,0.0,0.0,0.0,0.0,2.396239989,0.5533560492066917,0.0,-19588.0,0.0,0.0,0.0,0.0,0.0,4.624022964,1.9228160581136373,0.0,4754.0,0.0,0.0,0.0,0.0,0.0,1.002197163,1.9247586890068593,0.0,-11898.0,0.0,0.0,0.0,0.0,0.0,0.58593744,3.0252667311543298,0.0,1.0199999809265137,0.07000000029802322,79.97000122070312,-2.44140625E-4,0.01861572265625,1.00390625,27.799999237060547,0.0,0.0,-2.0589599609375,-0.744415283203125,Waiting,0.0,0.0,-114.0,0.0,0.0,0.0,0.0,0.0,
15.756980999999971,0.0,0.0,false,4170189.1526170797,,-6045.0,0.0,0.0,0.0,0.0,0.0,2.391357177,0.5533560492066917,0.0,-19588.0,0.0,0.0,0.0,0.0,0.0,4.624022964,1.9228160581136373,0.0,4754.0,0.0,0.0,0.0,0.0,0.0,1.0034178660000002,1.9247586890068593,0.0,-11898.0,0.0,0.0,0.0,0.0,0.0,0.58593744,3.0252667311543298,0.0,1.0099999904632568,0.07000000029802322,79.97000122070312,4.2724609375E-4,0.01776123046875,1.006103515625,27.780000686645508,0.0,0.0,-2.0589599609375,-0.744415283203125,Waiting,0.0,0.0,-114.0,0.0,0.0,0.0,0.0,0.0,
15.942505999999995,0.0,0.0,false,4170043.811370648,,-6045.0,0.0,0.0,0.0,0.0,0.0,2.391357177,0.5533560492066917,0.0,-19588.0,0.0,0.0,0.0,0.0,0.0,4.624022964,1.9228160581136373,0.0,4754.0,0.0,0.0,0.0,0.0,0.0,1.0034178660000002,1.9247586890068593,0.0,-11898.0,0.0,0.0,0.0,0.0,0.0,0.587158143,3.0252667311543298,0.0,1.0099999904632568,0.07000000029802322,79.97000122070312,0.0020751953125,0.0166015625,1.0064697265625,27.780000686645508,0.0,-1.0,-2.0589599609375,-0.744415283203125,Waiting,0.0,0.0,-114.0,0.0,0.0,0.0,0.0,0.0,
16.111353,0.0,0.0,false,4169872.015864272,,-6045.0,0.0,0.0,0.0,0.0,0.0,2.396239989,0.5533560492066917,0.0,-19588.0,0.0,0.0,0.0,0.0,0.0,4.622802261,1.9228160581136373,0.0,4754.0,0.0,0.0,0.0,0.0,0.0,1.002197163,1.9247586890068593,0.0,-11898.0,0.0,0.0,0.0,0.0,0.0,0.587158143,3.0252667311543298,0.0,1.0099999904632568,0.07000000029802322,79.94999694824219,0.00225830078125,0.0166015625,1.00787353515625,27.780000686645508,0.0,-1.0,-2.0589599609375,-0.744415283203125,Waiting,0.0,0.0,-114.0,0.0,0.0,0.0,0.0,0.0,
16.28973199999996,0.0,0.0,false,4169678.038334435,,-6045.0,0.0,0.0,0.0,0.0,0.0,2.395019286,0.5533560492066917,0.0,-19588.0,0.0,0.0,0.0,0.0,0.0,4.622802261,1.9228160581136373,0.0,4754.0,0.0,0.0,0.0,0.0,0.0,1.002197163,1.9247586890068593,0.0,-11898.0,0.0,0.0,0.0,0.0,0.0,0.587158143,3.0252667311543298,0.0,1.0099999904632568,0.05999999865889549,79.94999694824219,0.00146484375,0.0211181640625,1.00244140625,27.780000686645508,0.0,3.0,-2.0589599609375,-0.744415283203125,Waiting,0.0,0.0,-114.0,0.0,0.0,0.0,0.0,0.0,
16.48010599999997,0.0,0.0,false,4169673.990527591,,-6045.0,0.0,0.0,0.0,0.0,0.0,2.396239989,0.5533560492066917,0.0,-19588.0,0.0,0.0,0.0,0.0,0.0,4.625243667,1.9228160581136373,0.0,4754.0,0.0,0.0,0.0,0.0,0.0,1.002197163,1.9247586890068593,0.0,-11898.0,0.0,0.0,0.0,0.0,0.0,0.587158143,3.0252667311543298,0.0,1.0,0.05999999865889549,79.94999694824219,0.00128173828125,0.01885986328125,0.99591064453125,27.780000686645508,0.0,1.0,-2.0589599609375,-0.744415283203125,Waiting,0.0,0.0,-114.0,0.0,0.0,0.0,0.0,0.0,
16.654897,0.0,0.0,false,4169643.259030837,,-6045.0,0.0,0.0,0.0,0.0,0.0,2.396239989,0.5533560492066917,0.0,-19588.0,0.0,0.0,0.0,0.0,0.0,4.622802261,1.9228160581136373,0.0,4754.0,0.0,0.0,0.0,0.0,0.0,1.0034178660000002,1.9247586890068593,0.0,-11898.0,0.0,0.0,0.0,0.0,0.0,0.587158143,3.0252667311543298,0.0,1.0099999904632568,0.05999999865889549,79.94999694824219,0.00146484375,0.0189208984375,1.0068359375,27.780000686645508,0.0,1.0,-2.0589599609375,-0.744415283203125,Waiting,0.0,0.0,-114.0,0.0,0.0,0.0,0.0,0.0,
16.812081999999997,0.0,0.0,false,4169586.092280586,,-6045.0,0.0,0.0,0.0,0.0,0.0,2.395019286,0.5533560492066917,0.0,-19588.0,0.0,0.0,0.0,0.0,0.0,4.624022964,1.9228160581136373,0.0,4754.0,0.0,0.0,0.0,0.0,0.0,1.0034178660000002,1.9247586890068593,0.0,-11898.0,0.0,0.0,0.0,0.0,0.0,0.587158143,3.0252667311543298,0.0,1.0099999904632568,0.05999999865889549,79.94999694824219,-0.0010986328125,0.01495361328125,1.0030517578125,27.790000915527344,0.0,-3.0,-2.0589599609375,-0.744415283203125,Waiting,0.0,0.0,-114.0,0.0,0.0,0.0,0.0,0.0,
16.97500099999999,0.0,0.0,false,4169506.5641929093,,-6045.0,0.0,0.0,0.0,0.0,0.0,2.391357177,0.5533560492066917,0.0,-19588.0,0.0,0.0,0.0,0.0,0.0,4.624022964,1.9228160581136373,0.0,4754.0,0.0,0.0,0.0,0.0,0.0,1.002197163,1.9247586890068593,0.0,-11898.0,0.0,0.0,0.0,0.0,0.0,0.587158143,3.0252667311543298,0.0,1.0099999904632568,0.05999999865889549,79.94999694824219,0.0020751953125,0.01708984375,1.00836181640625,27.790000915527344,0.0,0.0,-2.0589599609375,-0.744415283203125,Waiting,0.0,0.0,-114.0,0.0,0.0,0.0,0.0,0.0,
17.134021000000008,0.0,0.0,false,4169404.921721898,,-6045.0,0.0,0.0,0.0,0.0,0.0,2.391357177,0.5533560492066917,0.0,-19588.0,0.0,0.0,0.0,0.0,0.0,4.625243667,1.9228160581136373,0.0,4754.0,0.0,0.0,0.0,0.0,0.0,1.002197163,1.9247586890068593,0.0,-11898.0,0.0,0.0,0.0,0.0,0.0,0.587158143,3.0252667311543298,0.0,1.0099999904632568,0.05999999865889549,79.94000244140625,-5.4931640625E-4,0.019287109375,1.00469970703125,27.790000915527344,0.0,1.0,-2.0589599609375,-0.744415283203125,Waiting,0.0,0.0,-114.0,0.0,0.0,0.0,0.0,0.0,
17.30322200000001,0.0,0.0,false,4169276.656098635,,-6045.0,0.0,0.0,0.0,0.0,0.0,2.397460692,0.5533560492066917,0.0,-19588.0,0.0,0.0,0.0,0.0,0.0,4.624022964,1.9228160581136373,0.0,4754.0,0.0,0.0,0.0,0.0,0.0,1.002197163,1.9247586890068593,0.0,-11898.0,0.0,0.0,0.0,0.0,0.0,0.587158143,3.0252667311543298,0.0,1.0099999904632568,0.05999999865889549,79.94000244140625,0.001708984375,0.02001953125,1.00042724609375,27.780000686645508,0.0,2.0,-2.0589599609375,-0.744415283203125,Waiting,0.0,0.0,-114.0,0.0,0.0,0.0,0.0,0.0,
17.458456000000005,0.0,0.0,false,4169126.066263071,,-6045.0,0.0,0.0,0.0,0.0,0.0,2.391357177,0.5533560492066917,0.0,-19588.0,0.0,0.0,0.0,0.0,0.0,4.624022964,1.9228160581136373,0.0,4754.0,0.0,0.0,0.0,0.0,0.0,1.002197163,1.9247586890068593,0.0,-11898.0,0.0,0.0,0.0,0.0,0.0,0.587158143,3.0252667311543298,0.0,1.0099999904632568,0.05999999865889549,79.94000244140625,0.00250244140625,0.02020263671875,1.005615234375,27.780000686645508,0.0,2.0,-2.0589599609375,-0.744415283203125,Waiting,0.0,0.0,-114.0,0.0,0.0,0.0,0.0,0.0,
17.61333999999997,0.0,0.0,false,4168949.095311468,,-6045.0,0.0,0.0,0.0,0.0,0.0,2.391357177,0.5533560492066917,0.0,-19588.0,0.0,0.0,0.0,0.0,0.0,4.628905776,1.9228160581136373,0.0,4754.0,0.0,0.0,0.0,0.0,0.0,1.0034178660000002,1.9247586890068593,0.0,-11898.0,0.0,0.0,0.0,0.0,0.0,0.587158143,3.0252667311543298,0.0,1.0199999809265137,0.05999999865889549,79.94000244140625,0.00103759765625,0.01898193359375,1.006103515625,27.780000686645508,0.0,0.0,-2.0589599609375,-0.744415283203125,Waiting,0.0,0.0,-114.0,0.0,0.0,0.0,0.0,0.0,
17.785496999999975,0.0,0.0,false,4168749.815780786,,-6045.0,0.0,0.0,0.0,0.0,0.0,2.391357177,0.5533560492066917,0.0,-19588.0,0.0,0.0,0.0,0.0,0.0,4.624022964,1.9228160581136373,0.0,4754.0,0.0,0.0,0.0,0.0,0.0,1.0034178660000002,1.9247586890068593,0.0,-11898.0,0.0,0.0,0.0,0.0,0.0,0.587158143,3.0252667311543298,0.0,1.0099999904632568,0.05999999865889549,79.93000030517578,0.00311279296875,0.01806640625,1.0032958984375,27.829999923706055,0.0,0.0,-2.0589599609375,-0.744415283203125,Waiting,0.0,0.0,-114.0,0.0,0.0,0.0,0.0,0.0,
17.949734999999986,0.0,0.0,false,4168737.563380282,,-6045.0,0.0,0.0,0.0,0.0,0.0,2.396239989,0.5533560492066917,0.0,-19588.0,0.0,0.0,0.0,0.0,0.0,4.625243667,1.9228160581136373,0.0,4754.0,0.0,0.0,0.0,0.0,0.0,1.0034178660000002,1.9247586890068593,0.0,-11898.0,0.0,0.0,0.0,0.0,0.0,0.58593744,3.0252667311543298,0.0,1.0099999904632568,0.05999999865889549,79.93000030517578,-3.0517578125E-4,0.01763916015625,1.00433349609375,27.829999923706055,0.0,0.0,-2.0589599609375,-0.744415283203125,Waiting,0.0,0.0,-114.0,0.0,0.0,0.0,0.0,0.0,
18.122642999999982,0.0,0.0,false,4168702.956980966,,-6045.0,0.0,0.0,0.0,0.0,0.0,2.391357177,0.5533560492066917,0.0,-19588.0,0.0,0.0,0.0,0.0,0.0,4.622802261,1.9228160581136373,0.0,4754.0,0.0,0.0,0.0,0.0,0.0,1.0034178660000002,1.9247586890068593,0.0,-11898.0,0.0,0.0,0.0,0.0,0.0,0.587158143,3.0252667311543298,0.0,1.0099999904632568,0.05999999865889549,79.93000030517578,0.00146484375,0.01885986328125,1.002685546875,27.829999923706055,0.0,1.0,-2.0589599609375,-0.744415283203125,Waiting,0.0,0.0,-114.0,0.0,0.0,0.0,0.0,0.0,
