Time,ClimberA1,ClimberA2,CameraExists,HeapSpace,LoopTime,FRpos,FRCurrent,FRspeed,FRsetpoint,FRApos,FRACurrent,FREncpos,FREncSetpoint,FREncSpeed,FLpos,FLCurrent,FLspeed,FLsetpoint,FLApos,FLACurrent,FLEncpos,FLEncSetpoint,FLEncSpeed,BRpos,BRCurrent,BRspeed,BRsetpoint,BRApos,BRACurrent,BREncpos,BREncSetpoint,BREncSpeed,BLpos,BLCurrent,BLspeed,BLsetpoint,BLApos,BLACurrent,BLEncpos,BLEncSetpoint,BLEncSpeed,navx_Pitch,navx_Roll,navx_Yaw,navx_XAcc,navx_YAcc,navx_ZAcc,navx_Temp,navx_Bar,navx_Alt,navx_XDis,navx_YDis,GearPlacerState,ShootOutputV,ShootOutputCurrent,ShootEncPos,ShootEncVelocity,ShootSpeed,ShootSetpoint,CarouselSetpoint,CarouselCurrent,
0.37538300000000163,0.0,0.0,false,4518787.929515419,,6990.0,2.875,495.0,0.0,0.0,0.125,0.9216307650000001,0.0,-0.22705075799999985,-68686.0,1.875,-502.5,-0.0,0.0,0.0,1.887206838,0.0,0.0,29455.0,3.25,420.0,0.0,0.0,0.0,3.178710612,0.0,0.004882811999999959,-46126.0,2.875,-450.0,-0.0,0.0,0.0,1.671142407,0.0,-0.16967771700000078,-0.05000000074505806,1.0800000429153442,39.81999969482422,0.0172119140625,-0.06695556640625,0.99188232421875,32.400001525878906,0.0,-43.0,0.2661895751953125,-2.13958740234375,Waiting,0.0,0.0,-114.0,0.0,0.0,0.0,0.0,0.0,
0.42604000000000086,0.0,0.0,false,4519223.128712871,,6990.0,0.25,487.5,0.0,0.0,5.5,1.0327147380000001,0.0,-0.04150390199999965,-68686.0,0.125,-442.5,-0.0,0.0,4.5,2.0092771380000003,0.0,0.010986327000000351,29455.0,0.5,427.5,0.0,0.0,6.25,3.4741207380000003,0.0,0.012207029999999897,-46126.0,0.0,-435.0,-0.0,0.0,7.625,1.8383787180000002,0.0,-0.032958981000000165,0.11999999731779099,0.9100000262260437,39.97999954223633,-0.22137451171875,0.292236328125,0.917724609375,32.380001068115234,0.0,5.0,0.26531982421875,-2.153167724609375,Waiting,0.0,0.0,-114.0,0.0,0.0,0.0,0.0,0.0,
0.4806160000000018,0.0,0.0,false,4519565.134065934,,7051.0,0.25,352.5,0.0,0.0,1.625,1.466064303,0.0,0.1940917769999997,-68737.0,0.0,-262.5,-0.0,0.0,1.125,2.393798583,0.0,0.21240232199999998,29508.0,0.125,307.5,0.0,0.0,0.75,3.864745698,0.0,0.3308105130000003,-46187.0,0.0,-360.0,-0.0,0.0,0.875,2.263183362,0.0,0.1916503710000006,0.5899999737739563,0.699999988079071,39.849998474121094,-0.07635498046875,0.35174560546875,1.11907958984375,32.380001068115234,0.0,148.0,0.265380859375,-2.1610107421875,Waiting,0.0,0.0,-114.0,0.0,0.0,0.0,0.0,0.0,
0.5305930000000008,0.0,0.0,false,4519843.907793634,,7051.0,0.25,292.5,0.0,0.0,0.875,1.802978331,0.0,0.419921832,-68737.0,0.0,-270.0,-0.0,0.0,0.125,2.6953122240000003,0.0,0.3808593360000003,29508.0,0.0,307.5,0.0,0.0,0.125,4.091796456,0.0,0.3918456629999998,-46187.0,0.0,-315.0,-0.0,0.0,0.25,2.564697003,0.0,0.43945307999999983,1.7200000286102295,0.5600000023841858,39.72999954223633,-0.11944580078125,0.404052734375,1.10699462890625,32.380001068115234,0.0,136.0,0.268890380859375,-2.1655731201171875,Waiting,0.0,0.0,-114.0,0.0,0.0,0.0,0.0,0.0,
0.5800690000000032,0.0,0.0,false,4520030.03508772,,7093.0,0.25,270.0,0.0,0.0,0.125,1.9458005820000002,0.0,0.29785153200000014,-68773.0,0.0,-240.0,-0.0,0.0,0.0,2.7966305730000003,0.0,-4.709742212,29552.0,0.0,277.5,0.0,0.0,0.0,4.1406245760000004,0.0,-4.767232441,-46233.0,0.0,-285.0,-0.0,0.0,0.0,2.680663788,0.0,-4.669179716,2.009999990463257,0.38999998569488525,39.79999923706055,-0.0823974609375,0.14093017578125,0.9595947265625,32.380001068115234,0.0,0.0,0.27325439453125,-2.1645965576171875,Waiting,0.0,0.0,-114.0,0.0,0.0,0.0,0.0,0.0,
0.6306920000000027,0.0,0.0,false,4520153.542168675,,7093.0,0.25,232.5,0.0,0.0,0.0,1.9702146420000002,0.0,0.1171874879999999,-68773.0,0.0,-187.5,-0.0,0.0,0.0,2.81982393,0.0,0.09765624000000006,29552.0,0.125,180.0,0.0,0.0,0.0,4.119872625,0.0,0.04150390200000054,-46233.0,0.0,-217.5,-0.0,0.0,0.0,2.6940915210000003,0.0,0.11108397300000039,1.9199999570846558,0.25999999046325684,39.93000030517578,-0.03021240234375,-0.109375,1.110595703125,32.380001068115234,0.0,-121.0,0.2771148681640625,-2.16290283203125,Waiting,0.0,0.0,-114.0,0.0,0.0,0.0,0.0,0.0,
0.6758580000000002,0.0,0.0,false,4520184.945295405,,7093.0,0.25,142.5,0.0,0.0,0.125,1.92871074,0.0,0.014648436000000764,-68773.0,0.0,-135.0,-0.0,0.0,0.0,2.8015133850000002,0.0,0.008544920999999928,29552.0,0.125,105.0,0.0,0.0,0.0,4.086913644,0.0,-0.01586913900000031,-46233.0,0.0,-127.5,-0.0,0.0,0.0,2.6916501150000003,0.0,0.009765623999999917,1.7000000476837158,0.1899999976158142,40.04999923706055,-0.0537109375,0.028076171875,1.09075927734375,32.380001068115234,0.0,-46.0,0.2798309326171875,-2.1620635986328125,Waiting,0.0,0.0,-114.0,0.0,0.0,0.0,0.0,0.0,
0.7266570000000029,0.0,0.0,false,4520154.203278689,,7105.0,0.375,45.0,0.0,0.0,0.125,1.933593552,0.0,-0.01586913900000031,-68787.0,0.125,-60.0,-0.0,0.0,0.0,2.7917477610000003,0.0,-0.013427732999999886,29562.0,0.375,45.0,0.0,0.0,0.0,4.08935505,0.0,-0.037841793000000123,-46251.0,0.0,-90.0,-0.0,0.0,0.0,2.6843258970000003,0.0,-0.004882811999999959,1.7699999809265137,0.07000000029802322,39.939998626708984,-0.02032470703125,0.06207275390625,0.852783203125,32.380001068115234,0.0,6.0,0.28277587890625,-2.160369873046875,Waiting,0.0,0.0,-114.0,0.0,0.0,0.0,0.0,0.0,
0.7768090000000011,0.0,0.0,false,4520034.62882096,,7105.0,0.5,45.0,0.0,0.0,0.0,1.936034958,0.0,-0.01831054500000029,-68787.0,0.125,-15.0,-0.0,0.0,0.0,2.756347374,0.0,-0.01586913900000031,29562.0,0.5,7.5,0.0,0.0,0.0,4.066161693000001,0.0,-0.01586913899999942,-46251.0,0.0,-90.0,-0.0,0.0,0.0,2.6379391830000003,0.0,-0.004882811999999959,1.809999942779541,0.019999999552965164,39.83000183105469,0.03729248046875,-0.00677490234375,0.962158203125,32.380001068115234,0.0,4.0,0.28350830078125,-2.1584930419921875,Waiting,0.0,0.0,-114.0,0.0,0.0,0.0,0.0,0.0,
0.8274200000000019,0.0,0.0,false,4519853.374045801,,7110.0,0.625,37.5,0.0,0.0,0.0,1.932372849,0.0,0.0,-68787.0,0.25,0.0,-0.0,0.0,0.0,2.762450889,0.0,-0.026855465999999772,29562.0,0.5,0.0,0.0,0.0,0.0,4.061278881,0.0,0.0,-46263.0,0.0,-75.0,-0.0,0.0,0.0,2.604980202,0.0,-0.05126952600000001,1.75,0.029999999329447746,39.93000030517578,7.9345703125E-4,0.0428466796875,1.05194091796875,32.380001068115234,0.0,6.0,0.28350830078125,-2.1573944091796875,Waiting,0.0,0.0,-114.0,0.0,0.0,0.0,0.0,0.0,
0.8763870000000025,0.0,0.0,false,4519581.080610022,,7110.0,0.625,7.5,0.0,0.0,0.125,1.9177244130000002,0.0,0.0,-68787.0,0.25,0.0,-0.0,0.0,0.0,2.760009483,0.0,0.003662108999999969,29562.0,0.75,0.0,0.0,0.0,0.0,4.057616772,0.0,-0.003662109000000413,-46263.0,0.0,-30.0,-0.0,0.0,0.0,2.568359112,0.0,-0.04394530800000007,1.7599999904632568,0.05000000074505806,39.91999816894531,0.00311279296875,0.0355224609375,0.996826171875,32.380001068115234,0.0,4.0,0.28350830078125,-2.1573944091796875,Waiting,0.0,0.0,-114.0,0.0,0.0,0.0,0.0,0.0,
0.9299780000000027,0.0,0.0,false,4519218.04570185,,7110.0,0.625,0.0,0.0,0.0,0.125,1.8994138680000001,0.0,-0.02075195100000027,-68787.0,0.5,0.0,-0.0,0.0,0.0,2.7490231560000002,0.0,-0.003662108999999969,29562.0,0.75,0.0,0.0,0.0,0.0,4.056396069,0.0,-0.004882811999999959,-46263.0,0.125,0.0,-0.0,0.0,0.0,2.567138409,0.0,-0.01953124800000028,1.7300000190734863,0.05999999865889549,39.900001525878906,0.01348876953125,0.02520751953125,0.99127197265625,32.41999816894531,0.0,6.0,0.283447265625,-2.1573944091796875,Waiting,0.0,0.0,-114.0,0.0,0.0,0.0,0.0,0.0,
0.9797510000000001,0.0,0.0,false,4518794.060869565,,7110.0,0.75,0.0,0.0,0.0,0.125,1.8981931650000001,0.0,-0.014648435999999876,-68787.0,0.5,0.0,-0.0,0.0,0.0,2.7502438590000002,0.0,-0.009765623999999917,29562.0,0.75,0.0,0.0,0.0,0.0,4.057616772,0.0,-0.0012207030000004337,-46263.0,0.125,0.0,-0.0,0.0,0.0,2.569579815,0.0,0.0,1.7300000190734863,0.07999999821186066,39.91999816894531,0.00738525390625,0.02020263671875,0.93060302734375,32.41999816894531,0.0,0.0,0.283447265625,-2.1573944091796875,Waiting,0.0,0.0,-114.0,0.0,0.0,0.0,0.0,0.0,
1.033117000000002,0.0,0.0,false,4518279.861020629,,7110.0,0.75,0.0,0.0,0.0,0.0,1.8981931650000001,0.0,0.0012207030000004337,-68787.0,0.5,0.0,-0.0,0.0,0.0,2.7429196410000003,0.0,-0.0012207029999999897,29562.0,0.75,0.0,0.0,0.0,0.0,4.057616772,0.0,0.0,-46263.0,0.125,0.0,-0.0,0.0,0.0,2.569579815,0.0,-0.0012207029999999897,1.7200000286102295,0.07999999821186066,39.900001525878906,0.0062255859375,0.010498046875,0.994873046875,32.41999816894531,0.0,-8.0,0.283447265625,-2.1573944091796875,Waiting,0.0,0.0,-114.0,0.0,0.0,0.0,0.0,0.0,
1.0888220000000002,0.0,0.0,false,4517705.171366595,,7110.0,0.875,0.0,0.0,0.0,0.0,1.8994138680000001,0.0,-0.0012207030000004337,-68787.0,0.5,0.0,-0.0,0.0,0.0,2.7429196410000003,0.0,-0.003662108999999969,29562.0,0.75,0.0,0.0,0.0,0.0,4.057616772,0.0,0.0,-46263.0,0.125,0.0,-0.0,0.0,0.0,2.564697003,0.0,0.0012207029999999897,1.7200000286102295,0.07999999821186066,39.91999816894531,-0.002197265625,0.04296875,1.02386474609375,32.41999816894531,0.0,4.0,0.283447265625,-2.1573944091796875,Waiting,0.0,0.0,-114.0,0.0,0.0,0.0,0.0,0.0,
1.1423390000000035,0.0,0.0,false,4517040.788732395,,7110.0,0.875,0.0,0.0,0.0,0.0,1.8994138680000001,0.0,0.0024414059999999793,-68787.0,0.5,0.0,-0.0,0.0,0.0,2.7429196410000003,0.0,0.0,29562.0,0.75,0.0,0.0,0.0,0.0,4.057616772,0.0,0.0012207030000004337,-46263.0,0.125,0.0,-0.0,0.0,0.0,2.5781247360000004,0.0,-0.0012207029999999897,1.7100000381469727,0.10000000149011612,39.900001525878906,0.007080078125,0.017578125,1.026123046875,32.41999816894531,0.0,-4.0,0.283447265625,-2.1573944091796875,Waiting,0.0,0.0,-114.0,0.0,0.0,0.0,0.0,0.0,
1.195068000000003,0.0,0.0,false,4516287.004329004,,7110.0,0.875,0.0,0.0,0.0,0.0,1.8981931650000001,0.0,-0.0012207029999995456,-68787.0,0.5,0.0,-0.0,0.0,0.0,2.7429196410000003,0.0,-0.0012207029999999897,29562.0,0.75,0.0,0.0,0.0,0.0,4.061278881,0.0,0.0,-46263.0,0.125,0.0,-0.0,0.0,0.0,2.570800518,0.0,0.0,1.7000000476837158,0.10000000149011612,39.90999984741211,8.544921875E-4,0.03399658203125,1.0128173828125,32.41999816894531,0.0,1.0,0.283447265625,-2.1573944091796875,Waiting,0.0,0.0,-114.0,0.0,0.0,0.0,0.0,0.0,
1.2485920000000006,0.0,0.0,false,4515473.444324324,,7110.0,0.875,0.0,0.0,0.0,0.125,1.8945310560000002,0.0,0.0,-68787.0,0.5,0.0,-0.0,0.0,0.0,2.7429196410000003,0.0,0.0012207029999999897,29562.0,0.75,0.0,0.0,0.0,0.0,4.057616772,0.0,-0.0012207030000004337,-46263.0,0.125,0.0,-0.0,0.0,0.0,2.569579815,0.0,0.0012207029999999897,1.7000000476837158,0.11999999731779099,39.900001525878906,0.00970458984375,0.02911376953125,0.98175048828125,32.41999816894531,0.0,5.0,0.283447265625,-2.1573944091796875,Waiting,0.0,0.0,-114.0,0.0,0.0,0.0,0.0,0.0,
1.3064140000000006,0.0,0.0,false,4514570.997840173,,7110.0,0.875,0.0,0.0,0.0,0.0,1.8933103530000002,0.0,0.0,-68787.0,0.5,0.0,-0.0,0.0,0.0,2.756347374,0.0,0.0,29562.0,0.75,0.0,0.0,0.0,0.0,4.057616772,0.0,0.0012207030000004337,-46263.0,0.125,0.0,-0.0,0.0,0.0,2.570800518,0.0,0.0,1.690000057220459,0.11999999731779099,39.900001525878906,0.00506591796875,0.02813720703125,0.9736328125,32.41999816894531,0.0,1.0,0.283447265625,-2.1573944091796875,Waiting,0.0,0.0,-114.0,0.0,0.0,0.0,0.0,0.0,
1.3593230000000003,0.0,0.0,false,4513609.225458468,,7110.0,0.875,0.0,0.0,0.0,0.0,1.8994138680000001,0.0,-0.0012207030000004337,-68787.0,0.5,0.0,-0.0,0.0,0.0,2.7429196410000003,0.0,0.0,29562.0,0.75,0.0,0.0,0.0,0.0,4.058837475,0.0,-0.0012207030000004337,-46263.0,0.125,0.0,-0.0,0.0,0.0,2.569579815,0.0,0.0,1.690000057220459,0.12999999523162842,39.900001525878906,0.00738525390625,0.0267333984375,0.99395751953125,32.41999816894531,0.0,2.0,0.283447265625,-2.1573944091796875,Waiting,0.0,0.0,-114.0,0.0,0.0,0.0,0.0,0.0,
1.4158090000000012,0.0,0.0,false,4512559.077586207,,7110.0,0.875,0.0,0.0,0.0,0.125,1.900634571,0.0,0.0,-68787.0,0.5,0.0,-0.0,0.0,0.0,2.7429196410000003,0.0,0.0,29562.0,0.75,0.0,0.0,0.0,0.0,4.049071851,0.0,0.0012207030000004337,-46263.0,0.125,0.0,-0.0,0.0,0.0,2.570800518,0.0,0.0,1.6799999475479126,0.12999999523162842,39.900001525878906,0.00738525390625,0.02203369140625,1.00457763671875,32.369998931884766,0.0,-1.0,0.283447265625,-2.1573944091796875,Waiting,0.0,0.0,-114.0,0.0,0.0,0.0,0.0,0.0,
1.4695590000000012,0.0,0.0,false,4511420.839612487,,7110.0,0.875,0.0,0.0,0.0,0.0,1.8994138680000001,0.0,0.0012207030000004337,-68787.0,0.5,0.0,-0.0,0.0,0.0,2.7441403440000003,0.0,-0.0012207029999999897,29562.0,0.75,0.0,0.0,0.0,0.0,4.056396069,0.0,-0.0012207030000004337,-46263.0,0.125,0.0,-0.0,0.0,0.0,2.569579815,0.0,0.0,1.6799999475479126,0.14000000059604645,39.900001525878906,0.00140380859375,0.02557373046875,1.0137939453125,32.369998931884766,0.0,-3.0,0.283447265625,-2.1573944091796875,Waiting,0.0,0.0,-114.0,0.0,0.0,0.0,0.0,0.0,
1.5224980000000032,0.0,0.0,false,4510194.795698925,,7110.0,0.875,0.0,0.0,0.0,0.0,1.8981931650000001,0.0,0.0012207030000004337,-68787.0,0.5,0.0,-0.0,0.0,0.0,2.7441403440000003,0.0,-0.0012207029999999897,29562.0,0.75,0.0,0.0,0.0,0.0,4.057616772,0.0,0.0012207030000004337,-46263.0,0.125,0.0,-0.0,0.0,0.0,2.569579815,0.0,0.0,1.6699999570846558,0.15000000596046448,39.88999938964844,0.003173828125,0.0263671875,1.0048828125,32.369998931884766,0.0,-1.0,0.283447265625,-2.1573944091796875,Waiting,0.0,0.0,-114.0,0.0,0.0,0.0,0.0,0.0,
1.5774340000000011,0.0,0.0,false,4508881.194414608,,7110.0,0.875,0.0,0.0,0.0,0.0,1.900634571,0.0,-0.0012207030000004337,-68787.0,0.5,0.0,-0.0,0.0,0.0,2.7441403440000003,0.0,0.0012207029999999897,29562.0,0.75,0.0,0.0,0.0,0.0,4.057616772,0.0,-0.0012207030000004337,-46263.0,0.125,0.0,-0.0,0.0,0.0,2.570800518,0.0,0.0,1.659999966621399,0.1599999964237213,39.88999938964844,0.00341796875,0.025146484375,0.9967041015625,32.369998931884766,0.0,-2.0,0.283447265625,-2.1573944091796875,Waiting,0.0,0.0,-114.0,0.0,0.0,0.0,0.0,0.0,
1.629474000000002,0.0,0.0,false,4507509.467811159,,7110.0,0.875,0.0,0.0,0.0,0.0,1.8957517590000001,0.0,0.0012207030000004337,-68787.0,0.5,0.0,-0.0,0.0,0.0,2.7429196410000003,0.0,0.0,29562.0,0.75,0.0,0.0,0.0,0.0,4.057616772,0.0,0.0012207030000004337,-46263.0,0.125,0.0,-0.0,0.0,0.0,2.569579815,0.0,0.0,1.659999966621399,0.1599999964237213,39.88999938964844,0.00732421875,0.0289306640625,0.9937744140625,32.369998931884766,0.0,3.0,0.283447265625,-2.1573944091796875,Waiting,0.0,0.0,-114.0,0.0,0.0,0.0,0.0,0.0,
1.6873200000000033,0.0,0.0,false,4506053.427652733,,7110.0,0.875,0.0,0.0,0.0,0.0,1.8994138680000001,0.0,0.0,-68787.0,0.5,0.0,-0.0,0.0,0.0,2.7429196410000003,0.0,-0.0012207029999999897,29562.0,0.75,0.0,0.0,0.0,0.0,4.058837475,0.0,0.0,-46263.0,0.125,0.0,-0.0,0.0,0.0,2.567138409,0.0,0.0,1.649999976158142,0.17000000178813934,39.88999938964844,0.00665283203125,0.02740478515625,0.993896484375,32.369998931884766,0.0,1.0,0.283447265625,-2.1573944091796875,Waiting,0.0,0.0,-114.0,0.0,0.0,0.0,0.0,0.0,
1.744081000000002,0.0,0.0,false,4506577.892933619,,7110.0,0.875,0.0,0.0,0.0,0.125,1.8920896500000002,0.0,0.0,-68787.0,0.5,0.0,-0.0,0.0,0.0,2.7441403440000003,0.0,0.0012207029999999897,29562.0,0.75,0.0,0.0,0.0,0.0,4.058837475,0.0,-0.0012207030000004337,-46263.0,0.125,0.0,-0.0,0.0,0.0,2.570800518,0.0,0.0,1.649999976158142,0.17000000178813934,39.880001068115234,0.010009765625,0.0322265625,0.99700927734375,32.369998931884766,0.0,7.0,0.283447265625,-2.1573944091796875,Waiting,0.0,0.0,-114.0,0.0,0.0,0.0,0.0,0.0,
1.7906920000000028,0.0,0.0,false,4506991.02459893,,7110.0,0.875,0.0,0.0,0.0,0.125,1.8994138680000001,0.0,0.0,-68787.0,0.5,0.0,-0.0,0.0,0.0,2.7429196410000003,0.0,0.0,29562.0,0.75,0.0,0.0,0.0,0.0,4.058837475,0.0,0.0,-46263.0,0.125,0.0,-0.0,0.0,0.0,2.568359112,0.0,0.0,1.649999976158142,0.17000000178813934,39.88999938964844,0.0048828125,0.027587890625,0.9989013671875,32.369998931884766,0.0,0.0,0.283447265625,-2.1573944091796875,Waiting,0.0,0.0,-114.0,0.0,0.0,0.0,0.0,0.0,
1.8476130000000013,0.0,0.0,false,4507332.418803419,,7110.0,0.875,0.0,0.0,0.0,0.0,1.909179492,0.0,0.0,-68787.0,0.5,0.0,-0.0,0.0,0.0,2.7416989380000003,0.0,0.0,29562.0,0.75,0.0,0.0,0.0,0.0,4.057616772,0.0,0.0,-46263.0,0.125,0.0,-0.0,0.0,0.0,2.569579815,0.0,0.0,1.649999976158142,0.18000000715255737,39.88999938964844,0.00628662109375,0.02691650390625,1.001953125,32.369998931884766,0.0,1.0,0.283447265625,-2.1573944091796875,Waiting,0.0,0.0,-114.0,0.0,0.0,0.0,0.0,0.0,
1.8956360000000023,0.0,0.0,false,4507607.052294557,,7110.0,0.875,0.0,0.0,0.0,0.0,1.8994138680000001,0.0,0.0,-68787.0,0.5,0.0,-0.0,0.0,0.0,2.7429196410000003,0.0,-0.0012207029999999897,29562.0,0.75,0.0,0.0,0.0,0.0,4.067382396,0.0,0.0,-46263.0,0.125,0.0,-0.0,0.0,0.0,2.569579815,0.0,-0.0012207029999999897,1.6399999856948853,0.1899999976158142,39.880001068115234,0.00372314453125,0.02734375,1.00262451171875,32.380001068115234,0.0,0.0,0.283447265625,-2.1573944091796875,Waiting,0.0,0.0,-114.0,0.0,0.0,0.0,0.0,0.0,
1.966050000000003,0.0,0.0,false,4507810.5330490405,,7110.0,0.875,0.0,0.0,0.0,0.0,1.887206838,0.0,0.0,-68787.0,0.5,0.0,-0.0,0.0,0.0,2.7429196410000003,0.0,0.0,29562.0,0.75,0.0,0.0,0.0,0.0,4.057616772,0.0,0.0,-46263.0,0.125,0.0,-0.0,0.0,0.0,2.564697003,0.0,0.0,1.6399999856948853,0.1899999976158142,39.880001068115234,0.00628662109375,0.02996826171875,1.000244140625,32.380001068115234,0.0,3.0,0.283447265625,-2.1573944091796875,Waiting,0.0,0.0,-114.0,0.0,0.0,0.0,0.0,0.0,
2.0290670000000026,0.0,0.0,false,4507910.244941427,,7110.0,0.875,0.0,0.0,0.0,0.0,1.906738086,0.0,0.0,-68787.0,0.5,0.0,-0.0,0.0,0.0,2.7404782350000003,0.0,0.0012207029999999897,29562.0,0.75,0.0,0.0,0.0,0.0,4.042968336,0.0,0.0,-46263.0,0.125,0.0,-0.0,0.0,0.0,2.569579815,0.0,0.0,1.6299999952316284,0.1899999976158142,39.880001068115234,0.0068359375,0.02593994140625,0.9947509765625,32.380001068115234,0.0,1.0,0.283447265625,-2.1573944091796875,Waiting,0.0,0.0,-114.0,0.0,0.0,0.0,0.0,0.0,
2.082125,0.0,0.0,false,4507941.625531915,,7110.0,0.875,0.0,0.0,0.0,0.0,1.8981931650000001,0.0,0.0,-68787.0,0.5,0.0,-0.0,0.0,0.0,2.7429196410000003,0.0,0.0,29562.0,0.75,0.0,0.0,0.0,0.0,4.057616772,0.0,0.0,-46263.0,0.125,0.0,-0.0,0.0,0.0,2.569579815,0.0,0.0,1.6200000047683716,0.20000000298023224,39.880001068115234,0.00457763671875,0.0250244140625,1.000732421875,32.380001068115234,0.0,-1.0,0.283447265625,-2.1573944091796875,Waiting,0.0,0.0,-114.0,0.0,0.0,0.0,0.0,0.0,
2.135599000000002,0.0,0.0,false,4507904.8926673755,,7110.0,0.875,0.0,0.0,0.0,0.0,1.8994138680000001,0.0,0.0,-68787.0,0.5,0.0,-0.0,0.0,0.0,2.7429196410000003,0.0,0.0,29562.0,0.75,0.0,0.0,0.0,0.0,4.067382396,0.0,-0.0012207030000004337,-46263.0,0.125,0.0,-0.0,0.0,0.0,2.569579815,0.0,0.0,1.6200000047683716,0.20000000298023224,39.869998931884766,0.00775146484375,0.02777099609375,0.9984130859375,32.380001068115234,0.0,2.0,0.283447265625,-2.1573944091796875,Waiting,0.0,0.0,-114.0,0.0,0.0,0.0,0.0,0.0,
2.189604000000003,0.0,0.0,false,4507800.127388535,,7110.0,0.875,0.0,0.0,0.0,0.0,1.900634571,0.0,0.0012207029999995456,-68787.0,0.5,0.0,-0.0,0.0,0.0,2.7429196410000003,0.0,0.0,29562.0,0.75,0.0,0.0,0.0,0.0,4.061278881,0.0,0.0012207030000004337,-46263.0,0.125,0.0,-0.0,0.0,0.0,2.569579815,0.0,-0.0012207029999999897,1.6100000143051147,0.20000000298023224,39.869998931884766,0.00445556640625,0.02899169921875,1.0006103515625,32.380001068115234,0.0,1.0,0.283447265625,-2.1573944091796875,Waiting,0.0,0.0,-114.0,0.0,0.0,0.0,0.0,0.0,
2.2466390000000027,0.0,0.0,false,4507625.391304348,,7110.0,0.875,0.0,0.0,0.0,0.0,1.8957517590000001,0.0,-0.0012207029999995456,-68787.0,0.5,0.0,-0.0,0.0,0.0,2.7441403440000003,0.0,0.0,29562.0,0.75,0.0,0.0,0.0,0.0,4.057616772,0.0,0.0,-46263.0,0.125,0.0,-0.0,0.0,0.0,2.569579815,0.0,0.0012207029999999897,1.6100000143051147,0.20000000298023224,39.869998931884766,0.00567626953125,0.02838134765625,0.9921875,32.380001068115234,0.0,1.0,0.283447265625,-2.1573944091796875,Waiting,0.0,0.0,-114.0,0.0,0.0,0.0,0.0,0.0,
2.2941740000000026,0.0,0.0,false,4507350.423728813,,7110.0,0.875,0.0,0.0,0.0,0.0,1.8981931650000001,0.0,0.0,-68787.0,0.5,0.0,-0.0,0.0,0.0,2.728271205,0.0,0.0,29562.0,0.75,0.0,0.0,0.0,0.0,4.057616772,0.0,-0.0012207030000004337,-46263.0,0.125,0.0,-0.0,0.0,0.0,2.569579815,0.0,0.0,1.6100000143051147,0.20999999344348907,39.869998931884766,0.00140380859375,0.02777099609375,1.00048828125,32.380001068115234,0.0,-2.0,0.283447265625,-2.1573944091796875,Waiting,0.0,0.0,-114.0,0.0,0.0,0.0,0.0,0.0,
2.3502330000000002,0.0,0.0,false,4507008.2793650795,,7110.0,0.875,0.0,0.0,0.0,0.0,1.8994138680000001,0.0,0.0,-68787.0,0.5,0.0,-0.0,0.0,0.0,2.7429196410000003,0.0,0.0,29562.0,0.75,0.0,0.0,0.0,0.0,4.057616772,0.0,0.0,-46263.0,0.125,0.0,-0.0,0.0,0.0,2.564697003,0.0,-0.0012207029999999897,1.6100000143051147,0.20999999344348907,39.869998931884766,0.0052490234375,0.030517578125,0.99957275390625,32.380001068115234,0.0,2.0,0.283447265625,-2.1573944091796875,Waiting,0.0,0.0,-114.0,0.0,0.0,0.0,0.0,0.0,
2.3999180000000013,0.0,0.0,false,4506599.1712473575,,7110.0,0.875,0.0,0.0,0.0,0.0,1.8981931650000001,0.0,0.0,-68787.0,0.5,0.0,-0.0,0.0,0.0,2.7404782350000003,0.0,0.0,29562.0,0.75,0.0,0.0,0.0,0.0,4.057616772,0.0,0.0012207030000004337,-46263.0,0.125,0.0,-0.0,0.0,0.0,2.570800518,0.0,0.0012207029999999897,1.6100000143051147,0.20999999344348907,39.869998931884766,0.00311279296875,0.02752685546875,0.99859619140625,32.380001068115234,0.0,0.0,0.283447265625,-2.1573944091796875,Waiting,0.0,0.0,-114.0,0.0,0.0,0.0,0.0,0.0,
2.4527080000000026,0.0,0.0,false,4506090.644139388,,7110.0,0.875,0.0,0.0,0.0,0.0,1.8994138680000001,0.0,0.0,-68787.0,0.5,0.0,-0.0,0.0,0.0,2.7429196410000003,0.0,-0.0012207029999999897,29562.0,0.75,0.0,0.0,0.0,0.0,4.058837475,0.0,0.0,-46263.0,0.125,0.0,-0.0,0.0,0.0,2.570800518,0.0,-0.0012207029999999897,1.600000023841858,0.2199999988079071,39.869998931884766,0.005859375,0.02984619140625,0.9993896484375,32.43000030517578,0.0,2.0,0.283447265625,-2.1573944091796875,Waiting,0.0,0.0,-114.0,0.0,0.0,0.0,0.0,0.0,
2.5106000000000024,0.0,0.0,false,4505483.012658228,,7110.0,0.875,0.0,0.0,0.0,0.0,1.8981931650000001,0.0,0.0,-68787.0,0.5,0.0,-0.0,0.0,0.0,2.7429196410000003,0.0,0.0012207029999999897,29562.0,0.75,0.0,0.0,0.0,0.0,4.056396069,0.0,0.0,-46263.0,0.125,0.0,-0.0,0.0,0.0,2.570800518,0.0,0.0012207029999999897,1.600000023841858,0.2199999988079071,39.869998931884766,0.00396728515625,0.026611328125,0.994384765625,32.43000030517578,0.0,0.0,0.283447265625,-2.1573944091796875,Waiting,0.0,0.0,-114.0,0.0,0.0,0.0,0.0,0.0,
2.566550000000003,0.0,0.0,false,4504809.1886196,,7110.0,0.875,0.0,0.0,0.0,0.0,1.8981931650000001,0.0,0.0,-68787.0,0.5,0.0,-0.0,0.0,0.0,2.7429196410000003,0.0,0.0,29562.0,0.75,0.0,0.0,0.0,0.0,4.057616772,0.0,0.0,-46263.0,0.125,0.0,-0.0,0.0,0.0,2.5817868450000003,0.0,0.0,1.600000023841858,0.2199999988079071,39.86000061035156,0.00482177734375,0.0272216796875,0.9981689453125,32.43000030517578,0.0,0.0,0.283447265625,-2.1573944091796875,Waiting,0.0,0.0,-114.0,0.0,0.0,0.0,0.0,0.0,
2.6146910000000023,0.0,0.0,false,4504069.381052632,,7110.0,0.875,0.0,0.0,0.0,0.125,1.8994138680000001,0.0,0.0,-68787.0,0.5,0.0,-0.0,0.0,0.0,2.7478024530000003,0.0,0.0,29562.0,0.75,0.0,0.0,0.0,0.0,4.057616772,0.0,0.0,-46263.0,0.125,0.0,-0.0,0.0,0.0,2.573241924,0.0,-0.0012207029999999897,1.600000023841858,0.23000000417232513,39.86000061035156,0.0050048828125,0.02740478515625,0.99993896484375,32.43000030517578,0.0,0.0,0.283447265625,-2.1573944091796875,Waiting,0.0,0.0,-114.0,0.0,0.0,0.0,0.0,0.0,
2.6655030000000006,0.0,0.0,false,4503263.798107255,,7110.0,0.875,0.0,0.0,0.0,0.0,1.887206838,0.0,0.0,-68787.0,0.5,0.0,-0.0,0.0,0.0,2.7429196410000003,0.0,0.0,29562.0,0.75,0.0,0.0,0.0,0.0,4.057616772,0.0,0.0,-46263.0,0.125,0.0,-0.0,0.0,0.0,2.565917706,0.0,0.0012207029999999897,1.600000023841858,0.23000000417232513,39.86000061035156,0.005859375,0.02410888671875,0.9951171875,32.43000030517578,0.0,0.0,0.283447265625,-2.1573944091796875,Waiting,0.0,0.0,-114.0,0.0,0.0,0.0,0.0,0.0,
2.7106800000000004,0.0,0.0,false,4502360.1512605045,,7110.0,0.875,0.0,0.0,0.0,0.125,1.8957517590000001,0.0,0.0,-68787.0,0.5,0.0,-0.0,0.0,0.0,2.7429196410000003,0.0,-0.0012207029999999897,29562.0,0.75,0.0,0.0,0.0,0.0,4.057616772,0.0,0.0,-46263.0,0.125,0.0,-0.0,0.0,0.0,2.574462627,0.0,0.0,1.590000033378601,0.23000000417232513,39.86000061035156,0.005859375,0.02630615234375,0.994384765625,32.43000030517578,0.0,0.0,0.283447265625,-2.1573944091796875,Waiting,0.0,0.0,-114.0,0.0,0.0,0.0,0.0,0.0,
2.7585030000000006,0.0,0.0,false,4501391.210912907,,7110.0,0.875,0.0,0.0,0.0,0.0,1.8994138680000001,0.0,0.0,-68787.0,0.5,0.0,-0.0,0.0,0.0,2.7416989380000003,0.0,0.0,29562.0,0.75,0.0,0.0,0.0,0.0,4.057616772,0.0,-0.0012207030000004337,-46263.0,0.125,0.0,-0.0,0.0,0.0,2.569579815,0.0,0.0,1.590000033378601,0.23000000417232513,39.86000061035156,0.00311279296875,0.02764892578125,0.99908447265625,32.43000030517578,0.0,0.0,0.283447265625,-2.1573944091796875,Waiting,0.0,0.0,-114.0,0.0,0.0,0.0,0.0,0.0,
2.811483,0.0,0.0,false,4500357.182389937,,7110.0,0.875,0.0,0.0,0.0,0.125,1.8969724620000001,0.0,0.0,-68787.0,0.5,0.0,-0.0,0.0,0.0,2.760009483,0.0,0.0012207029999999897,29562.0,0.75,0.0,0.0,0.0,0.0,4.057616772,0.0,0.0,-46263.0,0.125,0.0,-0.0,0.0,0.0,2.564697003,0.0,-0.0012207029999999897,1.590000033378601,0.23999999463558197,39.849998474121094,0.00396728515625,0.02520751953125,0.9998779296875,32.43000030517578,0.0,-1.0,0.283447265625,-2.1573944091796875,Waiting,0.0,0.0,-114.0,0.0,0.0,0.0,0.0,0.0,
2.8551500000000014,0.0,0.0,false,4499258.270157068,,7110.0,0.875,0.0,0.0,0.0,0.125,1.8994138680000001,0.0,0.0012207029999995456,-68787.0,0.5,0.0,-0.0,0.0,0.0,2.7429196410000003,0.0,-0.0012207029999999897,29562.0,0.75,0.0,0.0,0.0,0.0,4.058837475,0.0,0.0,-46263.0,0.125,0.0,-0.0,0.0,0.0,2.569579815,0.0,0.0,1.5800000429153442,0.23999999463558197,39.849998474121094,0.00494384765625,0.028564453125,1.00128173828125,32.43000030517578,0.0,1.0,0.283447265625,-2.1573944091796875,Waiting,0.0,0.0,-114.0,0.0,0.0,0.0,0.0,0.0,
2.912764000000003,0.0,0.0,false,4498062.317991632,,7110.0,0.875,0.0,0.0,0.0,0.125,1.900634571,0.0,0.0,-68787.0,0.5,0.0,-0.0,0.0,0.0,2.7429196410000003,0.0,0.0,29562.0,0.75,0.0,0.0,0.0,0.0,4.057616772,0.0,0.0,-46263.0,0.125,0.0,-0.0,0.0,0.0,2.5830075480000003,0.0,0.0012207029999999897,1.5800000429153442,0.23999999463558197,39.849998474121094,0.0072021484375,0.0277099609375,1.0020751953125,32.43000030517578,0.0,2.0,0.283447265625,-2.1573944091796875,Waiting,0.0,0.0,-114.0,0.0,0.0,0.0,0.0,0.0,
2.9622130000000033,0.0,0.0,false,4496801.956112852,,7110.0,0.875,0.0,0.0,0.0,0.0,1.8981931650000001,0.0,-0.0012207029999995456,-68787.0,0.5,0.0,-0.0,0.0,0.0,2.7429196410000003,0.0,0.0012207029999999897,29562.0,0.75,0.0,0.0,0.0,0.0,4.058837475,0.0,0.0,-46263.0,0.125,0.0,-0.0,0.0,0.0,2.568359112,0.0,0.0,1.5700000524520874,0.25,39.849998474121094,0.0068359375,0.02459716796875,0.9990234375,32.40999984741211,0.0,0.0,0.283447265625,-2.1573944091796875,Waiting,0.0,0.0,-114.0,0.0,0.0,0.0,0.0,0.0,
3.0146210000000027,0.0,0.0,false,4495477.386221294,,7110.0,0.875,0.0,0.0,0.0,0.0,1.909179492,0.0,0.0,-68787.0,0.5,0.0,-0.0,0.0,0.0,2.7429196410000003,0.0,0.0,29562.0,0.75,0.0,0.0,0.0,0.0,4.057616772,0.0,0.0012207030000004337,-46263.0,0.125,0.0,-0.0,0.0,0.0,2.570800518,0.0,-0.0012207029999999897,1.5700000524520874,0.25,39.849998474121094,0.0040283203125,0.02886962890625,1.00225830078125,32.40999984741211,0.0,0.0,0.283447265625,-2.1573944091796875,Waiting,0.0,0.0,-114.0,0.0,0.0,0.0,0.0,0.0,
3.0613500000000022,0.0,0.0,false,4494088.809176225,,7110.0,0.875,0.0,0.0,0.0,0.0,1.8981931650000001,0.0,-0.0012207030000004337,-68787.0,0.5,0.0,-0.0,0.0,0.0,2.7392575320000003,0.0,0.0,29562.0,0.75,0.0,0.0,0.0,0.0,4.058837475,0.0,0.0,-46263.0,0.125,0.0,-0.0,0.0,0.0,2.569579815,0.0,0.0,1.5700000524520874,0.25,39.84000015258789,0.00640869140625,0.02484130859375,0.99481201171875,32.40999984741211,0.0,0.0,0.283447265625,-2.1573944091796875,Waiting,0.0,0.0,-114.0,0.0,0.0,0.0,0.0,0.0,
3.1082270000000025,0.0,0.0,false,4492604.2,,7110.0,0.875,0.0,0.0,0.0,0.0,1.8994138680000001,0.0,0.0012207030000004337,-68787.0,0.5,0.0,-0.0,0.0,0.0,2.7453610470000003,0.0,0.0012207029999999897,29562.0,0.75,0.0,0.0,0.0,0.0,4.057616772,0.0,0.0,-46263.0,0.125,0.0,-0.0,0.0,0.0,2.570800518,0.0,0.0,1.5700000524520874,0.23999999463558197,39.84000015258789,0.00396728515625,0.02752685546875,1.00091552734375,32.40999984741211,0.0,0.0,0.283447265625,-2.1573944091796875,Waiting,0.0,0.0,-114.0,0.0,0.0,0.0,0.0,0.0,
3.1697140000000035,0.0,0.0,false,4493095.292403746,,7110.0,0.875,0.0,0.0,0.0,0.0,1.8945310560000002,0.0,0.0,-68787.0,0.5,0.0,-0.0,0.0,0.0,2.7429196410000003,0.0,0.0,29562.0,0.75,0.0,0.0,0.0,0.0,4.061278881,0.0,0.0,-46263.0,0.125,0.0,-0.0,0.0,0.0,2.570800518,0.0,0.0,1.559999942779541,0.25,39.84000015258789,0.0062255859375,0.02691650390625,0.9970703125,32.40999984741211,0.0,1.0,0.283447265625,-2.1573944091796875,Waiting,0.0,0.0,-114.0,0.0,0.0,0.0,0.0,0.0,
3.2125120000000025,0.0,0.0,false,4493503.975051975,,7110.0,0.875,0.0,0.0,0.0,0.0,1.8945310560000002,0.0,0.0,-68787.0,0.5,0.0,-0.0,0.0,0.0,2.7429196410000003,0.0,-0.0024414059999999793,29562.0,0.75,0.0,0.0,0.0,0.0,4.058837475,0.0,-0.0012207030000004337,-46263.0,0.125,0.0,-0.0,0.0,0.0,2.570800518,0.0,0.0,1.559999942779541,0.25,39.84000015258789,0.00628662109375,0.02734375,1.0045166015625,32.40999984741211,0.0,1.0,0.283447265625,-2.1573944091796875,Waiting,0.0,0.0,-114.0,0.0,0.0,0.0,0.0,0.0,
3.261398000000001,0.0,0.0,false,4493839.1360332295,,7110.0,0.875,0.0,0.0,0.0,0.0,1.8994138680000001,0.0,0.0,-68787.0,0.5,0.0,-0.0,0.0,0.0,2.7441403440000003,0.0,0.0,29562.0,0.75,0.0,0.0,0.0,0.0,4.061278881,0.0,0.0,-46263.0,0.125,0.0,-0.0,0.0,0.0,2.569579815,0.0,0.0,1.559999942779541,0.25,39.84000015258789,0.00531005859375,0.02801513671875,0.99822998046875,32.40999984741211,0.0,1.0,0.283447265625,-2.1573944091796875,Waiting,0.0,0.0,-114.0,0.0,0.0,0.0,0.0,0.0,
3.3142030000000013,0.0,0.0,false,4494100.871369295,,7110.0,0.875,0.0,0.0,0.0,0.0,1.8908689470000002,0.0,0.0,-68787.0,0.5,0.0,-0.0,0.0,0.0,2.7441403440000003,0.0,0.0012207029999999897,29562.0,0.75,0.0,0.0,0.0,0.0,4.057616772,0.0,0.0,-46263.0,0.125,0.0,-0.0,0.0,0.0,2.569579815,0.0,0.0,1.5499999523162842,0.25999999046325684,39.83000183105469,0.0057373046875,0.02630615234375,1.0013427734375,32.40999984741211,0.0,0.0,0.283447265625,-2.1573944091796875,Waiting,0.0,0.0,-114.0,0.0,0.0,0.0,0.0,0.0,
3.3599900000000016,0.0,0.0,false,4494289.541968912,,7110.0,0.875,0.0,0.0,0.0,0.0,1.8933103530000002,0.0,0.0012207029999995456,-68787.0,0.5,0.0,-0.0,0.0,0.0,2.7392575320000003,0.0,0.0,29562.0,0.75,0.0,0.0,0.0,0.0,4.057616772,0.0,0.0012207030000004337,-46263.0,0.125,0.0,-0.0,0.0,0.0,2.570800518,0.0,0.0,1.5499999523162842,0.25999999046325684,39.83000183105469,0.0072021484375,0.02679443359375,1.0028076171875,32.40999984741211,0.0,1.0,0.283447265625,-2.1573944091796875,Waiting,0.0,0.0,-114.0,0.0,0.0,0.0,0.0,0.0,
3.4130240000000014,0.0,0.0,false,4494405.374741201,,7110.0,0.875,0.0,0.0,0.0,0.0,1.8994138680000001,0.0,-0.0012207029999995456,-68787.0,0.5,0.0,-0.0,0.0,0.0,2.7429196410000003,0.0,0.0,29562.0,0.75,0.0,0.0,0.0,0.0,4.056396069,0.0,0.0,-46263.0,0.125,0.0,-0.0,0.0,0.0,2.569579815,0.0,0.0,1.5499999523162842,0.25999999046325684,39.83000183105469,0.00555419921875,0.02825927734375,1.001708984375,32.40999984741211,0.0,1.0,0.283447265625,-2.1573944091796875,Waiting,0.0,0.0,-114.0,0.0,0.0,0.0,0.0,0.0,
3.4673110000000014,0.0,0.0,false,4494448.59565667,,7110.0,0.875,0.0,0.0,0.0,0.0,1.8957517590000001,0.0,0.0,-68787.0,0.5,0.0,-0.0,0.0,0.0,2.7441403440000003,0.0,-0.0012207029999999897,29562.0,0.75,0.0,0.0,0.0,0.0,4.058837475,0.0,-0.0012207030000004337,-46263.0,0.125,0.0,-0.0,0.0,0.0,2.569579815,0.0,0.0,1.5499999523162842,0.25999999046325684,39.83000183105469,0.0068359375,0.0286865234375,0.9981689453125,32.43000030517578,0.0,2.0,0.283447265625,-2.1573944091796875,Waiting,0.0,0.0,-114.0,0.0,0.0,0.0,0.0,0.0,
3.515165000000001,0.0,0.0,false,4494380.239669422,,7110.0,0.875,0.0,0.0,0.0,0.0,1.8994138680000001,0.0,0.0,-68787.0,0.5,0.0,-0.0,0.0,0.0,2.7429196410000003,0.0,0.0,29562.0,0.75,0.0,0.0,0.0,0.0,4.046630445,0.0,0.0,-46263.0,0.125,0.0,-0.0,0.0,0.0,2.57568333,0.0,0.0012207029999999897,1.5499999523162842,0.25999999046325684,39.83000183105469,0.0059814453125,0.02734375,0.999267578125,32.43000030517578,0.0,1.0,0.283447265625,-2.1573944091796875,Waiting,0.0,0.0,-114.0,0.0,0.0,0.0,0.0,0.0,
3.5666600000000033,0.0,0.0,false,4494239.801857585,,7110.0,0.875,0.0,0.0,0.0,0.0,1.8981931650000001,0.0,0.0,-68787.0,0.5,0.0,-0.0,0.0,0.0,2.7429196410000003,0.0,0.0012207029999999897,29562.0,0.75,0.0,0.0,0.0,0.0,4.058837475,0.0,0.0,-46263.0,0.125,0.0,-0.0,0.0,0.0,2.569579815,0.0,-0.0012207029999999897,1.5499999523162842,0.25999999046325684,39.83000183105469,0.00494384765625,0.0296630859375,0.99957275390625,32.43000030517578,0.0,1.0,0.283447265625,-2.1573944091796875,Waiting,0.0,0.0,-114.0,0.0,0.0,0.0,0.0,0.0,
3.6062040000000017,0.0,0.0,false,4494025.26185567,,7110.0,0.875,0.0,0.0,0.0,0.0,1.8994138680000001,0.0,-0.0012207030000004337,-68787.0,0.5,0.0,-0.0,0.0,0.0,2.7441403440000003,0.0,0.0,29562.0,0.75,0.0,0.0,0.0,0.0,4.058837475,0.0,0.0,-46263.0,0.125,0.0,-0.0,0.0,0.0,2.567138409,0.0,0.0012207029999999897,1.5499999523162842,0.25999999046325684,39.83000183105469,0.0072021484375,0.025390625,1.0,32.43000030517578,0.0,0.0,0.283447265625,-2.1573944091796875,Waiting,0.0,0.0,-114.0,0.0,0.0,0.0,0.0,0.0,
3.651756000000001,0.0,0.0,false,4493739.089598352,,7110.0,0.875,0.0,0.0,0.0,0.0,1.8994138680000001,0.0,0.0012207030000004337,-68787.0,0.5,0.0,-0.0,0.0,0.0,2.7416989380000003,0.0,0.0,29562.0,0.75,0.0,0.0,0.0,0.0,4.058837475,0.0,0.0012207030000004337,-46263.0,0.125,0.0,-0.0,0.0,0.0,2.5634763,0.0,-0.0012207029999999897,1.5499999523162842,0.25999999046325684,39.83000183105469,0.0040283203125,0.02685546875,0.9971923828125,32.43000030517578,0.0,0.0,0.283447265625,-2.1573944091796875,Waiting,0.0,0.0,-114.0,0.0,0.0,0.0,0.0,0.0,
3.703808000000001,0.0,0.0,false,4493383.613168724,,7110.0,0.875,0.0,0.0,0.0,0.0,1.8933103530000002,0.0,0.0,-68787.0,0.5,0.0,-0.0,0.0,0.0,2.7441403440000003,0.0,0.0,29562.0,0.75,0.0,0.0,0.0,0.0,4.057616772,0.0,-0.0012207030000004337,-46263.0,0.125,0.0,-0.0,0.0,0.0,2.5781247360000004,0.0,0.0012207029999999897,1.5499999523162842,0.27000001072883606,39.81999969482422,0.00360107421875,0.02490234375,1.00140380859375,32.43000030517578,0.0,-2.0,0.283447265625,-2.1573944091796875,Waiting,0.0,0.0,-114.0,0.0,0.0,0.0,0.0,0.0,
3.749010000000002,0.0,0.0,false,4492956.941418294,,7110.0,0.875,0.0,0.0,0.0,0.125,1.8994138680000001,0.0,0.0,-68787.0,0.5,0.0,-0.0,0.0,0.0,2.7429196410000003,0.0,0.0,29562.0,0.75,0.0,0.0,0.0,0.0,4.057616772,0.0,0.0012207030000004337,-46263.0,0.125,0.0,-0.0,0.0,0.0,2.569579815,0.0,-0.0012207029999999897,1.5499999523162842,0.27000001072883606,39.81999969482422,0.005126953125,0.02716064453125,0.99993896484375,32.43000030517578,0.0,0.0,0.283447265625,-2.1573944091796875,Waiting,0.0,0.0,-114.0,0.0,0.0,0.0,0.0,0.0,
3.7967800000000023,0.0,0.0,false,4492459.293634497,,7110.0,0.875,0.0,0.0,0.0,0.0,1.8664548870000002,0.0,0.0,-68787.0,0.5,0.0,-0.0,0.0,0.0,2.7429196410000003,0.0,0.0,29562.0,0.75,0.0,0.0,0.0,0.0,4.053954663,0.0,-0.0012207030000004337,-46263.0,0.125,0.0,-0.0,0.0,0.0,2.567138409,0.0,0.0012207029999999897,1.5499999523162842,0.27000001072883606,39.81999969482422,0.0059814453125,0.0299072265625,0.99591064453125,32.43000030517578,0.0,2.0,0.283447265625,-2.1573944091796875,Waiting,0.0,0.0,-114.0,0.0,0.0,0.0,0.0,0.0,
3.8507210000000014,0.0,0.0,false,4491888.7876923075,,7110.0,0.875,0.0,0.0,0.0,0.0,1.8981931650000001,0.0,-0.0012207030000004337,-68787.0,0.5,0.0,-0.0,0.0,0.0,2.7465817500000003,0.0,0.0,29562.0,0.75,0.0,0.0,0.0,0.0,4.057616772,0.0,0.0,-46263.0,0.125,0.0,-0.0,0.0,0.0,2.569579815,0.0,-0.0012207029999999897,1.5499999523162842,0.27000001072883606,39.81999969482422,0.00439453125,0.0277099609375,0.99993896484375,32.43000030517578,0.0,0.0,0.283447265625,-2.1573944091796875,Waiting,0.0,0.0,-114.0,0.0,0.0,0.0,0.0,0.0,
3.8955380000000006,0.0,0.0,false,4491247.74590164,,7110.0,0.875,0.0,0.0,0.0,0.0,1.8981931650000001,0.0,0.0012207030000004337,-68787.0,0.5,0.0,-0.0,0.0,0.0,2.7429196410000003,0.0,0.0,29562.0,0.75,0.0,0.0,0.0,0.0,4.060058178,0.0,0.0,-46263.0,0.125,0.0,-0.0,0.0,0.0,2.569579815,0.0,0.0012207029999999897,1.5499999523162842,0.27000001072883606,39.81999969482422,0.005859375,0.02490234375,0.9971923828125,32.43000030517578,0.0,0.0,0.283447265625,-2.1573944091796875,Waiting,0.0,0.0,-114.0,0.0,0.0,0.0,0.0,0.0,
3.949693000000003,0.0,0.0,false,4490536.384851586,,7110.0,0.875,0.0,0.0,0.0,0.0,1.8933103530000002,0.0,0.0,-68787.0,0.5,0.0,-0.0,0.0,0.0,2.7453610470000003,0.0,0.0,29562.0,0.75,0.0,0.0,0.0,0.0,4.058837475,0.0,0.0,-46263.0,0.125,0.0,-0.0,0.0,0.0,2.569579815,0.0,0.0,1.5399999618530273,0.2800000011920929,39.810001373291016,0.00390625,0.0262451171875,1.001953125,32.439998626708984,0.0,-1.0,0.283447265625,-2.1573944091796875,Waiting,0.0,0.0,-114.0,0.0,0.0,0.0,0.0,0.0,
3.995671000000002,0.0,0.0,false,4489754.920245399,,7110.0,0.875,0.0,0.0,0.0,0.0,1.8945310560000002,0.0,0.0,-68787.0,0.5,0.0,-0.0,0.0,0.0,2.7441403440000003,0.0,-0.0012207029999999897,29562.0,0.75,0.0,0.0,0.0,0.0,4.058837475,0.0,0.0,-46263.0,0.125,0.0,-0.0,0.0,0.0,2.569579815,0.0,-0.0012207029999999897,1.5399999618530273,0.2800000011920929,39.810001373291016,0.0062255859375,0.0263671875,0.9976806640625,32.439998626708984,0.0,0.0,0.283447265625,-2.1573944091796875,Waiting,0.0,0.0,-114.0,0.0,0.0,0.0,0.0,0.0,
4.047669000000002,0.0,0.0,false,4488903.566905005,,7110.0,0.875,0.0,0.0,0.0,0.0,1.8981931650000001,0.0,0.0,-68787.0,0.5,0.0,-0.0,0.0,0.0,2.7368161260000003,0.0,0.0012207029999999897,29562.0,0.75,0.0,0.0,0.0,0.0,4.057616772,0.0,0.0012207030000004337,-46263.0,0.125,0.0,-0.0,0.0,0.0,2.570800518,0.0,0.0012207029999999897,1.5299999713897705,0.2800000011920929,39.810001373291016,0.00604248046875,0.027587890625,1.0010986328125,32.439998626708984,0.0,1.0,0.283447265625,-2.1573944091796875,Waiting,0.0,0.0,-114.0,0.0,0.0,0.0,0.0,0.0,
4.102205999999998,0.0,0.0,false,4487982.53877551,,7110.0,0.875,0.0,0.0,0.0,0.0,1.907958789,0.0,0.0,-68787.0,0.5,0.0,-0.0,0.0,0.0,2.7441403440000003,0.0,0.0,29562.0,0.75,0.0,0.0,0.0,0.0,4.056396069,0.0,0.0,-46263.0,0.125,0.0,-0.0,0.0,0.0,2.569579815,0.0,0.0,1.5299999713897705,0.27000001072883606,39.810001373291016,0.00457763671875,0.02569580078125,1.00030517578125,32.439998626708984,0.0,0.0,0.283447265625,-2.1573944091796875,Waiting,0.0,0.0,-114.0,0.0,0.0,0.0,0.0,0.0,
4.149584000000003,0.0,0.0,false,4486992.048929663,,7110.0,0.875,0.0,0.0,0.0,0.0,1.8981931650000001,0.0,0.0,-68787.0,0.5,0.0,-0.0,0.0,0.0,2.7453610470000003,0.0,0.0,29562.0,0.75,0.0,0.0,0.0,0.0,4.057616772,0.0,-0.0012207030000004337,-46263.0,0.125,0.0,-0.0,0.0,0.0,2.569579815,0.0,-0.0012207029999999897,1.5299999713897705,0.27000001072883606,39.810001373291016,0.00482177734375,0.02728271484375,0.9990234375,32.439998626708984,0.0,0.0,0.283447265625,-2.1573944091796875,Waiting,0.0,0.0,-114.0,0.0,0.0,0.0,0.0,0.0,
4.1942010000000005,0.0,0.0,false,4485932.309572302,,7110.0,0.875,0.0,0.0,0.0,0.0,1.8676755900000002,0.0,0.0,-68787.0,0.5,0.0,-0.0,0.0,0.0,2.7441403440000003,0.0,-0.0012207029999999897,29562.0,0.75,0.0,0.0,0.0,0.0,4.058837475,0.0,0.0,-46263.0,0.125,0.0,-0.0,0.0,0.0,2.570800518,0.0,0.0012207029999999897,1.5299999713897705,0.2800000011920929,39.810001373291016,0.00433349609375,0.02874755859375,1.00103759765625,32.439998626708984,0.0,0.0,0.283447265625,-2.1573944091796875,Waiting,0.0,0.0,-114.0,0.0,0.0,0.0,0.0,0.0,
4.2479749999999985,0.0,0.0,false,4484766.89318413,,7110.0,0.875,0.0,0.0,0.0,0.0,1.8981931650000001,0.0,0.0,-68787.0,0.5,0.0,-0.0,0.0,0.0,2.7429196410000003,0.0,0.0012207029999999897,29562.0,0.75,0.0,0.0,0.0,0.0,4.057616772,0.0,0.0,-46263.0,0.125,0.0,-0.0,0.0,0.0,2.569579815,0.0,-0.0012207029999999897,1.5299999713897705,0.27000001072883606,39.810001373291016,0.006591796875,0.02490234375,0.99713134765625,32.439998626708984,0.0,0.0,0.283447265625,-2.1573944091796875,Waiting,0.0,0.0,-114.0,0.0,0.0,0.0,0.0,0.0,
4.294520000000004,0.0,0.0,false,4483532.723577236,,7110.0,0.875,0.0,0.0,0.0,0.0,1.8994138680000001,0.0,-0.0012207030000004337,-68787.0,0.5,0.0,-0.0,0.0,0.0,2.7429196410000003,0.0,0.0,29562.0,0.75,0.0,0.0,0.0,0.0,4.057616772,0.0,0.0,-46263.0,0.125,0.0,-0.0,0.0,0.0,2.562255597,0.0,0.0012207029999999897,1.5299999713897705,0.2800000011920929,39.810001373291016,0.00433349609375,0.02484130859375,1.00091552734375,32.439998626708984,0.0,-1.0,0.283447265625,-2.1573944091796875,Waiting,0.0,0.0,-114.0,0.0,0.0,0.0,0.0,0.0,
4.348879000000001,0.0,0.0,false,4482230.010152284,,7110.0,0.875,0.0,0.0,0.0,0.0,1.8981931650000001,0.0,0.0012207030000004337,-68787.0,0.5,0.0,-0.0,0.0,0.0,2.7429196410000003,0.0,0.0,29562.0,0.75,0.0,0.0,0.0,0.0,4.05273396,0.0,0.0012207030000004337,-46263.0,0.125,0.0,-0.0,0.0,0.0,2.565917706,0.0,-0.0012207029999999897,1.5299999713897705,0.2800000011920929,39.79999923706055,0.00537109375,0.0279541015625,0.99835205078125,32.439998626708984,0.0,1.0,0.283447265625,-2.1573944091796875,Waiting,0.0,0.0,-114.0,0.0,0.0,0.0,0.0,0.0,
4.396265,0.0,0.0,false,4480858.961460446,,7110.0,0.875,0.0,0.0,0.0,0.0,1.8981931650000001,0.0,0.0,-68787.0,0.5,0.0,-0.0,0.0,0.0,2.7441403440000003,0.0,0.0,29562.0,0.75,0.0,0.0,0.0,0.0,4.057616772,0.0,0.0,-46263.0,0.125,0.0,-0.0,0.0,0.0,2.569579815,0.0,0.0,1.5399999618530273,0.2800000011920929,39.79999923706055,0.004638671875,0.0250244140625,0.99700927734375,32.439998626708984,0.0,-1.0,0.283447265625,-2.1573944091796875,Waiting,0.0,0.0,-114.0,0.0,0.0,0.0,0.0,0.0,
4.4505040000000005,0.0,0.0,false,4479430.038500506,,7110.0,0.875,0.0,0.0,0.0,0.125,1.8994138680000001,0.0,0.0,-68787.0,0.5,0.0,-0.0,0.0,0.0,2.7441403440000003,0.0,-0.0012207029999999897,29562.0,0.75,0.0,0.0,0.0,0.0,4.05273396,0.0,0.0,-46263.0,0.125,0.0,-0.0,0.0,0.0,2.569579815,0.0,0.0,1.5399999618530273,0.2800000011920929,39.79999923706055,0.0042724609375,0.0289306640625,0.99847412109375,32.41999816894531,0.0,0.0,0.283447265625,-2.1573944091796875,Waiting,0.0,0.0,-114.0,0.0,0.0,0.0,0.0,0.0,
4.511024000000005,0.0,0.0,false,4479913.246963562,,7110.0,0.875,0.0,0.0,0.0,0.0,1.909179492,0.0,0.0,-68787.0,0.5,0.0,-0.0,0.0,0.0,2.7429196410000003,0.0,0.0012207029999999897,29562.0,0.75,0.0,0.0,0.0,0.0,4.057616772,0.0,-0.0012207030000004337,-46263.0,0.125,0.0,-0.0,0.0,0.0,2.569579815,0.0,0.0,1.5399999618530273,0.2800000011920929,39.79999923706055,0.00506591796875,0.024169921875,0.99981689453125,32.41999816894531,0.0,-1.0,0.283447265625,-2.1573944091796875,Waiting,0.0,0.0,-114.0,0.0,0.0,0.0,0.0,0.0,
4.557781000000003,0.0,0.0,false,4480282.402426694,,7110.0,0.875,0.0,0.0,0.0,0.125,1.8994138680000001,0.0,0.0,-68787.0,0.5,0.0,-0.0,0.0,0.0,2.7429196410000003,0.0,-0.0012207029999999897,29562.0,0.75,0.0,0.0,0.0,0.0,4.057616772,0.0,0.0012207030000004337,-46263.0,0.125,0.0,-0.0,0.0,0.0,2.570800518,0.0,0.0012207029999999897,1.5299999713897705,0.2800000011920929,39.79999923706055,0.003662109375,0.02655029296875,1.00250244140625,32.41999816894531,0.0,-1.0,0.283447265625,-2.1573944091796875,Waiting,0.0,0.0,-114.0,0.0,0.0,0.0,0.0,0.0,
4.611190999999999,0.0,0.0,false,4480574.0767676765,,7110.0,0.875,0.0,0.0,0.0,0.0,1.8981931650000001,0.0,0.0,-68787.0,0.5,0.0,-0.0,0.0,0.0,2.7429196410000003,0.0,0.0012207029999999897,29562.0,0.75,0.0,0.0,0.0,0.0,4.055175366,0.0,0.0,-46263.0,0.125,0.0,-0.0,0.0,0.0,2.569579815,0.0,0.0,1.5299999713897705,0.2800000011920929,39.79999923706055,0.00616455078125,0.02874755859375,1.00103759765625,32.41999816894531,0.0,2.0,0.283447265625,-2.1573944091796875,Waiting,0.0,0.0,-114.0,0.0,0.0,0.0,0.0,0.0,
4.6584959999999995,0.0,0.0,false,4480790.700302725,,7110.0,0.875,0.0,0.0,0.0,0.0,1.8945310560000002,0.0,0.0,-68787.0,0.5,0.0,-0.0,0.0,0.0,2.7429196410000003,0.0,-0.0012207029999999897,29562.0,0.75,0.0,0.0,0.0,0.0,4.057616772,0.0,0.0,-46263.0,0.125,0.0,-0.0,0.0,0.0,2.5634763,0.0,0.0,1.5299999713897705,0.2800000011920929,39.790000915527344,0.00567626953125,0.02899169921875,0.99749755859375,32.41999816894531,0.0,1.0,0.283447265625,-2.1573944091796875,Waiting,0.0,0.0,-114.0,0.0,0.0,0.0,0.0,0.0,
4.708277999999998,0.0,0.0,false,4480932.5,,7110.0,0.875,0.0,0.0,0.0,0.0,1.8994138680000001,0.0,0.0,-68787.0,0.5,0.0,-0.0,0.0,0.0,2.7429196410000003,0.0,0.0012207029999999897,29562.0,0.75,0.0,0.0,0.0,0.0,4.057616772,0.0,0.0,-46263.0,0.25,0.0,-0.0,0.0,0.0,2.569579815,0.0,0.0,1.5299999713897705,0.2800000011920929,39.790000915527344,9.765625E-4,0.02587890625,0.99932861328125,32.41999816894531,0.0,-3.0,0.283447265625,-2.1573944091796875,Waiting,0.0,0.0,-114.0,0.0,0.0,0.0,0.0,0.0,
4.755392,0.0,0.0,false,4481035.826787513,,7110.0,0.875,0.0,0.0,0.0,0.0,1.8981931650000001,0.0,0.0,-68787.0,0.5,0.0,-0.0,0.0,0.0,2.7429196410000003,0.0,-0.0012207029999999897,29562.0,0.75,0.0,0.0,0.0,0.0,4.057616772,0.0,-0.0012207030000004337,-46263.0,0.125,0.0,-0.0,0.0,0.0,2.567138409,0.0,0.0,1.5299999713897705,0.2800000011920929,39.790000915527344,0.005859375,0.02490234375,1.0020751953125,32.41999816894531,0.0,0.0,0.283447265625,-2.1573944091796875,Waiting,0.0,0.0,-114.0,0.0,0.0,0.0,0.0,0.0,
4.807455000000002,0.0,0.0,false,4481064.587525151,,7110.0,0.875,0.0,0.0,0.0,0.0,1.8981931650000001,0.0,0.0,-68787.0,0.5,0.0,-0.0,0.0,0.0,2.7502438590000002,0.0,0.0,29562.0,0.75,0.0,0.0,0.0,0.0,4.057616772,0.0,0.0012207030000004337,-46263.0,0.125,0.0,-0.0,0.0,0.0,2.570800518,0.0,-0.0012207029999999897,1.5399999618530273,0.2800000011920929,39.779998779296875,0.00628662109375,0.02813720703125,1.00048828125,32.41999816894531,0.0,1.0,0.283447265625,-2.1573944091796875,Waiting,0.0,0.0,-114.0,0.0,0.0,0.0,0.0,0.0,
4.854586000000003,0.0,0.0,false,4481019.127638191,,7110.0,0.875,0.0,0.0,0.0,0.0,1.8933103530000002,0.0,-0.0012207030000004337,-68787.0,0.5,0.0,-0.0,0.0,0.0,2.7441403440000003,0.0,0.0012207029999999897,29562.0,0.75,0.0,0.0,0.0,0.0,4.060058178,0.0,-0.0012207030000004337,-46263.0,0.25,0.0,-0.0,0.0,0.0,2.569579815,0.0,0.0012207029999999897,1.5399999618530273,0.2800000011920929,39.779998779296875,0.00238037109375,0.02691650390625,0.99755859375,32.41999816894531,0.0,-1.0,0.283447265625,-2.1573944091796875,Waiting,0.0,0.0,-114.0,0.0,0.0,0.0,0.0,0.0,
4.910072,0.0,0.0,false,4480899.542168675,,7110.0,0.875,0.0,0.0,0.0,0.0,1.8994138680000001,0.0,0.0012207030000004337,-68787.0,0.5,0.0,-0.0,0.0,0.0,2.7429196410000003,0.0,0.0,29562.0,0.75,0.0,0.0,0.0,0.0,4.058837475,0.0,0.0012207030000004337,-46263.0,0.125,0.0,-0.0,0.0,0.0,2.569579815,0.0,-0.0012207029999999897,1.5399999618530273,0.2800000011920929,39.779998779296875,0.0042724609375,0.02471923828125,1.001708984375,32.41999816894531,0.0,-1.0,0.283447265625,-2.1573944091796875,Waiting,0.0,0.0,-114.0,0.0,0.0,0.0,0.0,0.0,
4.953193,0.0,0.0,false,4480706.182547643,,7110.0,0.875,0.0,0.0,0.0,0.0,1.8969724620000001,0.0,0.0,-68787.0,0.5,0.0,-0.0,0.0,0.0,2.7429196410000003,0.0,-0.0012207029999999897,29562.0,0.75,0.0,0.0,0.0,0.0,4.057616772,0.0,-0.0012207030000004337,-46263.0,0.125,0.0,-0.0,0.0,0.0,2.564697003,0.0,0.0012207029999999897,1.5399999618530273,0.2800000011920929,39.779998779296875,0.005615234375,0.02484130859375,0.99981689453125,32.41999816894531,0.0,0.0,0.283447265625,-2.1573944091796875,Waiting,0.0,0.0,-114.0,0.0,0.0,0.0,0.0,0.0,
5.0078100000000045,0.0,0.0,false,4480439.270541082,,7110.0,0.875,0.0,0.0,0.0,0.0,1.8994138680000001,0.0,0.0012207029999995456,-68787.0,0.5,0.0,-0.0,0.0,0.0,2.7429196410000003,0.0,0.0012207029999999897,29562.0,0.75,0.0,0.0,0.0,0.0,4.057616772,0.0,0.0012207030000004337,-46263.0,0.125,0.0,-0.0,0.0,0.0,2.573241924,0.0,-0.0012207029999999897,1.5299999713897705,0.2800000011920929,39.779998779296875,0.00347900390625,0.028564453125,0.99737548828125,32.400001525878906,0.0,0.0,0.283447265625,-2.1573944091796875,Waiting,0.0,0.0,-114.0,0.0,0.0,0.0,0.0,0.0,
5.0537969999999985,0.0,0.0,false,4480099.027027027,,7110.0,0.875,0.0,0.0,0.0,0.0,1.8981931650000001,0.0,-0.0012207029999995456,-68787.0,0.5,0.0,-0.0,0.0,0.0,2.7380368290000003,0.0,0.0,29562.0,0.75,0.0,0.0,0.0,0.0,4.061278881,0.0,-0.0012207030000004337,-46263.0,0.125,0.0,-0.0,0.0,0.0,2.569579815,0.0,0.0012207029999999897,1.5299999713897705,0.2800000011920929,39.779998779296875,0.00653076171875,0.02490234375,1.00347900390625,32.400001525878906,0.0,0.0,0.283447265625,-2.1573944091796875,Waiting,0.0,0.0,-114.0,0.0,0.0,0.0,0.0,0.0,
5.100891000000003,0.0,0.0,false,4479685.672,,7110.0,0.875,0.0,0.0,0.0,0.125,1.8994138680000001,0.0,0.0,-68787.0,0.5,0.0,-0.0,0.0,0.0,2.7441403440000003,0.0,0.0,29562.0,0.75,0.0,0.0,0.0,0.0,4.057616772,0.0,0.0012207030000004337,-46263.0,0.125,0.0,-0.0,0.0,0.0,2.570800518,0.0,0.0,1.5299999713897705,0.2800000011920929,39.779998779296875,0.00579833984375,0.02825927734375,0.9979248046875,32.400001525878906,0.0,1.0,0.283447265625,-2.1573944091796875,Waiting,0.0,0.0,-114.0,0.0,0.0,0.0,0.0,0.0,
5.154041000000005,0.0,0.0,false,4479199.424575425,,7110.0,0.875,0.0,0.0,0.0,0.125,1.8981931650000001,0.0,0.0,-68787.0,0.5,0.0,-0.0,0.0,0.0,2.7441403440000003,0.0,0.0,29562.0,0.75,0.0,0.0,0.0,0.0,4.058837475,0.0,0.0,-46263.0,0.125,0.0,-0.0,0.0,0.0,2.569579815,0.0,-0.0012207029999999897,1.5299999713897705,0.2800000011920929,39.779998779296875,0.0057373046875,0.02655029296875,0.99542236328125,32.400001525878906,0.0,0.0,0.283447265625,-2.1573944091796875,Waiting,0.0,0.0,-114.0,0.0,0.0,0.0,0.0,0.0,
5.207307000000001,0.0,0.0,false,4478640.502994012,,7110.0,0.875,0.0,0.0,0.0,0.0,1.8981931650000001,0.0,0.0,-68787.0,0.5,0.0,-0.0,0.0,0.0,2.7441403440000003,0.0,0.0,29562.0,0.75,0.0,0.0,0.0,0.0,4.058837475,0.0,-0.0012207030000004337,-46263.0,0.125,0.0,-0.0,0.0,0.0,2.569579815,0.0,0.0012207029999999897,1.5299999713897705,0.2800000011920929,39.77000045776367,0.00360107421875,0.025390625,0.99853515625,32.400001525878906,0.0,-1.0,0.283447265625,-2.1573944091796875,Waiting,0.0,0.0,-114.0,0.0,0.0,0.0,0.0,0.0,
5.251834000000002,0.0,0.0,false,4478009.1246261215,,7110.0,0.875,0.0,0.0,0.0,0.0,1.8969724620000001,0.0,0.0,-68787.0,0.5,0.0,-0.0,0.0,0.0,2.7416989380000003,0.0,0.0,29562.0,0.75,0.0,0.0,0.0,0.0,4.057616772,0.0,0.0,-46263.0,0.25,0.0,-0.0,0.0,0.0,2.569579815,0.0,-0.0012207029999999897,1.5299999713897705,0.2800000011920929,39.77000045776367,0.00555419921875,0.0274658203125,0.99639892578125,32.400001525878906,0.0,0.0,0.283447265625,-2.1573944091796875,Waiting,0.0,0.0,-114.0,0.0,0.0,0.0,0.0,0.0,
5.306558000000004,0.0,0.0,false,4477303.466135458,,7110.0,0.875,0.0,0.0,0.0,0.0,1.8981931650000001,0.0,0.0,-68787.0,0.5,0.0,-0.0,0.0,0.0,2.7429196410000003,0.0,0.0,29562.0,0.75,0.0,0.0,0.0,0.0,4.056396069,0.0,0.0012207030000004337,-46263.0,0.25,0.0,-0.0,0.0,0.0,2.569579815,0.0,0.0,1.5299999713897705,0.28999999165534973,39.77000045776367,0.00958251953125,0.0283203125,1.00244140625,32.400001525878906,0.0,4.0,0.283447265625,-2.1573944091796875,Waiting,0.0,0.0,-114.0,0.0,0.0,0.0,0.0,0.0,
5.351607000000004,0.0,0.0,false,4476525.787064676,,7110.0,0.875,0.0,0.0,0.0,0.0,1.8957517590000001,0.0,0.0,-68787.0,0.5,0.0,-0.0,0.0,0.0,2.7404782350000003,0.0,0.0,29562.0,0.75,0.0,0.0,0.0,0.0,4.055175366,0.0,0.0,-46263.0,0.25,0.0,-0.0,0.0,0.0,2.570800518,0.0,0.0,1.5299999713897705,0.28999999165534973,39.77000045776367,0.0074462890625,0.02593994140625,1.0,32.400001525878906,0.0,1.0,0.283447265625,-2.1573944091796875,Waiting,0.0,0.0,-114.0,0.0,0.0,0.0,0.0,0.0,
5.395204000000005,0.0,0.0,false,4475676.302186878,,7110.0,0.875,0.0,0.0,0.0,0.0,1.8994138680000001,0.0,0.0,-68787.0,0.5,0.0,-0.0,0.0,0.0,2.7416989380000003,0.0,-0.0012207029999999897,29562.0,0.75,0.0,0.0,0.0,0.0,4.045409742,0.0,-0.0012207030000004337,-46263.0,0.125,0.0,-0.0,0.0,0.0,2.570800518,0.0,0.0012207029999999897,1.5299999713897705,0.28999999165534973,39.77000045776367,0.00665283203125,0.02935791015625,1.00006103515625,32.400001525878906,0.0,2.0,0.283447265625,-2.1573944091796875,Waiting,0.0,0.0,-114.0,0.0,0.0,0.0,0.0,0.0,
5.450912000000004,0.0,0.0,false,4474755.225422045,,7110.0,0.875,0.0,0.0,0.0,0.0,1.8981931650000001,0.0,0.0,-68787.0,0.5,0.0,-0.0,0.0,0.0,2.7429196410000003,0.0,0.0012207029999999897,29562.0,0.75,0.0,0.0,0.0,0.0,4.057616772,0.0,0.0,-46263.0,0.125,0.0,-0.0,0.0,0.0,2.570800518,0.0,-0.0012207029999999897,1.5399999618530273,0.28999999165534973,39.7599983215332,0.00567626953125,0.02520751953125,0.99847412109375,32.400001525878906,0.0,0.0,0.283447265625,-2.1573944091796875,Waiting,0.0,0.0,-114.0,0.0,0.0,0.0,0.0,0.0,
5.503854,0.0,0.0,false,4473762.76984127,,7110.0,0.875,0.0,0.0,0.0,0.0,1.901855274,0.0,0.0,-68787.0,0.5,0.0,-0.0,0.0,0.0,2.7429196410000003,0.0,0.0,29562.0,0.75,0.0,0.0,0.0,0.0,4.057616772,0.0,0.0012207030000004337,-46263.0,0.125,0.0,-0.0,0.0,0.0,2.570800518,0.0,0.0,1.5399999618530273,0.28999999165534973,39.7599983215332,0.0023193359375,0.02520751953125,1.00201416015625,32.41999816894531,0.0,-3.0,0.283447265625,-2.1573944091796875,Waiting,0.0,0.0,-114.0,0.0,0.0,0.0,0.0,0.0,
5.5554809999999994,0.0,0.0,false,4472699.115956392,,7110.0,0.875,0.0,0.0,0.0,0.0,1.8981931650000001,0.0,-0.0012207030000004337,-68787.0,0.5,0.0,-0.0,0.0,0.0,2.7429196410000003,0.0,0.0,29562.0,0.75,0.0,0.0,0.0,0.0,4.057616772,0.0,-0.0012207030000004337,-46263.0,0.25,0.0,-0.0,0.0,0.0,2.570800518,0.0,0.0012207029999999897,1.5399999618530273,0.28999999165534973,39.7599983215332,0.005126953125,0.0264892578125,0.99853515625,32.41999816894531,0.0,0.0,0.283447265625,-2.1573944091796875,Waiting,0.0,0.0,-114.0,0.0,0.0,0.0,0.0,0.0,
5.60889,0.0,0.0,false,4471564.506930693,,7110.0,0.875,0.0,0.0,0.0,0.0,1.8981931650000001,0.0,0.0012207030000004337,-68787.0,0.5,0.0,-0.0,0.0,0.0,2.7392575320000003,0.0,0.0,29562.0,0.75,0.0,0.0,0.0,0.0,4.057616772,0.0,0.0,-46263.0,0.125,0.0,-0.0,0.0,0.0,2.5634763,0.0,0.0,1.5399999618530273,0.28999999165534973,39.7599983215332,0.0064697265625,0.02703857421875,1.00286865234375,32.41999816894531,0.0,1.0,0.283447265625,-2.1573944091796875,Waiting,0.0,0.0,-114.0,0.0,0.0,0.0,0.0,0.0,
5.654474999999999,0.0,0.0,false,4470357.127596439,,7110.0,2.0,0.0,570.9375,0.0,1.375,1.8994138680000001,1.2410000000000012,0.0,-68787.0,1.125,0.0,-570.9375,0.0,3.75,2.7478024530000003,1.237250000000001,0.0,29562.0,2.625,15.0,570.9375,0.0,6.375,4.134521061,1.2385000000000013,0.0,-46263.0,1.125,-7.5,-570.9375,0.0,7.375,2.5842282510000003,1.236875000000001,0.0,1.5399999618530273,0.3100000023841858,39.7599983215332,0.107177734375,0.0029296875,0.990478515625,32.41999816894531,0.0,63.0,0.2834930419921875,-2.1574554443359375,Waiting,0.0,0.0,-114.0,0.0,0.0,0.0,0.0,0.0,
5.706629,0.0,0.0,false,4469079.217391305,,7110.0,4.0,15.0,-1251.8368924067013,0.0,6.25,2.076415803,3.899790768544262,0.0,-68787.0,2.5,-90.0,1251.8368924067013,0.0,9.5,2.928466497,3.888006549864132,0.0,29562.0,3.5,60.0,-1251.8368924067013,0.0,12.375,4.302978075,3.8919346227575087,0.0,-46263.0,2.375,-45.0,1251.8368924067013,0.0,11.875,2.775878622,3.886828127996119,0.0,1.5399999618530273,0.550000011920929,39.65999984741211,2.44140625E-4,-0.13885498046875,0.905029296875,32.41999816894531,0.0,-110.0,0.2845001220703125,-2.158111572265625,Waiting,0.0,0.0,-114.0,0.0,0.0,0.0,0.0,0.0,
5.753158999999999,0.0,0.0,false,4467730.985192497,,7089.0,4.125,-82.5,1318.481644655237,0.0,14.25,1.874999808,1.4331248787314068,0.0,-68798.0,5.5,-112.5,-1318.481644655237,0.0,10.375,2.828368851,1.4287943241018797,0.0,29551.0,4.5,-15.0,1318.481644655237,0.0,12.0,4.145507388,1.4302378423117221,0.0,-46252.0,3.5,60.0,-1318.481644655237,0.0,10.75,2.6342770740000003,1.428361268638927,0.0,1.5399999618530273,0.05000000074505806,39.75,0.496337890625,0.27001953125,1.2239990234375,32.41999816894531,0.0,532.0,0.285552978515625,-2.1590118408203125,Waiting,0.0,0.0,-114.0,0.0,0.0,0.0,0.0,0.0,
5.820864000000001,0.0,0.0,false,4468253.475345167,,7089.0,5.625,127.5,-1337.5982731229615,0.0,7.75,2.24609352,3.912324863472117,-0.10620116100000043,-68798.0,6.875,-202.5,1337.5982731229615,0.0,15.25,3.013915707,3.9005027698073134,0.0,29551.0,8.875,105.0,-1337.5982731229615,0.0,8.75,4.490966337000001,3.904443467695581,0.0,-46252.0,5.75,-45.0,1337.5982731229615,0.0,13.25,2.728271205,3.899320560440833,0.0,1.7100000381469727,1.059999942779541,39.63999938964844,-0.185791015625,-0.0052490234375,0.82427978515625,32.41999816894531,0.0,-173.0,0.2895965576171875,-2.16143798828125,Waiting,0.0,0.0,-114.0,0.0,0.0,0.0,0.0,0.0,
5.871431000000004,0.0,0.0,false,4468692.1931034485,,7111.0,4.125,142.5,1356.7312292944312,0.0,11.625,2.341308354,1.4276037878347454,0.36376949400000047,-68815.0,5.125,-120.0,-1356.7312292944312,0.0,5.625,2.613525123,1.4232899165983388,0.0,29562.0,5.75,22.5,1356.7312292944312,0.0,11.375,4.536132348000001,1.4247278736771412,0.35034176100000014,-46261.0,5.75,-75.0,1356.7312292944312,0.0,3.0,2.366943117,3.896608529474698,0.0,1.690000057220459,0.2800000011920929,39.65999984741211,-0.075927734375,0.0662841796875,1.04437255859375,32.41999816894531,0.0,-39.0,0.293060302734375,-2.1630706787109375,Waiting,0.0,0.0,-113.0,0.0,7.5,0.0,0.0,0.0,
5.929887999999999,0.0,0.0,false,4469055.448818898,,7111.0,7.375,120.0,1371.8822187037902,0.0,12.75,2.357177493,1.460942872630202,0.0,-68815.0,6.5,-112.5,1371.8822187037902,0.0,9.25,2.493896229,3.9310282587926806,0.0,29562.0,16.125,180.0,1371.8822187037902,0.0,10.0,4.594726092,1.4579997967385212,0.0,-46261.0,8.625,135.0,1371.8822187037902,0.0,1.125,2.0129392470000003,3.9298367974089286,0.0,2.0899999141693115,0.699999988079071,39.22999954223633,0.16845703125,0.105712890625,0.78570556640625,32.41999816894531,0.0,171.0,0.298858642578125,-2.1655120849609375,Waiting,0.0,0.0,-113.0,0.0,0.0,0.0,0.0,0.0,
5.984919000000001,0.0,0.0,false,4469341.32546706,,7193.0,13.625,465.0,1439.4924029283516,0.0,2.25,2.663573946,1.5073858069826336,0.0,-68827.0,4.0,-75.0,1439.4924029283516,0.0,10.25,2.5927731720000002,3.9773308538994865,-0.052490229,29630.0,21.125,382.5,1439.4924029283516,0.0,2.25,4.909667466,1.504349171593869,0.0,-46254.0,12.5,67.5,1439.4924029283516,0.0,1.125,1.7114256060000002,3.976125358591172,0.0,1.9199999570846558,0.6100000143051147,38.59000015258789,-0.19268798828125,0.16790771484375,1.5089111328125,32.41999816894531,0.0,-90.0,0.3038787841796875,-2.166595458984375,Waiting,0.0,0.0,-113.0,0.0,0.0,0.0,0.0,0.0,
6.032488000000005,0.0,0.0,false,4469552.188605108,,7193.0,14.625,390.0,1467.6625292171627,0.0,1.375,3.020019222,1.5477226115929006,0.0,-68827.0,7.75,157.5,1467.6625292171627,0.0,1.75,2.302245858,4.017545770502269,0.0,29630.0,29.5,262.5,1467.6625292171627,0.0,1.375,0.29663082900000004,1.5446047175324795,0.0,-46254.0,24.0,172.5,1467.6625292171627,0.0,0.0,1.520995938,4.016328086393206,0.0,2.140000104904175,0.25999999046325684,38.11000061035156,-0.27825927734375,0.21124267578125,0.7100830078125,32.41999816894531,0.0,-107.0,0.3074493408203125,-2.16741943359375,Waiting,0.0,0.0,-113.0,0.0,0.0,0.0,0.0,0.0,
6.088601000000002,0.0,0.0,false,4469686.233562316,,7193.0,21.5,322.5,1483.1404147366902,0.0,0.875,3.232421544,1.5672909755115283,0.0,-68827.0,8.5,172.5,1483.1404147366902,0.0,2.25,2.094726348,4.037055003587138,0.0,29695.0,33.625,262.5,1483.1404147366902,0.0,0.75,0.490722606,1.564133660895268,0.0,-46209.0,26.875,247.5,1483.1404147366902,0.0,0.0,1.4648436,4.035831406394699,0.0,2.4200000762939453,0.07000000029802322,37.849998474121094,-0.04052734375,-0.03167724609375,0.85760498046875,32.41999816894531,0.0,-74.0,0.3093719482421875,-2.1652679443359375,Waiting,0.0,0.0,-113.0,0.0,0.0,0.0,0.0,0.0,
6.134156999999999,0.0,0.0,false,4469745.592156863,,7242.0,27.875,307.5,1491.2151889237443,0.0,0.5,3.350829735,1.576919868120008,0.0,-68794.0,10.625,285.0,1491.2151889237443,0.0,1.625,1.932372849,4.046654800025366,0.0,29695.0,22.0,555.0,1491.2151889237443,0.0,0.375,0.612792906,1.5737431560569135,0.0,-46209.0,31.125,292.5,1491.2151889237443,0.0,0.0,1.4233396980000002,4.0454282932159025,0.0,2.799999952316284,-0.09000000357627869,37.36000061035156,-0.3736572265625,0.4547119140625,0.90765380859375,32.41999816894531,0.0,-46.0,0.312957763671875,-2.16119384765625,Waiting,0.0,0.0,-113.0,0.0,0.0,0.0,0.0,0.0,
6.184440000000002,0.0,0.0,false,4469730.6013712045,,7242.0,32.125,397.5,1499.5090663121598,0.0,0.25,3.3740230920000003,1.5864436465489025,0.0,-68794.0,11.375,465.0,1499.5090663121598,0.0,0.125,1.8151853610000002,4.056149799913481,-0.14038084499999925,29695.0,9.875,1470.0,1499.5090663121598,0.0,0.0,0.655517511,1.5832477487919545,0.0,-46209.0,39.625,420.0,1499.5090663121598,0.0,0.0,1.429443213,4.0549204152499385,0.0,3.4000000953674316,-0.1899999976158142,36.93000030517578,-0.31451416015625,0.9036865234375,0.39385986328125,32.41999816894531,0.0,278.0,0.3187103271484375,-2.1514892578125,Waiting,0.0,0.0,-113.0,0.0,0.0,0.0,0.0,0.0,
