Time,ClimberA1,ClimberA2,FRpos,FRCurrent,FRspeed,FRsetpoint,FRApos,FRACurrent,FREncpos,FREncSetpoint,FREncSpeed,FLpos,FLCurrent,FLspeed,FLsetpoint,FLApos,FLACurrent,FLEncpos,FLEncSetpoint,FLEncSpeed,BRpos,BRCurrent,BRspeed,BRsetpoint,BRApos,BRACurrent,BREncpos,BREncSetpoint,BREncSpeed,BLpos,BLCurrent,BLspeed,BLsetpoint,BLApos,BLACurrent,BLEncpos,BLEncSetpoint,BLEncSpeed,navx_Pitch,navx_Roll,navx_Yaw,navx_XAcc,navx_YAcc,navx_ZAcc,navx_Temp,navx_Bar,navx_Alt,navx_XDis,navx_YDis,GearPlacerState,ShootOutputV,ShootOutputCurrent,ShootEncPos,ShootEncVelocity,ShootSpeed,ShootSetpoint,CarouselSetpoint,CarouselCurrent,
0.1882039999999688,0.0,0.0,6756.0,0.0,0.0,0.0,0.0,0.0,0.8154296040000001,0.01,0.0,1060.0,0.0,0.0,-0.0,0.0,0.0,0.496826121,0.01,0.0,4575.0,0.0,0.0,0.0,0.0,0.0,3.3801266070000002,0.01,0.0,-2942.0,0.0,0.0,-0.0,0.0,0.0,1.614990069,0.01,0.0,0.10999999940395355,-0.25,-7.309999942779541,-0.00634765625,0.00250244140625,1.0289306640625,29.239999771118164,0.0,-1.0,-0.293914794921875,2.070068359375,Closing,0.0,0.0,0.0,0.0,0.0,0.0,0.0,0.0,
0.2632399999999907,0.0,0.0,6756.0,0.0,0.0,0.0,0.0,0.0,0.8166503070000001,0.01,0.0,1060.0,0.0,0.0,-0.0,0.0,0.0,0.496826121,0.01,0.0,4575.0,0.0,0.0,0.0,0.0,0.125,3.3801266070000002,0.01,0.0,-2942.0,0.0,0.0,-0.0,0.0,0.125,1.6088865540000001,0.01,0.0,0.10999999940395355,-0.25999999046325684,-7.309999942779541,-0.00445556640625,0.00360107421875,1.02996826171875,29.239999771118164,0.0,0.0,-0.293914794921875,2.070068359375,Closing,0.0,0.0,0.0,0.0,0.0,0.0,0.0,0.0,
0.36239600000000793,0.0,0.0,6756.0,0.0,0.0,0.0,0.0,0.0,0.8154296040000001,0.01,0.0,1060.0,0.0,0.0,-0.0,0.0,0.0,0.496826121,0.01,0.0,4575.0,0.0,0.0,0.0,0.0,0.125,3.3801266070000002,0.01,0.0,-2942.0,0.0,0.0,-0.0,0.0,0.125,1.613769366,0.01,0.0,0.10999999940395355,-0.25,-7.320000171661377,-0.00640869140625,0.0018310546875,1.02197265625,29.239999771118164,0.0,-1.0,-0.293914794921875,2.070068359375,Closing,0.0,0.0,0.0,0.0,0.0,0.0,0.0,0.0,
0.4516560000000172,0.0,0.0,6756.0,0.0,0.0,0.0,0.0,0.0,0.8166503070000001,0.01,0.0,1060.0,0.0,0.0,-0.0,0.0,0.0,0.496826121,0.01,0.0,4575.0,0.0,0.0,0.0,0.0,0.125,3.38134731,0.01,0.0,-2942.0,0.0,0.0,-0.0,0.0,0.125,1.613769366,0.01,0.0,0.10999999940395355,-0.25999999046325684,-7.320000171661377,-0.00494384765625,0.0018310546875,1.02264404296875,29.239999771118164,0.0,0.0,-0.293914794921875,2.070068359375,Closing,0.0,0.0,0.0,0.0,0.0,0.0,0.0,0.0,
0.5547160000000149,0.0,0.0,6756.0,0.0,0.0,0.0,0.0,0.0,0.8154296040000001,0.01,0.0,1060.0,0.0,0.0,-0.0,0.0,0.0,0.496826121,0.01,0.0,4575.0,0.0,0.0,0.0,0.0,0.125,3.38134731,0.01,0.0,-2942.0,0.0,0.0,-0.0,0.0,0.125,1.613769366,0.01,0.0,0.10999999940395355,-0.25999999046325684,-7.320000171661377,-0.0057373046875,0.00390625,1.02264404296875,29.239999771118164,0.0,-1.0,-0.293914794921875,2.070068359375,Closing,0.0,0.0,0.0,0.0,0.0,0.0,0.0,0.0,
0.6339949999999953,0.0,0.0,6756.0,0.0,0.0,0.0,0.0,0.0,0.8154296040000001,0.01,0.0,1060.0,0.0,0.0,-0.0,0.0,0.0,0.496826121,0.01,0.0,4575.0,0.0,0.0,0.0,0.0,0.125,3.3801266070000002,0.01,0.0,-2942.0,0.0,0.0,-0.0,0.0,0.125,1.616210772,0.01,0.0012207029999995456,0.10999999940395355,-0.25999999046325684,-7.320000171661377,-0.00701904296875,6.7138671875E-4,1.0250244140625,29.209999084472656,0.0,-2.0,-0.293914794921875,2.070068359375,Closing,0.0,0.0,0.0,0.0,0.0,0.0,0.0,0.0,
0.7144309999999823,0.0,0.0,6756.0,0.0,0.0,0.0,0.0,0.0,0.8154296040000001,0.01,0.0,1060.0,0.0,0.0,-0.0,0.0,0.0,0.496826121,0.01,0.0,4575.0,0.0,0.0,0.0,0.0,0.125,3.38134731,0.01,0.0,-2942.0,0.0,0.0,-0.0,0.0,0.125,1.614990069,0.01,0.0,0.10999999940395355,-0.25999999046325684,-7.320000171661377,-0.00506591796875,1.8310546875E-4,1.0238037109375,29.209999084472656,0.0,0.0,-0.293914794921875,2.070068359375,Closing,0.0,0.0,0.0,0.0,0.0,0.0,0.0,0.0,
0.804420999999973,0.0,0.0,6756.0,0.0,0.0,0.0,0.0,0.0,0.8154296040000001,0.01,0.0,1060.0,0.0,0.0,-0.0,0.0,0.0,0.496826121,0.01,0.0,4575.0,0.0,0.0,0.0,0.0,0.125,3.382568013,0.01,0.0,-2942.0,0.0,0.0,-0.0,0.0,0.125,1.614990069,0.01,0.0,0.10999999940395355,-0.25,-7.320000171661377,-0.00390625,0.0035400390625,1.0294189453125,29.209999084472656,0.0,0.0,-0.293914794921875,2.070068359375,Closing,0.0,0.0,0.0,0.0,0.0,0.0,0.0,0.0,
0.8900729999999748,0.0,0.0,6756.0,0.0,0.0,0.0,0.0,0.0,0.8154296040000001,0.01,0.0,1060.0,0.0,0.0,-0.0,0.0,0.0,0.496826121,0.01,0.0,4575.0,0.0,0.0,0.0,0.0,0.125,3.38134731,0.01,-0.0012207029999999897,-2942.0,0.0,0.0,-0.0,0.0,0.125,1.614990069,0.01,0.0,0.10999999940395355,-0.25999999046325684,-7.309999942779541,-0.0052490234375,5.4931640625E-4,1.02685546875,29.209999084472656,0.0,0.0,-0.293914794921875,2.070068359375,Closing,0.0,0.0,0.0,0.0,0.0,0.0,0.0,0.0,
0.9731010000000242,0.0,0.0,6756.0,0.0,0.0,0.0,0.0,0.0,0.8154296040000001,0.01,0.0,1060.0,0.0,0.0,-0.0,0.0,0.0,0.496826121,0.01,0.0,4575.0,0.0,0.0,0.0,0.0,0.125,3.38134731,0.01,0.0,-2942.0,0.0,0.0,-0.0,0.0,0.125,1.613769366,0.01,0.0,0.10999999940395355,-0.25999999046325684,-7.309999942779541,-0.00433349609375,0.00299072265625,1.0262451171875,29.209999084472656,0.0,0.0,-0.293914794921875,2.070068359375,Closing,0.0,0.0,0.0,0.0,0.0,0.0,0.0,0.0,
1.0463790000000153,0.0,0.0,6756.0,0.0,0.0,0.0,0.0,0.0,0.8154296040000001,0.01,0.0,1060.0,0.0,0.0,-0.0,0.0,0.0,0.495605418,0.01,0.0,4575.0,0.0,0.0,0.0,0.0,0.125,3.38134731,0.01,0.0,-2942.0,0.0,0.0,-0.0,0.0,0.125,1.6088865540000001,0.01,0.0,0.10999999940395355,-0.25999999046325684,-7.309999942779541,-0.0030517578125,6.103515625E-5,1.02703857421875,29.209999084472656,0.0,1.0,-0.293914794921875,2.070068359375,Closing,0.0,0.0,0.0,0.0,0.0,0.0,0.0,0.0,
1.1197239999999875,0.0,0.0,6756.0,0.0,0.0,0.0,0.0,0.0,0.8154296040000001,0.01,0.0,1060.0,0.0,0.0,-0.0,0.0,0.0,0.496826121,0.01,0.0,4575.0,0.0,0.0,0.0,0.0,0.125,3.38134731,0.01,0.0,-2942.0,0.0,0.0,-0.0,0.0,0.125,1.6101072570000001,0.01,0.0,0.10999999940395355,-0.25,-7.309999942779541,-0.0042724609375,0.00341796875,1.02691650390625,29.239999771118164,0.0,0.0,-0.293914794921875,2.070068359375,Closing,0.0,0.0,0.0,0.0,0.0,0.0,0.0,0.0,
1.2060599999999977,0.0,0.0,6756.0,0.0,0.0,0.0,0.0,0.0,0.8166503070000001,0.01,0.0,1060.0,0.0,0.0,-0.0,0.0,0.0,0.496826121,0.01,0.0,4575.0,0.0,0.0,0.0,0.0,0.125,3.3801266070000002,0.01,0.0,-2942.0,0.0,0.0,-0.0,0.0,0.125,1.6088865540000001,0.01,0.0012207030000004337,0.10999999940395355,-0.25,-7.309999942779541,-0.0059814453125,6.103515625E-5,1.0250244140625,29.239999771118164,0.0,-1.0,-0.293914794921875,2.070068359375,Closing,0.0,0.0,0.0,0.0,0.0,0.0,0.0,0.0,
1.2957490000000107,0.0,0.0,6756.0,0.0,0.0,0.0,0.0,0.0,0.8154296040000001,0.01,0.0,1060.0,0.0,0.0,-0.0,0.0,0.0,0.496826121,0.01,0.0,4575.0,0.0,0.0,0.0,0.0,0.125,3.38134731,0.01,0.0,-2942.0,0.0,0.0,-0.0,0.0,0.125,1.614990069,0.01,0.0,0.10999999940395355,-0.25999999046325684,-7.309999942779541,-0.0069580078125,0.00384521484375,1.028076171875,29.239999771118164,0.0,-2.0,-0.293914794921875,2.070068359375,Closing,0.0,0.0,0.0,0.0,0.0,0.0,0.0,0.0,
1.3930160000000034,0.0,0.0,6756.0,0.0,0.0,0.0,0.0,0.0,0.8154296040000001,0.01,0.0,1060.0,0.0,0.0,-0.0,0.0,0.0,0.496826121,0.01,0.0,4575.0,0.0,0.0,0.0,0.0,0.125,3.38134731,0.01,0.0,-2942.0,0.0,0.0,-0.0,0.0,0.125,1.6101072570000001,0.01,-0.0024414059999999793,0.10999999940395355,-0.25999999046325684,-7.300000190734863,-0.0048828125,1.8310546875E-4,1.0262451171875,29.239999771118164,0.0,0.0,-0.293914794921875,2.070068359375,Closing,0.0,0.0,0.0,0.0,0.0,0.0,0.0,0.0,
1.471657999999996,0.0,0.0,6756.0,0.0,0.0,0.0,0.0,0.0,0.8154296040000001,0.01,0.0,1060.0,0.0,0.0,-0.0,0.0,0.0,0.496826121,0.01,0.0,4575.0,0.0,0.0,0.0,0.0,0.125,3.3801266070000002,0.01,0.0,-2942.0,0.0,0.0,-0.0,0.0,0.125,1.614990069,0.01,0.0,0.10999999940395355,-0.25999999046325684,-7.300000190734863,-0.00262451171875,0.0023193359375,1.02215576171875,29.239999771118164,0.0,2.0,-0.293914794921875,2.070068359375,Closing,0.0,0.0,0.0,0.0,0.0,0.0,0.0,0.0,
1.5631010000000243,0.0,0.0,6756.0,0.0,0.0,0.0,0.0,0.0,0.8166503070000001,0.01,0.0,1060.0,0.0,0.0,-0.0,0.0,0.0,0.496826121,0.01,0.0,4575.0,0.0,0.0,0.0,0.0,0.125,3.38134731,0.01,0.0,-2942.0,0.0,0.0,-0.0,0.0,0.125,1.614990069,0.01,0.0,0.12999999523162842,-0.25999999046325684,-7.300000190734863,-0.00872802734375,0.0106201171875,1.0068359375,29.239999771118164,0.0,-5.0,-0.293914794921875,2.0701904296875,Closing,0.0,0.0,0.0,0.0,0.0,0.0,0.0,0.0,
1.6523829999999726,3.0,2.875,6756.0,0.0,0.0,0.0,0.0,0.0,0.8166503070000001,0.01,0.0,1060.0,0.0,0.0,-0.0,0.0,0.0,0.496826121,0.01,0.0,4575.0,0.0,0.0,0.0,0.0,0.125,3.38134731,0.01,0.0,-2942.0,0.0,0.0,-0.0,0.0,0.125,1.616210772,0.01,0.0,0.10000000149011612,-0.27000001072883606,-7.300000190734863,0.006103515625,-0.00250244140625,0.95855712890625,29.229999542236328,0.0,11.0,-0.2939605712890625,2.0702667236328125,Closing,0.0,0.0,0.0,0.0,0.0,0.0,0.0,0.0,
1.7623250000000117,19.75,18.375,6756.0,0.0,0.0,0.0,0.0,0.0,0.8154296040000001,0.01,0.0,1060.0,0.0,0.0,-0.0,0.0,0.0,0.496826121,0.01,0.0,4575.0,0.0,0.0,0.0,0.0,0.125,3.3801266070000002,0.01,0.0,-2942.0,0.0,0.0,-0.0,0.0,0.125,1.613769366,0.01,0.0,0.11999999731779099,-0.2800000011920929,-7.300000190734863,-0.0050048828125,0.0145263671875,1.047607421875,29.229999542236328,0.0,-1.0,-0.293914794921875,2.0706787109375,Closing,0.0,0.0,0.0,0.0,0.0,0.0,0.0,0.0,
1.8513580000000074,4.5,4.75,6756.0,0.0,0.0,0.0,0.0,0.0,0.8154296040000001,0.01,0.0,1060.0,0.0,0.0,-0.0,0.0,0.0,0.496826121,0.01,0.0,4575.0,0.0,0.0,0.0,0.0,0.125,3.38134731,0.01,0.0,-2942.0,0.0,0.0,-0.0,0.0,0.125,1.616210772,0.01,-0.0012207029999995456,0.10000000149011612,-0.27000001072883606,-7.300000190734863,-0.02490234375,-0.02374267578125,1.00830078125,29.229999542236328,0.0,-16.0,-0.2935028076171875,2.0709991455078125,Closing,0.0,0.0,0.0,0.0,0.0,0.0,0.0,0.0,
1.9352220000000089,3.625,3.875,6756.0,0.0,0.0,0.0,0.0,0.0,0.8154296040000001,0.01,0.0,1060.0,0.0,0.0,-0.0,0.0,0.0,0.496826121,0.01,0.0,4575.0,0.0,0.0,0.0,0.0,0.125,3.38134731,0.01,0.0,-2942.0,0.0,0.0,-0.0,0.0,0.125,1.618652178,0.01,-0.003662109000000413,0.10000000149011612,-0.23999999463558197,-7.300000190734863,-0.021484375,-0.029052734375,1.0789794921875,29.229999542236328,0.0,-12.0,-0.2933807373046875,2.0707550048828125,Closing,0.0,0.0,0.0,0.0,0.0,0.0,0.0,0.0,
2.026781000000017,3.125,3.5,6756.0,0.0,0.0,0.0,0.0,0.0,0.8154296040000001,0.01,0.0,1060.0,0.0,0.0,-0.0,0.0,0.0,0.495605418,0.01,0.0,4575.0,0.0,0.0,0.0,0.0,0.125,3.38134731,0.01,0.0,-2942.0,0.0,0.0,-0.0,0.0,0.125,1.6064451480000002,0.01,0.0,0.07999999821186066,-0.25,-7.300000190734863,-0.06280517578125,0.0023193359375,0.87750244140625,29.229999542236328,0.0,-58.0,-0.2925872802734375,2.0712127685546875,Closing,0.0,0.0,0.0,0.0,0.0,0.0,0.0,0.0,
2.108683000000019,3.25,3.5,6756.0,0.0,0.0,0.0,0.0,0.0,0.8154296040000001,0.01,0.0,1060.0,0.0,0.0,-0.0,0.0,0.0,0.495605418,0.01,0.0,4575.0,0.0,0.0,0.0,0.0,0.125,3.38134731,0.01,-0.0012207029999999897,-2942.0,0.0,0.0,-0.0,0.0,0.125,1.6015623360000002,0.01,0.0,0.11999999731779099,-0.25999999046325684,-7.300000190734863,-0.0020751953125,-0.0511474609375,1.00787353515625,29.229999542236328,0.0,9.0,-0.292388916015625,2.07220458984375,Closing,0.0,0.0,0.0,0.0,0.0,0.0,0.0,0.0,
2.193457999999984,3.0,3.625,6756.0,0.0,0.0,0.0,0.0,0.0,0.8154296040000001,0.01,0.0,1060.0,0.0,0.0,-0.0,0.0,0.0,0.495605418,0.01,0.0,4575.0,0.0,0.0,0.0,0.0,0.125,3.38134731,0.01,0.0,-2942.0,0.0,0.0,-0.0,0.0,0.125,1.600341633,0.01,-0.003662108999999525,0.11999999731779099,-0.25,-7.300000190734863,-0.0224609375,0.0198974609375,0.9808349609375,29.239999771118164,0.0,-20.0,-0.2924652099609375,2.0722503662109375,Closing,0.0,0.0,0.0,0.0,0.0,0.0,0.0,0.0,
2.264420999999973,3.0,3.5,6756.0,0.0,0.0,0.0,0.0,0.0,0.8166503070000001,0.01,0.0,1060.0,0.0,0.0,-0.0,0.0,0.0,0.496826121,0.01,0.0,4575.0,0.0,0.0,0.0,0.0,0.125,3.3801266070000002,0.01,0.0012207029999999897,-2942.0,0.0,0.0,-0.0,0.0,0.125,1.600341633,0.01,-0.0012207030000004337,0.17000000178813934,-0.23000000417232513,-7.300000190734863,0.0123291015625,0.0361328125,1.03558349609375,29.239999771118164,0.0,12.0,-0.292510986328125,2.0721588134765625,Closing,0.0,0.0,0.0,0.0,0.0,0.0,0.0,0.0,
2.3551149999999907,3.125,3.625,6756.0,0.0,0.0,0.0,0.0,0.0,0.8154296040000001,0.01,0.0,1060.0,0.0,0.0,-0.0,0.0,0.0,0.496826121,0.01,0.0,4575.0,0.0,0.0,0.0,0.0,0.125,3.38134731,0.01,0.0,-2942.0,0.0,0.0,-0.0,0.0,0.125,1.6027830390000002,0.01,0.0,0.1899999976158142,-0.2199999988079071,-7.289999961853027,-0.07415771484375,0.04888916015625,0.97088623046875,29.239999771118164,0.0,-75.0,-0.2923126220703125,2.0713653564453125,Closing,0.0,0.0,0.0,0.0,0.0,0.0,0.0,0.0,
2.441564000000013,3.125,3.625,6756.0,0.0,0.0,0.0,0.0,0.0,0.8154296040000001,0.01,0.0,1060.0,0.0,0.0,-0.0,0.0,0.0,0.496826121,0.01,0.0,4575.0,0.0,0.0,0.0,0.0,0.125,3.38134731,0.01,0.0,-2942.0,0.0,0.0,-0.0,0.0,0.125,1.6015623360000002,0.01,0.0024414059999999793,0.17000000178813934,-0.20999999344348907,-7.289999961853027,-0.03857421875,-0.0079345703125,0.94769287109375,29.239999771118164,0.0,-33.0,-0.2926177978515625,2.070892333984375,Closing,0.0,0.0,0.0,0.0,0.0,0.0,0.0,0.0,
2.510230999999971,3.0,3.5,6756.0,0.0,0.0,0.0,0.0,0.0,0.8154296040000001,0.01,0.0,1060.0,0.0,0.0,-0.0,0.0,0.0,0.496826121,0.01,0.0,4575.0,0.0,0.0,0.0,0.0,0.125,3.3801266070000002,0.01,0.0,-2942.0,0.0,0.0,-0.0,0.0,0.125,1.59912093,0.01,0.0,0.18000000715255737,-0.30000001192092896,-7.289999961853027,0.0341796875,-0.0350341796875,1.0074462890625,29.239999771118164,0.0,44.0,-0.29388427734375,2.0702972412109375,Closing,0.0,0.0,0.0,0.0,0.0,0.0,0.0,0.0,
2.6155569999999715,2.875,3.5,6756.0,0.0,0.0,0.0,0.0,0.0,0.8166503070000001,0.01,0.0,1060.0,0.0,0.0,-0.0,0.0,0.0,0.496826121,0.01,0.0,4575.0,0.0,0.0,0.0,0.0,0.125,3.38134731,0.01,0.0,-2942.0,0.0,0.0,-0.0,0.0,0.125,1.59912093,0.01,-0.0024414059999999793,0.20999999344348907,-0.2800000011920929,-7.289999961853027,-0.02264404296875,-0.04302978515625,1.03302001953125,29.239999771118164,0.0,-11.0,-0.293914794921875,2.07049560546875,Closing,0.0,0.0,0.0,0.0,0.0,0.0,0.0,0.0,
2.693340000000026,3.125,3.5,6756.0,0.0,0.0,0.0,0.0,0.0,0.8154296040000001,0.01,0.0,1060.0,0.0,0.0,-0.0,0.0,0.0,0.495605418,0.01,0.0,4575.0,0.0,0.0,0.0,0.0,0.125,3.38134731,0.01,0.0,-2942.0,0.0,0.0,-0.0,0.0,0.125,1.600341633,0.01,0.0,0.2199999988079071,-0.27000001072883606,-7.289999961853027,0.0230712890625,0.03271484375,1.16900634765625,29.25,0.0,24.0,-0.29412841796875,2.071014404296875,Closing,0.0,0.0,0.0,0.0,0.0,0.0,0.0,0.0,
2.771994000000006,3.375,3.5,6756.0,0.0,0.0,0.0,0.0,0.0,0.8154296040000001,0.01,0.0,1060.0,0.0,0.0,-0.0,0.0,0.0,0.496826121,0.01,0.0,4575.0,0.0,0.0,0.0,0.0,0.125,3.3801266070000002,0.01,0.0,-2942.0,0.0,0.0,-0.0,0.0,0.125,1.600341633,0.01,0.0,0.1899999976158142,-0.25,-7.289999961853027,-0.0113525390625,-6.7138671875E-4,0.94537353515625,29.25,0.0,-6.0,-0.2937469482421875,2.0709991455078125,Closing,0.0,0.0,0.0,0.0,0.0,0.0,0.0,0.0,
2.8500709999999962,3.0,3.5,6756.0,0.0,0.0,0.0,0.0,0.0,0.8154296040000001,0.01,0.0,1060.0,0.0,0.0,-0.0,0.0,0.0,0.496826121,0.01,0.0,4575.0,0.0,0.0,0.0,0.0,0.125,3.38134731,0.01,0.0,-2942.0,0.0,0.0,-0.0,0.0,0.125,1.59912093,0.01,-0.0024414059999999793,0.18000000715255737,-0.25,-7.300000190734863,0.0421142578125,0.06829833984375,1.10968017578125,29.25,0.0,38.0,-0.293670654296875,2.0703582763671875,Closing,0.0,0.0,0.0,0.0,0.0,0.0,0.0,0.0,
2.929941999999981,3.0,3.375,6756.0,0.0,0.0,0.0,0.0,0.0,0.8154296040000001,0.01,0.0,1060.0,0.0,0.0,-0.0,0.0,0.0,0.498046824,0.01,0.0,4575.0,0.0,0.0,0.0,0.0,0.125,3.38134731,0.01,0.0,-2942.0,0.0,0.0,-0.0,0.0,0.125,1.6015623360000002,0.01,0.0,0.20000000298023224,-0.25,-7.300000190734863,-0.05694580078125,0.05975341796875,1.06365966796875,29.25,0.0,-58.0,-0.2933197021484375,2.0705108642578125,Closing,0.0,0.0,0.0,0.0,0.0,0.0,0.0,0.0,
3.0202119999999995,2.875,3.5,6756.0,0.0,0.0,0.0,0.0,0.0,0.8154296040000001,0.01,0.0,1060.0,0.0,0.0,-0.0,0.0,0.0,0.496826121,0.01,0.0,4575.0,0.0,0.0,0.0,0.0,0.125,3.38134731,0.01,0.0,-2942.0,0.0,0.0,-0.0,0.0,0.125,1.6015623360000002,0.01,0.0,0.2199999988079071,-0.25,-7.300000190734863,-0.0159912109375,-0.01312255859375,1.1214599609375,29.25,0.0,-8.0,-0.2931060791015625,2.0710296630859375,Closing,0.0,0.0,0.0,0.0,0.0,0.0,0.0,0.0,
3.0950900000000257,2.875,3.5,6756.0,0.0,0.0,0.0,0.0,0.0,0.8154296040000001,0.01,0.0,1060.0,0.0,0.0,-0.0,0.0,0.0,0.496826121,0.01,0.0,4575.0,0.0,0.0,0.0,0.0,0.125,3.382568013,0.01,0.0012207029999999897,-2942.0,0.0,0.0,-0.0,0.0,0.125,1.6027830390000002,0.01,0.0012207029999995456,0.25,-0.23999999463558197,-7.300000190734863,-0.0216064453125,0.02435302734375,1.007568359375,29.25,0.0,-19.0,-0.2926788330078125,2.0716094970703125,Closing,0.0,0.0,0.0,0.0,0.0,0.0,0.0,0.0,
3.174793000000005,3.0,3.625,6756.0,0.0,0.0,0.0,0.0,0.0,0.8166503070000001,0.01,0.0,1060.0,0.0,0.0,-0.0,0.0,0.0,0.496826121,0.01,0.0,4575.0,0.0,0.0,0.0,0.0,0.125,3.38134731,0.01,0.0,-2942.0,0.0,0.0,-0.0,0.0,0.125,1.596679524,0.01,0.0,0.20000000298023224,-0.25999999046325684,-7.300000190734863,0.04156494140625,-0.0196533203125,1.20416259765625,29.239999771118164,0.0,49.0,-0.2923431396484375,2.0736846923828125,Closing,0.0,0.0,0.0,0.0,0.0,0.0,0.0,0.0,
3.266,3.125,3.125,6756.0,0.0,0.0,0.0,0.0,0.0,0.8154296040000001,0.01,0.0,1060.0,0.0,0.0,-0.0,0.0,0.0,0.496826121,0.01,0.0,4575.0,0.0,0.0,0.0,0.0,0.125,3.38134731,0.01,0.0,-2942.0,0.0,0.0,-0.0,0.0,0.125,1.596679524,0.01,0.0,0.2199999988079071,-0.2800000011920929,-7.300000190734863,-7.9345703125E-4,-0.03509521484375,1.02679443359375,29.239999771118164,0.0,9.0,-0.292449951171875,2.0734100341796875,Closing,0.0,0.0,0.0,0.0,0.0,0.0,0.0,0.0,
3.3706429999999816,3.25,3.375,6756.0,0.0,0.0,0.0,0.0,0.0,0.8154296040000001,0.01,0.0,1060.0,0.0,0.0,-0.0,0.0,0.0,0.496826121,0.01,0.0,4575.0,0.0,0.0,0.0,0.0,0.125,3.38134731,0.01,0.0,-2942.0,0.0,0.0,-0.0,0.0,0.125,1.595458821,0.01,0.0,0.1899999976158142,-0.28999999165534973,-7.300000190734863,0.0025634765625,0.0064697265625,1.05126953125,29.239999771118164,0.0,7.0,-0.292755126953125,2.073028564453125,Closing,0.0,0.0,0.0,0.0,0.0,0.0,0.0,0.0,
3.4662129999999887,3.0,3.5,6756.0,0.0,0.0,0.0,0.0,0.0,0.8154296040000001,0.01,0.0,1060.0,0.0,0.0,-0.0,0.0,0.0,0.496826121,0.01,0.0,4575.0,0.0,0.0,0.0,0.0,0.125,3.3801266070000002,0.01,0.0,-2942.0,0.0,0.0,-0.0,0.0,0.125,1.596679524,0.01,-0.0012207030000004337,0.23000000417232513,-0.25999999046325684,-7.300000190734863,-0.0284423828125,0.0089111328125,0.974609375,29.239999771118164,0.0,-24.0,-0.293182373046875,2.0735321044921875,Closing,0.0,0.0,0.0,0.0,0.0,0.0,0.0,0.0,
3.5546570000000064,3.0,3.5,6756.0,0.0,0.0,0.0,0.0,0.0,0.8154296040000001,0.01,0.0,1060.0,0.0,0.0,-0.0,0.0,0.0,0.496826121,0.01,0.0,4575.0,0.0,0.0,0.0,0.0,0.125,3.38134731,0.01,0.0,-2942.0,0.0,0.0,-0.0,0.0,0.125,1.596679524,0.01,0.0012207030000004337,0.1899999976158142,-0.25,-7.300000190734863,-0.05657958984375,8.544921875E-4,1.049072265625,29.239999771118164,0.0,-51.0,-0.293060302734375,2.073944091796875,Closing,0.0,0.0,0.0,0.0,0.0,0.0,0.0,0.0,
3.6447019999999903,3.125,3.5,6756.0,0.0,0.0,0.0,0.0,0.0,0.8154296040000001,0.01,0.0,1060.0,0.0,0.0,-0.0,0.0,0.0,0.496826121,0.01,0.0,4575.0,0.0,0.0,0.0,0.0,0.125,3.3764644980000003,0.01,0.0,-2942.0,0.0,0.0,-0.0,0.0,0.125,1.6345213170000001,0.01,0.0,-2.009999990463257,-0.9599999785423279,-7.239999771118164,-5.4931640625E-4,0.3172607421875,1.56842041015625,29.280000686645508,0.0,-21.0,-0.295928955078125,2.0739898681640625,Closing,0.0,0.0,0.0,0.0,0.0,0.0,0.0,0.0,
3.7547129999999886,8.0,7.875,6756.0,0.0,0.0,0.0,0.0,0.0,0.8166503070000001,0.01,0.0,1060.0,0.0,0.0,-0.0,0.0,0.0,0.496826121,0.01,0.0,4575.0,0.0,0.0,0.0,0.0,0.125,3.3764644980000003,0.01,-0.004882811999999959,-2942.0,0.0,0.0,-0.0,0.0,0.0,1.6113279600000001,0.01,0.0,-7.389999866485596,-0.36000001430511475,-7.260000228881836,-0.1083984375,-0.087158203125,1.32037353515625,29.280000686645508,0.0,-109.0,-0.3001861572265625,2.0813140869140625,Closing,0.0,0.0,0.0,0.0,0.0,0.0,0.0,0.0,
3.8493090000000083,21.75,19.875,6756.0,0.0,0.0,0.0,0.0,0.0,0.8154296040000001,0.01,0.0,1060.0,0.0,0.0,-0.0,0.0,0.0,0.496826121,0.01,0.0,4575.0,0.0,0.0,0.0,0.0,0.125,3.3703609830000003,0.01,0.0,-2942.0,0.0,0.0,-0.0,0.0,0.125,1.621093584,0.01,-0.01586913900000031,-14.8100004196167,-0.1899999976158142,-7.239999771118164,-0.0860595703125,-0.168701171875,0.79693603515625,29.280000686645508,0.0,-87.0,-0.30255126953125,2.097900390625,Closing,0.0,0.0,0.0,0.0,0.0,0.0,0.0,0.0,
3.941349999999977,21.5,19.0,6756.0,0.0,0.0,0.0,0.0,0.0,0.8166503070000001,0.01,0.0,1060.0,0.0,0.0,-0.0,0.0,0.0,0.496826121,0.01,0.0,4575.0,0.0,0.0,0.0,0.0,0.0,3.3666988740000003,0.01,0.0,-2942.0,0.0,0.0,-0.0,0.0,0.125,1.6333006140000002,0.01,0.0,-23.770000457763672,-0.5,-7.059999942779541,-0.05047607421875,-0.3447265625,0.79632568359375,29.280000686645508,0.0,-43.0,-0.3107147216796875,2.1195068359375,Closing,0.0,0.0,0.0,0.0,0.0,0.0,0.0,0.0,
4.028945999999996,23.375,21.5,6756.0,0.0,0.0,0.0,0.0,0.0,0.8166503070000001,0.01,0.0,1060.0,0.0,0.0,-0.0,0.0,0.0,0.496826121,0.01,0.0,4575.0,0.0,0.0,0.0,0.0,0.0,3.3666988740000003,0.01,-0.004882811999999959,-2942.0,0.0,0.0,-0.0,0.0,0.0,1.613769366,0.01,0.0,-31.729999542236328,-0.3499999940395355,-6.539999961853027,-0.61810302734375,-1.17340087890625,0.34320068359375,29.280000686645508,0.0,-501.0,-0.3256683349609375,2.1458740234375,Closing,0.0,0.0,0.0,0.0,0.0,0.0,0.0,0.0,
4.106548999999999,30.375,28.5,6756.0,0.0,0.0,0.0,0.0,0.0,0.8154296040000001,0.01,0.0,1060.0,0.0,0.0,-0.0,0.0,0.0,0.496826121,0.01,0.0,4575.0,0.0,0.0,0.0,0.0,0.0,3.3618160620000004,0.01,0.0,-2942.0,0.0,0.0,-0.0,0.0,0.125,1.588134603,0.01,4.9287031279999995,-43.779998779296875,-0.10000000149011612,-5.329999923706055,0.0247802734375,-0.88568115234375,0.7833251953125,29.280000686645508,0.0,38.0,-0.3414459228515625,2.1671600341796875,Closing,0.0,0.0,0.0,0.0,0.0,0.0,0.0,0.0,
4.2144000000000235,47.5,47.875,6756.0,0.0,0.0,0.0,0.0,0.0,0.8154296040000001,0.01,0.0,1060.0,0.0,0.0,-0.0,0.0,0.0,0.495605418,0.01,0.0,4575.0,0.0,0.0,0.0,0.0,0.0,3.3666988740000003,0.01,0.0,-2942.0,0.0,0.0,-0.0,0.0,0.0,1.588134603,0.01,0.0,-51.18000030517578,-0.10999999940395355,-4.630000114440918,0.17108154296875,-0.61065673828125,0.64447021484375,29.260000228881836,0.0,156.0,-0.3661956787109375,2.16241455078125,Closing,0.0,0.0,0.0,0.0,0.0,0.0,0.0,0.0,
4.307539999999979,50.75,49.25,6756.0,0.0,0.0,0.0,0.0,0.0,0.8154296040000001,0.01,0.0,1060.0,0.0,0.0,-0.0,0.0,0.0,0.496826121,0.01,0.0,4575.0,0.0,0.0,0.0,0.0,0.0,3.3618160620000004,0.01,0.0,-2942.0,0.0,0.0,-0.0,0.0,0.125,1.5808103850000002,0.01,0.0,-44.709999084472656,0.5799999833106995,-4.980000019073486,-0.3370361328125,-0.89984130859375,0.56597900390625,29.260000228881836,0.0,-312.0,-0.3901824951171875,2.14605712890625,Closing,0.0,0.0,0.0,0.0,0.0,0.0,0.0,0.0,
4.41519299999997,38.375,35.75,6756.0,0.0,0.0,0.0,0.0,0.0,0.820312416,0.01,-4.927368188,1060.0,0.0,0.0,-0.0,0.0,0.0,0.496826121,0.01,0.0,4575.0,0.0,0.0,0.0,0.0,0.0,3.3618160620000004,0.01,0.0,-2942.0,0.0,0.0,-0.0,0.0,0.125,1.5820310880000001,0.01,-0.006103514999999504,-36.709999084472656,0.2199999988079071,-6.070000171661377,0.15716552734375,-0.64111328125,0.9603271484375,29.260000228881836,0.0,143.0,-0.4172210693359375,2.124298095703125,Closing,0.0,0.0,0.0,0.0,0.0,0.0,0.0,0.0,
4.496760000000009,41.875,39.375,6756.0,0.0,0.0,0.0,0.0,0.0,0.8166503070000001,0.01,0.0,1060.0,0.0,0.0,-0.0,0.0,0.0,0.495605418,0.01,0.0,4575.0,0.0,0.0,0.0,0.0,0.0,3.3630367650000004,0.01,0.0,-2942.0,0.0,0.0,-0.0,0.0,0.125,1.5844724940000001,0.01,0.0012207029999995456,-32.599998474121094,0.05999999865889549,-6.409999847412109,-0.33740234375,-1.32171630859375,0.95587158203125,29.260000228881836,0.0,-256.0,-0.435089111328125,2.105926513671875,Closing,0.0,0.0,0.0,0.0,0.0,0.0,0.0,0.0,
4.566794999999984,48.0,46.25,6756.0,0.0,0.0,0.0,0.0,0.0,0.811767495,0.01,4.927368188,1060.0,0.0,0.0,-0.0,0.0,0.0,0.496826121,0.01,0.0,4575.0,0.0,0.0,0.0,0.0,0.0,3.3618160620000004,0.01,0.0,-2942.0,0.0,0.0,-0.0,0.0,0.125,1.597900227,0.01,0.0,-32.86000061035156,-1.6699999570846558,-7.090000152587891,0.03411865234375,-0.6519775390625,0.48834228515625,29.260000228881836,0.0,92.0,-0.454864501953125,2.0726165771484375,Closing,0.0,0.0,0.0,0.0,0.0,0.0,0.0,0.0,
4.653942999999971,50.0,49.75,6756.0,0.0,0.0,0.0,0.0,0.0,0.810546792,0.01,-0.004882811999999959,1060.0,0.0,0.0,-0.0,0.0,0.0,0.496826121,0.01,0.0,4575.0,0.0,0.0,0.0,0.0,0.0,3.3618160620000004,0.01,0.0,-2942.0,0.0,0.0,-0.0,0.0,0.125,1.6284178020000002,0.01,0.01342773300000033,-37.27000045776367,-2.859999895095825,-7.309999942779541,0.51629638671875,-1.12548828125,1.04034423828125,29.260000228881836,0.0,618.0,-0.4650726318359375,2.0410308837890625,Closing,0.0,0.0,0.0,0.0,0.0,0.0,0.0,0.0,
4.752874000000011,43.25,41.625,6756.0,0.0,0.0,0.0,0.0,0.0,0.810546792,0.01,0.0,1060.0,0.0,0.0,-0.0,0.0,0.0,0.495605418,0.01,0.0,4575.0,0.0,0.0,0.0,0.0,0.0,3.3605953590000004,0.01,0.0,-2942.0,0.0,0.0,-0.0,0.0,0.0,1.6101072570000001,0.01,0.024414059999999793,-49.209999084472656,-4.360000133514404,-7.150000095367432,0.623046875,-0.898193359375,1.52838134765625,29.229999542236328,0.0,685.0,-0.4779510498046875,1.9882659912109375,Closing,0.0,0.0,0.0,0.0,0.0,0.0,0.0,0.0,
4.831716000000015,43.75,42.0,6756.0,0.0,0.0,0.0,0.0,0.0,0.811767495,0.01,0.0,1060.0,0.0,0.0,-0.0,0.0,0.0,0.496826121,0.01,0.0,4575.0,0.0,0.0,0.0,0.0,0.0,3.3618160620000004,0.01,0.0,-2942.0,0.0,0.0,-0.0,0.0,0.125,1.6101072570000001,0.01,0.0,-60.61000061035156,-4.329999923706055,-6.239999771118164,-0.14813232421875,-0.80194091796875,-0.4456787109375,29.229999542236328,0.0,-42.0,-0.487274169921875,1.9463043212890625,Closing,0.0,0.0,0.0,0.0,0.0,0.0,0.0,0.0,
4.9310910000000145,45.875,44.125,6756.0,0.0,0.0,0.0,0.0,0.0,0.8154296040000001,0.01,0.0,1060.0,0.0,0.0,-0.0,0.0,0.0,0.496826121,0.01,0.0,4575.0,0.0,0.0,0.0,0.0,0.0,3.3618160620000004,0.01,0.0,-2942.0,0.0,0.0,-0.0,0.0,0.125,1.6052244450000002,0.01,0.0,-66.44999694824219,-3.0999999046325684,-4.849999904632568,-0.10455322265625,-1.0406494140625,0.99957275390625,29.229999542236328,0.0,-75.0,-0.502685546875,1.8772430419921875,Closing,0.0,0.0,0.0,0.0,0.0,0.0,0.0,0.0,
5.029804000000004,38.0,35.125,6756.0,0.0,0.0,0.0,0.0,0.0,0.8154296040000001,0.01,0.004882811999999959,1060.0,0.0,0.0,-0.0,0.0,0.0,0.495605418,0.01,0.0,4575.0,0.0,0.0,0.0,0.0,0.0,3.3605953590000004,0.01,0.0,-2942.0,0.0,0.0,-0.0,0.0,0.125,1.6040037420000002,0.01,0.0,-63.220001220703125,-2.8399999141693115,-4.96999979019165,0.34527587890625,-0.16253662109375,1.84771728515625,29.229999542236328,0.0,241.0,-0.5183563232421875,1.83892822265625,Closing,0.0,0.0,0.0,0.0,0.0,0.0,0.0,0.0,
5.106170999999973,34.375,31.25,6756.0,0.0,0.0,0.0,0.0,0.0,0.810546792,0.01,0.0,1060.0,0.0,0.0,-0.0,0.0,0.0,0.495605418,0.01,0.0,4575.0,0.0,0.0,0.0,0.0,0.0,3.3618160620000004,0.01,0.0,-2942.0,0.0,0.0,-0.0,0.0,0.125,1.6052244450000002,0.01,-0.0012207030000004337,-57.81999969482422,-3.359999895095825,-5.570000171661377,-0.0948486328125,-0.85784912109375,1.32073974609375,29.229999542236328,0.0,-70.0,-0.5342864990234375,1.8188323974609375,Closing,0.0,0.0,0.0,0.0,0.0,0.0,0.0,0.0,
5.195626999999979,35.625,33.375,6756.0,0.0,0.0,0.0,0.0,0.0,0.810546792,0.01,0.0,1060.0,0.0,0.0,-0.0,0.0,0.0,0.496826121,0.01,0.0,4575.0,0.0,0.0,0.0,0.0,0.0,3.3618160620000004,0.01,0.0,-2942.0,0.0,0.0,-0.0,0.0,0.125,1.6040037420000002,0.01,0.0,-57.61000061035156,-4.710000038146973,-6.309999942779541,-0.24176025390625,-1.0611572265625,1.392822265625,29.229999542236328,0.0,-152.0,-0.5467987060546875,1.8141021728515625,Closing,0.0,0.0,0.0,0.0,0.0,0.0,0.0,0.0,
5.267689000000013,38.875,36.25,6756.0,0.0,0.0,0.0,0.0,0.0,0.810546792,0.01,0.0012207030000004337,1060.0,0.0,0.0,-0.0,0.0,0.0,0.496826121,0.01,0.0,4574.0,0.0,0.0,0.0,0.0,0.0,3.3618160620000004,0.01,0.0,-2942.0,0.0,0.0,-0.0,0.0,0.125,1.6064451480000002,0.01,-0.0024414059999999793,-62.88999938964844,-6.300000190734863,-6.929999828338623,-0.060302734375,-0.48443603515625,0.58740234375,29.209999084472656,0.0,0.0,-0.5663604736328125,1.8079986572265625,Closing,0.0,0.0,0.0,0.0,0.0,0.0,0.0,0.0,
5.340999000000011,35.375,34.0,6756.0,0.0,0.0,0.0,0.0,0.0,0.810546792,0.01,0.0024414059999999793,1060.0,0.0,0.0,-0.0,0.0,0.0,0.496826121,0.01,0.0,4574.0,0.0,0.0,0.0,0.0,0.0,3.3605953590000004,0.01,0.0,-2942.0,0.0,0.0,-0.0,0.0,0.125,1.612548663,0.01,0.0,-69.05999755859375,-6.75,-6.949999809265137,-0.0262451171875,-0.69256591796875,0.45147705078125,29.209999084472656,0.0,62.0,-0.59381103515625,1.813201904296875,Closing,0.0,0.0,0.0,0.0,0.0,0.0,0.0,0.0,
5.425429999999993,34.0,32.625,6756.0,0.0,0.0,0.0,0.0,0.0,0.8154296040000001,0.01,-0.003662109000000413,1060.0,0.0,0.0,-0.0,0.0,0.0,0.496826121,0.01,0.0,4574.0,0.0,0.0,0.0,0.0,0.0,3.3605953590000004,0.01,0.0,-2942.0,0.0,0.0,-0.0,0.0,0.125,1.6101072570000001,0.01,0.0,-71.55999755859375,-5.090000152587891,-5.369999885559082,0.2994384765625,-1.07080078125,0.4583740234375,29.209999084472656,0.0,397.0,-0.63751220703125,1.8391265869140625,Closing,0.0,0.0,0.0,0.0,0.0,0.0,0.0,0.0,
5.511545999999973,37.125,34.875,6756.0,0.0,0.0,0.0,0.0,0.0,0.820312416,0.01,0.004882811999999959,1060.0,0.0,0.0,-0.0,0.0,0.0,0.496826121,0.01,0.0,4574.0,0.0,0.0,0.0,0.0,0.0,3.3666988740000003,0.01,0.0,-2942.0,0.0,0.0,-0.0,0.0,0.125,1.6052244450000002,0.01,-0.0012207029999995456,-67.25,-5.329999923706055,-5.730000019073486,0.13604736328125,-0.4473876953125,0.36102294921875,29.209999084472656,0.0,180.0,-0.666107177734375,1.8546905517578125,Closing,0.0,0.0,0.0,0.0,0.0,0.0,0.0,0.0,
5.611500999999989,29.0,26.125,6756.0,0.0,0.0,0.0,0.0,0.0,0.810546792,0.01,-4.927368188,1060.0,0.0,0.0,-0.0,0.0,0.0,0.496826121,0.01,0.0,4574.0,0.0,0.0,0.0,0.0,0.0,3.3618160620000004,0.01,0.004882811999999959,-2942.0,0.0,0.0,-0.0,0.0,0.125,1.6101072570000001,0.01,0.0,-57.70000076293945,-7.579999923706055,-7.440000057220459,-0.3836669921875,-0.3231201171875,-0.13836669921875,29.209999084472656,0.0,-344.0,-0.71173095703125,1.868988037109375,Closing,0.0,0.0,0.0,0.0,0.0,0.0,0.0,0.0,
5.696256999999983,23.375,22.625,6756.0,0.0,0.0,0.0,0.0,0.0,0.810546792,0.01,0.0,1060.0,0.0,0.0,-0.0,0.0,0.0,0.495605418,0.01,0.0,4574.0,0.0,0.0,0.0,0.0,0.0,3.3618160620000004,0.01,0.0,-2942.0,0.0,0.0,-0.0,0.0,0.125,1.6040037420000002,0.01,0.007324217999999938,-53.22999954223633,-9.119999885559082,-8.640000343322754,-0.23956298828125,-0.618896484375,0.1072998046875,29.200000762939453,0.0,-136.0,-0.7490081787109375,1.8843994140625,Closing,0.0,0.0,0.0,0.0,0.0,0.0,0.0,0.0,
5.776148999999976,21.0,19.25,6756.0,0.0,0.0,0.0,0.0,0.0,0.811767495,0.01,0.0,1060.0,0.0,0.0,-0.0,0.0,0.0,0.496826121,0.01,0.0,4574.0,0.0,0.0,0.0,0.0,0.0,3.3618160620000004,0.01,0.0,-2942.0,0.0,0.0,-0.0,0.0,0.125,1.59912093,0.01,0.0,-49.0099983215332,-8.579999923706055,-8.539999961853027,-0.07818603515625,-1.06060791015625,0.83349609375,29.200000762939453,0.0,113.0,-0.804718017578125,1.908233642578125,Closing,0.0,0.0,0.0,0.0,0.0,0.0,0.0,0.0,
5.884385999999998,0.0,0.0,6756.0,0.0,0.0,0.0,0.0,0.0,0.810546792,0.01,0.0,1060.0,0.0,0.0,-0.0,0.0,0.0,0.496826121,0.01,0.0,4574.0,0.0,0.0,0.0,0.0,0.0,3.3618160620000004,0.01,0.0,-2942.0,0.0,0.0,-0.0,0.0,0.125,1.595458821,0.01,0.0,-43.040000915527344,-9.529999732971191,-9.279999732971191,-0.20721435546875,-1.116455078125,0.92779541015625,29.200000762939453,0.0,45.0,-0.8486328125,1.923004150390625,Closing,0.0,0.0,0.0,0.0,0.0,0.0,0.0,0.0,
5.967581999999995,0.0,0.0,6756.0,0.0,0.0,0.0,0.0,0.0,0.810546792,0.01,0.0,1060.0,0.0,0.0,-0.0,0.0,0.0,0.496826121,0.01,0.0,4574.0,0.0,0.0,0.0,0.0,0.0,3.3618160620000004,0.01,0.0,-2942.0,0.0,0.0,-0.0,0.0,0.125,1.594238118,0.01,0.0,-37.560001373291016,-10.399999618530273,-9.770000457763672,-0.140380859375,-0.57763671875,0.57598876953125,29.200000762939453,0.0,15.0,-0.8768310546875,1.9292144775390625,Closing,0.0,0.0,0.0,0.0,0.0,0.0,0.0,0.0,
6.052163,0.0,0.0,6756.0,0.0,0.0,0.0,0.0,0.0,0.810546792,0.01,0.0,1060.0,0.0,0.0,-0.0,0.0,0.0,0.496826121,0.01,0.0,4574.0,0.0,0.0,0.0,0.0,0.0,3.3605953590000004,0.01,0.0,-2942.0,0.0,0.0,-0.0,0.0,0.125,1.594238118,0.01,-0.0012207030000004337,-33.560001373291016,-11.789999961853027,-10.3100004196167,-0.23419189453125,-0.73834228515625,0.6619873046875,29.200000762939453,0.0,-14.0,-0.8766937255859375,1.9306488037109375,Closing,0.0,0.0,0.0,0.0,0.0,0.0,0.0,0.0,
6.126558000000019,0.0,0.0,6756.0,0.0,0.0,0.0,0.0,0.0,0.811767495,0.01,0.0,1060.0,0.0,0.0,-0.0,0.0,0.0,0.496826121,0.01,0.0,4574.0,0.0,0.0,0.0,0.0,0.0,3.3605953590000004,0.01,0.0,-2942.0,0.0,0.0,-0.0,0.0,0.125,1.6027830390000002,0.01,0.0,-30.709999084472656,-12.300000190734863,-9.859999656677246,-0.1473388671875,-0.75238037109375,0.68646240234375,29.200000762939453,0.0,83.0,-0.8765106201171875,1.921234130859375,Closing,0.0,0.0,0.0,0.0,0.0,0.0,0.0,0.0,
6.225005999999994,0.0,0.0,6756.0,0.0,0.0,0.0,0.0,0.0,0.811767495,0.01,0.0,1060.0,0.0,0.0,-0.0,0.0,0.0,0.496826121,0.01,0.0,4574.0,0.0,0.0,0.0,0.0,0.0,3.3618160620000004,0.01,0.0,-2942.0,0.0,0.0,-0.0,0.0,0.125,1.6113279600000001,0.01,0.008544921000000372,-31.31999969482422,-11.989999771118164,-8.949999809265137,-0.16650390625,-0.7498779296875,0.48651123046875,29.15999984741211,0.0,24.0,-0.874786376953125,1.9037628173828125,Closing,0.0,0.0,0.0,0.0,0.0,0.0,0.0,0.0,
6.294412000000011,0.0,0.0,6756.0,0.0,0.0,0.0,0.0,0.0,0.810546792,0.01,0.0,1060.0,0.0,0.0,-0.0,0.0,0.0,0.496826121,0.01,0.0,4574.0,0.0,0.0,0.0,0.0,0.0,3.3605953590000004,0.01,0.0,-2942.0,0.0,0.0,-0.0,0.0,0.125,1.612548663,0.01,0.0,-34.220001220703125,-11.380000114440918,-7.980000019073486,-0.09918212890625,-0.57269287109375,0.5042724609375,29.15999984741211,0.0,54.0,-0.8704376220703125,1.876495361328125,Closing,0.0,0.0,0.0,0.0,0.0,0.0,0.0,0.0,
6.364724999999977,0.0,0.0,6756.0,0.0,0.0,0.0,0.0,0.0,0.810546792,0.01,0.0,1060.0,0.0,0.0,-0.0,0.0,0.0,0.496826121,0.01,0.0,4574.0,0.0,0.0,0.0,0.0,0.0,3.3605953590000004,0.01,0.0,-2942.0,0.0,0.0,-0.0,0.0,0.125,1.6113279600000001,0.01,0.0,-37.13999938964844,-11.069999694824219,-7.139999866485596,-0.0892333984375,-0.71551513671875,0.5625,29.15999984741211,0.0,83.0,-0.8625640869140625,1.84307861328125,Closing,0.0,0.0,0.0,0.0,0.0,0.0,0.0,0.0,
6.450939000000013,0.0,0.0,6756.0,0.0,0.0,0.0,0.0,0.0,0.810546792,0.01,0.0,1060.0,0.0,0.0,-0.0,0.0,0.0,0.496826121,0.01,0.0,4574.0,0.0,0.0,0.0,0.0,0.0,3.3618160620000004,0.01,0.0,-2942.0,0.0,0.0,-0.0,0.0,0.125,1.6113279600000001,0.01,0.0,-38.97999954223633,-11.289999961853027,-6.579999923706055,-0.11083984375,-0.85968017578125,0.61627197265625,29.15999984741211,0.0,87.0,-0.8513336181640625,1.801239013671875,Closing,0.0,0.0,0.0,0.0,0.0,0.0,0.0,0.0,
6.525672000000021,0.0,0.0,6756.0,0.0,0.0,0.0,0.0,0.0,0.810546792,0.01,0.0,1060.0,0.0,0.0,-0.0,0.0,0.0,0.496826121,0.01,0.0,4574.0,0.0,0.0,0.0,0.0,0.0,3.3605953590000004,0.01,0.0,-2942.0,0.0,0.0,-0.0,0.0,0.125,1.6101072570000001,0.01,0.0,-39.34000015258789,-11.25,-5.409999847412109,-0.165283203125,-0.72125244140625,0.765625,29.15999984741211,0.0,40.0,-0.828216552734375,1.7181243896484375,Closing,0.0,0.0,0.0,0.0,0.0,0.0,0.0,0.0,
6.632858000000008,0.0,0.0,6756.0,0.0,0.0,0.0,0.0,0.0,0.810546792,0.01,0.0,1060.0,0.0,0.0,-0.0,0.0,0.0,0.496826121,0.01,0.0,4574.0,0.0,0.0,0.0,0.0,0.0,3.3618160620000004,0.01,0.0,-2942.0,0.0,0.0,-0.0,0.0,0.125,1.6101072570000001,0.01,0.0,-39.65999984741211,-10.470000267028809,-4.630000114440918,-0.1123046875,-0.5230712890625,0.81951904296875,29.15999984741211,0.0,71.0,-0.8153076171875,1.6740875244140625,Closing,0.0,0.0,0.0,0.0,0.0,0.0,0.0,0.0,
6.707971000000019,0.0,0.0,6756.0,0.0,0.0,0.0,0.0,0.0,0.810546792,0.01,0.0,1060.0,0.0,0.0,-0.0,0.0,0.0,0.496826121,0.01,0.0,4574.0,0.0,0.0,0.0,0.0,0.0,3.3618160620000004,0.01,0.0,-2942.0,0.0,0.0,-0.0,0.0,0.125,1.616210772,0.01,0.0,-41.91999816894531,-9.359999656677246,-4.670000076293945,-0.16363525390625,-0.64080810546875,0.96759033203125,29.15999984741211,0.0,32.0,-0.7932586669921875,1.61370849609375,Closing,0.0,0.0,0.0,0.0,0.0,0.0,0.0,0.0,
6.792542000000016,0.0,0.0,6756.0,0.0,0.0,0.0,0.0,0.0,0.811767495,0.01,0.0,1060.0,0.0,0.0,-0.0,0.0,0.0,0.496826121,0.01,0.0,4574.0,0.0,0.0,0.0,0.0,0.0,3.3618160620000004,0.01,0.0,-2942.0,0.0,0.0,-0.0,0.0,0.125,1.616210772,0.01,0.0,-46.349998474121094,-8.119999885559082,-5.829999923706055,-0.1888427734375,-0.75390625,0.8160400390625,29.139999389648438,0.0,-30.0,-0.76995849609375,1.560638427734375,Closing,0.0,0.0,0.0,0.0,0.0,0.0,0.0,0.0,
6.87574199999997,0.0,0.0,6756.0,0.0,0.0,0.0,0.0,0.0,0.810546792,0.01,0.0,1060.0,0.0,0.0,-0.0,0.0,0.0,0.496826121,0.01,0.0,4574.0,0.0,0.0,0.0,0.0,0.0,3.3618160620000004,0.01,0.0,-2942.0,0.0,0.0,-0.0,0.0,0.125,1.614990069,0.01,0.0,-49.52000045776367,-6.320000171661377,-6.96999979019165,-0.13751220703125,-0.63555908203125,0.6348876953125,29.139999389648438,0.0,-42.0,-0.747711181640625,1.510406494140625,Closing,0.0,0.0,0.0,0.0,0.0,0.0,0.0,0.0,
6.9684660000000145,0.0,0.0,6756.0,0.0,0.0,0.0,0.0,0.0,0.810546792,0.01,0.0,1060.0,0.0,0.0,-0.0,0.0,0.0,0.495605418,0.01,0.0,4574.0,0.0,0.0,0.0,0.0,0.0,3.3605953590000004,0.01,0.0,-2942.0,0.0,0.0,-0.0,0.0,0.125,1.614990069,0.01,0.0,-50.4900016784668,-5.360000133514404,-8.609999656677246,-0.1539306640625,-0.634521484375,0.5997314453125,29.139999389648438,0.0,-79.0,-0.727203369140625,1.4633331298828125,Closing,0.0,0.0,0.0,0.0,0.0,0.0,0.0,0.0,
7.083180999999982,0.0,0.0,6756.0,0.0,0.0,0.0,0.0,0.0,0.810546792,0.01,0.0,1060.0,0.0,0.0,-0.0,0.0,0.0,0.496826121,0.01,0.0,4574.0,0.0,0.0,0.0,0.0,0.0,3.3618160620000004,0.01,0.0,-2942.0,0.0,0.0,-0.0,0.0,0.125,1.618652178,0.01,0.0,-50.31999969482422,-5.539999961853027,-10.90999984741211,-0.19085693359375,-0.84423828125,0.8172607421875,29.139999389648438,0.0,-93.0,-0.7076416015625,1.4121551513671875,Closing,0.0,0.0,0.0,0.0,0.0,0.0,0.0,0.0,
7.164858999999996,0.0,0.0,6756.0,0.0,0.0,0.0,0.0,0.0,0.811767495,0.01,0.0,1060.0,0.0,0.0,-0.0,0.0,0.0,0.496826121,0.01,0.0,4574.0,0.0,0.0,0.0,0.0,0.0,3.3618160620000004,0.01,0.0,-2942.0,0.0,0.0,-0.0,0.0,0.125,1.618652178,0.01,0.004882811999999959,-50.43000030517578,-6.25,-12.210000038146973,-0.1856689453125,-0.7855224609375,0.72943115234375,29.139999389648438,0.0,-80.0,-0.698883056640625,1.3854827880859375,Closing,0.0,0.0,0.0,0.0,0.0,0.0,0.0,0.0,
7.229764000000024,0.0,0.0,6756.0,0.0,0.0,0.0,0.0,0.0,0.810546792,0.01,0.0,1060.0,0.0,0.0,-0.0,0.0,0.0,0.496826121,0.01,0.0,4574.0,0.0,0.0,0.0,0.0,0.0,3.3618160620000004,0.01,0.0,-2942.0,0.0,0.0,-0.0,0.0,0.125,1.618652178,0.01,0.0,-51.22999954223633,-7.269999980926514,-13.630000114440918,-0.148681640625,-0.705810546875,0.614990234375,29.1299991607666,0.0,-38.0,-0.6886749267578125,1.34747314453125,Closing,0.0,0.0,0.0,0.0,0.0,0.0,0.0,0.0,
7.3100939999999826,0.0,0.0,6756.0,0.0,0.0,0.0,0.0,0.0,0.810546792,0.01,0.0,1060.0,0.0,0.0,-0.0,0.0,0.0,0.495605418,0.01,0.0,4574.0,0.0,0.0,0.0,0.0,0.0,3.3618160620000004,0.01,0.0,-2942.0,0.0,0.0,-0.0,0.0,0.125,1.618652178,0.01,0.0,-51.97999954223633,-7.760000228881836,-14.390000343322754,-0.11285400390625,-0.72607421875,0.5679931640625,29.1299991607666,0.0,9.0,-0.6829833984375,1.3170013427734375,Closing,0.0,0.0,0.0,0.0,0.0,0.0,0.0,0.0,
7.406445000000007,0.0,0.0,6756.0,0.0,0.0,0.0,0.0,0.0,0.810546792,0.01,0.0,1060.0,0.0,0.0,-0.0,0.0,0.0,0.496826121,0.01,0.0,4574.0,0.0,0.0,0.0,0.0,0.0,3.3618160620000004,0.01,0.0,-2942.0,0.0,0.0,-0.0,0.0,0.125,1.618652178,0.01,0.0,-52.029998779296875,-7.989999771118164,-14.800000190734863,-0.1365966796875,-0.81512451171875,0.625,29.1299991607666,0.0,6.0,-0.6829833984375,1.3170013427734375,Closing,0.0,0.0,0.0,0.0,0.0,0.0,0.0,0.0,
7.4909459999999966,0.0,0.0,6756.0,0.0,0.0,0.0,0.0,0.0,0.810546792,0.01,0.0,1060.0,0.0,0.0,-0.0,0.0,0.0,0.496826121,0.01,0.0,4574.0,0.0,0.0,0.0,0.0,0.0,3.3605953590000004,0.01,0.0,-2942.0,0.0,0.0,-0.0,0.0,0.125,1.618652178,0.01,0.0,-51.189998626708984,-8.140000343322754,-15.15999984741211,-0.1236572265625,-0.75897216796875,0.66302490234375,29.1299991607666,0.0,6.0,-0.6829833984375,1.3184814453125,Closing,0.0,0.0,0.0,0.0,0.0,0.0,0.0,0.0,
7.575033999999985,0.0,0.0,6756.0,0.0,0.0,0.0,0.0,0.0,0.810546792,0.01,0.0,1060.0,0.0,0.0,-0.0,0.0,0.0,0.496826121,0.01,0.0,4574.0,0.0,0.0,0.0,0.0,0.0,3.3618160620000004,0.01,0.0,-2942.0,0.0,0.0,-0.0,0.0,0.125,1.617431475,0.01,0.0,-50.88999938964844,-8.670000076293945,-15.3100004196167,-0.1409912109375,-0.7276611328125,0.62646484375,29.1299991607666,0.0,-4.0,-0.6829833984375,1.322601318359375,Closing,0.0,0.0,0.0,0.0,0.0,0.0,0.0,0.0,
7.6834170000000155,0.0,0.0,6756.0,0.0,0.0,0.0,0.0,0.0,0.810546792,0.01,0.0,1060.0,0.0,0.0,-0.0,0.0,0.0,0.495605418,0.01,0.0,4574.0,0.0,0.0,0.0,0.0,0.0,3.3618160620000004,0.01,0.0,-2942.0,0.0,0.0,-0.0,0.0,0.125,1.618652178,0.01,0.0,-50.689998626708984,-8.930000305175781,-15.050000190734863,-0.14013671875,-0.77703857421875,0.63128662109375,29.1299991607666,0.0,13.0,-0.6829833984375,1.32745361328125,Closing,0.0,0.0,0.0,0.0,0.0,0.0,0.0,0.0,
7.766563000000024,0.0,0.0,6756.0,0.0,0.0,0.0,0.0,0.0,0.810546792,0.01,0.0,1060.0,0.0,0.0,-0.0,0.0,0.0,0.496826121,0.01,0.0,4574.0,0.0,0.0,0.0,0.0,0.0,3.3618160620000004,0.01,0.0,-2942.0,0.0,0.0,-0.0,0.0,0.125,1.617431475,0.01,0.0,-49.95000076293945,-8.539999961853027,-14.369999885559082,-0.13189697265625,-0.7703857421875,0.6392822265625,29.18000030517578,0.0,16.0,-0.6829833984375,1.3275909423828125,Closing,0.0,0.0,0.0,0.0,0.0,0.0,0.0,0.0,
7.866575000000012,0.0,0.0,6756.0,0.0,0.0,0.0,0.0,0.0,0.810546792,0.01,0.0,1060.0,0.0,0.0,-0.0,0.0,0.0,0.496826121,0.01,0.0,4574.0,0.0,0.0,0.0,0.0,0.0,3.3618160620000004,0.01,0.0,-2942.0,0.0,0.0,-0.0,0.0,0.125,1.618652178,0.01,0.0,-48.5099983215332,-7.78000020980835,-13.329999923706055,-0.11553955078125,-0.73870849609375,0.6602783203125,29.18000030517578,0.0,16.0,-0.682220458984375,1.327728271484375,Closing,0.0,0.0,0.0,0.0,0.0,0.0,0.0,0.0,
7.955945000000007,0.0,0.0,6756.0,0.0,0.0,0.0,0.0,0.0,0.810546792,0.01,0.0,1060.0,0.0,0.0,-0.0,0.0,0.0,0.496826121,0.01,0.0,4574.0,0.0,0.0,0.0,0.0,0.0,3.3618160620000004,0.01,0.0,-2942.0,0.0,0.0,-0.0,0.0,0.125,1.618652178,0.01,0.0,-47.380001068115234,-7.539999961853027,-12.579999923706055,-0.11822509765625,-0.7681884765625,0.6826171875,29.18000030517578,0.0,18.0,-0.6804962158203125,1.327728271484375,Closing,0.0,0.0,0.0,0.0,0.0,0.0,0.0,0.0,
8.034590000000026,0.0,0.0,6756.0,0.0,0.0,0.0,0.0,0.0,0.810546792,0.01,0.0,1060.0,0.0,0.0,-0.0,0.0,0.0,0.496826121,0.01,0.0,4574.0,0.0,0.0,0.0,0.0,0.0,3.3618160620000004,0.01,0.0,-2942.0,0.0,0.0,-0.0,0.0,0.125,1.618652178,0.01,0.0,-46.689998626708984,-7.659999847412109,-12.079999923706055,-0.12542724609375,-0.7589111328125,0.6881103515625,29.18000030517578,0.0,13.0,-0.68011474609375,1.327728271484375,Closing,0.0,0.0,0.0,0.0,0.0,0.0,0.0,0.0,
8.116468999999983,0.0,0.0,6756.0,0.0,0.0,0.0,0.0,0.0,0.810546792,0.01,0.0,1060.0,0.0,0.0,-0.0,0.0,0.0,0.496826121,0.01,0.0,4574.0,0.0,0.0,0.0,0.0,0.0,3.3618160620000004,0.01,0.0,-2942.0,0.0,0.0,-0.0,0.0,0.125,1.617431475,0.01,0.0,-46.0099983215332,-7.809999942779541,-11.359999656677246,-0.1317138671875,-0.7330322265625,0.652099609375,29.18000030517578,0.0,7.0,-0.68011474609375,1.32720947265625,Closing,0.0,0.0,0.0,0.0,0.0,0.0,0.0,0.0,
8.22913400000002,0.0,0.0,6756.0,0.0,0.0,0.0,0.0,0.0,0.810546792,0.01,0.0,1060.0,0.0,0.0,-0.0,0.0,0.0,0.496826121,0.01,0.0,4574.0,0.0,0.0,0.0,0.0,0.0,3.3618160620000004,0.01,0.0,-2942.0,0.0,0.0,-0.0,0.0,0.125,1.617431475,0.01,0.0,-45.40999984741211,-7.519999980926514,-10.6899995803833,-0.1226806640625,-0.7420654296875,0.63983154296875,29.18000030517578,0.0,13.0,-0.68011474609375,1.32537841796875,Closing,0.0,0.0,0.0,0.0,0.0,0.0,0.0,0.0,
8.304738000000013,0.0,0.0,6756.0,0.0,0.0,0.0,0.0,0.0,0.810546792,0.01,0.0,1060.0,0.0,0.0,-0.0,0.0,0.0,0.496826121,0.01,0.0,4574.0,0.0,0.0,0.0,0.0,0.0,3.3618160620000004,0.01,0.0,-2942.0,0.0,0.0,-0.0,0.0,0.125,1.617431475,0.01,0.0,-44.63999938964844,-7.139999866485596,-10.029999732971191,-0.12847900390625,-0.76202392578125,0.6739501953125,29.18000030517578,0.0,6.0,-0.68011474609375,1.321746826171875,Closing,0.0,0.0,0.0,0.0,0.0,0.0,0.0,0.0,
8.374319000000018,0.0,0.0,6756.0,0.0,0.0,0.0,0.0,0.0,0.810546792,0.01,0.0,1060.0,0.0,0.0,-0.0,0.0,0.0,0.496826121,0.01,0.0,4574.0,0.0,0.0,0.0,0.0,0.0,3.3618160620000004,0.01,0.0,-2942.0,0.0,0.0,-0.0,0.0,0.125,1.617431475,0.01,0.0,-43.9900016784668,-6.920000076293945,-9.420000076293945,-0.1319580078125,-0.7518310546875,0.69464111328125,29.18000030517578,0.0,-2.0,-0.68011474609375,1.3161468505859375,Closing,0.0,0.0,0.0,0.0,0.0,0.0,0.0,0.0,
8.43974099999998,0.0,0.0,6756.0,0.0,0.0,0.0,0.0,0.0,0.810546792,0.01,0.0,1060.0,0.0,0.0,-0.0,0.0,0.0,0.496826121,0.01,0.0,4574.0,0.0,0.0,0.0,0.0,0.0,3.3605953590000004,0.01,0.0,-2942.0,0.0,0.0,-0.0,0.0,0.125,1.617431475,0.01,0.0,-43.84000015258789,-6.869999885559082,-8.800000190734863,-0.13446044921875,-0.73187255859375,0.69415283203125,29.18000030517578,0.0,-8.0,-0.68011474609375,1.3088226318359375,Closing,0.0,0.0,0.0,0.0,0.0,0.0,0.0,0.0,
8.512128000000025,0.0,0.0,6756.0,0.0,0.0,0.0,0.0,0.0,0.811767495,0.01,0.0,1060.0,0.0,0.0,-0.0,0.0,0.0,0.495605418,0.01,0.0,4574.0,0.0,0.0,0.0,0.0,0.0,3.3618160620000004,0.01,0.0,-2942.0,0.0,0.0,-0.0,0.0,0.125,1.617431475,0.01,0.0,-44.15999984741211,-6.920000076293945,-8.289999961853027,-0.13134765625,-0.720947265625,0.67425537109375,29.18000030517578,0.0,-8.0,-0.68011474609375,1.3018798828125,Closing,0.0,0.0,0.0,0.0,0.0,0.0,0.0,0.0,
8.581402000000002,0.0,0.0,6756.0,0.0,0.0,0.0,0.0,0.0,0.810546792,0.01,0.0,1060.0,0.0,0.0,-0.0,0.0,0.0,0.496826121,0.01,0.0,4574.0,0.0,0.0,0.0,0.0,0.0,3.3618160620000004,0.01,0.0,-2942.0,0.0,0.0,-0.0,0.0,0.125,1.617431475,0.01,0.0,-45.150001525878906,-7.010000228881836,-7.360000133514404,-0.12457275390625,-0.74945068359375,0.68536376953125,29.18000030517578,0.0,2.0,-0.68011474609375,1.287750244140625,Closing,0.0,0.0,0.0,0.0,0.0,0.0,0.0,0.0,
8.68657799999998,0.0,0.0,6756.0,0.0,0.0,0.0,0.0,0.0,0.810546792,0.01,0.0,1060.0,0.0,0.0,-0.0,0.0,0.0,0.496826121,0.01,0.0,4574.0,0.0,0.0,0.0,0.0,0.0,3.3618160620000004,0.01,0.0,-2942.0,0.0,0.0,-0.0,0.0,0.125,1.617431475,0.01,0.0,-45.79999923706055,-6.989999771118164,-6.670000076293945,-0.1134033203125,-0.73065185546875,0.68695068359375,29.18000030517578,0.0,9.0,-0.68011474609375,1.2763671875,Closing,0.0,0.0,0.0,0.0,0.0,0.0,0.0,0.0,
8.792880999999994,0.0,0.0,6756.0,0.0,0.0,0.0,0.0,0.0,0.810546792,0.01,0.0,1060.0,0.0,0.0,-0.0,0.0,0.0,0.496826121,0.01,0.0,4574.0,0.0,0.0,0.0,0.0,0.0,3.3605953590000004,0.01,0.0,-2942.0,0.0,0.0,-0.0,0.0,0.125,1.618652178,0.01,0.0,-46.16999816894531,-6.880000114440918,-6.159999847412109,-0.11151123046875,-0.69805908203125,0.689208984375,29.200000762939453,0.0,6.0,-0.68011474609375,1.276397705078125,Closing,0.0,0.0,0.0,0.0,0.0,0.0,0.0,0.0,
8.947458999999974,0.0,0.0,6756.0,0.0,0.0,0.0,0.0,0.0,0.810546792,0.01,0.0,1060.0,0.0,0.0,-0.0,0.0,0.0,0.496826121,0.01,0.0,4574.0,0.0,0.0,0.0,0.0,0.0,3.3618160620000004,0.01,0.0,-2942.0,0.0,0.0,-0.0,0.0,0.125,1.617431475,0.01,0.0,-46.84000015258789,-6.889999866485596,-5.980000019073486,-0.114990234375,-0.74859619140625,0.71722412109375,29.200000762939453,0.0,9.0,-0.68011474609375,1.278289794921875,Closing,0.0,0.0,0.0,0.0,0.0,0.0,0.0,0.0,
9.074494000000007,0.0,0.0,6756.0,0.0,0.0,0.0,0.0,0.0,0.811767495,0.01,0.0,1060.0,0.0,0.0,-0.0,0.0,0.0,0.496826121,0.01,0.0,4574.0,0.0,0.0,0.0,0.0,0.0,3.3630367650000004,0.01,0.0,-2942.0,0.0,0.0,-0.0,0.0,0.125,1.617431475,0.01,0.0,-47.34000015258789,-6.900000095367432,-6.260000228881836,-0.10552978515625,-0.70111083984375,0.66766357421875,29.200000762939453,0.0,10.0,-0.68011474609375,1.2791290283203125,Closing,0.0,0.0,0.0,0.0,0.0,0.0,0.0,0.0,
9.145631999999983,0.0,0.0,6756.0,0.0,0.0,0.0,0.0,0.0,0.810546792,0.01,0.0,1060.0,0.0,0.0,-0.0,0.0,0.0,0.496826121,0.01,0.0,4574.0,0.0,0.0,0.0,0.0,0.0,3.3618160620000004,0.01,0.0,-2942.0,0.0,0.0,-0.0,0.0,0.125,1.617431475,0.01,0.0,-47.4900016784668,-6.909999847412109,-6.570000171661377,-0.125244140625,-0.715087890625,0.67181396484375,29.200000762939453,0.0,-6.0,-0.68011474609375,1.2797698974609375,Closing,0.0,0.0,0.0,0.0,0.0,0.0,0.0,0.0,
9.225496999999974,0.0,0.0,6756.0,0.0,0.0,0.0,0.0,0.0,0.811767495,0.01,0.0,1060.0,0.0,0.0,-0.0,0.0,0.0,0.496826121,0.01,0.0,4574.0,0.0,0.0,0.0,0.0,0.0,3.3618160620000004,0.01,0.0,-2942.0,0.0,0.0,-0.0,0.0,0.125,1.617431475,0.01,0.0,-47.400001525878906,-6.960000038146973,-7.03000020980835,-0.1173095703125,-0.73876953125,0.701416015625,29.200000762939453,0.0,5.0,-0.68011474609375,1.2802581787109375,Closing,0.0,0.0,0.0,0.0,0.0,0.0,0.0,0.0,
9.308745999999985,0.0,0.0,6756.0,0.0,0.0,0.0,0.0,0.0,0.810546792,0.01,0.0,1060.0,0.0,0.0,-0.0,0.0,0.0,0.496826121,0.01,0.0,4574.0,0.0,0.0,0.0,0.0,0.0,3.3618160620000004,0.01,0.0,-2942.0,0.0,0.0,-0.0,0.0,0.125,1.617431475,0.01,0.0,-47.11000061035156,-7.179999828338623,-7.610000133514404,-0.13519287109375,-0.73406982421875,0.6929931640625,29.209999084472656,0.0,-8.0,-0.68011474609375,1.2810821533203125,Closing,0.0,0.0,0.0,0.0,0.0,0.0,0.0,0.0,
9.420553000000014,0.0,0.0,6756.0,0.0,0.0,0.0,0.0,0.0,0.811767495,0.01,0.0,1060.0,0.0,0.0,-0.0,0.0,0.0,0.496826121,0.01,0.0,4574.0,0.0,0.0,0.0,0.0,0.0,3.3605953590000004,0.01,0.0,-2942.0,0.0,0.0,-0.0,0.0,0.125,1.617431475,0.01,0.0,-46.93000030517578,-7.420000076293945,-8.210000038146973,-0.1351318359375,-0.7225341796875,0.672607421875,29.209999084472656,0.0,-6.0,-0.68011474609375,1.281341552734375,Closing,0.0,0.0,0.0,0.0,0.0,0.0,0.0,0.0,
9.505207999999984,0.0,0.0,6756.0,0.0,0.0,0.0,0.0,0.0,0.811767495,0.01,0.0,1060.0,0.0,0.0,-0.0,0.0,0.0,0.496826121,0.01,0.0,4574.0,0.0,0.0,0.0,0.0,0.0,3.3618160620000004,0.01,0.0,-2942.0,0.0,0.0,-0.0,0.0,0.125,1.617431475,0.01,0.0,-46.88999938964844,-7.460000038146973,-8.489999771118164,-0.1348876953125,-0.74578857421875,0.68463134765625,29.209999084472656,0.0,-2.0,-0.68011474609375,1.281341552734375,Closing,0.0,0.0,0.0,0.0,0.0,0.0,0.0,0.0,
9.614407000000007,0.0,0.0,6756.0,0.0,0.0,0.0,0.0,0.0,0.810546792,0.01,0.0,1060.0,0.0,0.0,-0.0,0.0,0.0,0.495605418,0.01,0.0,4574.0,0.0,0.0,0.0,0.0,0.0,3.3618160620000004,0.01,0.0,-2942.0,0.0,0.0,-0.0,0.0,0.125,1.618652178,0.01,0.0,-46.7400016784668,-7.400000095367432,-8.75,-0.13092041015625,-0.74169921875,0.6748046875,29.209999084472656,0.0,0.0,-0.68011474609375,1.281341552734375,Closing,0.0,0.0,0.0,0.0,0.0,0.0,0.0,0.0,
9.693755000000005,0.0,0.0,6756.0,0.0,0.0,0.0,0.0,0.0,0.810546792,0.01,0.0,1060.0,0.0,0.0,-0.0,0.0,0.0,0.496826121,0.01,0.0,4574.0,0.0,0.0,0.0,0.0,0.0,3.3605953590000004,0.01,0.0,-2942.0,0.0,0.0,-0.0,0.0,0.125,1.617431475,0.01,0.0,-46.66999816894531,-7.489999771118164,-8.869999885559082,-0.12420654296875,-0.72711181640625,0.66180419921875,29.209999084472656,0.0,5.0,-0.68011474609375,1.281341552734375,Closing,0.0,0.0,0.0,0.0,0.0,0.0,0.0,0.0,
9.772722000000009,0.0,0.0,6756.0,0.0,0.0,0.0,0.0,0.0,0.811767495,0.01,0.0,1060.0,0.0,0.0,-0.0,0.0,0.0,0.496826121,0.01,0.0,4574.0,0.0,0.0,0.0,0.0,0.0,3.3618160620000004,0.01,0.0,-2942.0,0.0,0.0,-0.0,0.0,0.125,1.617431475,0.01,0.0,-46.689998626708984,-7.690000057220459,-8.9399995803833,-0.127685546875,-0.74462890625,0.679931640625,29.219999313354492,0.0,8.0,-0.68011474609375,1.281341552734375,Closing,0.0,0.0,0.0,0.0,0.0,0.0,0.0,0.0,
9.884900000000023,0.0,0.0,6756.0,0.0,0.0,0.0,0.0,0.0,0.810546792,0.01,0.0,1060.0,0.0,0.0,-0.0,0.0,0.0,0.495605418,0.01,0.0,4574.0,0.0,0.0,0.0,0.0,0.0,3.3618160620000004,0.01,0.0,-2942.0,0.0,0.0,-0.0,0.0,0.125,1.617431475,0.01,0.0,-46.7599983215332,-7.710000038146973,-8.880000114440918,-0.1220703125,-0.74566650390625,0.6866455078125,29.219999313354492,0.0,15.0,-0.68011474609375,1.281341552734375,Closing,0.0,0.0,0.0,0.0,0.0,0.0,0.0,0.0,
9.96749199999997,0.0,0.0,6756.0,0.0,0.0,0.0,0.0,0.0,0.811767495,0.01,0.0,1060.0,0.0,0.0,-0.0,0.0,0.0,0.496826121,0.01,0.0,4574.0,0.0,0.0,0.0,0.0,0.0,3.3605953590000004,0.01,0.0,-2942.0,0.0,0.0,-0.0,0.0,0.125,1.617431475,0.01,0.0,-46.880001068115234,-7.489999771118164,-8.779999732971191,-0.11029052734375,-0.73291015625,0.6661376953125,29.219999313354492,0.0,20.0,-0.680084228515625,1.281341552734375,Closing,0.0,0.0,0.0,0.0,0.0,0.0,0.0,0.0,
10.045043999999994,0.0,0.0,6756.0,0.0,0.0,0.0,0.0,0.0,0.811767495,0.01,0.0,1060.0,0.0,0.0,-0.0,0.0,0.0,0.496826121,0.01,0.0,4574.0,0.0,0.0,0.0,0.0,0.0,3.3618160620000004,0.01,0.0,-2942.0,0.0,0.0,-0.0,0.0,0.125,1.617431475,0.01,0.0,-47.150001525878906,-7.099999904632568,-8.649999618530273,-0.11199951171875,-0.742431640625,0.65972900390625,29.219999313354492,0.0,12.0,-0.679962158203125,1.281341552734375,Closing,0.0,0.0,0.0,0.0,0.0,0.0,0.0,0.0,
10.216025000000023,0.0,0.0,6756.0,0.0,0.0,0.0,0.0,0.0,0.810546792,0.01,0.0,1060.0,0.0,0.0,-0.0,0.0,0.0,0.496826121,0.01,0.0,4574.0,0.0,0.0,0.0,0.0,0.0,3.3630367650000004,0.01,0.0,-2942.0,0.0,0.0,-0.0,0.0,0.125,1.617431475,0.01,0.0,-47.58000183105469,-6.579999923706055,-8.579999923706055,-0.11566162109375,-0.74346923828125,0.67071533203125,29.219999313354492,0.0,0.0,-0.679962158203125,1.280548095703125,Closing,0.0,0.0,0.0,0.0,0.0,0.0,0.0,0.0,
10.295319000000017,0.0,0.0,6756.0,0.0,0.0,0.0,0.0,0.0,0.811767495,0.01,0.0,1060.0,0.0,0.0,-0.0,0.0,0.0,0.496826121,0.01,0.0,4574.0,0.0,0.0,0.0,0.0,0.0,3.3618160620000004,0.01,0.0,-2942.0,0.0,0.0,-0.0,0.0,0.125,1.617431475,0.01,0.0,-47.91999816894531,-6.349999904632568,-8.5,-0.1204833984375,-0.751220703125,0.6749267578125,29.239999771118164,0.0,-8.0,-0.6800994873046875,1.280548095703125,Closing,0.0,0.0,0.0,0.0,0.0,0.0,0.0,0.0,
10.485734999999986,0.0,0.0,6756.0,0.0,0.0,0.0,0.0,0.0,0.810546792,0.01,0.0,1060.0,0.0,0.0,-0.0,0.0,0.0,0.496826121,0.01,0.0,4574.0,0.0,0.0,0.0,0.0,0.0,3.3618160620000004,0.01,0.0,-2942.0,0.0,0.0,-0.0,0.0,0.125,1.617431475,0.01,0.0,-49.02000045776367,-5.489999771118164,-8.130000114440918,-0.12115478515625,-0.7745361328125,0.67132568359375,29.239999771118164,0.0,-22.0,-0.68011474609375,1.280548095703125,Closing,0.0,0.0,0.0,0.0,0.0,0.0,0.0,0.0,
10.570267999999983,0.0,0.0,6756.0,0.0,0.0,0.0,0.0,0.0,0.811767495,0.01,0.0,1060.0,0.0,0.0,-0.0,0.0,0.0,0.496826121,0.01,0.0,4574.0,0.0,0.0,0.0,0.0,0.0,3.3630367650000004,0.01,0.0,-2942.0,0.0,0.0,-0.0,0.0,0.125,1.617431475,0.01,-0.0012207030000004337,-49.33000183105469,-5.139999866485596,-8.039999961853027,-0.10162353515625,-0.74261474609375,0.6429443359375,29.239999771118164,0.0,-14.0,-0.6810150146484375,1.280548095703125,Closing,0.0,0.0,0.0,0.0,0.0,0.0,0.0,0.0,
10.675706999999996,0.0,0.0,6756.0,0.0,0.0,0.0,0.0,0.0,0.811767495,0.01,0.0,1060.0,0.0,0.0,-0.0,0.0,0.0,0.496826121,0.01,0.0,4574.0,0.0,0.0,0.0,0.0,0.0,3.3618160620000004,0.01,0.0,-2942.0,0.0,0.0,-0.0,0.0,0.125,1.617431475,0.01,0.0,-49.72999954223633,-5.050000190734863,-8.069999694824219,-0.116943359375,-0.7728271484375,0.663330078125,29.239999771118164,0.0,-27.0,-0.6815032958984375,1.280548095703125,Closing,0.0,0.0,0.0,0.0,0.0,0.0,0.0,0.0,
10.772021000000008,0.0,0.0,6756.0,0.0,0.0,0.0,0.0,0.0,0.810546792,0.01,0.0,1060.0,0.0,0.0,-0.0,0.0,0.0,0.496826121,0.01,0.0,4574.0,0.0,0.0,0.0,0.0,0.0,3.3618160620000004,0.01,0.0,-2942.0,0.0,0.0,-0.0,0.0,0.125,1.617431475,0.01,0.0,-49.959999084472656,-5.110000133514404,-8.170000076293945,-0.10284423828125,-0.75341796875,0.6461181640625,29.239999771118164,0.0,-15.0,-0.6825408935546875,1.280548095703125,Closing,0.0,0.0,0.0,0.0,0.0,0.0,0.0,0.0,
10.87316399999999,0.0,0.0,6756.0,0.0,0.0,0.0,0.0,0.0,0.810546792,0.01,0.0,1060.0,0.0,0.0,-0.0,0.0,0.0,0.496826121,0.01,0.0,4574.0,0.0,0.0,0.0,0.0,0.0,3.3618160620000004,0.01,0.0,-2942.0,0.0,0.0,-0.0,0.0,0.125,1.617431475,0.01,0.0,-49.959999084472656,-5.400000095367432,-8.4399995803833,-0.110595703125,-0.751220703125,0.64178466796875,29.229999542236328,0.0,-18.0,-0.6825408935546875,1.280548095703125,Closing,0.0,0.0,0.0,0.0,0.0,0.0,0.0,0.0,
10.968136999999988,0.0,0.0,6756.0,0.0,0.0,0.0,0.0,0.0,0.810546792,0.01,0.0,1060.0,0.0,0.0,-0.0,0.0,0.0,0.495605418,0.01,0.0,4574.0,0.0,0.0,0.0,0.0,0.0,3.3618160620000004,0.01,0.0,-2942.0,0.0,0.0,-0.0,0.0,0.125,1.617431475,0.01,0.0,-49.88999938964844,-5.739999771118164,-8.779999732971191,-0.11138916015625,-0.765869140625,0.65399169921875,29.229999542236328,0.0,-11.0,-0.682708740234375,1.280548095703125,Closing,0.0,0.0,0.0,0.0,0.0,0.0,0.0,0.0,
11.041681999999971,0.0,0.0,6756.0,0.0,0.0,0.0,0.0,0.0,0.811767495,0.01,0.0,1060.0,0.0,0.0,-0.0,0.0,0.0,0.496826121,0.01,0.0,4574.0,0.0,0.0,0.0,0.0,0.0,3.3605953590000004,0.01,0.0,-2942.0,0.0,0.0,-0.0,0.0,0.125,1.617431475,0.01,0.0,-49.810001373291016,-6.119999885559082,-9.109999656677246,-0.10772705078125,-0.76397705078125,0.651611328125,29.229999542236328,0.0,-1.0,-0.682708740234375,1.280548095703125,Closing,0.0,0.0,0.0,0.0,0.0,0.0,0.0,0.0,
11.152485999999975,0.0,0.0,6756.0,0.0,0.0,0.0,0.0,0.0,0.810546792,0.01,0.0,1060.0,0.0,0.0,-0.0,0.0,0.0,0.496826121,0.01,0.0,4574.0,0.0,0.0,0.0,0.0,0.0,3.3618160620000004,0.01,0.0,-2942.0,0.0,0.0,-0.0,0.0,0.125,1.617431475,0.01,0.0,-49.52000045776367,-6.769999980926514,-9.680000305175781,-0.113037109375,-0.7552490234375,0.6495361328125,29.229999542236328,0.0,3.0,-0.682708740234375,1.280548095703125,Closing,0.0,0.0,0.0,0.0,0.0,0.0,0.0,0.0,
11.22832799999998,0.0,0.0,6756.0,0.0,0.0,0.0,0.0,0.0,0.810546792,0.01,0.0,1060.0,0.0,0.0,-0.0,0.0,0.0,0.495605418,0.01,0.0,4574.0,0.0,0.0,0.0,0.0,0.0,3.3618160620000004,0.01,0.0,-2942.0,0.0,0.0,-0.0,0.0,0.125,1.617431475,0.01,0.0,-49.27000045776367,-7.110000133514404,-10.039999961853027,-0.11224365234375,-0.74755859375,0.6485595703125,29.229999542236328,0.0,9.0,-0.682708740234375,1.280548095703125,Closing,0.0,0.0,0.0,0.0,0.0,0.0,0.0,0.0,
11.35099900000001,0.0,0.0,6756.0,0.0,0.0,0.0,0.0,0.0,0.811767495,0.01,0.0,1060.0,0.0,0.0,-0.0,0.0,0.0,0.496826121,0.01,0.0,4574.0,0.0,0.0,0.0,0.0,0.0,3.3605953590000004,0.01,0.0,-2942.0,0.0,0.0,-0.0,0.0,0.125,1.617431475,0.01,0.0,-48.7400016784668,-7.659999847412109,-10.510000228881836,-0.11376953125,-0.76544189453125,0.654052734375,29.239999771118164,0.0,21.0,-0.68267822265625,1.280548095703125,Closing,0.0,0.0,0.0,0.0,0.0,0.0,0.0,0.0,
11.447918000000005,0.0,0.0,6756.0,0.0,0.0,0.0,0.0,0.0,0.810546792,0.01,0.0,1060.0,0.0,0.0,-0.0,0.0,0.0,0.496826121,0.01,0.0,4574.0,0.0,0.0,0.0,0.0,0.0,3.3605953590000004,0.01,0.0,-2942.0,0.0,0.0,-0.0,0.0,0.125,1.617431475,0.01,0.0,-47.9900016784668,-7.78000020980835,-10.59000015258789,-0.1197509765625,-0.73828125,0.6571044921875,29.239999771118164,0.0,14.0,-0.68231201171875,1.280548095703125,Closing,0.0,0.0,0.0,0.0,0.0,0.0,0.0,0.0,
11.570370999999984,0.0,0.0,6756.0,0.0,0.0,0.0,0.0,0.0,0.810546792,0.01,0.0,1060.0,0.0,0.0,-0.0,0.0,0.0,0.496826121,0.01,0.0,4574.0,0.0,0.0,0.0,0.0,0.0,3.3630367650000004,0.01,0.0,-2942.0,0.0,0.0,-0.0,0.0,0.125,1.617431475,0.01,0.0,-47.65999984741211,-7.71999979019165,-10.5,-0.12054443359375,-0.75885009765625,0.67401123046875,29.239999771118164,0.0,17.0,-0.68231201171875,1.280548095703125,Closing,0.0,0.0,0.0,0.0,0.0,0.0,0.0,0.0,
11.647119000000005,0.0,0.0,6756.0,0.0,0.0,0.0,0.0,0.0,0.811767495,0.01,0.0,1060.0,0.0,0.0,-0.0,0.0,0.0,0.495605418,0.01,0.0,4574.0,0.0,0.0,0.0,0.0,0.0,3.3605953590000004,0.01,0.0,-2942.0,0.0,0.0,-0.0,0.0,0.125,1.618652178,0.01,0.0,-47.40999984741211,-7.590000152587891,-10.319999694824219,-0.1217041015625,-0.7618408203125,0.66741943359375,29.239999771118164,0.0,14.0,-0.682159423828125,1.280548095703125,Closing,0.0,0.0,0.0,0.0,0.0,0.0,0.0,0.0,
11.747955000000017,0.0,0.0,6756.0,0.0,0.0,0.0,0.0,0.0,0.811767495,0.01,0.0,1060.0,0.0,0.0,-0.0,0.0,0.0,0.495605418,0.01,0.0,4574.0,0.0,0.0,0.0,0.0,0.0,3.3618160620000004,0.01,0.0,-2942.0,0.0,0.0,-0.0,0.0,0.125,1.617431475,0.01,0.0,-47.09000015258789,-7.300000190734863,-9.899999618530273,-0.1141357421875,-0.73284912109375,0.65771484375,29.239999771118164,0.0,12.0,-0.682159423828125,1.280548095703125,Closing,0.0,0.0,0.0,0.0,0.0,0.0,0.0,0.0,
11.838739000000002,0.0,0.0,6756.0,0.0,0.0,0.0,0.0,0.0,0.810546792,0.01,0.0,1060.0,0.0,0.0,-0.0,0.0,0.0,0.495605418,0.01,0.0,4574.0,0.0,0.0,0.0,0.0,0.0,3.3618160620000004,0.01,0.0,-2942.0,0.0,0.0,-0.0,0.0,0.125,1.617431475,0.01,0.0,-46.959999084472656,-7.079999923706055,-9.600000381469727,-0.11517333984375,-0.74664306640625,0.66259765625,29.270000457763672,0.0,10.0,-0.682159423828125,1.280548095703125,Closing,0.0,0.0,0.0,0.0,0.0,0.0,0.0,0.0,
11.90736599999998,0.0,0.0,6756.0,0.0,0.0,0.0,0.0,0.0,0.810546792,0.01,0.0,1060.0,0.0,0.0,-0.0,0.0,0.0,0.496826121,0.01,0.0,4574.0,0.0,0.0,0.0,0.0,0.0,3.3605953590000004,0.01,0.0,-2942.0,0.0,0.0,-0.0,0.0,0.125,1.617431475,0.01,0.0,-46.849998474121094,-6.639999866485596,-8.960000038146973,-0.11529541015625,-0.7596435546875,0.68109130859375,29.270000457763672,0.0,5.0,-0.682159423828125,1.2804107666015625,Closing,0.0,0.0,0.0,0.0,0.0,0.0,0.0,0.0,
