Time,ClimberA1,ClimberA2,FRpos,FRCurrent,FRspeed,FRsetpoint,FRApos,FRACurrent,FREncpos,FREncSetpoint,FREncSpeed,FLpos,FLCurrent,FLspeed,FLsetpoint,FLApos,FLACurrent,FLEncpos,FLEncSetpoint,FLEncSpeed,BRpos,BRCurrent,BRspeed,BRsetpoint,BRApos,BRACurrent,BREncpos,BREncSetpoint,BREncSpeed,BLpos,BLCurrent,BLspeed,BLsetpoint,BLApos,BLACurrent,BLEncpos,BLEncSetpoint,BLEncSpeed,navx_Pitch,navx_Roll,navx_Yaw,navx_XAcc,navx_YAcc,navx_ZAcc,navx_Temp,navx_Bar,navx_Alt,navx_XDis,navx_YDis,GearPlacerState,ShootOutputV,ShootOutputCurrent,ShootEncPos,ShootEncVelocity,ShootSpeed,ShootSetpoint,CarouselSetpoint,CarouselCurrent,
0.27093099999999687,0.0,0.0,2383.0,0.0,0.0,0.0,0.0,0.125,0.8544921000000001,0.01,0.0,2758.0,0.0,0.0,-0.0,0.0,0.0,0.49194330900000005,0.01,0.0,2147.0,0.0,0.0,0.0,0.0,0.125,3.391112934,0.01,0.0,-2832.0,0.0,0.0,-0.0,0.0,0.125,1.6040037420000002,0.01,0.0,0.20999999344348907,-0.11999999731779099,166.6999969482422,-0.00604248046875,0.0057373046875,1.0302734375,27.40999984741211,0.0,4.0,-0.428924560546875,-0.463134765625,Closing,0.0,0.0,0.0,0.0,0.0,0.0,0.0,0.0,
0.3303929999999964,0.0,0.0,2383.0,0.0,0.0,0.0,0.0,0.125,0.8544921000000001,0.01,0.0,2758.0,0.0,0.0,-0.0,0.0,0.0,0.49194330900000005,0.01,0.0,2147.0,0.0,0.0,0.0,0.0,0.125,3.389892231,0.01,0.0,-2832.0,0.0,0.0,-0.0,0.0,0.125,1.6040037420000002,0.01,0.0,0.20999999344348907,-0.11999999731779099,166.69000244140625,-0.0023193359375,0.00238037109375,1.02569580078125,27.40999984741211,0.0,0.0,-0.428924560546875,-0.463134765625,Closing,0.0,0.0,0.0,0.0,0.0,0.0,0.0,0.0,
0.4007309999999998,0.0,0.0,2383.0,0.0,0.0,0.0,0.0,0.125,0.8544921000000001,0.01,0.0,2758.0,0.0,0.0,-0.0,0.0,0.0,0.490722606,0.01,0.0,2147.0,0.0,0.0,0.0,0.0,0.0,3.389892231,0.01,0.0012207029999999897,-2832.0,0.0,0.0,-0.0,0.0,0.125,1.6052244450000002,0.01,0.0,0.20999999344348907,-0.11999999731779099,166.69000244140625,-6.103515625E-5,0.00299072265625,1.02850341796875,27.43000030517578,0.0,-2.0,-0.428924560546875,-0.463134765625,Closing,0.0,0.0,0.0,0.0,0.0,0.0,0.0,0.0,
0.4622280000000028,0.0,0.0,2383.0,0.0,0.0,0.0,0.0,0.125,0.8532713970000001,0.01,0.0,2758.0,0.0,0.0,-0.0,0.0,0.0,0.49194330900000005,0.01,0.0,2147.0,0.0,0.0,0.0,0.0,0.125,3.388671528,0.01,0.0,-2832.0,0.0,0.0,-0.0,0.0,0.125,1.6052244450000002,0.01,0.0,0.20999999344348907,-0.11999999731779099,166.69000244140625,-0.0018310546875,0.001220703125,1.02789306640625,27.43000030517578,0.0,0.0,-0.428924560546875,-0.463134765625,Closing,0.0,0.0,0.0,0.0,0.0,0.0,0.0,0.0,
0.49205999999999767,0.0,0.0,2383.0,0.0,0.0,0.0,0.0,0.125,0.8532713970000001,0.01,0.0,2758.0,0.0,0.0,-0.0,0.0,0.0,0.49194330900000005,0.01,0.0,2147.0,0.0,0.0,0.0,0.0,0.125,3.389892231,0.01,0.0,-2832.0,0.0,0.0,-0.0,0.0,0.125,1.6040037420000002,0.01,-0.0012207029999995456,0.20999999344348907,-0.11999999731779099,166.69000244140625,-0.00189208984375,0.00360107421875,1.02532958984375,27.43000030517578,0.0,0.0,-0.428924560546875,-0.463134765625,Closing,0.0,0.0,0.0,0.0,0.0,0.0,0.0,0.0,
0.5273010000000068,0.0,0.0,2383.0,0.0,0.0,0.0,0.0,0.125,0.8544921000000001,0.01,0.0,2758.0,0.0,0.0,-0.0,0.0,0.0,0.49194330900000005,0.01,0.0,2147.0,0.0,0.0,0.0,0.0,0.125,3.391112934,0.01,0.0,-2832.0,0.0,0.0,-0.0,0.0,0.125,1.6040037420000002,0.01,-0.0012207029999995456,0.20999999344348907,-0.11999999731779099,166.69000244140625,-0.0025634765625,0.00482177734375,1.02581787109375,27.43000030517578,0.0,0.0,-0.428924560546875,-0.463134765625,Closing,0.0,0.0,0.0,0.0,0.0,0.0,0.0,0.0,
0.5526579999999958,0.0,0.0,2383.0,0.0,0.0,0.0,0.0,0.125,0.8544921000000001,0.01,0.0,2758.0,0.0,0.0,-0.0,0.0,0.0,0.49194330900000005,0.01,0.0,2147.0,0.0,0.0,0.0,0.0,0.125,3.389892231,0.01,0.0,-2832.0,0.0,0.0,-0.0,0.0,0.125,1.6052244450000002,0.01,0.0012207029999995456,0.20999999344348907,-0.11999999731779099,166.69000244140625,-7.9345703125E-4,0.00677490234375,1.02520751953125,27.43000030517578,0.0,0.0,-0.428924560546875,-0.463134765625,Closing,0.0,0.0,0.0,0.0,0.0,0.0,0.0,0.0,
0.5951970000000001,0.0,0.0,2383.0,0.0,0.0,0.0,0.0,0.125,0.8544921000000001,0.01,0.0,2758.0,0.0,0.0,-0.0,0.0,0.0,0.49194330900000005,0.01,0.0,2147.0,0.0,0.0,0.0,0.0,0.125,3.391112934,0.01,0.0,-2832.0,0.0,0.0,-0.0,0.0,0.125,1.6040037420000002,0.01,0.0,0.20999999344348907,-0.11999999731779099,166.69000244140625,-0.001953125,0.00347900390625,1.02825927734375,27.43000030517578,0.0,0.0,-0.428924560546875,-0.463134765625,Closing,0.0,0.0,0.0,0.0,0.0,0.0,0.0,0.0,
0.6487930000000052,0.0,0.0,2383.0,0.0,0.0,0.0,0.0,0.125,0.8544921000000001,0.01,0.0,2758.0,0.0,0.0,-0.0,0.0,0.0,0.490722606,0.01,0.0,2147.0,0.0,0.0,0.0,0.0,0.125,3.389892231,0.01,-0.0012207029999999897,-2832.0,0.0,0.0,-0.0,0.0,0.125,1.6040037420000002,0.01,-0.0012207029999995456,0.20999999344348907,-0.11999999731779099,166.69000244140625,-0.00286865234375,0.0020751953125,1.0218505859375,27.43000030517578,0.0,0.0,-0.428924560546875,-0.463134765625,Closing,0.0,0.0,0.0,0.0,0.0,0.0,0.0,0.0,
0.6849909999999946,0.0,0.0,2383.0,0.0,0.0,0.0,0.0,0.125,0.8544921000000001,0.01,0.0,2758.0,0.0,0.0,-0.0,0.0,0.0,0.49194330900000005,0.01,0.0,2147.0,0.0,0.0,0.0,0.0,0.0,3.389892231,0.01,-0.0012207029999999897,-2832.0,0.0,0.0,-0.0,0.0,0.125,1.6027830390000002,0.01,-0.0012207029999995456,0.20999999344348907,-0.11999999731779099,166.69000244140625,-0.00299072265625,0.005615234375,1.028076171875,27.43000030517578,0.0,1.0,-0.428924560546875,-0.463134765625,Closing,0.0,0.0,0.0,0.0,0.0,0.0,0.0,0.0,
0.7206049999999959,0.0,0.0,2383.0,0.0,0.0,0.0,0.0,0.125,0.8532713970000001,0.01,0.0,2758.0,0.0,0.0,-0.0,0.0,0.0,0.49194330900000005,0.01,0.0,2147.0,0.0,0.0,0.0,0.0,0.0,3.389892231,0.01,0.0,-2832.0,0.0,0.0,-0.0,0.0,0.125,1.6052244450000002,0.01,0.0,0.20999999344348907,-0.11999999731779099,166.69000244140625,6.103515625E-4,0.00189208984375,1.02032470703125,27.43000030517578,0.0,-3.0,-0.428924560546875,-0.463134765625,Closing,0.0,0.0,0.0,0.0,0.0,0.0,0.0,0.0,
0.7763500000000059,0.0,0.0,2383.0,0.0,0.0,0.0,0.0,0.125,0.8544921000000001,0.01,0.0,2758.0,0.0,0.0,-0.0,0.0,0.0,0.49316401200000004,0.01,0.0,2147.0,0.0,0.0,0.0,0.0,0.125,3.389892231,0.01,0.0,-2832.0,0.0,0.0,-0.0,0.0,0.125,1.6040037420000002,0.01,0.0,0.20999999344348907,-0.11999999731779099,166.69000244140625,-0.00250244140625,0.004638671875,1.02874755859375,27.43000030517578,0.0,0.0,-0.428924560546875,-0.463134765625,Closing,0.0,0.0,0.0,0.0,0.0,0.0,0.0,0.0,
0.8150109999999986,0.0,0.0,2383.0,0.0,0.0,0.0,0.0,0.125,0.8544921000000001,0.01,0.0,2758.0,0.0,0.0,-0.0,0.0,0.0,0.49194330900000005,0.01,0.0,2147.0,0.0,0.0,0.0,0.0,0.125,3.389892231,0.01,0.0,-2832.0,0.0,0.0,-0.0,0.0,0.125,1.6040037420000002,0.01,0.0,0.20999999344348907,-0.11999999731779099,166.69000244140625,-3.662109375E-4,0.00164794921875,1.02728271484375,27.43000030517578,0.0,-2.0,-0.428924560546875,-0.463134765625,Closing,0.0,0.0,0.0,0.0,0.0,0.0,0.0,0.0,
0.8574989999999961,0.0,0.0,2383.0,0.0,0.0,0.0,0.0,0.125,0.8544921000000001,0.01,0.0,2758.0,0.0,0.0,-0.0,0.0,0.0,0.49194330900000005,0.01,0.0,2147.0,0.0,0.0,0.0,0.0,0.125,3.389892231,0.01,0.0012207029999999897,-2832.0,0.0,0.0,-0.0,0.0,0.125,1.6040037420000002,0.01,0.0,0.20999999344348907,-0.11999999731779099,166.69000244140625,7.9345703125E-4,0.001220703125,1.02783203125,27.43000030517578,0.0,-3.0,-0.428924560546875,-0.463134765625,Closing,0.0,0.0,0.0,0.0,0.0,0.0,0.0,0.0,
0.9144630000000034,0.0,0.0,2383.0,0.0,0.0,0.0,0.0,0.125,0.8544921000000001,0.01,0.0,2758.0,0.0,0.0,-0.0,0.0,0.0,0.49194330900000005,0.01,0.0,2147.0,0.0,0.0,0.0,0.0,0.125,3.389892231,0.01,0.0,-2832.0,0.0,0.0,-0.0,0.0,0.125,1.6040037420000002,0.01,0.0,0.20999999344348907,-0.11999999731779099,166.67999267578125,-0.001220703125,0.00445556640625,1.0264892578125,27.450000762939453,0.0,0.0,-0.428924560546875,-0.463134765625,Closing,0.0,0.0,0.0,0.0,0.0,0.0,0.0,0.0,
0.9565439999999944,0.0,0.0,2383.0,0.0,0.0,0.0,0.0,0.125,0.8532713970000001,0.01,-0.0012207030000001007,2758.0,0.0,0.0,-0.0,0.0,0.0,0.49194330900000005,0.01,0.0,2147.0,0.0,0.0,0.0,0.0,0.0,3.389892231,0.01,0.0,-2832.0,0.0,0.0,-0.0,0.0,0.125,1.6040037420000002,0.01,0.0,0.20999999344348907,-0.11999999731779099,166.69000244140625,-0.001220703125,0.004150390625,1.02423095703125,27.450000762939453,0.0,0.0,-0.428924560546875,-0.463134765625,Closing,0.0,0.0,0.0,0.0,0.0,0.0,0.0,0.0,
0.9995910000000003,0.0,0.0,2383.0,0.0,0.0,0.0,0.0,0.125,0.8532713970000001,0.01,0.0012207030000001007,2758.0,0.0,0.0,-0.0,0.0,0.0,0.49194330900000005,0.01,0.0,2147.0,0.0,0.0,0.0,0.0,0.125,3.389892231,0.01,0.0,-2832.0,0.0,0.0,-0.0,0.0,0.125,1.6040037420000002,0.01,0.0,0.20999999344348907,-0.11999999731779099,166.67999267578125,6.103515625E-4,0.00537109375,1.02423095703125,27.450000762939453,0.0,-2.0,-0.428924560546875,-0.463134765625,Closing,0.0,0.0,0.0,0.0,0.0,0.0,0.0,0.0,
1.055752999999997,0.0,0.0,2383.0,0.0,0.0,0.0,0.0,0.125,0.849609288,0.01,0.0,2758.0,0.0,0.0,-0.0,0.0,0.0,0.490722606,0.01,0.0,2147.0,0.0,0.0,0.0,0.0,0.125,3.391112934,0.01,0.0,-2832.0,0.0,0.0,-0.0,0.0,0.125,1.6040037420000002,0.01,0.0,0.20999999344348907,-0.11999999731779099,166.67999267578125,-0.0018310546875,0.00433349609375,1.0267333984375,27.450000762939453,0.0,0.0,-0.428924560546875,-0.463134765625,Closing,0.0,0.0,0.0,0.0,0.0,0.0,0.0,0.0,
1.1128629999999975,0.0,0.0,2383.0,0.0,0.0,0.0,0.0,0.125,0.8532713970000001,0.01,0.0,2758.0,0.0,0.0,-0.0,0.0,0.0,0.49194330900000005,0.01,0.0,2147.0,0.0,0.0,0.0,0.0,0.125,3.389892231,0.01,-0.0012207029999999897,-2832.0,0.0,0.0,-0.0,0.0,0.125,1.6040037420000002,0.01,-0.0012207029999995456,0.20999999344348907,-0.11999999731779099,166.67999267578125,-0.00543212890625,0.00433349609375,1.0328369140625,27.450000762939453,0.0,3.0,-0.428924560546875,-0.463134765625,Closing,0.0,0.0,0.0,0.0,0.0,0.0,0.0,0.0,
1.1527050000000016,0.0,0.0,2383.0,0.0,0.0,0.0,0.0,0.125,0.8544921000000001,0.01,0.0,2758.0,0.0,0.0,-0.0,0.0,0.0,0.49194330900000005,0.01,0.0,2147.0,0.0,0.0,0.0,0.0,0.125,3.388671528,0.01,0.0012207029999999897,-2832.0,0.0,0.0,-0.0,0.0,0.125,1.6040037420000002,0.01,0.0012207029999995456,0.20999999344348907,-0.11999999731779099,166.67999267578125,-0.00140380859375,0.00390625,1.02362060546875,27.450000762939453,0.0,0.0,-0.428924560546875,-0.463134765625,Closing,0.0,0.0,0.0,0.0,0.0,0.0,0.0,0.0,
1.1945080000000017,0.0,0.0,2383.0,0.0,0.0,0.0,0.0,0.125,0.8532713970000001,0.01,0.0,2758.0,0.0,0.0,-0.0,0.0,0.0,0.490722606,0.01,0.0,2147.0,0.0,0.0,0.0,0.0,0.0,3.389892231,0.01,0.0,-2832.0,0.0,0.0,-0.0,0.0,0.125,1.6040037420000002,0.01,0.0,0.20999999344348907,-0.11999999731779099,166.67999267578125,-0.00201416015625,0.00341796875,1.02899169921875,27.450000762939453,0.0,0.0,-0.428924560546875,-0.463134765625,Closing,0.0,0.0,0.0,0.0,0.0,0.0,0.0,0.0,
1.2522179999999934,0.0,0.0,2383.0,0.0,0.0,0.0,0.0,0.125,0.8544921000000001,0.01,0.0,2758.0,0.0,0.0,-0.0,0.0,0.0,0.49194330900000005,0.01,0.0,2147.0,0.0,0.0,0.0,0.0,0.125,3.389892231,0.01,-0.0012207029999999897,-2832.0,0.0,0.0,-0.0,0.0,0.125,1.6027830390000002,0.01,0.0,0.20999999344348907,-0.11999999731779099,166.67999267578125,-0.00164794921875,0.00408935546875,1.02801513671875,27.450000762939453,0.0,0.0,-0.428924560546875,-0.463134765625,Closing,0.0,0.0,0.0,0.0,0.0,0.0,0.0,0.0,
1.3065840000000026,0.0,0.0,2383.0,0.0,0.0,0.0,0.0,0.125,0.8532713970000001,0.01,-0.0012207030000001007,2758.0,0.0,0.0,-0.0,0.0,0.0,0.490722606,0.01,0.0,2147.0,0.0,0.0,0.0,0.0,0.125,3.389892231,0.01,0.0012207029999999897,-2832.0,0.0,0.0,-0.0,0.0,0.125,1.6040037420000002,0.01,0.0,0.20999999344348907,-0.11999999731779099,166.67999267578125,-0.00323486328125,0.00390625,1.021484375,27.450000762939453,0.0,1.0,-0.428924560546875,-0.463134765625,Closing,0.0,0.0,0.0,0.0,0.0,0.0,0.0,0.0,
1.3383359999999958,0.0,0.0,2383.0,0.0,0.0,0.0,0.0,0.125,0.8532713970000001,0.01,-0.0012207030000001007,2758.0,0.0,0.0,-0.0,0.0,0.0,0.490722606,0.01,0.0,2147.0,0.0,0.0,0.0,0.0,0.125,3.389892231,0.01,0.0012207029999999897,-2832.0,0.0,0.0,-0.0,0.0,0.125,1.6040037420000002,0.01,0.0,0.20999999344348907,-0.11999999731779099,166.67999267578125,-0.001708984375,0.00433349609375,1.02349853515625,27.450000762939453,0.0,0.0,-0.428924560546875,-0.463134765625,Closing,0.0,0.0,0.0,0.0,0.0,0.0,0.0,0.0,
1.3839279999999998,0.0,0.0,2383.0,0.0,0.0,0.0,0.0,0.125,0.848388585,0.01,0.0012207030000001007,2758.0,0.0,0.0,-0.0,0.0,0.0,0.49194330900000005,0.01,0.0,2147.0,0.0,0.0,0.0,0.0,0.125,3.389892231,0.01,0.0,-2832.0,0.0,0.0,-0.0,0.0,0.125,1.6052244450000002,0.01,0.0,0.20999999344348907,-0.11999999731779099,166.67999267578125,0.00115966796875,0.00482177734375,1.02838134765625,27.450000762939453,0.0,-3.0,-0.428924560546875,-0.463134765625,Closing,0.0,0.0,0.0,0.0,0.0,0.0,0.0,0.0,
1.4155610000000016,0.0,0.0,2383.0,0.0,0.0,0.0,0.0,0.125,0.8544921000000001,0.01,0.0,2758.0,0.0,0.0,-0.0,0.0,0.0,0.49194330900000005,0.01,0.0,2147.0,0.0,0.0,0.0,0.0,0.125,3.389892231,0.01,-0.0012207029999999897,-2832.0,0.0,0.0,-0.0,0.0,0.125,1.6040037420000002,0.01,0.0,0.20999999344348907,-0.11999999731779099,166.67999267578125,0.00115966796875,0.001220703125,1.02447509765625,27.5,0.0,-3.0,-0.428924560546875,-0.463134765625,Closing,0.0,0.0,0.0,0.0,0.0,0.0,0.0,0.0,
1.4546579999999958,0.0,0.0,2383.0,0.0,0.0,0.0,0.0,0.125,0.8544921000000001,0.01,0.0,2758.0,0.0,0.0,-0.0,0.0,0.0,0.490722606,0.01,0.0,2147.0,0.0,0.0,0.0,0.0,0.125,3.389892231,0.01,0.0,-2832.0,0.0,0.0,-0.0,0.0,0.125,1.6040037420000002,0.01,-0.0012207029999995456,0.20999999344348907,-0.11999999731779099,166.6699981689453,-3.662109375E-4,0.0037841796875,1.02618408203125,27.5,0.0,-1.0,-0.428924560546875,-0.463134765625,Closing,0.0,0.0,0.0,0.0,0.0,0.0,0.0,0.0,
1.5083640000000014,0.0,0.0,2383.0,0.0,0.0,0.0,0.0,0.125,0.8544921000000001,0.01,0.0,2758.0,0.0,0.0,-0.0,0.0,0.0,0.49194330900000005,0.01,0.0,2147.0,0.0,0.0,0.0,0.0,0.125,3.389892231,0.01,0.0012207029999999897,-2832.0,0.0,0.0,-0.0,0.0,0.125,1.6040037420000002,0.01,0.0012207029999995456,0.20999999344348907,-0.11999999731779099,166.6699981689453,-0.00213623046875,0.00146484375,1.02178955078125,27.5,0.0,0.0,-0.428924560546875,-0.463134765625,Closing,0.0,0.0,0.0,0.0,0.0,0.0,0.0,0.0,
1.548898000000001,0.0,0.0,2383.0,0.0,0.0,0.0,0.0,0.125,0.8532713970000001,0.01,0.0,2758.0,0.0,0.0,-0.0,0.0,0.0,0.490722606,0.01,0.0,2147.0,0.0,0.0,0.0,0.0,0.0,3.389892231,0.01,0.0,-2832.0,0.0,0.0,-0.0,0.0,0.125,1.6040037420000002,0.01,0.0,0.20999999344348907,-0.11999999731779099,166.6699981689453,-0.0029296875,0.0037841796875,1.02593994140625,27.5,0.0,0.0,-0.428924560546875,-0.463134765625,Closing,0.0,0.0,0.0,0.0,0.0,0.0,0.0,0.0,
1.5942320000000036,0.0,0.0,2383.0,0.0,0.0,0.0,0.0,0.125,0.8532713970000001,0.01,0.0,2758.0,0.0,0.0,-0.0,0.0,0.0,0.49194330900000005,0.01,0.0,2147.0,0.0,0.0,0.0,0.0,0.0,3.391112934,0.01,-0.0012207029999999897,-2832.0,0.0,0.0,-0.0,0.0,0.125,1.6027830390000002,0.01,-0.0012207029999995456,0.20999999344348907,-0.11999999731779099,166.6699981689453,-2.44140625E-4,0.004150390625,1.02606201171875,27.5,0.0,-1.0,-0.428924560546875,-0.463134765625,Closing,0.0,0.0,0.0,0.0,0.0,0.0,0.0,0.0,
1.6417770000000018,0.0,0.0,2383.0,0.0,0.0,0.0,0.0,0.125,0.8532713970000001,0.01,0.0,2758.0,0.0,0.0,-0.0,0.0,0.0,0.489501903,0.01,0.0,2147.0,0.0,0.0,0.0,0.0,0.125,3.389892231,0.01,-0.0012207029999999897,-2832.0,0.0,0.0,-0.0,0.0,0.125,1.6040037420000002,0.01,-0.0012207029999995456,0.2199999988079071,-0.11999999731779099,166.6699981689453,-0.00482177734375,0.004638671875,1.02789306640625,27.5,0.0,-1.0,-0.428924560546875,-0.463134765625,Closing,0.0,0.0,0.0,0.0,0.0,0.0,0.0,0.0,
1.7007119999999996,0.0,0.0,2383.0,0.0,0.0,0.0,0.0,0.125,0.852050694,0.01,0.0,2758.0,0.0,0.0,-0.0,0.0,0.0,0.490722606,0.01,0.0,2147.0,0.0,0.0,0.0,0.0,0.125,3.389892231,0.01,0.0,-2832.0,0.0,0.0,-0.0,0.0,0.125,1.6040037420000002,0.01,0.0,0.20999999344348907,-0.11999999731779099,166.6699981689453,0.001708984375,0.00457763671875,1.026123046875,27.5,0.0,-3.0,-0.428924560546875,-0.463134765625,Closing,0.0,0.0,0.0,0.0,0.0,0.0,0.0,0.0,
1.7321919999999955,0.0,0.0,2383.0,0.0,0.0,0.0,0.0,0.125,0.8532713970000001,0.01,0.0,2758.0,0.0,0.0,-0.0,0.0,0.0,0.490722606,0.01,0.0,2147.0,0.0,0.0,0.0,0.0,0.125,3.389892231,0.01,-0.0012207029999999897,-2832.0,0.0,0.0,-0.0,0.0,0.125,1.6027830390000002,0.01,0.0,0.20999999344348907,-0.11999999731779099,166.6699981689453,-0.00164794921875,0.00360107421875,1.0274658203125,27.5,0.0,0.0,-0.428924560546875,-0.463134765625,Closing,0.0,0.0,0.0,0.0,0.0,0.0,0.0,0.0,
1.7883220000000002,0.0,0.0,2383.0,0.0,0.0,0.0,0.0,0.125,0.8544921000000001,0.01,0.0,2758.0,0.0,0.0,-0.0,0.0,0.0,0.49194330900000005,0.01,0.0,2147.0,0.0,0.0,0.0,0.0,0.125,3.389892231,0.01,0.0012207029999999897,-2832.0,0.0,0.0,-0.0,0.0,0.125,1.6040037420000002,0.01,0.0,0.20999999344348907,-0.11999999731779099,166.6699981689453,-6.103515625E-4,0.00299072265625,1.02606201171875,27.5,0.0,-1.0,-0.428924560546875,-0.463134765625,Closing,0.0,0.0,0.0,0.0,0.0,0.0,0.0,0.0,
1.838820000000007,0.0,0.0,2383.0,0.0,0.0,0.0,0.0,0.125,0.848388585,0.01,0.0,2758.0,0.0,0.0,-0.0,0.0,0.0,0.490722606,0.01,0.0,2147.0,0.0,0.0,0.0,0.0,0.125,3.389892231,0.01,0.0012207029999999897,-2832.0,0.0,0.0,-0.0,0.0,0.125,1.6040037420000002,0.01,0.0,0.20999999344348907,-0.11999999731779099,166.6699981689453,-0.002685546875,0.00311279296875,1.02490234375,27.5,0.0,0.0,-0.428924560546875,-0.463134765625,Closing,0.0,0.0,0.0,0.0,0.0,0.0,0.0,0.0,
1.8989959999999992,0.0,0.0,2383.0,0.0,0.0,0.0,0.0,0.125,0.8532713970000001,0.01,0.0,2758.0,0.0,0.0,-0.0,0.0,0.0,0.490722606,0.01,0.0,2147.0,0.0,0.0,0.0,0.0,0.125,3.389892231,0.01,-0.0012207029999999897,-2832.0,0.0,0.0,-0.0,0.0,0.125,1.6040037420000002,0.01,0.0,0.20999999344348907,-0.11999999731779099,166.6699981689453,-0.0025634765625,0.00518798828125,1.02276611328125,27.5,0.0,0.0,-0.428924560546875,-0.463134765625,Closing,0.0,0.0,0.0,0.0,0.0,0.0,0.0,0.0,
1.9730010000000038,0.0,0.0,2383.0,0.0,0.0,0.0,0.0,0.125,0.8544921000000001,0.01,0.0,2758.0,0.0,0.0,-0.0,0.0,0.0,0.490722606,0.01,0.0,2147.0,0.0,0.0,0.0,0.0,0.125,3.389892231,0.01,0.0012207029999999897,-2832.0,0.0,0.0,-0.0,0.0,0.125,1.6040037420000002,0.01,0.0,0.20999999344348907,-0.11999999731779099,166.6699981689453,-0.00152587890625,0.00323486328125,1.02996826171875,27.469999313354492,0.0,0.0,-0.428924560546875,-0.463134765625,Closing,0.0,0.0,0.0,0.0,0.0,0.0,0.0,0.0,
2.0139869999999935,0.0,0.0,2383.0,0.0,0.0,0.0,0.0,0.125,0.848388585,0.01,0.0,2758.0,0.0,0.0,-0.0,0.0,0.0,0.49194330900000005,0.01,0.0,2147.0,0.0,0.0,0.0,0.0,0.125,3.389892231,0.01,0.0,-2832.0,0.0,0.0,-0.0,0.0,0.125,1.6040037420000002,0.01,0.0,0.2199999988079071,-0.11999999731779099,166.6699981689453,-6.103515625E-4,0.0029296875,1.0260009765625,27.469999313354492,0.0,-1.0,-0.428924560546875,-0.463134765625,Closing,0.0,0.0,0.0,0.0,0.0,0.0,0.0,0.0,
2.063347999999998,0.0,0.0,2383.0,0.0,0.0,0.0,0.0,0.125,0.8544921000000001,0.01,0.0,2758.0,0.0,0.0,-0.0,0.0,0.0,0.490722606,0.01,0.0,2147.0,0.0,0.0,0.0,0.0,0.125,3.389892231,0.01,0.0,-2832.0,0.0,0.0,-0.0,0.0,0.125,1.6040037420000002,0.01,0.0,0.2199999988079071,-0.11999999731779099,166.6699981689453,7.32421875E-4,0.00335693359375,1.03240966796875,27.469999313354492,0.0,-3.0,-0.428924560546875,-0.463134765625,Closing,0.0,0.0,0.0,0.0,0.0,0.0,0.0,0.0,
2.112107999999993,0.0,0.0,2383.0,0.0,0.0,0.0,0.0,0.125,0.8532713970000001,0.01,0.0,2758.0,0.0,0.0,-0.0,0.0,0.0,0.490722606,0.01,0.0,2147.0,0.0,0.0,0.0,0.0,0.125,3.389892231,0.01,-0.0012207029999999897,-2832.0,0.0,0.0,-0.0,0.0,0.125,1.6040037420000002,0.01,0.0,0.23000000417232513,-0.10999999940395355,166.6699981689453,-7.9345703125E-4,0.00628662109375,1.02593994140625,27.469999313354492,0.0,0.0,-0.428924560546875,-0.463134765625,Closing,0.0,0.0,0.0,0.0,0.0,0.0,0.0,0.0,
2.167808999999994,0.0,0.0,2383.0,0.0,0.0,0.0,0.0,0.125,0.8532713970000001,0.01,0.0,2758.0,0.0,0.0,-0.0,0.0,0.0,0.49194330900000005,0.01,0.0,2147.0,0.0,0.0,0.0,0.0,0.125,3.389892231,0.01,0.0,-2832.0,0.0,0.0,-0.0,0.0,0.125,1.6040037420000002,0.01,-0.0012207029999995456,0.23000000417232513,-0.10999999940395355,166.6699981689453,-0.00396728515625,0.002685546875,1.021728515625,27.469999313354492,0.0,1.0,-0.428924560546875,-0.463134765625,Closing,0.0,0.0,0.0,0.0,0.0,0.0,0.0,0.0,
2.202088999999993,0.0,0.0,2383.0,0.0,0.0,0.0,0.0,0.125,0.8544921000000001,0.01,0.0,2758.0,0.0,0.0,-0.0,0.0,0.0,0.49194330900000005,0.01,0.0,2147.0,0.0,0.0,0.0,0.0,0.125,3.389892231,0.01,0.0012207029999999897,-2832.0,0.0,0.0,-0.0,0.0,0.125,1.6027830390000002,0.01,0.0012207029999995456,0.23000000417232513,-0.10999999940395355,166.6699981689453,-0.002197265625,0.00653076171875,1.02197265625,27.469999313354492,0.0,0.0,-0.428924560546875,-0.463134765625,Closing,0.0,0.0,0.0,0.0,0.0,0.0,0.0,0.0,
2.255403999999995,0.0,0.0,2383.0,0.0,0.0,0.0,0.0,0.125,0.8532713970000001,0.01,0.0,2758.0,0.0,0.0,-0.0,0.0,0.0,0.490722606,0.01,0.0,2147.0,0.0,0.0,0.0,0.0,0.0,3.391112934,0.01,-0.0012207029999999897,-2832.0,0.0,0.0,-0.0,0.0,0.125,1.6040037420000002,0.01,-0.0012207029999995456,0.23000000417232513,-0.11999999731779099,166.6699981689453,-0.0023193359375,0.00347900390625,1.0260009765625,27.469999313354492,0.0,0.0,-0.428924560546875,-0.463134765625,Closing,0.0,0.0,0.0,0.0,0.0,0.0,0.0,0.0,
2.3138350000000063,0.0,0.0,2383.0,0.0,0.0,0.0,0.0,0.125,0.8544921000000001,0.01,0.0,2758.0,0.0,0.0,-0.0,0.0,0.0,0.49194330900000005,0.01,0.0,2147.0,0.0,0.0,0.0,0.0,0.0,3.389892231,0.01,0.0,-2832.0,0.0,0.0,-0.0,0.0,0.125,1.6040037420000002,0.01,0.0,0.23000000417232513,-0.11999999731779099,166.6699981689453,0.00146484375,0.00469970703125,1.0260009765625,27.469999313354492,0.0,-3.0,-0.428924560546875,-0.463134765625,Closing,0.0,0.0,0.0,0.0,0.0,0.0,0.0,0.0,
2.3748160000000063,0.0,0.0,2383.0,0.0,0.0,0.0,0.0,0.125,0.8532713970000001,0.01,-0.0024414060000000903,2758.0,0.0,0.0,-0.0,0.0,0.0,0.49194330900000005,0.01,0.0,2147.0,0.0,0.0,0.0,0.0,0.0,3.389892231,0.01,0.0,-2832.0,0.0,0.0,-0.0,0.0,0.125,1.6027830390000002,0.01,0.0,0.23000000417232513,-0.10999999940395355,166.6699981689453,-6.103515625E-5,0.003173828125,1.02777099609375,27.469999313354492,0.0,-2.0,-0.428924560546875,-0.463134765625,Closing,0.0,0.0,0.0,0.0,0.0,0.0,0.0,0.0,
2.4284879999999975,0.0,0.0,2383.0,0.0,0.0,0.0,0.0,0.125,0.8532713970000001,0.01,0.0024414060000000903,2758.0,0.0,0.0,-0.0,0.0,0.0,0.49194330900000005,0.01,0.0,2147.0,0.0,0.0,0.0,0.0,0.125,3.389892231,0.01,0.0,-2832.0,0.0,0.0,-0.0,0.0,0.125,1.6040037420000002,0.01,0.0012207029999995456,0.23000000417232513,-0.10999999940395355,166.6699981689453,-0.00146484375,0.00531005859375,1.02880859375,27.469999313354492,0.0,0.0,-0.428924560546875,-0.463134765625,Closing,0.0,0.0,0.0,0.0,0.0,0.0,0.0,0.0,
2.4634609999999957,0.0,0.0,2383.0,0.0,0.0,0.0,0.0,0.125,0.8544921000000001,0.01,0.0,2758.0,0.0,0.0,-0.0,0.0,0.0,0.490722606,0.01,0.0,2147.0,0.0,0.0,0.0,0.0,0.125,3.389892231,0.01,0.0012207029999999897,-2832.0,0.0,0.0,-0.0,0.0,0.125,1.6040037420000002,0.01,0.0,0.23000000417232513,-0.10999999940395355,166.6699981689453,-0.00335693359375,0.00335693359375,1.026123046875,27.469999313354492,0.0,1.0,-0.428924560546875,-0.463134765625,Closing,0.0,0.0,0.0,0.0,0.0,0.0,0.0,0.0,
2.511528999999995,0.0,0.0,2383.0,0.0,0.0,0.0,0.0,0.125,0.8544921000000001,0.01,0.0,2758.0,0.0,0.0,-0.0,0.0,0.0,0.490722606,0.01,0.0,2147.0,0.0,0.0,0.0,0.0,0.125,3.389892231,0.01,-0.0012207029999999897,-2832.0,0.0,0.0,-0.0,0.0,0.125,1.6052244450000002,0.01,0.0,0.2199999988079071,-0.10999999940395355,166.6699981689453,-0.00347900390625,0.00689697265625,1.02862548828125,27.469999313354492,0.0,2.0,-0.428924560546875,-0.463134765625,Closing,0.0,0.0,0.0,0.0,0.0,0.0,0.0,0.0,
2.5747890000000044,0.0,0.0,2383.0,0.0,0.0,0.0,0.0,0.125,0.8544921000000001,0.01,0.0,2758.0,0.0,0.0,-0.0,0.0,0.0,0.49194330900000005,0.01,0.0,2147.0,0.0,0.0,0.0,0.0,0.125,3.388671528,0.01,0.0,-2832.0,0.0,0.0,-0.0,0.0,0.125,1.6040037420000002,0.01,-0.0012207029999995456,0.2199999988079071,-0.10999999940395355,166.6699981689453,-0.00494384765625,0.00543212890625,1.0252685546875,27.469999313354492,0.0,3.0,-0.428924560546875,-0.463134765625,Closing,0.0,0.0,0.0,0.0,0.0,0.0,0.0,0.0,
2.6404189999999943,0.0,0.0,2383.0,0.0,0.0,0.0,0.0,0.125,0.8544921000000001,0.01,0.0,2758.0,0.0,0.0,-0.0,0.0,0.0,0.490722606,0.01,0.0,2147.0,0.0,0.0,0.0,0.0,0.125,3.389892231,0.01,0.0012207029999999897,-2832.0,0.0,0.0,-0.0,0.0,0.125,1.6040037420000002,0.01,0.0012207029999995456,0.2199999988079071,-0.10999999940395355,166.6699981689453,-0.0025634765625,0.00616455078125,1.02490234375,27.469999313354492,0.0,1.0,-0.428924560546875,-0.463134765625,Closing,0.0,0.0,0.0,0.0,0.0,0.0,0.0,0.0,
2.679577999999994,0.0,0.0,2383.0,0.0,0.0,0.0,0.0,0.125,0.8532713970000001,0.01,-0.0012207030000001007,2758.0,0.0,0.0,-0.0,0.0,0.0,0.49194330900000005,0.01,0.0,2147.0,0.0,0.0,0.0,0.0,0.125,3.389892231,0.01,-0.0012207029999999897,-2832.0,0.0,0.0,-0.0,0.0,0.125,1.6040037420000002,0.01,-0.0012207029999995456,0.2199999988079071,-0.10999999940395355,166.6699981689453,-0.00103759765625,0.0072021484375,1.0279541015625,27.469999313354492,0.0,0.0,-0.428924560546875,-0.463134765625,Closing,0.0,0.0,0.0,0.0,0.0,0.0,0.0,0.0,
2.7284980000000068,0.0,0.0,2383.0,0.0,0.0,0.0,0.0,0.125,0.8544921000000001,0.01,0.0012207030000001007,2758.0,0.0,0.0,-0.0,0.0,0.0,0.49194330900000005,0.01,0.0,2147.0,0.0,0.0,0.0,0.0,0.125,3.389892231,0.01,0.0012207029999999897,-2832.0,0.0,0.0,-0.0,0.0,0.125,1.6040037420000002,0.01,0.0012207029999995456,0.2199999988079071,-0.10999999940395355,166.6699981689453,-0.00286865234375,0.00286865234375,1.024658203125,27.469999313354492,0.0,0.0,-0.428924560546875,-0.463134765625,Closing,0.0,0.0,0.0,0.0,0.0,0.0,0.0,0.0,
2.755335999999996,0.0,0.0,2383.0,0.0,0.0,0.0,0.0,0.125,0.848388585,0.01,0.0,2758.0,0.0,0.0,-0.0,0.0,0.0,0.49194330900000005,0.01,0.0,2147.0,0.0,0.0,0.0,0.0,0.125,3.389892231,0.01,-0.0012207029999999897,-2832.0,0.0,0.0,-0.0,0.0,0.125,1.6040037420000002,0.01,0.0,0.2199999988079071,-0.10999999940395355,166.6699981689453,-9.1552734375E-4,0.00164794921875,1.025390625,27.469999313354492,0.0,-1.0,-0.428924560546875,-0.463134765625,Closing,0.0,0.0,0.0,0.0,0.0,0.0,0.0,0.0,
2.7930800000000016,0.0,0.0,2383.0,0.0,0.0,0.0,0.0,0.125,0.8532713970000001,0.01,0.0,2758.0,0.0,0.0,-0.0,0.0,0.0,0.49194330900000005,0.01,0.0,2147.0,0.0,0.0,0.0,0.0,0.125,3.389892231,0.01,-0.0012207029999999897,-2832.0,0.0,0.0,-0.0,0.0,0.125,1.6040037420000002,0.01,0.0,0.2199999988079071,-0.10999999940395355,166.6699981689453,-0.0030517578125,0.00146484375,1.025390625,27.469999313354492,0.0,0.0,-0.428924560546875,-0.463134765625,Closing,0.0,0.0,0.0,0.0,0.0,0.0,0.0,0.0,
2.8428369999999994,0.0,0.0,2383.0,0.0,0.0,0.0,0.0,0.125,0.8532713970000001,0.01,0.0,2758.0,0.0,0.0,-0.0,0.0,0.0,0.490722606,0.01,0.0,2147.0,0.0,0.0,0.0,0.0,0.125,3.388671528,0.01,0.0,-2832.0,0.0,0.0,-0.0,0.0,0.125,1.6040037420000002,0.01,-0.0012207029999995456,0.2199999988079071,-0.10999999940395355,166.66000366210938,-0.001953125,0.0015869140625,1.02630615234375,27.469999313354492,0.0,0.0,-0.428924560546875,-0.463134765625,Closing,0.0,0.0,0.0,0.0,0.0,0.0,0.0,0.0,
2.8739579999999987,0.0,0.0,2383.0,0.0,0.0,0.0,0.0,0.125,0.8544921000000001,0.01,0.0,2758.0,0.0,0.0,-0.0,0.0,0.0,0.490722606,0.01,0.0,2147.0,0.0,0.0,0.0,0.0,0.0,3.391112934,0.01,0.0,-2832.0,0.0,0.0,-0.0,0.0,0.125,1.6040037420000002,0.01,0.0012207029999995456,0.2199999988079071,-0.10999999940395355,166.66000366210938,-0.00128173828125,0.00128173828125,1.03082275390625,27.469999313354492,0.0,-1.0,-0.428924560546875,-0.463134765625,Closing,0.0,0.0,0.0,0.0,0.0,0.0,0.0,0.0,
2.9131560000000025,0.0,0.0,2383.0,0.0,0.0,0.0,0.0,0.125,0.8544921000000001,0.01,0.0,2758.0,0.0,0.0,-0.0,0.0,0.0,0.49194330900000005,0.01,0.0,2147.0,0.0,0.0,0.0,0.0,0.0,3.389892231,0.01,0.0012207029999999897,-2832.0,0.0,0.0,-0.0,0.0,0.125,1.6040037420000002,0.01,0.0,0.20999999344348907,-0.11999999731779099,166.66000366210938,-0.003173828125,0.00537109375,1.0267333984375,27.469999313354492,0.0,1.0,-0.428924560546875,-0.463134765625,Closing,0.0,0.0,0.0,0.0,0.0,0.0,0.0,0.0,
2.9656159999999945,0.0,0.0,2383.0,0.0,0.0,0.0,0.0,0.125,0.8532713970000001,0.01,0.0,2758.0,0.0,0.0,-0.0,0.0,0.0,0.49194330900000005,0.01,0.0,2147.0,0.0,0.0,0.0,0.0,0.125,3.389892231,0.01,0.0,-2832.0,0.0,0.0,-0.0,0.0,0.125,1.6027830390000002,0.01,0.0,0.2199999988079071,-0.11999999731779099,166.66000366210938,-0.00439453125,0.00146484375,1.028076171875,27.440000534057617,0.0,1.0,-0.428924560546875,-0.463134765625,Closing,0.0,0.0,0.0,0.0,0.0,0.0,0.0,0.0,
2.993975999999995,0.0,0.0,2383.0,0.0,0.0,0.0,0.0,0.125,0.8557128030000001,0.01,0.0,2758.0,0.0,0.0,-0.0,0.0,0.0,0.49194330900000005,0.01,0.0,2147.0,0.0,0.0,0.0,0.0,0.125,3.389892231,0.01,0.0,-2832.0,0.0,0.0,-0.0,0.0,0.125,1.6052244450000002,0.01,0.0,0.2199999988079071,-0.11999999731779099,166.66000366210938,-0.00189208984375,0.004638671875,1.02984619140625,27.440000534057617,0.0,0.0,-0.428924560546875,-0.463134765625,Closing,0.0,0.0,0.0,0.0,0.0,0.0,0.0,0.0,
3.0479489999999934,0.0,0.0,2383.0,0.0,0.0,0.0,0.0,0.125,0.8544921000000001,0.01,0.0,2758.0,0.0,0.0,-0.0,0.0,0.0,0.49194330900000005,0.01,0.0,2147.0,0.0,0.0,0.0,0.0,0.125,3.389892231,0.01,0.0,-2832.0,0.0,0.0,-0.0,0.0,0.125,1.6040037420000002,0.01,0.0,0.2199999988079071,-0.11999999731779099,166.66000366210938,-0.00537109375,0.00396728515625,1.02667236328125,27.440000534057617,0.0,3.0,-0.428924560546875,-0.463134765625,Closing,0.0,0.0,0.0,0.0,0.0,0.0,0.0,0.0,
3.0868800000000047,0.0,0.0,2383.0,0.0,0.0,0.0,0.0,0.125,0.849609288,0.01,0.0,2758.0,0.0,0.0,-0.0,0.0,0.0,0.49194330900000005,0.01,0.0,2147.0,0.0,0.0,0.0,0.0,0.125,3.389892231,0.01,0.0,-2832.0,0.0,0.0,-0.0,0.0,0.125,1.6040037420000002,0.01,-0.0012207029999995456,0.20999999344348907,-0.11999999731779099,166.66000366210938,-0.00445556640625,0.00250244140625,1.0257568359375,27.440000534057617,0.0,1.0,-0.428924560546875,-0.463134765625,Closing,0.0,0.0,0.0,0.0,0.0,0.0,0.0,0.0,
3.129798999999999,0.0,0.0,2383.0,0.0,0.0,0.0,0.0,0.125,0.848388585,0.01,0.0,2758.0,0.0,0.0,-0.0,0.0,0.0,0.49194330900000005,0.01,0.0,2147.0,0.0,0.0,0.0,0.0,0.125,3.389892231,0.01,0.0,-2832.0,0.0,0.0,-0.0,0.0,0.125,1.6040037420000002,0.01,0.0012207029999995456,0.2199999988079071,-0.12999999523162842,166.6699981689453,-0.00408935546875,0.0054931640625,1.02581787109375,27.440000534057617,0.0,1.0,-0.428924560546875,-0.463134765625,Closing,0.0,0.0,0.0,0.0,0.0,0.0,0.0,0.0,
3.1839660000000003,0.0,0.0,2383.0,0.0,0.0,0.0,0.0,0.125,0.8544921000000001,0.01,0.0,2758.0,0.0,0.0,-0.0,0.0,0.0,0.49194330900000005,0.01,0.0,2147.0,0.0,0.0,0.0,0.0,0.125,3.389892231,0.01,0.0,-2832.0,0.0,0.0,-0.0,0.0,0.125,1.6040037420000002,0.01,0.0,0.2199999988079071,-0.12999999523162842,166.6699981689453,-0.00146484375,0.002685546875,1.02490234375,27.440000534057617,0.0,-1.0,-0.428924560546875,-0.463134765625,Closing,0.0,0.0,0.0,0.0,0.0,0.0,0.0,0.0,
3.2386530000000056,0.0,0.0,2383.0,0.0,0.0,0.0,0.0,0.125,0.8544921000000001,0.01,0.0,2758.0,0.0,0.0,-0.0,0.0,0.0,0.49194330900000005,0.01,0.0,2147.0,0.0,0.0,0.0,0.0,0.125,3.389892231,0.01,0.0,-2832.0,0.0,0.0,-0.0,0.0,0.125,1.6052244450000002,0.01,0.0,0.20999999344348907,-0.12999999523162842,166.6699981689453,-0.00335693359375,0.00384521484375,1.022705078125,27.440000534057617,0.0,0.0,-0.428924560546875,-0.463134765625,Closing,0.0,0.0,0.0,0.0,0.0,0.0,0.0,0.0,
3.2705149999999996,0.0,0.0,2383.0,0.0,0.0,0.0,0.0,0.125,0.8544921000000001,0.01,-0.0012207030000001007,2758.0,0.0,0.0,-0.0,0.0,0.0,0.49316401200000004,0.01,0.0,2147.0,0.0,0.0,0.0,0.0,0.0,3.389892231,0.01,-0.0012207029999999897,-2832.0,0.0,0.0,-0.0,0.0,0.125,1.6040037420000002,0.01,0.0,0.20999999344348907,-0.12999999523162842,166.6699981689453,-0.00250244140625,0.00164794921875,1.0244140625,27.440000534057617,0.0,0.0,-0.428924560546875,-0.463134765625,Closing,0.0,0.0,0.0,0.0,0.0,0.0,0.0,0.0,
3.312847999999998,0.0,0.0,2383.0,0.0,0.0,0.0,0.0,0.125,0.8544921000000001,0.01,0.0,2758.0,0.0,0.0,-0.0,0.0,0.0,0.49194330900000005,0.01,0.0,2147.0,0.0,0.0,0.0,0.0,0.0,3.389892231,0.01,0.0,-2832.0,0.0,0.0,-0.0,0.0,0.125,1.6040037420000002,0.01,-0.0012207029999995456,0.20999999344348907,-0.12999999523162842,166.6699981689453,-0.0054931640625,0.0037841796875,1.02484130859375,27.440000534057617,0.0,2.0,-0.428924560546875,-0.463134765625,Closing,0.0,0.0,0.0,0.0,0.0,0.0,0.0,0.0,
3.3490639999999985,0.0,0.0,2383.0,0.0,0.0,0.0,0.0,0.125,0.8532713970000001,0.01,0.0,2758.0,0.0,0.0,-0.0,0.0,0.0,0.49194330900000005,0.01,0.0,2147.0,0.0,0.0,0.0,0.0,0.125,3.389892231,0.01,0.0,-2832.0,0.0,0.0,-0.0,0.0,0.125,1.6040037420000002,0.01,-0.0012207029999995456,0.20999999344348907,-0.12999999523162842,166.6699981689453,-0.00238037109375,0.0045166015625,1.02679443359375,27.440000534057617,0.0,0.0,-0.428924560546875,-0.463134765625,Closing,0.0,0.0,0.0,0.0,0.0,0.0,0.0,0.0,
3.3882430000000023,0.0,0.0,2383.0,0.0,0.0,0.0,0.0,0.125,0.8544921000000001,0.01,0.0012207030000001007,2758.0,0.0,0.0,-0.0,0.0,0.0,0.49194330900000005,0.01,0.0,2147.0,0.0,0.0,0.0,0.0,0.125,3.389892231,0.01,0.0012207029999999897,-2832.0,0.0,0.0,-0.0,0.0,0.125,1.6040037420000002,0.01,0.0,0.20000000298023224,-0.12999999523162842,166.6699981689453,-0.00115966796875,0.0020751953125,1.02630615234375,27.440000534057617,0.0,-1.0,-0.428924560546875,-0.463134765625,Closing,0.0,0.0,0.0,0.0,0.0,0.0,0.0,0.0,
3.4368369999999997,0.0,0.0,2383.0,0.0,0.0,0.0,0.0,0.125,0.8544921000000001,0.01,0.0,2758.0,0.0,0.0,-0.0,0.0,0.0,0.49194330900000005,0.01,0.0,2147.0,0.0,0.0,0.0,0.0,0.0,3.389892231,0.01,0.0,-2832.0,0.0,0.0,-0.0,0.0,0.125,1.6040037420000002,0.01,0.0,0.20000000298023224,-0.12999999523162842,166.6699981689453,-0.0018310546875,0.00244140625,1.02484130859375,27.440000534057617,0.0,0.0,-0.428924560546875,-0.463134765625,Closing,0.0,0.0,0.0,0.0,0.0,0.0,0.0,0.0,
3.4687139999999927,0.0,0.0,2383.0,0.0,0.0,0.0,0.0,0.125,0.849609288,0.01,0.0,2758.0,0.0,0.0,-0.0,0.0,0.0,0.49194330900000005,0.01,0.0,2147.0,0.0,0.0,0.0,0.0,0.125,3.389892231,0.01,0.0,-2832.0,0.0,0.0,-0.0,0.0,0.125,1.6040037420000002,0.01,0.0,0.20000000298023224,-0.12999999523162842,166.6699981689453,-0.0028076171875,0.0048828125,1.0228271484375,27.489999771118164,0.0,0.0,-0.428924560546875,-0.463134765625,Closing,0.0,0.0,0.0,0.0,0.0,0.0,0.0,0.0,
3.5154639999999926,0.0,0.0,2383.0,0.0,0.0,0.0,0.0,0.125,0.8544921000000001,0.01,0.0,2758.0,0.0,0.0,-0.0,0.0,0.0,0.490722606,0.01,0.0,2147.0,0.0,0.0,0.0,0.0,0.125,3.391112934,0.01,0.0,-2832.0,0.0,0.0,-0.0,0.0,0.125,1.6040037420000002,0.01,0.0,0.20000000298023224,-0.14000000059604645,166.6699981689453,-0.0023193359375,0.0035400390625,1.025390625,27.489999771118164,0.0,0.0,-0.428924560546875,-0.463134765625,Closing,0.0,0.0,0.0,0.0,0.0,0.0,0.0,0.0,
3.570580000000002,0.0,0.0,2383.0,0.0,0.0,0.0,0.0,0.125,0.8544921000000001,0.01,0.0,2758.0,0.0,0.0,-0.0,0.0,0.0,0.49194330900000005,0.01,0.0,2147.0,0.0,0.0,0.0,0.0,0.125,3.389892231,0.01,-0.0012207029999999897,-2832.0,0.0,0.0,-0.0,0.0,0.125,1.6040037420000002,0.01,-0.0012207029999995456,0.20000000298023224,-0.14000000059604645,166.6699981689453,-0.0018310546875,0.0057373046875,1.0291748046875,27.489999771118164,0.0,0.0,-0.428924560546875,-0.463134765625,Closing,0.0,0.0,0.0,0.0,0.0,0.0,0.0,0.0,
3.6199619999999997,0.0,0.0,2383.0,0.0,0.0,277.79527455568314,0.0,0.125,0.859374912,1.0504324309410558,0.0,2758.0,0.0,0.0,-277.79527455568314,0.0,5.5,0.5017089330000001,1.057145102252964,0.0,2147.0,0.125,0.0,277.79527455568314,0.0,1.75,3.389892231,1.0521679415384968,0.0,-2832.0,0.0,0.0,-277.79527455568314,0.0,4.375,1.665038892,1.0559162525600896,0.0,0.20000000298023224,-0.14000000059604645,166.6699981689453,-3.662109375E-4,0.00494384765625,1.024658203125,27.489999771118164,0.0,-1.0,-0.428924560546875,-0.463134765625,Closing,0.0,0.0,0.0,0.0,0.0,0.0,0.0,0.0,
3.655771999999997,0.0,0.0,2383.0,0.375,0.0,773.8582742214203,0.0,5.5,1.0351561440000001,1.0504324309410558,0.03662108999999991,2758.0,0.125,-15.0,-773.8582742214203,0.0,8.5,0.682372977,1.057145102252964,0.025634763000000227,2147.0,0.125,0.0,773.8582742214203,0.0,5.25,3.5693355720000004,1.0521679415384968,0.0,-2832.0,0.125,0.0,-773.8582742214203,0.0,6.625,1.90429668,1.0559162525600896,0.0,0.1899999976158142,-0.11999999731779099,166.6699981689453,-0.01214599609375,-0.13873291015625,0.99652099609375,27.489999771118164,0.0,-23.0,-0.4289398193359375,-0.462921142578125,Closing,0.0,0.0,0.0,0.0,0.0,0.0,0.0,0.0,
3.692630999999994,0.0,0.0,2395.0,1.625,52.5,793.7007844448091,0.0,3.25,1.307372913,1.0504324309410558,0.234374976,2741.0,3.375,-82.5,-793.7007844448091,0.0,4.0,0.963134667,1.057145102252964,0.2502441149999992,2148.0,2.25,0.0,793.7007844448091,0.0,5.375,3.823241796,1.0521679415384968,0.22949216399999983,-2840.0,1.0,-30.0,-793.7007844448091,0.0,3.375,2.132568141,1.0559162525600896,0.2490234120000001,0.18000000715255737,0.009999999776482582,166.74000549316406,0.25970458984375,0.0941162109375,1.05755615234375,27.489999771118164,0.0,-231.0,-0.429412841796875,-0.4623260498046875,Closing,0.0,0.0,0.0,0.0,0.0,0.0,0.0,0.0,
3.729778999999995,0.0,0.0,2395.0,2.125,105.0,535.7480388879776,0.0,1.625,1.571044761,1.0513915800935147,0.0,2741.0,5.0,-127.5,-535.7480388879776,0.0,1.25,1.2426756540000001,1.0581103807411232,0.0,2148.0,3.75,7.5,535.7480388879776,0.0,2.125,4.082030832,1.0531286753845253,0.0,-2840.0,1.25,-172.5,-535.7480388879776,0.0,1.0,2.364501711,1.0568804089864132,0.0,0.25999999046325684,0.3100000023841858,166.7899932861328,0.136474609375,-0.01922607421875,0.9969482421875,27.489999771118164,0.0,-132.0,-0.4310150146484375,-0.4622955322265625,Closing,0.0,0.0,0.0,0.0,0.0,0.0,0.0,0.0,
3.777698000000004,0.0,0.0,2395.0,0.625,180.0,0.0,0.0,0.25,1.754150211,1.0513915800935147,0.20263669799999984,2741.0,1.75,-217.5,0.0,0.0,0.25,1.484374848,1.0581103807411232,0.2563476300000005,2148.0,1.75,7.5,0.0,0.0,0.625,4.316405808,1.0531286753845253,0.23681638200000021,-2840.0,0.125,-277.5,0.0,0.0,0.25,2.570800518,1.0568804089864132,0.21850583699999993,0.47999998927116394,0.36000001430511475,166.72999572753906,-0.2667236328125,0.15045166015625,1.22613525390625,27.489999771118164,0.0,299.0,-0.4345550537109375,-0.4633636474609375,Closing,0.0,0.0,0.0,0.0,0.0,0.0,0.0,0.0,
3.8331600000000035,0.0,0.0,2411.0,0.0,82.5,0.0,0.0,0.25,1.8701169960000001,1.0513915800935147,0.235595679,2718.0,0.0,-157.5,0.0,0.0,0.25,1.621093584,1.0581103807411232,0.2783202840000003,2149.0,0.0,0.0,0.0,0.0,0.25,4.459228059,1.0531286753845253,0.2832030959999994,-2874.0,0.0,-195.0,0.0,0.0,0.25,2.6855466000000003,1.0568804089864132,0.24414060000000015,0.5400000214576721,-0.1899999976158142,166.72000122070312,-0.1043701171875,-0.03564453125,0.9329833984375,27.489999771118164,0.0,88.0,-0.4360809326171875,-0.4665069580078125,Closing,0.0,0.0,0.0,0.0,0.0,0.0,0.0,0.0,
3.862133000000002,0.0,0.0,2411.0,0.0,7.5,0.0,0.0,0.125,1.874999808,1.0513915800935147,0.06835936800000009,2718.0,0.0,-15.0,0.0,0.0,0.0,1.649169753,1.0581103807411232,0.09033202199999968,2149.0,0.0,0.0,0.0,0.0,0.125,4.473876495,1.0531286753845253,0.09521483400000008,-2874.0,0.0,-15.0,0.0,0.0,0.125,2.6904294120000003,1.0568804089864132,0.07812499200000023,0.4099999964237213,-0.20999999344348907,166.8300018310547,0.11322021484375,-0.09576416015625,0.88580322265625,27.489999771118164,0.0,-136.0,-0.4355316162109375,-0.469390869140625,Closing,0.0,0.0,0.0,0.0,0.0,0.0,0.0,0.0,
3.912898000000001,0.0,0.0,2411.0,0.0,0.0,0.0,0.0,0.125,1.874999808,1.0513915800935147,0.0,2718.0,0.0,0.0,0.0,0.0,0.0,1.640624832,1.0581103807411232,0.023193356999999803,2149.0,0.0,0.0,0.0,0.0,0.125,4.464110871,1.0531286753845253,0.008544921000000372,-2881.0,0.0,-22.5,0.0,0.0,0.125,2.6904294120000003,1.0568804089864132,0.004882811999999959,0.3199999928474426,-0.15000000596046448,166.8000030517578,-0.01416015625,-0.09588623046875,1.12359619140625,27.489999771118164,0.0,-12.0,-0.4358062744140625,-0.4701995849609375,Closing,0.0,0.0,0.0,0.0,0.0,0.0,0.0,0.0,
3.954129000000001,0.0,0.0,2411.0,0.0,0.0,0.0,0.0,0.125,1.874999808,1.0513915800935147,0.0,2718.0,0.0,0.0,0.0,0.0,0.0,1.616210772,1.0581103807411232,0.023193356999999803,2149.0,0.0,0.0,0.0,0.0,0.0,4.454345247,1.0531286753845253,0.008544921000000372,-2881.0,0.0,-45.0,0.0,0.0,0.125,2.6916501150000003,1.0568804089864132,0.0,0.1899999976158142,-0.17000000178813934,166.75,-0.06488037109375,-0.063232421875,1.02569580078125,27.489999771118164,0.0,47.0,-0.4362945556640625,-0.470306396484375,Closing,0.0,0.0,0.0,0.0,0.0,0.0,0.0,0.0,
3.989524999999994,0.0,0.0,2411.0,0.0,0.0,0.0,0.0,0.125,1.874999808,1.0513915800935147,0.0,2718.0,0.0,0.0,0.0,0.0,0.0,1.6027830390000002,1.0581103807411232,-0.014648435999999876,2149.0,0.0,0.0,0.0,0.0,0.0,4.4433589200000005,1.0531286753845253,-0.007324217999999938,-2881.0,0.0,-45.0,0.0,0.0,0.125,2.6916501150000003,1.0568804089864132,0.0,0.07000000029802322,-0.30000001192092896,166.72999572753906,-0.021484375,-0.0135498046875,1.087646484375,27.510000228881836,0.0,11.0,-0.4363861083984375,-0.4698638916015625,Closing,0.0,0.0,0.0,0.0,0.0,0.0,0.0,0.0,
4.015625,0.0,0.0,2411.0,0.0,0.0,0.0,0.0,0.125,1.876220511,1.0513915800935147,0.0,2718.0,0.0,0.0,0.0,0.0,0.0,1.593017415,1.0581103807411232,-0.03295898099999972,2149.0,0.0,0.0,0.0,0.0,0.0,4.439696811,1.0531286753845253,-0.019531247999999835,-2881.0,0.0,-15.0,0.0,0.0,0.125,2.6904294120000003,1.0568804089864132,0.0,0.029999999329447746,-0.28999999165534973,166.75999450683594,0.0340576171875,0.0029296875,1.00408935546875,27.510000228881836,0.0,-37.0,-0.43646240234375,-0.4696044921875,Closing,0.0,0.0,0.0,0.0,0.0,0.0,0.0,0.0,
4.0534919999999985,0.0,0.0,2411.0,0.0,0.0,0.0,0.0,0.125,1.876220511,1.0513915800935147,0.0,2717.0,0.0,-7.5,0.0,0.0,0.0,1.588134603,1.0581103807411232,-0.03295898099999972,2149.0,0.0,0.0,0.0,0.0,0.0,4.429931187,1.0531286753845253,-0.004882811999999959,-2882.0,0.0,0.0,0.0,0.0,0.125,2.6916501150000003,1.0568804089864132,0.0,0.019999999552965164,-0.25,166.80999755859375,0.0203857421875,-0.00714111328125,1.0621337890625,27.510000228881836,0.0,-26.0,-0.4368133544921875,-0.4696044921875,Closing,0.0,0.0,0.0,0.0,0.0,0.0,0.0,0.0,
4.096202999999994,0.0,0.0,2411.0,0.0,0.0,0.0,0.0,0.125,1.876220511,1.0513915800935147,0.0,2717.0,0.0,0.0,0.0,0.0,0.0,1.591796712,1.0581103807411232,-0.009765624000000361,2149.0,0.0,0.0,0.0,0.0,0.0,4.429931187,1.0531286753845253,-0.004882811999999959,-2882.0,0.0,0.0,0.0,0.0,0.125,2.6916501150000003,1.0568804089864132,0.0,0.029999999329447746,-0.23999999463558197,166.77999877929688,-0.01611328125,0.0120849609375,0.99945068359375,27.510000228881836,0.0,14.0,-0.4371490478515625,-0.4696044921875,Closing,0.0,0.0,0.0,0.0,0.0,0.0,0.0,0.0,
4.131606,0.0,0.0,2411.0,0.0,0.0,0.0,0.0,0.125,1.874999808,1.0513915800935147,0.0,2717.0,0.0,0.0,0.0,0.0,0.0,1.588134603,1.0581103807411232,-0.004882811999999959,2149.0,0.0,0.0,0.0,0.0,0.0,4.423827672,1.0531286753845253,-0.009765623999999917,-2882.0,0.0,0.0,0.0,0.0,0.125,2.6916501150000003,1.0568804089864132,0.0,0.05000000074505806,-0.25999999046325684,166.74000549316406,-0.01123046875,0.016357421875,1.052001953125,27.510000228881836,0.0,9.0,-0.4371490478515625,-0.4696044921875,Closing,0.0,0.0,0.0,0.0,0.0,0.0,0.0,0.0,
4.1757320000000036,0.0,0.0,2411.0,0.0,0.0,0.0,0.0,0.125,1.876220511,1.0513915800935147,0.0,2717.0,0.0,0.0,0.0,0.0,0.0,1.5869139,1.0581103807411232,0.0,2149.0,0.0,0.0,0.0,0.0,0.0,4.423827672,1.0531286753845253,-0.004882812000000847,-2882.0,0.0,0.0,0.0,0.0,0.125,2.6916501150000003,1.0568804089864132,0.0,0.07000000029802322,-0.25,166.75999450683594,0.0174560546875,0.037109375,1.000732421875,27.510000228881836,0.0,-13.0,-0.4371490478515625,-0.4696502685546875,Closing,0.0,0.0,0.0,0.0,0.0,0.0,0.0,0.0,
4.234095000000001,0.0,0.0,2411.0,0.0,0.0,0.0,0.0,0.125,1.876220511,1.0513915800935147,0.0,2717.0,0.0,0.0,0.0,0.0,0.0,1.5820310880000001,1.0581103807411232,-0.003662108999999525,2149.0,0.0,0.0,0.0,0.0,0.125,4.425048375,1.0531286753845253,0.0,-2882.0,0.0,0.0,0.0,0.0,0.125,2.6916501150000003,1.0568804089864132,0.0,0.11999999731779099,-0.23000000417232513,166.7899932861328,0.00177001953125,0.01922607421875,1.00958251953125,27.510000228881836,0.0,-1.0,-0.4371490478515625,-0.47015380859375,Closing,0.0,0.0,0.0,0.0,0.0,0.0,0.0,0.0,
4.264535000000003,0.0,0.0,2411.0,0.0,0.0,0.0,0.0,0.125,1.876220511,1.0513915800935147,0.0,2717.0,0.0,0.0,0.0,0.0,0.0,1.5820310880000001,1.0581103807411232,-0.0012207030000004337,2149.0,0.0,0.0,0.0,0.0,0.125,4.423827672,1.0531286753845253,0.0,-2882.0,0.0,0.0,0.0,0.0,0.125,2.6904294120000003,1.0568804089864132,0.0,0.15000000596046448,-0.2199999988079071,166.75999450683594,0.00311279296875,0.018798828125,1.0379638671875,27.510000228881836,0.0,-3.0,-0.4371490478515625,-0.47015380859375,Closing,0.0,0.0,0.0,0.0,0.0,0.0,0.0,0.0,
4.311842999999993,0.0,0.0,2411.0,0.0,0.0,0.0,0.0,0.125,1.874999808,1.0513915800935147,0.0,2717.0,0.0,0.0,0.0,0.0,0.0,1.5832517910000001,1.0581103807411232,0.0,2149.0,0.0,0.0,0.0,0.0,0.125,4.425048375,1.0531286753845253,0.0,-2882.0,0.0,0.0,0.0,0.0,0.125,2.6916501150000003,1.0568804089864132,0.0,0.1599999964237213,-0.2199999988079071,166.75999450683594,-0.00567626953125,0.0081787109375,1.01568603515625,27.510000228881836,0.0,2.0,-0.4371490478515625,-0.47015380859375,Closing,0.0,0.0,0.0,0.0,0.0,0.0,0.0,0.0,
4.365376999999993,0.0,0.0,2411.0,0.0,0.0,0.0,0.0,0.125,1.874999808,1.0513915800935147,0.0,2717.0,0.0,0.0,0.0,0.0,0.0,1.5832517910000001,1.0581103807411232,0.0,2149.0,0.0,0.0,0.0,0.0,0.125,4.425048375,1.0531286753845253,0.0,-2882.0,0.0,0.0,0.0,0.0,0.125,2.6904294120000003,1.0568804089864132,0.0,0.17000000178813934,-0.23000000417232513,166.77999877929688,-0.002197265625,-6.103515625E-4,1.0257568359375,27.510000228881836,0.0,-2.0,-0.4371490478515625,-0.47015380859375,Closing,0.0,0.0,0.0,0.0,0.0,0.0,0.0,0.0,
4.397395000000004,0.0,0.0,2411.0,0.0,0.0,0.0,0.0,0.125,1.874999808,1.0513915800935147,0.0,2717.0,0.0,0.0,0.0,0.0,0.0,1.5820310880000001,1.0581103807411232,0.0,2149.0,0.0,0.0,0.0,0.0,0.125,4.425048375,1.0531286753845253,0.0,-2882.0,0.0,0.0,0.0,0.0,0.125,2.6916501150000003,1.0568804089864132,0.0,0.1599999964237213,-0.20999999344348907,166.77999877929688,0.00738525390625,-0.00177001953125,1.02947998046875,27.510000228881836,0.0,-12.0,-0.4371490478515625,-0.47015380859375,Closing,0.0,0.0,0.0,0.0,0.0,0.0,0.0,0.0,
4.445214999999997,0.0,0.0,2411.0,0.0,0.0,0.0,0.0,0.125,1.874999808,1.0513915800935147,0.0,2717.0,0.0,0.0,0.0,0.0,0.0,1.5820310880000001,1.0581103807411232,0.0,2149.0,0.0,0.0,0.0,0.0,0.125,4.425048375,1.0531286753845253,0.0012207030000004337,-2882.0,0.0,0.0,0.0,0.0,0.125,2.6916501150000003,1.0568804089864132,0.0,0.15000000596046448,-0.20999999344348907,166.77000427246094,-0.00909423828125,-5.4931640625E-4,1.0255126953125,27.510000228881836,0.0,4.0,-0.4371490478515625,-0.47015380859375,Closing,0.0,0.0,0.0,0.0,0.0,0.0,0.0,0.0,
4.473146999999997,0.0,0.0,2411.0,0.0,0.0,0.0,0.0,0.125,1.874999808,1.0513915800935147,0.0,2717.0,0.0,0.0,0.0,0.0,0.0,1.5820310880000001,1.0581103807411232,0.0,2149.0,0.0,0.0,0.0,0.0,0.125,4.425048375,1.0531286753845253,-0.0012207030000004337,-2882.0,0.0,0.0,0.0,0.0,0.125,2.6904294120000003,1.0568804089864132,0.0,0.15000000596046448,-0.2199999988079071,166.77000427246094,-0.004150390625,0.00390625,1.01422119140625,27.479999542236328,0.0,0.0,-0.4371490478515625,-0.47015380859375,Closing,0.0,0.0,0.0,0.0,0.0,0.0,0.0,0.0,
4.525201000000001,0.0,0.0,2411.0,0.0,0.0,0.0,0.0,0.125,1.874999808,1.0513915800935147,0.0,2717.0,0.0,0.0,0.0,0.0,0.0,1.5832517910000001,1.0581103807411232,0.0,2149.0,0.0,0.0,0.0,0.0,0.125,4.423827672,1.0531286753845253,0.0,-2882.0,0.0,0.0,0.0,0.0,0.125,2.6904294120000003,1.0568804089864132,0.0,0.15000000596046448,-0.20999999344348907,166.77000427246094,0.00439453125,0.00274658203125,1.0228271484375,27.479999542236328,0.0,-7.0,-0.4371490478515625,-0.47015380859375,Closing,0.0,0.0,0.0,0.0,0.0,0.0,0.0,0.0,
4.575837,0.0,0.0,2411.0,0.0,0.0,0.0,0.0,0.125,1.874999808,1.0513915800935147,0.0,2717.0,0.0,0.0,0.0,0.0,0.0,1.5820310880000001,1.0581103807411232,0.0,2149.0,0.0,0.0,0.0,0.0,0.125,4.425048375,1.0531286753845253,0.0,-2882.0,0.0,0.0,0.0,0.0,0.125,2.6904294120000003,1.0568804089864132,0.0,0.1599999964237213,-0.20999999344348907,166.77000427246094,-0.0067138671875,0.00665283203125,1.02655029296875,27.479999542236328,0.0,3.0,-0.4371490478515625,-0.47015380859375,Closing,0.0,0.0,0.0,0.0,0.0,0.0,0.0,0.0,
4.634078999999998,0.0,0.0,2411.0,0.0,0.0,0.0,0.0,0.125,1.874999808,1.0513915800935147,0.0,2717.0,0.0,0.0,0.0,0.0,0.0,1.5820310880000001,1.0581103807411232,0.0,2149.0,0.0,0.0,0.0,0.0,0.0,4.425048375,1.0531286753845253,0.0,-2882.0,0.0,0.0,0.0,0.0,0.125,2.6916501150000003,1.0568804089864132,0.0,0.17000000178813934,-0.20999999344348907,166.77000427246094,4.2724609375E-4,0.00616455078125,1.0350341796875,27.479999542236328,0.0,-3.0,-0.4371490478515625,-0.47015380859375,Closing,0.0,0.0,0.0,0.0,0.0,0.0,0.0,0.0,
4.666957999999998,0.0,0.0,2411.0,0.0,0.0,0.0,0.0,0.125,1.874999808,1.0513915800935147,0.0,2717.0,0.0,0.0,0.0,0.0,0.0,1.5820310880000001,1.0581103807411232,0.0,2149.0,0.0,0.0,0.0,0.0,0.125,4.425048375,1.0531286753845253,0.0,-2882.0,0.0,0.0,0.0,0.0,0.125,2.6892087090000003,1.0568804089864132,0.0,0.17000000178813934,-0.20999999344348907,166.77000427246094,0.00238037109375,0.00244140625,1.01983642578125,27.479999542236328,0.0,-6.0,-0.4371490478515625,-0.47015380859375,Closing,0.0,0.0,0.0,0.0,0.0,0.0,0.0,0.0,
4.710159,0.0,0.0,2411.0,0.0,0.0,0.0,0.0,0.125,1.874999808,1.0513915800935147,0.0,2717.0,0.0,0.0,0.0,0.0,0.0,1.5820310880000001,1.0581103807411232,0.0,2149.0,0.0,0.0,0.0,0.0,0.125,4.425048375,1.0531286753845253,0.0,-2882.0,0.0,0.0,0.0,0.0,0.125,2.6916501150000003,1.0568804089864132,0.0,0.17000000178813934,-0.20999999344348907,166.77000427246094,-0.00787353515625,0.00152587890625,1.03546142578125,27.479999542236328,0.0,3.0,-0.4371490478515625,-0.47015380859375,Closing,0.0,0.0,0.0,0.0,0.0,0.0,0.0,0.0,
4.746191999999995,0.0,0.0,2411.0,0.0,0.0,0.0,0.0,0.125,1.874999808,1.0513915800935147,0.0,2717.0,0.0,0.0,0.0,0.0,0.0,1.5820310880000001,1.0581103807411232,0.0,2149.0,0.0,0.0,0.0,0.0,0.125,4.425048375,1.0531286753845253,0.0,-2882.0,0.0,0.0,0.0,0.0,0.125,2.6904294120000003,1.0568804089864132,0.0,0.1599999964237213,-0.20999999344348907,166.77000427246094,-0.00469970703125,0.00299072265625,1.0167236328125,27.479999542236328,0.0,0.0,-0.4371490478515625,-0.47015380859375,Closing,0.0,0.0,0.0,0.0,0.0,0.0,0.0,0.0,
4.784914000000004,0.0,0.0,2411.0,0.0,0.0,0.0,0.0,0.125,1.876220511,1.0513915800935147,0.0,2717.0,0.0,0.0,0.0,0.0,0.0,1.5832517910000001,1.0581103807411232,0.0,2149.0,0.0,0.0,0.0,0.0,0.125,4.425048375,1.0531286753845253,0.0,-2882.0,0.0,0.0,0.0,0.0,0.125,2.6916501150000003,1.0568804089864132,0.0,0.17000000178813934,-0.20000000298023224,166.77000427246094,-0.0010986328125,0.00445556640625,1.022705078125,27.479999542236328,0.0,-2.0,-0.4371490478515625,-0.47015380859375,Closing,0.0,0.0,0.0,0.0,0.0,0.0,0.0,0.0,
4.840241999999998,0.0,0.0,2411.0,0.0,0.0,0.0,0.0,0.125,1.876220511,1.0513915800935147,0.0,2717.0,0.0,0.0,0.0,0.0,0.0,1.5820310880000001,1.0581103807411232,0.0,2149.0,0.0,0.0,0.0,0.0,0.125,4.425048375,1.0531286753845253,0.0,-2882.0,0.0,0.0,0.0,0.0,0.125,2.6904294120000003,1.0568804089864132,0.0,0.17000000178813934,-0.20000000298023224,166.77000427246094,-0.0048828125,0.00848388671875,1.0272216796875,27.479999542236328,0.0,2.0,-0.4371490478515625,-0.47015380859375,Closing,0.0,0.0,0.0,0.0,0.0,0.0,0.0,0.0,
4.867752999999997,0.0,0.0,2411.0,0.0,0.0,0.0,0.0,0.125,1.874999808,1.0513915800935147,0.0,2717.0,0.0,0.0,0.0,0.0,0.0,1.5820310880000001,1.0581103807411232,0.0,2149.0,0.0,0.0,0.0,0.0,0.125,4.425048375,1.0531286753845253,0.0,-2882.0,0.0,0.0,0.0,0.0,0.125,2.6904294120000003,1.0568804089864132,0.0,0.18000000715255737,-0.20000000298023224,166.77000427246094,-0.00152587890625,0.00653076171875,1.03033447265625,27.479999542236328,0.0,-1.0,-0.4371490478515625,-0.47015380859375,Closing,0.0,0.0,0.0,0.0,0.0,0.0,0.0,0.0,
4.911236999999994,0.0,0.0,2411.0,0.0,0.0,0.0,0.0,0.125,1.876220511,1.0513915800935147,0.0,2717.0,0.0,0.0,0.0,0.0,0.0,1.5820310880000001,1.0581103807411232,0.0,2149.0,0.0,0.0,0.0,0.0,0.125,4.425048375,1.0531286753845253,0.0,-2882.0,0.0,0.0,0.0,0.0,0.125,2.6916501150000003,1.0568804089864132,0.0,0.18000000715255737,-0.20000000298023224,166.77000427246094,0.00396728515625,0.00274658203125,1.0230712890625,27.479999542236328,0.0,-7.0,-0.4371490478515625,-0.47015380859375,Closing,0.0,0.0,0.0,0.0,0.0,0.0,0.0,0.0,
4.9669919999999985,0.0,0.0,2411.0,0.0,0.0,0.0,0.0,0.125,1.876220511,1.0513915800935147,0.0,2717.0,0.0,0.0,0.0,0.0,0.0,1.5820310880000001,1.0581103807411232,0.0,2149.0,0.0,0.0,0.0,0.0,0.125,4.425048375,1.0531286753845253,0.0,-2882.0,0.0,0.0,0.0,0.0,0.125,2.6904294120000003,1.0568804089864132,0.0,0.17000000178813934,-0.1899999976158142,166.77000427246094,-0.00433349609375,0.005859375,1.02685546875,27.479999542236328,0.0,1.0,-0.4371490478515625,-0.47015380859375,Closing,0.0,0.0,0.0,0.0,0.0,0.0,0.0,0.0,
4.995111000000004,0.0,0.0,2411.0,0.0,0.0,0.0,0.0,0.125,1.876220511,1.0513915800935147,0.0,2717.0,0.0,0.0,0.0,0.0,0.0,1.5820310880000001,1.0581103807411232,0.0,2149.0,0.0,0.0,0.0,0.0,0.125,4.425048375,1.0531286753845253,0.0,-2882.0,0.0,0.0,0.0,0.0,0.125,2.6904294120000003,1.0568804089864132,0.0,0.17000000178813934,-0.1899999976158142,166.77000427246094,-0.00164794921875,-5.4931640625E-4,1.02496337890625,27.510000228881836,0.0,-2.0,-0.4371490478515625,-0.47015380859375,Closing,0.0,0.0,0.0,0.0,0.0,0.0,0.0,0.0,
5.031527000000002,0.0,0.0,2411.0,0.0,0.0,0.0,0.0,0.125,1.874999808,1.0513915800935147,0.0,2717.0,0.0,0.0,0.0,0.0,0.0,1.5820310880000001,1.0581103807411232,0.0,2149.0,0.0,0.0,0.0,0.0,0.125,4.425048375,1.0531286753845253,0.0,-2882.0,0.0,0.0,0.0,0.0,0.125,2.6904294120000003,1.0568804089864132,0.0,0.17000000178813934,-0.1899999976158142,166.77000427246094,1.220703125E-4,0.00537109375,1.0220947265625,27.510000228881836,0.0,-4.0,-0.4371490478515625,-0.47015380859375,Closing,0.0,0.0,0.0,0.0,0.0,0.0,0.0,0.0,
5.067263000000006,0.0,0.0,2411.0,0.0,0.0,0.0,0.0,0.125,1.874999808,1.0513915800935147,0.0,2717.0,0.0,0.0,0.0,0.0,0.0,1.5820310880000001,1.0581103807411232,0.0,2149.0,0.0,0.0,0.0,0.0,0.125,4.425048375,1.0531286753845253,0.0,-2882.0,0.0,0.0,0.0,0.0,0.125,2.6916501150000003,1.0568804089864132,0.0,0.17000000178813934,-0.18000000715255737,166.77000427246094,-0.00250244140625,0.00653076171875,1.0308837890625,27.510000228881836,0.0,0.0,-0.4371490478515625,-0.47015380859375,Closing,0.0,0.0,0.0,0.0,0.0,0.0,0.0,0.0,
5.116781000000002,0.0,0.0,2411.0,0.0,0.0,0.0,0.0,0.125,1.874999808,1.0513915800935147,0.0,2717.0,0.0,0.0,0.0,0.0,0.0,1.5820310880000001,1.0581103807411232,0.0,2149.0,0.0,0.0,0.0,0.0,0.125,4.426269078,1.0531286753845253,0.0,-2882.0,0.0,0.0,0.0,0.0,0.125,2.6916501150000003,1.0568804089864132,0.0,0.17000000178813934,-0.18000000715255737,166.77000427246094,-0.00372314453125,0.0028076171875,1.033935546875,27.510000228881836,0.0,0.0,-0.4371490478515625,-0.47015380859375,Closing,0.0,0.0,0.0,0.0,0.0,0.0,0.0,0.0,
5.151709000000003,0.0,0.0,2411.0,0.0,0.0,0.0,0.0,0.125,1.874999808,1.0513915800935147,0.0,2717.0,0.0,0.0,0.0,0.0,0.0,1.5832517910000001,1.0581103807411232,0.0,2149.0,0.0,0.0,0.0,0.0,0.125,4.426269078,1.0531286753845253,0.0,-2882.0,0.0,0.0,0.0,0.0,0.125,2.6904294120000003,1.0568804089864132,0.0,0.18000000715255737,-0.18000000715255737,166.77000427246094,0.0,0.0037841796875,1.0272216796875,27.510000228881836,0.0,-3.0,-0.4371490478515625,-0.47015380859375,Closing,0.0,0.0,0.0,0.0,0.0,0.0,0.0,0.0,
5.189111000000004,0.0,0.0,2411.0,0.0,0.0,0.0,0.0,0.125,1.874999808,1.0513915800935147,0.0,2717.0,0.0,0.0,0.0,0.0,0.0,1.5820310880000001,1.0581103807411232,0.0,2149.0,0.0,0.0,0.0,0.0,0.125,4.425048375,1.0531286753845253,0.0,-2882.0,0.0,0.0,0.0,0.0,0.125,2.6916501150000003,1.0568804089864132,0.0,0.18000000715255737,-0.18000000715255737,166.77000427246094,-0.0068359375,0.0037841796875,1.0240478515625,27.510000228881836,0.0,3.0,-0.4371490478515625,-0.47015380859375,Closing,0.0,0.0,0.0,0.0,0.0,0.0,0.0,0.0,
5.2447719999999975,0.0,0.0,2411.0,0.0,0.0,0.0,0.0,0.125,1.876220511,1.0513915800935147,0.0,2717.0,0.0,0.0,0.0,0.0,0.0,1.5832517910000001,1.0581103807411232,0.0,2149.0,0.0,0.0,0.0,0.0,0.125,4.425048375,1.0531286753845253,0.0,-2882.0,0.0,0.0,0.0,0.0,0.125,2.6904294120000003,1.0568804089864132,0.0,0.18000000715255737,-0.18000000715255737,166.77000427246094,2.44140625E-4,0.00201416015625,1.025146484375,27.510000228881836,0.0,-3.0,-0.4371490478515625,-0.47015380859375,Closing,0.0,0.0,0.0,0.0,0.0,0.0,0.0,0.0,
5.269539000000004,0.0,0.0,2411.0,0.0,0.0,0.0,0.0,0.125,1.876220511,1.0513915800935147,0.0,2717.0,0.0,0.0,0.0,0.0,0.0,1.5820310880000001,1.0581103807411232,0.0,2149.0,0.0,0.0,0.0,0.0,0.125,4.423827672,1.0531286753845253,0.0,-2882.0,0.0,0.0,0.0,0.0,0.125,2.6904294120000003,1.0568804089864132,0.0,0.18000000715255737,-0.18000000715255737,166.77000427246094,-0.00177001953125,0.00372314453125,1.02874755859375,27.510000228881836,0.0,-1.0,-0.4371490478515625,-0.47015380859375,Closing,0.0,0.0,0.0,0.0,0.0,0.0,0.0,0.0,
5.315976999999999,0.0,0.0,2411.0,0.0,0.0,0.0,0.0,0.125,1.874999808,1.0513915800935147,0.0,2717.0,0.0,0.0,0.0,0.0,0.0,1.5820310880000001,1.0581103807411232,0.0,2149.0,0.0,0.0,0.0,0.0,0.125,4.423827672,1.0531286753845253,0.0,-2882.0,0.0,0.0,0.0,0.0,0.125,2.6916501150000003,1.0568804089864132,0.0,0.18000000715255737,-0.18000000715255737,166.75999450683594,-0.0035400390625,0.00372314453125,1.02911376953125,27.510000228881836,0.0,0.0,-0.4371490478515625,-0.47015380859375,Closing,0.0,0.0,0.0,0.0,0.0,0.0,0.0,0.0,
5.373535000000003,0.0,0.0,2411.0,0.0,0.0,0.0,0.0,0.125,1.874999808,1.0513915800935147,0.0,2717.0,0.0,0.0,0.0,0.0,0.0,1.5832517910000001,1.0581103807411232,0.0,2149.0,0.0,0.0,0.0,0.0,0.125,4.425048375,1.0531286753845253,0.0012207030000004337,-2882.0,0.0,0.0,0.0,0.0,0.125,2.6904294120000003,1.0568804089864132,0.0,0.18000000715255737,-0.18000000715255737,166.75999450683594,-0.00115966796875,0.0052490234375,1.024658203125,27.510000228881836,0.0,-1.0,-0.4371490478515625,-0.47015380859375,Closing,0.0,0.0,0.0,0.0,0.0,0.0,0.0,0.0,
5.43536,0.0,0.0,2411.0,0.0,0.0,0.0,0.0,0.125,1.874999808,1.0513915800935147,0.0,2717.0,0.0,0.0,0.0,0.0,0.0,1.5820310880000001,1.0581103807411232,0.0,2149.0,0.0,0.0,0.0,0.0,0.125,4.425048375,1.0531286753845253,0.0,-2882.0,0.0,0.0,0.0,0.0,0.125,2.6904294120000003,1.0568804089864132,0.0,0.18000000715255737,-0.18000000715255737,166.75999450683594,-0.00274658203125,0.00421142578125,1.0247802734375,27.510000228881836,0.0,0.0,-0.4371490478515625,-0.47015380859375,Closing,0.0,0.0,0.0,0.0,0.0,0.0,0.0,0.0,
5.468129000000001,0.0,0.0,2411.0,0.0,0.0,0.0,0.0,0.125,1.876220511,1.0513915800935147,0.0,2717.0,0.0,0.0,0.0,0.0,0.0,1.5820310880000001,1.0581103807411232,0.0,2149.0,0.0,0.0,0.0,0.0,0.125,4.423827672,1.0531286753845253,0.0,-2882.0,0.0,0.0,0.0,0.0,0.125,2.6916501150000003,1.0568804089864132,0.0,0.18000000715255737,-0.18000000715255737,166.75999450683594,-4.8828125E-4,0.00335693359375,1.029296875,27.510000228881836,0.0,-2.0,-0.4371490478515625,-0.47015380859375,Closing,0.0,0.0,0.0,0.0,0.0,0.0,0.0,0.0,
5.5136490000000045,0.0,0.0,2411.0,0.0,0.0,0.0,0.0,0.125,1.874999808,1.0513915800935147,0.0,2717.0,0.0,0.0,0.0,0.0,0.0,1.5820310880000001,1.0581103807411232,0.0,2149.0,0.0,0.0,0.0,0.0,0.125,4.425048375,1.0531286753845253,-0.0012207030000004337,-2882.0,0.0,0.0,0.0,0.0,0.125,2.6916501150000003,1.0568804089864132,0.0,0.18000000715255737,-0.18000000715255737,166.75999450683594,-0.00262451171875,5.4931640625E-4,1.02545166015625,27.489999771118164,0.0,-1.0,-0.4371490478515625,-0.47015380859375,Closing,0.0,0.0,0.0,0.0,0.0,0.0,0.0,0.0,
5.552407999999996,0.0,0.0,2411.0,0.0,0.0,0.0,0.0,0.125,1.876220511,1.0513915800935147,0.0,2717.0,0.0,0.0,0.0,0.0,0.0,1.5820310880000001,1.0581103807411232,0.0,2149.0,0.0,0.0,0.0,0.0,0.125,4.423827672,1.0531286753845253,-0.0012207030000004337,-2882.0,0.0,0.0,0.0,0.0,0.125,2.6916501150000003,1.0568804089864132,0.0,0.18000000715255737,-0.18000000715255737,166.75999450683594,-0.00433349609375,0.0059814453125,1.0264892578125,27.489999771118164,0.0,1.0,-0.4371490478515625,-0.47015380859375,Closing,0.0,0.0,0.0,0.0,0.0,0.0,0.0,0.0,
5.590100000000006,0.0,0.0,2411.0,0.0,0.0,0.0,0.0,0.125,1.874999808,1.0513915800935147,0.0,2717.0,0.0,0.0,0.0,0.0,0.0,1.5820310880000001,1.0581103807411232,0.0,2149.0,0.0,0.0,0.0,0.0,0.125,4.425048375,1.0531286753845253,0.0,-2882.0,0.0,0.0,0.0,0.0,0.125,2.6916501150000003,1.0568804089864132,0.0,0.18000000715255737,-0.18000000715255737,166.75999450683594,-0.00238037109375,0.004638671875,1.030029296875,27.489999771118164,0.0,0.0,-0.4371490478515625,-0.47015380859375,Closing,0.0,0.0,0.0,0.0,0.0,0.0,0.0,0.0,
